[
  {
    "id": "630018257",
    "name": "3C COMMUNITY CLINIC",
    "npi": null,
    "hcaiId": "306190639",
    "businessName": "3C COMMUNITY CLINIC",
    "contactEmail": "INFO@3CCLINIC.ORG",
    "categoryName": "PRIMARY CARE CLINIC",
    "categoryCode": "COMTYC",
    "licenseStatus": "ACTIVE",
    "inService": true,
    "licenseNumber": "550005976",
    "licenseEffectiveDate": "07/01/2025",
    "licenseExpirationDate": "12/08/2025",
    "dataDate": "10/18/2025",
    "capacity": 0,
    "address": "3030 W OLYMPIC BLVD, SUITE 206",
    "city": "LOS ANGELES",
    "zip": "90006",
    "county": "LOS ANGELES",
    "phone": "(213) 322-2666",
    "lat": 34.0524,
    "lng": -118.3012965
  },
  {
    "id": "970000121",
    "name": "ALDEN TERRACE CONVALESCENT HOSPITAL",
    "npi": "1568544781",
    "hcaiId": "206190013",
    "businessName": "ALDEN ENTERPRISES LLC",
    "contactEmail": "FAC09ADMIN@LONGWOODMGMT.COM",
    "categoryName": "SKILLED NURSING FACILITY",
    "categoryCode": "SNF",
    "licenseStatus": "ACTIVE",
    "inService": true,
    "licenseNumber": "970000060",
    "licenseEffectiveDate": "01/01/2025",
    "licenseExpirationDate": "12/31/2025",
    "dataDate": "10/18/2025",
    "capacity": 210,
    "address": "1240 S HOOVER ST",
    "city": "LOS ANGELES",
    "zip": "90006",
    "county": "LOS ANGELES",
    "phone": "(213) 382-8461",
    "lat": 34.048215,
    "lng": -118.2839535
  },
  {
    "id": "630020023",
    "name": "ALTAMED MEDICAL GROUP - NORTHGATE MARKET, OLYMPIC",
    "npi": null,
    "hcaiId": null,
    "businessName": "ALTAMED HEALTH SERVICES CORPORATION",
    "contactEmail": null,
    "categoryName": "PRIMARY CARE CLINIC",
    "categoryCode": "COMTYC",
    "licenseStatus": "ACTIVE",
    "inService": true,
    "licenseNumber": "550005159",
    "licenseEffectiveDate": "12/20/2024",
    "licenseExpirationDate": "12/19/2025",
    "dataDate": "10/18/2025",
    "capacity": 0,
    "address": "2323 W OLYMPIC BLVD, SUITE 102",
    "city": "LOS ANGELES",
    "zip": "90006",
    "county": "LOS ANGELES",
    "phone": null,
    "lat": 34.052499,
    "lng": -118.283121
  },
  {
    "id": "970000129",
    "name": "ALVARADO CARE CENTER",
    "npi": "1831724509",
    "hcaiId": "206190120",
    "businessName": "ALVARADO TERRACE CARE CENTER, LLC",
    "contactEmail": "ADMINISTRATOR@ALVARADOCC.COM",
    "categoryName": "SKILLED NURSING FACILITY",
    "categoryCode": "SNF",
    "licenseStatus": "ACTIVE",
    "inService": true,
    "licenseNumber": "970000064",
    "licenseEffectiveDate": "01/09/2025",
    "licenseExpirationDate": "01/08/2026",
    "dataDate": "10/18/2025",
    "capacity": 72,
    "address": "1154 S ALVARADO ST",
    "city": "LOS ANGELES",
    "zip": "90006",
    "county": "LOS ANGELES",
    "phone": "(213) 385-1715",
    "lat": 34.048854,
    "lng": -118.281438
  },
  {
    "id": "630014309",
    "name": "AMH COMPREHENSIVE MEDICAL CENTERS",
    "npi": "1306194105",
    "hcaiId": "306190773",
    "businessName": "AMH COMPREHENSIVE MEDICAL CENTERS",
    "contactEmail": "J_ARGAME@MSN.COM",
    "categoryName": "PRIMARY CARE CLINIC",
    "categoryCode": "COMTYC",
    "licenseStatus": "ACTIVE",
    "inService": true,
    "licenseNumber": "550002382",
    "licenseEffectiveDate": "09/04/2025",
    "licenseExpirationDate": "09/03/2026",
    "dataDate": "10/18/2025",
    "capacity": 0,
    "address": "937 S ALVARADO ST, SUITE 1-D AND 1-E",
    "city": "LOS ANGELES",
    "zip": "90006",
    "county": "LOS ANGELES",
    "phone": "(213) 484-8786",
    "lat": 34.05256199,
    "lng": -118.27984
  },
  {
    "id": "970000131",
    "name": "CALIFORNIA POST ACUTE",
    "npi": "1356895130",
    "hcaiId": "206190123",
    "businessName": "CALIFORNIA POST ACUTE LLC",
    "contactEmail": "MIKEB@CAPAHEALTH.COM",
    "categoryName": "SKILLED NURSING FACILITY",
    "categoryCode": "SNF",
    "licenseStatus": "ACTIVE",
    "inService": true,
    "licenseNumber": "970000065",
    "licenseEffectiveDate": "12/22/2024",
    "licenseExpirationDate": "12/21/2025",
    "dataDate": "10/18/2025",
    "capacity": 66,
    "address": "909 S LAKE ST",
    "city": "LOS ANGELES",
    "zip": "90006",
    "county": "LOS ANGELES",
    "phone": "(213) 385-7301",
    "lat": 34.053633,
    "lng": -118.2802185
  },
  {
    "id": "630027027",
    "name": "DELUXE HOME HEALTH, INC.",
    "npi": null,
    "hcaiId": null,
    "businessName": "DELUXE HOME HEALTH INC.",
    "contactEmail": "DELUXEHHA@GMAIL.COM",
    "categoryName": "HOME HEALTH AGENCY",
    "categoryCode": "HHA",
    "licenseStatus": "ACTIVE",
    "inService": true,
    "licenseNumber": "550009379",
    "licenseEffectiveDate": "03/09/2025",
    "licenseExpirationDate": "09/08/2025",
    "dataDate": "10/18/2025",
    "capacity": 0,
    "address": "2140 W OLYMPIC BLVD, SUITE 532",
    "city": "LOS ANGELES",
    "zip": "90006",
    "county": "LOS ANGELES",
    "phone": "(747) 226-7733",
    "lat": 34.051833,
    "lng": -118.2806145
  },
  {
    "id": "980002382",
    "name": "HANA HOME CARE",
    "npi": "1356583983",
    "hcaiId": "406196492",
    "businessName": "RODAN HOME HEALTH SERVICES, INC.",
    "contactEmail": "RODANHH10@GMAIL.COM",
    "categoryName": "HOME HEALTH AGENCY",
    "categoryCode": "HHA",
    "licenseStatus": "ACTIVE",
    "inService": true,
    "licenseNumber": "980001492",
    "licenseEffectiveDate": "10/01/2023",
    "licenseExpirationDate": "09/30/2024",
    "dataDate": "10/18/2025",
    "capacity": 0,
    "address": "2140 W OLYMPIC BLVD, SUITE 501",
    "city": "LOS ANGELES",
    "zip": "90006",
    "county": "LOS ANGELES",
    "phone": "(213) 383-6333",
    "lat": 34.051693,
    "lng": -118.280917
  },
  {
    "id": "930001596",
    "name": "JHS ENDOSCOPY MEDICAL CENTER",
    "npi": "1457530784",
    "hcaiId": "306194997",
    "businessName": "J. H. SUH, M.D., INC.",
    "contactEmail": "JINHOSUH2002@YAHOO.COM",
    "categoryName": "SURGICAL CLINIC",
    "categoryCode": "ASC",
    "licenseStatus": "INACTIVE - CAPEN DECISION",
    "inService": false,
    "licenseNumber": "930000894",
    "licenseEffectiveDate": "11/20/2007",
    "licenseExpirationDate": "11/19/2008",
    "dataDate": "10/18/2025",
    "capacity": 0,
    "address": "2970 W OLYMPIC BLVD, SUITE 301",
    "city": "LOS ANGELES",
    "zip": "90006",
    "county": "LOS ANGELES",
    "phone": "(213) 380-5111",
    "lat": 34.052409,
    "lng": -118.29951
  },
  {
    "id": "630017848",
    "name": "KOREATOWN ADULT DAY HEALTH CARE CENTER",
    "npi": null,
    "hcaiId": null,
    "businessName": "KOREATOWN COMMUNITY BASED ADULT SERVICES, INC.",
    "contactEmail": "KOREATOWNADHC@YAHOO.COM",
    "categoryName": "ADULT DAY HEALTH CARE",
    "categoryCode": "ADHC",
    "licenseStatus": "ACTIVE",
    "inService": true,
    "licenseNumber": "550004761",
    "licenseEffectiveDate": "06/10/2025",
    "licenseExpirationDate": "06/09/2026",
    "dataDate": "10/18/2025",
    "capacity": 0,
    "address": "2140 W OLYMPIC BLVD, SUITE 100",
    "city": "LOS ANGELES",
    "zip": "90006",
    "county": "LOS ANGELES",
    "phone": "(213) 378-0101",
    "lat": 34.051833,
    "lng": -118.2806145
  },
  {
    "id": "960000179",
    "name": "KORYO HEALTH FOUNDATION",
    "npi": "1952460156",
    "hcaiId": "306191373",
    "businessName": "KORYO HEALTH FOUNDATION",
    "contactEmail": "MKCLINIC@HOTMAIL.COM",
    "categoryName": "PRIMARY CARE CLINIC",
    "categoryCode": "COMTYC",
    "licenseStatus": "ACTIVE",
    "inService": true,
    "licenseNumber": "960000265",
    "licenseEffectiveDate": "11/15/2024",
    "licenseExpirationDate": "11/14/2025",
    "dataDate": "10/18/2025",
    "capacity": 0,
    "address": "2655 W OLYMPIC BLVD, SUITE 101",
    "city": "LOS ANGELES",
    "zip": "90006",
    "county": "LOS ANGELES",
    "phone": "(213) 380-8833",
    "lat": 34.05262901,
    "lng": -118.289961
  },
  {
    "id": "060001903",
    "name": "LOS ANGELES ADHC CENTER",
    "npi": null,
    "hcaiId": null,
    "businessName": "LHP ADULT DAY CARE CENTER, INC.",
    "contactEmail": "LAADHCC@HOTMAIL.COM",
    "categoryName": "ADULT DAY HEALTH CARE",
    "categoryCode": "ADHC",
    "licenseStatus": "ACTIVE",
    "inService": true,
    "licenseNumber": "060000720",
    "licenseEffectiveDate": "11/15/2024",
    "licenseExpirationDate": "11/14/2025",
    "dataDate": "10/18/2025",
    "capacity": 0,
    "address": "3060 W OLYMPIC BLVD, SUITE 120",
    "city": "LOS ANGELES",
    "zip": "90006",
    "county": "LOS ANGELES",
    "phone": "(213) 384-3224",
    "lat": 34.052418,
    "lng": -118.3022145
  },
  {
    "id": "630015638",
    "name": "LOS ANGELES COMMUNITY CLINIC, INC.",
    "npi": "1609280346",
    "hcaiId": "306198083",
    "businessName": "LOS ANGELES COMMUNITY CLINIC, INC.",
    "contactEmail": "LACOMMUNITYCLINIC@YAHOO.COM",
    "categoryName": "PRIMARY CARE CLINIC",
    "categoryCode": "COMTYC",
    "licenseStatus": "ACTIVE",
    "inService": true,
    "licenseNumber": "550003142",
    "licenseEffectiveDate": "09/23/2022",
    "licenseExpirationDate": "07/14/2023",
    "dataDate": "10/18/2025",
    "capacity": 0,
    "address": "1830 W. OLYMPIC BLVD., UNIT 124",
    "city": "LOS ANGELES",
    "zip": "90006",
    "county": "LOS ANGELES",
    "phone": "(213) 383-1183",
    "lat": 34.050447,
    "lng": -118.277523
  },
  {
    "id": "630017456",
    "name": "MISSION CITY COMMUNITY NETWORK, INC. - OLYMPIC",
    "npi": null,
    "hcaiId": null,
    "businessName": null,
    "contactEmail": "NIKG@MCCN.ORG",
    "categoryName": "PRIMARY CARE CLINIC",
    "categoryCode": "COMTYC",
    "licenseStatus": null,
    "inService": null,
    "licenseNumber": null,
    "licenseEffectiveDate": null,
    "licenseExpirationDate": null,
    "dataDate": "10/18/2025",
    "capacity": 0,
    "address": "2665 W OLYMPIC BLVD",
    "city": "LOS ANGELES",
    "zip": "90006",
    "county": "LOS ANGELES",
    "phone": "(818) 895-3100",
    "lat": 34.05247181,
    "lng": -118.2902089
  },
  {
    "id": "970000145",
    "name": "OLYMPIA CONVALESCENT HOSPITAL",
    "npi": "1114291523",
    "hcaiId": "206190577",
    "businessName": "1100 SOUTH ALVARADO STREET, LLC",
    "contactEmail": "BERELEW@GMAIL.COM",
    "categoryName": "SKILLED NURSING FACILITY",
    "categoryCode": "SNF",
    "licenseStatus": "ACTIVE",
    "inService": true,
    "licenseNumber": "970000072",
    "licenseEffectiveDate": "05/09/2025",
    "licenseExpirationDate": "05/08/2026",
    "dataDate": "10/18/2025",
    "capacity": 135,
    "address": "1100 S ALVARADO ST",
    "city": "LOS ANGELES",
    "zip": "90006",
    "county": "LOS ANGELES",
    "phone": "(818) 749-9101",
    "lat": 34.049853,
    "lng": -118.28034
  },
  {
    "id": "630025345",
    "name": "PLANNED PARENTHOOD LOS ANGELES - KOREATOWN CENTER",
    "npi": null,
    "hcaiId": "306190698",
    "businessName": "PLANNED PARENTHOOD LOS ANGELES",
    "contactEmail": "BRENDA.GUERRERO@PP-LA.ORG",
    "categoryName": "PRIMARY CARE CLINIC",
    "categoryCode": "COMTYC",
    "licenseStatus": "ACTIVE",
    "inService": true,
    "licenseNumber": "550008096",
    "licenseEffectiveDate": "08/02/2025",
    "licenseExpirationDate": "08/01/2026",
    "dataDate": "10/18/2025",
    "capacity": 0,
    "address": "3224 W OLYMPIC BLVD, SUITE 101",
    "city": "LOS ANGELES",
    "zip": "90006",
    "county": "LOS ANGELES",
    "phone": "(213) 284-3200",
    "lat": 34.0522504,
    "lng": -118.3070617
  },
  {
    "id": "630013713",
    "name": "PROMISE HOSPICE, INC.",
    "npi": null,
    "hcaiId": "406197862",
    "businessName": "PROMISE HOSPICE, INC.",
    "contactEmail": "PROMISEHOSPICE@YMAIL.COM",
    "categoryName": "HOSPICE",
    "categoryCode": "HOSPICE",
    "licenseStatus": "ACTIVE",
    "inService": true,
    "licenseNumber": "550002164",
    "licenseEffectiveDate": "12/28/2024",
    "licenseExpirationDate": "12/27/2026",
    "dataDate": "10/18/2025",
    "capacity": 0,
    "address": "2140 W OLYMPIC BLVD, SUITE 326",
    "city": "LOS ANGELES",
    "zip": "90006",
    "county": "LOS ANGELES",
    "phone": "(310) 205-2587",
    "lat": 34.051833,
    "lng": -118.2806145
  },
  {
    "id": "630014911",
    "name": "RAFAELLA HOSPICE, INC.",
    "npi": "1295157394",
    "hcaiId": "406198190",
    "businessName": "RAFAELLA HOSPICE, INC.",
    "contactEmail": "RAFAELLAHOSPICEINC@GMAIL.COM",
    "categoryName": "HOSPICE",
    "categoryCode": "HOSPICE",
    "licenseStatus": "ACTIVE",
    "inService": true,
    "licenseNumber": "550003365",
    "licenseEffectiveDate": "05/29/2025",
    "licenseExpirationDate": "12/15/2025",
    "dataDate": "10/18/2025",
    "capacity": 0,
    "address": "3071 W OLYMPIC BLVD, SUITE 101",
    "city": "LOS ANGELES",
    "zip": "90006",
    "county": "LOS ANGELES",
    "phone": "(213) 277-1333",
    "lat": 34.05292698,
    "lng": -118.302484
  },
  {
    "id": "980002356",
    "name": "SELECT CARE HOME HEALTH SERVICES, INC.",
    "npi": null,
    "hcaiId": "406196386",
    "businessName": "SELECT CARE HOME HEALTH SERVICES, INC.",
    "contactEmail": "SELECTCAREHHA@GMAIL.COM",
    "categoryName": "HOME HEALTH AGENCY",
    "categoryCode": "HHA",
    "licenseStatus": "ACTIVE",
    "inService": true,
    "licenseNumber": "980001466",
    "licenseEffectiveDate": "09/29/2025",
    "licenseExpirationDate": "09/28/2026",
    "dataDate": "10/18/2025",
    "capacity": 0,
    "address": "3071 W OLYMPIC BLVD, UNIT 102",
    "city": "LOS ANGELES",
    "zip": "90006",
    "county": "LOS ANGELES",
    "phone": "(213) 389-3582",
    "lat": 34.05287728,
    "lng": -118.3025285
  },
  {
    "id": "960002646",
    "name": "ST. ANTHONY MEDICAL CENTERS - PICO CLINIC",
    "npi": null,
    "hcaiId": "306196166",
    "businessName": "ST. ANTHONY MEDICAL CENTERS",
    "contactEmail": "GFAHMY@STAMC.ORG",
    "categoryName": "PRIMARY CARE CLINIC",
    "categoryCode": "COMTYC",
    "licenseStatus": "ACTIVE",
    "inService": true,
    "licenseNumber": "550007255",
    "licenseEffectiveDate": "11/17/2024",
    "licenseExpirationDate": "11/16/2025",
    "dataDate": "10/18/2025",
    "capacity": 0,
    "address": "2515 W PICO BLVD",
    "city": "LOS ANGELES",
    "zip": "90006",
    "county": "LOS ANGELES",
    "phone": "(213) 384-9555",
    "lat": 34.047477,
    "lng": -118.292265
  },
  {
    "id": "630014461",
    "name": "STARLINE HOSPICE, INC.",
    "npi": "1588009088",
    "hcaiId": "406198218",
    "businessName": "STARLINE HOSPICE, INC.",
    "contactEmail": "STARLINEHOSPICE@YAHOO.COM",
    "categoryName": "HOSPICE",
    "categoryCode": "HOSPICE",
    "licenseStatus": "ACTIVE",
    "inService": true,
    "licenseNumber": "550002796",
    "licenseEffectiveDate": "08/08/2024",
    "licenseExpirationDate": "08/07/2026",
    "dataDate": "10/18/2025",
    "capacity": 0,
    "address": "3053 W OLYMPIC BLVD, SUITE 207A",
    "city": "LOS ANGELES",
    "zip": "90006",
    "county": "LOS ANGELES",
    "phone": "(213) 674-7555",
    "lat": 34.052778,
    "lng": -118.30185
  },
  {
    "id": "060001822",
    "name": "WESTERN ADULT DAY HEALTH CARE",
    "npi": null,
    "hcaiId": null,
    "businessName": "HANMAEUM SENIOR SERVICES, INC.",
    "contactEmail": "HANMAEUM@WESTERNADHC.NET",
    "categoryName": "ADULT DAY HEALTH CARE",
    "categoryCode": "ADHC",
    "licenseStatus": "ACTIVE",
    "inService": true,
    "licenseNumber": "060000639",
    "licenseEffectiveDate": "02/08/2025",
    "licenseExpirationDate": "02/07/2026",
    "dataDate": "10/18/2025",
    "capacity": 0,
    "address": "2001 W OLYMPIC BLVD",
    "city": "LOS ANGELES",
    "zip": "90006",
    "county": "LOS ANGELES",
    "phone": "(213) 736-0001",
    "lat": 34.051419,
    "lng": -118.278774
  }
]