[
  {
    "id": "930001665",
    "name": "FLORENCE DIALYSIS CENTER",
    "npi": "1780676957",
    "hcaiId": "306196219",
    "businessName": "FLORENCE DIALYSIS CENTER",
    "contactEmail": "DEXTER825@VERIZON.NET",
    "categoryName": "CHRONIC DIALYSIS CLINIC",
    "categoryCode": "ESRD/CDC",
    "licenseStatus": "ACTIVE",
    "inService": true,
    "licenseNumber": "930000965",
    "licenseEffectiveDate": "02/02/2025",
    "licenseExpirationDate": "02/01/2026",
    "dataDate": "10/18/2025",
    "capacity": 32,
    "address": "351 W FLORENCE AVE",
    "city": "LOS ANGELES",
    "zip": "90003",
    "county": "LOS ANGELES",
    "phone": "(323) 789-5690",
    "lat": 33.974829,
    "lng": -118.280178
  },
  {
    "id": "630014739",
    "name": "FREMONT WELLNESS CENTER",
    "npi": "1730421330",
    "hcaiId": "306197912",
    "businessName": "UNIVERSITY MUSLIM MEDICAL ASSOCIATION, INC.",
    "contactEmail": "AREYNOSO@UMMACLINIC.ORG",
    "categoryName": "PRIMARY CARE CLINIC",
    "categoryCode": "COMTYC",
    "licenseStatus": "ACTIVE",
    "inService": true,
    "licenseNumber": "550002630",
    "licenseEffectiveDate": "08/11/2025",
    "licenseExpirationDate": "04/14/2026",
    "dataDate": "10/18/2025",
    "capacity": 0,
    "address": "7821 AVALON BLVD",
    "city": "LOS ANGELES",
    "zip": "90003",
    "county": "LOS ANGELES",
    "phone": "(323) 647-1520",
    "lat": 33.96819097,
    "lng": -118.2652245
  },
  {
    "id": "630002361",
    "name": "PLANNED PARENTHOOD LOS ANGELES - DOROTHY HECHT CTR",
    "npi": null,
    "hcaiId": "306196661",
    "businessName": "PLANNED PARENTHOOD LOS ANGELES",
    "contactEmail": "BRENDA.GUERRERO@PP-LA.ORG",
    "categoryName": "PRIMARY CARE CLINIC",
    "categoryCode": "COMTYC",
    "licenseStatus": "ACTIVE",
    "inService": true,
    "licenseNumber": "550000047",
    "licenseEffectiveDate": "11/28/2024",
    "licenseExpirationDate": "11/27/2025",
    "dataDate": "10/18/2025",
    "capacity": 0,
    "address": "8520 S BROADWAY",
    "city": "LOS ANGELES",
    "zip": "90003",
    "county": "LOS ANGELES",
    "phone": "(213) 284-3200",
    "lat": 33.960978,
    "lng": -118.27809
  },
  {
    "id": "630021476",
    "name": "ST. JOHN'S COMMUNITY HEALTH",
    "npi": "1285874826",
    "hcaiId": null,
    "businessName": "ST. JOHN'S COMMUNITY HEALTH",
    "contactEmail": "MARLOPEZ@WELLCHILD.ORG",
    "categoryName": "PRIMARY CARE CLINIC",
    "categoryCode": "COMTYC",
    "licenseStatus": "ACTIVE",
    "inService": true,
    "licenseNumber": "550001120",
    "licenseEffectiveDate": "11/03/2025",
    "licenseExpirationDate": "11/02/2026",
    "dataDate": "10/18/2025",
    "capacity": 0,
    "address": "6818 AVALON BLVD",
    "city": "LOS ANGELES",
    "zip": "90003",
    "county": "LOS ANGELES",
    "phone": "(323) 541-1600",
    "lat": 33.977374,
    "lng": -118.265155
  },
  {
    "id": "630028450",
    "name": "UMMA HEALTH DENTAL MOBILE UNIT",
    "npi": null,
    "hcaiId": null,
    "businessName": "UNIVERSITY MUSLIM MEDICAL ASSOCIATION, INC.",
    "contactEmail": null,
    "categoryName": "PRIMARY CARE CLINIC",
    "categoryCode": "COMTYC",
    "licenseStatus": "ACTIVE",
    "inService": true,
    "licenseNumber": "550002630",
    "licenseEffectiveDate": "08/11/2025",
    "licenseExpirationDate": "04/14/2026",
    "dataDate": "10/18/2025",
    "capacity": 0,
    "address": "7821 SOUTH AVALON BOULEVARD",
    "city": "LOS ANGELES",
    "zip": "90003",
    "county": "LOS ANGELES",
    "phone": null,
    "lat": 33.96778177,
    "lng": -118.2654132
  }
]