[
  {
    "id": "630015152",
    "name": "APLA HEALTH & WELLNESS - DAVID GEFFEN CENTER",
    "npi": "1003230038",
    "hcaiId": "306198056",
    "businessName": "APLA HEALTH & WELLNESS",
    "contactEmail": "JMOLDOVAN@APLAHEALTH.ORG",
    "categoryName": "PRIMARY CARE CLINIC",
    "categoryCode": "COMTYC",
    "licenseStatus": "ACTIVE",
    "inService": true,
    "licenseNumber": "550003043",
    "licenseEffectiveDate": "04/21/2025",
    "licenseExpirationDate": "04/20/2026",
    "dataDate": "10/18/2025",
    "capacity": 0,
    "address": "611 S KINGSLEY DR, SUITE 301",
    "city": "LOS ANGELES",
    "zip": "90005",
    "county": "LOS ANGELES",
    "phone": "(213) 201-1411",
    "lat": 34.062948,
    "lng": -118.303029
  },
  {
    "id": "630024909",
    "name": "DIAMOND HOME HEALTH CARE, INC",
    "npi": null,
    "hcaiId": "406196346",
    "businessName": "DIAMOND HOME HEALTH CARE, INC",
    "contactEmail": "DIAMONDHHCARE@GMAIL.COM",
    "categoryName": "HOME HEALTH AGENCY",
    "categoryCode": "HHA",
    "licenseStatus": "ACTIVE",
    "inService": true,
    "licenseNumber": "550008475",
    "licenseEffectiveDate": "09/09/2023",
    "licenseExpirationDate": "03/08/2024",
    "dataDate": "10/18/2025",
    "capacity": 0,
    "address": "742 S VERMONT AVE, SUITE 2",
    "city": "LOS ANGELES",
    "zip": "90005",
    "county": "LOS ANGELES",
    "phone": "(747) 054-6055",
    "lat": 34.058529,
    "lng": -118.291464
  },
  {
    "id": "630015636",
    "name": "ELIM WELLCARE HOSPICE, LLC",
    "npi": "1154720522",
    "hcaiId": "406198431",
    "businessName": "ELIM WELLCARE HOSPICE, LLC",
    "contactEmail": "ELIMWELLCARE@GMAIL.COM",
    "categoryName": "HOSPICE",
    "categoryCode": "HOSPICE",
    "licenseStatus": "ACTIVE",
    "inService": true,
    "licenseNumber": "550003865",
    "licenseEffectiveDate": "05/12/2025",
    "licenseExpirationDate": "05/11/2027",
    "dataDate": "10/18/2025",
    "capacity": 0,
    "address": "690 WILSHIRE PL, SUITE 307",
    "city": "LOS ANGELES",
    "zip": "90005",
    "county": "LOS ANGELES",
    "phone": "(626) 793-7511",
    "lat": 34.060194,
    "lng": -118.287639
  },
  {
    "id": "980002187",
    "name": "HOME HEALTH SERVICES OF CALIFORNIA, INC.",
    "npi": "1841242161",
    "hcaiId": "406196172",
    "businessName": "HOME HEALTH SERVICES OF CALIFORNIA, INC",
    "contactEmail": "HOMEHEALTHCA@SBCGLOBAL.NET",
    "categoryName": "HOME HEALTH AGENCY",
    "categoryCode": "HHA",
    "licenseStatus": "ACTIVE",
    "inService": true,
    "licenseNumber": "980001312",
    "licenseEffectiveDate": "11/30/2024",
    "licenseExpirationDate": "11/29/2025",
    "dataDate": "10/18/2025",
    "capacity": 0,
    "address": "611 S CATALINA ST, SUITE 318",
    "city": "LOS ANGELES",
    "zip": "90005",
    "county": "LOS ANGELES",
    "phone": "(213) 385-9949",
    "lat": 34.063182,
    "lng": -118.2955275
  },
  {
    "id": "060001868",
    "name": "KHEIR ADHC CENTER - VERMONT",
    "npi": null,
    "hcaiId": null,
    "businessName": "KOREAN HEALTH, EDUCATION, INFORMATION AND RESEARCH CENTER",
    "contactEmail": "THANTAYE@AOL.COM",
    "categoryName": "ADULT DAY HEALTH CARE",
    "categoryCode": "ADHC",
    "licenseStatus": "ACTIVE",
    "inService": true,
    "licenseNumber": "060000685",
    "licenseEffectiveDate": "01/29/2025",
    "licenseExpirationDate": "11/19/2025",
    "dataDate": "10/18/2025",
    "capacity": 0,
    "address": "3030 W 8TH ST, SUITE 100",
    "city": "LOS ANGELES",
    "zip": "90005",
    "county": "LOS ANGELES",
    "phone": "(909) 967-1872",
    "lat": 34.057602,
    "lng": -118.2924585
  },
  {
    "id": "060002227",
    "name": "KHEIR MIRAE ADULT DAY HEALTH CARE CENTER",
    "npi": null,
    "hcaiId": null,
    "businessName": "KOREAN HEALTH, EDUCATION, INFORMATION AND RESEARCH CENTER",
    "contactEmail": "ADHC@LAKHEIR.ORG",
    "categoryName": "ADULT DAY HEALTH CARE",
    "categoryCode": "ADHC",
    "licenseStatus": "ACTIVE",
    "inService": true,
    "licenseNumber": "060000909",
    "licenseEffectiveDate": "01/22/2025",
    "licenseExpirationDate": "01/21/2026",
    "dataDate": "10/18/2025",
    "capacity": 0,
    "address": "717 S WESTERN AVE",
    "city": "LOS ANGELES",
    "zip": "90005",
    "county": "LOS ANGELES",
    "phone": "(213) 235-1214",
    "lat": 34.05915,
    "lng": -118.3092435
  },
  {
    "id": "630018663",
    "name": "KWANG HE WON HEALTH CENTER",
    "npi": null,
    "hcaiId": "306190638",
    "businessName": "KWANG HE WON HEALTH CENTER",
    "contactEmail": "BENAWON@GMAIL.COM",
    "categoryName": "PRIMARY CARE CLINIC",
    "categoryCode": "COMTYC",
    "licenseStatus": "ACTIVE",
    "inService": true,
    "licenseNumber": "550005969",
    "licenseEffectiveDate": "12/08/2024",
    "licenseExpirationDate": "12/07/2025",
    "dataDate": "10/18/2025",
    "capacity": 0,
    "address": "815 S ARDMORE AVE, FLOOR 1",
    "city": "LOS ANGELES",
    "zip": "90005",
    "county": "LOS ANGELES",
    "phone": "(323) 852-3245",
    "lat": 34.05717,
    "lng": -118.3022055
  },
  {
    "id": "630018824",
    "name": "LILY ADULT DAY HEALTH CARE CENTER",
    "npi": null,
    "hcaiId": null,
    "businessName": "LILY ADULT DAY HEALTH CARE, INC.",
    "contactEmail": "GARYIJPARK@GMAIL.COM",
    "categoryName": "ADULT DAY HEALTH CARE",
    "categoryCode": "ADHC",
    "licenseStatus": "ACTIVE",
    "inService": true,
    "licenseNumber": "550006097",
    "licenseEffectiveDate": "03/10/2025",
    "licenseExpirationDate": "03/09/2026",
    "dataDate": "10/18/2025",
    "capacity": 0,
    "address": "610 S KINGSLEY DR",
    "city": "LOS ANGELES",
    "zip": "90005",
    "county": "LOS ANGELES",
    "phone": "(562) 480-2447",
    "lat": 34.063038,
    "lng": -118.302453
  }
]