[
  {
    "id": "630027228",
    "name": "ALTAMED BEHAVIORAL HEALTH AT LILLIAN STREET ELEMENTARY SCHOOL",
    "npi": null,
    "hcaiId": null,
    "businessName": "ALTAMED HEALTH SERVICES CORPORATION",
    "contactEmail": "RYOUNG@ALTAMED.ORG",
    "categoryName": "PRIMARY CARE CLINIC",
    "categoryCode": "COMTYC",
    "licenseStatus": "ACTIVE",
    "inService": true,
    "licenseNumber": "550003268",
    "licenseEffectiveDate": "10/29/2025",
    "licenseExpirationDate": "10/28/2026",
    "dataDate": "10/18/2025",
    "capacity": 0,
    "address": "5909 LILLIAN ST",
    "city": "LOS ANGELES",
    "zip": "90001",
    "county": "LOS ANGELES",
    "phone": "(323) 622-2429",
    "lat": 33.98634898,
    "lng": -118.240673
  },
  {
    "id": "630022814",
    "name": "ALTAMED MEDICAL GROUP- FLORENCE-FIRESTONE",
    "npi": "1790177582",
    "hcaiId": null,
    "businessName": "ALTAMED HEALTH SERVICES CORPORATION",
    "contactEmail": null,
    "categoryName": "PRIMARY CARE CLINIC",
    "categoryCode": "COMTYC",
    "licenseStatus": "ACTIVE",
    "inService": true,
    "licenseNumber": "550003268",
    "licenseEffectiveDate": "10/29/2025",
    "licenseExpirationDate": "10/28/2026",
    "dataDate": "10/18/2025",
    "capacity": 0,
    "address": "1542 E FLORENCE AVE",
    "city": "LOS ANGELES",
    "zip": "90001",
    "county": "LOS ANGELES",
    "phone": null,
    "lat": 33.974532,
    "lng": -118.246086
  },
  {
    "id": "960001879",
    "name": "CENTRAL CITY COMMUNITY HEALTH CENTER",
    "npi": "1235283094",
    "hcaiId": "306194705",
    "businessName": "CENTRAL CITY COMMUNITY HEALTH CENTER, INC.",
    "contactEmail": "KAREN.RODRIGUEZ@CENTRALCITYHEALTH.ORG",
    "categoryName": "PRIMARY CARE CLINIC",
    "categoryCode": "COMTYC",
    "licenseStatus": "ACTIVE",
    "inService": true,
    "licenseNumber": "960000901",
    "licenseEffectiveDate": "04/15/2025",
    "licenseExpirationDate": "04/14/2026",
    "dataDate": "10/18/2025",
    "capacity": 0,
    "address": "5970 S CENTRAL AVE",
    "city": "LOS ANGELES",
    "zip": "90001",
    "county": "LOS ANGELES",
    "phone": "(323) 724-0019",
    "lat": 33.985584,
    "lng": -118.256202
  },
  {
    "id": "630010919",
    "name": "CENTRAL CITY COMMUNITY HEALTH CENTER MOBILE UNIT",
    "npi": "1114258761",
    "hcaiId": "306197167",
    "businessName": "CENTRAL CITY COMMUNITY HEALTH CENTER, INC.",
    "contactEmail": "KAREN.RODRIGUEZ@CENTRALCITYHEALTH.ORG",
    "categoryName": "PRIMARY CARE CLINIC",
    "categoryCode": "COMTYC",
    "licenseStatus": "ACTIVE",
    "inService": true,
    "licenseNumber": "960000901",
    "licenseEffectiveDate": "04/15/2025",
    "licenseExpirationDate": "04/14/2026",
    "dataDate": "10/18/2025",
    "capacity": 0,
    "address": "5968 S CENTRAL AVE",
    "city": "LOS ANGELES",
    "zip": "90001",
    "county": "LOS ANGELES",
    "phone": "(323) 234-3493",
    "lat": 33.985584,
    "lng": -118.256202
  },
  {
    "id": "630018208",
    "name": "CENTRAL CITY COMMUNITY HEALTH CENTER, INC. MOBILE MEDICAL UNIT #1",
    "npi": "1235283094",
    "hcaiId": null,
    "businessName": "CENTRAL CITY COMMUNITY HEALTH CENTER, INC.",
    "contactEmail": null,
    "categoryName": "PRIMARY CARE CLINIC",
    "categoryCode": "COMTYC",
    "licenseStatus": "ACTIVE",
    "inService": true,
    "licenseNumber": "960000901",
    "licenseEffectiveDate": "04/15/2025",
    "licenseExpirationDate": "04/14/2026",
    "dataDate": "10/18/2025",
    "capacity": 0,
    "address": "5970 S CENTRAL AVE",
    "city": "LOS ANGELES",
    "zip": "90001",
    "county": "LOS ANGELES",
    "phone": null,
    "lat": 33.985584,
    "lng": -118.256202
  }
]