[
  {
    "id": "930001670",
    "name": "ADVANCED SIGHT SURGERY CENTER",
    "npi": "1073601001",
    "hcaiId": null,
    "businessName": null,
    "contactEmail": "NONE@DHS.CA.GOV",
    "categoryName": "SURGICAL CLINIC",
    "categoryCode": "ASC",
    "licenseStatus": null,
    "inService": null,
    "licenseNumber": null,
    "licenseEffectiveDate": null,
    "licenseExpirationDate": null,
    "dataDate": "10/18/2025",
    "capacity": 0,
    "address": "321 N LARCHMONT BLVD, SUITE 1001",
    "city": "LOS ANGELES",
    "zip": "90004",
    "county": "LOS ANGELES",
    "phone": "(323) 466-7337",
    "lat": 34.076826,
    "lng": -118.3238415
  },
  {
    "id": "060002115",
    "name": "BEVERLY ADULT DAY HEALTH CARE CENTER",
    "npi": null,
    "hcaiId": null,
    "businessName": "BEVERLY ADULT DAY HEALTH CARE CENTER, INC.",
    "contactEmail": "BEVERLYADHC@YAHOO.COM",
    "categoryName": "ADULT DAY HEALTH CARE",
    "categoryCode": "ADHC",
    "licenseStatus": "ACTIVE",
    "inService": true,
    "licenseNumber": "060000905",
    "licenseEffectiveDate": "01/14/2025",
    "licenseExpirationDate": "01/13/2026",
    "dataDate": "10/18/2025",
    "capacity": 0,
    "address": "316 N WESTERN AVE",
    "city": "LOS ANGELES",
    "zip": "90004",
    "county": "LOS ANGELES",
    "phone": "(323) 957-9777",
    "lat": 34.076907,
    "lng": -118.3085505
  },
  {
    "id": "630023077",
    "name": "BRIGHT HORIZON HOME HEALTH, INC.",
    "npi": null,
    "hcaiId": "406195816",
    "businessName": "BRIGHT HORIZON HOME HEALTH, INC.",
    "contactEmail": "BRIGHTHORIZONHOMEHEALTH1@GMAIL.COM",
    "categoryName": "HOME HEALTH AGENCY",
    "categoryCode": "HHA",
    "licenseStatus": "ACTIVE",
    "inService": true,
    "licenseNumber": "550007849",
    "licenseEffectiveDate": "02/15/2025",
    "licenseExpirationDate": "02/14/2026",
    "dataDate": "10/18/2025",
    "capacity": 0,
    "address": "4711 OAKWOOD AVE, SUITE 202D",
    "city": "LOS ANGELES",
    "zip": "90004",
    "county": "LOS ANGELES",
    "phone": "(310) 507-1812",
    "lat": 34.077618,
    "lng": -118.309698
  },
  {
    "id": "630025469",
    "name": "BRIGHT SUNRISE HOME HEALTH, INC.",
    "npi": null,
    "hcaiId": "406190272",
    "businessName": "BRIGHT SUNRISE HOME HEALTH, INC",
    "contactEmail": "BRIGHTSUNRISEHH@GMAIL.COM",
    "categoryName": "HOME HEALTH AGENCY",
    "categoryCode": "HHA",
    "licenseStatus": "ACTIVE",
    "inService": true,
    "licenseNumber": "550008980",
    "licenseEffectiveDate": "07/22/2024",
    "licenseExpirationDate": "01/21/2025",
    "dataDate": "10/18/2025",
    "capacity": 0,
    "address": "4711 OAKWOOD AVE, SUITE 202C",
    "city": "LOS ANGELES",
    "zip": "90004",
    "county": "LOS ANGELES",
    "phone": "(310) 507-1019",
    "lat": 34.077618,
    "lng": -118.309698
  },
  {
    "id": "630023109",
    "name": "GOLDEN HORIZON HOME HEALTH CARE, INC.",
    "npi": null,
    "hcaiId": "406195418",
    "businessName": "GOLDEN HORIZON HOME HEALTH CARE, INC.",
    "contactEmail": "GOLDENHORIZONHOMEHEALTH@GMAIL.COM",
    "categoryName": "HOME HEALTH AGENCY",
    "categoryCode": "HHA",
    "licenseStatus": "ACTIVE",
    "inService": true,
    "licenseNumber": "550007892",
    "licenseEffectiveDate": "03/10/2025",
    "licenseExpirationDate": "03/09/2026",
    "dataDate": "10/18/2025",
    "capacity": 0,
    "address": "4711 OAKWOOD AVE, SUITE 202A",
    "city": "LOS ANGELES",
    "zip": "90004",
    "county": "LOS ANGELES",
    "phone": "(310) 507-1986",
    "lat": 34.077618,
    "lng": -118.309698
  },
  {
    "id": "630025472",
    "name": "GOLDEN RULE HOME HEALTH, INC.",
    "npi": null,
    "hcaiId": "406190274",
    "businessName": "GOLDEN RULE HOME HEALTH, INC.",
    "contactEmail": "GOLDENRULEHH@GMAIL.COM",
    "categoryName": "HOME HEALTH AGENCY",
    "categoryCode": "HHA",
    "licenseStatus": "ACTIVE",
    "inService": true,
    "licenseNumber": "550008975",
    "licenseEffectiveDate": "01/22/2024",
    "licenseExpirationDate": "01/21/2025",
    "dataDate": "10/18/2025",
    "capacity": 0,
    "address": "4711 OAKWOOD AVE, SUITE 202B",
    "city": "LOS ANGELES",
    "zip": "90004",
    "county": "LOS ANGELES",
    "phone": "(310) 507-1987",
    "lat": 34.077618,
    "lng": -118.309698
  },
  {
    "id": "630016274",
    "name": "HANCOCK PARK SURGERY CENTER",
    "npi": "1265851034",
    "hcaiId": null,
    "businessName": null,
    "contactEmail": null,
    "categoryName": "SURGICAL CLINIC",
    "categoryCode": "ASC",
    "licenseStatus": null,
    "inService": null,
    "licenseNumber": null,
    "licenseEffectiveDate": null,
    "licenseExpirationDate": null,
    "dataDate": "10/18/2025",
    "capacity": 0,
    "address": "321 NORTH LARCHMONT AVENUE, SUITE #1011",
    "city": "LOS ANGELES",
    "zip": "90004",
    "county": "LOS ANGELES",
    "phone": null,
    "lat": 34.076826,
    "lng": -118.3238415
  },
  {
    "id": "630026467",
    "name": "HOLLYWOOD HOME HEALTH CARE, INC",
    "npi": null,
    "hcaiId": null,
    "businessName": "HOLLYWOOD HOME HEALTH CARE, INC",
    "contactEmail": "HOLLYHHEALTH21@GMAIL.COM",
    "categoryName": "HOME HEALTH AGENCY",
    "categoryCode": "HHA",
    "licenseStatus": "ACTIVE",
    "inService": true,
    "licenseNumber": "550009411",
    "licenseEffectiveDate": "09/27/2025",
    "licenseExpirationDate": "09/26/2026",
    "dataDate": "10/18/2025",
    "capacity": 0,
    "address": "4711 OAKWOOD AVE, SUITE 205",
    "city": "LOS ANGELES",
    "zip": "90004",
    "county": "LOS ANGELES",
    "phone": "(224) 880-0008",
    "lat": 34.077618,
    "lng": -118.309698
  },
  {
    "id": "630012867",
    "name": "JWCH PATH CLINIC",
    "npi": null,
    "hcaiId": null,
    "businessName": "JWCH INSTITUTE, INC.",
    "contactEmail": null,
    "categoryName": "PRIMARY CARE CLINIC",
    "categoryCode": "COMTYC",
    "licenseStatus": "ACTIVE",
    "inService": true,
    "licenseNumber": "960001445",
    "licenseEffectiveDate": "06/16/2025",
    "licenseExpirationDate": "06/15/2026",
    "dataDate": "10/18/2025",
    "capacity": 0,
    "address": "320 N MADISON AVE, SUITE A",
    "city": "LOS ANGELES",
    "zip": "90004",
    "county": "LOS ANGELES",
    "phone": null,
    "lat": 34.077078,
    "lng": -118.2890205
  },
  {
    "id": "630018498",
    "name": "QUICK CARE SOLUTIONS, INC.",
    "npi": null,
    "hcaiId": "406192455",
    "businessName": "QUICK CARE SOLUTIONS, INC.",
    "contactEmail": "QUICKCARESOL@GMAIL.COM",
    "categoryName": "HOME HEALTH AGENCY",
    "categoryCode": "HHA",
    "licenseStatus": "ACTIVE",
    "inService": true,
    "licenseNumber": "550005229",
    "licenseEffectiveDate": "01/08/2025",
    "licenseExpirationDate": "01/07/2026",
    "dataDate": "10/18/2025",
    "capacity": 0,
    "address": "3806 BEVERLY BLVD, SUITE 215",
    "city": "LOS ANGELES",
    "zip": "90004",
    "county": "LOS ANGELES",
    "phone": "(747) 253-0029",
    "lat": 34.076196,
    "lng": -118.2920085
  },
  {
    "id": "630020135",
    "name": "SABAN COMMUNITY CLINIC - THE VIRGIL",
    "npi": null,
    "hcaiId": null,
    "businessName": "LOS ANGELES FREE CLINIC INC.",
    "contactEmail": null,
    "categoryName": "PRIMARY CARE CLINIC",
    "categoryCode": "COMTYC",
    "licenseStatus": "ACTIVE",
    "inService": true,
    "licenseNumber": "960000578",
    "licenseEffectiveDate": "03/26/2025",
    "licenseExpirationDate": "03/25/2026",
    "dataDate": "10/18/2025",
    "capacity": 0,
    "address": "137 N VIRGIL AVE",
    "city": "LOS ANGELES",
    "zip": "90004",
    "county": "LOS ANGELES",
    "phone": "(323) 337-1707",
    "lat": 34.074684,
    "lng": -118.2870405
  },
  {
    "id": "630011517",
    "name": "SIERRA HOSPICE CARE, INC.",
    "npi": null,
    "hcaiId": "406197543",
    "businessName": "SIERRA HOSPICE CARE, INC.",
    "contactEmail": "YOUNGTPARK@YAHOO.COM",
    "categoryName": "HOSPICE",
    "categoryCode": "HOSPICE",
    "licenseStatus": "ACTIVE",
    "inService": true,
    "licenseNumber": "550001595",
    "licenseEffectiveDate": "05/18/2025",
    "licenseExpirationDate": "05/17/2027",
    "dataDate": "10/18/2025",
    "capacity": 0,
    "address": "222 N HARVARD BLVD",
    "city": "LOS ANGELES",
    "zip": "90004",
    "county": "LOS ANGELES",
    "phone": "(213) 380-1100",
    "lat": 34.076007,
    "lng": -118.3039785
  }
]