[
  {
    "id": "630009381",
    "name": "A C HOSPICE, INC.",
    "npi": "1497909832",
    "hcaiId": "406197481",
    "businessName": "A C HOSPICE, INC.",
    "contactEmail": "SSELICO@FOREVERCARING.COM",
    "categoryName": "HOSPICE",
    "categoryCode": "HOSPICE",
    "licenseStatus": "ACTIVE",
    "inService": true,
    "licenseNumber": "550000460",
    "licenseEffectiveDate": "01/11/2023",
    "licenseExpirationDate": "01/10/2025",
    "dataDate": "10/18/2025",
    "capacity": 0,
    "address": "3756 SANTA ROSALIA DR, SUITE 520C",
    "city": "LOS ANGELES",
    "zip": "90008",
    "county": "LOS ANGELES",
    "phone": "(323) 293-7072",
    "lat": 34.008822,
    "lng": -118.339164
  },
  {
    "id": "630020962",
    "name": "BHS - CRENSHAW HEALTH CENTER",
    "npi": "1548659105",
    "hcaiId": null,
    "businessName": "BEHAVIORAL HEALTH SERVICES, INC.",
    "contactEmail": null,
    "categoryName": "PRIMARY CARE CLINIC",
    "categoryCode": "COMTYC",
    "licenseStatus": "ACTIVE",
    "inService": true,
    "licenseNumber": "550003493",
    "licenseEffectiveDate": "04/11/2025",
    "licenseExpirationDate": "04/10/2026",
    "dataDate": "10/18/2025",
    "capacity": 0,
    "address": "3850 CRENSHAW BLVD",
    "city": "LOS ANGELES",
    "zip": "90008",
    "county": "LOS ANGELES",
    "phone": "(323) 438-9607",
    "lat": 34.016013,
    "lng": -118.334736
  },
  {
    "id": "630022265",
    "name": "CENTER SOUTH",
    "npi": "1548298532",
    "hcaiId": null,
    "businessName": "LOS ANGELES LGBT CENTER",
    "contactEmail": null,
    "categoryName": "PRIMARY CARE CLINIC",
    "categoryCode": "COMTYC",
    "licenseStatus": "ACTIVE",
    "inService": true,
    "licenseNumber": "960000834",
    "licenseEffectiveDate": "06/23/2025",
    "licenseExpirationDate": "06/22/2026",
    "dataDate": "10/18/2025",
    "capacity": 0,
    "address": "2313 W MARTIN LUTHER KING JR BLVD",
    "city": "LOS ANGELES",
    "zip": "90008",
    "county": "LOS ANGELES",
    "phone": "(323) 993-8962",
    "lat": 34.01088572,
    "lng": -118.3184578
  },
  {
    "id": "960002537",
    "name": "CRENSHAW COMMUNITY HEALTH CENTER",
    "npi": "1225177751",
    "hcaiId": "306196169",
    "businessName": "WATTS HEALTHCARE CORPORATION",
    "contactEmail": "CHRISTOFER.LOPEZ@WATTSHEALTH.ORG",
    "categoryName": "PRIMARY CARE CLINIC",
    "categoryCode": "COMTYC",
    "licenseStatus": "ACTIVE",
    "inService": true,
    "licenseNumber": "960001303",
    "licenseEffectiveDate": "04/01/2025",
    "licenseExpirationDate": "03/31/2026",
    "dataDate": "10/18/2025",
    "capacity": 0,
    "address": "3756 SANTA ROSALIA DR, SUITE 400",
    "city": "LOS ANGELES",
    "zip": "90008",
    "county": "LOS ANGELES",
    "phone": "(323) 564-4331",
    "lat": 34.008822,
    "lng": -118.339164
  },
  {
    "id": "630012728",
    "name": "EVERGREEN HOME CARE & HOSPICE, INC.",
    "npi": "1659702389",
    "hcaiId": "406198191",
    "businessName": "EVERGREEN HOME CARE & HOSPICE, INC.",
    "contactEmail": "SSELICO@FOREVERCARING.COM",
    "categoryName": "HOSPICE",
    "categoryCode": "HOSPICE",
    "licenseStatus": "ACTIVE",
    "inService": true,
    "licenseNumber": "550002521",
    "licenseEffectiveDate": "12/05/2023",
    "licenseExpirationDate": "12/04/2025",
    "dataDate": "10/18/2025",
    "capacity": 0,
    "address": "3756 SANTA ROSALIA DR, SUITE 520B",
    "city": "LOS ANGELES",
    "zip": "90008",
    "county": "LOS ANGELES",
    "phone": "(323) 293-7072",
    "lat": 34.008822,
    "lng": -118.339164
  },
  {
    "id": "630018063",
    "name": "ST. JOHN'S COMMUNITY HEALTH",
    "npi": null,
    "hcaiId": null,
    "businessName": "ST. JOHN'S COMMUNITY HEALTH",
    "contactEmail": null,
    "categoryName": "PRIMARY CARE CLINIC",
    "categoryCode": "COMTYC",
    "licenseStatus": "ACTIVE",
    "inService": true,
    "licenseNumber": "550003001",
    "licenseEffectiveDate": "03/03/2025",
    "licenseExpirationDate": "03/02/2026",
    "dataDate": "10/18/2025",
    "capacity": 0,
    "address": "4251 CRENSHAW BLVD",
    "city": "LOS ANGELES",
    "zip": "90008",
    "county": "LOS ANGELES",
    "phone": "(323) 541-1411",
    "lat": 34.006851,
    "lng": -118.3350375
  },
  {
    "id": "060001863",
    "name": "THE BEST OF TIMES ADULT DAY HEALTH CARE",
    "npi": null,
    "hcaiId": null,
    "businessName": "THE BEST OF TIMES ADHC-2, INC.",
    "contactEmail": "THEBESTOFTIMESPD@GMAIL.COM",
    "categoryName": "ADULT DAY HEALTH CARE",
    "categoryCode": "ADHC",
    "licenseStatus": "ACTIVE",
    "inService": true,
    "licenseNumber": "060000680",
    "licenseEffectiveDate": "05/29/2025",
    "licenseExpirationDate": "12/02/2025",
    "dataDate": "10/18/2025",
    "capacity": 0,
    "address": "4350 11TH AVE",
    "city": "LOS ANGELES",
    "zip": "90008",
    "county": "LOS ANGELES",
    "phone": "(323) 292-2898",
    "lat": 34.004853,
    "lng": -118.329192
  },
  {
    "id": "970000009",
    "name": "VIEW PARK CONVALESCENT CENTER",
    "npi": "1427131556",
    "hcaiId": "206190221",
    "businessName": "VIEW PARK CONVALESCENT HOSPITAL LLC",
    "contactEmail": "FAC12ADMIN@LONGWOODMGMT.COM",
    "categoryName": "SKILLED NURSING FACILITY",
    "categoryCode": "SNF",
    "licenseStatus": "ACTIVE",
    "inService": true,
    "licenseNumber": "970000005",
    "licenseEffectiveDate": "01/01/2025",
    "licenseExpirationDate": "12/31/2025",
    "dataDate": "10/18/2025",
    "capacity": 99,
    "address": "3737 DON FELIPE DR",
    "city": "LOS ANGELES",
    "zip": "90008",
    "county": "LOS ANGELES",
    "phone": "(323) 295-7737",
    "lat": 34.006959,
    "lng": -118.340226
  }
]