[
  {
    "id": "630014377",
    "name": "CENTRAL NEIGHBORHOOD HEALTH FOUNDATION",
    "npi": "1487086989",
    "hcaiId": "306197882",
    "businessName": "H STREET CLINIC, INC.",
    "contactEmail": "CNHFOUNDATION@GMAIL.COM",
    "categoryName": "PRIMARY CARE CLINIC",
    "categoryCode": "COMTYC",
    "licenseStatus": "ACTIVE",
    "inService": true,
    "licenseNumber": "550000837",
    "licenseEffectiveDate": "12/09/2024",
    "licenseExpirationDate": "12/08/2025",
    "dataDate": "10/18/2025",
    "capacity": 0,
    "address": "2614 S GRAND AVE",
    "city": "LOS ANGELES",
    "zip": "90007",
    "county": "LOS ANGELES",
    "phone": "(323) 234-5000",
    "lat": 34.025922,
    "lng": -118.27242
  },
  {
    "id": "060002122",
    "name": "FELICES DIAS ADULT DAY HEALTH CARE CENTER",
    "npi": null,
    "hcaiId": null,
    "businessName": "FELICES DIAS ADULT DAY HEALTH CARE CENTER, INC.",
    "contactEmail": "FELICES9345@SBCGLOBAL.NET",
    "categoryName": "ADULT DAY HEALTH CARE",
    "categoryCode": "ADHC",
    "licenseStatus": "ACTIVE",
    "inService": true,
    "licenseNumber": "060000860",
    "licenseEffectiveDate": "04/22/2025",
    "licenseExpirationDate": "04/21/2026",
    "dataDate": "10/18/2025",
    "capacity": 0,
    "address": "2309 S FLOWER ST",
    "city": "LOS ANGELES",
    "zip": "90007",
    "county": "LOS ANGELES",
    "phone": "(213) 746-6611",
    "lat": 34.030044,
    "lng": -118.2735765
  },
  {
    "id": "930001646",
    "name": "LOS ANGELES DOWNTOWN DIALYSIS",
    "npi": "1013981984",
    "hcaiId": "306196044",
    "businessName": "DVA RENAL HEALTHCARE, INC.",
    "contactEmail": "CAL_C@DAVITA.COM",
    "categoryName": "CHRONIC DIALYSIS CLINIC",
    "categoryCode": "ESRD/CDC",
    "licenseStatus": "ACTIVE",
    "inService": true,
    "licenseNumber": "930000911",
    "licenseEffectiveDate": "06/03/2025",
    "licenseExpirationDate": "06/02/2026",
    "dataDate": "10/18/2025",
    "capacity": 30,
    "address": "2021 S FLOWER ST",
    "city": "LOS ANGELES",
    "zip": "90007",
    "county": "LOS ANGELES",
    "phone": "(213) 745-4222",
    "lat": 34.03188,
    "lng": -118.272222
  },
  {
    "id": "060001901",
    "name": "MAYFAIR ADULT DAY HEALTH CARE, INC.",
    "npi": null,
    "hcaiId": null,
    "businessName": "MAYFAIR ADULT DAY HEALTH CARE, INC.",
    "contactEmail": "MAYFAIR_ADHC@YAHOO.COM",
    "categoryName": "ADULT DAY HEALTH CARE",
    "categoryCode": "ADHC",
    "licenseStatus": "ACTIVE",
    "inService": true,
    "licenseNumber": "060000718",
    "licenseEffectiveDate": "04/10/2025",
    "licenseExpirationDate": "04/09/2026",
    "dataDate": "10/18/2025",
    "capacity": 0,
    "address": "1627 W 20TH ST",
    "city": "LOS ANGELES",
    "zip": "90007",
    "county": "LOS ANGELES",
    "phone": "(323) 766-5363",
    "lat": 34.038252,
    "lng": -118.292373
  },
  {
    "id": "630003621",
    "name": "ORTHOPAEDIC INSTITUTE FOR CHILDREN",
    "npi": "1689632374",
    "hcaiId": "306196744",
    "businessName": "ORTHOPAEDIC HOSPITAL",
    "contactEmail": "JAMIEWELLS@MEDNET.UCLA.EDU",
    "categoryName": "PRIMARY CARE CLINIC",
    "categoryCode": "COMTYC",
    "licenseStatus": "ACTIVE",
    "inService": true,
    "licenseNumber": "550000083",
    "licenseEffectiveDate": "11/18/2024",
    "licenseExpirationDate": "11/17/2025",
    "dataDate": "10/18/2025",
    "capacity": 0,
    "address": "403 W ADAMS BLVD",
    "city": "LOS ANGELES",
    "zip": "90007",
    "county": "LOS ANGELES",
    "phone": "(213) 742-1000",
    "lat": 34.02715047,
    "lng": -118.2736678
  },
  {
    "id": "630017424",
    "name": "ORTHOPAEDIC INSTITUTE FOR CHILDREN AMBULATORY SURGERY CENTER",
    "npi": "1326402884",
    "hcaiId": null,
    "businessName": null,
    "contactEmail": "DMATHIAS@MEDNET.UCLA.EDU",
    "categoryName": "SURGICAL CLINIC",
    "categoryCode": "ASC",
    "licenseStatus": null,
    "inService": null,
    "licenseNumber": null,
    "licenseEffectiveDate": null,
    "licenseExpirationDate": null,
    "dataDate": "10/18/2025",
    "capacity": 0,
    "address": "403 W ADAMS BLVD",
    "city": "LOS ANGELES",
    "zip": "90007",
    "county": "LOS ANGELES",
    "phone": "(213) 742-1100",
    "lat": 34.02715047,
    "lng": -118.2736678
  },
  {
    "id": "630020137",
    "name": "PACIFIC CBAS",
    "npi": null,
    "hcaiId": null,
    "businessName": "BLISS HEALTH CARE SERVICES, INC.",
    "contactEmail": "BLISSHCSINC@GMAIL.COM",
    "categoryName": "ADULT DAY HEALTH CARE",
    "categoryCode": "ADHC",
    "licenseStatus": "ACTIVE",
    "inService": true,
    "licenseNumber": "550007988",
    "licenseEffectiveDate": "05/19/2025",
    "licenseExpirationDate": "05/18/2026",
    "dataDate": "10/18/2025",
    "capacity": 0,
    "address": "1501 W WASHINGTON BLVD",
    "city": "LOS ANGELES",
    "zip": "90007",
    "county": "LOS ANGELES",
    "phone": "(213) 213-4343",
    "lat": 34.040038,
    "lng": -118.28992
  },
  {
    "id": "630012239",
    "name": "PLANNED PARENTHOOD OF LOS ANGELES S. MARK TAPER FOR MEDICAL TRAINING CENTER",
    "npi": "1093969115",
    "hcaiId": "306197308",
    "businessName": "PLANNED PARENTHOOD LOS ANGELES",
    "contactEmail": "BRENDA.GUERRERO@PP-LA.ORG",
    "categoryName": "PRIMARY CARE CLINIC",
    "categoryCode": "COMTYC",
    "licenseStatus": "ACTIVE",
    "inService": true,
    "licenseNumber": "550001161",
    "licenseEffectiveDate": "11/22/2024",
    "licenseExpirationDate": "11/21/2025",
    "dataDate": "10/18/2025",
    "capacity": 0,
    "address": "400 W 30TH ST",
    "city": "LOS ANGELES",
    "zip": "90007",
    "county": "LOS ANGELES",
    "phone": "(213) 284-3200",
    "lat": 34.023933,
    "lng": -118.2757725
  },
  {
    "id": "630015566",
    "name": "ST. JOHN'S COMMUNITY HEALTH",
    "npi": "1861893844",
    "hcaiId": "306198021",
    "businessName": "ST. JOHN'S COMMUNITY HEALTH",
    "contactEmail": "MGENIE@SJCH.ORG",
    "categoryName": "PRIMARY CARE CLINIC",
    "categoryCode": "COMTYC",
    "licenseStatus": "ACTIVE",
    "inService": true,
    "licenseNumber": "550003001",
    "licenseEffectiveDate": "03/03/2025",
    "licenseExpirationDate": "03/02/2026",
    "dataDate": "10/18/2025",
    "capacity": 0,
    "address": "326 W. 23RD STREET",
    "city": "LOS ANGELES",
    "zip": "90007",
    "county": "LOS ANGELES",
    "phone": "(323) 541-1600",
    "lat": 34.029315,
    "lng": -118.271493
  },
  {
    "id": "630019516",
    "name": "ST. JOHN'S COMMUNITY HEALTH",
    "npi": null,
    "hcaiId": null,
    "businessName": "ST. JOHN'S COMMUNITY HEALTH",
    "contactEmail": "GFAJARDO@SJCH.ORG",
    "categoryName": "PRIMARY CARE CLINIC",
    "categoryCode": "COMTYC",
    "licenseStatus": "ACTIVE",
    "inService": true,
    "licenseNumber": "550008265",
    "licenseEffectiveDate": "12/16/2024",
    "licenseExpirationDate": "12/15/2025",
    "dataDate": "10/18/2025",
    "capacity": 0,
    "address": "1060 EXPOSITION BLVD",
    "city": "LOS ANGELES",
    "zip": "90007",
    "county": "LOS ANGELES",
    "phone": "(323) 541-1600",
    "lat": 34.018074,
    "lng": -118.2933225
  },
  {
    "id": "960000250",
    "name": "ST. JOHN'S COMMUNITY HEALTH",
    "npi": "1073653630",
    "hcaiId": "306197141",
    "businessName": "ST. JOHN'S COMMUNITY HEALTH",
    "contactEmail": "MARLOPEZ@WELLCHILD.ORG",
    "categoryName": "PRIMARY CARE CLINIC",
    "categoryCode": "COMTYC",
    "licenseStatus": "ACTIVE",
    "inService": true,
    "licenseNumber": "550001120",
    "licenseEffectiveDate": "11/03/2025",
    "licenseExpirationDate": "11/02/2026",
    "dataDate": "10/18/2025",
    "capacity": 0,
    "address": "1910 MAGNOLIA AVE",
    "city": "LOS ANGELES",
    "zip": "90007",
    "county": "LOS ANGELES",
    "phone": "(323) 541-1600",
    "lat": 34.039467,
    "lng": -118.286307
  }
]