[
  {
    "id": "630015508",
    "name": "AVALON DIALYSIS",
    "npi": null,
    "hcaiId": "306198061",
    "businessName": "TOTAL RENAL CARE, INC.",
    "contactEmail": "CAL_C@DAVITA.COM",
    "categoryName": "CHRONIC DIALYSIS CLINIC",
    "categoryCode": "ESRD/CDC",
    "licenseStatus": "ACTIVE",
    "inService": true,
    "licenseNumber": "550003039",
    "licenseEffectiveDate": "04/07/2025",
    "licenseExpirationDate": "04/06/2026",
    "dataDate": "10/18/2025",
    "capacity": 24,
    "address": "5807 AVALON BLVD.",
    "city": "LOS ANGELES",
    "zip": "90011",
    "county": "LOS ANGELES",
    "phone": "(323) 233-2452",
    "lat": 33.989589,
    "lng": -118.265382
  },
  {
    "id": "960002695",
    "name": "BAART COMMUNITY HEALTHCARE",
    "npi": null,
    "hcaiId": "306196249",
    "businessName": "BAART COMMUNITY HEALTHCARE",
    "contactEmail": "MMOHTASHAM-REAVES@BAARTPROGRAMS.COM",
    "categoryName": "PRIMARY CARE CLINIC",
    "categoryCode": "COMTYC",
    "licenseStatus": "ACTIVE",
    "inService": true,
    "licenseNumber": "960001332",
    "licenseEffectiveDate": "05/15/2025",
    "licenseExpirationDate": "05/14/2026",
    "dataDate": "10/18/2025",
    "capacity": 0,
    "address": "4920 AVALON BLVD",
    "city": "LOS ANGELES",
    "zip": "90011",
    "county": "LOS ANGELES",
    "phone": "(323) 235-5035",
    "lat": 33.99813,
    "lng": -118.264824
  },
  {
    "id": "630007022",
    "name": "CENTRAL NEIGHBORHOOD HEALTH FOUNDATION",
    "npi": "1639336803",
    "hcaiId": "306196981",
    "businessName": "CENTRAL NEIGHBORHOOD HEALTH FOUNDATION",
    "contactEmail": "ECOCHRAN@CNHFCLINICS.ORG",
    "categoryName": "PRIMARY CARE CLINIC",
    "categoryCode": "COMTYC",
    "licenseStatus": "ACTIVE",
    "inService": true,
    "licenseNumber": "550000352",
    "licenseEffectiveDate": "12/21/2024",
    "licenseExpirationDate": "12/20/2025",
    "dataDate": "10/18/2025",
    "capacity": 0,
    "address": "2707 S CENTRAL AVE",
    "city": "LOS ANGELES",
    "zip": "90011",
    "county": "LOS ANGELES",
    "phone": "(626) 488-3111",
    "lat": 34.01755282,
    "lng": -118.2555136
  },
  {
    "id": "630019556",
    "name": "EISNER HEALTH - STUDENT AND FAMILY WELLNESS CENTER",
    "npi": null,
    "hcaiId": null,
    "businessName": "PEDIATRIC & FAMILY MEDICAL CENTER",
    "contactEmail": null,
    "categoryName": "PRIMARY CARE CLINIC",
    "categoryCode": "COMTYC",
    "licenseStatus": "ACTIVE",
    "inService": true,
    "licenseNumber": "550001612",
    "licenseEffectiveDate": "06/24/2025",
    "licenseExpirationDate": "06/23/2026",
    "dataDate": "10/18/2025",
    "capacity": 0,
    "address": "1921 MAPLE AVE",
    "city": "LOS ANGELES",
    "zip": "90011",
    "county": "LOS ANGELES",
    "phone": null,
    "lat": 34.029018,
    "lng": -118.264113
  },
  {
    "id": "630014191",
    "name": "KEDREN COMMUNITY CARE CLINIC",
    "npi": "1417378597",
    "hcaiId": "306197865",
    "businessName": "KEDREN COMMUNITY HEALTH CENTER, INC.",
    "contactEmail": "FMARFORI@KEDREN.ORG",
    "categoryName": "PRIMARY CARE CLINIC",
    "categoryCode": "COMTYC",
    "licenseStatus": "ACTIVE",
    "inService": true,
    "licenseNumber": "550002516",
    "licenseEffectiveDate": "12/18/2024",
    "licenseExpirationDate": "12/17/2025",
    "dataDate": "10/18/2025",
    "capacity": 0,
    "address": "4211 AVALON BLVD, SUITE A",
    "city": "LOS ANGELES",
    "zip": "90011",
    "county": "LOS ANGELES",
    "phone": "(323) 803-0308",
    "lat": 34.007211,
    "lng": -118.2654315
  },
  {
    "id": "930000194",
    "name": "KEDREN COMMUNITY MENTAL HEALTH CENTER",
    "npi": "1255548483",
    "hcaiId": "106190150",
    "businessName": "KEDREN COMMUNITY HEALTH CENTER, INC.",
    "contactEmail": "GPOLK@KEDREN.ORG",
    "categoryName": "ACUTE PSYCHIATRIC HOSPITAL",
    "categoryCode": "APH",
    "licenseStatus": "ACTIVE",
    "inService": true,
    "licenseNumber": "930000028",
    "licenseEffectiveDate": "12/06/2024",
    "licenseExpirationDate": "12/05/2025",
    "dataDate": "10/18/2025",
    "capacity": 72,
    "address": "4211 AVALON BLVD",
    "city": "LOS ANGELES",
    "zip": "90011",
    "county": "LOS ANGELES",
    "phone": "(323) 233-0425",
    "lat": 34.007211,
    "lng": -118.2654315
  },
  {
    "id": "970000141",
    "name": "MAPLE HEALTHCARE CENTER",
    "npi": "1104539956",
    "hcaiId": "206190498",
    "businessName": "MAPLE HEALTHCARE CENTER, LLC",
    "contactEmail": "ADMINISTRATOR@MAPLEHC.COM",
    "categoryName": "SKILLED NURSING FACILITY",
    "categoryCode": "SNF",
    "licenseStatus": "ACTIVE",
    "inService": true,
    "licenseNumber": "970000070",
    "licenseEffectiveDate": "06/12/2025",
    "licenseExpirationDate": "03/31/2026",
    "dataDate": "10/18/2025",
    "capacity": 59,
    "address": "2625 MAPLE AVE",
    "city": "LOS ANGELES",
    "zip": "90011",
    "county": "LOS ANGELES",
    "phone": "(213) 747-6371",
    "lat": 34.02279,
    "lng": -118.265985
  },
  {
    "id": "630022837",
    "name": "SCFHC - MOBILE UNIT",
    "npi": "1588908305",
    "hcaiId": null,
    "businessName": "SOUTH CENTRAL FAMILY HEALTH CENTER",
    "contactEmail": null,
    "categoryName": "PRIMARY CARE CLINIC",
    "categoryCode": "COMTYC",
    "licenseStatus": "ACTIVE",
    "inService": true,
    "licenseNumber": "550002413",
    "licenseEffectiveDate": "09/30/2025",
    "licenseExpirationDate": "09/29/2026",
    "dataDate": "10/18/2025",
    "capacity": 0,
    "address": "4425 S CENTRAL AVE",
    "city": "LOS ANGELES",
    "zip": "90011",
    "county": "LOS ANGELES",
    "phone": null,
    "lat": 34.003062,
    "lng": -118.256769
  },
  {
    "id": "630022838",
    "name": "SCFHC - VISION CENTER",
    "npi": "1588908305",
    "hcaiId": null,
    "businessName": "SOUTH CENTRAL FAMILY HEALTH CENTER",
    "contactEmail": null,
    "categoryName": "PRIMARY CARE CLINIC",
    "categoryCode": "COMTYC",
    "licenseStatus": "ACTIVE",
    "inService": true,
    "licenseNumber": "550002413",
    "licenseEffectiveDate": "09/30/2025",
    "licenseExpirationDate": "09/29/2026",
    "dataDate": "10/18/2025",
    "capacity": 0,
    "address": "4411 S CENTRAL AVE",
    "city": "LOS ANGELES",
    "zip": "90011",
    "county": "LOS ANGELES",
    "phone": null,
    "lat": 34.00353,
    "lng": -118.2567555
  },
  {
    "id": "630017940",
    "name": "SOUTH CENTRAL FAMILY DENTAL & MEDICAL",
    "npi": null,
    "hcaiId": "306190394",
    "businessName": "SOUTH CENTRAL FAMILY HEALTH CENTER",
    "contactEmail": "PAULR@SCFH.ORG",
    "categoryName": "PRIMARY CARE CLINIC",
    "categoryCode": "COMTYC",
    "licenseStatus": "ACTIVE",
    "inService": true,
    "licenseNumber": "550002413",
    "licenseEffectiveDate": "09/30/2025",
    "licenseExpirationDate": "09/29/2026",
    "dataDate": "10/18/2025",
    "capacity": 0,
    "address": "4415 S CENTRAL AVE, SUITE 100",
    "city": "LOS ANGELES",
    "zip": "90011",
    "county": "LOS ANGELES",
    "phone": "(323) 908-5505",
    "lat": 34.00344,
    "lng": -118.2567645
  },
  {
    "id": "960000214",
    "name": "SOUTH CENTRAL FAMILY HEALTH CENTER",
    "npi": null,
    "hcaiId": "306191356",
    "businessName": "SOUTH CENTRAL FAMILY HEALTH CENTER",
    "contactEmail": "MARIAOC@SCFHC.ORG",
    "categoryName": "PRIMARY CARE CLINIC",
    "categoryCode": "COMTYC",
    "licenseStatus": "ACTIVE",
    "inService": true,
    "licenseNumber": "550002413",
    "licenseEffectiveDate": "09/30/2025",
    "licenseExpirationDate": "09/29/2026",
    "dataDate": "10/18/2025",
    "capacity": 0,
    "address": "4425 S CENTRAL AVE",
    "city": "LOS ANGELES",
    "zip": "90011",
    "county": "LOS ANGELES",
    "phone": "(323) 905-5809",
    "lat": 34.003062,
    "lng": -118.256769
  },
  {
    "id": "630017545",
    "name": "SOUTH CENTRAL FAMILY HEALTH CENTER - VERNON",
    "npi": null,
    "hcaiId": null,
    "businessName": "SOUTH CENTRAL FAMILY HEALTH CENTER",
    "contactEmail": "CMURILLO@WIPFLI.COM",
    "categoryName": "PRIMARY CARE CLINIC",
    "categoryCode": "COMTYC",
    "licenseStatus": "ACTIVE",
    "inService": true,
    "licenseNumber": "960000260",
    "licenseEffectiveDate": "11/01/2025",
    "licenseExpirationDate": "10/31/2026",
    "dataDate": "10/18/2025",
    "capacity": 0,
    "address": "1028 E VERNON AVE",
    "city": "LOS ANGELES",
    "zip": "90011",
    "county": "LOS ANGELES",
    "phone": "(323) 905-5888",
    "lat": 34.003683,
    "lng": -118.25757
  },
  {
    "id": "630017177",
    "name": "UNIVERSAL COMMUNITY HEALTH CENTER",
    "npi": null,
    "hcaiId": "306198409",
    "businessName": "UNIVERSAL COMMUNITY HEALTH CENTER",
    "contactEmail": "VLUNAJONES@UCHCLA.ORG",
    "categoryName": "PRIMARY CARE CLINIC",
    "categoryCode": "COMTYC",
    "licenseStatus": "ACTIVE",
    "inService": true,
    "licenseNumber": "550003832",
    "licenseEffectiveDate": "04/12/2025",
    "licenseExpirationDate": "04/11/2026",
    "dataDate": "10/18/2025",
    "capacity": 0,
    "address": "2801 S SAN PEDRO ST",
    "city": "LOS ANGELES",
    "zip": "90011",
    "county": "LOS ANGELES",
    "phone": "(323) 545-0136",
    "lat": 34.019829,
    "lng": -118.2626415
  },
  {
    "id": "630019534",
    "name": "UNIVERSAL COMMUNITY HEALTH CENTER",
    "npi": null,
    "hcaiId": null,
    "businessName": "UNIVERSAL COMMUNITY HEALTH CENTER",
    "contactEmail": null,
    "categoryName": "PRIMARY CARE CLINIC",
    "categoryCode": "COMTYC",
    "licenseStatus": "ACTIVE",
    "inService": true,
    "licenseNumber": "550001520",
    "licenseEffectiveDate": "03/30/2025",
    "licenseExpirationDate": "03/29/2026",
    "dataDate": "10/18/2025",
    "capacity": 0,
    "address": "2098 S CENTRAL AVE",
    "city": "LOS ANGELES",
    "zip": "90011",
    "county": "LOS ANGELES",
    "phone": null,
    "lat": 34.02244177,
    "lng": -118.2523343
  },
  {
    "id": "630020260",
    "name": "UNIVERSAL COMMUNITY HEALTH CENTER",
    "npi": null,
    "hcaiId": null,
    "businessName": "UNIVERSAL COMMUNITY HEALTH CENTER",
    "contactEmail": null,
    "categoryName": "PRIMARY CARE CLINIC",
    "categoryCode": "COMTYC",
    "licenseStatus": "ACTIVE",
    "inService": true,
    "licenseNumber": "550003832",
    "licenseEffectiveDate": "04/12/2025",
    "licenseExpirationDate": "04/11/2026",
    "dataDate": "10/18/2025",
    "capacity": 0,
    "address": "2801 S SAN PEDRO ST",
    "city": "LOS ANGELES",
    "zip": "90011",
    "county": "LOS ANGELES",
    "phone": null,
    "lat": 34.019829,
    "lng": -118.2626415
  },
  {
    "id": "630024402",
    "name": "UNIVERSAL COMMUNITY HEALTH CENTER",
    "npi": null,
    "hcaiId": null,
    "businessName": "UNIVERSAL COMMUNITY HEALTH CENTER",
    "contactEmail": "VLUNAJONES@UCHCLA.ORG",
    "categoryName": "PRIMARY CARE CLINIC",
    "categoryCode": "COMTYC",
    "licenseStatus": "ACTIVE",
    "inService": true,
    "licenseNumber": "550003832",
    "licenseEffectiveDate": "04/12/2025",
    "licenseExpirationDate": "04/11/2026",
    "dataDate": "10/18/2025",
    "capacity": 0,
    "address": "900 E 33RD ST",
    "city": "LOS ANGELES",
    "zip": "90011",
    "county": "LOS ANGELES",
    "phone": "(323) 233-3100",
    "lat": 34.01457538,
    "lng": -118.260793
  },
  {
    "id": "630025890",
    "name": "UNIVERSAL COMMUNITY HEALTH CENTER",
    "npi": null,
    "hcaiId": null,
    "businessName": "UNIVERSAL COMMUNITY HEALTH CENTER",
    "contactEmail": "VLUNAJONES@UCHCLA.ORG",
    "categoryName": "PRIMARY CARE CLINIC",
    "categoryCode": "FQHC/COMTYC",
    "licenseStatus": "ACTIVE",
    "inService": true,
    "licenseNumber": "550009962",
    "licenseEffectiveDate": "07/10/2025",
    "licenseExpirationDate": "01/09/2026",
    "dataDate": "10/18/2025",
    "capacity": 0,
    "address": "1919 S SAN PEDRO ST",
    "city": "LOS ANGELES",
    "zip": "90011",
    "county": "LOS ANGELES",
    "phone": "(323) 545-0156",
    "lat": 34.027218,
    "lng": -118.257894
  },
  {
    "id": "630026591",
    "name": "UNIVERSAL COMMUNITY HEALTH CENTER MOBILE #2",
    "npi": null,
    "hcaiId": null,
    "businessName": "UNIVERSAL COMMUNITY HEALTH CENTER",
    "contactEmail": null,
    "categoryName": "PRIMARY CARE CLINIC",
    "categoryCode": "COMTYC",
    "licenseStatus": "ACTIVE",
    "inService": true,
    "licenseNumber": "550003832",
    "licenseEffectiveDate": "04/12/2025",
    "licenseExpirationDate": "04/11/2026",
    "dataDate": "10/18/2025",
    "capacity": 0,
    "address": "2801 S SAN PEDRO ST",
    "city": "LOS ANGELES",
    "zip": "90011",
    "county": "LOS ANGELES",
    "phone": null,
    "lat": 34.019829,
    "lng": -118.2626415
  },
  {
    "id": "970000135",
    "name": "UNIVERSITY PARK HEALTHCARE CENTER",
    "npi": "1841903697",
    "hcaiId": "206190208",
    "businessName": "UNIVERSITY HEALTH, LLC",
    "contactEmail": "ADMINISTRATOR@UPHCC.COM",
    "categoryName": "SKILLED NURSING FACILITY",
    "categoryCode": "SNF",
    "licenseStatus": "ACTIVE",
    "inService": true,
    "licenseNumber": "970000067",
    "licenseEffectiveDate": "05/21/2025",
    "licenseExpirationDate": "01/26/2026",
    "dataDate": "10/18/2025",
    "capacity": 88,
    "address": "230 E ADAMS BLVD",
    "city": "LOS ANGELES",
    "zip": "90011",
    "county": "LOS ANGELES",
    "phone": "(213) 748-0491",
    "lat": 34.023753,
    "lng": -118.266597
  },
  {
    "id": "630014380",
    "name": "WELLNESS CENTER AT JEFFERSON HIGH SCHOOL",
    "npi": "1588908305",
    "hcaiId": "306197842",
    "businessName": "SOUTH CENTRAL FAMILY HEALTH CENTER",
    "contactEmail": "MARIAOC@SCFHC.ORG",
    "categoryName": "PRIMARY CARE CLINIC",
    "categoryCode": "COMTYC",
    "licenseStatus": "ACTIVE",
    "inService": true,
    "licenseNumber": "550002413",
    "licenseEffectiveDate": "09/30/2025",
    "licenseExpirationDate": "09/29/2026",
    "dataDate": "10/18/2025",
    "capacity": 0,
    "address": "3410 HOOPER AVE",
    "city": "LOS ANGELES",
    "zip": "90011",
    "county": "LOS ANGELES",
    "phone": "(323) 905-5809",
    "lat": 34.01274481,
    "lng": -118.2521018
  }
]