[
  {
    "id": "060001811",
    "name": "ABC DAY HEALTH CENTER",
    "npi": null,
    "hcaiId": null,
    "businessName": "ADVANCED MEDICAL CARE, INC.",
    "contactEmail": "ABCCHINATOWN@GMAIL.COM",
    "categoryName": "ADULT DAY HEALTH CARE",
    "categoryCode": "ADHC",
    "licenseStatus": "ACTIVE",
    "inService": true,
    "licenseNumber": "060000628",
    "licenseEffectiveDate": "11/13/2024",
    "licenseExpirationDate": "11/12/2025",
    "dataDate": "10/18/2025",
    "capacity": 0,
    "address": "417 ALPINE ST",
    "city": "LOS ANGELES",
    "zip": "90012",
    "county": "LOS ANGELES",
    "phone": "(213) 481-0888",
    "lat": 34.062786,
    "lng": -118.238859
  },
  {
    "id": "630026388",
    "name": "CHINATOWN SERVICE CENTER - BEHAVIORAL HEALTH",
    "npi": "1427046754",
    "hcaiId": null,
    "businessName": "CHINATOWN SERVICE CENTER",
    "contactEmail": "JACHENG@CSCLA.ORG",
    "categoryName": "PRIMARY CARE CLINIC",
    "categoryCode": "COMTYC",
    "licenseStatus": "ACTIVE",
    "inService": true,
    "licenseNumber": "960000220",
    "licenseEffectiveDate": "01/16/2025",
    "licenseExpirationDate": "01/15/2026",
    "dataDate": "10/18/2025",
    "capacity": 0,
    "address": "767 N HILL ST, SUITE 400B",
    "city": "LOS ANGELES",
    "zip": "90012",
    "county": "LOS ANGELES",
    "phone": "(213) 808-1709",
    "lat": 34.062552,
    "lng": -118.239867
  },
  {
    "id": "630027657",
    "name": "CHINATOWN SERVICE CENTER - CHINATOWN",
    "npi": "1427046754",
    "hcaiId": null,
    "businessName": "CHINATOWN SERVICE CENTER",
    "contactEmail": null,
    "categoryName": "PRIMARY CARE CLINIC",
    "categoryCode": "COMTYC",
    "licenseStatus": "ACTIVE",
    "inService": true,
    "licenseNumber": "960000220",
    "licenseEffectiveDate": "01/16/2025",
    "licenseExpirationDate": "01/15/2026",
    "dataDate": "10/18/2025",
    "capacity": 0,
    "address": "711 W COLLEGE ST, SUITE M38",
    "city": "LOS ANGELES",
    "zip": "90012",
    "county": "LOS ANGELES",
    "phone": null,
    "lat": 34.06566702,
    "lng": -118.241288
  },
  {
    "id": "630026387",
    "name": "CHINATOWN SERVICE CENTER - DENTAL",
    "npi": "1427046754",
    "hcaiId": null,
    "businessName": "CHINATOWN SERVICE CENTER",
    "contactEmail": "JACHENG@CSCLA.ORG",
    "categoryName": "PRIMARY CARE CLINIC",
    "categoryCode": "COMTYC",
    "licenseStatus": "ACTIVE",
    "inService": true,
    "licenseNumber": "960000220",
    "licenseEffectiveDate": "01/16/2025",
    "licenseExpirationDate": "01/15/2026",
    "dataDate": "10/18/2025",
    "capacity": 0,
    "address": "767 N HILL ST, SUITE 315",
    "city": "LOS ANGELES",
    "zip": "90012",
    "county": "LOS ANGELES",
    "phone": "(213) 808-1709",
    "lat": 34.062552,
    "lng": -118.239867
  },
  {
    "id": "630021297",
    "name": "CHINATOWN SERVICE CENTER - MEDICAL MOBILE CLINIC #1",
    "npi": "1427046754",
    "hcaiId": null,
    "businessName": "CHINATOWN SERVICE CENTER",
    "contactEmail": null,
    "categoryName": "PRIMARY CARE CLINIC",
    "categoryCode": "COMTYC",
    "licenseStatus": "ACTIVE",
    "inService": true,
    "licenseNumber": "960000220",
    "licenseEffectiveDate": "01/16/2025",
    "licenseExpirationDate": "01/15/2026",
    "dataDate": "10/18/2025",
    "capacity": 0,
    "address": "767 N HILL ST, SUITE 200",
    "city": "LOS ANGELES",
    "zip": "90012",
    "county": "LOS ANGELES",
    "phone": null,
    "lat": 34.062552,
    "lng": -118.239867
  },
  {
    "id": "630021278",
    "name": "CHINATOWN SERVICE CENTER - MEDICAL MOBILE CLINIC #2",
    "npi": "1427046754",
    "hcaiId": null,
    "businessName": "CHINATOWN SERVICE CENTER",
    "contactEmail": null,
    "categoryName": "PRIMARY CARE CLINIC",
    "categoryCode": "COMTYC",
    "licenseStatus": "ACTIVE",
    "inService": true,
    "licenseNumber": "960000220",
    "licenseEffectiveDate": "01/16/2025",
    "licenseExpirationDate": "01/15/2026",
    "dataDate": "10/18/2025",
    "capacity": 0,
    "address": "767 N HILL ST, SUITE 200",
    "city": "LOS ANGELES",
    "zip": "90012",
    "county": "LOS ANGELES",
    "phone": null,
    "lat": 34.062552,
    "lng": -118.239867
  },
  {
    "id": "960000145",
    "name": "CHINATOWN SERVICE CENTER FAMILY HEALTH CLINIC",
    "npi": "1427046754",
    "hcaiId": "306191109",
    "businessName": "CHINATOWN SERVICE CENTER",
    "contactEmail": "ACHING@CSCLA.ORG",
    "categoryName": "PRIMARY CARE CLINIC",
    "categoryCode": "COMTYC",
    "licenseStatus": "ACTIVE",
    "inService": true,
    "licenseNumber": "960000220",
    "licenseEffectiveDate": "01/16/2025",
    "licenseExpirationDate": "01/15/2026",
    "dataDate": "10/18/2025",
    "capacity": 0,
    "address": "767 N HILL ST, SUITE 200",
    "city": "LOS ANGELES",
    "zip": "90012",
    "county": "LOS ANGELES",
    "phone": "(213) 808-1740",
    "lat": 34.062552,
    "lng": -118.239867
  },
  {
    "id": "630017989",
    "name": "CHINATOWN SERVICE CENTER FAMILY HEALTH CLINIC- CESAR CHAVEZ",
    "npi": "1427046754",
    "hcaiId": null,
    "businessName": "CHINATOWN SERVICE CENTER",
    "contactEmail": null,
    "categoryName": "PRIMARY CARE CLINIC",
    "categoryCode": "COMTYC",
    "licenseStatus": "ACTIVE",
    "inService": true,
    "licenseNumber": "960000220",
    "licenseEffectiveDate": "01/16/2025",
    "licenseExpirationDate": "01/15/2026",
    "dataDate": "10/18/2025",
    "capacity": 0,
    "address": "817 W. CESAR  ESTRADA CHAVEZ AVENUE",
    "city": "LOS ANGELES",
    "zip": "90012",
    "county": "LOS ANGELES",
    "phone": null,
    "lat": 34.0617515,
    "lng": -118.2470358
  },
  {
    "id": "060002065",
    "name": "GOOD HEALTH ADULT DAY HEALTH CARE CENTER",
    "npi": null,
    "hcaiId": null,
    "businessName": "GOOD HEALTH ADULT DAY HEALTH CARE, INC.",
    "contactEmail": "GOODHEALTHADHC@YAHOO.COM",
    "categoryName": "ADULT DAY HEALTH CARE",
    "categoryCode": "ADHC",
    "licenseStatus": "ACTIVE",
    "inService": true,
    "licenseNumber": "060000834",
    "licenseEffectiveDate": "12/11/2024",
    "licenseExpirationDate": "12/10/2025",
    "dataDate": "10/18/2025",
    "capacity": 0,
    "address": "988 N HILL ST, SUITE 111",
    "city": "LOS ANGELES",
    "zip": "90012",
    "county": "LOS ANGELES",
    "phone": "(213) 680-8880",
    "lat": 34.06671,
    "lng": -118.2373875
  },
  {
    "id": "930000121",
    "name": "KAISER FOUNDATION HOSP MENTAL HEALTH CTR D/P APH",
    "npi": "1821143777",
    "hcaiId": "106190646",
    "businessName": "KAISER FOUNDATION HOSPITALS",
    "contactEmail": null,
    "categoryName": "ACUTE PSYCHIATRIC HOSPITAL",
    "categoryCode": "APH",
    "licenseStatus": "ACTIVE",
    "inService": true,
    "licenseNumber": "930000077",
    "licenseEffectiveDate": "11/01/2025",
    "licenseExpirationDate": "10/31/2026",
    "dataDate": "10/18/2025",
    "capacity": 68,
    "address": "765 W COLLEGE ST",
    "city": "LOS ANGELES",
    "zip": "90012",
    "county": "LOS ANGELES",
    "phone": "(213) 580-7200",
    "lat": 34.066206,
    "lng": -118.243395
  },
  {
    "id": "170001873",
    "name": "LA COUNTY SHERIFF'S DEPT TWIN TOWERS CTC",
    "npi": null,
    "hcaiId": null,
    "businessName": "LOS ANGELES COUNTY SHERIFF'S DEPT MEDICAL SERVICES",
    "contactEmail": "JHUANG2@DHS.LACOUNTY.GOV",
    "categoryName": "CORRECTIONAL TREATMENT CENTER",
    "categoryCode": "CTC",
    "licenseStatus": "ACTIVE",
    "inService": true,
    "licenseNumber": "170000845",
    "licenseEffectiveDate": "11/01/2025",
    "licenseExpirationDate": "10/31/2026",
    "dataDate": "10/18/2025",
    "capacity": 196,
    "address": "450 BAUCHET ST",
    "city": "LOS ANGELES",
    "zip": "90012",
    "county": "LOS ANGELES",
    "phone": "(213) 473-6164",
    "lat": 34.058592,
    "lng": -118.230687
  },
  {
    "id": "630012095",
    "name": "NURSES AND ANGELS HOME HEALTH, INC.",
    "npi": null,
    "hcaiId": "406197415",
    "businessName": "NURSES AND ANGELS HOME HEALTH, INC.",
    "contactEmail": "NURSESANDANGELS@GMAIL.COM",
    "categoryName": "HOME HEALTH AGENCY",
    "categoryCode": "HHA",
    "licenseStatus": "ACTIVE",
    "inService": true,
    "licenseNumber": "550001322",
    "licenseEffectiveDate": "11/12/2024",
    "licenseExpirationDate": "11/11/2025",
    "dataDate": "10/18/2025",
    "capacity": 0,
    "address": "609 N BUNKER HILL AVE",
    "city": "LOS ANGELES",
    "zip": "90012",
    "county": "LOS ANGELES",
    "phone": "(213) 613-0668",
    "lat": 34.061589,
    "lng": -118.244493
  },
  {
    "id": "630025196",
    "name": "PRECISION HEALTH CENTER",
    "npi": null,
    "hcaiId": "306190699",
    "businessName": "PRECISION HEALTH CENTER",
    "contactEmail": "JIMMY@PRECISIONHC.ORG",
    "categoryName": "PRIMARY CARE CLINIC",
    "categoryCode": "COMTYC",
    "licenseStatus": "ACTIVE",
    "inService": true,
    "licenseNumber": "550008085",
    "licenseEffectiveDate": "07/13/2025",
    "licenseExpirationDate": "07/12/2026",
    "dataDate": "10/18/2025",
    "capacity": 0,
    "address": "709 N HILL ST, SUITE 18",
    "city": "LOS ANGELES",
    "zip": "90012",
    "county": "LOS ANGELES",
    "phone": "(213) 687-0888",
    "lat": 34.061157,
    "lng": -118.2408795
  }
]