[
  {
    "id": "630014817",
    "name": "AHF DOWNTOWN DENTAL OFFICE",
    "npi": "1366884199",
    "hcaiId": "306197949",
    "businessName": "AIDS HEALTHCARE FOUNDATION",
    "contactEmail": "PHARMACYOPERATIONS@AHFRX.ORG",
    "categoryName": "PRIMARY CARE CLINIC",
    "categoryCode": "COMTYC",
    "licenseStatus": "ACTIVE",
    "inService": true,
    "licenseNumber": "550002812",
    "licenseEffectiveDate": "09/04/2025",
    "licenseExpirationDate": "09/03/2026",
    "dataDate": "10/18/2025",
    "capacity": 0,
    "address": "1414 S GRAND AVE, SUITE 485",
    "city": "LOS ANGELES",
    "zip": "90015",
    "county": "LOS ANGELES",
    "phone": "(310) 999-6089",
    "lat": 34.036452,
    "lng": -118.265346
  },
  {
    "id": "960002470",
    "name": "AHF HEALTHCARE CENTER - DOWNTOWN",
    "npi": "1821072943",
    "hcaiId": "306197824",
    "businessName": "AIDS HEALTHCARE FOUNDATION",
    "contactEmail": "PHARMACYOPERATIONS@AHFRX.ORG",
    "categoryName": "PRIMARY CARE CLINIC",
    "categoryCode": "COMTYC",
    "licenseStatus": "ACTIVE",
    "inService": true,
    "licenseNumber": "960001127",
    "licenseEffectiveDate": "05/04/2025",
    "licenseExpirationDate": "05/03/2026",
    "dataDate": "10/18/2025",
    "capacity": 0,
    "address": "1400 S GRAND AVE, SUITE 801",
    "city": "LOS ANGELES",
    "zip": "90015",
    "county": "LOS ANGELES",
    "phone": "(310) 999-6089",
    "lat": 34.036731,
    "lng": -118.265094
  },
  {
    "id": "930000002",
    "name": "CALIFORNIA HOSPITAL MEDICAL CENTER - LOS ANGELES",
    "npi": "1114081056",
    "hcaiId": "106190125",
    "businessName": "DIGNITY COMMUNITY CARE",
    "contactEmail": "ALINA.MORAN@COMMONSPIRIT.ORG",
    "categoryName": "GENERAL ACUTE CARE HOSPITAL",
    "categoryCode": "GACH",
    "licenseStatus": "ACTIVE",
    "inService": true,
    "licenseNumber": "930000024",
    "licenseEffectiveDate": "01/01/2025",
    "licenseExpirationDate": "12/31/2025",
    "dataDate": "10/18/2025",
    "capacity": 392,
    "address": "1401 S GRAND AVE",
    "city": "LOS ANGELES",
    "zip": "90015",
    "county": "LOS ANGELES",
    "phone": "(213) 748-2411",
    "lat": 34.03746,
    "lng": -118.2658005
  },
  {
    "id": "630013139",
    "name": "EISNER HEALTH FAMILY MEDICINE CENTER AT CALIFORNIA HOSPITAL",
    "npi": null,
    "hcaiId": "306197559",
    "businessName": "PEDIATRIC & FAMILY MEDICAL CENTER",
    "contactEmail": "WBRODINE@EISNERHEALTH.ORG",
    "categoryName": "PRIMARY CARE CLINIC",
    "categoryCode": "COMTYC",
    "licenseStatus": "ACTIVE",
    "inService": true,
    "licenseNumber": "550001612",
    "licenseEffectiveDate": "06/24/2025",
    "licenseExpirationDate": "06/23/2026",
    "dataDate": "10/18/2025",
    "capacity": 0,
    "address": "1400 S. GRAND AVE., SUITE 101",
    "city": "LOS ANGELES",
    "zip": "90015",
    "county": "LOS ANGELES",
    "phone": "(213) 746-1037",
    "lat": 34.036731,
    "lng": -118.265094
  },
  {
    "id": "960000137",
    "name": "EISNER PEDIATRIC & FAMILY MEDICAL CENTER",
    "npi": null,
    "hcaiId": "306190127",
    "businessName": "PEDIATRIC & FAMILY MEDICAL CENTER",
    "contactEmail": "WBRODINE@EISNERHEALTH.ORG",
    "categoryName": "PRIMARY CARE CLINIC",
    "categoryCode": "COMTYC",
    "licenseStatus": "ACTIVE",
    "inService": true,
    "licenseNumber": "550003550",
    "licenseEffectiveDate": "06/20/2025",
    "licenseExpirationDate": "06/19/2026",
    "dataDate": "10/18/2025",
    "capacity": 0,
    "address": "1530 S OLIVE ST",
    "city": "LOS ANGELES",
    "zip": "90015",
    "county": "LOS ANGELES",
    "phone": "(213) 746-1037",
    "lat": 34.035291,
    "lng": -118.2650895
  },
  {
    "id": "630016099",
    "name": "EISNER PEDIATRIC & FAMILY MEDICAL CENTER - WOMEN'S HEALTH CENTER",
    "npi": null,
    "hcaiId": "306198085",
    "businessName": "PEDIATRIC & FAMILY MEDICAL CENTER",
    "contactEmail": "MMCCARTHY@EISNERHEALTH.ORG",
    "categoryName": "PRIMARY CARE CLINIC",
    "categoryCode": "COMTYC",
    "licenseStatus": "ACTIVE",
    "inService": true,
    "licenseNumber": "550003169",
    "licenseEffectiveDate": "07/28/2025",
    "licenseExpirationDate": "07/27/2026",
    "dataDate": "10/18/2025",
    "capacity": 0,
    "address": "1513 S. GRAND AVE, SUITE 220 & 250",
    "city": "LOS ANGELES",
    "zip": "90015",
    "county": "LOS ANGELES",
    "phone": "(213) 747-5542",
    "lat": 34.036173,
    "lng": -118.266669
  },
  {
    "id": "630010987",
    "name": "FRESENIUS MEDICAL CARE OF MID-WILSHIRE",
    "npi": "1801098272",
    "hcaiId": "306190599",
    "businessName": "BIO-MEDICAL APPLICATIONS OF CALIFORNIA INC.",
    "contactEmail": "CLINIC2869@FMC-NA.COM",
    "categoryName": "CHRONIC DIALYSIS CLINIC",
    "categoryCode": "ESRD/CDC",
    "licenseStatus": "ACTIVE",
    "inService": true,
    "licenseNumber": "550000488",
    "licenseEffectiveDate": "05/30/2025",
    "licenseExpirationDate": "05/29/2026",
    "dataDate": "10/18/2025",
    "capacity": 25,
    "address": "1422 W 11TH ST",
    "city": "LOS ANGELES",
    "zip": "90015",
    "county": "LOS ANGELES",
    "phone": "(213) 784-4568",
    "lat": 34.04647468,
    "lng": -118.2725169
  },
  {
    "id": "630027322",
    "name": "GOLDEN UNITED HOME HEALTH, INC.",
    "npi": null,
    "hcaiId": null,
    "businessName": "GOLDEN UNITED HOME HEALTH, INC.",
    "contactEmail": null,
    "categoryName": "HOME HEALTH AGENCY",
    "categoryCode": "HHA",
    "licenseStatus": "ACTIVE",
    "inService": true,
    "licenseNumber": "550009832",
    "licenseEffectiveDate": "10/16/2025",
    "licenseExpirationDate": "04/15/2026",
    "dataDate": "10/18/2025",
    "capacity": 0,
    "address": "117 W 9TH ST, SUITE 604",
    "city": "LOS ANGELES",
    "zip": "90015",
    "county": "LOS ANGELES",
    "phone": "(818) 527-4227",
    "lat": 34.04197599,
    "lng": -118.255183
  },
  {
    "id": "630023890",
    "name": "GRAND AVENUE SURGERY CENTER, LLC",
    "npi": null,
    "hcaiId": null,
    "businessName": null,
    "contactEmail": "MATTHEW@HPASC.COM",
    "categoryName": "SURGICAL CLINIC",
    "categoryCode": "ASC",
    "licenseStatus": null,
    "inService": null,
    "licenseNumber": null,
    "licenseEffectiveDate": null,
    "licenseExpirationDate": null,
    "dataDate": "10/18/2025",
    "capacity": 0,
    "address": "1400 S GRAND AVE, SUITE 700",
    "city": "LOS ANGELES",
    "zip": "90015",
    "county": "LOS ANGELES",
    "phone": "(213) 866-1900",
    "lat": 34.036974,
    "lng": -118.2652785
  },
  {
    "id": "060002103",
    "name": "KINGSLEY PLACE ADULT HEALTH DAY CARE CENTER II",
    "npi": null,
    "hcaiId": null,
    "businessName": "KINGSLEY PLACE ADULT HEALTH DAY CARE II",
    "contactEmail": "KINGSLEYPLACEADHC2@GMAIL.COM",
    "categoryName": "ADULT DAY HEALTH CARE",
    "categoryCode": "ADHC",
    "licenseStatus": "ACTIVE",
    "inService": true,
    "licenseNumber": "060000907",
    "licenseEffectiveDate": "11/09/2025",
    "licenseExpirationDate": "11/08/2026",
    "dataDate": "10/18/2025",
    "capacity": 0,
    "address": "1225 JAMES M. WOOD",
    "city": "LOS ANGELES",
    "zip": "90015",
    "county": "LOS ANGELES",
    "phone": "(213) 387-9097",
    "lat": 34.048863,
    "lng": -118.2684105
  },
  {
    "id": "630017230",
    "name": "NORTHEAST COMMUNITY CLINIC",
    "npi": null,
    "hcaiId": null,
    "businessName": "NORTHEAST COMMUNITY CLINIC",
    "contactEmail": null,
    "categoryName": "PRIMARY CARE CLINIC",
    "categoryCode": "COMTYC",
    "licenseStatus": "ACTIVE",
    "inService": true,
    "licenseNumber": "550002400",
    "licenseEffectiveDate": "09/20/2025",
    "licenseExpirationDate": "09/19/2026",
    "dataDate": "10/18/2025",
    "capacity": 0,
    "address": "1414 S GRAND AVE, SUITE 456",
    "city": "LOS ANGELES",
    "zip": "90015",
    "county": "LOS ANGELES",
    "phone": null,
    "lat": 34.036452,
    "lng": -118.265346
  },
  {
    "id": "630017663",
    "name": "NORTHEAST COMMUNITY CLINIC",
    "npi": null,
    "hcaiId": null,
    "businessName": "NORTHEAST COMMUNITY CLINIC",
    "contactEmail": null,
    "categoryName": "PRIMARY CARE CLINIC",
    "categoryCode": "COMTYC",
    "licenseStatus": "ACTIVE",
    "inService": true,
    "licenseNumber": "550002400",
    "licenseEffectiveDate": "09/20/2025",
    "licenseExpirationDate": "09/19/2026",
    "dataDate": "10/18/2025",
    "capacity": 0,
    "address": "1414 S GRAND AVE, SUITE 380",
    "city": "LOS ANGELES",
    "zip": "90015",
    "county": "LOS ANGELES",
    "phone": null,
    "lat": 34.036452,
    "lng": -118.265346
  },
  {
    "id": "630019323",
    "name": "NORTHEAST COMMUNITY CLINIC",
    "npi": null,
    "hcaiId": null,
    "businessName": "NORTHEAST COMMUNITY CLINIC",
    "contactEmail": "RBARAJAS@NECC.NET",
    "categoryName": "PRIMARY CARE CLINIC",
    "categoryCode": "COMTYC",
    "licenseStatus": "ACTIVE",
    "inService": true,
    "licenseNumber": "550000125",
    "licenseEffectiveDate": "02/01/2025",
    "licenseExpirationDate": "01/31/2026",
    "dataDate": "10/18/2025",
    "capacity": 0,
    "address": "1414 S GRAND AVE, SUITE 300",
    "city": "LOS ANGELES",
    "zip": "90015",
    "county": "LOS ANGELES",
    "phone": "(626) 755-4872",
    "lat": 34.036452,
    "lng": -118.265346
  },
  {
    "id": "630019334",
    "name": "NORTHEAST COMMUNITY CLINIC",
    "npi": null,
    "hcaiId": null,
    "businessName": "NORTHEAST COMMUNITY CLINIC",
    "contactEmail": null,
    "categoryName": "PRIMARY CARE CLINIC",
    "categoryCode": "COMTYC",
    "licenseStatus": "ACTIVE",
    "inService": true,
    "licenseNumber": "550000125",
    "licenseEffectiveDate": "02/01/2025",
    "licenseExpirationDate": "01/31/2026",
    "dataDate": "10/18/2025",
    "capacity": 0,
    "address": "1414 S GRAND AVE, SUITE 200",
    "city": "LOS ANGELES",
    "zip": "90015",
    "county": "LOS ANGELES",
    "phone": "(213) 743-9000",
    "lat": 34.036452,
    "lng": -118.265346
  },
  {
    "id": "630014551",
    "name": "PEDIATRIC AND FAMILY MEDICAL CENTER",
    "npi": "1316044522",
    "hcaiId": null,
    "businessName": "PEDIATRIC & FAMILY MEDICAL CENTER",
    "contactEmail": null,
    "categoryName": "PRIMARY CARE CLINIC",
    "categoryCode": "COMTYC",
    "licenseStatus": "ACTIVE",
    "inService": true,
    "licenseNumber": "550003550",
    "licenseEffectiveDate": "06/20/2025",
    "licenseExpirationDate": "06/19/2026",
    "dataDate": "10/18/2025",
    "capacity": 0,
    "address": "1500 S OLIVE ST",
    "city": "LOS ANGELES",
    "zip": "90015",
    "county": "LOS ANGELES",
    "phone": "(213) 747-5542",
    "lat": 34.035669,
    "lng": -118.2648195
  },
  {
    "id": "930001807",
    "name": "U.S.RENAL CARE GRAND AVENUE DIALYSIS",
    "npi": "1548231608",
    "hcaiId": "306196560",
    "businessName": "BARNNY JEPP, LLC",
    "contactEmail": "LEGAL@USRENALCARE.COM",
    "categoryName": "CHRONIC DIALYSIS CLINIC",
    "categoryCode": "ESRD/CDC",
    "licenseStatus": "ACTIVE",
    "inService": true,
    "licenseNumber": "930001008",
    "licenseEffectiveDate": "03/29/2025",
    "licenseExpirationDate": "03/28/2026",
    "dataDate": "10/18/2025",
    "capacity": 21,
    "address": "1400 S GRAND AVE, SUITE 105",
    "city": "LOS ANGELES",
    "zip": "90015",
    "county": "LOS ANGELES",
    "phone": "(213) 748-1414",
    "lat": 34.036731,
    "lng": -118.265094
  },
  {
    "id": "630022171",
    "name": "VIA CARE COMMUNITY HEALTH CENTER",
    "npi": "1497001226",
    "hcaiId": null,
    "businessName": "VIA CARE COMMUNITY HEALTH CENTER, INC.",
    "contactEmail": null,
    "categoryName": "PRIMARY CARE CLINIC",
    "categoryCode": "COMTYC",
    "licenseStatus": "ACTIVE",
    "inService": true,
    "licenseNumber": "960001182",
    "licenseEffectiveDate": "11/15/2025",
    "licenseExpirationDate": "11/14/2026",
    "dataDate": "10/18/2025",
    "capacity": 0,
    "address": "400 W WASHINGTON BLVD, ROOM 107",
    "city": "LOS ANGELES",
    "zip": "90015",
    "county": "LOS ANGELES",
    "phone": null,
    "lat": 34.032735,
    "lng": -118.2703905
  },
  {
    "id": "930001676",
    "name": "WASHINGTON PLAZA DIALYSIS CENTER",
    "npi": "1922061944",
    "hcaiId": "306196136",
    "businessName": "TOTAL RENAL CARE, INC.",
    "contactEmail": "CAL_C@DAVITA.COM",
    "categoryName": "CHRONIC DIALYSIS CLINIC",
    "categoryCode": "ESRD/CDC",
    "licenseStatus": "ACTIVE",
    "inService": true,
    "licenseNumber": "930000940",
    "licenseEffectiveDate": "01/25/2025",
    "licenseExpirationDate": "01/24/2026",
    "dataDate": "10/18/2025",
    "capacity": 25,
    "address": "516 E WASHINGTON BLVD, SUITE 522",
    "city": "LOS ANGELES",
    "zip": "90015",
    "county": "LOS ANGELES",
    "phone": "(213) 749-2433",
    "lat": 34.028262,
    "lng": -118.260117
  }
]