[
  {
    "id": "630024839",
    "name": "CARING ARMS HOME HEALTH CARE, INC.",
    "npi": null,
    "hcaiId": null,
    "businessName": "CARING ARMS HOME HEALTH CARE, INC.",
    "contactEmail": "CARINGARMSHOMEHEALTCAREINC@YAHOO.COM",
    "categoryName": "HOME HEALTH AGENCY",
    "categoryCode": "HHA",
    "licenseStatus": "ACTIVE",
    "inService": true,
    "licenseNumber": "550009005",
    "licenseEffectiveDate": "12/15/2024",
    "licenseExpirationDate": "12/14/2025",
    "dataDate": "10/18/2025",
    "capacity": 0,
    "address": "411 W 7TH ST, SUITE 619",
    "city": "LOS ANGELES",
    "zip": "90014",
    "county": "LOS ANGELES",
    "phone": "(424) 777-8040",
    "lat": 34.046145,
    "lng": -118.254546
  },
  {
    "id": "630021538",
    "name": "EMHOSPICE LLC",
    "npi": null,
    "hcaiId": "406193933",
    "businessName": "EMHOSPICE LLC",
    "contactEmail": "EMHOSPICECARE@GMAIL.COM",
    "categoryName": "HOSPICE",
    "categoryCode": "HOSPICE",
    "licenseStatus": "ACTIVE",
    "inService": true,
    "licenseNumber": "550007044",
    "licenseEffectiveDate": "10/21/2025",
    "licenseExpirationDate": "10/20/2027",
    "dataDate": "10/18/2025",
    "capacity": 0,
    "address": "629 S HILL ST, SUITE 704",
    "city": "LOS ANGELES",
    "zip": "90014",
    "county": "LOS ANGELES",
    "phone": "(310) 290-7621",
    "lat": 34.046829,
    "lng": -118.253835
  },
  {
    "id": "630024680",
    "name": "HIGH QUALITY HOME HEALTH, INC.",
    "npi": null,
    "hcaiId": "406190203",
    "businessName": "HIGH QUALITY HOME HEALTH, INC.",
    "contactEmail": "HIGHQUALITYHOMEHEALTHINC@YAHOO.COM",
    "categoryName": "HOME HEALTH AGENCY",
    "categoryCode": "HHA",
    "licenseStatus": "ACTIVE",
    "inService": true,
    "licenseNumber": "550008943",
    "licenseEffectiveDate": "12/15/2024",
    "licenseExpirationDate": "12/14/2025",
    "dataDate": "10/18/2025",
    "capacity": 0,
    "address": "411 W 7TH ST, SUITE 906",
    "city": "LOS ANGELES",
    "zip": "90014",
    "county": "LOS ANGELES",
    "phone": "(424) 777-8008",
    "lat": 34.046145,
    "lng": -118.254546
  },
  {
    "id": "630023386",
    "name": "INTELLIGENT HOME HEALTH CARE INC.",
    "npi": null,
    "hcaiId": "406195971",
    "businessName": "INTELLIGENT HOME HEALTH CARE INC.",
    "contactEmail": "INTELLIGENTHHCINC@YAHOO.COM",
    "categoryName": "HOME HEALTH AGENCY",
    "categoryCode": "HHA",
    "licenseStatus": "ACTIVE",
    "inService": true,
    "licenseNumber": "550008287",
    "licenseEffectiveDate": "06/08/2023",
    "licenseExpirationDate": "12/07/2023",
    "dataDate": "10/18/2025",
    "capacity": 0,
    "address": "411 W 7TH ST, UNIT 201-C",
    "city": "LOS ANGELES",
    "zip": "90014",
    "county": "LOS ANGELES",
    "phone": "(323) 247-7344",
    "lat": 34.046145,
    "lng": -118.254546
  },
  {
    "id": "630027350",
    "name": "INTENSITY HOME HEALTH INC",
    "npi": null,
    "hcaiId": null,
    "businessName": "INTENSITY HOME HEALTH INC",
    "contactEmail": "INTENSITYHH@GMAIL.COM",
    "categoryName": "HOME HEALTH AGENCY",
    "categoryCode": "HHA",
    "licenseStatus": "ACTIVE",
    "inService": true,
    "licenseNumber": "550009525",
    "licenseEffectiveDate": "04/15/2025",
    "licenseExpirationDate": "10/14/2025",
    "dataDate": "10/18/2025",
    "capacity": 0,
    "address": "608 S HILL ST, SUITE 1313",
    "city": "LOS ANGELES",
    "zip": "90014",
    "county": "LOS ANGELES",
    "phone": "(213) 670-7586",
    "lat": 34.04662501,
    "lng": -118.252928
  },
  {
    "id": "630017030",
    "name": "JWCH MEDICAL CLINIC @ ABBEY APARTMENTS",
    "npi": null,
    "hcaiId": null,
    "businessName": "JWCH INSTITUTE, INC.",
    "contactEmail": null,
    "categoryName": "PRIMARY CARE CLINIC",
    "categoryCode": "COMTYC",
    "licenseStatus": "ACTIVE",
    "inService": true,
    "licenseNumber": "960001280",
    "licenseEffectiveDate": "11/30/2024",
    "licenseExpirationDate": "11/29/2025",
    "dataDate": "10/18/2025",
    "capacity": 0,
    "address": "625 SOUTH SAN PEDRO STREET",
    "city": "LOS ANGELES",
    "zip": "90014",
    "county": "LOS ANGELES",
    "phone": "(213) 362-9739",
    "lat": 34.041798,
    "lng": -118.2460275
  },
  {
    "id": "630019880",
    "name": "KLN COMFORT CARE HOSPICE INC",
    "npi": null,
    "hcaiId": "406192945",
    "businessName": "KLN COMFORT CARE HOSPICE INC",
    "contactEmail": "INFO.KLN.HOSPICE@GMAIL.COM",
    "categoryName": "HOSPICE",
    "categoryCode": "HOSPICE",
    "licenseStatus": "ACTIVE",
    "inService": true,
    "licenseNumber": "550005811",
    "licenseEffectiveDate": "10/23/2024",
    "licenseExpirationDate": "10/22/2026",
    "dataDate": "10/18/2025",
    "capacity": 0,
    "address": "728 S HILL ST, UNIT 1201",
    "city": "LOS ANGELES",
    "zip": "90014",
    "county": "LOS ANGELES",
    "phone": "(424) 247-9175",
    "lat": 34.04511,
    "lng": -118.254915
  },
  {
    "id": "630018638",
    "name": "LA HOME CARE EXPERTS, INC.",
    "npi": null,
    "hcaiId": "406195508",
    "businessName": "LA HOME CARE EXPERTS, INC.",
    "contactEmail": "LAHCE.INC@GMAIL.COM",
    "categoryName": "HOME HEALTH AGENCY",
    "categoryCode": "HHA",
    "licenseStatus": "ACTIVE",
    "inService": true,
    "licenseNumber": "550005885",
    "licenseEffectiveDate": "11/10/2022",
    "licenseExpirationDate": "11/09/2023",
    "dataDate": "10/18/2025",
    "capacity": 0,
    "address": "640 S HILL ST, SUITE 559",
    "city": "LOS ANGELES",
    "zip": "90014",
    "county": "LOS ANGELES",
    "phone": "(424) 501-4504",
    "lat": 34.046307,
    "lng": -118.253844
  },
  {
    "id": "630021254",
    "name": "LOS ANGELES CHRISTIAN HEALTH CENTERS",
    "npi": null,
    "hcaiId": null,
    "businessName": "LOS ANGELES CHRISTIAN HEALTH CENTERS",
    "contactEmail": "SKENNEDY@LACHC.COM",
    "categoryName": "PRIMARY CARE CLINIC",
    "categoryCode": "COMTYC",
    "licenseStatus": "ACTIVE",
    "inService": true,
    "licenseNumber": "550008151",
    "licenseEffectiveDate": "09/08/2025",
    "licenseExpirationDate": "09/07/2026",
    "dataDate": "10/18/2025",
    "capacity": 0,
    "address": "325 E 7TH ST",
    "city": "LOS ANGELES",
    "zip": "90014",
    "county": "LOS ANGELES",
    "phone": "(213) 893-1960",
    "lat": 34.042158,
    "lng": -118.248534
  },
  {
    "id": "630027940",
    "name": "MIDNIGHT MISSION",
    "npi": null,
    "hcaiId": null,
    "businessName": "LOS ANGELES CHRISTIAN HEALTH CENTERS",
    "contactEmail": null,
    "categoryName": "PRIMARY CARE CLINIC",
    "categoryCode": "COMTYC",
    "licenseStatus": "ACTIVE",
    "inService": true,
    "licenseNumber": "550000820",
    "licenseEffectiveDate": "03/06/2025",
    "licenseExpirationDate": "03/05/2026",
    "dataDate": "10/18/2025",
    "capacity": 0,
    "address": "601 S SAN PEDRO ST",
    "city": "LOS ANGELES",
    "zip": "90014",
    "county": "LOS ANGELES",
    "phone": null,
    "lat": 34.0411456,
    "lng": -118.2458409
  },
  {
    "id": "630024681",
    "name": "RELIABLE NURSING CARE HOME HEALTH, INC.",
    "npi": null,
    "hcaiId": "406190171",
    "businessName": "RELIABLE NURSING CARE HOME HEALTH, INC.",
    "contactEmail": "RELIABLENURSINGCAREHOMEHEALTHINC@YAHOO.COM",
    "categoryName": "HOME HEALTH AGENCY",
    "categoryCode": "HHA",
    "licenseStatus": "ACTIVE",
    "inService": true,
    "licenseNumber": "550008697",
    "licenseEffectiveDate": "08/07/2025",
    "licenseExpirationDate": "08/06/2026",
    "dataDate": "10/18/2025",
    "capacity": 0,
    "address": "707 S BROADWAY, SUITE 1112",
    "city": "LOS ANGELES",
    "zip": "90014",
    "county": "LOS ANGELES",
    "phone": "(424) 777-9009",
    "lat": 34.045101,
    "lng": -118.253691
  },
  {
    "id": "630024661",
    "name": "THE ELDERLY CARE HOME HEALTH, INC.",
    "npi": null,
    "hcaiId": "406190168",
    "businessName": "THE ELDERLY CARE HOME HEALTH, INC.",
    "contactEmail": "THEELDERLYCAREHOMEHEALTHINC@YAHOO.COM",
    "categoryName": "HOME HEALTH AGENCY",
    "categoryCode": "HHA",
    "licenseStatus": "ACTIVE",
    "inService": true,
    "licenseNumber": "550008913",
    "licenseEffectiveDate": "08/07/2025",
    "licenseExpirationDate": "08/06/2026",
    "dataDate": "10/18/2025",
    "capacity": 0,
    "address": "411 W 7TH ST, SUITE 618",
    "city": "LOS ANGELES",
    "zip": "90014",
    "county": "LOS ANGELES",
    "phone": "(626) 248-8000",
    "lat": 34.046145,
    "lng": -118.254546
  },
  {
    "id": "630025141",
    "name": "UNITED ALLCARE GROUP INC.",
    "npi": null,
    "hcaiId": null,
    "businessName": null,
    "contactEmail": "UNITEDALLCARE@GMAIL.COM",
    "categoryName": "HOME HEALTH AGENCY",
    "categoryCode": "HHA",
    "licenseStatus": null,
    "inService": null,
    "licenseNumber": null,
    "licenseEffectiveDate": null,
    "licenseExpirationDate": null,
    "dataDate": "10/18/2025",
    "capacity": 0,
    "address": "629 S HILL ST, SUITE 704B",
    "city": "LOS ANGELES",
    "zip": "90014",
    "county": "LOS ANGELES",
    "phone": "(213) 265-7717",
    "lat": 34.046829,
    "lng": -118.253835
  },
  {
    "id": "630026940",
    "name": "WESLEY HEALTH CENTERS - SAN JULIAN OASIS",
    "npi": null,
    "hcaiId": null,
    "businessName": "JWCH INSTITUTE, INC.",
    "contactEmail": null,
    "categoryName": "PRIMARY CARE CLINIC",
    "categoryCode": "COMTYC",
    "licenseStatus": "ACTIVE",
    "inService": true,
    "licenseNumber": "960001280",
    "licenseEffectiveDate": "11/30/2024",
    "licenseExpirationDate": "11/29/2025",
    "dataDate": "10/18/2025",
    "capacity": 0,
    "address": "628 SAN JULIAN ST",
    "city": "LOS ANGELES",
    "zip": "90014",
    "county": "LOS ANGELES",
    "phone": null,
    "lat": 34.04233745,
    "lng": -118.24653
  }
]