[
  {
    "id": "630023817",
    "name": "AAV HOME HEALTH INC",
    "npi": null,
    "hcaiId": "406195358",
    "businessName": "AAV HOME HEALTH INC",
    "contactEmail": "AAVHOMEHEALTH@GMAIL.COM",
    "categoryName": "HOME HEALTH AGENCY",
    "categoryCode": "HHA",
    "licenseStatus": "ACTIVE",
    "inService": true,
    "licenseNumber": "550007949",
    "licenseEffectiveDate": "04/14/2023",
    "licenseExpirationDate": "04/13/2024",
    "dataDate": "10/18/2025",
    "capacity": 0,
    "address": "3200 WILSHIRE BLVD, SUITE 902B",
    "city": "LOS ANGELES",
    "zip": "90010",
    "county": "LOS ANGELES",
    "phone": "(213) 674-7386",
    "lat": 34.061625,
    "lng": -118.292121
  },
  {
    "id": "980002225",
    "name": "ACE HOME HEALTH, INC",
    "npi": "1205808326",
    "hcaiId": "406196228",
    "businessName": "ACE HOME HEALTH, INC.",
    "contactEmail": "ACEHOME105@SBCGLOBAL.NET",
    "categoryName": "HOME HEALTH AGENCY",
    "categoryCode": "HHA",
    "licenseStatus": "ACTIVE",
    "inService": true,
    "licenseNumber": "980001344",
    "licenseEffectiveDate": "05/27/2025",
    "licenseExpirationDate": "12/14/2025",
    "dataDate": "10/18/2025",
    "capacity": 0,
    "address": "4055 WILSHIRE BLVD, SUITE 350",
    "city": "LOS ANGELES",
    "zip": "90010",
    "county": "LOS ANGELES",
    "phone": "(213) 383-9678",
    "lat": 34.061877,
    "lng": -118.316322
  },
  {
    "id": "630013092",
    "name": "ADVANCE SPECIALTY CARE, LLC",
    "npi": "1255637765",
    "hcaiId": "406197632",
    "businessName": "ADVANCE SPECIALTY CARE, LLC",
    "contactEmail": "INFO@ASCHOMEHEALTH.COM",
    "categoryName": "HOME HEALTH AGENCY",
    "categoryCode": "HHA",
    "licenseStatus": "ACTIVE",
    "inService": true,
    "licenseNumber": "550001763",
    "licenseEffectiveDate": "11/29/2025",
    "licenseExpirationDate": "11/28/2026",
    "dataDate": "10/18/2025",
    "capacity": 0,
    "address": "3470 WILSHIRE BLVD, SUITE 600",
    "city": "LOS ANGELES",
    "zip": "90010",
    "county": "LOS ANGELES",
    "phone": "(213) 739-1155",
    "lat": 34.061274,
    "lng": -118.299519
  },
  {
    "id": "630011419",
    "name": "ALTHIA HOME HEALTHCARE, INC.",
    "npi": "1558554576",
    "hcaiId": "406197329",
    "businessName": "ALTHIA HOME HEALTHCARE, INC.",
    "contactEmail": "ALTHIAHOME888@GMAIL.COM",
    "categoryName": "HOME HEALTH AGENCY",
    "categoryCode": "HHA",
    "licenseStatus": "ACTIVE",
    "inService": true,
    "licenseNumber": "550000927",
    "licenseEffectiveDate": "03/19/2022",
    "licenseExpirationDate": "03/18/2023",
    "dataDate": "10/18/2025",
    "capacity": 0,
    "address": "3200 WILSHIRE BLVD, SUITE 311",
    "city": "LOS ANGELES",
    "zip": "90010",
    "county": "LOS ANGELES",
    "phone": "(213) 389-6190",
    "lat": 34.061625,
    "lng": -118.292121
  },
  {
    "id": "630026693",
    "name": "ANGEL TOUCH HOME HEALTH CARE, CORP.",
    "npi": null,
    "hcaiId": null,
    "businessName": "ANGEL TOUCH HOME HEALTH CARE, CORP.",
    "contactEmail": "ANGELTOUCHCORP@GMAIL.COM",
    "categoryName": "HOME HEALTH AGENCY",
    "categoryCode": "HHA",
    "licenseStatus": "ACTIVE",
    "inService": true,
    "licenseNumber": "550009234",
    "licenseEffectiveDate": "07/03/2025",
    "licenseExpirationDate": "07/02/2026",
    "dataDate": "10/18/2025",
    "capacity": 0,
    "address": "3450 WILSHIRE BLVD, SUITE 1130",
    "city": "LOS ANGELES",
    "zip": "90010",
    "county": "LOS ANGELES",
    "phone": "(213) 674-7710",
    "lat": 34.061589,
    "lng": -118.2993705
  },
  {
    "id": "630015707",
    "name": "ASSISTED HEALTHCARE SERVICES",
    "npi": "1851344717",
    "hcaiId": "406191522",
    "businessName": "STAFF ASSISTANCE, INC.",
    "contactEmail": null,
    "categoryName": "HOME HEALTH AGENCY",
    "categoryCode": "HHA",
    "licenseStatus": "ACTIVE",
    "inService": true,
    "licenseNumber": "980001303",
    "licenseEffectiveDate": "11/29/2025",
    "licenseExpirationDate": "11/28/2026",
    "dataDate": "10/18/2025",
    "capacity": 0,
    "address": "3731 WILSHIRE BLVD., SUITE 518B",
    "city": "LOS ANGELES",
    "zip": "90010",
    "county": "LOS ANGELES",
    "phone": "(213) 381-8316",
    "lat": 34.062318,
    "lng": -118.3074795
  },
  {
    "id": "980002206",
    "name": "ASSISTED HOME CARE",
    "npi": "1386643161",
    "hcaiId": "406196183",
    "businessName": "ASSISTED HOME RECOVERY, INC.",
    "contactEmail": "TAULESTIA@ASSISTEDCARES.COM",
    "categoryName": "HOME HEALTH AGENCY",
    "categoryCode": "HHA",
    "licenseStatus": "ACTIVE",
    "inService": true,
    "licenseNumber": "980001329",
    "licenseEffectiveDate": "12/19/2024",
    "licenseExpirationDate": "12/18/2025",
    "dataDate": "10/18/2025",
    "capacity": 0,
    "address": "3731 WILSHIRE BLVD, SUITE 516",
    "city": "LOS ANGELES",
    "zip": "90010",
    "county": "LOS ANGELES",
    "phone": "(805) 371-4980",
    "lat": 34.062318,
    "lng": -118.3074795
  },
  {
    "id": "630015799",
    "name": "ASSISTED HOSPICE CARE",
    "npi": null,
    "hcaiId": "406198322",
    "businessName": "ASSISTED HOME CARE, INC.",
    "contactEmail": null,
    "categoryName": "HOSPICE",
    "categoryCode": "HOSPICE",
    "licenseStatus": "ACTIVE",
    "inService": true,
    "licenseNumber": "980001295",
    "licenseEffectiveDate": "05/01/2024",
    "licenseExpirationDate": "04/30/2026",
    "dataDate": "10/18/2025",
    "capacity": 0,
    "address": "3731 WILSHIRE BLVD., SUITE 518",
    "city": "LOS ANGELES",
    "zip": "90010",
    "county": "LOS ANGELES",
    "phone": "(818) 830-5003",
    "lat": 34.062318,
    "lng": -118.3074795
  },
  {
    "id": "980002292",
    "name": "CHELSEA'S HOME HEALTH CARE, INC.",
    "npi": "1346429594",
    "hcaiId": "406196909",
    "businessName": "CHELSEA'S HOME HEALTH CARE, INC.",
    "contactEmail": "CHELSEAHOMEHEALTH@GMAIL.COM",
    "categoryName": "HOME HEALTH AGENCY",
    "categoryCode": "HHA",
    "licenseStatus": "ACTIVE",
    "inService": true,
    "licenseNumber": "980001407",
    "licenseEffectiveDate": "06/02/2025",
    "licenseExpirationDate": "04/17/2026",
    "dataDate": "10/18/2025",
    "capacity": 0,
    "address": "3580 WILSHIRE BLVD, SUITE 510",
    "city": "LOS ANGELES",
    "zip": "90010",
    "county": "LOS ANGELES",
    "phone": "(818) 308-3823",
    "lat": 34.06123299,
    "lng": -118.302807
  },
  {
    "id": "980002385",
    "name": "COMPREHENSIVE HEALTH CARE, INC.",
    "npi": "1780638841",
    "hcaiId": "406196413",
    "businessName": "COMPREHENSIVE HEALTH CARE, INC.",
    "contactEmail": "COMPREHENSIVEHEALTHCARE@LIVE.COM",
    "categoryName": "HOME HEALTH AGENCY",
    "categoryCode": "HHA",
    "licenseStatus": "ACTIVE",
    "inService": true,
    "licenseNumber": "980001495",
    "licenseEffectiveDate": "06/26/2025",
    "licenseExpirationDate": "06/25/2026",
    "dataDate": "10/18/2025",
    "capacity": 0,
    "address": "3440 WILSHIRE BLVD, SUITE 1108",
    "city": "LOS ANGELES",
    "zip": "90010",
    "county": "LOS ANGELES",
    "phone": "(213) 389-4876",
    "lat": 34.06158,
    "lng": -118.2991905
  },
  {
    "id": "630013194",
    "name": "COMPREHENSIVE HOSPICE CARE, INC.",
    "npi": "1295034270",
    "hcaiId": "406197759",
    "businessName": "STUDIO CITY HOSPICE, INC.",
    "contactEmail": "COMPHOSPICE@GMAIL.COM",
    "categoryName": "HOSPICE",
    "categoryCode": "HOSPICE",
    "licenseStatus": "ACTIVE",
    "inService": true,
    "licenseNumber": "550002063",
    "licenseEffectiveDate": "04/08/2025",
    "licenseExpirationDate": "11/09/2026",
    "dataDate": "10/18/2025",
    "capacity": 0,
    "address": "3440 WILSHIRE BLVD, SUITE 1108-A",
    "city": "LOS ANGELES",
    "zip": "90010",
    "county": "LOS ANGELES",
    "phone": "(818) 505-0019",
    "lat": 34.06158,
    "lng": -118.2991905
  },
  {
    "id": "630012778",
    "name": "CROSS CARE, INC.",
    "npi": "1104132216",
    "hcaiId": "406197517",
    "businessName": "CROSS CARE, INC.",
    "contactEmail": "CCARE4055@GMAIL.COM",
    "categoryName": "HOME HEALTH AGENCY",
    "categoryCode": "HHA",
    "licenseStatus": "ACTIVE",
    "inService": true,
    "licenseNumber": "550001504",
    "licenseEffectiveDate": "02/11/2025",
    "licenseExpirationDate": "02/10/2026",
    "dataDate": "10/18/2025",
    "capacity": 0,
    "address": "4055 WILSHIRE BLVD, SUITE 205",
    "city": "LOS ANGELES",
    "zip": "90010",
    "county": "LOS ANGELES",
    "phone": "(213) 384-3711",
    "lat": 34.061877,
    "lng": -118.316322
  },
  {
    "id": "630017585",
    "name": "ELITE CARE HOME HEALTH SERVICES, INC.",
    "npi": null,
    "hcaiId": "406192093",
    "businessName": "ELITE CARE HOME HEALTH SERVICES INC.",
    "contactEmail": "ELITEHOMEHEALTHSERVICES@GMAIL.COM",
    "categoryName": "HOME HEALTH AGENCY",
    "categoryCode": "HHA",
    "licenseStatus": "ACTIVE",
    "inService": true,
    "licenseNumber": "550005164",
    "licenseEffectiveDate": "08/25/2025",
    "licenseExpirationDate": "12/06/2025",
    "dataDate": "10/18/2025",
    "capacity": 0,
    "address": "3440 WILSHIRE BLVD, SUITE 1105",
    "city": "LOS ANGELES",
    "zip": "90010",
    "county": "LOS ANGELES",
    "phone": "(213) 674-7309",
    "lat": 34.06038713,
    "lng": -118.2992417
  },
  {
    "id": "630018863",
    "name": "FORTITUDE HOSPICE, INC.",
    "npi": null,
    "hcaiId": "406195918",
    "businessName": "FORTITUDE HOSPICE, INC.",
    "contactEmail": "WECARE@FORTITUDEHOSPICE.COM",
    "categoryName": "HOSPICE",
    "categoryCode": "HOSPICE",
    "licenseStatus": "ACTIVE",
    "inService": true,
    "licenseNumber": "550005143",
    "licenseEffectiveDate": "12/05/2023",
    "licenseExpirationDate": "12/04/2025",
    "dataDate": "10/18/2025",
    "capacity": 0,
    "address": "3700 WILSHIRE BLVD, SUITE 610",
    "city": "LOS ANGELES",
    "zip": "90010",
    "county": "LOS ANGELES",
    "phone": "(818) 350-1830",
    "lat": 34.061472,
    "lng": -118.306818
  },
  {
    "id": "630020599",
    "name": "GLORIA HOSPICE, INC.",
    "npi": null,
    "hcaiId": "406193566",
    "businessName": "GLORIA HOSPICE, INC.",
    "contactEmail": "GLORIAHOSPICEINC@GMAIL.COM",
    "categoryName": "HOSPICE",
    "categoryCode": "HOSPICE",
    "licenseStatus": "ACTIVE",
    "inService": true,
    "licenseNumber": "550006579",
    "licenseEffectiveDate": "07/08/2025",
    "licenseExpirationDate": "07/07/2027",
    "dataDate": "10/18/2025",
    "capacity": 0,
    "address": "4311 WILSHIRE BLVD, SUITE 302",
    "city": "LOS ANGELES",
    "zip": "90010",
    "county": "LOS ANGELES",
    "phone": "(323) 591-0092",
    "lat": 34.06210399,
    "lng": -118.321858
  },
  {
    "id": "980002389",
    "name": "HOLY ANGEL HOME HEALTH CARE, INC.",
    "npi": "1033117734",
    "hcaiId": "406196408",
    "businessName": "HOLY ANGEL HOME HEALTH CARE, INC.",
    "contactEmail": "HOLYANGELAL@YAHOO.COM",
    "categoryName": "HOME HEALTH AGENCY",
    "categoryCode": "HHA",
    "licenseStatus": "ACTIVE",
    "inService": true,
    "licenseNumber": "980001499",
    "licenseEffectiveDate": "11/01/2025",
    "licenseExpirationDate": "10/31/2026",
    "dataDate": "10/18/2025",
    "capacity": 0,
    "address": "3470 WILSHIRE BLVD, SUITE 641 & 642",
    "city": "LOS ANGELES",
    "zip": "90010",
    "county": "LOS ANGELES",
    "phone": "(213) 380-2280",
    "lat": 34.061274,
    "lng": -118.299519
  },
  {
    "id": "630020841",
    "name": "HONEST HOME HEALTH CARE SERVICES INC",
    "npi": null,
    "hcaiId": "406195625",
    "businessName": "HONEST HOME HEALTH CARE SERVICES INC",
    "contactEmail": "ANDREW.LEE@FASTRECOVERYHHC.COM",
    "categoryName": "HOME HEALTH AGENCY",
    "categoryCode": "HHA",
    "licenseStatus": "ACTIVE",
    "inService": true,
    "licenseNumber": "550006267",
    "licenseEffectiveDate": "04/26/2025",
    "licenseExpirationDate": "04/25/2026",
    "dataDate": "10/18/2025",
    "capacity": 0,
    "address": "4221 WILSHIRE BLVD, SUITE 170-16",
    "city": "LOS ANGELES",
    "zip": "90010",
    "county": "LOS ANGELES",
    "phone": "(818) 646-7203",
    "lat": 34.062201,
    "lng": -118.320696
  },
  {
    "id": "960001909",
    "name": "INST. FOR MULTICULTURAL COUNSELING & ED. SERV. INC",
    "npi": "1124159835",
    "hcaiId": "306194775",
    "businessName": "INST. FOR MULTICULTURAL COUNSELING & ED. SERV. INC",
    "contactEmail": "MASHROUTEH@IMCES.ORG",
    "categoryName": "PRIMARY CARE CLINIC",
    "categoryCode": "COMTYC",
    "licenseStatus": "ACTIVE",
    "inService": true,
    "licenseNumber": "960000918",
    "licenseEffectiveDate": "11/29/2024",
    "licenseExpirationDate": "11/28/2025",
    "dataDate": "10/18/2025",
    "capacity": 0,
    "address": "3580 WILSHIRE BLVD, SUITE 2000",
    "city": "LOS ANGELES",
    "zip": "90010",
    "county": "LOS ANGELES",
    "phone": "(213) 381-1250",
    "lat": 34.061229,
    "lng": -118.3027995
  },
  {
    "id": "980002272",
    "name": "INTRA CARE HOME HEALTH PROVIDERS, INC.",
    "npi": "1700871233",
    "hcaiId": "406197056",
    "businessName": "INTRA CARE HOME HEALTH PROVIDERS, INC.",
    "contactEmail": "INTRACARE@INTRACAREINC.COM",
    "categoryName": "HOME HEALTH AGENCY",
    "categoryCode": "HHA",
    "licenseStatus": "ACTIVE",
    "inService": true,
    "licenseNumber": "980001387",
    "licenseEffectiveDate": "04/02/2025",
    "licenseExpirationDate": "04/01/2026",
    "dataDate": "10/18/2025",
    "capacity": 0,
    "address": "4929 WILSHIRE BLVD, SUITE 210",
    "city": "LOS ANGELES",
    "zip": "90010",
    "county": "LOS ANGELES",
    "phone": "(323) 964-0884",
    "lat": 34.062489,
    "lng": -118.338093
  },
  {
    "id": "630019417",
    "name": "KAVIS HOME HEALTH INC",
    "npi": null,
    "hcaiId": "406194818",
    "businessName": "KAVIS HOME HEALTH INC",
    "contactEmail": "BEN.KARAKUNNEL@KAVISHOMEHEALTH.COM",
    "categoryName": "HOME HEALTH AGENCY",
    "categoryCode": "HHA",
    "licenseStatus": "ACTIVE",
    "inService": true,
    "licenseNumber": "550005890",
    "licenseEffectiveDate": "02/03/2025",
    "licenseExpirationDate": "12/03/2025",
    "dataDate": "10/18/2025",
    "capacity": 0,
    "address": "3660 WILSHIRE BLVD, SUITE 311",
    "city": "LOS ANGELES",
    "zip": "90010",
    "county": "LOS ANGELES",
    "phone": "(844) 369-9698",
    "lat": 34.061229,
    "lng": -118.304964
  },
  {
    "id": "630015800",
    "name": "KHEIR WILSHIRE CLINIC",
    "npi": "1013311448",
    "hcaiId": "306198034",
    "businessName": "KOREAN HEALTH, EDUCATION, INFORMATION AND RESEARCH CENTER",
    "contactEmail": "COMPLIANCE@LAKHEIR.ORG",
    "categoryName": "PRIMARY CARE CLINIC",
    "categoryCode": "COMTYC",
    "licenseStatus": "ACTIVE",
    "inService": true,
    "licenseNumber": "550003003",
    "licenseEffectiveDate": "03/05/2025",
    "licenseExpirationDate": "03/04/2026",
    "dataDate": "10/18/2025",
    "capacity": 0,
    "address": "3255 WILSHIRE BLVD., SUITE 120",
    "city": "LOS ANGELES",
    "zip": "90010",
    "county": "LOS ANGELES",
    "phone": "(213) 235-1203",
    "lat": 34.061958,
    "lng": -118.293237
  },
  {
    "id": "630024737",
    "name": "KHEIR WILSHIRE CLINIC SUITE 100",
    "npi": "1013311448",
    "hcaiId": null,
    "businessName": "KOREAN HEALTH, EDUCATION, INFORMATION AND RESEARCH CENTER",
    "contactEmail": null,
    "categoryName": "PRIMARY CARE CLINIC",
    "categoryCode": "COMTYC",
    "licenseStatus": "ACTIVE",
    "inService": true,
    "licenseNumber": "550003003",
    "licenseEffectiveDate": "03/05/2025",
    "licenseExpirationDate": "03/04/2026",
    "dataDate": "10/18/2025",
    "capacity": 0,
    "address": "3255 WILSHIRE BLVD, SUITE 100",
    "city": "LOS ANGELES",
    "zip": "90010",
    "county": "LOS ANGELES",
    "phone": null,
    "lat": 34.061958,
    "lng": -118.293237
  },
  {
    "id": "630016746",
    "name": "KINDCARE HOME HEALTH, INC.",
    "npi": "1184072696",
    "hcaiId": "406190840",
    "businessName": "KINDCARE HOME HEALTH, INC.",
    "contactEmail": "KINDCAREHOMEHEALTH@YAHOO.COM",
    "categoryName": "HOME HEALTH AGENCY",
    "categoryCode": "HHA",
    "licenseStatus": "ACTIVE",
    "inService": true,
    "licenseNumber": "550004216",
    "licenseEffectiveDate": "03/30/2025",
    "licenseExpirationDate": "03/29/2026",
    "dataDate": "10/18/2025",
    "capacity": 0,
    "address": "3200 WILSHIRE BLVD, SUITE 308",
    "city": "LOS ANGELES",
    "zip": "90010",
    "county": "LOS ANGELES",
    "phone": "(213) 908-5505",
    "lat": 34.061625,
    "lng": -118.292121
  },
  {
    "id": "630011363",
    "name": "L & A HOME HEALTH CARE, INC.",
    "npi": "1578765541",
    "hcaiId": "406197207",
    "businessName": "L & A HOME HEALTH CARE, INC.",
    "contactEmail": "LANDAHOMEHEALTH@YAHOO.COM",
    "categoryName": "HOME HEALTH AGENCY",
    "categoryCode": "HHA",
    "licenseStatus": "ACTIVE",
    "inService": true,
    "licenseNumber": "550000898",
    "licenseEffectiveDate": "03/18/2025",
    "licenseExpirationDate": "03/17/2026",
    "dataDate": "10/18/2025",
    "capacity": 0,
    "address": "3580 WILSHIRE BLVD, SUITE 1626",
    "city": "LOS ANGELES",
    "zip": "90010",
    "county": "LOS ANGELES",
    "phone": "(213) 739-2569",
    "lat": 34.06123299,
    "lng": -118.302807
  },
  {
    "id": "980002435",
    "name": "LA HOSPICE",
    "npi": null,
    "hcaiId": "406196446",
    "businessName": "LOS ANGELES HOSPICE, INC.",
    "contactEmail": "PB@LAHOSPICE.COM",
    "categoryName": "HOSPICE",
    "categoryCode": "HOSPICE",
    "licenseStatus": "ACTIVE",
    "inService": true,
    "licenseNumber": "980001542",
    "licenseEffectiveDate": "03/31/2023",
    "licenseExpirationDate": "03/30/2025",
    "dataDate": "10/18/2025",
    "capacity": 0,
    "address": "3580 WILSHIRE BLVD, SUITE 1290",
    "city": "LOS ANGELES",
    "zip": "90010",
    "county": "LOS ANGELES",
    "phone": "(213) 351-1030",
    "lat": 34.061229,
    "lng": -118.3027995
  },
  {
    "id": "630022232",
    "name": "MARY'S HOME HEALTH CARE, INC.",
    "npi": null,
    "hcaiId": null,
    "businessName": "MARY'S HOME HEALTH CARE, INC.",
    "contactEmail": "MARYSHOMEHEALTHCARE@GMAIL.COM",
    "categoryName": "HOME HEALTH AGENCY",
    "categoryCode": "HHA",
    "licenseStatus": "ACTIVE",
    "inService": true,
    "licenseNumber": "550008687",
    "licenseEffectiveDate": "08/08/2025",
    "licenseExpirationDate": "08/07/2026",
    "dataDate": "10/18/2025",
    "capacity": 0,
    "address": "4221 WILSHIRE BLVD, SUITE 460 OFFICE 14",
    "city": "LOS ANGELES",
    "zip": "90010",
    "county": "LOS ANGELES",
    "phone": "(747) 737-3028",
    "lat": 34.062162,
    "lng": -118.320827
  },
  {
    "id": "980002227",
    "name": "MAXIM HEALTHCARE SERVICES, INC.",
    "npi": "1316970064",
    "hcaiId": "406196132",
    "businessName": "MAXIM HEALTHCARE SERVICES, INC.",
    "contactEmail": "LOSANGELESHC@MAXHEALTH.COM",
    "categoryName": "HOME HEALTH AGENCY",
    "categoryCode": "HHA",
    "licenseStatus": "ACTIVE",
    "inService": true,
    "licenseNumber": "980001345",
    "licenseEffectiveDate": "04/22/2025",
    "licenseExpirationDate": "04/21/2026",
    "dataDate": "10/18/2025",
    "capacity": 0,
    "address": "3255 WILSHIRE BLVD, SUITE 700",
    "city": "LOS ANGELES",
    "zip": "90010",
    "county": "LOS ANGELES",
    "phone": "(213) 296-3477",
    "lat": 34.06224401,
    "lng": -118.293277
  },
  {
    "id": "630016759",
    "name": "MEDCO HOME HEALTH CARE, INC.",
    "npi": "1083062590",
    "hcaiId": "406190855",
    "businessName": "MEDCO HOME HEALTH CARE, INC.",
    "contactEmail": "MEDCOHHI@YAHOO.COM",
    "categoryName": "HOME HEALTH AGENCY",
    "categoryCode": "HHA",
    "licenseStatus": "ACTIVE",
    "inService": true,
    "licenseNumber": "550004238",
    "licenseEffectiveDate": "04/21/2025",
    "licenseExpirationDate": "04/20/2026",
    "dataDate": "10/18/2025",
    "capacity": 0,
    "address": "3200 WILSHIRE BLVD, SUITE 1505",
    "city": "LOS ANGELES",
    "zip": "90010",
    "county": "LOS ANGELES",
    "phone": "(213) 529-4301",
    "lat": 34.061625,
    "lng": -118.292121
  },
  {
    "id": "630013254",
    "name": "MI HOSPICE AND PALLIATIVE CARE, INC.",
    "npi": "1548550759",
    "hcaiId": "406197879",
    "businessName": "MI HOSPICE AND PALLIATIVE CARE, INC.",
    "contactEmail": "MIHOSPICEPC@GMAIL.COM",
    "categoryName": "HOSPICE",
    "categoryCode": "HOSPICE",
    "licenseStatus": "ACTIVE",
    "inService": false,
    "licenseNumber": "550002168",
    "licenseEffectiveDate": "06/29/2020",
    "licenseExpirationDate": "02/10/2022",
    "dataDate": "10/18/2025",
    "capacity": 0,
    "address": "3460 WILSHIRE BLVD, SUITE 405",
    "city": "LOS ANGELES",
    "zip": "90010",
    "county": "LOS ANGELES",
    "phone": "(323) 466-4400",
    "lat": 34.06158,
    "lng": -118.2999375
  },
  {
    "id": "630026265",
    "name": "MISSION CITY COMMUNITY NETWORK, INC. - WILSHIRE",
    "npi": "1346525912",
    "hcaiId": null,
    "businessName": "MISSION CITY COMMUNITY NETWORK, INC.",
    "contactEmail": "NIKG@MCCN.ORG",
    "categoryName": "PRIMARY CARE CLINIC",
    "categoryCode": "COMTYC",
    "licenseStatus": "ACTIVE",
    "inService": true,
    "licenseNumber": "550001797",
    "licenseEffectiveDate": "12/30/2024",
    "licenseExpirationDate": "12/29/2025",
    "dataDate": "10/18/2025",
    "capacity": 0,
    "address": "3660 WILSHIRE BLVD, SUITE 102",
    "city": "LOS ANGELES",
    "zip": "90010",
    "county": "LOS ANGELES",
    "phone": "(818) 895-3100",
    "lat": 34.061229,
    "lng": -118.304964
  },
  {
    "id": "630027223",
    "name": "MIVIDAZ HOME HEALTH, INC.",
    "npi": null,
    "hcaiId": null,
    "businessName": "MIDIVAZ HOME HEALTH, INC.",
    "contactEmail": "MIVIDAZHOMEHEALTH@YAHOO.COM",
    "categoryName": "HOME HEALTH AGENCY",
    "categoryCode": "HHA",
    "licenseStatus": "ACTIVE",
    "inService": true,
    "licenseNumber": "550009882",
    "licenseEffectiveDate": "07/12/2025",
    "licenseExpirationDate": "01/11/2026",
    "dataDate": "10/18/2025",
    "capacity": 0,
    "address": "4221 WILSHIRE BLVD, SUITE 170-10",
    "city": "LOS ANGELES",
    "zip": "90010",
    "county": "LOS ANGELES",
    "phone": "(213) 699-9559",
    "lat": 34.062162,
    "lng": -118.320827
  },
  {
    "id": "980002235",
    "name": "OCEAN SIDE HOME HEALTH SERVICES, INC.",
    "npi": "1114927985",
    "hcaiId": "406196749",
    "businessName": "OCEAN SIDE HOME HEALTH SERVICES, INC.",
    "contactEmail": "THOMAS@OSHHS.COM",
    "categoryName": "HOME HEALTH AGENCY",
    "categoryCode": "HHA",
    "licenseStatus": "ACTIVE",
    "inService": true,
    "licenseNumber": "980001353",
    "licenseEffectiveDate": "11/04/2025",
    "licenseExpirationDate": "11/03/2026",
    "dataDate": "10/18/2025",
    "capacity": 0,
    "address": "4322 WILSHIRE BLVD, SUITE 208",
    "city": "LOS ANGELES",
    "zip": "90010",
    "county": "LOS ANGELES",
    "phone": "(323) 934-5050",
    "lat": 34.061436,
    "lng": -118.3224645
  },
  {
    "id": "980001250",
    "name": "PRIME NURSING SERVICES",
    "npi": "1962409813",
    "hcaiId": "406194497",
    "businessName": "TLC SKILLED HEALTH CARE PROVIDERS, INC.",
    "contactEmail": "TLCPNS@GMAIL.COM",
    "categoryName": "HOME HEALTH AGENCY",
    "categoryCode": "HHA",
    "licenseStatus": "ACTIVE",
    "inService": true,
    "licenseNumber": "980000768",
    "licenseEffectiveDate": "03/14/2025",
    "licenseExpirationDate": "03/13/2026",
    "dataDate": "10/18/2025",
    "capacity": 0,
    "address": "3250 WILSHIRE BLVD, SUITE 1008",
    "city": "LOS ANGELES",
    "zip": "90010",
    "county": "LOS ANGELES",
    "phone": "(213) 380-9991",
    "lat": 34.061067,
    "lng": -118.293255
  },
  {
    "id": "630012660",
    "name": "PROHEALTH HOME CARE SERVICES, INC.",
    "npi": "1780908558",
    "hcaiId": "406197570",
    "businessName": "PROHEALTH HOME CARE SERVICES, INC.",
    "contactEmail": "OPERATIONS@PROHEALTH.CA.COM",
    "categoryName": "HOME HEALTH AGENCY",
    "categoryCode": "HHA",
    "licenseStatus": "ACTIVE",
    "inService": true,
    "licenseNumber": "550001507",
    "licenseEffectiveDate": "02/15/2023",
    "licenseExpirationDate": "02/14/2024",
    "dataDate": "10/18/2025",
    "capacity": 0,
    "address": "4221 WILSHIRE BLVD, SUITE 135",
    "city": "LOS ANGELES",
    "zip": "90010",
    "county": "LOS ANGELES",
    "phone": "(323) 932-0773",
    "lat": 34.062201,
    "lng": -118.320696
  },
  {
    "id": "630018069",
    "name": "SAN JUDAS COMMUNITY HEALTH CENTER, INC.",
    "npi": null,
    "hcaiId": "306190547",
    "businessName": "SAN JUDAS COMMUNITY HEALTH CENTER, INC.",
    "contactEmail": "SJ.COMMUNITYHEALTH@GMAIL.COM",
    "categoryName": "PRIMARY CARE CLINIC",
    "categoryCode": "COMTYC",
    "licenseStatus": "ACTIVE",
    "inService": true,
    "licenseNumber": "550005338",
    "licenseEffectiveDate": "11/26/2024",
    "licenseExpirationDate": "11/25/2025",
    "dataDate": "10/18/2025",
    "capacity": 0,
    "address": "2972 WILSHIRE BLVD, FLOOR 1,2,",
    "city": "LOS ANGELES",
    "zip": "90010",
    "county": "LOS ANGELES",
    "phone": "(213) 484-0000",
    "lat": 34.061661,
    "lng": -118.2862125
  },
  {
    "id": "630021527",
    "name": "SORS HOSPICE, INC",
    "npi": null,
    "hcaiId": "406193293",
    "businessName": "SORS HOSPICE, INC",
    "contactEmail": "SORSHOSPICE@YAHOO.COM",
    "categoryName": "HOSPICE",
    "categoryCode": "HOSPICE",
    "licenseStatus": "ACTIVE",
    "inService": true,
    "licenseNumber": "550007168",
    "licenseEffectiveDate": "11/11/2023",
    "licenseExpirationDate": "11/10/2025",
    "dataDate": "10/18/2025",
    "capacity": 0,
    "address": "3200 WILSHIRE BLVD, SUITE 306",
    "city": "LOS ANGELES",
    "zip": "90010",
    "county": "LOS ANGELES",
    "phone": "(213) 915-0029",
    "lat": 34.061625,
    "lng": -118.292121
  },
  {
    "id": "980002338",
    "name": "SUN-TRIUNE HEALTHCARE, INC.",
    "npi": "1124006051",
    "hcaiId": "406196586",
    "businessName": "SUN-TRIUNE HEALTHCARE, INC.",
    "contactEmail": "SUNTRIUNEHH@GMAIL.COM",
    "categoryName": "HOME HEALTH AGENCY",
    "categoryCode": "HHA",
    "licenseStatus": "ACTIVE",
    "inService": true,
    "licenseNumber": "980001448",
    "licenseEffectiveDate": "10/02/2023",
    "licenseExpirationDate": "10/01/2024",
    "dataDate": "10/18/2025",
    "capacity": 0,
    "address": "3055 WILSHIRE BLVD, SUITE 890",
    "city": "LOS ANGELES",
    "zip": "90010",
    "county": "LOS ANGELES",
    "phone": "(213) 632-1445",
    "lat": 34.061985,
    "lng": -118.2878415
  },
  {
    "id": "980001326",
    "name": "TOTAL CARE NURSING SERVICES",
    "npi": "1205011335",
    "hcaiId": "406194525",
    "businessName": "AQUILA HEALTHCARE SYSTEMS, LLC",
    "contactEmail": "CCCEDILLOS@GMAIL.COM",
    "categoryName": "HOME HEALTH AGENCY",
    "categoryCode": "HHA",
    "licenseStatus": "ACTIVE",
    "inService": true,
    "licenseNumber": "980000772",
    "licenseEffectiveDate": "11/29/2023",
    "licenseExpirationDate": "11/28/2024",
    "dataDate": "10/18/2025",
    "capacity": 0,
    "address": "3450 WILSHIRE BLVD, SUITE 1003",
    "city": "LOS ANGELES",
    "zip": "90010",
    "county": "LOS ANGELES",
    "phone": "(213) 380-1399",
    "lat": 34.061589,
    "lng": -118.2993705
  },
  {
    "id": "630022350",
    "name": "TRANS WELLNESS CENTER",
    "npi": "1548298532",
    "hcaiId": null,
    "businessName": "LOS ANGELES LGBT CENTER",
    "contactEmail": null,
    "categoryName": "PRIMARY CARE CLINIC",
    "categoryCode": "COMTYC",
    "licenseStatus": "ACTIVE",
    "inService": true,
    "licenseNumber": "960000834",
    "licenseEffectiveDate": "06/23/2025",
    "licenseExpirationDate": "06/22/2026",
    "dataDate": "10/18/2025",
    "capacity": 0,
    "address": "3055 WILSHIRE BLVD, SUITE 360",
    "city": "LOS ANGELES",
    "zip": "90010",
    "county": "LOS ANGELES",
    "phone": null,
    "lat": 34.061985,
    "lng": -118.2878415
  },
  {
    "id": "630019054",
    "name": "UMBRELLA HOSPICE INC",
    "npi": null,
    "hcaiId": "406192072",
    "businessName": "UMBRELLA HOSPICE, INC.",
    "contactEmail": "PATIENTCARE@UMBRELLAHOSPICECARE.COM",
    "categoryName": "HOSPICE",
    "categoryCode": "HOSPICE",
    "licenseStatus": "ACTIVE",
    "inService": true,
    "licenseNumber": "550005106",
    "licenseEffectiveDate": "11/16/2023",
    "licenseExpirationDate": "11/15/2025",
    "dataDate": "10/18/2025",
    "capacity": 0,
    "address": "4221 WILSHIRE BLVD, UNIT 170-14",
    "city": "LOS ANGELES",
    "zip": "90010",
    "county": "LOS ANGELES",
    "phone": "(213) 369-0949",
    "lat": 34.062201,
    "lng": -118.320696
  },
  {
    "id": "630024952",
    "name": "USC KOREA TOWN HOME DIALYSIS",
    "npi": null,
    "hcaiId": null,
    "businessName": null,
    "contactEmail": "CAL_C@DAVITA.COM",
    "categoryName": "CHRONIC DIALYSIS CLINIC",
    "categoryCode": "ESRD",
    "licenseStatus": null,
    "inService": null,
    "licenseNumber": null,
    "licenseEffectiveDate": null,
    "licenseExpirationDate": null,
    "dataDate": "10/18/2025",
    "capacity": 0,
    "address": "3660 WILSHIRE BLVD, SUITE 338",
    "city": "LOS ANGELES",
    "zip": "90010",
    "county": "LOS ANGELES",
    "phone": "(213) 900-1416",
    "lat": 34.061229,
    "lng": -118.304964
  },
  {
    "id": "930001778",
    "name": "WILSHIRE ENDOSCOPY CENTER",
    "npi": "1174073506",
    "hcaiId": null,
    "businessName": null,
    "contactEmail": "NONE@DHS.CA.GOV",
    "categoryName": "SURGICAL CLINIC",
    "categoryCode": "ASC",
    "licenseStatus": null,
    "inService": null,
    "licenseNumber": null,
    "licenseEffectiveDate": null,
    "licenseExpirationDate": null,
    "dataDate": "10/18/2025",
    "capacity": 0,
    "address": "3200 WILSHIRE BLVD, SUITE 101",
    "city": "LOS ANGELES",
    "zip": "90010",
    "county": "LOS ANGELES",
    "phone": "(213) 739-9988",
    "lat": 34.061625,
    "lng": -118.292121
  }
]