[
  {
    "id": "960002488",
    "name": "1736 FAMILY CRISIS CENTER LOS ANGELES",
    "npi": null,
    "hcaiId": "306196225",
    "businessName": "1736 FAMILY CRISIS CENTER",
    "contactEmail": "DPOWELL@1736FCC.ORG",
    "categoryName": "PSYCHOLOGY CLINIC",
    "categoryCode": "PSYCHC",
    "licenseStatus": "ACTIVE",
    "inService": true,
    "licenseNumber": "960001143",
    "licenseEffectiveDate": "01/02/2025",
    "licenseExpirationDate": "01/01/2026",
    "dataDate": "10/18/2025",
    "capacity": 0,
    "address": "2116 ARLINGTON AVE, SUITE 200",
    "city": "LOS ANGELES",
    "zip": "90018",
    "county": "LOS ANGELES",
    "phone": "(323) 737-3900",
    "lat": 34.037406,
    "lng": -118.317474
  },
  {
    "id": "630027162",
    "name": "AHF HEALTHCARE CENTER - CARL BEAN",
    "npi": "1821072943",
    "hcaiId": null,
    "businessName": "AIDS HEALTHCARE FOUNDATION",
    "contactEmail": null,
    "categoryName": "PRIMARY CARE CLINIC",
    "categoryCode": "COMTYC",
    "licenseStatus": "ACTIVE",
    "inService": true,
    "licenseNumber": "960001127",
    "licenseEffectiveDate": "05/04/2025",
    "licenseExpirationDate": "05/03/2026",
    "dataDate": "10/18/2025",
    "capacity": 0,
    "address": "2146 W ADAMS BLVD",
    "city": "LOS ANGELES",
    "zip": "90018",
    "county": "LOS ANGELES",
    "phone": null,
    "lat": 34.03240201,
    "lng": -118.313356
  },
  {
    "id": "060001981",
    "name": "DAYLIGHT-LA ADULT DAY HEALTH CARE CENTER",
    "npi": null,
    "hcaiId": null,
    "businessName": "DAYLIGHT ADULT DAY HEALTH CARE",
    "contactEmail": "ARPIA@DAYLIGHTHEALTH.ORG",
    "categoryName": "ADULT DAY HEALTH CARE",
    "categoryCode": "ADHC",
    "licenseStatus": "ACTIVE",
    "inService": true,
    "licenseNumber": "060000791",
    "licenseEffectiveDate": "11/15/2024",
    "licenseExpirationDate": "11/14/2025",
    "dataDate": "10/18/2025",
    "capacity": 0,
    "address": "2136 W WASHINGTON BLVD",
    "city": "LOS ANGELES",
    "zip": "90018",
    "county": "LOS ANGELES",
    "phone": "(213) 736-9999",
    "lat": 34.039746,
    "lng": -118.3070745
  },
  {
    "id": "970000035",
    "name": "EAST TERRACE REHABILITATION & WELLNESS CENTRE, LP",
    "npi": "1780093393",
    "hcaiId": "206190597",
    "businessName": "EAST TERRACE REHABILITATION & WELLNESS CENTRE, LP",
    "contactEmail": "ADMINISTRATOR@CVEASTNURSINGCENTER.COM",
    "categoryName": "SKILLED NURSING FACILITY",
    "categoryCode": "SNF",
    "licenseStatus": "ACTIVE",
    "inService": true,
    "licenseNumber": "970000018",
    "licenseEffectiveDate": "04/10/2025",
    "licenseExpirationDate": "04/09/2026",
    "dataDate": "10/18/2025",
    "capacity": 99,
    "address": "2415 S WESTERN AVE",
    "city": "LOS ANGELES",
    "zip": "90018",
    "county": "LOS ANGELES",
    "phone": "(323) 734-1101",
    "lat": 34.034256,
    "lng": -118.3091895
  },
  {
    "id": "630017653",
    "name": "JEFFERSON CRENSHAW HEALTH CENTER",
    "npi": null,
    "hcaiId": null,
    "businessName": "WATTS HEALTHCARE CORPORATION",
    "contactEmail": "MAYRA.VARGAS@WATTSHEALTH.ORG",
    "categoryName": "PRIMARY CARE CLINIC",
    "categoryCode": "COMTYC",
    "licenseStatus": "ACTIVE",
    "inService": true,
    "licenseNumber": "960000216",
    "licenseEffectiveDate": "04/01/2025",
    "licenseExpirationDate": "03/31/2026",
    "dataDate": "10/18/2025",
    "capacity": 0,
    "address": "3501 W JEFFERSON BLVD",
    "city": "LOS ANGELES",
    "zip": "90018",
    "county": "LOS ANGELES",
    "phone": "(310) 564-4331",
    "lat": 34.025796,
    "lng": -118.334025
  },
  {
    "id": "630018092",
    "name": "SH ESCALATE ENTERPRISE, INC.",
    "npi": null,
    "hcaiId": "206190296",
    "businessName": "SH ESCALATE ENTERPRISE, INC.",
    "contactEmail": "SHEENTERPRISE2016@GMAIL.COM",
    "categoryName": "CONGREGATE LIVING HEALTH FACILITY",
    "categoryCode": "CLHF",
    "licenseStatus": "ACTIVE",
    "inService": true,
    "licenseNumber": "550006280",
    "licenseEffectiveDate": "04/16/2025",
    "licenseExpirationDate": "04/15/2026",
    "dataDate": "10/18/2025",
    "capacity": 6,
    "address": "2722 S WESTERN AVE",
    "city": "LOS ANGELES",
    "zip": "90018",
    "county": "LOS ANGELES",
    "phone": "(323) 643-4880",
    "lat": 34.030161,
    "lng": -118.3086675
  },
  {
    "id": "970000052",
    "name": "ST. ANDREWS HEALTHCARE",
    "npi": "1346221819",
    "hcaiId": "206190846",
    "businessName": "WASHINGTON ENTERPRISES III, LLC",
    "contactEmail": "CHRISTIAN.VILLALUZ@STANDREWSHEALTHCARE.COM",
    "categoryName": "SKILLED NURSING FACILITY",
    "categoryCode": "SNF",
    "licenseStatus": "ACTIVE",
    "inService": true,
    "licenseNumber": "970000026",
    "licenseEffectiveDate": "03/14/2025",
    "licenseExpirationDate": "03/13/2026",
    "dataDate": "10/18/2025",
    "capacity": 59,
    "address": "2300 W WASHINGTON BLVD",
    "city": "LOS ANGELES",
    "zip": "90018",
    "county": "LOS ANGELES",
    "phone": "(323) 731-0861",
    "lat": 34.039728,
    "lng": -118.311921
  },
  {
    "id": "970000043",
    "name": "ST. JOHN OF GOD RETIREMENT AND CARE CENTER",
    "npi": "1982693073",
    "hcaiId": "206190755",
    "businessName": "ST. JOHN OF GOD RETIREMENT AND CARE CENTER",
    "contactEmail": "CCASTILLO@STJOG.ORG",
    "categoryName": "SKILLED NURSING FACILITY",
    "categoryCode": "SNF",
    "licenseStatus": "ACTIVE",
    "inService": true,
    "licenseNumber": "970000022",
    "licenseEffectiveDate": "11/01/2025",
    "licenseExpirationDate": "10/31/2026",
    "dataDate": "10/18/2025",
    "capacity": 156,
    "address": "2468 S ST ANDREWS PL",
    "city": "LOS ANGELES",
    "zip": "90018",
    "county": "LOS ANGELES",
    "phone": "(323) 731-0641",
    "lat": 34.033077,
    "lng": -118.311147
  },
  {
    "id": "970000017",
    "name": "SUNNYVIEW CARE CENTER",
    "npi": "1700960531",
    "hcaiId": "206190344",
    "businessName": "SUNNYVIEW CONVALESCENT HOSPITAL LLC",
    "contactEmail": "FAC22ADMIN@LONGWOODMGMT.COM",
    "categoryName": "SKILLED NURSING FACILITY",
    "categoryCode": "SNF",
    "licenseStatus": "ACTIVE",
    "inService": true,
    "licenseNumber": "970000009",
    "licenseEffectiveDate": "11/01/2025",
    "licenseExpirationDate": "10/31/2026",
    "dataDate": "10/18/2025",
    "capacity": 93,
    "address": "2000 W WASHINGTON BLVD",
    "city": "LOS ANGELES",
    "zip": "90018",
    "county": "LOS ANGELES",
    "phone": "(323) 735-5146",
    "lat": 34.039755,
    "lng": -118.3031865
  },
  {
    "id": "970000054",
    "name": "WESTERN CONVALESCENT HOSPITAL",
    "npi": "1205919339",
    "hcaiId": "206190855",
    "businessName": "TZIPPY CARE LLC",
    "contactEmail": "FAC07ADMIN@LONGWOODMGMT.COM",
    "categoryName": "SKILLED NURSING FACILITY",
    "categoryCode": "SNF",
    "licenseStatus": "ACTIVE",
    "inService": true,
    "licenseNumber": "970000027",
    "licenseEffectiveDate": "05/02/2025",
    "licenseExpirationDate": "05/01/2026",
    "dataDate": "10/18/2025",
    "capacity": 129,
    "address": "2190 W ADAMS BLVD",
    "city": "LOS ANGELES",
    "zip": "90018",
    "county": "LOS ANGELES",
    "phone": "(323) 737-7778",
    "lat": 34.032456,
    "lng": -118.3145805
  }
]