[
  {
    "id": "630022255",
    "name": "AME HOME HEALTH CARE, INC.",
    "npi": null,
    "hcaiId": "406195921",
    "businessName": "AME HOME HEALTH CARE, INC.",
    "contactEmail": "AMEHOMEHEALTHCARE@GMAIL.COM",
    "categoryName": "HOME HEALTH AGENCY",
    "categoryCode": "HHA",
    "licenseStatus": "ACTIVE",
    "inService": true,
    "licenseNumber": "550007785",
    "licenseEffectiveDate": "01/12/2025",
    "licenseExpirationDate": "01/11/2026",
    "dataDate": "10/18/2025",
    "capacity": 0,
    "address": "811 WILSHIRE BLVD, SUITE 1744",
    "city": "LOS ANGELES",
    "zip": "90017",
    "county": "LOS ANGELES",
    "phone": "(747) 239-1043",
    "lat": 34.049727,
    "lng": -118.258398
  },
  {
    "id": "970000123",
    "name": "ANGELS NURSING HEALTH CENTER",
    "npi": "1184871659",
    "hcaiId": "206190032",
    "businessName": "FOUR RIVERS MANAGEMENT CORPORATION",
    "contactEmail": "ADMINISTRATOR@ANGELSNC.COM",
    "categoryName": "SKILLED NURSING FACILITY",
    "categoryCode": "SNF",
    "licenseStatus": "ACTIVE",
    "inService": true,
    "licenseNumber": "970000061",
    "licenseEffectiveDate": "11/01/2024",
    "licenseExpirationDate": "10/31/2025",
    "dataDate": "10/18/2025",
    "capacity": 49,
    "address": "415 S UNION AVE",
    "city": "LOS ANGELES",
    "zip": "90017",
    "county": "LOS ANGELES",
    "phone": "(213) 484-0784",
    "lat": 34.05958417,
    "lng": -118.2685032
  },
  {
    "id": "630003701",
    "name": "APLA DENTAL SERVICES",
    "npi": "1740490937",
    "hcaiId": "306196785",
    "businessName": "APLA HEALTH & WELLNESS",
    "contactEmail": "JSOH@APLAHEALTH.ORG",
    "categoryName": "PRIMARY CARE CLINIC",
    "categoryCode": "COMTYC",
    "licenseStatus": "ACTIVE",
    "inService": true,
    "licenseNumber": "550000217",
    "licenseEffectiveDate": "12/01/2024",
    "licenseExpirationDate": "11/30/2025",
    "dataDate": "10/18/2025",
    "capacity": 0,
    "address": "1127 WILSHIRE BLVD, SUITE 1504",
    "city": "LOS ANGELES",
    "zip": "90017",
    "county": "LOS ANGELES",
    "phone": "(323) 329-9187",
    "lat": 34.053129,
    "lng": -118.2638115
  },
  {
    "id": "630024391",
    "name": "ARO HOME HEALTH, INC",
    "npi": null,
    "hcaiId": "406190283",
    "businessName": "ARO HOME HEALTH, INC",
    "contactEmail": "AROHOMEHEALTH@GMAIL.COM",
    "categoryName": "HOME HEALTH AGENCY",
    "categoryCode": "HHA",
    "licenseStatus": "ACTIVE",
    "inService": true,
    "licenseNumber": "550009024",
    "licenseEffectiveDate": "01/17/2025",
    "licenseExpirationDate": "01/16/2026",
    "dataDate": "10/18/2025",
    "capacity": 0,
    "address": "811 WILSHIRE BLVD, SUITE 1719",
    "city": "LOS ANGELES",
    "zip": "90017",
    "county": "LOS ANGELES",
    "phone": "(213) 232-4942",
    "lat": 34.049727,
    "lng": -118.258398
  },
  {
    "id": "630027656",
    "name": "CENTRAL NEIGHBORHOOD HEALTH FOUNDATION - LUCAS",
    "npi": "1841437241",
    "hcaiId": null,
    "businessName": "H STREET CLINIC, INC.",
    "contactEmail": null,
    "categoryName": "PRIMARY CARE CLINIC",
    "categoryCode": "COMTYC",
    "licenseStatus": "ACTIVE",
    "inService": true,
    "licenseNumber": "550000837",
    "licenseEffectiveDate": "12/09/2024",
    "licenseExpirationDate": "12/08/2025",
    "dataDate": "10/18/2025",
    "capacity": 0,
    "address": "1127 WILSHIRE BLVD, SUITE 707",
    "city": "LOS ANGELES",
    "zip": "90017",
    "county": "LOS ANGELES",
    "phone": null,
    "lat": 34.05316398,
    "lng": -118.263816
  },
  {
    "id": "630027892",
    "name": "CENTRAL NEIGHBORHOOD HEALTH FOUNDATION - WILSHIRE B",
    "npi": null,
    "hcaiId": null,
    "businessName": "H STREET CLINIC, INC.",
    "contactEmail": null,
    "categoryName": "PRIMARY CARE CLINIC",
    "categoryCode": "COMTYC",
    "licenseStatus": "ACTIVE",
    "inService": true,
    "licenseNumber": "550000837",
    "licenseEffectiveDate": "12/09/2024",
    "licenseExpirationDate": "12/08/2025",
    "dataDate": "10/18/2025",
    "capacity": 0,
    "address": "1245 WILSHIRE BLVD, SUITE 715",
    "city": "LOS ANGELES",
    "zip": "90017",
    "county": "LOS ANGELES",
    "phone": null,
    "lat": 34.05399798,
    "lng": -118.265946
  },
  {
    "id": "630019558",
    "name": "COMFORT CAREGIVING",
    "npi": null,
    "hcaiId": "406192831",
    "businessName": "COMFORT CAREGIVING",
    "contactEmail": "COMFORTCAREGIVINGINC@GMAIL.COM",
    "categoryName": "HOME HEALTH AGENCY",
    "categoryCode": "HHA",
    "licenseStatus": "ACTIVE",
    "inService": true,
    "licenseNumber": "550005640",
    "licenseEffectiveDate": "07/21/2025",
    "licenseExpirationDate": "07/20/2026",
    "dataDate": "10/18/2025",
    "capacity": 0,
    "address": "835 WILSHIRE BLVD, FLOOR 5, SUITE 7",
    "city": "LOS ANGELES",
    "zip": "90017",
    "county": "LOS ANGELES",
    "phone": "(213) 323-4876",
    "lat": 34.05000602,
    "lng": -118.258764
  },
  {
    "id": "630017260",
    "name": "CONEJO VALLEY OUTPATIENT CENTER, LLC",
    "npi": "1437567765",
    "hcaiId": null,
    "businessName": null,
    "contactEmail": null,
    "categoryName": "SURGICAL CLINIC",
    "categoryCode": "ASC",
    "licenseStatus": null,
    "inService": null,
    "licenseNumber": null,
    "licenseEffectiveDate": null,
    "licenseExpirationDate": null,
    "dataDate": "10/18/2025",
    "capacity": 0,
    "address": "1127 WILSHIRE BLVD, SUITE 1000",
    "city": "LOS ANGELES",
    "zip": "90017",
    "county": "LOS ANGELES",
    "phone": null,
    "lat": 34.053129,
    "lng": -118.2638115
  },
  {
    "id": "630026982",
    "name": "CYPRIAN HOME HEALTH CARE LLC",
    "npi": null,
    "hcaiId": null,
    "businessName": "CYPRIAN HOME HEALTHCARE, LLC",
    "contactEmail": "NCYPRIAN@CYPRIANHOMEHEALTHCARE.COM",
    "categoryName": "HOME HEALTH AGENCY",
    "categoryCode": "HHA",
    "licenseStatus": "ACTIVE",
    "inService": true,
    "licenseNumber": "550009468",
    "licenseEffectiveDate": "04/22/2025",
    "licenseExpirationDate": "10/21/2025",
    "dataDate": "10/18/2025",
    "capacity": 0,
    "address": "811 W 7TH ST, SUITE 0927",
    "city": "LOS ANGELES",
    "zip": "90017",
    "county": "LOS ANGELES",
    "phone": "(985) 534-8178",
    "lat": 34.049148,
    "lng": -118.258945
  },
  {
    "id": "630013012",
    "name": "GALA DIALYSIS, LLC",
    "npi": "1386962041",
    "hcaiId": "306197561",
    "businessName": "GALA DIALYSIS, LLC",
    "contactEmail": "LICENSING@USRENALCARE.COM",
    "categoryName": "CHRONIC DIALYSIS CLINIC",
    "categoryCode": "ESRD/CDC",
    "licenseStatus": "ACTIVE",
    "inService": true,
    "licenseNumber": "550001626",
    "licenseEffectiveDate": "11/20/2025",
    "licenseExpirationDate": "11/19/2026",
    "dataDate": "10/18/2025",
    "capacity": 21,
    "address": "1666 W 3RD ST",
    "city": "LOS ANGELES",
    "zip": "90017",
    "county": "LOS ANGELES",
    "phone": "(213) 989-0247",
    "lat": 34.060581,
    "lng": -118.267713
  },
  {
    "id": "930000881",
    "name": "GOOD SAMARITAN HOSPITAL",
    "npi": "1508859323",
    "hcaiId": null,
    "businessName": "PIH HEALTH GOOD SAMARITAN HOSPITAL",
    "contactEmail": null,
    "categoryName": "OTHER",
    "categoryCode": "PPSREHB",
    "licenseStatus": "ACTIVE",
    "inService": true,
    "licenseNumber": "930000071",
    "licenseEffectiveDate": "11/01/2025",
    "licenseExpirationDate": "10/31/2026",
    "dataDate": "10/18/2025",
    "capacity": 0,
    "address": "1225 WILSHIRE BLVD",
    "city": "LOS ANGELES",
    "zip": "90017",
    "county": "LOS ANGELES",
    "phone": null,
    "lat": 34.05328501,
    "lng": -118.265336
  },
  {
    "id": "630019571",
    "name": "GRACELIGHT COMMUNITY HEALTH",
    "npi": null,
    "hcaiId": null,
    "businessName": "GRACELIGHT COMMUNITY HEALTH",
    "contactEmail": null,
    "categoryName": "PRIMARY CARE CLINIC",
    "categoryCode": "COMTYC",
    "licenseStatus": "ACTIVE",
    "inService": true,
    "licenseNumber": "550000960",
    "licenseEffectiveDate": "04/01/2025",
    "licenseExpirationDate": "03/31/2026",
    "dataDate": "10/18/2025",
    "capacity": 0,
    "address": "303 LOMA DR, SUITE 202",
    "city": "LOS ANGELES",
    "zip": "90017",
    "county": "LOS ANGELES",
    "phone": "(323) 669-4302",
    "lat": 34.059798,
    "lng": -118.2663045
  },
  {
    "id": "630024337",
    "name": "HEALTHCARE HOME HEALTH CARE, INC.",
    "npi": null,
    "hcaiId": "406197275",
    "businessName": "HEALTHCARE HOME HEALTH CARE, INC.",
    "contactEmail": "HEALTHCAREHHC@GMAIL.COM",
    "categoryName": "HOME HEALTH AGENCY",
    "categoryCode": "HHA",
    "licenseStatus": "ACTIVE",
    "inService": true,
    "licenseNumber": "550008516",
    "licenseEffectiveDate": "03/23/2024",
    "licenseExpirationDate": "03/22/2025",
    "dataDate": "10/18/2025",
    "capacity": 0,
    "address": "811 WILSHIRE BLVD, SUITE 1717",
    "city": "LOS ANGELES",
    "zip": "90017",
    "county": "LOS ANGELES",
    "phone": "(213) 802-0603",
    "lat": 34.049727,
    "lng": -118.258398
  },
  {
    "id": "630018965",
    "name": "PACIFIC VASCUCARE SURGERY CENTER",
    "npi": "1770072803",
    "hcaiId": null,
    "businessName": null,
    "contactEmail": "CHERRY-ANNE.LEWIS@AZURACARE.COM",
    "categoryName": "SURGICAL CLINIC",
    "categoryCode": "ASC",
    "licenseStatus": null,
    "inService": null,
    "licenseNumber": null,
    "licenseEffectiveDate": null,
    "licenseExpirationDate": null,
    "dataDate": "10/18/2025",
    "capacity": 0,
    "address": "1660 W 3RD ST",
    "city": "LOS ANGELES",
    "zip": "90017",
    "county": "LOS ANGELES",
    "phone": "(213) 201-0850",
    "lat": 34.060527,
    "lng": -118.267443
  },
  {
    "id": "930000068",
    "name": "PIH HEALTH GOOD SAMARITAN HOSPITAL",
    "npi": "1508859323",
    "hcaiId": "106190392",
    "businessName": "PIH HEALTH GOOD SAMARITAN HOSPITAL",
    "contactEmail": "JUDY.PUGACH@PIHHEALTH.ORG",
    "categoryName": "GENERAL ACUTE CARE HOSPITAL",
    "categoryCode": "GACH",
    "licenseStatus": "ACTIVE",
    "inService": true,
    "licenseNumber": "930000071",
    "licenseEffectiveDate": "11/01/2025",
    "licenseExpirationDate": "10/31/2026",
    "dataDate": "10/18/2025",
    "capacity": 380,
    "address": "1225 WILSHIRE BLVD",
    "city": "LOS ANGELES",
    "zip": "90017",
    "county": "LOS ANGELES",
    "phone": "(562) 698-0811",
    "lat": 34.05328501,
    "lng": -118.265336
  },
  {
    "id": "930000735",
    "name": "PIH HEALTH GOOD SAMARITAN HOSPITAL D/P SNF",
    "npi": null,
    "hcaiId": null,
    "businessName": "PIH HEALTH GOOD SAMARITAN HOSPITAL",
    "contactEmail": null,
    "categoryName": "SKILLED NURSING FACILITY",
    "categoryCode": "SNF",
    "licenseStatus": "ACTIVE",
    "inService": true,
    "licenseNumber": "930000071",
    "licenseEffectiveDate": "11/01/2025",
    "licenseExpirationDate": "10/31/2026",
    "dataDate": "10/18/2025",
    "capacity": 28,
    "address": "1225 WILSHIRE BLVD",
    "city": "LOS ANGELES",
    "zip": "90017",
    "county": "LOS ANGELES",
    "phone": null,
    "lat": 34.05328501,
    "lng": -118.265336
  },
  {
    "id": "630016480",
    "name": "SAINT JOHN HOSPICE",
    "npi": "1497157796",
    "hcaiId": "406190817",
    "businessName": "SAINT JOHN HOSPICE",
    "contactEmail": "KARPMATT@YAHOO.COM",
    "categoryName": "HOSPICE",
    "categoryCode": "HOSPICE",
    "licenseStatus": "ACTIVE",
    "inService": true,
    "licenseNumber": "550004016",
    "licenseEffectiveDate": "09/30/2024",
    "licenseExpirationDate": "11/15/2025",
    "dataDate": "10/18/2025",
    "capacity": 0,
    "address": "1055 WILSHIRE BLVD, SUITE 1996",
    "city": "LOS ANGELES",
    "zip": "90017",
    "county": "LOS ANGELES",
    "phone": "(855) 962-4800",
    "lat": 34.05253899,
    "lng": -118.262694
  },
  {
    "id": "630017923",
    "name": "SELECT SURGICAL",
    "npi": "1467996793",
    "hcaiId": null,
    "businessName": null,
    "contactEmail": "SELECTSURGICALLA@GMAIL.COM",
    "categoryName": "SURGICAL CLINIC",
    "categoryCode": "ASC",
    "licenseStatus": null,
    "inService": null,
    "licenseNumber": null,
    "licenseEffectiveDate": null,
    "licenseExpirationDate": null,
    "dataDate": "10/18/2025",
    "capacity": 0,
    "address": "1127 WILSHIRE BLVD, SUITE 1000",
    "city": "LOS ANGELES",
    "zip": "90017",
    "county": "LOS ANGELES",
    "phone": "(213) 550-1201",
    "lat": 34.053129,
    "lng": -118.2638115
  },
  {
    "id": "930000671",
    "name": "ST. VINCENT EYE SURGERY MEDICAL CENTER",
    "npi": "1245367051",
    "hcaiId": "306196167",
    "businessName": "STEVEN G. KHWARG, M.D. PROF. CORP.",
    "contactEmail": "LAEYEMEDICAL@YAHOO.COM",
    "categoryName": "SURGICAL CLINIC",
    "categoryCode": "ASC",
    "licenseStatus": "INACTIVE - CAPEN DECISION",
    "inService": false,
    "licenseNumber": "930000943",
    "licenseEffectiveDate": "05/19/2007",
    "licenseExpirationDate": "05/18/2008",
    "dataDate": "10/18/2025",
    "capacity": 0,
    "address": "1127 WILSHIRE BLVD, SUITE 1515",
    "city": "LOS ANGELES",
    "zip": "90017",
    "county": "LOS ANGELES",
    "phone": "(213) 483-0150",
    "lat": 34.053129,
    "lng": -118.2638115
  },
  {
    "id": "630017290",
    "name": "U.S. RENAL CARE GRAND HOME PROGRAM",
    "npi": null,
    "hcaiId": null,
    "businessName": null,
    "contactEmail": null,
    "categoryName": "CHRONIC DIALYSIS CLINIC",
    "categoryCode": "ESRD",
    "licenseStatus": null,
    "inService": null,
    "licenseNumber": null,
    "licenseEffectiveDate": null,
    "licenseExpirationDate": null,
    "dataDate": "10/18/2025",
    "capacity": 0,
    "address": "1145 W 6TH ST",
    "city": "LOS ANGELES",
    "zip": "90017",
    "county": "LOS ANGELES",
    "phone": null,
    "lat": 34.05474,
    "lng": -118.2632985
  },
  {
    "id": "930001827",
    "name": "UNIVERSITY CENTER FOR ASSISTED REPRODUCTION",
    "npi": null,
    "hcaiId": null,
    "businessName": null,
    "contactEmail": "NONE@DHS.CA.GOV",
    "categoryName": "SURGICAL CLINIC",
    "categoryCode": "ASC",
    "licenseStatus": null,
    "inService": null,
    "licenseNumber": null,
    "licenseEffectiveDate": null,
    "licenseExpirationDate": null,
    "dataDate": "10/18/2025",
    "capacity": 0,
    "address": "1127 WILSHIRE BLVD, SUITE 1410",
    "city": "LOS ANGELES",
    "zip": "90017",
    "county": "LOS ANGELES",
    "phone": "(213) 975-9990",
    "lat": 34.053129,
    "lng": -118.2638115
  },
  {
    "id": "630012007",
    "name": "WILSHIRE CENTER FOR AMBULATORY SURGERY, INC.",
    "npi": "1033309406",
    "hcaiId": null,
    "businessName": null,
    "contactEmail": null,
    "categoryName": "SURGICAL CLINIC",
    "categoryCode": "ASC",
    "licenseStatus": null,
    "inService": null,
    "licenseNumber": null,
    "licenseEffectiveDate": null,
    "licenseExpirationDate": null,
    "dataDate": "10/18/2025",
    "capacity": 0,
    "address": "1127 WILSHIRE BLVD, SUITE 1515",
    "city": "LOS ANGELES",
    "zip": "90017",
    "county": "LOS ANGELES",
    "phone": null,
    "lat": 34.053129,
    "lng": -118.2638115
  },
  {
    "id": "960002600",
    "name": "WILSHIRE CENTER PT AND SPORTS REHAB",
    "npi": null,
    "hcaiId": null,
    "businessName": null,
    "contactEmail": null,
    "categoryName": "REHABILITATION CLINIC",
    "categoryCode": "OPT/SP",
    "licenseStatus": null,
    "inService": null,
    "licenseNumber": null,
    "licenseEffectiveDate": null,
    "licenseExpirationDate": null,
    "dataDate": "10/18/2025",
    "capacity": 0,
    "address": "1200 WILSHIRE BLVD, SUITE 401",
    "city": "LOS ANGELES",
    "zip": "90017",
    "county": "LOS ANGELES",
    "phone": "(213) 481-1515",
    "lat": 34.052706,
    "lng": -118.2653415
  },
  {
    "id": "930000402",
    "name": "WILSHIRE DIALYSIS CENTER",
    "npi": "1174586192",
    "hcaiId": "306191416",
    "businessName": "GREATER LOS ANGELES DIALYSIS CENTERS, LLC",
    "contactEmail": "CAL_C@DAVITA.COM",
    "categoryName": "CHRONIC DIALYSIS CLINIC",
    "categoryCode": "ESRD/CDC",
    "licenseStatus": "ACTIVE",
    "inService": true,
    "licenseNumber": "930000348",
    "licenseEffectiveDate": "05/01/2025",
    "licenseExpirationDate": "04/30/2026",
    "dataDate": "10/18/2025",
    "capacity": 22,
    "address": "1212 WILSHIRE BLVD",
    "city": "LOS ANGELES",
    "zip": "90017",
    "county": "LOS ANGELES",
    "phone": "(213) 482-5181",
    "lat": 34.053084,
    "lng": -118.265445
  }
]