[
  {
    "id": "630011520",
    "name": "DOWNTOWN L.A. AMBULATORY SURGICAL CENTER",
    "npi": "1447390448",
    "hcaiId": null,
    "businessName": null,
    "contactEmail": null,
    "categoryName": "SURGICAL CLINIC",
    "categoryCode": "ASC",
    "licenseStatus": null,
    "inService": null,
    "licenseNumber": null,
    "licenseEffectiveDate": null,
    "licenseExpirationDate": null,
    "dataDate": "10/18/2025",
    "capacity": 0,
    "address": "420 E 3RD ST, SUITE 604",
    "city": "LOS ANGELES",
    "zip": "90013",
    "county": "LOS ANGELES",
    "phone": "(213) 626-3330",
    "lat": 34.046694,
    "lng": -118.242072
  },
  {
    "id": "960002630",
    "name": "JWCH INSTITUTE INC. MEDICAL CLINIC/WEINGART CENTER",
    "npi": "1407808058",
    "hcaiId": "306197450",
    "businessName": "JWCH INSTITUTE, INC.",
    "contactEmail": "AIRIE@JWCH.ORG",
    "categoryName": "PRIMARY CARE CLINIC",
    "categoryCode": "COMTYC",
    "licenseStatus": "ACTIVE",
    "inService": true,
    "licenseNumber": "960001280",
    "licenseEffectiveDate": "11/30/2024",
    "licenseExpirationDate": "11/29/2025",
    "dataDate": "10/18/2025",
    "capacity": 0,
    "address": "522 S SAN PEDRO ST",
    "city": "LOS ANGELES",
    "zip": "90013",
    "county": "LOS ANGELES",
    "phone": "(213) 484-1186",
    "lat": 34.043472,
    "lng": -118.244124
  },
  {
    "id": "630019848",
    "name": "JWCH MEDICAL CLINIC @ CHARLES COBB HOTEL",
    "npi": "1407808058",
    "hcaiId": null,
    "businessName": "JWCH INSTITUTE, INC.",
    "contactEmail": null,
    "categoryName": "PRIMARY CARE CLINIC",
    "categoryCode": "COMTYC",
    "licenseStatus": "ACTIVE",
    "inService": true,
    "licenseNumber": "960001280",
    "licenseEffectiveDate": "11/30/2024",
    "licenseExpirationDate": "11/29/2025",
    "dataDate": "10/18/2025",
    "capacity": 0,
    "address": "521 S SAN PEDRO ST",
    "city": "LOS ANGELES",
    "zip": "90013",
    "county": "LOS ANGELES",
    "phone": null,
    "lat": 34.043571,
    "lng": -118.244538
  },
  {
    "id": "630017027",
    "name": "JWCH MEDICAL CLINIC @ SIMONE HOTEL",
    "npi": null,
    "hcaiId": null,
    "businessName": "JWCH INSTITUTE, INC.",
    "contactEmail": null,
    "categoryName": "PRIMARY CARE CLINIC",
    "categoryCode": "COMTYC",
    "licenseStatus": "ACTIVE",
    "inService": true,
    "licenseNumber": "960001280",
    "licenseEffectiveDate": "11/30/2024",
    "licenseExpirationDate": "11/29/2025",
    "dataDate": "10/18/2025",
    "capacity": 0,
    "address": "520 SAN JULIAN STREET",
    "city": "LOS ANGELES",
    "zip": "90013",
    "county": "LOS ANGELES",
    "phone": null,
    "lat": 34.043877,
    "lng": -118.2452805
  },
  {
    "id": "630017007",
    "name": "JWCH MEDICAL CLINIC @ ST. GEORGE HOTEL",
    "npi": null,
    "hcaiId": null,
    "businessName": "JWCH INSTITUTE, INC.",
    "contactEmail": null,
    "categoryName": "PRIMARY CARE CLINIC",
    "categoryCode": "COMTYC",
    "licenseStatus": "ACTIVE",
    "inService": true,
    "licenseNumber": "960001280",
    "licenseEffectiveDate": "11/30/2024",
    "licenseExpirationDate": "11/29/2025",
    "dataDate": "10/18/2025",
    "capacity": 0,
    "address": "115 E 3RD STREET",
    "city": "LOS ANGELES",
    "zip": "90013",
    "county": "LOS ANGELES",
    "phone": null,
    "lat": 34.049088,
    "lng": -118.245456
  },
  {
    "id": "630017008",
    "name": "JWCH MEDICAL CLINIC AT DOWNTOWN WOMEN'S CENTER",
    "npi": null,
    "hcaiId": null,
    "businessName": "JWCH INSTITUTE, INC.",
    "contactEmail": "AIRIE@JWCH.ORG",
    "categoryName": "PRIMARY CARE CLINIC",
    "categoryCode": "COMTYC",
    "licenseStatus": "ACTIVE",
    "inService": true,
    "licenseNumber": "960001280",
    "licenseEffectiveDate": "11/30/2024",
    "licenseExpirationDate": "11/29/2025",
    "dataDate": "10/18/2025",
    "capacity": 0,
    "address": "442 SOUTH SAN PEDRO STREET",
    "city": "LOS ANGELES",
    "zip": "90013",
    "county": "LOS ANGELES",
    "phone": null,
    "lat": 34.044642,
    "lng": -118.243404
  },
  {
    "id": "930001554",
    "name": "THIRD STREET SURGERY CENTER",
    "npi": "1144370594",
    "hcaiId": "306196536",
    "businessName": "THIRD STREET SURGERY CENTER, L.P.",
    "contactEmail": "INFO@THIRDSTREETSURGERY.COM",
    "categoryName": "SURGICAL CLINIC",
    "categoryCode": "ASC",
    "licenseStatus": "INACTIVE - CAPEN DECISION",
    "inService": false,
    "licenseNumber": "930001001",
    "licenseEffectiveDate": "01/12/2008",
    "licenseExpirationDate": "01/11/2009",
    "dataDate": "10/18/2025",
    "capacity": 0,
    "address": "420 E 3RD ST, SUITE 110",
    "city": "LOS ANGELES",
    "zip": "90013",
    "county": "LOS ANGELES",
    "phone": "(213) 617-9194",
    "lat": 34.046694,
    "lng": -118.242072
  },
  {
    "id": "630016801",
    "name": "U.S. RENAL CARE LITTLE TOKYO DIALYSIS",
    "npi": null,
    "hcaiId": "306190819",
    "businessName": "USRC LITTLE TOKYO, LLC",
    "contactEmail": "LICENSING@USRENALCARE.COM",
    "categoryName": "CHRONIC DIALYSIS CLINIC",
    "categoryCode": "ESRD/CDC",
    "licenseStatus": "ACTIVE",
    "inService": true,
    "licenseNumber": "550004028",
    "licenseEffectiveDate": "11/20/2025",
    "licenseExpirationDate": "11/19/2026",
    "dataDate": "10/18/2025",
    "capacity": 16,
    "address": "420 E. 3RD STREET, SUITE 120",
    "city": "LOS ANGELES",
    "zip": "90013",
    "county": "LOS ANGELES",
    "phone": "(213) 625-0706",
    "lat": 34.046694,
    "lng": -118.242072
  }
]