[
  {
    "id": "630027900",
    "name": "ALTAMED BEHAVIORAL HEALTH AT COLISEUM STREET ELEMENTARY FACILITY",
    "npi": null,
    "hcaiId": null,
    "businessName": "ALTAMED HEALTH SERVICES CORPORATION",
    "contactEmail": null,
    "categoryName": "PRIMARY CARE CLINIC",
    "categoryCode": "COMTYC",
    "licenseStatus": "ACTIVE",
    "inService": true,
    "licenseNumber": "550005159",
    "licenseEffectiveDate": "12/20/2024",
    "licenseExpirationDate": "12/19/2025",
    "dataDate": "10/18/2025",
    "capacity": 0,
    "address": "4400 COLISEUM ST",
    "city": "LOS ANGELES",
    "zip": "90016",
    "county": "LOS ANGELES",
    "phone": null,
    "lat": 34.01775501,
    "lng": -118.34396
  },
  {
    "id": "630014087",
    "name": "APLA HEALTH & WELLNESS CENTER - BALDWIN HILLS",
    "npi": "1639414139",
    "hcaiId": "306197797",
    "businessName": "APLA HEALTH & WELLNESS",
    "contactEmail": "CLEWIS@APLAHEALTH.ORG",
    "categoryName": "PRIMARY CARE CLINIC",
    "categoryCode": "COMTYC",
    "licenseStatus": "ACTIVE",
    "inService": true,
    "licenseNumber": "550002233",
    "licenseEffectiveDate": "04/10/2025",
    "licenseExpirationDate": "04/09/2026",
    "dataDate": "10/18/2025",
    "capacity": 0,
    "address": "3743 S LA BREA AVE",
    "city": "LOS ANGELES",
    "zip": "90016",
    "county": "LOS ANGELES",
    "phone": "(323) 329-8918",
    "lat": 34.018731,
    "lng": -118.355769
  },
  {
    "id": "630025887",
    "name": "APLA HEALTH - 3741 S. LA BREA AVE.",
    "npi": "1639414139",
    "hcaiId": null,
    "businessName": "APLA HEALTH & WELLNESS",
    "contactEmail": null,
    "categoryName": "PRIMARY CARE CLINIC",
    "categoryCode": "COMTYC",
    "licenseStatus": "ACTIVE",
    "inService": true,
    "licenseNumber": "550002233",
    "licenseEffectiveDate": "04/10/2025",
    "licenseExpirationDate": "04/09/2026",
    "dataDate": "10/18/2025",
    "capacity": 0,
    "address": "3741 S LA BREA AVE",
    "city": "LOS ANGELES",
    "zip": "90016",
    "county": "LOS ANGELES",
    "phone": null,
    "lat": 34.018605,
    "lng": -118.3562505
  },
  {
    "id": "980002144",
    "name": "CAPITAL HOME HEALTH AGENCY, INC.",
    "npi": "1902007255",
    "hcaiId": "406196033",
    "businessName": "CAPITAL HOME HEALTH AGENCY, INC.",
    "contactEmail": "CAPITALCARES@AOL.COM",
    "categoryName": "HOME HEALTH AGENCY",
    "categoryCode": "HHA",
    "licenseStatus": "ACTIVE",
    "inService": true,
    "licenseNumber": "980001281",
    "licenseEffectiveDate": "06/30/2025",
    "licenseExpirationDate": "06/29/2026",
    "dataDate": "10/18/2025",
    "capacity": 0,
    "address": "5751 W ADAMS BLVD",
    "city": "LOS ANGELES",
    "zip": "90016",
    "county": "LOS ANGELES",
    "phone": "(323) 930-7809",
    "lat": 34.032636,
    "lng": -118.3686165
  },
  {
    "id": "630013401",
    "name": "CRENSHAW COMMUNITY CLINIC",
    "npi": "1578762307",
    "hcaiId": "306197674",
    "businessName": "BENEVOLENCE INDUSTRIES INCORPORATED",
    "contactEmail": "GDANQUAH@BHCHEALTH.ORG",
    "categoryName": "PRIMARY CARE CLINIC",
    "categoryCode": "COMTYC",
    "licenseStatus": "ACTIVE",
    "inService": true,
    "licenseNumber": "550001971",
    "licenseEffectiveDate": "06/26/2025",
    "licenseExpirationDate": "06/25/2026",
    "dataDate": "10/18/2025",
    "capacity": 0,
    "address": "3631 CRENSHAW BLVD, SUITE 109",
    "city": "LOS ANGELES",
    "zip": "90016",
    "county": "LOS ANGELES",
    "phone": "(323) 732-0100",
    "lat": 34.022952,
    "lng": -118.3352895
  },
  {
    "id": "910000314",
    "name": "CRENSHAW NURSING HOME",
    "npi": "1386728939",
    "hcaiId": "206190220",
    "businessName": "CRENSHAW NURSING HOME LLC",
    "contactEmail": "FAC02ADMIN@LONGWOODMGMT.COM",
    "categoryName": "SKILLED NURSING FACILITY",
    "categoryCode": "SNF",
    "licenseStatus": "ACTIVE",
    "inService": true,
    "licenseNumber": "910000143",
    "licenseEffectiveDate": "04/01/2025",
    "licenseExpirationDate": "03/31/2026",
    "dataDate": "10/18/2025",
    "capacity": 55,
    "address": "1900 S LONGWOOD AVE",
    "city": "LOS ANGELES",
    "zip": "90016",
    "county": "LOS ANGELES",
    "phone": "(323) 933-1560",
    "lat": 34.039548,
    "lng": -118.3452435
  },
  {
    "id": "910000328",
    "name": "LONGWOOD MANOR CONVALESCENT HOSPITAL",
    "npi": "1235213810",
    "hcaiId": "206190481",
    "businessName": "LONGWOOD ENTERPRISES LLC",
    "contactEmail": "FAC05ADMIN@LONGWOODMGMT.COM",
    "categoryName": "SKILLED NURSING FACILITY",
    "categoryCode": "SNF",
    "licenseStatus": "ACTIVE",
    "inService": true,
    "licenseNumber": "910000150",
    "licenseEffectiveDate": "11/01/2025",
    "licenseExpirationDate": "10/31/2026",
    "dataDate": "10/18/2025",
    "capacity": 198,
    "address": "4853 W WASHINGTON BLVD",
    "city": "LOS ANGELES",
    "zip": "90016",
    "county": "LOS ANGELES",
    "phone": "(323) 935-1157",
    "lat": 34.040124,
    "lng": -118.3453785
  },
  {
    "id": "630013400",
    "name": "PLANNED PARENTHOOD BASICS, BALDWIN HILLS/CRENSHAW",
    "npi": "1568791390",
    "hcaiId": "306197613",
    "businessName": "PLANNED PARENTHOOD LOS ANGELES",
    "contactEmail": "BRENDA.GUERRERO@PP-LA.ORG",
    "categoryName": "PRIMARY CARE CLINIC",
    "categoryCode": "COMTYC",
    "licenseStatus": "ACTIVE",
    "inService": true,
    "licenseNumber": "550001773",
    "licenseEffectiveDate": "11/08/2024",
    "licenseExpirationDate": "11/07/2025",
    "dataDate": "10/18/2025",
    "capacity": 0,
    "address": "3637 S LA BREA AVE",
    "city": "LOS ANGELES",
    "zip": "90016",
    "county": "LOS ANGELES",
    "phone": "(213) 284-3200",
    "lat": 34.02094277,
    "lng": -118.3556612
  },
  {
    "id": "630017323",
    "name": "T.H.E. CLINIC, INC. AT LA BREA",
    "npi": null,
    "hcaiId": null,
    "businessName": null,
    "contactEmail": "RFERNANDEZ@TOHELPEVERYONE.ORG",
    "categoryName": "PRIMARY CARE CLINIC",
    "categoryCode": "FQHC",
    "licenseStatus": null,
    "inService": null,
    "licenseNumber": null,
    "licenseEffectiveDate": null,
    "licenseExpirationDate": null,
    "dataDate": "10/18/2025",
    "capacity": 0,
    "address": "3721 S LA BREA AVE",
    "city": "LOS ANGELES",
    "zip": "90016",
    "county": "LOS ANGELES",
    "phone": "(323) 730-1920",
    "lat": 34.019298,
    "lng": -118.3561065
  },
  {
    "id": "630016277",
    "name": "T.H.E. HEALTH AND WELLNESS CENTER AT LA BREA",
    "npi": null,
    "hcaiId": "306198292",
    "businessName": "THE CLINIC, INC.",
    "contactEmail": "LMARIN@TOHELPEVERYONE.ORG",
    "categoryName": "PRIMARY CARE CLINIC",
    "categoryCode": "COMTYC",
    "licenseStatus": "ACTIVE",
    "inService": true,
    "licenseNumber": "550003620",
    "licenseEffectiveDate": "01/04/2025",
    "licenseExpirationDate": "01/03/2026",
    "dataDate": "10/18/2025",
    "capacity": 0,
    "address": "3721 S. LA BREA AVE.",
    "city": "LOS ANGELES",
    "zip": "90016",
    "county": "LOS ANGELES",
    "phone": "(323) 309-6026",
    "lat": 34.019298,
    "lng": -118.3561065
  },
  {
    "id": "930001619",
    "name": "U.S. RENAL CARE BALDWIN HILLS DIALYSIS",
    "npi": "1104111491",
    "hcaiId": "306196087",
    "businessName": "USRC BALDWIN HILLS, LLC",
    "contactEmail": "SANDRA@KIDNEYCENTER.COM",
    "categoryName": "CHRONIC DIALYSIS CLINIC",
    "categoryCode": "ESRD/CDC",
    "licenseStatus": "ACTIVE",
    "inService": true,
    "licenseNumber": "930000904",
    "licenseEffectiveDate": "04/01/2025",
    "licenseExpirationDate": "03/31/2026",
    "dataDate": "10/18/2025",
    "capacity": 17,
    "address": "3705 S LA BREA AVE",
    "city": "LOS ANGELES",
    "zip": "90016",
    "county": "LOS ANGELES",
    "phone": "(323) 293-4488",
    "lat": 34.019298,
    "lng": -118.3561065
  }
]