[
  {
    "id": "630013982",
    "name": "ASIAN PACIFIC HEALTH CARE VENTURE,INC. - BELMONT HEALTH CENTER",
    "npi": "1811129091",
    "hcaiId": "306197784",
    "businessName": "ASIAN PACIFIC HEALTH CARE VENTURE, INC.",
    "contactEmail": "KSHIBATA@APHCV.ORG",
    "categoryName": "PRIMARY CARE CLINIC",
    "categoryCode": "COMTYC",
    "licenseStatus": "ACTIVE",
    "inService": true,
    "licenseNumber": "960001028",
    "licenseEffectiveDate": "11/21/2024",
    "licenseExpirationDate": "11/20/2025",
    "dataDate": "10/18/2025",
    "capacity": 0,
    "address": "180 UNION PL",
    "city": "LOS ANGELES",
    "zip": "90026",
    "county": "LOS ANGELES",
    "phone": "(323) 644-3885",
    "lat": 34.061922,
    "lng": -118.26495
  },
  {
    "id": "930000014",
    "name": "BARLOW RESPIRATORY HOSPITAL",
    "npi": "1851368369",
    "hcaiId": "106190052",
    "businessName": "BARLOW RESPIRATORY HOSPITAL",
    "contactEmail": "AMOHAN@BARLOWHOSPITAL.ORG",
    "categoryName": "GENERAL ACUTE CARE HOSPITAL",
    "categoryCode": "GACH",
    "licenseStatus": "ACTIVE",
    "inService": true,
    "licenseNumber": "930000011",
    "licenseEffectiveDate": "11/01/2025",
    "licenseExpirationDate": "10/31/2026",
    "dataDate": "10/18/2025",
    "capacity": 105,
    "address": "2000 STADIUM WAY",
    "city": "LOS ANGELES",
    "zip": "90026",
    "county": "LOS ANGELES",
    "phone": "(213) 202-6886",
    "lat": 34.075809,
    "lng": -118.2481425
  },
  {
    "id": "060002178",
    "name": "BUENA VIDA ADULT DAY HEALTH CARE CENTER",
    "npi": null,
    "hcaiId": null,
    "businessName": "JINJU HEALTH CARE, INC",
    "contactEmail": "JINJUHEALTHCARE@GMAIL.COM",
    "categoryName": "ADULT DAY HEALTH CARE",
    "categoryCode": "ADHC",
    "licenseStatus": "ACTIVE",
    "inService": true,
    "licenseNumber": "060000885",
    "licenseEffectiveDate": "12/04/2024",
    "licenseExpirationDate": "12/03/2025",
    "dataDate": "10/18/2025",
    "capacity": 0,
    "address": "1617 BEVERLY BLVD",
    "city": "LOS ANGELES",
    "zip": "90026",
    "county": "LOS ANGELES",
    "phone": "(213) 250-9191",
    "lat": 34.06369939,
    "lng": -118.2635731
  },
  {
    "id": "060001783",
    "name": "CENTER FOR BETTER LIFE",
    "npi": null,
    "hcaiId": null,
    "businessName": "BETTER LIFE CBAS, INC.",
    "contactEmail": "PROGRAMDIRECTOR@BETTERLIFELA.COM",
    "categoryName": "ADULT DAY HEALTH CARE",
    "categoryCode": "ADHC",
    "licenseStatus": "ACTIVE",
    "inService": true,
    "licenseNumber": "060000600",
    "licenseEffectiveDate": "05/05/2025",
    "licenseExpirationDate": "05/04/2026",
    "dataDate": "10/18/2025",
    "capacity": 0,
    "address": "1616 W BEVERLY BLVD",
    "city": "LOS ANGELES",
    "zip": "90026",
    "county": "LOS ANGELES",
    "phone": "(213) 388-4445",
    "lat": 34.06339862,
    "lng": -118.2638802
  },
  {
    "id": "970000062",
    "name": "GARDEN CREST REHABILITATION CENTER",
    "npi": "1861480097",
    "hcaiId": "206190308",
    "businessName": "GARDEN CREST CONVALESCENT HOSPITAL, INC.",
    "contactEmail": "ADMIN@GARDENCRESTWEB.COM",
    "categoryName": "SKILLED NURSING FACILITY",
    "categoryCode": "SNF",
    "licenseStatus": "ACTIVE",
    "inService": true,
    "licenseNumber": "970000031",
    "licenseEffectiveDate": "05/01/2025",
    "licenseExpirationDate": "04/30/2026",
    "dataDate": "10/18/2025",
    "capacity": 72,
    "address": "909 LUCILE AVE",
    "city": "LOS ANGELES",
    "zip": "90026",
    "county": "LOS ANGELES",
    "phone": "(323) 663-8281",
    "lat": 34.085646,
    "lng": -118.2828735
  },
  {
    "id": "930000147",
    "name": "GATEWAYS HOSPITAL AND MENTAL HEALTH CENTER",
    "npi": "1720151137",
    "hcaiId": "106190317",
    "businessName": "GATEWAYS HOSPITAL AND MENTAL HEALTH CENTER",
    "contactEmail": "INFO@GATEWAYSHOSPITAL.ORG",
    "categoryName": "ACUTE PSYCHIATRIC HOSPITAL",
    "categoryCode": "APH",
    "licenseStatus": "ACTIVE",
    "inService": true,
    "licenseNumber": "930000058",
    "licenseEffectiveDate": "11/02/2025",
    "licenseExpirationDate": "11/01/2026",
    "dataDate": "10/18/2025",
    "capacity": 55,
    "address": "1891 EFFIE ST",
    "city": "LOS ANGELES",
    "zip": "90026",
    "county": "LOS ANGELES",
    "phone": "(323) 644-2000",
    "lat": 34.084485,
    "lng": -118.256589
  },
  {
    "id": "980002483",
    "name": "GRACE HOSPICE, INC.",
    "npi": null,
    "hcaiId": "406196631",
    "businessName": "GRACE HOSPICE, INC.",
    "contactEmail": "VCHOI@GRACEHOSPICEINC.COM",
    "categoryName": "HOSPICE",
    "categoryCode": "HOSPICE",
    "licenseStatus": "ACTIVE",
    "inService": true,
    "licenseNumber": "980001586",
    "licenseEffectiveDate": "05/07/2024",
    "licenseExpirationDate": "05/06/2026",
    "dataDate": "10/18/2025",
    "capacity": 0,
    "address": "1711 W TEMPLE ST, SUITE 3614",
    "city": "LOS ANGELES",
    "zip": "90026",
    "county": "LOS ANGELES",
    "phone": "(213) 989-1600",
    "lat": 34.068897,
    "lng": -118.263366
  },
  {
    "id": "960000208",
    "name": "GRACELIGHT COMMUNITY HEALTH",
    "npi": "1013083666",
    "hcaiId": "306191103",
    "businessName": "GRACELIGHT COMMUNITY HEALTH",
    "contactEmail": "MARINA.SNITMAN@GRACELIGHT.ORG",
    "categoryName": "PRIMARY CARE CLINIC",
    "categoryCode": "COMTYC",
    "licenseStatus": "ACTIVE",
    "inService": true,
    "licenseNumber": "960000219",
    "licenseEffectiveDate": "05/12/2025",
    "licenseExpirationDate": "05/11/2026",
    "dataDate": "10/18/2025",
    "capacity": 0,
    "address": "150 N RENO ST",
    "city": "LOS ANGELES",
    "zip": "90026",
    "county": "LOS ANGELES",
    "phone": "(323) 635-1153",
    "lat": 34.072668,
    "lng": -118.2803445
  },
  {
    "id": "960000243",
    "name": "HOLLYWOOD SUNSET FREE CLINIC",
    "npi": null,
    "hcaiId": "306190383",
    "businessName": "HOLLYWOOD SUNSET FREE CLINIC",
    "contactEmail": "HOLLYWOODSUNSETFREECLINIC.1968@GMAIL.COM",
    "categoryName": "PRIMARY CARE CLINIC",
    "categoryCode": "FREEC",
    "licenseStatus": "ACTIVE",
    "inService": true,
    "licenseNumber": "960000089",
    "licenseEffectiveDate": "04/30/2025",
    "licenseExpirationDate": "04/29/2026",
    "dataDate": "10/18/2025",
    "capacity": 0,
    "address": "3324 W SUNSET BLVD",
    "city": "LOS ANGELES",
    "zip": "90026",
    "county": "LOS ANGELES",
    "phone": "(323) 660-2400",
    "lat": 34.087041,
    "lng": -118.275813
  },
  {
    "id": "930000035",
    "name": "L.A. DOWNTOWN MEDICAL CENTER",
    "npi": "1780183335",
    "hcaiId": "106190661",
    "businessName": "L.A. DOWNTOWN MEDICAL CENTER, LLC",
    "contactEmail": "NANCY.CRESPO@LADOWNTOWNMC.COM",
    "categoryName": "GENERAL ACUTE CARE HOSPITAL",
    "categoryCode": "GACH",
    "licenseStatus": "ACTIVE",
    "inService": true,
    "licenseNumber": "930000137",
    "licenseEffectiveDate": "09/18/2025",
    "licenseExpirationDate": "11/17/2025",
    "dataDate": "10/18/2025",
    "capacity": 122,
    "address": "1711 W TEMPLE ST",
    "city": "LOS ANGELES",
    "zip": "90026",
    "county": "LOS ANGELES",
    "phone": "(213) 989-6117",
    "lat": 34.068897,
    "lng": -118.263366
  },
  {
    "id": "630012186",
    "name": "L.A. DOWNTOWN MEDICAL CENTER-D/P APH",
    "npi": "1780183335",
    "hcaiId": null,
    "businessName": "L.A. DOWNTOWN MEDICAL CENTER, LLC",
    "contactEmail": null,
    "categoryName": "ACUTE PSYCHIATRIC HOSPITAL",
    "categoryCode": "APH",
    "licenseStatus": "ACTIVE",
    "inService": true,
    "licenseNumber": "930000137",
    "licenseEffectiveDate": "09/18/2025",
    "licenseExpirationDate": "11/17/2025",
    "dataDate": "10/18/2025",
    "capacity": 29,
    "address": "1711 W TEMPLE ST",
    "city": "LOS ANGELES",
    "zip": "90026",
    "county": "LOS ANGELES",
    "phone": null,
    "lat": 34.068897,
    "lng": -118.263366
  },
  {
    "id": "060002177",
    "name": "SILVER LAKE ADULT DAY HEALTH CARE CENTER",
    "npi": null,
    "hcaiId": null,
    "businessName": "JHK HERTIAGE, INC",
    "contactEmail": "SILVERLAKEADHC@HOTMAIL.COM",
    "categoryName": "ADULT DAY HEALTH CARE",
    "categoryCode": "ADHC",
    "licenseStatus": "ACTIVE",
    "inService": true,
    "licenseNumber": "060000888",
    "licenseEffectiveDate": "05/20/2025",
    "licenseExpirationDate": "05/19/2026",
    "dataDate": "10/18/2025",
    "capacity": 0,
    "address": "3339 W TEMPLE ST",
    "city": "LOS ANGELES",
    "zip": "90026",
    "county": "LOS ANGELES",
    "phone": "(213) 383-0050",
    "lat": 34.076322,
    "lng": -118.28268
  },
  {
    "id": "630012206",
    "name": "SILVER LAKE DIALYSIS",
    "npi": "1306088059",
    "hcaiId": "306197119",
    "businessName": "TOTAL RENAL CARE, INC.",
    "contactEmail": "CAL_C@DAVITA.COM",
    "categoryName": "CHRONIC DIALYSIS CLINIC",
    "categoryCode": "ESRD/CDC",
    "licenseStatus": "ACTIVE",
    "inService": true,
    "licenseNumber": "550001290",
    "licenseEffectiveDate": "06/01/2025",
    "licenseExpirationDate": "05/31/2026",
    "dataDate": "10/18/2025",
    "capacity": 30,
    "address": "2723 W TEMPLE ST",
    "city": "LOS ANGELES",
    "zip": "90026",
    "county": "LOS ANGELES",
    "phone": "(213) 480-3039",
    "lat": 34.073316,
    "lng": -118.276335
  },
  {
    "id": "980002209",
    "name": "ST. LIZ HOSPICE, INC.",
    "npi": null,
    "hcaiId": "406196689",
    "businessName": "ST. LIZ HOSPICE, INC.",
    "contactEmail": "RYAO@STLIZHOSPICE.COM",
    "categoryName": "HOSPICE",
    "categoryCode": "HOSPICE",
    "licenseStatus": "ACTIVE",
    "inService": true,
    "licenseNumber": "980001331",
    "licenseEffectiveDate": "01/24/2023",
    "licenseExpirationDate": "01/23/2025",
    "dataDate": "10/18/2025",
    "capacity": 0,
    "address": "1910 W SUNSET BLVD, SUITE 420",
    "city": "LOS ANGELES",
    "zip": "90026",
    "county": "LOS ANGELES",
    "phone": "(213) 365-6499",
    "lat": 34.077663,
    "lng": -118.2610755
  },
  {
    "id": "930000559",
    "name": "SUNSET AMBULATORY SURGICAL CENTER",
    "npi": "1205976206",
    "hcaiId": null,
    "businessName": null,
    "contactEmail": "NONE@DHS.CA.GOV",
    "categoryName": "SURGICAL CLINIC",
    "categoryCode": "ASC",
    "licenseStatus": null,
    "inService": null,
    "licenseNumber": null,
    "licenseEffectiveDate": null,
    "licenseExpirationDate": null,
    "dataDate": "10/18/2025",
    "capacity": 0,
    "address": "2711 W SUNSET BLVD",
    "city": "LOS ANGELES",
    "zip": "90026",
    "county": "LOS ANGELES",
    "phone": "(213) 483-4246",
    "lat": 34.08086842,
    "lng": -118.270626
  },
  {
    "id": "970000149",
    "name": "TEMPLE PARK CONVALESCENT HOSPITAL",
    "npi": "1295781896",
    "hcaiId": "206190972",
    "businessName": "TEMPLE PARK CONVALESCENT HOSPITAL, INC.",
    "contactEmail": "ELLIOT@TEMPLEPARK.ORG",
    "categoryName": "SKILLED NURSING FACILITY",
    "categoryCode": "SNF",
    "licenseStatus": "ACTIVE",
    "inService": true,
    "licenseNumber": "970000074",
    "licenseEffectiveDate": "03/10/2025",
    "licenseExpirationDate": "03/09/2026",
    "dataDate": "10/18/2025",
    "capacity": 99,
    "address": "2411 W TEMPLE ST",
    "city": "LOS ANGELES",
    "zip": "90026",
    "county": "LOS ANGELES",
    "phone": "(213) 380-3210",
    "lat": 34.071894,
    "lng": -118.2724695
  },
  {
    "id": "630002181",
    "name": "UNITED AMERICAN INDIAN INVOLVEMENT INC.",
    "npi": null,
    "hcaiId": "306190792",
    "businessName": "UNITED AMERICAN INDIAN INVOLVEMENT INC.",
    "contactEmail": "CHARRISON@UAII.ORG",
    "categoryName": "PRIMARY CARE CLINIC",
    "categoryCode": "COMTYC",
    "licenseStatus": "ACTIVE",
    "inService": true,
    "licenseNumber": "550000289",
    "licenseEffectiveDate": "11/16/2024",
    "licenseExpirationDate": "11/15/2025",
    "dataDate": "10/18/2025",
    "capacity": 0,
    "address": "1453 W TEMPLE ST",
    "city": "LOS ANGELES",
    "zip": "90026",
    "county": "LOS ANGELES",
    "phone": "(213) 202-3970",
    "lat": 34.067864,
    "lng": -118.257904
  }
]