[
  {
    "id": "630011705",
    "name": "CARABELLO DIALYSIS CENTER",
    "npi": "1831411446",
    "hcaiId": "306196610",
    "businessName": "HILLS DIALYSIS, LLC",
    "contactEmail": "CAL_C@DAVITA.COM",
    "categoryName": "CHRONIC DIALYSIS CLINIC",
    "categoryCode": "ESRD/CDC",
    "licenseStatus": "ACTIVE",
    "inService": true,
    "licenseNumber": "550001191",
    "licenseEffectiveDate": "05/01/2025",
    "licenseExpirationDate": "04/30/2026",
    "dataDate": "10/18/2025",
    "capacity": 25,
    "address": "757 E WASHINGTON BLVD",
    "city": "LOS ANGELES",
    "zip": "90021",
    "county": "LOS ANGELES",
    "phone": "(213) 745-2860",
    "lat": 34.027029,
    "lng": -118.255581
  },
  {
    "id": "630017026",
    "name": "JWCH MEDICAL CLINIC @ WEINGART",
    "npi": null,
    "hcaiId": null,
    "businessName": "JWCH INSTITUTE, INC.",
    "contactEmail": null,
    "categoryName": "PRIMARY CARE CLINIC",
    "categoryCode": "COMTYC",
    "licenseStatus": "ACTIVE",
    "inService": true,
    "licenseNumber": "960001280",
    "licenseEffectiveDate": "11/30/2024",
    "licenseExpirationDate": "11/29/2025",
    "dataDate": "10/18/2025",
    "capacity": 0,
    "address": "515 E. 6TH STREET",
    "city": "LOS ANGELES",
    "zip": "90021",
    "county": "LOS ANGELES",
    "phone": null,
    "lat": 34.042122,
    "lng": -118.244754
  },
  {
    "id": "630019851",
    "name": "JWCH MOBILE MEDICAL CLINIC",
    "npi": "1407808058",
    "hcaiId": null,
    "businessName": "JWCH INSTITUTE, INC.",
    "contactEmail": null,
    "categoryName": "PRIMARY CARE CLINIC",
    "categoryCode": "COMTYC",
    "licenseStatus": "ACTIVE",
    "inService": true,
    "licenseNumber": "960001280",
    "licenseEffectiveDate": "11/30/2024",
    "licenseExpirationDate": "11/29/2025",
    "dataDate": "10/18/2025",
    "capacity": 0,
    "address": "515 E 6TH ST",
    "city": "LOS ANGELES",
    "zip": "90021",
    "county": "LOS ANGELES",
    "phone": null,
    "lat": 34.042122,
    "lng": -118.244754
  },
  {
    "id": "630012910",
    "name": "UNIVERSAL COMMUNITY HEALTH CENTER",
    "npi": null,
    "hcaiId": "306197581",
    "businessName": "UNIVERSAL COMMUNITY HEALTH CENTER",
    "contactEmail": "AREYNOSO@UCHCLA.ORG",
    "categoryName": "PRIMARY CARE CLINIC",
    "categoryCode": "COMTYC",
    "licenseStatus": "ACTIVE",
    "inService": true,
    "licenseNumber": "550001520",
    "licenseEffectiveDate": "03/30/2025",
    "licenseExpirationDate": "03/29/2026",
    "dataDate": "10/18/2025",
    "capacity": 0,
    "address": "1005 E WASHINGTON BLVD, SUITE A",
    "city": "LOS ANGELES",
    "zip": "90021",
    "county": "LOS ANGELES",
    "phone": "(323) 313-5588",
    "lat": 34.025886,
    "lng": -118.253106
  }
]