[
  {
    "id": "630025382",
    "name": "ANGEL WINGS HOME HEALTH AGENCY",
    "npi": null,
    "hcaiId": "406190095",
    "businessName": "ANGEL WINGS HOME HEALTH AGENCY",
    "contactEmail": "ANGELWINGSHHA@GMAIL.COM",
    "categoryName": "HOME HEALTH AGENCY",
    "categoryCode": "HHA",
    "licenseStatus": "ACTIVE",
    "inService": true,
    "licenseNumber": "550008860",
    "licenseEffectiveDate": "09/25/2025",
    "licenseExpirationDate": "09/24/2026",
    "dataDate": "10/18/2025",
    "capacity": 0,
    "address": "1443 N HIGHLAND AVE, SUITE 1",
    "city": "LOS ANGELES",
    "zip": "90028",
    "county": "LOS ANGELES",
    "phone": "(818) 422-4060",
    "lat": 34.097373,
    "lng": -118.3388445
  },
  {
    "id": "630021936",
    "name": "CALIFORNIA HEALING HOSPICE, INC.",
    "npi": null,
    "hcaiId": "406190189",
    "businessName": "CALIFORNIA HEALING HOSPICE, INC.",
    "contactEmail": "CAHEALINGHOSPICE@GMAIL.COM",
    "categoryName": "HOSPICE",
    "categoryCode": "HOSPICE",
    "licenseStatus": "ACTIVE",
    "inService": true,
    "licenseNumber": "550007404",
    "licenseEffectiveDate": "12/07/2023",
    "licenseExpirationDate": "12/06/2025",
    "dataDate": "10/18/2025",
    "capacity": 0,
    "address": "1770 N HIGHLAND AVE, SUITE F",
    "city": "LOS ANGELES",
    "zip": "90028",
    "county": "LOS ANGELES",
    "phone": "(310) 923-4969",
    "lat": 34.103394,
    "lng": -118.338318
  },
  {
    "id": "630027944",
    "name": "CENTER WELL HOME HEALTH, INC.",
    "npi": null,
    "hcaiId": null,
    "businessName": "CENTER WELL HOME HEALTH, INC.",
    "contactEmail": null,
    "categoryName": "HOME HEALTH AGENCY",
    "categoryCode": "HHA",
    "licenseStatus": "ACTIVE",
    "inService": true,
    "licenseNumber": "550009911",
    "licenseEffectiveDate": "08/06/2025",
    "licenseExpirationDate": "02/05/2026",
    "dataDate": "10/18/2025",
    "capacity": 0,
    "address": "1443 N HIGHLAND AVE, SUITE A",
    "city": "LOS ANGELES",
    "zip": "90028",
    "county": "LOS ANGELES",
    "phone": null,
    "lat": 34.09722501,
    "lng": -118.338877
  },
  {
    "id": "960001728",
    "name": "JEFFREY GOODMAN SPECIAL CARE CLINIC",
    "npi": "1548298532",
    "hcaiId": "306194433",
    "businessName": "LOS ANGELES LGBT CENTER",
    "contactEmail": "CFLORES@LALGBTCENTER.ORG",
    "categoryName": "PRIMARY CARE CLINIC",
    "categoryCode": "COMTYC",
    "licenseStatus": "ACTIVE",
    "inService": true,
    "licenseNumber": "960000834",
    "licenseEffectiveDate": "06/23/2025",
    "licenseExpirationDate": "06/22/2026",
    "dataDate": "10/18/2025",
    "capacity": 0,
    "address": "1625 SCHRADER BLVD",
    "city": "LOS ANGELES",
    "zip": "90028",
    "county": "LOS ANGELES",
    "phone": "(323) 993-7597",
    "lat": 34.10046,
    "lng": -118.332585
  },
  {
    "id": "630018567",
    "name": "LA HOSPICE SERVICES, INC.",
    "npi": "1679045892",
    "hcaiId": "406192145",
    "businessName": "LA HOSPICE SERVICES, INC.",
    "contactEmail": "LAHOSPICESERVICES@YAHOO.COM",
    "categoryName": "HOSPICE",
    "categoryCode": "HOSPICE",
    "licenseStatus": "ACTIVE",
    "inService": true,
    "licenseNumber": "550004857",
    "licenseEffectiveDate": "08/16/2025",
    "licenseExpirationDate": "08/15/2027",
    "dataDate": "10/18/2025",
    "capacity": 0,
    "address": "6464 W SUNSET BLVD, SUITE 945",
    "city": "LOS ANGELES",
    "zip": "90028",
    "county": "LOS ANGELES",
    "phone": "(323) 498-0002",
    "lat": 34.09761598,
    "lng": -118.331312
  },
  {
    "id": "630026659",
    "name": "ONYX HOME HEALTH CARE INC",
    "npi": null,
    "hcaiId": null,
    "businessName": "ONYX HOME HEALTH CARE INC",
    "contactEmail": "ONYXHOMEHEALTHCARE@YAHOO.COM",
    "categoryName": "HOME HEALTH AGENCY",
    "categoryCode": "HHA",
    "licenseStatus": "ACTIVE",
    "inService": true,
    "licenseNumber": "550009111",
    "licenseEffectiveDate": "04/24/2025",
    "licenseExpirationDate": "04/23/2026",
    "dataDate": "10/18/2025",
    "capacity": 0,
    "address": "1607 N EL CENTRO AVE, SUITE 11",
    "city": "LOS ANGELES",
    "zip": "90028",
    "county": "LOS ANGELES",
    "phone": "(213) 723-0902",
    "lat": 34.100055,
    "lng": -118.3238685
  },
  {
    "id": "630018483",
    "name": "PERFECT CARE HOSPICE, INC.",
    "npi": null,
    "hcaiId": "406193004",
    "businessName": "PERFECT CARE HOSPICE, INC.",
    "contactEmail": "PERFECTCAREHOSPICE@GMAIL.COM",
    "categoryName": "HOSPICE",
    "categoryCode": "HOSPICE",
    "licenseStatus": "ACTIVE",
    "inService": true,
    "licenseNumber": "550005896",
    "licenseEffectiveDate": "09/18/2024",
    "licenseExpirationDate": "09/17/2026",
    "dataDate": "10/18/2025",
    "capacity": 0,
    "address": "6464 W SUNSET BLVD, SUITE 870",
    "city": "LOS ANGELES",
    "zip": "90028",
    "county": "LOS ANGELES",
    "phone": "(818) 853-9409",
    "lat": 34.09761598,
    "lng": -118.331312
  },
  {
    "id": "630025325",
    "name": "PRIMUS HOME HEALTH CARE, INC.",
    "npi": null,
    "hcaiId": "406190296",
    "businessName": "PRIMUS HOME HEALTH CARE, INC.",
    "contactEmail": "PRIMUSHOMEHEALTHCARE@GMAIL.COM",
    "categoryName": "HOME HEALTH AGENCY",
    "categoryCode": "HHA",
    "licenseStatus": "ACTIVE",
    "inService": true,
    "licenseNumber": "550008425",
    "licenseEffectiveDate": "03/06/2025",
    "licenseExpirationDate": "03/05/2026",
    "dataDate": "10/18/2025",
    "capacity": 0,
    "address": "1607 N EL CENTRO AVE, SUITE 19",
    "city": "LOS ANGELES",
    "zip": "90028",
    "county": "LOS ANGELES",
    "phone": "(747) 737-3271",
    "lat": 34.100055,
    "lng": -118.3238685
  },
  {
    "id": "630026285",
    "name": "SABAN COMMUNITY CLINIC - MOBILE CLINIC",
    "npi": null,
    "hcaiId": null,
    "businessName": "LOS ANGELES FREE CLINIC INC.",
    "contactEmail": null,
    "categoryName": "PRIMARY CARE CLINIC",
    "categoryCode": "COMTYC",
    "licenseStatus": "ACTIVE",
    "inService": true,
    "licenseNumber": "960000578",
    "licenseEffectiveDate": "03/26/2025",
    "licenseExpirationDate": "03/25/2026",
    "dataDate": "10/18/2025",
    "capacity": 0,
    "address": "6043 HOLLYWOOD BLVD",
    "city": "LOS ANGELES",
    "zip": "90028",
    "county": "LOS ANGELES",
    "phone": null,
    "lat": 34.101819,
    "lng": -118.3214745
  },
  {
    "id": "630019625",
    "name": "SABAN COMMUNITY CLINIC - THE CENTER AT BLESSED SACRAMENT",
    "npi": null,
    "hcaiId": null,
    "businessName": "LOS ANGELES FREE CLINIC",
    "contactEmail": null,
    "categoryName": "PRIMARY CARE CLINIC",
    "categoryCode": "COMTYC",
    "licenseStatus": "ACTIVE",
    "inService": true,
    "licenseNumber": "960000818",
    "licenseEffectiveDate": "11/05/2024",
    "licenseExpirationDate": "11/04/2025",
    "dataDate": "10/18/2025",
    "capacity": 0,
    "address": "6636 SELMA AVE",
    "city": "LOS ANGELES",
    "zip": "90028",
    "county": "LOS ANGELES",
    "phone": null,
    "lat": 34.099416,
    "lng": -118.3344705
  },
  {
    "id": "630026497",
    "name": "SALUS HOME HEALTH CARE, INC.",
    "npi": null,
    "hcaiId": null,
    "businessName": "SALUS HOME HEALTH CARE, INC.",
    "contactEmail": "SALUSHOMEHEALTHCARE@GMAIL.COM",
    "categoryName": "HOME HEALTH AGENCY",
    "categoryCode": "HHA",
    "licenseStatus": "ACTIVE",
    "inService": true,
    "licenseNumber": "550009498",
    "licenseEffectiveDate": "04/16/2025",
    "licenseExpirationDate": "10/15/2025",
    "dataDate": "10/18/2025",
    "capacity": 0,
    "address": "1607 N EL CENTRO AVE, SUITE 8",
    "city": "LOS ANGELES",
    "zip": "90028",
    "county": "LOS ANGELES",
    "phone": "(213) 737-5773",
    "lat": 34.100055,
    "lng": -118.3238685
  },
  {
    "id": "630018380",
    "name": "SIGNATURE HEALTHCARE, INC.",
    "npi": "1992272819",
    "hcaiId": "406191722",
    "businessName": "SIGNATURE HEALTHCARE, INC",
    "contactEmail": "SIGNATUREHCI@GMAIL.COM",
    "categoryName": "HOME HEALTH AGENCY",
    "categoryCode": "HHA",
    "licenseStatus": "ACTIVE",
    "inService": true,
    "licenseNumber": "550004736",
    "licenseEffectiveDate": "06/11/2025",
    "licenseExpirationDate": "06/10/2026",
    "dataDate": "10/18/2025",
    "capacity": 0,
    "address": "1770 N HIGHLAND AVE, SUITE G",
    "city": "LOS ANGELES",
    "zip": "90028",
    "county": "LOS ANGELES",
    "phone": "(424) 352-2926",
    "lat": 34.103394,
    "lng": -118.338318
  },
  {
    "id": "060002037",
    "name": "SILVER WISDOM ADULT DAY HEALTH CARE CENTER",
    "npi": null,
    "hcaiId": null,
    "businessName": "SILVER WISDOM ADULT DAY HEALTHCARE CENTER, INC.",
    "contactEmail": "SILVERWISDOMADHC@YAHOO.COM",
    "categoryName": "ADULT DAY HEALTH CARE",
    "categoryCode": "ADHC",
    "licenseStatus": "ACTIVE",
    "inService": true,
    "licenseNumber": "060000816",
    "licenseEffectiveDate": "11/06/2024",
    "licenseExpirationDate": "11/05/2025",
    "dataDate": "10/18/2025",
    "capacity": 0,
    "address": "1714 IVAR AVE, SUITE A",
    "city": "LOS ANGELES",
    "zip": "90028",
    "county": "LOS ANGELES",
    "phone": "(323) 464-9161",
    "lat": 34.102404,
    "lng": -118.3278015
  },
  {
    "id": "930000064",
    "name": "SOUTHERN CALIFORNIA HOSPITAL AT HOLLYWOOD",
    "npi": "1245224732",
    "hcaiId": "106190380",
    "businessName": "SOUTHERN CALIFORNIA HEALTHCARE SYSTEM, INC.",
    "contactEmail": "NUNEZ.MARJORIE@SCHOSPITALS.COM",
    "categoryName": "GENERAL ACUTE CARE HOSPITAL",
    "categoryCode": "GACH",
    "licenseStatus": "ACTIVE",
    "inService": true,
    "licenseNumber": "930000066",
    "licenseEffectiveDate": "02/25/2025",
    "licenseExpirationDate": "02/24/2026",
    "dataDate": "10/18/2025",
    "capacity": 100,
    "address": "6245 DE LONGPRE AVE",
    "city": "LOS ANGELES",
    "zip": "90028",
    "county": "LOS ANGELES",
    "phone": "(323) 462-2271",
    "lat": 34.096311,
    "lng": -118.325079
  },
  {
    "id": "960002645",
    "name": "ST. ANTHONY MEDICAL CENTERS - HOLLYWOOD CLINIC",
    "npi": null,
    "hcaiId": "306196159",
    "businessName": "ST. ANTHONY MEDICAL CENTERS",
    "contactEmail": "GFAHMY@STAMC.ORG",
    "categoryName": "PRIMARY CARE CLINIC",
    "categoryCode": "COMTYC",
    "licenseStatus": "ACTIVE",
    "inService": true,
    "licenseNumber": "550007255",
    "licenseEffectiveDate": "11/17/2024",
    "licenseExpirationDate": "11/16/2025",
    "dataDate": "10/18/2025",
    "capacity": 0,
    "address": "6368 HOLLYWOOD BLVD",
    "city": "LOS ANGELES",
    "zip": "90028",
    "county": "LOS ANGELES",
    "phone": "(323) 469-5555",
    "lat": 34.101441,
    "lng": -118.328949
  },
  {
    "id": "630027044",
    "name": "STELLAR HOME HEALTH SERVICES INC",
    "npi": null,
    "hcaiId": null,
    "businessName": "STELLAR HOME HEALTH SERVICES INC",
    "contactEmail": "STELLARHOMEHEALTHSERVICES@GMAIL.COM",
    "categoryName": "HOME HEALTH AGENCY",
    "categoryCode": "HHA",
    "licenseStatus": "ACTIVE",
    "inService": true,
    "licenseNumber": "550009466",
    "licenseEffectiveDate": "04/25/2025",
    "licenseExpirationDate": "10/24/2025",
    "dataDate": "10/18/2025",
    "capacity": 0,
    "address": "6715 HOLLYWOOD BLVD, SUITE 218",
    "city": "LOS ANGELES",
    "zip": "90028",
    "county": "LOS ANGELES",
    "phone": "(747) 222-2221",
    "lat": 34.10172,
    "lng": -118.336554
  },
  {
    "id": "060001804",
    "name": "SUNRISE ADULT DAY HEALTH CARE",
    "npi": null,
    "hcaiId": null,
    "businessName": "SUNRISE WESTSIDE ADULT DAY HEALTH CARE, INC.",
    "contactEmail": "SUNRISEADHC@YAHOO.COM",
    "categoryName": "ADULT DAY HEALTH CARE",
    "categoryCode": "ADHC",
    "licenseStatus": "ACTIVE",
    "inService": true,
    "licenseNumber": "060000621",
    "licenseEffectiveDate": "02/17/2025",
    "licenseExpirationDate": "02/16/2026",
    "dataDate": "10/18/2025",
    "capacity": 0,
    "address": "7014 W SUNSET BLVD",
    "city": "LOS ANGELES",
    "zip": "90028",
    "county": "LOS ANGELES",
    "phone": "(323) 463-0500",
    "lat": 34.097805,
    "lng": -118.342197
  },
  {
    "id": "960001555",
    "name": "THE SABAN COMMUNITY CLINIC-HOLLYWOOD HEALTH CENTER",
    "npi": null,
    "hcaiId": "306194414",
    "businessName": "LOS ANGELES FREE CLINIC",
    "contactEmail": "MNOUWEZEM@SABANCOMMUNITYCLINIC.ORG",
    "categoryName": "PRIMARY CARE CLINIC",
    "categoryCode": "COMTYC",
    "licenseStatus": "ACTIVE",
    "inService": true,
    "licenseNumber": "960000818",
    "licenseEffectiveDate": "11/05/2024",
    "licenseExpirationDate": "11/04/2025",
    "dataDate": "10/18/2025",
    "capacity": 0,
    "address": "6043 HOLLYWOOD BLVD",
    "city": "LOS ANGELES",
    "zip": "90028",
    "county": "LOS ANGELES",
    "phone": "(323) 653-1990",
    "lat": 34.101819,
    "lng": -118.3214745
  },
  {
    "id": "630022267",
    "name": "TRIANGLE SQUARE, FIRST FLOOR MENTAL HEALTH OFFICE",
    "npi": "1548298532",
    "hcaiId": null,
    "businessName": "LOS ANGELES LGBT CENTER",
    "contactEmail": null,
    "categoryName": "PRIMARY CARE CLINIC",
    "categoryCode": "COMTYC",
    "licenseStatus": "ACTIVE",
    "inService": true,
    "licenseNumber": "960000834",
    "licenseEffectiveDate": "06/23/2025",
    "licenseExpirationDate": "06/22/2026",
    "dataDate": "10/18/2025",
    "capacity": 0,
    "address": "1602 IVAR AVE",
    "city": "LOS ANGELES",
    "zip": "90028",
    "county": "LOS ANGELES",
    "phone": "(323) 993-8962",
    "lat": 34.100001,
    "lng": -118.3279905
  },
  {
    "id": "630025275",
    "name": "ULTIMATE CARE HEALTH CARE",
    "npi": null,
    "hcaiId": "406196519",
    "businessName": "ULTIMATE CARE HEALTH CARE",
    "contactEmail": "ULTIMATECAREHC@GMAIL.COM",
    "categoryName": "HOME HEALTH AGENCY",
    "categoryCode": "HHA",
    "licenseStatus": "ACTIVE",
    "inService": true,
    "licenseNumber": "550008437",
    "licenseEffectiveDate": "03/14/2025",
    "licenseExpirationDate": "03/13/2026",
    "dataDate": "10/18/2025",
    "capacity": 0,
    "address": "1770 N HIGHLAND AVE, SUITE J",
    "city": "LOS ANGELES",
    "zip": "90028",
    "county": "LOS ANGELES",
    "phone": "(310) 957-9514",
    "lat": 34.103394,
    "lng": -118.338318
  }
]