[
  {
    "id": "630027848",
    "name": "ALTAMED BEHAVIORAL HEALTH AT ANIMO ELLEN OCHOA CHARTER MIDDLE SCHOOL",
    "npi": null,
    "hcaiId": null,
    "businessName": "ALTAMED HEALTH SERVICES CORPORATION",
    "contactEmail": null,
    "categoryName": "PRIMARY CARE CLINIC",
    "categoryCode": "COMTYC",
    "licenseStatus": "ACTIVE",
    "inService": true,
    "licenseNumber": "960001429",
    "licenseEffectiveDate": "02/17/2025",
    "licenseExpirationDate": "02/16/2026",
    "dataDate": "10/18/2025",
    "capacity": 0,
    "address": "4360 DOZIER ST",
    "city": "LOS ANGELES",
    "zip": "90022",
    "county": "LOS ANGELES",
    "phone": null,
    "lat": 34.041109,
    "lng": -118.171764
  },
  {
    "id": "630017564",
    "name": "ALTAMED MEDICAL AND DENTAL GROUP-COMMERCE,GOODRICH",
    "npi": "1770006728",
    "hcaiId": null,
    "businessName": "ALTAMED HEALTH SERVICES CORPORATION",
    "contactEmail": null,
    "categoryName": "PRIMARY CARE CLINIC",
    "categoryCode": "COMTYC",
    "licenseStatus": "ACTIVE",
    "inService": true,
    "licenseNumber": "960000102",
    "licenseEffectiveDate": "11/15/2025",
    "licenseExpirationDate": "11/14/2026",
    "dataDate": "10/18/2025",
    "capacity": 0,
    "address": "972 GOODRICH BLVD",
    "city": "COMMERCE",
    "zip": "90022",
    "county": "LOS ANGELES",
    "phone": "(323) 725-8751",
    "lat": 34.01798898,
    "lng": -118.154508
  },
  {
    "id": "630017941",
    "name": "ALTAMED MEDICAL GROUP-COMMERCE",
    "npi": null,
    "hcaiId": null,
    "businessName": null,
    "contactEmail": null,
    "categoryName": "PRIMARY CARE CLINIC",
    "categoryCode": "COMTYC",
    "licenseStatus": null,
    "inService": null,
    "licenseNumber": null,
    "licenseEffectiveDate": null,
    "licenseExpirationDate": null,
    "dataDate": "10/18/2025",
    "capacity": 0,
    "address": "5427 WHITTIER BLVD",
    "city": "LOS ANGELES",
    "zip": "90022",
    "county": "LOS ANGELES",
    "phone": null,
    "lat": 34.019829,
    "lng": -118.1533815
  },
  {
    "id": "960000180",
    "name": "ALTAMED MEDICAL GROUP-E.L.A./WHITTIER",
    "npi": null,
    "hcaiId": "306190446",
    "businessName": "ALTAMED HEALTH SERVICES CORPORATION",
    "contactEmail": "SGANDARA@ALTAMED.ORG",
    "categoryName": "PRIMARY CARE CLINIC",
    "categoryCode": "COMTYC",
    "licenseStatus": "ACTIVE",
    "inService": true,
    "licenseNumber": "960000102",
    "licenseEffectiveDate": "11/15/2025",
    "licenseExpirationDate": "11/14/2026",
    "dataDate": "10/18/2025",
    "capacity": 0,
    "address": "5427 WHITTIER BLVD",
    "city": "LOS ANGELES",
    "zip": "90022",
    "county": "LOS ANGELES",
    "phone": "(323) 869-1900",
    "lat": 34.019829,
    "lng": -118.1533815
  },
  {
    "id": "960002349",
    "name": "ALTAMED MOBIL MEDICAL CLINIC",
    "npi": null,
    "hcaiId": "306196034",
    "businessName": "ALTAMED HEALTH SERVICES CORPORATION",
    "contactEmail": "RALCALA@ALTAMED.ORG",
    "categoryName": "PRIMARY CARE CLINIC",
    "categoryCode": "COMTYC",
    "licenseStatus": "ACTIVE",
    "inService": true,
    "licenseNumber": "960001088",
    "licenseEffectiveDate": "11/03/2025",
    "licenseExpirationDate": "11/02/2026",
    "dataDate": "10/18/2025",
    "capacity": 0,
    "address": "5427 WHITTIER BLVD",
    "city": "LOS ANGELES",
    "zip": "90022",
    "county": "LOS ANGELES",
    "phone": "(323) 869-1900",
    "lat": 34.019829,
    "lng": -118.1533815
  },
  {
    "id": "630026141",
    "name": "ANGELENO COMMUNITY HOME HEALTH INC.",
    "npi": null,
    "hcaiId": null,
    "businessName": "ANGELENO COMMUNITY HOME HEALTH INC.",
    "contactEmail": "ANGELENOCOMMUNITYHOMEHEALTH@GMAIL.COM",
    "categoryName": "HOME HEALTH AGENCY",
    "categoryCode": "HHA",
    "licenseStatus": "ACTIVE",
    "inService": true,
    "licenseNumber": "550009956",
    "licenseEffectiveDate": "08/28/2025",
    "licenseExpirationDate": "02/27/2026",
    "dataDate": "10/18/2025",
    "capacity": 0,
    "address": "5245 E BEVERLY BLVD",
    "city": "LOS ANGELES",
    "zip": "90022",
    "county": "LOS ANGELES",
    "phone": "(626) 641-2911",
    "lat": 34.03155401,
    "lng": -118.152195
  },
  {
    "id": "630019129",
    "name": "BHS - NUESTRA HEALTH CENTER",
    "npi": "1548659105",
    "hcaiId": null,
    "businessName": "BEHAVIORAL HEALTH SERVICES, INC.",
    "contactEmail": "MVENABLE@BHS-INC.ORG",
    "categoryName": "PRIMARY CARE CLINIC",
    "categoryCode": "COMTYC",
    "licenseStatus": "ACTIVE",
    "inService": true,
    "licenseNumber": "550003493",
    "licenseEffectiveDate": "04/11/2025",
    "licenseExpirationDate": "04/10/2026",
    "dataDate": "10/18/2025",
    "capacity": 0,
    "address": "4511 WHITTIER BLVD",
    "city": "LOS ANGELES",
    "zip": "90022",
    "county": "LOS ANGELES",
    "phone": "(310) 679-9126",
    "lat": 34.02340701,
    "lng": -118.170543
  },
  {
    "id": "630019384",
    "name": "CLINICA BIENESTAR",
    "npi": null,
    "hcaiId": "306190800",
    "businessName": "BIENESTAR HUMAN SERVICES INC.",
    "contactEmail": "RCONTRERAS@BIENESTAR.ORG",
    "categoryName": "PRIMARY CARE CLINIC",
    "categoryCode": "COMTYC",
    "licenseStatus": "ACTIVE",
    "inService": true,
    "licenseNumber": "550008250",
    "licenseEffectiveDate": "12/02/2024",
    "licenseExpirationDate": "12/01/2025",
    "dataDate": "10/18/2025",
    "capacity": 0,
    "address": "5326 E BEVERLY BLVD",
    "city": "LOS ANGELES",
    "zip": "90022",
    "county": "LOS ANGELES",
    "phone": "(323) 387-2405",
    "lat": 34.030125,
    "lng": -118.1505915
  },
  {
    "id": "960002229",
    "name": "COMMUNITY HEALTH CARE CLINIC/N.P.P.",
    "npi": null,
    "hcaiId": "306195099",
    "businessName": "NARCOTICS PREVENTION ASSOCIATION, INC.",
    "contactEmail": "LUIS@NPPCLINIC.ORG",
    "categoryName": "PRIMARY CARE CLINIC",
    "categoryCode": "COMTYC",
    "licenseStatus": "ACTIVE",
    "inService": true,
    "licenseNumber": "960001064",
    "licenseEffectiveDate": "06/18/2025",
    "licenseExpirationDate": "06/17/2026",
    "dataDate": "10/18/2025",
    "capacity": 0,
    "address": "942 S ATLANTIC BLVD",
    "city": "LOS ANGELES",
    "zip": "90022",
    "county": "LOS ANGELES",
    "phone": "(323) 263-9700",
    "lat": 34.019172,
    "lng": -118.157382
  },
  {
    "id": "630019651",
    "name": "COMPLETE  CARE COMMUNITY HEALTH CENTER - MONTEREY PARK",
    "npi": "1215113964",
    "hcaiId": null,
    "businessName": "COMPLETE CARE COMMUNITY HEALTH CENTER, INC.",
    "contactEmail": null,
    "categoryName": "PRIMARY CARE CLINIC",
    "categoryCode": "COMTYC",
    "licenseStatus": "ACTIVE",
    "inService": true,
    "licenseNumber": "550000639",
    "licenseEffectiveDate": "12/10/2024",
    "licenseExpirationDate": "12/09/2025",
    "dataDate": "10/18/2025",
    "capacity": 0,
    "address": "941 S ATLANTIC BLVD, SUITE 101",
    "city": "LOS ANGELES",
    "zip": "90022",
    "county": "LOS ANGELES",
    "phone": null,
    "lat": 34.019199,
    "lng": -118.1579265
  },
  {
    "id": "630019652",
    "name": "COMPLETE CARE COMMUNITY HEALTH CENTER - MONTEREY PARK",
    "npi": "1215113964",
    "hcaiId": null,
    "businessName": "COMPLETE CARE COMMUNITY HEALTH CENTER, INC.",
    "contactEmail": null,
    "categoryName": "PRIMARY CARE CLINIC",
    "categoryCode": "COMTYC",
    "licenseStatus": "ACTIVE",
    "inService": true,
    "licenseNumber": "550000639",
    "licenseEffectiveDate": "12/10/2024",
    "licenseExpirationDate": "12/09/2025",
    "dataDate": "10/18/2025",
    "capacity": 0,
    "address": "941 S ATLANTIC BLVD, SUITE 218",
    "city": "LOS ANGELES",
    "zip": "90022",
    "county": "LOS ANGELES",
    "phone": null,
    "lat": 34.019199,
    "lng": -118.1579265
  },
  {
    "id": "930001831",
    "name": "DOCTORS DIALYSIS OF EAST LOS ANGELES",
    "npi": "1083853667",
    "hcaiId": "306196565",
    "businessName": "ANIMAS DIALYSIS, LLC",
    "contactEmail": "CAL_C@DAVITA.COM",
    "categoryName": "CHRONIC DIALYSIS CLINIC",
    "categoryCode": "ESRD/CDC",
    "licenseStatus": "ACTIVE",
    "inService": true,
    "licenseNumber": "930001009",
    "licenseEffectiveDate": "01/01/2025",
    "licenseExpirationDate": "12/31/2025",
    "dataDate": "10/18/2025",
    "capacity": 32,
    "address": "950 S EASTERN AVE",
    "city": "LOS ANGELES",
    "zip": "90022",
    "county": "LOS ANGELES",
    "phone": "(323) 262-2229",
    "lat": 34.022592,
    "lng": -118.1737035
  },
  {
    "id": "630005081",
    "name": "EAST L. A. DIALYSIS CENTER",
    "npi": "1528105293",
    "hcaiId": "306196891",
    "businessName": "EAST L. A. DIALYSIS CENTER",
    "contactEmail": "FOVID13@YAHOO.COM",
    "categoryName": "CHRONIC DIALYSIS CLINIC",
    "categoryCode": "ESRD/CDC",
    "licenseStatus": "ACTIVE",
    "inService": true,
    "licenseNumber": "550000362",
    "licenseEffectiveDate": "01/05/2025",
    "licenseExpirationDate": "01/04/2026",
    "dataDate": "10/18/2025",
    "capacity": 41,
    "address": "5830 WHITTIER BLVD",
    "city": "LOS ANGELES",
    "zip": "90022",
    "county": "LOS ANGELES",
    "phone": "(323) 887-8545",
    "lat": 34.01766,
    "lng": -118.1452095
  },
  {
    "id": "630002821",
    "name": "FRESENIUS MEDICAL CARE OF EAST LOS ANGELES",
    "npi": "1821022179",
    "hcaiId": "306196890",
    "businessName": "BIO-MEDICAL APPLICATIONS OF CALIFORNIA, INC.",
    "contactEmail": "CLINIC3820@FMC-NA.COM",
    "categoryName": "CHRONIC DIALYSIS CLINIC",
    "categoryCode": "ESRD/CDC",
    "licenseStatus": "ACTIVE",
    "inService": true,
    "licenseNumber": "550000312",
    "licenseEffectiveDate": "11/13/2025",
    "licenseExpirationDate": "11/12/2026",
    "dataDate": "10/18/2025",
    "capacity": 33,
    "address": "5220 TELFORD ST",
    "city": "LOS ANGELES",
    "zip": "90022",
    "county": "LOS ANGELES",
    "phone": "(323) 269-2091",
    "lat": 34.034472,
    "lng": -118.152423
  },
  {
    "id": "630011916",
    "name": "GRACELIGHT COMMUNITY HEALTH",
    "npi": "1104075282",
    "hcaiId": "306197997",
    "businessName": "GRACELIGHT COMMUNITY HEALTH",
    "contactEmail": "MARINA.SNITMAN@GRACELIGHT.ORG",
    "categoryName": "PRIMARY CARE CLINIC",
    "categoryCode": "COMTYC",
    "licenseStatus": "ACTIVE",
    "inService": true,
    "licenseNumber": "550000960",
    "licenseEffectiveDate": "04/01/2025",
    "licenseExpirationDate": "03/31/2026",
    "dataDate": "10/18/2025",
    "capacity": 0,
    "address": "4816 E 3RD ST",
    "city": "LOS ANGELES",
    "zip": "90022",
    "county": "LOS ANGELES",
    "phone": "(323) 635-1153",
    "lat": 34.03302453,
    "lng": -118.1603709
  },
  {
    "id": "630011638",
    "name": "PLANNED PARENTHOOD, EAST LOS ANGELES CENTER",
    "npi": null,
    "hcaiId": "306197107",
    "businessName": "PLANNED PARENTHOOD LOS ANGELES",
    "contactEmail": "BRENDA.GUERRERO@PP-LA.ORG",
    "categoryName": "PRIMARY CARE CLINIC",
    "categoryCode": "COMTYC",
    "licenseStatus": "ACTIVE",
    "inService": true,
    "licenseNumber": "550000717",
    "licenseEffectiveDate": "03/28/2025",
    "licenseExpirationDate": "03/27/2026",
    "dataDate": "10/18/2025",
    "capacity": 0,
    "address": "5068 WHITTIER BLVD",
    "city": "LOS ANGELES",
    "zip": "90022",
    "county": "LOS ANGELES",
    "phone": "(213) 284-3200",
    "lat": 34.02100313,
    "lng": -118.1603507
  },
  {
    "id": "930000852",
    "name": "RAI - EAST OLYMPIC - LOS ANGELES",
    "npi": "1982777686",
    "hcaiId": "306194091",
    "businessName": "RAI CARE CENTERS OF SOUTHERN CALIFORNIA I, LLC",
    "contactEmail": "LOLA.YNIIGUEZ@FRESENIUSMEDICALCARE.COM",
    "categoryName": "CHRONIC DIALYSIS CLINIC",
    "categoryCode": "ESRD/CDC",
    "licenseStatus": "ACTIVE",
    "inService": true,
    "licenseNumber": "930000439",
    "licenseEffectiveDate": "11/01/2025",
    "licenseExpirationDate": "10/31/2026",
    "dataDate": "10/18/2025",
    "capacity": 27,
    "address": "5714 E OLYMPIC BLVD",
    "city": "COMMERCE",
    "zip": "90022",
    "county": "LOS ANGELES",
    "phone": "(323) 887-0841",
    "lat": 34.01394313,
    "lng": -118.1476685
  },
  {
    "id": "630014640",
    "name": "RED HEART'S HOSPICE INC",
    "npi": "1912347956",
    "hcaiId": "406198459",
    "businessName": "RED HEART'S HOSPICE INC",
    "contactEmail": "REDHEARTSHOSPICE@YAHOO.COM",
    "categoryName": "HOSPICE",
    "categoryCode": "HOSPICE",
    "licenseStatus": "ACTIVE",
    "inService": true,
    "licenseNumber": "550003052",
    "licenseEffectiveDate": "04/03/2025",
    "licenseExpirationDate": "04/02/2027",
    "dataDate": "10/18/2025",
    "capacity": 0,
    "address": "236 S ATLANTIC BLVD, SUITE 130",
    "city": "LOS ANGELES",
    "zip": "90022",
    "county": "LOS ANGELES",
    "phone": "(323) 430-4061",
    "lat": 34.03386,
    "lng": -118.1516445
  },
  {
    "id": "630022751",
    "name": "UNIVERSAL COMMUNITY HEALTH CENTER",
    "npi": null,
    "hcaiId": null,
    "businessName": "UNIVERSAL COMMUNITY HEALTH CENTER",
    "contactEmail": "AREYNOSO@UCHCLA.ORG",
    "categoryName": "PRIMARY CARE CLINIC",
    "categoryCode": "COMTYC",
    "licenseStatus": "ACTIVE",
    "inService": true,
    "licenseNumber": "550001520",
    "licenseEffectiveDate": "03/30/2025",
    "licenseExpirationDate": "03/29/2026",
    "dataDate": "10/18/2025",
    "capacity": 0,
    "address": "4527 E CESAR E CHAVEZ AVE",
    "city": "LOS ANGELES",
    "zip": "90022",
    "county": "LOS ANGELES",
    "phone": "(323) 233-3100",
    "lat": 34.040736,
    "lng": -118.168299
  },
  {
    "id": "630017038",
    "name": "VIA CARE 607",
    "npi": null,
    "hcaiId": "306198494",
    "businessName": "VIA CARE COMMUNITY HEALTH CENTER, INC.",
    "contactEmail": "FTENORIO@VIACARELA.ORG",
    "categoryName": "PRIMARY CARE CLINIC",
    "categoryCode": "COMTYC",
    "licenseStatus": "ACTIVE",
    "inService": true,
    "licenseNumber": "550003985",
    "licenseEffectiveDate": "10/16/2024",
    "licenseExpirationDate": "10/15/2025",
    "dataDate": "10/18/2025",
    "capacity": 0,
    "address": "607 S. ATLANTIC BLVD.",
    "city": "LOS ANGELES",
    "zip": "90022",
    "county": "LOS ANGELES",
    "phone": "(323) 268-9191",
    "lat": 34.0247774,
    "lng": -118.1560251
  },
  {
    "id": "630019280",
    "name": "VIA CARE COMMUNITY HEALTH CENTER",
    "npi": "1497001226",
    "hcaiId": null,
    "businessName": "VIA CARE COMMUNITY HEALTH CENTER, INC.",
    "contactEmail": null,
    "categoryName": "PRIMARY CARE CLINIC",
    "categoryCode": "COMTYC",
    "licenseStatus": "ACTIVE",
    "inService": true,
    "licenseNumber": "960001182",
    "licenseEffectiveDate": "11/15/2025",
    "licenseExpirationDate": "11/14/2026",
    "dataDate": "10/18/2025",
    "capacity": 0,
    "address": "5015 WHITTIER BLVD",
    "city": "LOS ANGELES",
    "zip": "90022",
    "county": "LOS ANGELES",
    "phone": null,
    "lat": 34.021467,
    "lng": -118.1612565
  },
  {
    "id": "630019281",
    "name": "VIA CARE COMMUNITY HEALTH CENTER",
    "npi": "1497001226",
    "hcaiId": null,
    "businessName": "VIA CARE COMMUNITY HEALTH CENTER, INC.",
    "contactEmail": null,
    "categoryName": "PRIMARY CARE CLINIC",
    "categoryCode": "COMTYC",
    "licenseStatus": "ACTIVE",
    "inService": true,
    "licenseNumber": "960001182",
    "licenseEffectiveDate": "11/15/2025",
    "licenseExpirationDate": "11/14/2026",
    "dataDate": "10/18/2025",
    "capacity": 0,
    "address": "280 S ATLANTIC BLVD",
    "city": "LOS ANGELES",
    "zip": "90022",
    "county": "LOS ANGELES",
    "phone": null,
    "lat": 34.0326442,
    "lng": -118.1531206
  },
  {
    "id": "630019291",
    "name": "VIA CARE COMMUNITY HEALTH CENTER",
    "npi": null,
    "hcaiId": null,
    "businessName": "VIA CARE COMMUNITY HEALTH CENTER, INC.",
    "contactEmail": null,
    "categoryName": "PRIMARY CARE CLINIC",
    "categoryCode": "COMTYC",
    "licenseStatus": "ACTIVE",
    "inService": true,
    "licenseNumber": "550003985",
    "licenseEffectiveDate": "10/16/2024",
    "licenseExpirationDate": "10/15/2025",
    "dataDate": "10/18/2025",
    "capacity": 0,
    "address": "501 S WOODS AVE",
    "city": "LOS ANGELES",
    "zip": "90022",
    "county": "LOS ANGELES",
    "phone": null,
    "lat": 34.02735027,
    "lng": -118.1564106
  },
  {
    "id": "630019722",
    "name": "VIA CARE COMMUNITY HEALTH CENTER",
    "npi": "1497001226",
    "hcaiId": null,
    "businessName": "VIA CARE COMMUNITY HEALTH CENTER, INC.",
    "contactEmail": null,
    "categoryName": "PRIMARY CARE CLINIC",
    "categoryCode": "COMTYC",
    "licenseStatus": "ACTIVE",
    "inService": true,
    "licenseNumber": "960001182",
    "licenseEffectiveDate": "11/15/2025",
    "licenseExpirationDate": "11/14/2026",
    "dataDate": "10/18/2025",
    "capacity": 0,
    "address": "4755 E CESAR E CHAVEZ AVE",
    "city": "LOS ANGELES",
    "zip": "90022",
    "county": "LOS ANGELES",
    "phone": null,
    "lat": 34.040871,
    "lng": -118.162818
  },
  {
    "id": "630026569",
    "name": "VIA CARE COMMUNITY HEALTH CENTER",
    "npi": "1497001226",
    "hcaiId": null,
    "businessName": "VIA CARE COMMUNITY HEALTH CENTER, INC.",
    "contactEmail": null,
    "categoryName": "PRIMARY CARE CLINIC",
    "categoryCode": "COMTYC",
    "licenseStatus": "ACTIVE",
    "inService": true,
    "licenseNumber": "960001182",
    "licenseEffectiveDate": "11/15/2025",
    "licenseExpirationDate": "11/14/2026",
    "dataDate": "10/18/2025",
    "capacity": 0,
    "address": "5017 WHITTIER BLVD",
    "city": "LOS ANGELES",
    "zip": "90022",
    "county": "LOS ANGELES",
    "phone": null,
    "lat": 34.021458,
    "lng": -118.161207
  },
  {
    "id": "960002546",
    "name": "VIA CARE COMMUNITY HEALTH CENTER",
    "npi": "1497001226",
    "hcaiId": "306197068",
    "businessName": "VIA CARE COMMUNITY HEALTH CENTER, INC.",
    "contactEmail": "FTENORIO@VIACARELA.ORG",
    "categoryName": "PRIMARY CARE CLINIC",
    "categoryCode": "COMTYC",
    "licenseStatus": "ACTIVE",
    "inService": true,
    "licenseNumber": "960001182",
    "licenseEffectiveDate": "11/15/2025",
    "licenseExpirationDate": "11/14/2026",
    "dataDate": "10/18/2025",
    "capacity": 0,
    "address": "507 S ATLANTIC BLVD",
    "city": "LOS ANGELES",
    "zip": "90022",
    "county": "LOS ANGELES",
    "phone": "(323) 268-9191",
    "lat": 34.02681933,
    "lng": -118.1553987
  }
]