[
  {
    "id": "960002852",
    "name": "ALTAMED MEDICAL & DENTAL GROUP-E.L.A.BOYLE HEIGHTS",
    "npi": null,
    "hcaiId": "306196538",
    "businessName": "ALTAMED HEALTH SERVICES CORPORATION",
    "contactEmail": "LDELACRUZ@ALTAMED.ORG",
    "categoryName": "PRIMARY CARE CLINIC",
    "categoryCode": "COMTYC",
    "licenseStatus": "ACTIVE",
    "inService": true,
    "licenseNumber": "960001429",
    "licenseEffectiveDate": "02/17/2025",
    "licenseExpirationDate": "02/16/2026",
    "dataDate": "10/18/2025",
    "capacity": 0,
    "address": "3945 WHITTIER BLVD",
    "city": "LOS ANGELES",
    "zip": "90023",
    "county": "LOS ANGELES",
    "phone": "(323) 307-0434",
    "lat": 34.024113,
    "lng": -118.1877255
  },
  {
    "id": "630026732",
    "name": "CENTRO DE CUIDADO RENAL - ELA, LLC",
    "npi": null,
    "hcaiId": "306190806",
    "businessName": "CENTRO DE CUIDADO RENAL-ELA, LLC",
    "contactEmail": "MIKE@STATEWIDERE.NET",
    "categoryName": "CHRONIC DIALYSIS CLINIC",
    "categoryCode": "CDC",
    "licenseStatus": "ACTIVE",
    "inService": true,
    "licenseNumber": "550008446",
    "licenseEffectiveDate": "03/02/2025",
    "licenseExpirationDate": "03/01/2026",
    "dataDate": "10/18/2025",
    "capacity": 0,
    "address": "3575 WHITTIER BLVD",
    "city": "LOS ANGELES",
    "zip": "90023",
    "county": "LOS ANGELES",
    "phone": "(323) 400-6522",
    "lat": 34.025832,
    "lng": -118.196199
  },
  {
    "id": "940000020",
    "name": "COSTA DEL SOL HEALTHCARE",
    "npi": "1013641562",
    "hcaiId": "206190111",
    "businessName": "EAST LOS ANGELES HEALTHCARE, LLC",
    "contactEmail": "MATT.SISCO@COSTADELSOLHC.COM",
    "categoryName": "SKILLED NURSING FACILITY",
    "categoryCode": "SNF",
    "licenseStatus": "ACTIVE",
    "inService": true,
    "licenseNumber": "940000025",
    "licenseEffectiveDate": "02/23/2025",
    "licenseExpirationDate": "02/22/2026",
    "dataDate": "10/18/2025",
    "capacity": 99,
    "address": "1016 S RECORD AVE",
    "city": "LOS ANGELES",
    "zip": "90023",
    "county": "LOS ANGELES",
    "phone": "(323) 329-5732",
    "lat": 34.021818,
    "lng": -118.1823795
  },
  {
    "id": "930000053",
    "name": "EAST LOS ANGELES DOCTORS HOSPITAL",
    "npi": "1417957473",
    "hcaiId": "106190256",
    "businessName": "ELADH, L.P.",
    "contactEmail": "HHERNANDEZ3@PIPELINEHEALTH.US",
    "categoryName": "GENERAL ACUTE CARE HOSPITAL",
    "categoryCode": "GACH",
    "licenseStatus": "ACTIVE",
    "inService": true,
    "licenseNumber": "930000049",
    "licenseEffectiveDate": "11/01/2024",
    "licenseExpirationDate": "10/31/2025",
    "dataDate": "10/18/2025",
    "capacity": 102,
    "address": "4060 E WHITTIER BLVD",
    "city": "LOS ANGELES",
    "zip": "90023",
    "county": "LOS ANGELES",
    "phone": "(323) 260-4126",
    "lat": 34.023717,
    "lng": -118.18404
  },
  {
    "id": "930000685",
    "name": "EAST LOS ANGELES DOCTORS HOSPITAL D/P SNF",
    "npi": "1417957473",
    "hcaiId": null,
    "businessName": "ELADH, L.P.",
    "contactEmail": null,
    "categoryName": "SKILLED NURSING FACILITY",
    "categoryCode": "SNF",
    "licenseStatus": "ACTIVE",
    "inService": true,
    "licenseNumber": "930000049",
    "licenseEffectiveDate": "11/01/2024",
    "licenseExpirationDate": "10/31/2025",
    "dataDate": "10/18/2025",
    "capacity": 25,
    "address": "4060 WHITTIER BLVD",
    "city": "LOS ANGELES",
    "zip": "90023",
    "county": "LOS ANGELES",
    "phone": null,
    "lat": 34.023717,
    "lng": -118.18404
  },
  {
    "id": "630021713",
    "name": "FAMILY HEALTH CARE RESOURCES",
    "npi": null,
    "hcaiId": "306190782",
    "businessName": "FAMILY HEALTH CARE RESOURCES DBA CROSSMED COMMUNITY CLINICS",
    "contactEmail": "INFO@FHCRHELP.ORG",
    "categoryName": "PRIMARY CARE CLINIC",
    "categoryCode": "COMTYC",
    "licenseStatus": "ACTIVE",
    "inService": true,
    "licenseNumber": "550008117",
    "licenseEffectiveDate": "06/24/2025",
    "licenseExpirationDate": "06/23/2026",
    "dataDate": "10/18/2025",
    "capacity": 0,
    "address": "3444 WHITTIER BLVD, SUITE A",
    "city": "LOS ANGELES",
    "zip": "90023",
    "county": "LOS ANGELES",
    "phone": "(213) 413-3040",
    "lat": 34.027056,
    "lng": -118.1997
  },
  {
    "id": "630027942",
    "name": "GATEWAYS PERCY VILLAGE",
    "npi": null,
    "hcaiId": null,
    "businessName": "LOS ANGELES CHRISTIAN HEALTH CENTERS",
    "contactEmail": null,
    "categoryName": "PRIMARY CARE CLINIC",
    "categoryCode": "COMTYC",
    "licenseStatus": "ACTIVE",
    "inService": true,
    "licenseNumber": "550000820",
    "licenseEffectiveDate": "03/06/2025",
    "licenseExpirationDate": "03/05/2026",
    "dataDate": "10/18/2025",
    "capacity": 0,
    "address": "3455 PERCY ST",
    "city": "LOS ANGELES",
    "zip": "90023",
    "county": "LOS ANGELES",
    "phone": null,
    "lat": 34.02846599,
    "lng": -118.198644
  },
  {
    "id": "930000085",
    "name": "LOS ANGELES COMMUNITY HOSPITAL",
    "npi": "1922001809",
    "hcaiId": "106190198",
    "businessName": "ALTA LOS ANGELES HOSPITALS, INC.",
    "contactEmail": "DAVID.TOPPER@ALTAHOSPITALS.COM",
    "categoryName": "GENERAL ACUTE CARE HOSPITAL",
    "categoryCode": "GACH",
    "licenseStatus": "ACTIVE",
    "inService": true,
    "licenseNumber": "930000039",
    "licenseEffectiveDate": "03/15/2025",
    "licenseExpirationDate": "03/14/2026",
    "dataDate": "10/18/2025",
    "capacity": 91,
    "address": "4081 E OLYMPIC BLVD",
    "city": "LOS ANGELES",
    "zip": "90023",
    "county": "LOS ANGELES",
    "phone": "(323) 267-0477",
    "lat": 34.0191,
    "lng": -118.1863665
  },
  {
    "id": "930001558",
    "name": "LOS ANGELES COMMUNITY HOSPITAL D/P SNF",
    "npi": "1922001809",
    "hcaiId": null,
    "businessName": "ALTA LOS ANGELES HOSPITALS, INC.",
    "contactEmail": null,
    "categoryName": "SKILLED NURSING FACILITY",
    "categoryCode": "SNF",
    "licenseStatus": "ACTIVE",
    "inService": true,
    "licenseNumber": "930000039",
    "licenseEffectiveDate": "03/15/2025",
    "licenseExpirationDate": "03/14/2026",
    "dataDate": "10/18/2025",
    "capacity": 39,
    "address": "4081 E OLYMPIC BLVD",
    "city": "LOS ANGELES",
    "zip": "90023",
    "county": "LOS ANGELES",
    "phone": null,
    "lat": 34.0191,
    "lng": -118.1863665
  },
  {
    "id": "630027066",
    "name": "PRECISION HEALTH CENTER-WHITTIER",
    "npi": null,
    "hcaiId": null,
    "businessName": "PRECISION HEALTH CENTER",
    "contactEmail": null,
    "categoryName": "PRIMARY CARE CLINIC",
    "categoryCode": "COMTYC",
    "licenseStatus": "ACTIVE",
    "inService": true,
    "licenseNumber": "550008085",
    "licenseEffectiveDate": "07/13/2025",
    "licenseExpirationDate": "07/12/2026",
    "dataDate": "10/18/2025",
    "capacity": 0,
    "address": "3712 WHITTIER BLVD",
    "city": "LOS ANGELES",
    "zip": "90023",
    "county": "LOS ANGELES",
    "phone": null,
    "lat": 34.02423699,
    "lng": -118.193421
  },
  {
    "id": "630019116",
    "name": "UNIVERSAL ARTIFICIAL KIDNEY CENTER, LLC",
    "npi": null,
    "hcaiId": "306190549",
    "businessName": "UNIVERSAL ARTIFICIAL KIDNEY CENTER, LLC",
    "contactEmail": "RICHARDD@RELIANCE-CC.ORG",
    "categoryName": "CHRONIC DIALYSIS CLINIC",
    "categoryCode": "ESRD/CDC",
    "licenseStatus": "ACTIVE",
    "inService": true,
    "licenseNumber": "550005397",
    "licenseEffectiveDate": "04/02/2025",
    "licenseExpirationDate": "04/01/2026",
    "dataDate": "10/18/2025",
    "capacity": 16,
    "address": "4036 WHITTIER BLVD, SUITE 100",
    "city": "LOS ANGELES",
    "zip": "90023",
    "county": "LOS ANGELES",
    "phone": "(213) 279-1177",
    "lat": 34.023681,
    "lng": -118.184778
  }
]