[
  {
    "id": "630015997",
    "name": "GRAND GI & ENDOSCOPY GROUP, INC",
    "npi": "1871914291",
    "hcaiId": null,
    "businessName": null,
    "contactEmail": null,
    "categoryName": "SURGICAL CLINIC",
    "categoryCode": "ASC",
    "licenseStatus": null,
    "inService": null,
    "licenseNumber": null,
    "licenseEffectiveDate": null,
    "licenseExpirationDate": null,
    "dataDate": "10/18/2025",
    "capacity": 0,
    "address": "505 SOUTH VIRGIL AVENUE, SUITE 104",
    "city": "LOS ANGELES",
    "zip": "90020",
    "county": "LOS ANGELES",
    "phone": "(213) 381-3630",
    "lat": 34.064901,
    "lng": -118.2872385
  },
  {
    "id": "630012772",
    "name": "INTRA CARE HOSPICE, INC.",
    "npi": null,
    "hcaiId": "406197579",
    "businessName": "INTRA CARE HOSPICE, INC.",
    "contactEmail": "ICHOSPICE@INTRACAREINC.COM",
    "categoryName": "HOSPICE",
    "categoryCode": "HOSPICE",
    "licenseStatus": "ACTIVE",
    "inService": false,
    "licenseNumber": "550001615",
    "licenseEffectiveDate": "08/14/2025",
    "licenseExpirationDate": "08/13/2027",
    "dataDate": "10/18/2025",
    "capacity": 0,
    "address": "3251 W 6TH ST, SUITE 418",
    "city": "LOS ANGELES",
    "zip": "90020",
    "county": "LOS ANGELES",
    "phone": "(213) 385-5301",
    "lat": 34.063902,
    "lng": -118.2931785
  },
  {
    "id": "960002332",
    "name": "KHEIR CLINIC",
    "npi": null,
    "hcaiId": "306196729",
    "businessName": "KOREAN HEALTH, EDUCATION, INFORMATION AND RESEARCH CENTER",
    "contactEmail": "ERINPAK@LAKHEIR.ORG",
    "categoryName": "PRIMARY CARE CLINIC",
    "categoryCode": "COMTYC",
    "licenseStatus": "ACTIVE",
    "inService": true,
    "licenseNumber": "550003003",
    "licenseEffectiveDate": "03/05/2025",
    "licenseExpirationDate": "03/04/2026",
    "dataDate": "10/18/2025",
    "capacity": 0,
    "address": "3727 W 6TH ST, SUITE 200",
    "city": "LOS ANGELES",
    "zip": "90020",
    "county": "LOS ANGELES",
    "phone": "(213) 637-1070",
    "lat": 34.063875,
    "lng": -118.303731
  },
  {
    "id": "630020162",
    "name": "KHEIR CLINIC -DENTAL & OPTOMETRY",
    "npi": "1013311448",
    "hcaiId": null,
    "businessName": "KOREAN HEALTH, EDUCATION, INFORMATION AND RESEARCH CENTER",
    "contactEmail": "NAVIDP@LAKHEIR.ORG",
    "categoryName": "PRIMARY CARE CLINIC",
    "categoryCode": "COMTYC",
    "licenseStatus": "ACTIVE",
    "inService": true,
    "licenseNumber": "550003003",
    "licenseEffectiveDate": "03/05/2025",
    "licenseExpirationDate": "03/04/2026",
    "dataDate": "10/18/2025",
    "capacity": 0,
    "address": "3750 W 6TH ST, SUITE 113 & 114",
    "city": "LOS ANGELES",
    "zip": "90020",
    "county": "LOS ANGELES",
    "phone": "(213) 235-2801",
    "lat": 34.063398,
    "lng": -118.304334
  },
  {
    "id": "630026758",
    "name": "KHEIR FAMILY AND PEDIATRIC CLINIC",
    "npi": "1013311448",
    "hcaiId": null,
    "businessName": "KOREAN HEALTH, EDUCATION, INFORMATION AND RESEARCH CENTER",
    "contactEmail": null,
    "categoryName": "PRIMARY CARE CLINIC",
    "categoryCode": "COMTYC",
    "licenseStatus": "ACTIVE",
    "inService": true,
    "licenseNumber": "550003003",
    "licenseEffectiveDate": "03/05/2025",
    "licenseExpirationDate": "03/04/2026",
    "dataDate": "10/18/2025",
    "capacity": 0,
    "address": "3671 W 6TH ST, SUITE A",
    "city": "LOS ANGELES",
    "zip": "90020",
    "county": "LOS ANGELES",
    "phone": null,
    "lat": 34.06363801,
    "lng": -118.3023592
  },
  {
    "id": "060001985",
    "name": "KINGSLEY PLACE ADULT DAY HEALTH CARE",
    "npi": null,
    "hcaiId": null,
    "businessName": "KINGSLEY PLACE ADULT DAY HEALTH CARE",
    "contactEmail": "KINGSLEYPLACE1ADHC@GMAIL.COM",
    "categoryName": "ADULT DAY HEALTH CARE",
    "categoryCode": "ADHC",
    "licenseStatus": "ACTIVE",
    "inService": true,
    "licenseNumber": "060000786",
    "licenseEffectiveDate": "11/16/2024",
    "licenseExpirationDate": "11/15/2025",
    "dataDate": "10/18/2025",
    "capacity": 0,
    "address": "548 S KINGSLEY DR",
    "city": "LOS ANGELES",
    "zip": "90020",
    "county": "LOS ANGELES",
    "phone": "(213) 383-3303",
    "lat": 34.064028,
    "lng": -118.30266
  },
  {
    "id": "630015621",
    "name": "KOREAN HEALTH, EDUCATION, INFORMATION AND RESEARCH CENTER",
    "npi": null,
    "hcaiId": null,
    "businessName": null,
    "contactEmail": null,
    "categoryName": "PRIMARY CARE CLINIC",
    "categoryCode": "FQHC",
    "licenseStatus": null,
    "inService": null,
    "licenseNumber": null,
    "licenseEffectiveDate": null,
    "licenseExpirationDate": null,
    "dataDate": "10/18/2025",
    "capacity": 0,
    "address": "3727 WEST 6TH STREET, SUITE 210",
    "city": "LOS ANGELES",
    "zip": "90020",
    "county": "LOS ANGELES",
    "phone": null,
    "lat": 34.063875,
    "lng": -118.303731
  },
  {
    "id": "930001645",
    "name": "LOS ANGELES ENDOSCOPY CENTER",
    "npi": "1225188808",
    "hcaiId": "306196045",
    "businessName": "LOS ANGELES ENDOSCOPY CENTER",
    "contactEmail": "INFO@LAEDDO.NET",
    "categoryName": "SURGICAL CLINIC",
    "categoryCode": "ASC",
    "licenseStatus": "INACTIVE - CAPEN DECISION",
    "inService": false,
    "licenseNumber": "930000913",
    "licenseEffectiveDate": "06/04/2007",
    "licenseExpirationDate": "06/03/2008",
    "dataDate": "10/18/2025",
    "capacity": 0,
    "address": "3663 W 6TH ST, SUITE 304",
    "city": "LOS ANGELES",
    "zip": "90020",
    "county": "LOS ANGELES",
    "phone": "(213) 387-7700",
    "lat": 34.063956,
    "lng": -118.301976
  },
  {
    "id": "980002211",
    "name": "MISSION HOME HEALTH SERVICES, INC.",
    "npi": "1376563858",
    "hcaiId": "406196597",
    "businessName": "MISSION HOME HEALTH SERVICES, INC.",
    "contactEmail": "MISSIONHHS@GMAIL.COM",
    "categoryName": "HOME HEALTH AGENCY",
    "categoryCode": "HHA",
    "licenseStatus": "ACTIVE",
    "inService": true,
    "licenseNumber": "980001333",
    "licenseEffectiveDate": "04/12/2025",
    "licenseExpirationDate": "04/11/2026",
    "dataDate": "10/18/2025",
    "capacity": 0,
    "address": "505 S VIRGIL AVE, SUITE 305",
    "city": "LOS ANGELES",
    "zip": "90020",
    "county": "LOS ANGELES",
    "phone": "(213) 387-4663",
    "lat": 34.064901,
    "lng": -118.2872385
  },
  {
    "id": "630026679",
    "name": "PRIME STAR HOME HEALTH, INC.",
    "npi": null,
    "hcaiId": null,
    "businessName": "PRIME STAR HOME HEALTH, INC.",
    "contactEmail": "PRIMESTARHOMEHEALTH@GMAIL.COM",
    "categoryName": "HOME HEALTH AGENCY",
    "categoryCode": "HHA",
    "licenseStatus": "ACTIVE",
    "inService": true,
    "licenseNumber": "550009301",
    "licenseEffectiveDate": "08/12/2025",
    "licenseExpirationDate": "08/11/2026",
    "dataDate": "10/18/2025",
    "capacity": 0,
    "address": "3717 W 3RD ST, SUITE 202",
    "city": "LOS ANGELES",
    "zip": "90020",
    "county": "LOS ANGELES",
    "phone": "(212) 513-8922",
    "lat": 34.06910102,
    "lng": -118.2970073
  },
  {
    "id": "630014516",
    "name": "VIRGIL ENDOSCOPY CENTER",
    "npi": null,
    "hcaiId": null,
    "businessName": null,
    "contactEmail": "LAURENVIRGILENDO@GMAIL.COM",
    "categoryName": "SURGICAL CLINIC",
    "categoryCode": "ASC",
    "licenseStatus": null,
    "inService": null,
    "licenseNumber": null,
    "licenseEffectiveDate": null,
    "licenseExpirationDate": null,
    "dataDate": "10/18/2025",
    "capacity": 0,
    "address": "500 S VIRGIL AVE, SUITE 301",
    "city": "LOS ANGELES",
    "zip": "90020",
    "county": "LOS ANGELES",
    "phone": "(213) 738-6090",
    "lat": 34.064955,
    "lng": -118.286685
  },
  {
    "id": "060002039",
    "name": "WILSHIRE ADULT DAY HEALTH CARE CENTER",
    "npi": null,
    "hcaiId": null,
    "businessName": "SORORES, INC.",
    "contactEmail": "WILSHIREADHC@YAHOO.COM",
    "categoryName": "ADULT DAY HEALTH CARE",
    "categoryCode": "ADHC",
    "licenseStatus": "ACTIVE",
    "inService": true,
    "licenseNumber": "060000866",
    "licenseEffectiveDate": "05/09/2025",
    "licenseExpirationDate": "05/08/2026",
    "dataDate": "10/18/2025",
    "capacity": 0,
    "address": "433 S NORMANDIE AVE",
    "city": "LOS ANGELES",
    "zip": "90020",
    "county": "LOS ANGELES",
    "phone": "(213) 383-0900",
    "lat": 34.06583901,
    "lng": -118.300765
  }
]