[
  {
    "id": "630019773",
    "name": "INNOVATIVE CARE PARTNERS",
    "npi": null,
    "hcaiId": "406192782",
    "businessName": "INNOVATIVE CARE PARTNERS",
    "contactEmail": "INNOVATIVECAREPARTNERS@GMAIL.COM",
    "categoryName": "HOME HEALTH AGENCY",
    "categoryCode": "HHA",
    "licenseStatus": "ACTIVE",
    "inService": true,
    "licenseNumber": "550005623",
    "licenseEffectiveDate": "07/23/2025",
    "licenseExpirationDate": "07/22/2026",
    "dataDate": "10/18/2025",
    "capacity": 0,
    "address": "1307 WESTWOOD BLVD, SUITE 203B",
    "city": "LOS ANGELES",
    "zip": "90024",
    "county": "LOS ANGELES",
    "phone": "(424) 273-4203",
    "lat": 34.05683277,
    "lng": -118.442774
  },
  {
    "id": "630025442",
    "name": "LIMITLESS HOME HEALTH CARE",
    "npi": null,
    "hcaiId": "406190031",
    "businessName": "LIMITLESS HOME HEALTH CARE",
    "contactEmail": "LIMITLESSHOMEHEALTHHC@YAHOO.COM",
    "categoryName": "HOME HEALTH AGENCY",
    "categoryCode": "HHA",
    "licenseStatus": "ACTIVE",
    "inService": true,
    "licenseNumber": "550008670",
    "licenseEffectiveDate": "07/25/2025",
    "licenseExpirationDate": "07/24/2026",
    "dataDate": "10/18/2025",
    "capacity": 0,
    "address": "10880 WILSHIRE BLVD, SUITE 1110",
    "city": "LOS ANGELES",
    "zip": "90024",
    "county": "LOS ANGELES",
    "phone": "(424) 331-1818",
    "lat": 34.058403,
    "lng": -118.442826
  },
  {
    "id": "930001347",
    "name": "MOY-FINCHER-CHIPPS SURGERY CENTER, INC.",
    "npi": "1467486076",
    "hcaiId": null,
    "businessName": null,
    "contactEmail": null,
    "categoryName": "SURGICAL CLINIC",
    "categoryCode": "ASC",
    "licenseStatus": null,
    "inService": null,
    "licenseNumber": null,
    "licenseEffectiveDate": null,
    "licenseExpirationDate": null,
    "dataDate": "10/18/2025",
    "capacity": 0,
    "address": "100 UCLA MEDICAL PLZ, SUITE 590",
    "city": "LOS ANGELES",
    "zip": "90024",
    "county": "LOS ANGELES",
    "phone": "(310) 274-5372",
    "lat": 34.06514744,
    "lng": -118.4458511
  },
  {
    "id": "930001773",
    "name": "THE CENTER FOR AMBULATORY SURGICAL TREATMENT",
    "npi": "1932106358",
    "hcaiId": "306196349",
    "businessName": "THE CENTER FOR AMBULATORY SURGICAL TREATMENT, L.P.",
    "contactEmail": "TLECH@UNITEDSURGICAL.COM",
    "categoryName": "SURGICAL CLINIC",
    "categoryCode": "ASC",
    "licenseStatus": "INACTIVE - CAPEN DECISION",
    "inService": false,
    "licenseNumber": "930000985",
    "licenseEffectiveDate": "11/20/2007",
    "licenseExpirationDate": "11/19/2008",
    "dataDate": "10/18/2025",
    "capacity": 0,
    "address": "1090 GLENDON AVE",
    "city": "LOS ANGELES",
    "zip": "90024",
    "county": "LOS ANGELES",
    "phone": "(310) 325-8054",
    "lat": 34.060941,
    "lng": -118.444257
  },
  {
    "id": "630011554",
    "name": "WESTSIDE MEDICAL CENTER, INC.",
    "npi": "1104909068",
    "hcaiId": null,
    "businessName": null,
    "contactEmail": null,
    "categoryName": "SURGICAL CLINIC",
    "categoryCode": "ASC",
    "licenseStatus": null,
    "inService": null,
    "licenseNumber": null,
    "licenseEffectiveDate": null,
    "licenseExpirationDate": null,
    "dataDate": "10/18/2025",
    "capacity": 0,
    "address": "1700 WESTWOOD BLVD",
    "city": "LOS ANGELES",
    "zip": "90024",
    "county": "LOS ANGELES",
    "phone": "(310) 236-6600",
    "lat": 34.051833,
    "lng": -118.438353
  },
  {
    "id": "630011899",
    "name": "WESTSIDE MULTISPECIALTY SURGERY CENTER, LP",
    "npi": "1083776108",
    "hcaiId": null,
    "businessName": null,
    "contactEmail": null,
    "categoryName": "SURGICAL CLINIC",
    "categoryCode": "ASC",
    "licenseStatus": null,
    "inService": null,
    "licenseNumber": null,
    "licenseEffectiveDate": null,
    "licenseExpirationDate": null,
    "dataDate": "10/18/2025",
    "capacity": 0,
    "address": "10921 WILSHIRE BLVD, SUITE 1104",
    "city": "LOS ANGELES",
    "zip": "90024",
    "county": "LOS ANGELES",
    "phone": "(310) 208-7744",
    "lat": 34.058925,
    "lng": -118.4448825
  }
]