[
  {
    "id": "630020295",
    "name": "ANGEL PATHWAY HOSPICE, INC.",
    "npi": null,
    "hcaiId": "406193543",
    "businessName": "ANGEL PATHWAY HOSPICE, INC.",
    "contactEmail": "ANGELPATHWAYHOSPICE@GMAIL.COM",
    "categoryName": "HOSPICE",
    "categoryCode": "HOSPICE",
    "licenseStatus": "ACTIVE",
    "inService": true,
    "licenseNumber": "550006598",
    "licenseEffectiveDate": "07/20/2025",
    "licenseExpirationDate": "07/19/2027",
    "dataDate": "10/18/2025",
    "capacity": 0,
    "address": "5300 SANTA MONICA BLVD, SUITE 204",
    "city": "LOS ANGELES",
    "zip": "90029",
    "county": "LOS ANGELES",
    "phone": "(323) 645-7275",
    "lat": 34.09065,
    "lng": -118.3052835
  },
  {
    "id": "630016598",
    "name": "CARDINAL CARE HOSPICE, INC.",
    "npi": null,
    "hcaiId": "406192788",
    "businessName": "CARDINAL CARE HOSPICE, INC.",
    "contactEmail": "INFO@CARDINALCAREHOSPICE.ORG",
    "categoryName": "HOSPICE",
    "categoryCode": "HOSPICE",
    "licenseStatus": "ACTIVE",
    "inService": true,
    "licenseNumber": "550005644",
    "licenseEffectiveDate": "08/08/2024",
    "licenseExpirationDate": "08/07/2026",
    "dataDate": "10/18/2025",
    "capacity": 0,
    "address": "1110 N. WESTERN AVENUE, SUITE 206",
    "city": "LOS ANGELES",
    "zip": "90029",
    "county": "LOS ANGELES",
    "phone": "(323) 962-3840",
    "lat": 34.091298,
    "lng": -118.308798
  },
  {
    "id": "060001815",
    "name": "DAYLIGHT-HOLLYWOOD ADULT DAY HEALTH CARE CENTER",
    "npi": null,
    "hcaiId": null,
    "businessName": "HOLLYWOOD ADULT DAY HEALTH CARE, INC.",
    "contactEmail": "ARPIA@DAYLIGHTHEALTH.ORG",
    "categoryName": "ADULT DAY HEALTH CARE",
    "categoryCode": "ADHC",
    "licenseStatus": "ACTIVE",
    "inService": true,
    "licenseNumber": "060000632",
    "licenseEffectiveDate": "11/01/2025",
    "licenseExpirationDate": "10/31/2026",
    "dataDate": "10/18/2025",
    "capacity": 0,
    "address": "5300 SANTA MONICA BLVD, SUITE 100",
    "city": "LOS ANGELES",
    "zip": "90029",
    "county": "LOS ANGELES",
    "phone": "(323) 464-2066",
    "lat": 34.09065,
    "lng": -118.3052835
  },
  {
    "id": "630026944",
    "name": "DIAMOND QUALITY HOME HEALTH CARE",
    "npi": null,
    "hcaiId": null,
    "businessName": "DIAMOND QUALITY HOME HEALTH CARE",
    "contactEmail": "DIMONDHHC@GMAIL.COM",
    "categoryName": "HOME HEALTH AGENCY",
    "categoryCode": "HHA",
    "licenseStatus": "ACTIVE",
    "inService": true,
    "licenseNumber": "550009637",
    "licenseEffectiveDate": "08/17/2025",
    "licenseExpirationDate": "02/16/2026",
    "dataDate": "10/18/2025",
    "capacity": 0,
    "address": "5250 SANTA MONICA BLVD, SUITE 205",
    "city": "LOS ANGELES",
    "zip": "90029",
    "county": "LOS ANGELES",
    "phone": "(323) 399-6555",
    "lat": 34.090659,
    "lng": -118.304964
  },
  {
    "id": "970000015",
    "name": "FOUNTAIN VIEW SUBACUTE AND NURSING CENTER",
    "npi": "1194767871",
    "hcaiId": "206190302",
    "businessName": "FOUNTAIN VIEW SUBACUTE AND NURSING CENTER, LLC",
    "contactEmail": "ADMINISTRATOR@FOUNTAINVIEWSUBACUTE.COM",
    "categoryName": "SKILLED NURSING FACILITY",
    "categoryCode": "SNF",
    "licenseStatus": "ACTIVE",
    "inService": true,
    "licenseNumber": "970000008",
    "licenseEffectiveDate": "05/01/2025",
    "licenseExpirationDate": "04/30/2026",
    "dataDate": "10/18/2025",
    "capacity": 99,
    "address": "5310 FOUNTAIN AVE",
    "city": "LOS ANGELES",
    "zip": "90029",
    "county": "LOS ANGELES",
    "phone": "(323) 461-9961",
    "lat": 34.094925,
    "lng": -118.30509
  },
  {
    "id": "960001918",
    "name": "GRACELIGHT COMMUNITY HEALTH",
    "npi": "1639241888",
    "hcaiId": "306194816",
    "businessName": "GRACELIGHT COMMUNITY HEALTH",
    "contactEmail": "MARINA.SNITMAN@GRACELIGHT.ORG",
    "categoryName": "PRIMARY CARE CLINIC",
    "categoryCode": "COMTYC",
    "licenseStatus": "ACTIVE",
    "inService": true,
    "licenseNumber": "960000926",
    "licenseEffectiveDate": "06/28/2025",
    "licenseExpirationDate": "06/27/2026",
    "dataDate": "10/18/2025",
    "capacity": 0,
    "address": "4618 FOUNTAIN AVE",
    "city": "LOS ANGELES",
    "zip": "90029",
    "county": "LOS ANGELES",
    "phone": "(323) 635-1153",
    "lat": 34.095357,
    "lng": -118.290195
  },
  {
    "id": "630027266",
    "name": "HEAVENLY ADHC",
    "npi": null,
    "hcaiId": null,
    "businessName": "HEAVENLY ADHC INC.",
    "contactEmail": "KIRIKIANCHRISTINA@GMAIL.COM",
    "categoryName": "ADULT DAY HEALTH CARE",
    "categoryCode": "ADHC",
    "licenseStatus": "ACTIVE",
    "inService": true,
    "licenseNumber": "550009590",
    "licenseEffectiveDate": "01/13/2025",
    "licenseExpirationDate": "01/12/2026",
    "dataDate": "10/18/2025",
    "capacity": 0,
    "address": "4777 SANTA MONICA BLVD",
    "city": "LOS ANGELES",
    "zip": "90029",
    "county": "LOS ANGELES",
    "phone": "(323) 646-6929",
    "lat": 34.0911723,
    "lng": -118.2933836
  },
  {
    "id": "970000039",
    "name": "HOLLYWOOD PREMIER HEALTHCARE CENTER",
    "npi": "1093172645",
    "hcaiId": "206190697",
    "businessName": "SERRANO POST ACUTE, LLC",
    "contactEmail": "CEO@BEECANHEALTH.COM",
    "categoryName": "SKILLED NURSING FACILITY",
    "categoryCode": "SNF",
    "licenseStatus": "ACTIVE",
    "inService": true,
    "licenseNumber": "970000020",
    "licenseEffectiveDate": "12/22/2024",
    "licenseExpirationDate": "12/21/2025",
    "dataDate": "10/18/2025",
    "capacity": 99,
    "address": "5401 FOUNTAIN AVE",
    "city": "LOS ANGELES",
    "zip": "90029",
    "county": "LOS ANGELES",
    "phone": "(323) 465-2106",
    "lat": 34.095105,
    "lng": -118.307331
  },
  {
    "id": "630023378",
    "name": "HOLLYWOOD PREMIUM HOME CARE, INC.",
    "npi": null,
    "hcaiId": "406195839",
    "businessName": "HOLLYWOOD PREMIUM HOME CARE INC",
    "contactEmail": "HOLLYWOODPREMIUMHC@YAHOO.COM",
    "categoryName": "HOME HEALTH AGENCY",
    "categoryCode": "HHA",
    "licenseStatus": "ACTIVE",
    "inService": true,
    "licenseNumber": "550007980",
    "licenseEffectiveDate": "05/04/2025",
    "licenseExpirationDate": "05/03/2026",
    "dataDate": "10/18/2025",
    "capacity": 0,
    "address": "1110 N WESTERN AVE, SUITE 109",
    "city": "LOS ANGELES",
    "zip": "90029",
    "county": "LOS ANGELES",
    "phone": "(747) 225-2226",
    "lat": 34.091298,
    "lng": -118.308798
  },
  {
    "id": "930000575",
    "name": "HOLLYWOOD PRESBYTERIAN MEDICAL CENTER D/P SNF",
    "npi": "1922033547",
    "hcaiId": null,
    "businessName": "CHA HOLLYWOOD MEDICAL CENTER, L.P.",
    "contactEmail": "USRAH.HAMZIE@HPMEDCENTER.COM",
    "categoryName": "SKILLED NURSING FACILITY",
    "categoryCode": "SNF",
    "licenseStatus": "ACTIVE",
    "inService": true,
    "licenseNumber": "930000067",
    "licenseEffectiveDate": "02/01/2025",
    "licenseExpirationDate": "12/31/2025",
    "dataDate": "10/18/2025",
    "capacity": 89,
    "address": "4636 FOUNTAIN AVE",
    "city": "LOS ANGELES",
    "zip": "90029",
    "county": "LOS ANGELES",
    "phone": "(323) 913-4837",
    "lat": 34.095249,
    "lng": -118.2908655
  },
  {
    "id": "630019564",
    "name": "MISSION CITY COMMUNITY NETWORK, INC. - SANTA MONICA",
    "npi": null,
    "hcaiId": null,
    "businessName": "MISSION CITY COMMUNITY NETWORK, INC.",
    "contactEmail": null,
    "categoryName": "PRIMARY CARE CLINIC",
    "categoryCode": "COMTYC",
    "licenseStatus": "ACTIVE",
    "inService": true,
    "licenseNumber": "550001797",
    "licenseEffectiveDate": "12/30/2024",
    "licenseExpirationDate": "12/29/2025",
    "dataDate": "10/18/2025",
    "capacity": 0,
    "address": "5300 SANTA MONICA BLVD, SUITE 202",
    "city": "LOS ANGELES",
    "zip": "90029",
    "county": "LOS ANGELES",
    "phone": "(818) 895-3100",
    "lat": 34.09065,
    "lng": -118.3052835
  },
  {
    "id": "630026924",
    "name": "NURSE NEXT DOOR HOME HEALTH CARE",
    "npi": null,
    "hcaiId": null,
    "businessName": "NURSE NEXT DOOR HOME HEALTH CARE",
    "contactEmail": "NEXTDOORHHC@GMAIL.COM",
    "categoryName": "HOME HEALTH AGENCY",
    "categoryCode": "HHA",
    "licenseStatus": "ACTIVE",
    "inService": true,
    "licenseNumber": "550009300",
    "licenseEffectiveDate": "08/14/2025",
    "licenseExpirationDate": "08/13/2026",
    "dataDate": "10/18/2025",
    "capacity": 0,
    "address": "5250 SANTA MONICA BLVD, SUITE 206",
    "city": "LOS ANGELES",
    "zip": "90029",
    "county": "LOS ANGELES",
    "phone": "(323) 998-3060",
    "lat": 34.090659,
    "lng": -118.304964
  },
  {
    "id": "630023138",
    "name": "ONE TOUCH HOME HEALTH CARE, INC.",
    "npi": null,
    "hcaiId": "406195354",
    "businessName": "ONE TOUCH HOME HEALTH CARE, INC.",
    "contactEmail": "ONETOUCHHOMEHEALTH@YAHOO.COM",
    "categoryName": "HOME HEALTH AGENCY",
    "categoryCode": "HHA",
    "licenseStatus": "ACTIVE",
    "inService": true,
    "licenseNumber": "550007967",
    "licenseEffectiveDate": "04/26/2025",
    "licenseExpirationDate": "04/25/2026",
    "dataDate": "10/18/2025",
    "capacity": 0,
    "address": "1110 N WESTERN AVE, SUITE 208",
    "city": "LOS ANGELES",
    "zip": "90029",
    "county": "LOS ANGELES",
    "phone": "(323) 639-3339",
    "lat": 34.091298,
    "lng": -118.308798
  },
  {
    "id": "970000058",
    "name": "PALAZZO POST ACUTE",
    "npi": "1659738201",
    "hcaiId": "206190005",
    "businessName": "SERRANO HEALTHCARE, LLC",
    "contactEmail": "SSTERN@PALAZZOPOSTACUTE.COM",
    "categoryName": "SKILLED NURSING FACILITY",
    "categoryCode": "SNF",
    "licenseStatus": "ACTIVE",
    "inService": true,
    "licenseNumber": "970000029",
    "licenseEffectiveDate": "12/22/2024",
    "licenseExpirationDate": "12/21/2025",
    "dataDate": "10/18/2025",
    "capacity": 99,
    "address": "5400 FOUNTAIN AVE",
    "city": "LOS ANGELES",
    "zip": "90029",
    "county": "LOS ANGELES",
    "phone": "(323) 461-4301",
    "lat": 34.094826,
    "lng": -118.307043
  },
  {
    "id": "630026448",
    "name": "PEACEFUL CURE HOME HEALTH CARE INC",
    "npi": null,
    "hcaiId": null,
    "businessName": "PEACEFUL CURE HOME HEALTH INC",
    "contactEmail": "PEACEFULCUREHHC@GMAIL.COM",
    "categoryName": "HOME HEALTH AGENCY",
    "categoryCode": "HHA",
    "licenseStatus": "ACTIVE",
    "inService": true,
    "licenseNumber": "550009396",
    "licenseEffectiveDate": "09/30/2025",
    "licenseExpirationDate": "09/29/2026",
    "dataDate": "10/18/2025",
    "capacity": 0,
    "address": "5250 SANTA MONICA BLVD, SUITE 305A",
    "city": "LOS ANGELES",
    "zip": "90029",
    "county": "LOS ANGELES",
    "phone": "(323) 633-3345",
    "lat": 34.090659,
    "lng": -118.304964
  },
  {
    "id": "960000525",
    "name": "PLANNED PARENTHOOD LOS ANGELES - HOLLYWOOD CENTER",
    "npi": null,
    "hcaiId": "306190622",
    "businessName": "PLANNED PARENTHOOD LOS ANGELES",
    "contactEmail": "BRENDA.GUERRERO@PP-LA.ORG",
    "categoryName": "PRIMARY CARE CLINIC",
    "categoryCode": "COMTYC",
    "licenseStatus": "ACTIVE",
    "inService": true,
    "licenseNumber": "960000297",
    "licenseEffectiveDate": "11/30/2024",
    "licenseExpirationDate": "11/29/2025",
    "dataDate": "10/18/2025",
    "capacity": 0,
    "address": "1014 1/2 N VERMONT AVE",
    "city": "LOS ANGELES",
    "zip": "90029",
    "county": "LOS ANGELES",
    "phone": "(213) 284-3200",
    "lat": 34.09004105,
    "lng": -118.2916811
  },
  {
    "id": "630021227",
    "name": "PM CARE HOSPICE",
    "npi": null,
    "hcaiId": "406194788",
    "businessName": "PM CARE HOSPICE",
    "contactEmail": "PMCAREHOSPICE@YAHOO.COM",
    "categoryName": "HOSPICE",
    "categoryCode": "HOSPICE",
    "licenseStatus": "ACTIVE",
    "inService": true,
    "licenseNumber": "550006049",
    "licenseEffectiveDate": "02/25/2023",
    "licenseExpirationDate": "02/24/2025",
    "dataDate": "10/18/2025",
    "capacity": 0,
    "address": "5300 SANTA MONICA BLVD, SUITE 416",
    "city": "LOS ANGELES",
    "zip": "90029",
    "county": "LOS ANGELES",
    "phone": "(323) 715-0771",
    "lat": 34.09065,
    "lng": -118.3052835
  },
  {
    "id": "630013132",
    "name": "QUEENSCARE FAMILY CLINICS - MOBILE DENTAL VAN 3",
    "npi": "1639241888",
    "hcaiId": "306197565",
    "businessName": "GRACELIGHT COMMUNITY HEALTH",
    "contactEmail": "JVILLALPANDO@QUEENSCARE.ORG",
    "categoryName": "PRIMARY CARE CLINIC",
    "categoryCode": "COMTYC",
    "licenseStatus": "ACTIVE",
    "inService": true,
    "licenseNumber": "550001648",
    "licenseEffectiveDate": "11/15/2024",
    "licenseExpirationDate": "11/14/2025",
    "dataDate": "10/18/2025",
    "capacity": 0,
    "address": "4618 FOUNTAIN AVENUE",
    "city": "LOS ANGELES",
    "zip": "90029",
    "county": "LOS ANGELES",
    "phone": "(323) 715-1527",
    "lat": 34.095357,
    "lng": -118.290195
  },
  {
    "id": "630013345",
    "name": "QUEENSCARE FAMILY CLINICS - MOBILE DENTAL VAN 4",
    "npi": "1639241888",
    "hcaiId": "306197654",
    "businessName": "GRACELIGHT COMMUNITY HEALTH",
    "contactEmail": "JVILLALPANDO@QUEENSCARE.ORG",
    "categoryName": "PRIMARY CARE CLINIC",
    "categoryCode": "COMTYC",
    "licenseStatus": "ACTIVE",
    "inService": true,
    "licenseNumber": "550001825",
    "licenseEffectiveDate": "02/01/2025",
    "licenseExpirationDate": "01/31/2026",
    "dataDate": "10/18/2025",
    "capacity": 0,
    "address": "4618 FOUNTAIN AVE",
    "city": "LOS ANGELES",
    "zip": "90029",
    "county": "LOS ANGELES",
    "phone": "(323) 715-1527",
    "lat": 34.095357,
    "lng": -118.290195
  },
  {
    "id": "630027743",
    "name": "QUEENSCARE HEALTH ALLIANCE-IVAN",
    "npi": null,
    "hcaiId": null,
    "businessName": "QUEENSCARE HEALTH ALLIANCE",
    "contactEmail": "MSESAY@QUEENSCARE.COM",
    "categoryName": "PRIMARY CARE CLINIC",
    "categoryCode": "FREEC",
    "licenseStatus": "ACTIVE",
    "inService": true,
    "licenseNumber": "550009616",
    "licenseEffectiveDate": "07/30/2025",
    "licenseExpirationDate": "01/29/2026",
    "dataDate": "10/18/2025",
    "capacity": 0,
    "address": "4618 FOUNTAIN AVE",
    "city": "LOS ANGELES",
    "zip": "90029",
    "county": "LOS ANGELES",
    "phone": "(323) 644-6183",
    "lat": 34.095297,
    "lng": -118.290175
  },
  {
    "id": "630013131",
    "name": "QUEENSCARE HEALTH ALLIANCE-WM",
    "npi": "1053677401",
    "hcaiId": "306197564",
    "businessName": "QUEENSCARE HEALTH ALLIANCE",
    "contactEmail": "JVILLALPANDO@QUEENSCARE.COM",
    "categoryName": "PRIMARY CARE CLINIC",
    "categoryCode": "COMTYC",
    "licenseStatus": "ACTIVE",
    "inService": true,
    "licenseNumber": "550001649",
    "licenseEffectiveDate": "11/15/2025",
    "licenseExpirationDate": "11/14/2026",
    "dataDate": "10/18/2025",
    "capacity": 0,
    "address": "4618 FOUNTAIN AVENUE",
    "city": "LOS ANGELES",
    "zip": "90029",
    "county": "LOS ANGELES",
    "phone": "(323) 715-1527",
    "lat": 34.095357,
    "lng": -118.290195
  },
  {
    "id": "980002239",
    "name": "RED OAK HOME HEALTH SERVICES",
    "npi": "1922083856",
    "hcaiId": "406196253",
    "businessName": null,
    "contactEmail": "REDREDOAK@GMAIL.COM",
    "categoryName": "HOME HEALTH AGENCY",
    "categoryCode": "HHA",
    "licenseStatus": "ACTIVE",
    "inService": true,
    "licenseNumber": "980001357",
    "licenseEffectiveDate": "11/18/2024",
    "licenseExpirationDate": "11/17/2025",
    "dataDate": "10/18/2025",
    "capacity": 0,
    "address": "4855 SANTA MONICA BLVD, SUITE 110",
    "city": "LOS ANGELES",
    "zip": "90029",
    "county": "LOS ANGELES",
    "phone": "(323) 906-9090",
    "lat": 34.091199,
    "lng": -118.295298
  },
  {
    "id": "630017673",
    "name": "SAN JUDAS COMMUNITY HEALTH CENTER, INC.",
    "npi": null,
    "hcaiId": "306190404",
    "businessName": "SAN JUDAS COMMUNITY HEALTH CENTER, INC.",
    "contactEmail": "MVERDIAN@SANJUDASCHC.ORG",
    "categoryName": "PRIMARY CARE CLINIC",
    "categoryCode": "COMTYC",
    "licenseStatus": "ACTIVE",
    "inService": true,
    "licenseNumber": "550004444",
    "licenseEffectiveDate": "10/24/2025",
    "licenseExpirationDate": "10/23/2026",
    "dataDate": "10/18/2025",
    "capacity": 0,
    "address": "1080 N WESTERN AVE",
    "city": "LOS ANGELES",
    "zip": "90029",
    "county": "LOS ANGELES",
    "phone": "(323) 957-3736",
    "lat": 34.090263,
    "lng": -118.308951
  },
  {
    "id": "630021526",
    "name": "SIMPLE TOUCH HOME HEALTH CARE, INC",
    "npi": null,
    "hcaiId": "406195777",
    "businessName": "SIMPLE TOUCH HOME HEALTH CARE, INC",
    "contactEmail": "SIMPLETOUCHHOME@GMAIL.COM",
    "categoryName": "HOME HEALTH AGENCY",
    "categoryCode": "HHA",
    "licenseStatus": "ACTIVE",
    "inService": true,
    "licenseNumber": "550007804",
    "licenseEffectiveDate": "01/12/2025",
    "licenseExpirationDate": "01/11/2026",
    "dataDate": "10/18/2025",
    "capacity": 0,
    "address": "5250 SANTA MONICA BLVD, SUITE 211",
    "city": "LOS ANGELES",
    "zip": "90029",
    "county": "LOS ANGELES",
    "phone": "(747) 444-8506",
    "lat": 34.090659,
    "lng": -118.304964
  },
  {
    "id": "060001870",
    "name": "SOCHI COMMUNITY BASED ADULT SERVICES CENTER",
    "npi": null,
    "hcaiId": null,
    "businessName": "SOCHI COMMUNITY BASED ADULT SERVICES, INC.",
    "contactEmail": "SOCHI.CBAS@GMAIL.COM",
    "categoryName": "ADULT DAY HEALTH CARE",
    "categoryCode": "ADHC",
    "licenseStatus": "ACTIVE",
    "inService": true,
    "licenseNumber": "060000687",
    "licenseEffectiveDate": "02/08/2025",
    "licenseExpirationDate": "02/07/2026",
    "dataDate": "10/18/2025",
    "capacity": 0,
    "address": "4414 SANTA MONICA BLVD",
    "city": "LOS ANGELES",
    "zip": "90029",
    "county": "LOS ANGELES",
    "phone": "(323) 660-0016",
    "lat": 34.090731,
    "lng": -118.285065
  },
  {
    "id": "630019781",
    "name": "STUDENT HEALTH & WELLNESS CENTER",
    "npi": null,
    "hcaiId": null,
    "businessName": "JWCH INSTITUTE, INC.",
    "contactEmail": null,
    "categoryName": "PRIMARY CARE CLINIC",
    "categoryCode": "COMTYC",
    "licenseStatus": "ACTIVE",
    "inService": true,
    "licenseNumber": "960001445",
    "licenseEffectiveDate": "06/16/2025",
    "licenseExpirationDate": "06/15/2026",
    "dataDate": "10/18/2025",
    "capacity": 0,
    "address": "855 N VERMONT AVE, BUILDING STUDENT SERVICES 120",
    "city": "LOS ANGELES",
    "zip": "90029",
    "county": "LOS ANGELES",
    "phone": null,
    "lat": 34.086771,
    "lng": -118.2921075
  },
  {
    "id": "630026694",
    "name": "SUPREME HOME HEALTH CARE INC",
    "npi": null,
    "hcaiId": null,
    "businessName": "SUPREME HOME HEALTH CARE INC",
    "contactEmail": "SUPREMEHOMEHEALTHCARE@GMAIL.COM",
    "categoryName": "HOME HEALTH AGENCY",
    "categoryCode": "HHA",
    "licenseStatus": "ACTIVE",
    "inService": true,
    "licenseNumber": "550009319",
    "licenseEffectiveDate": "08/16/2025",
    "licenseExpirationDate": "08/15/2026",
    "dataDate": "10/18/2025",
    "capacity": 0,
    "address": "1110 N WESTERN AVE, SUITE 204",
    "city": "LOS ANGELES",
    "zip": "90029",
    "county": "LOS ANGELES",
    "phone": "(323) 641-7177",
    "lat": 34.091298,
    "lng": -118.308798
  },
  {
    "id": "970000103",
    "name": "VIRGIL REHABILITATION AND SKILLED NURSING CENTER",
    "npi": "1811211915",
    "hcaiId": "206190832",
    "businessName": "ADVANCED SKILLED NURSING, INC.",
    "contactEmail": "JNINONUEVO@VIRGILREHAB.COM",
    "categoryName": "SKILLED NURSING FACILITY",
    "categoryCode": "SNF",
    "licenseStatus": "ACTIVE",
    "inService": true,
    "licenseNumber": "970000051",
    "licenseEffectiveDate": "11/08/2025",
    "licenseExpirationDate": "11/07/2026",
    "dataDate": "10/18/2025",
    "capacity": 124,
    "address": "975 N VIRGIL AVE",
    "city": "LOS ANGELES",
    "zip": "90029",
    "county": "LOS ANGELES",
    "phone": "(323) 665-5793",
    "lat": 34.089282,
    "lng": -118.28709
  },
  {
    "id": "960002881",
    "name": "WESLEY HEALTH CENTERS (VERMONT)",
    "npi": null,
    "hcaiId": "306198429",
    "businessName": "JWCH INSTITUTE, INC.",
    "contactEmail": "AIRIE@JWCH.ORG",
    "categoryName": "PRIMARY CARE CLINIC",
    "categoryCode": "COMTYC",
    "licenseStatus": "ACTIVE",
    "inService": true,
    "licenseNumber": "960001445",
    "licenseEffectiveDate": "06/16/2025",
    "licenseExpirationDate": "06/15/2026",
    "dataDate": "10/18/2025",
    "capacity": 0,
    "address": "954 N. VERMONT AVENUE",
    "city": "LOS ANGELES",
    "zip": "90029",
    "county": "LOS ANGELES",
    "phone": "(323) 201-4516",
    "lat": 34.088967,
    "lng": -118.2914685
  },
  {
    "id": "630020288",
    "name": "WESLEY HEALTH CENTERS - VERMONT ANNEX",
    "npi": null,
    "hcaiId": null,
    "businessName": "JWCH INSTITUTE, INC.",
    "contactEmail": null,
    "categoryName": "PRIMARY CARE CLINIC",
    "categoryCode": "COMTYC",
    "licenseStatus": "ACTIVE",
    "inService": true,
    "licenseNumber": "960001445",
    "licenseEffectiveDate": "06/16/2025",
    "licenseExpirationDate": "06/15/2026",
    "dataDate": "10/18/2025",
    "capacity": 0,
    "address": "964 N VERMONT AVE",
    "city": "LOS ANGELES",
    "zip": "90029",
    "county": "LOS ANGELES",
    "phone": "(323) 605-1901",
    "lat": 34.089255,
    "lng": -118.291473
  }
]