[
  {
    "id": "630021167",
    "name": "A PLUS CARE, LLC",
    "npi": null,
    "hcaiId": "406195292",
    "businessName": "A PLUS CARE, LLC",
    "contactEmail": "APLUSCARELA@GMAIL.COM",
    "categoryName": "HOME HEALTH AGENCY",
    "categoryCode": "HHA",
    "licenseStatus": "ACTIVE",
    "inService": true,
    "licenseNumber": "550006630",
    "licenseEffectiveDate": "08/10/2025",
    "licenseExpirationDate": "08/09/2026",
    "dataDate": "10/18/2025",
    "capacity": 0,
    "address": "12100 WILSHIRE BLVD, SUITE 874",
    "city": "LOS ANGELES",
    "zip": "90025",
    "county": "LOS ANGELES",
    "phone": "(323) 973-2473",
    "lat": 34.04346734,
    "lng": -118.4676485
  },
  {
    "id": "630008062",
    "name": "ABSOLUTE HOME HEALTH AGENCY, INC",
    "npi": "1699849380",
    "hcaiId": "406196763",
    "businessName": "ABSOLUTE HOME HEALTH AGENCY, INC.",
    "contactEmail": "INFO@ABSOLUTEHOMEHEALTHAGENCY.ORG",
    "categoryName": "HOME HEALTH AGENCY",
    "categoryCode": "HHA",
    "licenseStatus": "ACTIVE",
    "inService": true,
    "licenseNumber": "550000192",
    "licenseEffectiveDate": "05/30/2025",
    "licenseExpirationDate": "05/29/2026",
    "dataDate": "10/18/2025",
    "capacity": 0,
    "address": "1554 S SEPULVEDA BLVD, SUITE 109",
    "city": "LOS ANGELES",
    "zip": "90025",
    "county": "LOS ANGELES",
    "phone": "(310) 231-2222",
    "lat": 34.04943,
    "lng": -118.445571
  },
  {
    "id": "930000560",
    "name": "BRENTWOOD AMBULATORY SURGICAL MEDICAL CENTER",
    "npi": "1588737035",
    "hcaiId": "306194999",
    "businessName": "BRENTWOOD AMBULATORY SURGICAL MEDICAL CENTER, INC.",
    "contactEmail": "FETTLASERCENTER@VERIZON.NET",
    "categoryName": "SURGICAL CLINIC",
    "categoryCode": "ASC",
    "licenseStatus": "INACTIVE - CAPEN DECISION",
    "inService": false,
    "licenseNumber": "930000900",
    "licenseEffectiveDate": "03/04/2008",
    "licenseExpirationDate": "03/03/2009",
    "dataDate": "10/18/2025",
    "capacity": 0,
    "address": "11645 WILSHIRE BLVD, SUITE 905",
    "city": "LOS ANGELES",
    "zip": "90025",
    "county": "LOS ANGELES",
    "phone": "(310) 442-9262",
    "lat": 34.050249,
    "lng": -118.460529
  },
  {
    "id": "630018844",
    "name": "BRENTWOOD HOME TRAINING",
    "npi": "1902377591",
    "hcaiId": null,
    "businessName": null,
    "contactEmail": null,
    "categoryName": "CHRONIC DIALYSIS CLINIC",
    "categoryCode": "ESRD",
    "licenseStatus": null,
    "inService": null,
    "licenseNumber": null,
    "licenseEffectiveDate": null,
    "licenseExpirationDate": null,
    "dataDate": "10/18/2025",
    "capacity": 0,
    "address": "11859 WILSHIRE BLVD, SUITE 100",
    "city": "LOS ANGELES",
    "zip": "90025",
    "county": "LOS ANGELES",
    "phone": "(310) 231-7197",
    "lat": 34.047243,
    "lng": -118.4638815
  },
  {
    "id": "630021177",
    "name": "BRIGHT STAR HOSPICE CARE",
    "npi": null,
    "hcaiId": "406193646",
    "businessName": "BRIGHT STAR HOSPICE CARE",
    "contactEmail": "4BRIGHTSTARHC@GMAIL.COM",
    "categoryName": "HOSPICE",
    "categoryCode": "HOSPICE",
    "licenseStatus": "ACTIVE",
    "inService": true,
    "licenseNumber": "550006891",
    "licenseEffectiveDate": "09/22/2023",
    "licenseExpirationDate": "09/20/2025",
    "dataDate": "10/18/2025",
    "capacity": 0,
    "address": "10817 SANTA MONICA BLVD, SUITE 100",
    "city": "LOS ANGELES",
    "zip": "90025",
    "county": "LOS ANGELES",
    "phone": "(310) 773-1903",
    "lat": 34.05045801,
    "lng": -118.435679
  },
  {
    "id": "930001707",
    "name": "CENTURY CITY DIALYSIS",
    "npi": "1285699900",
    "hcaiId": "306196969",
    "businessName": "TOTAL RENAL CARE, INC.",
    "contactEmail": "CAL_C@DAVITA.COM",
    "categoryName": "CHRONIC DIALYSIS CLINIC",
    "categoryCode": "ESRD/CDC",
    "licenseStatus": "ACTIVE",
    "inService": true,
    "licenseNumber": "930000951",
    "licenseEffectiveDate": "11/01/2025",
    "licenseExpirationDate": "10/31/2026",
    "dataDate": "10/18/2025",
    "capacity": 27,
    "address": "10630 SANTA MONICA BLVD",
    "city": "LOS ANGELES",
    "zip": "90025",
    "county": "LOS ANGELES",
    "phone": "(310) 954-2700",
    "lat": 34.052805,
    "lng": -118.430298
  },
  {
    "id": "630015843",
    "name": "DANNY'S HOME HEALTH CARE INC.",
    "npi": null,
    "hcaiId": "406198319",
    "businessName": "DANNY'S HOME HEALTH CARE, INC.",
    "contactEmail": "CEOADMIN@DANNYSHOMEHEALTH.COM",
    "categoryName": "HOME HEALTH AGENCY",
    "categoryCode": "HHA",
    "licenseStatus": "ACTIVE",
    "inService": true,
    "licenseNumber": "550003649",
    "licenseEffectiveDate": "09/07/2025",
    "licenseExpirationDate": "09/06/2026",
    "dataDate": "10/18/2025",
    "capacity": 0,
    "address": "1539 SAWTELLE BLVD, SUITE PH #22",
    "city": "LOS ANGELES",
    "zip": "90025",
    "county": "LOS ANGELES",
    "phone": "(818) 246-1342",
    "lat": 34.047351,
    "lng": -118.449396
  },
  {
    "id": "630021047",
    "name": "ELEVATE HOSPICE CARE, INC.",
    "npi": null,
    "hcaiId": "406193281",
    "businessName": "ELEVATE HOSPICE CARE, INC.",
    "contactEmail": "ELEVATEHOSPICECAREINC@GMAIL.COM",
    "categoryName": "HOSPICE",
    "categoryCode": "HOSPICE",
    "licenseStatus": "ACTIVE",
    "inService": true,
    "licenseNumber": "550007189",
    "licenseEffectiveDate": "07/22/2025",
    "licenseExpirationDate": "09/23/2025",
    "dataDate": "10/18/2025",
    "capacity": 0,
    "address": "1990 S BUNDY DR, SUITE 640",
    "city": "LOS ANGELES",
    "zip": "90025",
    "county": "LOS ANGELES",
    "phone": "(818) 850-2151",
    "lat": 34.03449899,
    "lng": -118.455501
  },
  {
    "id": "930001815",
    "name": "ENDOSCOPY CENTER OF SANTA MONICA",
    "npi": null,
    "hcaiId": "306196554",
    "businessName": "ENDOSCOPY CENTER OF SANTA MONICA, INC.",
    "contactEmail": "NONE@DHS.CA.GOV",
    "categoryName": "SURGICAL CLINIC",
    "categoryCode": "ASC",
    "licenseStatus": "INACTIVE - CAPEN DECISION",
    "inService": false,
    "licenseNumber": "930001005",
    "licenseEffectiveDate": "05/06/2008",
    "licenseExpirationDate": "05/05/2009",
    "dataDate": "10/18/2025",
    "capacity": 0,
    "address": "12400 WILSHIRE BLVD, SUITE 100",
    "city": "LOS ANGELES",
    "zip": "90025",
    "county": "LOS ANGELES",
    "phone": "(310) 453-1871",
    "lat": 34.041564,
    "lng": -118.4703075
  },
  {
    "id": "630014548",
    "name": "HOPE HOME HEALTH CARE, INC.",
    "npi": null,
    "hcaiId": "406197996",
    "businessName": "HOPE HOME HEALTH CARE, INC.",
    "contactEmail": "INFO@HOPEHHC.NET",
    "categoryName": "HOME HEALTH AGENCY",
    "categoryCode": "HHA",
    "licenseStatus": "ACTIVE",
    "inService": true,
    "licenseNumber": "550002902",
    "licenseEffectiveDate": "11/10/2019",
    "licenseExpirationDate": "11/09/2020",
    "dataDate": "10/18/2025",
    "capacity": 0,
    "address": "11040 SANTA MONICA BLVD, SUITE 340",
    "city": "LOS ANGELES",
    "zip": "90025",
    "county": "LOS ANGELES",
    "phone": "(424) 273-6616",
    "lat": 34.047774,
    "lng": -118.4424885
  },
  {
    "id": "630011801",
    "name": "KIND HANDS, INC.",
    "npi": null,
    "hcaiId": "406197469",
    "businessName": "KIND HANDS, INC.",
    "contactEmail": "KINDHANDSINC@GMAIL.COM",
    "categoryName": "HOME HEALTH AGENCY",
    "categoryCode": "HHA",
    "licenseStatus": "ACTIVE",
    "inService": true,
    "licenseNumber": "550001406",
    "licenseEffectiveDate": "11/01/2025",
    "licenseExpirationDate": "10/31/2026",
    "dataDate": "10/18/2025",
    "capacity": 0,
    "address": "12340 SANTA MONICA BLVD., SUITE 227",
    "city": "LOS ANGELES",
    "zip": "90025",
    "county": "LOS ANGELES",
    "phone": "(818) 322-0150",
    "lat": 34.039062,
    "lng": -118.4662125
  },
  {
    "id": "630007504",
    "name": "L.A. CARE PROVIDER",
    "npi": "1881777860",
    "hcaiId": "406196952",
    "businessName": "L.A. MEDICAL MANAGEMENT, INC.",
    "contactEmail": "NJALALI@LACAREPROVIDER.COM",
    "categoryName": "HOME HEALTH AGENCY",
    "categoryCode": "HHA",
    "licenseStatus": "ACTIVE",
    "inService": true,
    "licenseNumber": "550000461",
    "licenseEffectiveDate": "03/17/2025",
    "licenseExpirationDate": "03/16/2026",
    "dataDate": "10/18/2025",
    "capacity": 0,
    "address": "11850 WILSHIRE BLVD, SUITE 102",
    "city": "LOS ANGELES",
    "zip": "90025",
    "county": "LOS ANGELES",
    "phone": "(310) 478-8400",
    "lat": 34.047045,
    "lng": -118.4634225
  },
  {
    "id": "930001772",
    "name": "LANDMARK IMAGING SURGICAL CENTER",
    "npi": "1912916214",
    "hcaiId": null,
    "businessName": null,
    "contactEmail": "NONE@DHS.CA.GOV",
    "categoryName": "SURGICAL CLINIC",
    "categoryCode": "ASC",
    "licenseStatus": null,
    "inService": null,
    "licenseNumber": null,
    "licenseEffectiveDate": null,
    "licenseExpirationDate": null,
    "dataDate": "10/18/2025",
    "capacity": 0,
    "address": "11620 WILSHIRE BLVD, SUITE 100",
    "city": "LOS ANGELES",
    "zip": "90025",
    "county": "LOS ANGELES",
    "phone": "(310) 914-7336",
    "lat": 34.049772,
    "lng": -118.459386
  },
  {
    "id": "910000019",
    "name": "NEW VISTA POST-ACUTE CARE CENTER",
    "npi": "1881932424",
    "hcaiId": "206190092",
    "businessName": "NEW VISTA PAC OPERATOR, LLC",
    "contactEmail": "CONNORK@NEWVISTAPOSTACUTE.COM",
    "categoryName": "SKILLED NURSING FACILITY",
    "categoryCode": "SNF",
    "licenseStatus": "ACTIVE",
    "inService": true,
    "licenseNumber": "910000018",
    "licenseEffectiveDate": "08/22/2025",
    "licenseExpirationDate": "08/21/2026",
    "dataDate": "10/18/2025",
    "capacity": 116,
    "address": "1516 SAWTELLE BLVD",
    "city": "LOS ANGELES",
    "zip": "90025",
    "county": "LOS ANGELES",
    "phone": "(310) 477-5501",
    "lat": 34.047945,
    "lng": -118.449486
  },
  {
    "id": "630012853",
    "name": "SANITY HOME HEALTH SERVICES, INC.",
    "npi": "1962716407",
    "hcaiId": "406197540",
    "businessName": "SANITY HOME HEALTH SERVICES, INC.",
    "contactEmail": "SANITYHOMEHEALTH@YAHOO.COM",
    "categoryName": "HOME HEALTH AGENCY",
    "categoryCode": "HHA",
    "licenseStatus": "ACTIVE",
    "inService": true,
    "licenseNumber": "550001573",
    "licenseEffectiveDate": "05/05/2025",
    "licenseExpirationDate": "05/04/2026",
    "dataDate": "10/18/2025",
    "capacity": 0,
    "address": "1554 S SEPULVEDA BLVD, SUITE 110C",
    "city": "LOS ANGELES",
    "zip": "90025",
    "county": "LOS ANGELES",
    "phone": "(424) 317-5050",
    "lat": 34.04943,
    "lng": -118.445571
  },
  {
    "id": "630022486",
    "name": "SPECTRE SENIOR SERVICES HOME HEALTH CARE",
    "npi": null,
    "hcaiId": "406195864",
    "businessName": "SPECTRE SENIOR SERVICES HOME HEALTH CARE",
    "contactEmail": "DUCHITEL1@GMAIL.COM",
    "categoryName": "HOME HEALTH AGENCY",
    "categoryCode": "HHA",
    "licenseStatus": "ACTIVE",
    "inService": true,
    "licenseNumber": "550008019",
    "licenseEffectiveDate": "04/23/2025",
    "licenseExpirationDate": "04/22/2026",
    "dataDate": "10/18/2025",
    "capacity": 0,
    "address": "12340 SANTA MONICA BLVD, SUITE 225",
    "city": "LOS ANGELES",
    "zip": "90025",
    "county": "LOS ANGELES",
    "phone": "(310) 207-5557",
    "lat": 34.0390241,
    "lng": -118.4682832
  },
  {
    "id": "630018517",
    "name": "UNISTAFF REGISTRY, LLC",
    "npi": null,
    "hcaiId": "406192797",
    "businessName": "UNISTAFF REGISTRY, LLC",
    "contactEmail": "INFO@UNI-STAFF.COM",
    "categoryName": "HOME HEALTH AGENCY",
    "categoryCode": "HHA",
    "licenseStatus": "ACTIVE",
    "inService": true,
    "licenseNumber": "550005689",
    "licenseEffectiveDate": "08/21/2025",
    "licenseExpirationDate": "08/20/2026",
    "dataDate": "10/18/2025",
    "capacity": 0,
    "address": "1937 PONTIUS AVE",
    "city": "LOS ANGELES",
    "zip": "90025",
    "county": "LOS ANGELES",
    "phone": "(310) 889-9929",
    "lat": 34.043229,
    "lng": -118.44144
  },
  {
    "id": "930001791",
    "name": "WEST WILSHIRE MEDICAL SURGICAL CENTER",
    "npi": null,
    "hcaiId": null,
    "businessName": null,
    "contactEmail": "FLOR@PACIFICSPEACIALISTS.COM",
    "categoryName": "SURGICAL CLINIC",
    "categoryCode": "ASC",
    "licenseStatus": null,
    "inService": null,
    "licenseNumber": null,
    "licenseEffectiveDate": null,
    "licenseExpirationDate": null,
    "dataDate": "10/18/2025",
    "capacity": 0,
    "address": "11600 WILSHIRE BLVD, SUITE 120",
    "city": "LOS ANGELES",
    "zip": "90025",
    "county": "LOS ANGELES",
    "phone": "(310) 456-9880",
    "lat": 34.050366,
    "lng": -118.459269
  },
  {
    "id": "910000028",
    "name": "WESTWOOD POST ACUTE CARE",
    "npi": "1063812212",
    "hcaiId": "206190875",
    "businessName": "WESTWOOD HEALTHCARE & WELLNESS CENTRE, LP",
    "contactEmail": "ADMINISTRATOR@WESTWOODHWC.COM",
    "categoryName": "SKILLED NURSING FACILITY",
    "categoryCode": "SNF",
    "licenseStatus": "ACTIVE",
    "inService": true,
    "licenseNumber": "910000123",
    "licenseEffectiveDate": "11/05/2025",
    "licenseExpirationDate": "11/04/2026",
    "dataDate": "10/18/2025",
    "capacity": 93,
    "address": "12121 SANTA MONICA BLVD",
    "city": "LOS ANGELES",
    "zip": "90025",
    "county": "LOS ANGELES",
    "phone": "(310) 826-0821",
    "lat": 34.040313,
    "lng": -118.4642865
  },
  {
    "id": "630012808",
    "name": "WESTWOOD SURGERY CENTER",
    "npi": "1033215223",
    "hcaiId": null,
    "businessName": null,
    "contactEmail": null,
    "categoryName": "SURGICAL CLINIC",
    "categoryCode": "ASC",
    "licenseStatus": null,
    "inService": null,
    "licenseNumber": null,
    "licenseEffectiveDate": null,
    "licenseExpirationDate": null,
    "dataDate": "10/18/2025",
    "capacity": 0,
    "address": "10884 SANTA MONICA BLVD, SUITE 202",
    "city": "LOS ANGELES",
    "zip": "90025",
    "county": "LOS ANGELES",
    "phone": null,
    "lat": 34.04942538,
    "lng": -118.4375181
  }
]