[
  {
    "id": "960002469",
    "name": "AHF HEALTHCARE CENTER - HOLLYWOOD",
    "npi": null,
    "hcaiId": "306190784",
    "businessName": "AIDS HEALTHCARE FOUNDATION",
    "contactEmail": "PHARMACYOPERATIONS@AHFRX.ORG",
    "categoryName": "PRIMARY CARE CLINIC",
    "categoryCode": "COMTYC",
    "licenseStatus": "ACTIVE",
    "inService": true,
    "licenseNumber": "960001126",
    "licenseEffectiveDate": "01/25/2025",
    "licenseExpirationDate": "01/24/2026",
    "dataDate": "10/18/2025",
    "capacity": 0,
    "address": "4905 HOLLYWOOD BLVD",
    "city": "LOS ANGELES",
    "zip": "90027",
    "county": "LOS ANGELES",
    "phone": "(310) 771-0562",
    "lat": 34.10204598,
    "lng": -118.296405
  },
  {
    "id": "630027481",
    "name": "AHF HEALTHCARE CENTER - WESTERN",
    "npi": null,
    "hcaiId": null,
    "businessName": "AIDS HEALTHCARE FOUNDATION",
    "contactEmail": "RIGOBERTO.GALVAN@AHF.ORG",
    "categoryName": "PRIMARY CARE CLINIC",
    "categoryCode": "COMTYC",
    "licenseStatus": "ACTIVE",
    "inService": true,
    "licenseNumber": "960001126",
    "licenseEffectiveDate": "01/25/2025",
    "licenseExpirationDate": "01/24/2026",
    "dataDate": "10/18/2025",
    "capacity": 0,
    "address": "1811 N WESTERN AVE",
    "city": "LOS ANGELES",
    "zip": "90027",
    "county": "LOS ANGELES",
    "phone": "(323) 533-5626",
    "lat": 34.103825,
    "lng": -118.309659
  },
  {
    "id": "970000003",
    "name": "ALEXANDRIA CARE CENTER",
    "npi": "1760470736",
    "hcaiId": "206190015",
    "businessName": "ALEXANDRIA CARE CENTER, LLC",
    "contactEmail": "LUSINE.TEROGANESYAN@ALEXANDRIACC.COM",
    "categoryName": "SKILLED NURSING FACILITY",
    "categoryCode": "SNF",
    "licenseStatus": "ACTIVE",
    "inService": true,
    "licenseNumber": "970000002",
    "licenseEffectiveDate": "11/06/2024",
    "licenseExpirationDate": "11/05/2025",
    "dataDate": "10/18/2025",
    "capacity": 177,
    "address": "1515 N ALEXANDRIA AVE",
    "city": "LOS ANGELES",
    "zip": "90027",
    "county": "LOS ANGELES",
    "phone": "(323) 660-1800",
    "lat": 34.098705,
    "lng": -118.2985695
  },
  {
    "id": "630015671",
    "name": "ALLSTATE CARE HOSPICE, INC.",
    "npi": "1053715011",
    "hcaiId": "406191304",
    "businessName": "ALLSTATE CARE HOSPICE, INC.",
    "contactEmail": "ALLSTATECAREHOSPICE@GMAIL.COM",
    "categoryName": "HOSPICE",
    "categoryCode": "HOSPICE",
    "licenseStatus": "ACTIVE",
    "inService": true,
    "licenseNumber": "550003597",
    "licenseEffectiveDate": "07/09/2025",
    "licenseExpirationDate": "07/13/2026",
    "dataDate": "10/18/2025",
    "capacity": 0,
    "address": "1917 HILLHURST AVE, SUITE 101C",
    "city": "LOS ANGELES",
    "zip": "90027",
    "county": "LOS ANGELES",
    "phone": "(818) 505-8266",
    "lat": 34.10602601,
    "lng": -118.287832
  },
  {
    "id": "630001181",
    "name": "ALTAMED GENERAL PEDIATRICS @ CHILDREN'S HOSPITAL",
    "npi": "1629283197",
    "hcaiId": "306196681",
    "businessName": "ALTAMED HEALTH SERVICES CORPORATION",
    "contactEmail": "HKHALILI@ALTAMED.ORG",
    "categoryName": "PRIMARY CARE CLINIC",
    "categoryCode": "COMTYC",
    "licenseStatus": "ACTIVE",
    "inService": true,
    "licenseNumber": "550000070",
    "licenseEffectiveDate": "11/12/2025",
    "licenseExpirationDate": "11/11/2026",
    "dataDate": "10/18/2025",
    "capacity": 0,
    "address": "4650 W SUNSET BLVD, MS #76",
    "city": "LOS ANGELES",
    "zip": "90027",
    "county": "LOS ANGELES",
    "phone": "(323) 671-2020",
    "lat": 34.097868,
    "lng": -118.290636
  },
  {
    "id": "960002830",
    "name": "ASIAN PACIFIC HEALTH CARE VENTURE, INC. - JMHS HEALTH CENTER",
    "npi": "1003951708",
    "hcaiId": "306196199",
    "businessName": "ASIAN PACIFIC HEALTH CARE VENTURE, INC.",
    "contactEmail": "INFO@APHCV.ORG",
    "categoryName": "PRIMARY CARE CLINIC",
    "categoryCode": "COMTYC",
    "licenseStatus": "ACTIVE",
    "inService": true,
    "licenseNumber": "960001028",
    "licenseEffectiveDate": "11/21/2024",
    "licenseExpirationDate": "11/20/2025",
    "dataDate": "10/18/2025",
    "capacity": 0,
    "address": "3939 TRACY ST",
    "city": "LOS ANGELES",
    "zip": "90027",
    "county": "LOS ANGELES",
    "phone": "(323) 665-1942",
    "lat": 34.107858,
    "lng": -118.2771675
  },
  {
    "id": "960002174",
    "name": "ASIAN PACIFIC HEALTH CARE VENTURE, INC.- LOS FELIZ HEALTH CENTER",
    "npi": "1336208255",
    "hcaiId": "306194983",
    "businessName": "ASIAN PACIFIC HEALTH CARE VENTURE, INC.",
    "contactEmail": "INFO@APHCV.ORG",
    "categoryName": "PRIMARY CARE CLINIC",
    "categoryCode": "COMTYC",
    "licenseStatus": "ACTIVE",
    "inService": true,
    "licenseNumber": "960001028",
    "licenseEffectiveDate": "11/21/2024",
    "licenseExpirationDate": "11/20/2025",
    "dataDate": "10/18/2025",
    "capacity": 0,
    "address": "1530 HILLHURST AVE",
    "city": "LOS ANGELES",
    "zip": "90027",
    "county": "LOS ANGELES",
    "phone": "(323) 644-3880",
    "lat": 34.098939,
    "lng": -118.287036
  },
  {
    "id": "630023125",
    "name": "BREEZE HOME HEALTH CARE, INC.",
    "npi": null,
    "hcaiId": "406195401",
    "businessName": "BREEZE HOME HEALTH CARE, INC.",
    "contactEmail": "BREEZEHOMECARE@GMAIL.COM",
    "categoryName": "HOME HEALTH AGENCY",
    "categoryCode": "HHA",
    "licenseStatus": "ACTIVE",
    "inService": true,
    "licenseNumber": "550007857",
    "licenseEffectiveDate": "02/15/2025",
    "licenseExpirationDate": "02/14/2026",
    "dataDate": "10/18/2025",
    "capacity": 0,
    "address": "5107 HOLLYWOOD BLVD, SUITE 101",
    "city": "LOS ANGELES",
    "zip": "90027",
    "county": "LOS ANGELES",
    "phone": "(323) 977-9000",
    "lat": 34.101891,
    "lng": -118.300824
  },
  {
    "id": "970000005",
    "name": "BRIER OAK ON SUNSET",
    "npi": "1396721932",
    "hcaiId": "206190105",
    "businessName": "BRIER OAK ON SUNSET, LLC",
    "contactEmail": "KATELYN.MAXIMIUK@BRIEROAKONSUNSET.COM",
    "categoryName": "SKILLED NURSING FACILITY",
    "categoryCode": "SNF",
    "licenseStatus": "ACTIVE",
    "inService": true,
    "licenseNumber": "970000003",
    "licenseEffectiveDate": "11/06/2024",
    "licenseExpirationDate": "11/05/2025",
    "dataDate": "10/18/2025",
    "capacity": 159,
    "address": "5154 W SUNSET BLVD",
    "city": "LOS ANGELES",
    "zip": "90027",
    "county": "LOS ANGELES",
    "phone": "(323) 663-3951",
    "lat": 34.097958,
    "lng": -118.3023495
  },
  {
    "id": "630021910",
    "name": "CANDID HOME HEALTH CARE, INC.",
    "npi": null,
    "hcaiId": "406195495",
    "businessName": "CANDID HOME HEALTH CARE, INC.",
    "contactEmail": "CANDIDHOMEHEALTHCARE@GMAIL.COM",
    "categoryName": "HOME HEALTH AGENCY",
    "categoryCode": "HHA",
    "licenseStatus": "ACTIVE",
    "inService": true,
    "licenseNumber": "550008132",
    "licenseEffectiveDate": "07/09/2025",
    "licenseExpirationDate": "07/08/2026",
    "dataDate": "10/18/2025",
    "capacity": 0,
    "address": "1670 HILLHURST AVE, SUITE 205",
    "city": "LOS ANGELES",
    "zip": "90027",
    "county": "LOS ANGELES",
    "phone": "(323) 407-8690",
    "lat": 34.10145,
    "lng": -118.287216
  },
  {
    "id": "930000034",
    "name": "CHILDREN'S HOSPITAL LOS ANGELES",
    "npi": "1124073366",
    "hcaiId": "106190170",
    "businessName": "CHILDREN'S HOSPITAL LOS ANGELES",
    "contactEmail": "ACCRLICENSE@CHLA.USC.EDU",
    "categoryName": "GENERAL ACUTE CARE HOSPITAL",
    "categoryCode": "GACH",
    "licenseStatus": "ACTIVE",
    "inService": true,
    "licenseNumber": "930000032",
    "licenseEffectiveDate": "05/23/2025",
    "licenseExpirationDate": "12/31/2025",
    "dataDate": "10/18/2025",
    "capacity": 438,
    "address": "4650 W SUNSET BLVD",
    "city": "LOS ANGELES",
    "zip": "90027",
    "county": "LOS ANGELES",
    "phone": "(323) 208-2860",
    "lat": 34.097868,
    "lng": -118.290636
  },
  {
    "id": "630012611",
    "name": "CHILDREN'S HOSPITAL OF LOS ANGELES",
    "npi": null,
    "hcaiId": null,
    "businessName": "CHILDREN'S HOSPITAL LOS ANGELES",
    "contactEmail": null,
    "categoryName": "GENERAL ACUTE CARE HOSPITAL",
    "categoryCode": "TRANS",
    "licenseStatus": "ACTIVE",
    "inService": true,
    "licenseNumber": "930000032",
    "licenseEffectiveDate": "05/23/2025",
    "licenseExpirationDate": "12/31/2025",
    "dataDate": "10/18/2025",
    "capacity": 0,
    "address": "4650 W SUNSET BLVD",
    "city": "LOS ANGELES",
    "zip": "90027",
    "county": "LOS ANGELES",
    "phone": null,
    "lat": 34.097868,
    "lng": -118.290636
  },
  {
    "id": "630018524",
    "name": "CLASSIC CARE HOME HEALTH INC.",
    "npi": null,
    "hcaiId": "406192023",
    "businessName": "CLASSIC CARE HOME HEALTH INC.",
    "contactEmail": "CLASSICCAREHOMEHEALTH@GMAIL.COM",
    "categoryName": "HOME HEALTH AGENCY",
    "categoryCode": "HHA",
    "licenseStatus": "ACTIVE",
    "inService": true,
    "licenseNumber": "550005073",
    "licenseEffectiveDate": "11/08/2025",
    "licenseExpirationDate": "11/07/2026",
    "dataDate": "10/18/2025",
    "capacity": 0,
    "address": "2018 HILLHURST AVE",
    "city": "LOS ANGELES",
    "zip": "90027",
    "county": "LOS ANGELES",
    "phone": "(818) 945-5669",
    "lat": 34.108182,
    "lng": -118.28727
  },
  {
    "id": "630019221",
    "name": "COMPLETE CARE COMMUNITY HEALTH CENTER - VERMONT",
    "npi": "1215113964",
    "hcaiId": null,
    "businessName": "COMPLETE CARE COMMUNITY HEALTH CENTER, INC.",
    "contactEmail": null,
    "categoryName": "PRIMARY CARE CLINIC",
    "categoryCode": "COMTYC",
    "licenseStatus": "ACTIVE",
    "inService": true,
    "licenseNumber": "550000639",
    "licenseEffectiveDate": "12/10/2024",
    "licenseExpirationDate": "12/09/2025",
    "dataDate": "10/18/2025",
    "capacity": 0,
    "address": "1300 N VERMONT AVE, SUITE 606",
    "city": "LOS ANGELES",
    "zip": "90027",
    "county": "LOS ANGELES",
    "phone": null,
    "lat": 34.096221,
    "lng": -118.290582
  },
  {
    "id": "630019590",
    "name": "E2 HOSPICE, INC.",
    "npi": "1114562576",
    "hcaiId": "406194758",
    "businessName": "E2 HOSPICE, INC.",
    "contactEmail": "E2HOSPICE@GMAIL.COM",
    "categoryName": "HOSPICE",
    "categoryCode": "HOSPICE",
    "licenseStatus": "ACTIVE",
    "inService": true,
    "licenseNumber": "550006116",
    "licenseEffectiveDate": "02/18/2025",
    "licenseExpirationDate": "02/17/2027",
    "dataDate": "10/18/2025",
    "capacity": 0,
    "address": "5123 W SUNSET BLVD, SUITE 206",
    "city": "LOS ANGELES",
    "zip": "90027",
    "county": "LOS ANGELES",
    "phone": "(323) 522-6332",
    "lat": 34.09817728,
    "lng": -118.3013892
  },
  {
    "id": "630024904",
    "name": "ENDULGEMENT HOME HEALTH CARE INC.",
    "npi": null,
    "hcaiId": "406196392",
    "businessName": "ENDULGEMENT HOME HEALTH CARE INC.",
    "contactEmail": "ENDULGEMENTHHC@GMAIL.COM",
    "categoryName": "HOME HEALTH AGENCY",
    "categoryCode": "HHA",
    "licenseStatus": "ACTIVE",
    "inService": true,
    "licenseNumber": "550008496",
    "licenseEffectiveDate": "10/21/2023",
    "licenseExpirationDate": "04/20/2024",
    "dataDate": "10/18/2025",
    "capacity": 0,
    "address": "5112 HOLLYWOOD BLVD, UNIT 111",
    "city": "LOS ANGELES",
    "zip": "90027",
    "county": "LOS ANGELES",
    "phone": "(800) 453-1067",
    "lat": 34.101594,
    "lng": -118.3010805
  },
  {
    "id": "630025040",
    "name": "ENDURABLE HOME HEALTH CARE INC",
    "npi": null,
    "hcaiId": "406196307",
    "businessName": "ENDURABLE HOME HEALTH CARE INC",
    "contactEmail": "ENDURABLEHOMEHEALTH@GMAIL.COM",
    "categoryName": "HOME HEALTH AGENCY",
    "categoryCode": "HHA",
    "licenseStatus": "ACTIVE",
    "inService": true,
    "licenseNumber": "550008452",
    "licenseEffectiveDate": "09/21/2023",
    "licenseExpirationDate": "03/20/2024",
    "dataDate": "10/18/2025",
    "capacity": 0,
    "address": "5010 W SUNSET BLVD, SUITE 107",
    "city": "LOS ANGELES",
    "zip": "90027",
    "county": "LOS ANGELES",
    "phone": "(800) 417-0815",
    "lat": 34.097877,
    "lng": -118.298808
  },
  {
    "id": "630024908",
    "name": "FOR LIFE HOME HEALTH CARE INC.",
    "npi": null,
    "hcaiId": "406196283",
    "businessName": "FOR LIFE HOME HEALTH CARE INC.",
    "contactEmail": "FORLIFEHHC@GMAIL.COM",
    "categoryName": "HOME HEALTH AGENCY",
    "categoryCode": "HHA",
    "licenseStatus": "ACTIVE",
    "inService": true,
    "licenseNumber": "550008445",
    "licenseEffectiveDate": "08/10/2023",
    "licenseExpirationDate": "02/09/2024",
    "dataDate": "10/18/2025",
    "capacity": 0,
    "address": "5010 W SUNSET BLVD, UNIT 102",
    "city": "LOS ANGELES",
    "zip": "90027",
    "county": "LOS ANGELES",
    "phone": "(818) 935-9925",
    "lat": 34.097877,
    "lng": -118.298808
  },
  {
    "id": "630025478",
    "name": "GOLDEN GATES HOME HEALTH",
    "npi": null,
    "hcaiId": null,
    "businessName": "GOLDEN GATES HOME HEALTH",
    "contactEmail": "GOLDENGATESHH@GMAIL.COM",
    "categoryName": "HOME HEALTH AGENCY",
    "categoryCode": "HHA",
    "licenseStatus": "ACTIVE",
    "inService": true,
    "licenseNumber": "550008667",
    "licenseEffectiveDate": "07/22/2023",
    "licenseExpirationDate": "01/21/2024",
    "dataDate": "10/18/2025",
    "capacity": 0,
    "address": "5106 HOLLYWOOD BLVD, UNIT 201",
    "city": "LOS ANGELES",
    "zip": "90027",
    "county": "LOS ANGELES",
    "phone": "(323) 539-3227",
    "lat": 34.101585,
    "lng": -118.300914
  },
  {
    "id": "630014529",
    "name": "GOLDEN STATE HOMES, INC.",
    "npi": null,
    "hcaiId": "206198359",
    "businessName": "GOLDEN STATE HOMES, INC.",
    "contactEmail": "SBANZUELA@GMAIL.COM",
    "categoryName": "CONGREGATE LIVING HEALTH FACILITY",
    "categoryCode": "CLHF",
    "licenseStatus": "ACTIVE",
    "inService": true,
    "licenseNumber": "550003595",
    "licenseEffectiveDate": "07/22/2025",
    "licenseExpirationDate": "07/21/2026",
    "dataDate": "10/18/2025",
    "capacity": 6,
    "address": "1409 N. NORMANDIE AVE.",
    "city": "LOS ANGELES",
    "zip": "90027",
    "county": "LOS ANGELES",
    "phone": "(626) 221-8801",
    "lat": 34.097013,
    "lng": -118.300797
  },
  {
    "id": "630021842",
    "name": "HILLHURST HOME HEALTH CARE, INC.",
    "npi": null,
    "hcaiId": "406193170",
    "businessName": "HILLHURST HOME HEALTH CARE, INC.",
    "contactEmail": "HILLHURSTHH@GMAIL.COM",
    "categoryName": "HOME HEALTH AGENCY",
    "categoryCode": "HHA",
    "licenseStatus": "ACTIVE",
    "inService": true,
    "licenseNumber": "550006980",
    "licenseEffectiveDate": "10/02/2025",
    "licenseExpirationDate": "10/01/2026",
    "dataDate": "10/18/2025",
    "capacity": 0,
    "address": "1670 HILLHURST AVE, SUITE 202",
    "city": "LOS ANGELES",
    "zip": "90027",
    "county": "LOS ANGELES",
    "phone": "(949) 771-1997",
    "lat": 34.10145,
    "lng": -118.287216
  },
  {
    "id": "630021706",
    "name": "HILLHURST HOSPICE, INC.",
    "npi": null,
    "hcaiId": "406194888",
    "businessName": "HILLHURST HOSPICE, INC.",
    "contactEmail": "HHPICE@GMAIL.COM",
    "categoryName": "HOSPICE",
    "categoryCode": "HOSPICE",
    "licenseStatus": "ACTIVE",
    "inService": true,
    "licenseNumber": "550007331",
    "licenseEffectiveDate": "11/23/2025",
    "licenseExpirationDate": "11/22/2027",
    "dataDate": "10/18/2025",
    "capacity": 0,
    "address": "1670 HILLHURST AVE, SUITE 203",
    "city": "LOS ANGELES",
    "zip": "90027",
    "county": "LOS ANGELES",
    "phone": "(949) 744-5025",
    "lat": 34.10145,
    "lng": -118.287216
  },
  {
    "id": "930001617",
    "name": "HOLLYWOOD DIALYSIS CENTER",
    "npi": "1700845286",
    "hcaiId": "306194998",
    "businessName": "GREATER LOS ANGELES DIALYSIS CENTERS, LLC",
    "contactEmail": "CAL_C@DAVITA.COM",
    "categoryName": "CHRONIC DIALYSIS CLINIC",
    "categoryCode": "ESRD/CDC",
    "licenseStatus": "ACTIVE",
    "inService": true,
    "licenseNumber": "930000899",
    "licenseEffectiveDate": "05/01/2025",
    "licenseExpirationDate": "04/30/2026",
    "dataDate": "10/18/2025",
    "capacity": 20,
    "address": "5108 W SUNSET BLVD",
    "city": "LOS ANGELES",
    "zip": "90027",
    "county": "LOS ANGELES",
    "phone": "(323) 913-4010",
    "lat": 34.097958,
    "lng": -118.3009545
  },
  {
    "id": "930000065",
    "name": "HOLLYWOOD PRESBYTERIAN MEDICAL CENTER",
    "npi": "1922033547",
    "hcaiId": "106190382",
    "businessName": "CHA HOLLYWOOD MEDICAL CENTER, L.P.",
    "contactEmail": "JAMIE.YOO@HPMEDCENTER.COM",
    "categoryName": "GENERAL ACUTE CARE HOSPITAL",
    "categoryCode": "GACH",
    "licenseStatus": "ACTIVE",
    "inService": true,
    "licenseNumber": "930000067",
    "licenseEffectiveDate": "02/01/2025",
    "licenseExpirationDate": "12/31/2025",
    "dataDate": "10/18/2025",
    "capacity": 345,
    "address": "1300 N VERMONT AVE",
    "city": "LOS ANGELES",
    "zip": "90027",
    "county": "LOS ANGELES",
    "phone": "(323) 913-4914",
    "lat": 34.096221,
    "lng": -118.290582
  },
  {
    "id": "630019849",
    "name": "JWCH INSTITUTE INC. (COVENANT HOUSE)",
    "npi": "1407808058",
    "hcaiId": null,
    "businessName": "JWCH INSTITUTE, INC.",
    "contactEmail": null,
    "categoryName": "PRIMARY CARE CLINIC",
    "categoryCode": "COMTYC",
    "licenseStatus": "ACTIVE",
    "inService": true,
    "licenseNumber": "960001280",
    "licenseEffectiveDate": "11/30/2024",
    "licenseExpirationDate": "11/29/2025",
    "dataDate": "10/18/2025",
    "capacity": 0,
    "address": "1325 N WESTERN AVE",
    "city": "LOS ANGELES",
    "zip": "90027",
    "county": "LOS ANGELES",
    "phone": null,
    "lat": 34.09542,
    "lng": -118.3094055
  },
  {
    "id": "930000072",
    "name": "KAISER FOUNDATION HOSPITAL - LOS ANGELES",
    "npi": "1821143777",
    "hcaiId": "106190429",
    "businessName": "KAISER FOUNDATION HOSPITALS",
    "contactEmail": "SHEETAL.X.PENDHARKAR@KP.ORG",
    "categoryName": "GENERAL ACUTE CARE HOSPITAL",
    "categoryCode": "GACH",
    "licenseStatus": "ACTIVE",
    "inService": true,
    "licenseNumber": "930000077",
    "licenseEffectiveDate": "11/01/2025",
    "licenseExpirationDate": "10/31/2026",
    "dataDate": "10/18/2025",
    "capacity": 492,
    "address": "4867 W SUNSET BLVD",
    "city": "LOS ANGELES",
    "zip": "90027",
    "county": "LOS ANGELES",
    "phone": "(323) 783-7240",
    "lat": 34.098318,
    "lng": -118.2956445
  },
  {
    "id": "630024735",
    "name": "KAISER FOUNDATION HOSPITALS-LOS ANGELES MEDICAL CENTER ESRD",
    "npi": null,
    "hcaiId": null,
    "businessName": "KAISER FOUNDATION HOSPITALS",
    "contactEmail": null,
    "categoryName": "CHRONIC DIALYSIS CLINIC",
    "categoryCode": "ESRD",
    "licenseStatus": "ACTIVE",
    "inService": true,
    "licenseNumber": "930000077",
    "licenseEffectiveDate": "11/01/2025",
    "licenseExpirationDate": "10/31/2026",
    "dataDate": "10/18/2025",
    "capacity": 0,
    "address": "4700 W SUNSET BLVD, 2ND FLOOR",
    "city": "LOS ANGELES",
    "zip": "90027",
    "county": "LOS ANGELES",
    "phone": null,
    "lat": 34.097886,
    "lng": -118.2919365
  },
  {
    "id": "630021890",
    "name": "LA SPECIAL CARE HOSPICE INC",
    "npi": null,
    "hcaiId": "406193918",
    "businessName": "LA SPECIAL CARE HOSPICE INC",
    "contactEmail": "LASPECIALHOSPICECARE@GMAIL.COM",
    "categoryName": "HOSPICE",
    "categoryCode": "HOSPICE",
    "licenseStatus": "ACTIVE",
    "inService": true,
    "licenseNumber": "550007229",
    "licenseEffectiveDate": "11/18/2023",
    "licenseExpirationDate": "11/17/2025",
    "dataDate": "10/18/2025",
    "capacity": 0,
    "address": "5106 HOLLYWOOD BLVD, SUITE 103",
    "city": "LOS ANGELES",
    "zip": "90027",
    "county": "LOS ANGELES",
    "phone": "(323) 928-2001",
    "lat": 34.101585,
    "lng": -118.300914
  },
  {
    "id": "630024783",
    "name": "MAGNIFENT HOME HEALTH CARE, INC.",
    "npi": null,
    "hcaiId": "406196510",
    "businessName": "MAGNIFENT HOME HEALTH CARE, INC.",
    "contactEmail": "MAGNIFENTHOMEHEALTH@GMAIL.COM",
    "categoryName": "HOME HEALTH AGENCY",
    "categoryCode": "HHA",
    "licenseStatus": "ACTIVE",
    "inService": true,
    "licenseNumber": "550008450",
    "licenseEffectiveDate": "09/21/2023",
    "licenseExpirationDate": "03/20/2024",
    "dataDate": "10/18/2025",
    "capacity": 0,
    "address": "5012 W SUNSET BLVD, UNIT 203",
    "city": "LOS ANGELES",
    "zip": "90027",
    "county": "LOS ANGELES",
    "phone": "(800) 471-1035",
    "lat": 34.097877,
    "lng": -118.2988575
  },
  {
    "id": "630016146",
    "name": "NEW ROSE HOME HEALTH CARE, INC.",
    "npi": null,
    "hcaiId": "406190853",
    "businessName": "NEW ROSE HOME HEALTH CARE, INC.",
    "contactEmail": "NEWROSEHHC@GMAIL.COM",
    "categoryName": "HOME HEALTH AGENCY",
    "categoryCode": "HHA",
    "licenseStatus": "ACTIVE",
    "inService": true,
    "licenseNumber": "550004104",
    "licenseEffectiveDate": "11/29/2024",
    "licenseExpirationDate": "11/28/2025",
    "dataDate": "10/18/2025",
    "capacity": 0,
    "address": "4645 HOLLYWOOD BLVD, SUITE 5",
    "city": "LOS ANGELES",
    "zip": "90027",
    "county": "LOS ANGELES",
    "phone": "(818) 305-6555",
    "lat": 34.100496,
    "lng": -118.2902985
  },
  {
    "id": "630025486",
    "name": "OPTIMUM TOUCH HOME HEALTH CARE INC",
    "npi": null,
    "hcaiId": null,
    "businessName": "OPTIMUM TOUCH HOME HEALTH CARE INC",
    "contactEmail": "OPTIMUMTOUCHHOMEHEALTHCARE@GMAIL.COM",
    "categoryName": "HOME HEALTH AGENCY",
    "categoryCode": "HHA",
    "licenseStatus": "ACTIVE",
    "inService": true,
    "licenseNumber": "550008652",
    "licenseEffectiveDate": "05/30/2023",
    "licenseExpirationDate": "11/29/2023",
    "dataDate": "10/18/2025",
    "capacity": 0,
    "address": "5140 HOLLYWOOD BLVD",
    "city": "LOS ANGELES",
    "zip": "90027",
    "county": "LOS ANGELES",
    "phone": "(323) 660-1130",
    "lat": 34.101396,
    "lng": -118.301724
  },
  {
    "id": "630020513",
    "name": "PROSPECT HOME HEALTH INC",
    "npi": null,
    "hcaiId": "406196219",
    "businessName": "PROSPECT HOME HEALTH INC",
    "contactEmail": "PROSPECTHOMEHEALTHINC@GMAIL.COM",
    "categoryName": "HOME HEALTH AGENCY",
    "categoryCode": "HHA",
    "licenseStatus": "ACTIVE",
    "inService": true,
    "licenseNumber": "550008399",
    "licenseEffectiveDate": "02/21/2025",
    "licenseExpirationDate": "02/20/2026",
    "dataDate": "10/18/2025",
    "capacity": 0,
    "address": "1710 HILLHURST AVE, SUITE 201",
    "city": "LOS ANGELES",
    "zip": "90027",
    "county": "LOS ANGELES",
    "phone": "(323) 741-0300",
    "lat": 34.10210973,
    "lng": -118.28737
  },
  {
    "id": "630020812",
    "name": "ROYAL HOLLYWOOD HEALTHCARE, INC.",
    "npi": null,
    "hcaiId": "406193545",
    "businessName": "ROYAL HOLLYWOOD HEALTHCARE, INC.",
    "contactEmail": "ROYALHOLLYWOODHEALTHCARE@GMAIL.COM",
    "categoryName": "HOME HEALTH AGENCY",
    "categoryCode": "HHA",
    "licenseStatus": "ACTIVE",
    "inService": true,
    "licenseNumber": "550006477",
    "licenseEffectiveDate": "07/02/2024",
    "licenseExpirationDate": "07/01/2025",
    "dataDate": "10/18/2025",
    "capacity": 0,
    "address": "5068 HOLLYWOOD BLVD, SUITE A",
    "city": "LOS ANGELES",
    "zip": "90027",
    "county": "LOS ANGELES",
    "phone": "(323) 660-0055",
    "lat": 34.10154,
    "lng": -118.3002705
  },
  {
    "id": "630016758",
    "name": "SIGNATURE HOME HEALTH CARE SERVICES, INC.",
    "npi": null,
    "hcaiId": "406190687",
    "businessName": "SIGNATURE HOME HEALTH CARE SERVICES, INC.",
    "contactEmail": "SIGNATUREHHC@YAHOO.COM",
    "categoryName": "HOME HEALTH AGENCY",
    "categoryCode": "HHA",
    "licenseStatus": "ACTIVE",
    "inService": true,
    "licenseNumber": "550004126",
    "licenseEffectiveDate": "01/12/2025",
    "licenseExpirationDate": "01/11/2026",
    "dataDate": "10/18/2025",
    "capacity": 0,
    "address": "1710 HILLHURST AVENUE, SUITE 202",
    "city": "LOS ANGELES",
    "zip": "90027",
    "county": "LOS ANGELES",
    "phone": "(323) 284-8717",
    "lat": 34.10210973,
    "lng": -118.28737
  },
  {
    "id": "630018040",
    "name": "SUNSET HEALTHCARE INC",
    "npi": "1194215251",
    "hcaiId": "406192157",
    "businessName": "SUNSET HEALTHCARE INC",
    "contactEmail": "SUNSETHEALTHCAREINC@GMAIL.COM",
    "categoryName": "HOME HEALTH AGENCY",
    "categoryCode": "HHA",
    "licenseStatus": "ACTIVE",
    "inService": true,
    "licenseNumber": "550004852",
    "licenseEffectiveDate": "08/13/2025",
    "licenseExpirationDate": "08/12/2026",
    "dataDate": "10/18/2025",
    "capacity": 0,
    "address": "1917 HILLHURST AVE, SUITE 101B",
    "city": "LOS ANGELES",
    "zip": "90027",
    "county": "LOS ANGELES",
    "phone": "(323) 480-4313",
    "lat": 34.10603317,
    "lng": -118.287874
  },
  {
    "id": "630020028",
    "name": "SUNSET HOSPICE SERVICES, INC.",
    "npi": null,
    "hcaiId": "406196076",
    "businessName": "SUNSET HOSPICE SERVICES, INC.",
    "contactEmail": "SUNSETHOSPICEINC@GMAIL.COM",
    "categoryName": "HOSPICE",
    "categoryCode": "HOSPICE",
    "licenseStatus": "ACTIVE",
    "inService": true,
    "licenseNumber": "550005927",
    "licenseEffectiveDate": "05/19/2025",
    "licenseExpirationDate": "12/08/2026",
    "dataDate": "10/18/2025",
    "capacity": 0,
    "address": "1917 HILLHURST AVE, SUITE 101A",
    "city": "LOS ANGELES",
    "zip": "90027",
    "county": "LOS ANGELES",
    "phone": "(323) 685-6577",
    "lat": 34.10602601,
    "lng": -118.287832
  }
]