[
  {
    "id": "930000191",
    "name": "ADVENTIST HEALTH WHITE MEMORIAL",
    "npi": "1215927470",
    "hcaiId": "106190878",
    "businessName": "WHITE MEMORIAL MEDICAL CENTER",
    "contactEmail": "BRYANTMC@AH.ORG",
    "categoryName": "GENERAL ACUTE CARE HOSPITAL",
    "categoryCode": "GACH",
    "licenseStatus": "ACTIVE",
    "inService": true,
    "licenseNumber": "930000195",
    "licenseEffectiveDate": "11/01/2024",
    "licenseExpirationDate": "10/31/2025",
    "dataDate": "10/18/2025",
    "capacity": 293,
    "address": "1720 E CESAR E CHAVEZ AVE",
    "city": "LOS ANGELES",
    "zip": "90033",
    "county": "LOS ANGELES",
    "phone": "(323) 268-5000",
    "lat": 34.050735,
    "lng": -118.216962
  },
  {
    "id": "630017761",
    "name": "ALLIANCE SURGERY PARTNERS",
    "npi": "1972055382",
    "hcaiId": null,
    "businessName": null,
    "contactEmail": null,
    "categoryName": "SURGICAL CLINIC",
    "categoryCode": "ASC",
    "licenseStatus": null,
    "inService": null,
    "licenseNumber": null,
    "licenseEffectiveDate": null,
    "licenseExpirationDate": null,
    "dataDate": "10/18/2025",
    "capacity": 0,
    "address": "1828 E CESAR CHAVEZ AVE, SUITE 6500",
    "city": "LOS ANGELES",
    "zip": "90033",
    "county": "LOS ANGELES",
    "phone": "(323) 263-6774",
    "lat": 34.049952,
    "lng": -118.215657
  },
  {
    "id": "630013754",
    "name": "ALTAMED MEDICAL&DENTAL GROUP - EAST LOS ANGELES, 1ST STREET",
    "npi": "1134492937",
    "hcaiId": "306197668",
    "businessName": "ALTAMED HEALTH SERVICES CORPORATION",
    "contactEmail": "GTREJO@ALTAMED.ORG",
    "categoryName": "PRIMARY CARE CLINIC",
    "categoryCode": "COMTYC",
    "licenseStatus": "ACTIVE",
    "inService": true,
    "licenseNumber": "550001974",
    "licenseEffectiveDate": "06/29/2025",
    "licenseExpirationDate": "06/28/2026",
    "dataDate": "10/18/2025",
    "capacity": 0,
    "address": "2219 E 1ST ST",
    "city": "LOS ANGELES",
    "zip": "90033",
    "county": "LOS ANGELES",
    "phone": "(323) 647-6204",
    "lat": 34.044777,
    "lng": -118.211508
  },
  {
    "id": "960001816",
    "name": "BAART COMMUNITY HEALTHCARE",
    "npi": "1346450103",
    "hcaiId": "306194670",
    "businessName": "BAART COMMUNITY HEALTHCARE",
    "contactEmail": "JFERNANDEZ@BAARTPROGRAMS.COM",
    "categoryName": "PRIMARY CARE CLINIC",
    "categoryCode": "COMTYC",
    "licenseStatus": "ACTIVE",
    "inService": true,
    "licenseNumber": "960000883",
    "licenseEffectiveDate": "12/15/2024",
    "licenseExpirationDate": "12/14/2025",
    "dataDate": "10/18/2025",
    "capacity": 0,
    "address": "1701 ZONAL AVE",
    "city": "LOS ANGELES",
    "zip": "90033",
    "county": "LOS ANGELES",
    "phone": "(323) 223-6298",
    "lat": 34.061994,
    "lng": -118.21023
  },
  {
    "id": "630014321",
    "name": "BOYLE HEIGHTS DIALYSIS",
    "npi": "1811235161",
    "hcaiId": "306197836",
    "businessName": "TOTAL RENAL CARE, INC.",
    "contactEmail": "CAL_C@DAVITA.COM",
    "categoryName": "CHRONIC DIALYSIS CLINIC",
    "categoryCode": "ESRD/CDC",
    "licenseStatus": "ACTIVE",
    "inService": true,
    "licenseNumber": "550002376",
    "licenseEffectiveDate": "08/26/2025",
    "licenseExpirationDate": "08/25/2026",
    "dataDate": "10/18/2025",
    "capacity": 28,
    "address": "1936 E 1ST ST",
    "city": "LOS ANGELES",
    "zip": "90033",
    "county": "LOS ANGELES",
    "phone": "(323) 268-2729",
    "lat": 34.045677,
    "lng": -118.2163815
  },
  {
    "id": "960002812",
    "name": "CLINICA MONSENOR OSCAR A. ROMERO",
    "npi": null,
    "hcaiId": "306196513",
    "businessName": "CLINICA MSR. OSCAR A ROMERO",
    "contactEmail": "CVAQUERANO@CLINICAROMERO.COM",
    "categoryName": "PRIMARY CARE CLINIC",
    "categoryCode": "COMTYC",
    "licenseStatus": "ACTIVE",
    "inService": true,
    "licenseNumber": "960001398",
    "licenseEffectiveDate": "11/07/2025",
    "licenseExpirationDate": "11/06/2026",
    "dataDate": "10/18/2025",
    "capacity": 0,
    "address": "2032 MARENGO ST",
    "city": "LOS ANGELES",
    "zip": "90033",
    "county": "LOS ANGELES",
    "phone": "(323) 987-1030",
    "lat": 34.05668628,
    "lng": -118.2076919
  },
  {
    "id": "630011317",
    "name": "COMPLETE CARE COMMUNITY HEALTH CENTER",
    "npi": "1215113964",
    "hcaiId": "306197050",
    "businessName": "COMPLETE CARE COMMUNITY HEALTH CENTER, INC.",
    "contactEmail": "K@CCCHCLINIC.COM",
    "categoryName": "PRIMARY CARE CLINIC",
    "categoryCode": "COMTYC",
    "licenseStatus": "ACTIVE",
    "inService": true,
    "licenseNumber": "550000639",
    "licenseEffectiveDate": "12/10/2024",
    "licenseExpirationDate": "12/09/2025",
    "dataDate": "10/18/2025",
    "capacity": 0,
    "address": "2928 E CESAR E CHAVEZ AVE",
    "city": "LOS ANGELES",
    "zip": "90033",
    "county": "LOS ANGELES",
    "phone": "(323) 266-6700",
    "lat": 34.043364,
    "lng": -118.2008385
  },
  {
    "id": "930000233",
    "name": "EAST LA PLAZA DIALYSIS",
    "npi": "1235104159",
    "hcaiId": "306196741",
    "businessName": "DVA HEALTHCARE RENAL CARE, INC.",
    "contactEmail": "CAL_C@DAVITA.COM",
    "categoryName": "CHRONIC DIALYSIS CLINIC",
    "categoryCode": "ESRD/CDC",
    "licenseStatus": "ACTIVE",
    "inService": true,
    "licenseNumber": "930000341",
    "licenseEffectiveDate": "11/26/2024",
    "licenseExpirationDate": "11/25/2025",
    "dataDate": "10/18/2025",
    "capacity": 33,
    "address": "1700 E CESAR E CHAVEZ AVE, SUITE L 100",
    "city": "LOS ANGELES",
    "zip": "90033",
    "county": "LOS ANGELES",
    "phone": "(323) 261-0484",
    "lat": 34.050933,
    "lng": -118.2175335
  },
  {
    "id": "970000156",
    "name": "HOLLENBECK PALMS",
    "npi": "1831186345",
    "hcaiId": "206190378",
    "businessName": "HOLLENBECK PALMS",
    "contactEmail": "MSHOCKLEY@HOLPALMS.COM",
    "categoryName": "SKILLED NURSING FACILITY",
    "categoryCode": "SNF",
    "licenseStatus": "ACTIVE",
    "inService": true,
    "licenseNumber": "970000076",
    "licenseEffectiveDate": "05/31/2025",
    "licenseExpirationDate": "05/30/2026",
    "dataDate": "10/18/2025",
    "capacity": 59,
    "address": "573 S BOYLE AVE",
    "city": "LOS ANGELES",
    "zip": "90033",
    "county": "LOS ANGELES",
    "phone": "(323) 263-6195",
    "lat": 34.04034,
    "lng": -118.219977
  },
  {
    "id": "970000070",
    "name": "INFINITY CARE OF EAST LOS ANGELES",
    "npi": "1659552289",
    "hcaiId": "206190255",
    "businessName": "INFINITY CARE OF EAST LA",
    "contactEmail": "SAMIN@INFINITY-CARE.COM",
    "categoryName": "SKILLED NURSING FACILITY",
    "categoryCode": "SNF",
    "licenseStatus": "ACTIVE",
    "inService": true,
    "licenseNumber": "970000035",
    "licenseEffectiveDate": "11/17/2024",
    "licenseExpirationDate": "11/16/2025",
    "dataDate": "10/18/2025",
    "capacity": 99,
    "address": "101 S FICKETT ST",
    "city": "LOS ANGELES",
    "zip": "90033",
    "county": "LOS ANGELES",
    "phone": "(323) 261-8108",
    "lat": 34.042419,
    "lng": -118.207683
  },
  {
    "id": "930000912",
    "name": "KECK HOSPITAL OF USC",
    "npi": "1013514199",
    "hcaiId": "106194219",
    "businessName": "KECK MEDICAL CENTER OF USC",
    "contactEmail": "SLHALL@MED.USC.EDU",
    "categoryName": "GENERAL ACUTE CARE HOSPITAL",
    "categoryCode": "GACH",
    "licenseStatus": "ACTIVE",
    "inService": true,
    "licenseNumber": "930000459",
    "licenseEffectiveDate": "10/10/2025",
    "licenseExpirationDate": "03/30/2026",
    "dataDate": "10/18/2025",
    "capacity": 343,
    "address": "1500 SAN PABLO ST",
    "city": "LOS ANGELES",
    "zip": "90033",
    "county": "LOS ANGELES",
    "phone": "(323) 442-9939",
    "lat": 34.061976,
    "lng": -118.202661
  },
  {
    "id": "630014094",
    "name": "LOS ANGELES CHRISTIAN HEALTH CENTERS - EXODUS RECOVERY - ICM",
    "npi": "1497009245",
    "hcaiId": "306197828",
    "businessName": "LOS ANGELES CHRISTIAN HEALTH CENTERS",
    "contactEmail": "BLEWIS@LACHC.COM",
    "categoryName": "PRIMARY CARE CLINIC",
    "categoryCode": "FQHC/COMTYC",
    "licenseStatus": "ACTIVE",
    "inService": true,
    "licenseNumber": "550000820",
    "licenseEffectiveDate": "03/06/2025",
    "licenseExpirationDate": "03/05/2026",
    "dataDate": "10/18/2025",
    "capacity": 0,
    "address": "1920 MARENGO ST",
    "city": "LOS ANGELES",
    "zip": "90033",
    "county": "LOS ANGELES",
    "phone": "(323) 276-6450",
    "lat": 34.057386,
    "lng": -118.209645
  },
  {
    "id": "060000040",
    "name": "LOS ANGELES GENERAL MEDICAL CENTER",
    "npi": "1093728743",
    "hcaiId": "106191228",
    "businessName": "LOS ANGELES COUNTY DEPARTMENT OF HEALTH SERVICES",
    "contactEmail": "MTORRES7@DHS.LACOUNTY.GOV",
    "categoryName": "GENERAL ACUTE CARE HOSPITAL",
    "categoryCode": "GACH",
    "licenseStatus": "ACTIVE",
    "inService": true,
    "licenseNumber": "060000130",
    "licenseEffectiveDate": "06/30/2025",
    "licenseExpirationDate": "03/31/2026",
    "dataDate": "10/18/2025",
    "capacity": 600,
    "address": "2051 MARENGO ST, ROOM C2K100",
    "city": "LOS ANGELES",
    "zip": "90033",
    "county": "LOS ANGELES",
    "phone": "(323) 409-7572",
    "lat": 34.05627769,
    "lng": -118.2064778
  },
  {
    "id": "060000917",
    "name": "LOS ANGELES GENERAL MEDICAL CENTER",
    "npi": "1093728743",
    "hcaiId": null,
    "businessName": "LOS ANGELES COUNTY DEPARTMENT OF HEALTH SERVICES",
    "contactEmail": null,
    "categoryName": "OTHER",
    "categoryCode": "PPSPSCH",
    "licenseStatus": "ACTIVE",
    "inService": true,
    "licenseNumber": "060000130",
    "licenseEffectiveDate": "06/30/2025",
    "licenseExpirationDate": "03/31/2026",
    "dataDate": "10/18/2025",
    "capacity": 0,
    "address": "2051 MARENGO ST",
    "city": "LOS ANGELES",
    "zip": "90033",
    "county": "LOS ANGELES",
    "phone": null,
    "lat": 34.05630603,
    "lng": -118.2065222
  },
  {
    "id": "060000700",
    "name": "LOS ANGELES GENERAL MEDICAL CENTER D/P APH",
    "npi": "1093728743",
    "hcaiId": null,
    "businessName": "LOS ANGELES COUNTY DEPARTMENT OF HEALTH SERVICES",
    "contactEmail": null,
    "categoryName": "ACUTE PSYCHIATRIC HOSPITAL",
    "categoryCode": "APH",
    "licenseStatus": "ACTIVE",
    "inService": true,
    "licenseNumber": "060000130",
    "licenseEffectiveDate": "06/30/2025",
    "licenseExpirationDate": "03/31/2026",
    "dataDate": "10/18/2025",
    "capacity": 76,
    "address": "2051 MARENGO ST",
    "city": "LOS ANGELES",
    "zip": "90033",
    "county": "LOS ANGELES",
    "phone": "(323) 226-6853",
    "lat": 34.05630603,
    "lng": -118.2065222
  },
  {
    "id": "630022266",
    "name": "MI CENTRO",
    "npi": "1548298532",
    "hcaiId": null,
    "businessName": "LOS ANGELES LGBT CENTER",
    "contactEmail": null,
    "categoryName": "PRIMARY CARE CLINIC",
    "categoryCode": "COMTYC",
    "licenseStatus": "ACTIVE",
    "inService": true,
    "licenseNumber": "960000834",
    "licenseEffectiveDate": "06/23/2025",
    "licenseExpirationDate": "06/22/2026",
    "dataDate": "10/18/2025",
    "capacity": 0,
    "address": "553 S CLARENCE ST, SUITE 6",
    "city": "LOS ANGELES",
    "zip": "90033",
    "county": "LOS ANGELES",
    "phone": null,
    "lat": 34.039296,
    "lng": -118.2234555
  },
  {
    "id": "630011613",
    "name": "PICO ALISO COMMUNITY CLINIC",
    "npi": null,
    "hcaiId": "306197168",
    "businessName": "LOS ANGELES CHRISTIAN HEALTH CENTERS",
    "contactEmail": "BLEWIS@LACHC.COM",
    "categoryName": "PRIMARY CARE CLINIC",
    "categoryCode": "COMTYC",
    "licenseStatus": "ACTIVE",
    "inService": true,
    "licenseNumber": "550000820",
    "licenseEffectiveDate": "03/06/2025",
    "licenseExpirationDate": "03/05/2026",
    "dataDate": "10/18/2025",
    "capacity": 0,
    "address": "1625 E 4TH ST",
    "city": "LOS ANGELES",
    "zip": "90033",
    "county": "LOS ANGELES",
    "phone": "(213) 893-1960",
    "lat": 34.043103,
    "lng": -118.2218625
  },
  {
    "id": "960000198",
    "name": "PLANNED PARENTHOOD LOS ANGELES - BIXBY CENTER",
    "npi": null,
    "hcaiId": "306191082",
    "businessName": "PLANNED PARENTHOOD LOS ANGELES",
    "contactEmail": null,
    "categoryName": "PRIMARY CARE CLINIC",
    "categoryCode": "COMTYC",
    "licenseStatus": "ACTIVE",
    "inService": true,
    "licenseNumber": "550000047",
    "licenseEffectiveDate": "11/28/2024",
    "licenseExpirationDate": "11/27/2025",
    "dataDate": "10/18/2025",
    "capacity": 0,
    "address": "1057 KINGSTON AVE",
    "city": "LOS ANGELES",
    "zip": "90033",
    "county": "LOS ANGELES",
    "phone": "(213) 284-3111",
    "lat": 34.057134,
    "lng": -118.209654
  },
  {
    "id": "980002384",
    "name": "SIERRA HOME HEALTH CARE SERVICES, INC.",
    "npi": "1699742601",
    "hcaiId": "406196376",
    "businessName": "SIERRA HOME HEALTH CARE SERVICES, INC.",
    "contactEmail": "SIERRAHOMEHEALTH@HOTMAIL.COM",
    "categoryName": "HOME HEALTH AGENCY",
    "categoryCode": "HHA",
    "licenseStatus": "ACTIVE",
    "inService": true,
    "licenseNumber": "980001494",
    "licenseEffectiveDate": "12/09/2025",
    "licenseExpirationDate": "12/08/2026",
    "dataDate": "10/18/2025",
    "capacity": 0,
    "address": "2064 MARENGO ST, #400",
    "city": "LOS ANGELES",
    "zip": "90033",
    "county": "LOS ANGELES",
    "phone": "(323) 222-1235",
    "lat": 34.05585001,
    "lng": -118.206511
  },
  {
    "id": "630026873",
    "name": "ST. JOHN'S COMMUNITY HEALTH",
    "npi": null,
    "hcaiId": null,
    "businessName": "ST. JOHN'S COMMUNITY HEALTH",
    "contactEmail": null,
    "categoryName": "PRIMARY CARE CLINIC",
    "categoryCode": "COMTYC",
    "licenseStatus": "ACTIVE",
    "inService": true,
    "licenseNumber": "550001120",
    "licenseEffectiveDate": "11/03/2025",
    "licenseExpirationDate": "11/02/2026",
    "dataDate": "10/18/2025",
    "capacity": 0,
    "address": "1321 E 1ST ST",
    "city": "LOS ANGELES",
    "zip": "90033",
    "county": "LOS ANGELES",
    "phone": null,
    "lat": 34.047891,
    "lng": -118.22589
  },
  {
    "id": "630027330",
    "name": "ST. JOHNâ€™S COMMUNITY HEALTH - ROOSEVELT HEALTH CENTER",
    "npi": "1285874826",
    "hcaiId": null,
    "businessName": "ST. JOHN'S COMMUNITY HEALTH",
    "contactEmail": null,
    "categoryName": "PRIMARY CARE CLINIC",
    "categoryCode": "COMTYC",
    "licenseStatus": "ACTIVE",
    "inService": true,
    "licenseNumber": "550001120",
    "licenseEffectiveDate": "11/03/2025",
    "licenseExpirationDate": "11/02/2026",
    "dataDate": "10/18/2025",
    "capacity": 0,
    "address": "444 S MATHEWS ST",
    "city": "LOS ANGELES",
    "zip": "90033",
    "county": "LOS ANGELES",
    "phone": null,
    "lat": 34.03898206,
    "lng": -118.2113349
  },
  {
    "id": "930001605",
    "name": "TRC/USC KIDNEY CENTER",
    "npi": "1639132772",
    "hcaiId": "306194979",
    "businessName": "USC-DAVITA DIALYSIS CENTER, LLC",
    "contactEmail": "CAL_C@DAVITA.COM",
    "categoryName": "CHRONIC DIALYSIS CLINIC",
    "categoryCode": "ESRD/CDC",
    "licenseStatus": "ACTIVE",
    "inService": true,
    "licenseNumber": "930000896",
    "licenseEffectiveDate": "11/01/2025",
    "licenseExpirationDate": "10/31/2026",
    "dataDate": "10/18/2025",
    "capacity": 63,
    "address": "2310 ALCAZAR ST",
    "city": "LOS ANGELES",
    "zip": "90033",
    "county": "LOS ANGELES",
    "phone": "(323) 441-9966",
    "lat": 34.062291,
    "lng": -118.1988855
  },
  {
    "id": "960002829",
    "name": "UNIVERSAL HEALTH FOUNDATION",
    "npi": null,
    "hcaiId": "306196527",
    "businessName": "UNIVERSAL HEALTH FOUNDATION",
    "contactEmail": "ADMIN@UHF-CARE.ORG",
    "categoryName": "PRIMARY CARE CLINIC",
    "categoryCode": "COMTYC",
    "licenseStatus": "ACTIVE",
    "inService": true,
    "licenseNumber": "960001411",
    "licenseEffectiveDate": "11/04/2024",
    "licenseExpirationDate": "11/03/2025",
    "dataDate": "10/18/2025",
    "capacity": 0,
    "address": "2020 E 1ST ST",
    "city": "LOS ANGELES",
    "zip": "90033",
    "county": "LOS ANGELES",
    "phone": "(323) 980-9600",
    "lat": 34.044966,
    "lng": -118.2143385
  },
  {
    "id": "630026939",
    "name": "WESLEY HEALTH CENTERS - ZONAL AVE",
    "npi": null,
    "hcaiId": null,
    "businessName": "JWCH INSTITUTE, INC.",
    "contactEmail": null,
    "categoryName": "PRIMARY CARE CLINIC",
    "categoryCode": "COMTYC",
    "licenseStatus": "ACTIVE",
    "inService": true,
    "licenseNumber": "960001280",
    "licenseEffectiveDate": "11/30/2024",
    "licenseExpirationDate": "11/29/2025",
    "dataDate": "10/18/2025",
    "capacity": 0,
    "address": "1774 ZONAL AVE",
    "city": "LOS ANGELES",
    "zip": "90033",
    "county": "LOS ANGELES",
    "phone": null,
    "lat": 34.06161629,
    "lng": -118.2100337
  },
  {
    "id": "630016848",
    "name": "WHITE MEMORIAL COMMUNITY HEALTH CENTER",
    "npi": null,
    "hcaiId": "306198405",
    "businessName": "WHITE MEMORIAL COMMUNITY HEALTH CENTER",
    "contactEmail": "FLOUTSG@AH.ORG",
    "categoryName": "PRIMARY CARE CLINIC",
    "categoryCode": "COMTYC",
    "licenseStatus": "ACTIVE",
    "inService": true,
    "licenseNumber": "550003845",
    "licenseEffectiveDate": "04/12/2025",
    "licenseExpirationDate": "04/11/2026",
    "dataDate": "10/18/2025",
    "capacity": 0,
    "address": "1828 E. CESAR E. CHAVEZ AVENUE, SUITE 5000",
    "city": "LOS ANGELES",
    "zip": "90033",
    "county": "LOS ANGELES",
    "phone": "(323) 859-3604",
    "lat": 34.049952,
    "lng": -118.215657
  },
  {
    "id": "630017494",
    "name": "WHITE MEMORIAL COMMUNITY HEALTH CENTER",
    "npi": null,
    "hcaiId": "306190406",
    "businessName": "WHITE MEMORIAL COMMUNITY HEALTH CENTER",
    "contactEmail": "FLOUTSG@AH.ORG",
    "categoryName": "PRIMARY CARE CLINIC",
    "categoryCode": "COMTYC",
    "licenseStatus": "ACTIVE",
    "inService": true,
    "licenseNumber": "550004408",
    "licenseEffectiveDate": "10/03/2025",
    "licenseExpirationDate": "10/02/2026",
    "dataDate": "10/18/2025",
    "capacity": 0,
    "address": "1828 E CESAR E CHAVEZ AVE, SUITE 4100",
    "city": "LOS ANGELES",
    "zip": "90033",
    "county": "LOS ANGELES",
    "phone": "(323) 859-3604",
    "lat": 34.050141,
    "lng": -118.2157155
  },
  {
    "id": "630020372",
    "name": "WHITE MEMORIAL COMMUNITY HEALTH CENTER",
    "npi": null,
    "hcaiId": null,
    "businessName": "WHITE MEMORIAL COMMUNITY HEALTH CENTER",
    "contactEmail": null,
    "categoryName": "PRIMARY CARE CLINIC",
    "categoryCode": "COMTYC",
    "licenseStatus": "ACTIVE",
    "inService": true,
    "licenseNumber": "550003845",
    "licenseEffectiveDate": "04/12/2025",
    "licenseExpirationDate": "04/11/2026",
    "dataDate": "10/18/2025",
    "capacity": 0,
    "address": "1828 E CESAR E CHAVEZ AVE, SUITE 4300",
    "city": "LOS ANGELES",
    "zip": "90033",
    "county": "LOS ANGELES",
    "phone": null,
    "lat": 34.050141,
    "lng": -118.2157155
  },
  {
    "id": "630028305",
    "name": "WHITE MEMORIAL COMMUNITY HEALTH CENTER",
    "npi": null,
    "hcaiId": null,
    "businessName": "WHITE MEMORIAL COMMUNITY HEALTH CENTER",
    "contactEmail": "OYAMENIO@AH.ORG",
    "categoryName": "PRIMARY CARE CLINIC",
    "categoryCode": "COMTYC",
    "licenseStatus": "ACTIVE",
    "inService": true,
    "licenseNumber": "550009906",
    "licenseEffectiveDate": "08/07/2025",
    "licenseExpirationDate": "08/06/2026",
    "dataDate": "10/18/2025",
    "capacity": 0,
    "address": "1701 E CESAR E CHAVEZ AVE, SUITE 456",
    "city": "LOS ANGELES",
    "zip": "90033",
    "county": "LOS ANGELES",
    "phone": "(323) 987-1200",
    "lat": 34.05133199,
    "lng": -118.217259
  },
  {
    "id": "630027678",
    "name": "WHITE MEMORIAL COMMUNITY HEALTH CENTER - MENDEZ HIGH SCHOOL",
    "npi": null,
    "hcaiId": null,
    "businessName": "WHITE MEMORIAL COMMUNITY HEALTH CENTER",
    "contactEmail": null,
    "categoryName": "PRIMARY CARE CLINIC",
    "categoryCode": "COMTYC",
    "licenseStatus": "ACTIVE",
    "inService": true,
    "licenseNumber": "550003845",
    "licenseEffectiveDate": "04/12/2025",
    "licenseExpirationDate": "04/11/2026",
    "dataDate": "10/18/2025",
    "capacity": 0,
    "address": "1200 PLAZA DEL SOL ST",
    "city": "LOS ANGELES",
    "zip": "90033",
    "county": "LOS ANGELES",
    "phone": null,
    "lat": 34.04855599,
    "lng": -118.227029
  },
  {
    "id": "930000860",
    "name": "WHITE MEMORIAL MEDICAL CENTER D/P APH",
    "npi": "1215927470",
    "hcaiId": null,
    "businessName": "WHITE MEMORIAL MEDICAL CENTER",
    "contactEmail": null,
    "categoryName": "ACUTE PSYCHIATRIC HOSPITAL",
    "categoryCode": "APH",
    "licenseStatus": "ACTIVE",
    "inService": true,
    "licenseNumber": "930000195",
    "licenseEffectiveDate": "11/01/2024",
    "licenseExpirationDate": "10/31/2025",
    "dataDate": "10/18/2025",
    "capacity": 33,
    "address": "1720 E CESAR E CHAVEZ AVE",
    "city": "LOS ANGELES",
    "zip": "90033",
    "county": "LOS ANGELES",
    "phone": "(323) 268-5000",
    "lat": 34.050735,
    "lng": -118.216962
  },
  {
    "id": "930000822",
    "name": "WHITE MEMORIAL MEDICAL CENTER D/P SNF",
    "npi": "1942281936",
    "hcaiId": null,
    "businessName": "WHITE MEMORIAL MEDICAL CENTER",
    "contactEmail": "DESAIN1@AH.ORG",
    "categoryName": "SKILLED NURSING FACILITY",
    "categoryCode": "SNF",
    "licenseStatus": "ACTIVE",
    "inService": true,
    "licenseNumber": "930000195",
    "licenseEffectiveDate": "11/01/2024",
    "licenseExpirationDate": "10/31/2025",
    "dataDate": "10/18/2025",
    "capacity": 27,
    "address": "1720 E CESAR E CHAVEZ AVE",
    "city": "LOS ANGELES",
    "zip": "90033",
    "county": "LOS ANGELES",
    "phone": "(323) 268-5040",
    "lat": 34.050735,
    "lng": -118.216962
  }
]