[
  {
    "id": "630001201",
    "name": "ARROYO VISTA FAMILY HEALTH CENTER-LINCOLN HEIGHTS",
    "npi": null,
    "hcaiId": "306196696",
    "businessName": "ARROYO VISTA FAMILY HEALTH FOUNDATION",
    "contactEmail": "SMANCIA@ARROYOVISTA.ORG",
    "categoryName": "PRIMARY CARE CLINIC",
    "categoryCode": "COMTYC",
    "licenseStatus": "ACTIVE",
    "inService": true,
    "licenseNumber": "550000082",
    "licenseEffectiveDate": "11/21/2025",
    "licenseExpirationDate": "11/20/2026",
    "dataDate": "10/18/2025",
    "capacity": 0,
    "address": "2411 N BROADWAY",
    "city": "LOS ANGELES",
    "zip": "90031",
    "county": "LOS ANGELES",
    "phone": "(323) 254-5291",
    "lat": 34.073784,
    "lng": -118.2164355
  },
  {
    "id": "970000111",
    "name": "KEI-AI LOS ANGELES HEALTHCARE CENTER",
    "npi": "1619347465",
    "hcaiId": "206194199",
    "businessName": "ALAL, LLC",
    "contactEmail": "BRADH@ASPENHEALTH.COM",
    "categoryName": "SKILLED NURSING FACILITY",
    "categoryCode": "SNF",
    "licenseStatus": "ACTIVE",
    "inService": true,
    "licenseNumber": "970000059",
    "licenseEffectiveDate": "04/21/2025",
    "licenseExpirationDate": "04/20/2026",
    "dataDate": "10/18/2025",
    "capacity": 300,
    "address": "2221 LINCOLN PARK AVE",
    "city": "LOS ANGELES",
    "zip": "90031",
    "county": "LOS ANGELES",
    "phone": "(323) 276-5700",
    "lat": 34.071111,
    "lng": -118.2026565
  },
  {
    "id": "630026922",
    "name": "LINCOLN HEIGHTS DIALYSIS CENTER",
    "npi": null,
    "hcaiId": "306190809",
    "businessName": "LINCOLN HEIGHTS DIALYSIS CENTER, LLC",
    "contactEmail": "SUSANBBURKHART@CS.COM",
    "categoryName": "CHRONIC DIALYSIS CLINIC",
    "categoryCode": "ESRD/CDC",
    "licenseStatus": "ACTIVE",
    "inService": true,
    "licenseNumber": "550008778",
    "licenseEffectiveDate": "09/21/2025",
    "licenseExpirationDate": "09/20/2026",
    "dataDate": "10/18/2025",
    "capacity": 26,
    "address": "1833 JOHNSTON ST",
    "city": "LOS ANGELES",
    "zip": "90031",
    "county": "LOS ANGELES",
    "phone": "(909) 319-6778",
    "lat": 34.065342,
    "lng": -118.21032
  },
  {
    "id": "960002806",
    "name": "ST. JOHN'S COMMUNITY HEALTH",
    "npi": "1932249505",
    "hcaiId": "306196520",
    "businessName": "ST. JOHN'S COMMUNITY HEALTH",
    "contactEmail": "MARLOPEZ@WELLCHILD.ORG",
    "categoryName": "PRIMARY CARE CLINIC",
    "categoryCode": "COMTYC",
    "licenseStatus": "ACTIVE",
    "inService": true,
    "licenseNumber": "550003001",
    "licenseEffectiveDate": "03/03/2025",
    "licenseExpirationDate": "03/02/2026",
    "dataDate": "10/18/2025",
    "capacity": 0,
    "address": "2512 ALTA ST",
    "city": "LOS ANGELES",
    "zip": "90031",
    "county": "LOS ANGELES",
    "phone": "(323) 541-1600",
    "lat": 34.076052,
    "lng": -118.2038355
  },
  {
    "id": "630017972",
    "name": "UNICARE COMMUNITY HEALTH CENTER, INC.",
    "npi": null,
    "hcaiId": "306190479",
    "businessName": "UNICARE COMMUNITY HEALTH CENTER, INC.",
    "contactEmail": "K.VO@UNICARECHC.ORG",
    "categoryName": "PRIMARY CARE CLINIC",
    "categoryCode": "COMTYC",
    "licenseStatus": "ACTIVE",
    "inService": true,
    "licenseNumber": "550004970",
    "licenseEffectiveDate": "10/11/2025",
    "licenseExpirationDate": "10/10/2026",
    "dataDate": "10/18/2025",
    "capacity": 0,
    "address": "2409 N BROADWAY",
    "city": "LOS ANGELES",
    "zip": "90031",
    "county": "LOS ANGELES",
    "phone": "(323) 225-8038",
    "lat": 34.073793,
    "lng": -118.216521
  }
]