[
  {
    "id": "630013823",
    "name": "ADVOCATE HOSPICE CARE",
    "npi": null,
    "hcaiId": "406198524",
    "businessName": "ASHOON",
    "contactEmail": "ADVOCATEHOSPICE1@GMAIL.COM",
    "categoryName": "HOSPICE",
    "categoryCode": "HOSPICE",
    "licenseStatus": "ACTIVE",
    "inService": false,
    "licenseNumber": "550002392",
    "licenseEffectiveDate": "08/15/2025",
    "licenseExpirationDate": "08/14/2027",
    "dataDate": "10/18/2025",
    "capacity": 0,
    "address": "5657 WILSHIRE BLVD, SUITE 470",
    "city": "LOS ANGELES",
    "zip": "90036",
    "county": "LOS ANGELES",
    "phone": "(424) 512-2813",
    "lat": 34.06277798,
    "lng": -118.351873
  },
  {
    "id": "630019775",
    "name": "APLA HEALTH - OLYMPIC",
    "npi": null,
    "hcaiId": null,
    "businessName": "APLA HEALTH & WELLNESS",
    "contactEmail": "DREILING@APLA.ORG",
    "categoryName": "PRIMARY CARE CLINIC",
    "categoryCode": "COMTYC",
    "licenseStatus": "ACTIVE",
    "inService": true,
    "licenseNumber": "550003043",
    "licenseEffectiveDate": "04/21/2025",
    "licenseExpirationDate": "04/20/2026",
    "dataDate": "10/18/2025",
    "capacity": 0,
    "address": "5901 W OLYMPIC BLVD, SUITE 500",
    "city": "LOS ANGELES",
    "zip": "90036",
    "county": "LOS ANGELES",
    "phone": "(323) 215-1725",
    "lat": 34.057926,
    "lng": -118.360233
  },
  {
    "id": "630017807",
    "name": "APLA HEALTH - OLYMPIC #310",
    "npi": null,
    "hcaiId": "306190461",
    "businessName": "APLA HEALTH & WELLNESS",
    "contactEmail": "DREILING@APLAHEALTH.ORG",
    "categoryName": "PRIMARY CARE CLINIC",
    "categoryCode": "COMTYC",
    "licenseStatus": "ACTIVE",
    "inService": true,
    "licenseNumber": "550004865",
    "licenseEffectiveDate": "08/23/2025",
    "licenseExpirationDate": "08/22/2026",
    "dataDate": "10/18/2025",
    "capacity": 0,
    "address": "5901 W. OLYMPIC BLVD., SUITE 310",
    "city": "LOS ANGELES",
    "zip": "90036",
    "county": "LOS ANGELES",
    "phone": "(323) 217-1725",
    "lat": 34.057926,
    "lng": -118.360233
  },
  {
    "id": "630021718",
    "name": "BLESSINGS HOME HEALTH",
    "npi": null,
    "hcaiId": "406195392",
    "businessName": "BLESSINGS HOME HEALTH",
    "contactEmail": "BLESSINGSHOMEHEALTH1@GMAIL.COM",
    "categoryName": "HOME HEALTH AGENCY",
    "categoryCode": "HHA",
    "licenseStatus": "ACTIVE",
    "inService": true,
    "licenseNumber": "550008049",
    "licenseEffectiveDate": "06/09/2024",
    "licenseExpirationDate": "06/08/2025",
    "dataDate": "10/18/2025",
    "capacity": 0,
    "address": "5657 WILSHIRE BLVD, UNIT 445",
    "city": "LOS ANGELES",
    "zip": "90036",
    "county": "LOS ANGELES",
    "phone": "(323) 336-6872",
    "lat": 34.062633,
    "lng": -118.351791
  },
  {
    "id": "630021889",
    "name": "BRIGHT HOME HEALTH",
    "npi": null,
    "hcaiId": "406195335",
    "businessName": "BRIGHT HOME HEALTH",
    "contactEmail": "BRIGHTHOMEHEALTH1@GMAIL.COM",
    "categoryName": "HOME HEALTH AGENCY",
    "categoryCode": "HHA",
    "licenseStatus": "ACTIVE",
    "inService": true,
    "licenseNumber": "550007899",
    "licenseEffectiveDate": "08/26/2022",
    "licenseExpirationDate": "02/25/2023",
    "dataDate": "10/18/2025",
    "capacity": 0,
    "address": "5657 WILSHIRE BLVD, SUITE 440",
    "city": "LOS ANGELES",
    "zip": "90036",
    "county": "LOS ANGELES",
    "phone": "(323) 483-6211",
    "lat": 34.062633,
    "lng": -118.351791
  },
  {
    "id": "630018127",
    "name": "BRIGHTSTAR CARE OF BEVERLY HILLS",
    "npi": null,
    "hcaiId": "406191545",
    "businessName": "GARVIN AND LATINO, LLC",
    "contactEmail": "JUSTIN.LATINO@BRIGHTSTARCARE.COM",
    "categoryName": "HOME HEALTH AGENCY",
    "categoryCode": "HHA",
    "licenseStatus": "ACTIVE",
    "inService": true,
    "licenseNumber": "550004535",
    "licenseEffectiveDate": "01/31/2025",
    "licenseExpirationDate": "01/30/2026",
    "dataDate": "10/18/2025",
    "capacity": 0,
    "address": "5371 WILSHIRE BLVD, SUITE 215",
    "city": "LOS ANGELES",
    "zip": "90036",
    "county": "LOS ANGELES",
    "phone": "(323) 446-4446",
    "lat": 34.062426,
    "lng": -118.345869
  },
  {
    "id": "630022914",
    "name": "CHEERFUL HOME HEALTH",
    "npi": null,
    "hcaiId": "406195868",
    "businessName": "CHEERFUL HOME HEALTH",
    "contactEmail": "CHEERFULHOMEHEALTH@GMAIL.COM",
    "categoryName": "HOME HEALTH AGENCY",
    "categoryCode": "HHA",
    "licenseStatus": "ACTIVE",
    "inService": true,
    "licenseNumber": "550008025",
    "licenseEffectiveDate": "06/09/2025",
    "licenseExpirationDate": "06/08/2026",
    "dataDate": "10/18/2025",
    "capacity": 0,
    "address": "5657 WILSHIRE BLVD, SUITE 450",
    "city": "LOS ANGELES",
    "zip": "90036",
    "county": "LOS ANGELES",
    "phone": "(747) 201-7328",
    "lat": 34.062633,
    "lng": -118.351791
  },
  {
    "id": "910000320",
    "name": "GUARDIAN REHABILITATION HOSPITAL",
    "npi": "1639166242",
    "hcaiId": "206190356",
    "businessName": "533 SOUTH FAIRFAX AVENUE, INC.",
    "contactEmail": "ALFREDG@GUARDIANREHAB.COM",
    "categoryName": "SKILLED NURSING FACILITY",
    "categoryCode": "SNF",
    "licenseStatus": "ACTIVE",
    "inService": true,
    "licenseNumber": "910000146",
    "licenseEffectiveDate": "06/01/2025",
    "licenseExpirationDate": "05/31/2026",
    "dataDate": "10/18/2025",
    "capacity": 93,
    "address": "533 S FAIRFAX AVE",
    "city": "LOS ANGELES",
    "zip": "90036",
    "county": "LOS ANGELES",
    "phone": "(323) 931-1061",
    "lat": 34.066404,
    "lng": -118.361556
  },
  {
    "id": "630013386",
    "name": "HOLY FAMILY HOSPICE",
    "npi": null,
    "hcaiId": "406197708",
    "businessName": "HOLY FAMILY HOSPICE",
    "contactEmail": "ADAM@SKILLEDMANAGEMENTCO.COM",
    "categoryName": "HOSPICE",
    "categoryCode": "HOSPICE",
    "licenseStatus": "ACTIVE",
    "inService": true,
    "licenseNumber": "550001992",
    "licenseEffectiveDate": "05/13/2025",
    "licenseExpirationDate": "05/12/2027",
    "dataDate": "10/18/2025",
    "capacity": 0,
    "address": "7250 BEVERLY BLVD, SUITE 203",
    "city": "LOS ANGELES",
    "zip": "90036",
    "county": "LOS ANGELES",
    "phone": "(323) 934-0600",
    "lat": 34.075881,
    "lng": -118.3476825
  },
  {
    "id": "630022911",
    "name": "JOYFUL HOME HEALTH",
    "npi": null,
    "hcaiId": "406195856",
    "businessName": "JOYFUL HOME HEALTH",
    "contactEmail": "JOYFULHOMEHEALTH1@GMAIL.COM",
    "categoryName": "HOME HEALTH AGENCY",
    "categoryCode": "HHA",
    "licenseStatus": "ACTIVE",
    "inService": true,
    "licenseNumber": "550008011",
    "licenseEffectiveDate": "11/28/2022",
    "licenseExpirationDate": "05/27/2023",
    "dataDate": "10/18/2025",
    "capacity": 0,
    "address": "5657 WILSHIRE BLVD, SUITE 455",
    "city": "LOS ANGELES",
    "zip": "90036",
    "county": "LOS ANGELES",
    "phone": "(747) 201-7292",
    "lat": 34.062633,
    "lng": -118.351791
  },
  {
    "id": "910000324",
    "name": "KENNEDY CARE CENTER",
    "npi": "1639803182",
    "hcaiId": "206190441",
    "businessName": "FAIRFAX HEALTHCARE, LLC",
    "contactEmail": "BRANDON.BALES@KENNEDYCARECENTER.COM",
    "categoryName": "SKILLED NURSING FACILITY",
    "categoryCode": "SNF",
    "licenseStatus": "ACTIVE",
    "inService": true,
    "licenseNumber": "910000148",
    "licenseEffectiveDate": "11/01/2025",
    "licenseExpirationDate": "10/31/2026",
    "dataDate": "10/18/2025",
    "capacity": 97,
    "address": "619 N FAIRFAX AVE",
    "city": "LOS ANGELES",
    "zip": "90036",
    "county": "LOS ANGELES",
    "phone": "(323) 651-0043",
    "lat": 34.082262,
    "lng": -118.361637
  },
  {
    "id": "630021879",
    "name": "KIND HEARTED HOME HEALTH",
    "npi": null,
    "hcaiId": "406195442",
    "businessName": "KIND HEARTED HOME HEALTH",
    "contactEmail": "KINDHEARTEDHOMEHEALTH@GMAIL.COM",
    "categoryName": "HOME HEALTH AGENCY",
    "categoryCode": "HHA",
    "licenseStatus": "ACTIVE",
    "inService": true,
    "licenseNumber": "550008076",
    "licenseEffectiveDate": "07/07/2025",
    "licenseExpirationDate": "07/06/2026",
    "dataDate": "10/18/2025",
    "capacity": 0,
    "address": "5657 WILSHIRE BLVD, UNIT 460",
    "city": "LOS ANGELES",
    "zip": "90036",
    "county": "LOS ANGELES",
    "phone": "(747) 201-7344",
    "lat": 34.062633,
    "lng": -118.351791
  },
  {
    "id": "970000021",
    "name": "LA BREA REHABILITATION CENTER",
    "npi": "1205299484",
    "hcaiId": "206190361",
    "businessName": "LA BREA REHABILITATION CENTER, LLC",
    "contactEmail": "ADMINISTRATOR@LABREAREHAB.COM",
    "categoryName": "SKILLED NURSING FACILITY",
    "categoryCode": "SNF",
    "licenseStatus": "ACTIVE",
    "inService": true,
    "licenseNumber": "970000011",
    "licenseEffectiveDate": "12/12/2024",
    "licenseExpirationDate": "12/11/2025",
    "dataDate": "10/18/2025",
    "capacity": 141,
    "address": "505 N LA BREA AVE",
    "city": "LOS ANGELES",
    "zip": "90036",
    "county": "LOS ANGELES",
    "phone": "(323) 937-4860",
    "lat": 34.08048,
    "lng": -118.344231
  },
  {
    "id": "630021805",
    "name": "MERRY HOME HEALTH",
    "npi": null,
    "hcaiId": "406195870",
    "businessName": "MERRY HOME HEALTH",
    "contactEmail": "MERRYHOMEHEALTH@GMAIL.COM",
    "categoryName": "HOME HEALTH AGENCY",
    "categoryCode": "HHA",
    "licenseStatus": "ACTIVE",
    "inService": true,
    "licenseNumber": "550008028",
    "licenseEffectiveDate": "06/09/2025",
    "licenseExpirationDate": "06/08/2026",
    "dataDate": "10/18/2025",
    "capacity": 0,
    "address": "5657 WILSHIRE BLVD, UNIT 435",
    "city": "LOS ANGELES",
    "zip": "90036",
    "county": "LOS ANGELES",
    "phone": "(323) 483-6215",
    "lat": 34.062633,
    "lng": -118.351791
  },
  {
    "id": "930001652",
    "name": "MID-WILSHIRE SURGERY CENTER",
    "npi": "1003933011",
    "hcaiId": "306196058",
    "businessName": "MID-WILSHIRE SURGERY CENTER, LLC",
    "contactEmail": "INFO@VIPSURGERY.COM",
    "categoryName": "SURGICAL CLINIC",
    "categoryCode": "ASC",
    "licenseStatus": "INACTIVE - CAPEN DECISION",
    "inService": false,
    "licenseNumber": "930000925",
    "licenseEffectiveDate": "12/16/2007",
    "licenseExpirationDate": "12/15/2008",
    "dataDate": "10/18/2025",
    "capacity": 0,
    "address": "5757 WILSHIRE BLVD, SUITE 376",
    "city": "LOS ANGELES",
    "zip": "90036",
    "county": "LOS ANGELES",
    "phone": "(323) 935-9367",
    "lat": 34.063029,
    "lng": -118.353573
  },
  {
    "id": "630011330",
    "name": "MIRACLE HOME HEALTH CARE, INC.",
    "npi": "1194899138",
    "hcaiId": "406197114",
    "businessName": "MIRACLE HOME HEALTH CARE, INC.",
    "contactEmail": "ADMIN@MIRACLEHOMEHEALTHCAREINC.COM",
    "categoryName": "HOME HEALTH AGENCY",
    "categoryCode": "HHA",
    "licenseStatus": "ACTIVE",
    "inService": true,
    "licenseNumber": "550000736",
    "licenseEffectiveDate": "04/17/2025",
    "licenseExpirationDate": "04/16/2026",
    "dataDate": "10/18/2025",
    "capacity": 0,
    "address": "5670 WILSHIRE BLVD, SUITE 1600",
    "city": "LOS ANGELES",
    "zip": "90036",
    "county": "LOS ANGELES",
    "phone": "(323) 782-3883",
    "lat": 34.061652,
    "lng": -118.3523265
  },
  {
    "id": "630014553",
    "name": "MIRACLE MILE HOSPICE CARE, INC.",
    "npi": null,
    "hcaiId": "406197895",
    "businessName": "MIRACLE MILE HOSPICE CARE, INC.",
    "contactEmail": "ADMIN@MIRACLEMILEHOSPICECARE.COM",
    "categoryName": "HOSPICE",
    "categoryCode": "HOSPICE",
    "licenseStatus": "ACTIVE",
    "inService": true,
    "licenseNumber": "550002580",
    "licenseEffectiveDate": "02/14/2024",
    "licenseExpirationDate": "02/13/2026",
    "dataDate": "10/18/2025",
    "capacity": 0,
    "address": "5670 WILSHIRE BLVD, SUITE 1600A",
    "city": "LOS ANGELES",
    "zip": "90036",
    "county": "LOS ANGELES",
    "phone": "(323) 951-0880",
    "lat": 34.061652,
    "lng": -118.3523265
  },
  {
    "id": "630017455",
    "name": "MISSION CITY COMMUNITY NETWORK, INC. - FAIRFAX",
    "npi": null,
    "hcaiId": null,
    "businessName": "MISSION CITY COMMUNITY NETWORK, INC.",
    "contactEmail": "NIKG@MCCN.ORG",
    "categoryName": "PRIMARY CARE CLINIC",
    "categoryCode": "COMTYC",
    "licenseStatus": "ACTIVE",
    "inService": true,
    "licenseNumber": "550001797",
    "licenseEffectiveDate": "12/30/2024",
    "licenseExpirationDate": "12/29/2025",
    "dataDate": "10/18/2025",
    "capacity": 0,
    "address": "359 N FAIRFAX AVE",
    "city": "LOS ANGELES",
    "zip": "90036",
    "county": "LOS ANGELES",
    "phone": "(818) 895-3100",
    "lat": 34.077825,
    "lng": -118.361601
  },
  {
    "id": "630012438",
    "name": "PERFECT TOUCH HOME HEALTH CARE, INC.",
    "npi": "1184870933",
    "hcaiId": "406197437",
    "businessName": "PERFECT TOUCH HOME HEALTH CARE, INC.",
    "contactEmail": "PERFECTTOUCHHEALTH@GMAIL.COM",
    "categoryName": "HOME HEALTH AGENCY",
    "categoryCode": "HHA",
    "licenseStatus": "ACTIVE",
    "inService": true,
    "licenseNumber": "550001386",
    "licenseEffectiveDate": "11/27/2024",
    "licenseExpirationDate": "11/26/2025",
    "dataDate": "10/18/2025",
    "capacity": 0,
    "address": "7250 BEVERLY BLVD, SUITE 205-206",
    "city": "LOS ANGELES",
    "zip": "90036",
    "county": "LOS ANGELES",
    "phone": "(323) 852-1959",
    "lat": 34.075881,
    "lng": -118.3476825
  },
  {
    "id": "630021633",
    "name": "PERGO HOME HEALTH",
    "npi": null,
    "hcaiId": "406195888",
    "businessName": "PERGO HOME HEALTH",
    "contactEmail": "PERGOHOMEHEALTH@GMAIL.COM",
    "categoryName": "HOME HEALTH AGENCY",
    "categoryCode": "HHA",
    "licenseStatus": "ACTIVE",
    "inService": true,
    "licenseNumber": "550008078",
    "licenseEffectiveDate": "07/07/2025",
    "licenseExpirationDate": "07/06/2026",
    "dataDate": "10/18/2025",
    "capacity": 0,
    "address": "5657 WILSHIRE BLVD, UNIT #430",
    "city": "LOS ANGELES",
    "zip": "90036",
    "county": "LOS ANGELES",
    "phone": "(323) 483-5027",
    "lat": 34.062633,
    "lng": -118.351791
  },
  {
    "id": "630024370",
    "name": "SPIRIT HOME HEALTH",
    "npi": null,
    "hcaiId": "406196517",
    "businessName": "SPIRIT HOME HEALTH",
    "contactEmail": "SPIRITHOMEHEALTH1@GMAIL.COM",
    "categoryName": "HOME HEALTH AGENCY",
    "categoryCode": "HHA",
    "licenseStatus": "ACTIVE",
    "inService": true,
    "licenseNumber": "550008504",
    "licenseEffectiveDate": "04/20/2025",
    "licenseExpirationDate": "04/19/2026",
    "dataDate": "10/18/2025",
    "capacity": 0,
    "address": "425 S FAIRFAX AVE, SUITE 206",
    "city": "LOS ANGELES",
    "zip": "90036",
    "county": "LOS ANGELES",
    "phone": "(323) 819-8648",
    "lat": 34.069203,
    "lng": -118.3615605
  },
  {
    "id": "630009141",
    "name": "WILSHIRE AESTHETICS MED. ASSOC. SURGERY CENTER, IN",
    "npi": null,
    "hcaiId": null,
    "businessName": null,
    "contactEmail": "CKHOURI@WILSHIREASTHETICS.COM",
    "categoryName": "SURGICAL CLINIC",
    "categoryCode": "ASC",
    "licenseStatus": null,
    "inService": null,
    "licenseNumber": null,
    "licenseEffectiveDate": null,
    "licenseExpirationDate": null,
    "dataDate": "10/18/2025",
    "capacity": 0,
    "address": "5757 WILSHIRE BLVD",
    "city": "LOS ANGELES",
    "zip": "90036",
    "county": "LOS ANGELES",
    "phone": "(323) 936-1245",
    "lat": 34.063029,
    "lng": -118.353573
  }
]