[
  {
    "id": "630027190",
    "name": "CENTRO MEDICO COMMUNITY CLINIC FQHC LOOK-ALIKE COMMUNITY CLINIC",
    "npi": null,
    "hcaiId": null,
    "businessName": "CENTRO MEDICO COMMUNITY CLINIC, INC.",
    "contactEmail": "APISK@CENTROMEDICOCLINIC.COM",
    "categoryName": "PRIMARY CARE CLINIC",
    "categoryCode": "COMTYC",
    "licenseStatus": "ACTIVE",
    "inService": true,
    "licenseNumber": "250000762",
    "licenseEffectiveDate": "11/16/2024",
    "licenseExpirationDate": "11/15/2025",
    "dataDate": "10/18/2025",
    "capacity": 0,
    "address": "231 W VERNON AVE, SUITE 203",
    "city": "LOS ANGELES",
    "zip": "90037",
    "county": "LOS ANGELES",
    "phone": "(323) 231-5181",
    "lat": 34.00405802,
    "lng": -118.27742
  },
  {
    "id": "630003681",
    "name": "ST. JOHN'S COMMUNITY HEALTH",
    "npi": "1013057371",
    "hcaiId": "306196692",
    "businessName": "ST. JOHN'S COMMUNITY HEALTH",
    "contactEmail": "MARLOPEZ@WELLCHILD.ORG",
    "categoryName": "PRIMARY CARE CLINIC",
    "categoryCode": "COMTYC",
    "licenseStatus": "ACTIVE",
    "inService": true,
    "licenseNumber": "550001120",
    "licenseEffectiveDate": "11/03/2025",
    "licenseExpirationDate": "11/02/2026",
    "dataDate": "10/18/2025",
    "capacity": 0,
    "address": "5701 S HOOVER ST",
    "city": "LOS ANGELES",
    "zip": "90037",
    "county": "LOS ANGELES",
    "phone": "(323) 541-1400",
    "lat": 33.990201,
    "lng": -118.2872565
  },
  {
    "id": "630012176",
    "name": "ST. JOHN'S COMMUNITY HEALTH",
    "npi": "1285874826",
    "hcaiId": "306197306",
    "businessName": "ST. JOHN'S COMMUNITY HEALTH",
    "contactEmail": "MGENIE@SJCH.ORG",
    "categoryName": "PRIMARY CARE CLINIC",
    "categoryCode": "COMTYC",
    "licenseStatus": "ACTIVE",
    "inService": true,
    "licenseNumber": "550001120",
    "licenseEffectiveDate": "11/03/2025",
    "licenseExpirationDate": "11/02/2026",
    "dataDate": "10/18/2025",
    "capacity": 0,
    "address": "808 W 58TH ST",
    "city": "LOS ANGELES",
    "zip": "90037",
    "county": "LOS ANGELES",
    "phone": "(323) 541-1600",
    "lat": 33.989598,
    "lng": -118.287531
  },
  {
    "id": "630013101",
    "name": "ST. JOHN'S COMMUNITY HEALTH",
    "npi": "1396981700",
    "hcaiId": "306197820",
    "businessName": "ST. JOHN'S COMMUNITY HEALTH",
    "contactEmail": "MARLOPEZ@WELLCHILD.ORG",
    "categoryName": "PRIMARY CARE CLINIC",
    "categoryCode": "COMTYC",
    "licenseStatus": "ACTIVE",
    "inService": true,
    "licenseNumber": "550001120",
    "licenseEffectiveDate": "11/03/2025",
    "licenseExpirationDate": "11/02/2026",
    "dataDate": "10/18/2025",
    "capacity": 0,
    "address": "4085 S VERMONT AVE",
    "city": "LOS ANGELES",
    "zip": "90037",
    "county": "LOS ANGELES",
    "phone": "(323) 541-1600",
    "lat": 34.00933438,
    "lng": -118.2916118
  },
  {
    "id": "630014129",
    "name": "ST. JOHN'S COMMUNITY HEALTH",
    "npi": "1598002628",
    "hcaiId": "306197796",
    "businessName": "ST. JOHN'S COMMUNITY HEALTH",
    "contactEmail": "JBORJA@SJCH.ORG",
    "categoryName": "PRIMARY CARE CLINIC",
    "categoryCode": "COMTYC",
    "licenseStatus": "ACTIVE",
    "inService": true,
    "licenseNumber": "550002228",
    "licenseEffectiveDate": "04/03/2025",
    "licenseExpirationDate": "04/02/2026",
    "dataDate": "10/18/2025",
    "capacity": 0,
    "address": "808 W 58TH ST",
    "city": "LOS ANGELES",
    "zip": "90037",
    "county": "LOS ANGELES",
    "phone": "(323) 541-1600",
    "lat": 33.989598,
    "lng": -118.287531
  },
  {
    "id": "630017954",
    "name": "ST. JOHN'S COMMUNITY HEALTH",
    "npi": "1861893844",
    "hcaiId": null,
    "businessName": "ST. JOHN'S COMMUNITY HEALTH",
    "contactEmail": null,
    "categoryName": "PRIMARY CARE CLINIC",
    "categoryCode": "COMTYC",
    "licenseStatus": "ACTIVE",
    "inService": true,
    "licenseNumber": "550003001",
    "licenseEffectiveDate": "03/03/2025",
    "licenseExpirationDate": "03/02/2026",
    "dataDate": "10/18/2025",
    "capacity": 0,
    "address": "1000 W 50TH ST",
    "city": "LOS ANGELES",
    "zip": "90037",
    "county": "LOS ANGELES",
    "phone": null,
    "lat": 33.997608,
    "lng": -118.2919365
  },
  {
    "id": "630022250",
    "name": "ST. JOHN'S COMMUNITY HEALTH",
    "npi": "1598002628",
    "hcaiId": null,
    "businessName": "ST. JOHN'S COMMUNITY HEALTH",
    "contactEmail": null,
    "categoryName": "PRIMARY CARE CLINIC",
    "categoryCode": "COMTYC",
    "licenseStatus": "ACTIVE",
    "inService": true,
    "licenseNumber": "550002228",
    "licenseEffectiveDate": "04/03/2025",
    "licenseExpirationDate": "04/02/2026",
    "dataDate": "10/18/2025",
    "capacity": 0,
    "address": "808 W 58TH ST",
    "city": "LOS ANGELES",
    "zip": "90037",
    "county": "LOS ANGELES",
    "phone": null,
    "lat": 33.989598,
    "lng": -118.287531
  },
  {
    "id": "630027851",
    "name": "ST. JOHN'S COMMUNITY HEALTH-MOBILE 5",
    "npi": null,
    "hcaiId": null,
    "businessName": "ST. JOHN'S COMMUNITY HEALTH",
    "contactEmail": null,
    "categoryName": "PRIMARY CARE CLINIC",
    "categoryCode": "COMTYC",
    "licenseStatus": "ACTIVE",
    "inService": true,
    "licenseNumber": "550001120",
    "licenseEffectiveDate": "11/03/2025",
    "licenseExpirationDate": "11/02/2026",
    "dataDate": "10/18/2025",
    "capacity": 0,
    "address": "808 W 58TH ST",
    "city": "LOS ANGELES",
    "zip": "90037",
    "county": "LOS ANGELES",
    "phone": null,
    "lat": 33.98947401,
    "lng": -118.287669
  },
  {
    "id": "630025891",
    "name": "UNIVERSAL COMMUNITY HEALTH CENTER",
    "npi": null,
    "hcaiId": null,
    "businessName": "UNIVERSAL COMMUNITY HEALTH CENTER",
    "contactEmail": null,
    "categoryName": "PRIMARY CARE CLINIC",
    "categoryCode": "COMTYC",
    "licenseStatus": "ACTIVE",
    "inService": true,
    "licenseNumber": "550001520",
    "licenseEffectiveDate": "03/30/2025",
    "licenseExpirationDate": "03/29/2026",
    "dataDate": "10/18/2025",
    "capacity": 0,
    "address": "1021 W MARTIN LUTHER KING JR BLVD",
    "city": "LOS ANGELES",
    "zip": "90037",
    "county": "LOS ANGELES",
    "phone": null,
    "lat": 34.011072,
    "lng": -118.2927825
  },
  {
    "id": "930000919",
    "name": "UNIVERSITY PARK DIALYSIS CENTER",
    "npi": "1003879081",
    "hcaiId": "306194225",
    "businessName": "GREATER LOS ANGELES DIALYSIS CENTERS, LLC",
    "contactEmail": "CAL_C@DAVITA.COM",
    "categoryName": "CHRONIC DIALYSIS CLINIC",
    "categoryCode": "ESRD/CDC",
    "licenseStatus": "ACTIVE",
    "inService": true,
    "licenseNumber": "930000461",
    "licenseEffectiveDate": "05/01/2025",
    "licenseExpirationDate": "04/30/2026",
    "dataDate": "10/18/2025",
    "capacity": 22,
    "address": "3986 S FIGUEROA ST",
    "city": "LOS ANGELES",
    "zip": "90037",
    "county": "LOS ANGELES",
    "phone": "(213) 749-8297",
    "lat": 34.011612,
    "lng": -118.282536
  },
  {
    "id": "970000050",
    "name": "VERNON HEALTHCARE CENTER",
    "npi": "1447438999",
    "hcaiId": "206190823",
    "businessName": "VERNON HEALTHCARE CENTER, LLC",
    "contactEmail": "ADMINISTRATOR@VERNONHC.COM",
    "categoryName": "SKILLED NURSING FACILITY",
    "categoryCode": "SNF",
    "licenseStatus": "ACTIVE",
    "inService": true,
    "licenseNumber": "970000025",
    "licenseEffectiveDate": "03/01/2025",
    "licenseExpirationDate": "02/28/2026",
    "dataDate": "10/18/2025",
    "capacity": 99,
    "address": "1037 W VERNON AVE",
    "city": "LOS ANGELES",
    "zip": "90037",
    "county": "LOS ANGELES",
    "phone": "(323) 232-4895",
    "lat": 34.003809,
    "lng": -118.293084
  }
]