[
  {
    "id": "930001658",
    "name": "BEVERLY HILLS CENTER FOR ARTHROSCOPIC & OUTPATIENT SURGERY",
    "npi": "1578773495",
    "hcaiId": "306196049",
    "businessName": "BEVERLY HILLS CENTER FOR ARTHROSCOPIC & OUTPATIENT SURGERY, LLC",
    "contactEmail": "TOBYR316@AOL.COM",
    "categoryName": "SURGICAL CLINIC",
    "categoryCode": "ASC",
    "licenseStatus": "INACTIVE - CAPEN DECISION",
    "inService": false,
    "licenseNumber": "930000918",
    "licenseEffectiveDate": "11/17/2007",
    "licenseExpirationDate": "11/16/2008",
    "dataDate": "10/18/2025",
    "capacity": 0,
    "address": "9763 W PICO BLVD, SUITE 250",
    "city": "LOS ANGELES",
    "zip": "90035",
    "county": "LOS ANGELES",
    "phone": "(310) 712-0009",
    "lat": 34.054371,
    "lng": -118.401489
  },
  {
    "id": "930000384",
    "name": "BEVERLY HILLS REGIONAL SURGERY CENTER",
    "npi": "1194959809",
    "hcaiId": "306194794",
    "businessName": "TEH BEVERLY HILLS CENTER FOR SPECIAL SURGERY",
    "contactEmail": "PNINI@YAHOO.COM",
    "categoryName": "SURGICAL CLINIC",
    "categoryCode": "ASC",
    "licenseStatus": "INACTIVE - CAPEN DECISION",
    "inService": false,
    "licenseNumber": "930000875",
    "licenseEffectiveDate": "11/24/2007",
    "licenseExpirationDate": "11/23/2008",
    "dataDate": "10/18/2025",
    "capacity": 0,
    "address": "1125 S BEVERLY DR, SUITE 505",
    "city": "LOS ANGELES",
    "zip": "90035",
    "county": "LOS ANGELES",
    "phone": "(310) 277-6780",
    "lat": 34.056846,
    "lng": -118.396728
  },
  {
    "id": "630016346",
    "name": "BEVERLY SURGERY CENTER, INC.",
    "npi": "1932520590",
    "hcaiId": null,
    "businessName": null,
    "contactEmail": null,
    "categoryName": "SURGICAL CLINIC",
    "categoryCode": "ASC",
    "licenseStatus": null,
    "inService": null,
    "licenseNumber": null,
    "licenseEffectiveDate": null,
    "licenseExpirationDate": null,
    "dataDate": "10/18/2025",
    "capacity": 0,
    "address": "1125 S. BEVERLY DRIVE, SUITE #111",
    "city": "LOS ANGELES",
    "zip": "90035",
    "county": "LOS ANGELES",
    "phone": "(310) 277-9905",
    "lat": 34.056846,
    "lng": -118.396728
  },
  {
    "id": "970000037",
    "name": "FLOWER VILLA, INC.",
    "npi": "1942537907",
    "hcaiId": "206190667",
    "businessName": "FLOWER VILLA, INC.",
    "contactEmail": "GEORGE.SIREGAR@FLVIL.COM",
    "categoryName": "SKILLED NURSING FACILITY",
    "categoryCode": "SNF",
    "licenseStatus": "ACTIVE",
    "inService": true,
    "licenseNumber": "970000019",
    "licenseEffectiveDate": "11/15/2024",
    "licenseExpirationDate": "11/14/2025",
    "dataDate": "10/18/2025",
    "capacity": 41,
    "address": "1480 S LA CIENEGA BLVD",
    "city": "LOS ANGELES",
    "zip": "90035",
    "county": "LOS ANGELES",
    "phone": "(909) 362-3270",
    "lat": 34.050897,
    "lng": -118.375902
  },
  {
    "id": "630027631",
    "name": "NATIONAL AMBULATORY SURGERY CENTER",
    "npi": null,
    "hcaiId": null,
    "businessName": null,
    "contactEmail": "BARB@BAASC.COM",
    "categoryName": "SURGICAL CLINIC",
    "categoryCode": "ASC",
    "licenseStatus": null,
    "inService": null,
    "licenseNumber": null,
    "licenseEffectiveDate": null,
    "licenseExpirationDate": null,
    "dataDate": "10/18/2025",
    "capacity": 0,
    "address": "1125 S BEVERLY DR, SUITE 505",
    "city": "LOS ANGELES",
    "zip": "90035",
    "county": "LOS ANGELES",
    "phone": "(408) 761-5847",
    "lat": 34.05683798,
    "lng": -118.396881
  },
  {
    "id": "910000318",
    "name": "PAVILION ON PICO HEALTHCARE & WELLNESS CENTRE, LP",
    "npi": "1508266768",
    "hcaiId": "206190295",
    "businessName": "PAVILION ON PICO HEALTHCARE & WELLNESS CENTRE, LP",
    "contactEmail": "ADMINISTRATOR@CVPAVILIONNC.COM",
    "categoryName": "SKILLED NURSING FACILITY",
    "categoryCode": "SNF",
    "licenseStatus": "ACTIVE",
    "inService": true,
    "licenseNumber": "910000145",
    "licenseEffectiveDate": "04/16/2025",
    "licenseExpirationDate": "04/15/2026",
    "dataDate": "10/18/2025",
    "capacity": 59,
    "address": "5916 W PICO BLVD",
    "city": "LOS ANGELES",
    "zip": "90035",
    "county": "LOS ANGELES",
    "phone": "(323) 939-3184",
    "lat": 34.051608,
    "lng": -118.368072
  },
  {
    "id": "060002080",
    "name": "SINAI ADULT DAY HEALTH CARE",
    "npi": null,
    "hcaiId": null,
    "businessName": "OMID ADHC CORPORATION",
    "contactEmail": "SINAIADHC@YAHOO.COM",
    "categoryName": "ADULT DAY HEALTH CARE",
    "categoryCode": "ADHC",
    "licenseStatus": "ACTIVE",
    "inService": true,
    "licenseNumber": "060000845",
    "licenseEffectiveDate": "01/09/2025",
    "licenseExpirationDate": "01/08/2026",
    "dataDate": "10/18/2025",
    "capacity": 0,
    "address": "1772-1776 S ROBERTSON BLVD.",
    "city": "LOS ANGELES",
    "zip": "90035",
    "county": "LOS ANGELES",
    "phone": "(323) 993-6611",
    "lat": 34.0473399,
    "lng": -118.3858107
  },
  {
    "id": "930001630",
    "name": "U.S RENAL CARE WEST LOS ANGELES DIALYSIS",
    "npi": "1154668986",
    "hcaiId": "306196062",
    "businessName": "INNOVATIVE DIALYSIS CENTER OF WEST LOS ANGELES, LLC",
    "contactEmail": "LICENSING@USRENALCARE.COM",
    "categoryName": "CHRONIC DIALYSIS CLINIC",
    "categoryCode": "ESRD/CDC",
    "licenseStatus": "ACTIVE",
    "inService": true,
    "licenseNumber": "930000906",
    "licenseEffectiveDate": "06/01/2025",
    "licenseExpirationDate": "05/31/2026",
    "dataDate": "10/18/2025",
    "capacity": 22,
    "address": "1801 S LA CIENEGA BLVD",
    "city": "LOS ANGELES",
    "zip": "90035",
    "county": "LOS ANGELES",
    "phone": "(310) 840-5688",
    "lat": 34.044273,
    "lng": -118.377387
  },
  {
    "id": "630025751",
    "name": "U.S. RENAL CARE LA CIENEGA HOME DIALYSIS",
    "npi": null,
    "hcaiId": null,
    "businessName": null,
    "contactEmail": "NORNDORFF@USRENALCARE.COM",
    "categoryName": "CHRONIC DIALYSIS CLINIC",
    "categoryCode": "ESRD",
    "licenseStatus": null,
    "inService": null,
    "licenseNumber": null,
    "licenseEffectiveDate": null,
    "licenseExpirationDate": null,
    "dataDate": "10/18/2025",
    "capacity": 0,
    "address": "1801 S LA CIENEGA BLVD, SUITE 202",
    "city": "LOS ANGELES",
    "zip": "90035",
    "county": "LOS ANGELES",
    "phone": "(214) 736-2663",
    "lat": 34.044273,
    "lng": -118.377387
  },
  {
    "id": "960001621",
    "name": "WEST LA SUPPORT SERVICES HOME #2",
    "npi": "1164641270",
    "hcaiId": null,
    "businessName": "WEST LA SUPPORT SERVICES, INC.",
    "contactEmail": "ONET_GARCIA@YAHOO.COM",
    "categoryName": "INTERMEDIATE CARE FACILITY-DD/H/N/CN/IID",
    "categoryCode": "ICFDDH",
    "licenseStatus": "ACTIVE",
    "inService": true,
    "licenseNumber": "960000803",
    "licenseEffectiveDate": "11/10/2024",
    "licenseExpirationDate": "11/09/2025",
    "dataDate": "10/18/2025",
    "capacity": 6,
    "address": "1857 S HAYWORTH AVE",
    "city": "LOS ANGELES",
    "zip": "90035",
    "county": "LOS ANGELES",
    "phone": "(323) 935-2244",
    "lat": 34.04178,
    "lng": -118.3711905
  },
  {
    "id": "910000316",
    "name": "WEST PICO TERRACE HEALTHCARE & WELLNESS CENTRE, LP",
    "npi": "1508266396",
    "hcaiId": "206190223",
    "businessName": "WEST PICO TERRACE HEALTHCARE & WELLNESS CENTRE, LP",
    "contactEmail": "ADMINISTRATOR@CVTERRACENC.COM",
    "categoryName": "SKILLED NURSING FACILITY",
    "categoryCode": "SNF",
    "licenseStatus": "ACTIVE",
    "inService": true,
    "licenseNumber": "910000144",
    "licenseEffectiveDate": "09/09/2025",
    "licenseExpirationDate": "04/15/2026",
    "dataDate": "10/18/2025",
    "capacity": 49,
    "address": "6070 W PICO BLVD",
    "city": "LOS ANGELES",
    "zip": "90035",
    "county": "LOS ANGELES",
    "phone": "(323) 653-3980",
    "lat": 34.05260647,
    "lng": -118.372751
  }
]