[
  {
    "id": "630027046",
    "name": "A NURSE'S TOUCH CONCIERGE SERVICES",
    "npi": null,
    "hcaiId": null,
    "businessName": "THE INTUITIONIST CORPORATION",
    "contactEmail": "DHYANA@ANURSESTOUCHCONCIERGE.COM",
    "categoryName": "HOME HEALTH AGENCY",
    "categoryCode": "HHA",
    "licenseStatus": "ACTIVE",
    "inService": true,
    "licenseNumber": "550009942",
    "licenseEffectiveDate": "06/19/2025",
    "licenseExpirationDate": "12/18/2025",
    "dataDate": "10/18/2025",
    "capacity": 0,
    "address": "3685 MOTOR AVE, SUITE 100",
    "city": "LOS ANGELES",
    "zip": "90034",
    "county": "LOS ANGELES",
    "phone": "(323) 987-3736",
    "lat": 34.022889,
    "lng": -118.4060205
  },
  {
    "id": "630025468",
    "name": "ANOOSH HOME CARE",
    "npi": null,
    "hcaiId": "406190120",
    "businessName": "ANOOSH HOME CARE",
    "contactEmail": "ANOOSHHOMECARE@YAHOO.COM",
    "categoryName": "HOME HEALTH AGENCY",
    "categoryCode": "HHA",
    "licenseStatus": "ACTIVE",
    "inService": true,
    "licenseNumber": "550008590",
    "licenseEffectiveDate": "06/20/2025",
    "licenseExpirationDate": "06/19/2026",
    "dataDate": "10/18/2025",
    "capacity": 0,
    "address": "3415 S SEPULVEDA BLVD, SUITE 1174",
    "city": "LOS ANGELES",
    "zip": "90034",
    "county": "LOS ANGELES",
    "phone": "(818) 800-0506",
    "lat": 34.020531,
    "lng": -118.4239485
  },
  {
    "id": "910000023",
    "name": "CHEVIOT HILLS POST ACUTE",
    "npi": "1811224413",
    "hcaiId": "206190637",
    "businessName": "WINDSOR CHEVIOT HILLS, LLC",
    "contactEmail": "ADMINISTRATOR@WINDSORCHEVIOTHILLS.COM",
    "categoryName": "SKILLED NURSING FACILITY",
    "categoryCode": "SNF",
    "licenseStatus": "ACTIVE",
    "inService": true,
    "licenseNumber": "910000090",
    "licenseEffectiveDate": "09/04/2025",
    "licenseExpirationDate": "02/22/2026",
    "dataDate": "10/18/2025",
    "capacity": 99,
    "address": "3533 MOTOR AVE",
    "city": "LOS ANGELES",
    "zip": "90034",
    "county": "LOS ANGELES",
    "phone": "(310) 836-8900",
    "lat": 34.025661,
    "lng": -118.408158
  },
  {
    "id": "930000076",
    "name": "KAISER FOUNDATION HOSPITAL-WEST LA",
    "npi": "1134274897",
    "hcaiId": "106190434",
    "businessName": "KAISER FOUNDATION HOSPITALS",
    "contactEmail": "TEQUA.S.MORRISON@KP.ORG",
    "categoryName": "GENERAL ACUTE CARE HOSPITAL",
    "categoryCode": "GACH",
    "licenseStatus": "ACTIVE",
    "inService": true,
    "licenseNumber": "930000081",
    "licenseEffectiveDate": "05/06/2025",
    "licenseExpirationDate": "11/15/2025",
    "dataDate": "10/18/2025",
    "capacity": 265,
    "address": "6041 CADILLAC AVE",
    "city": "LOS ANGELES",
    "zip": "90034",
    "county": "LOS ANGELES",
    "phone": "(323) 857-3646",
    "lat": 34.038405,
    "lng": -118.3750965
  },
  {
    "id": "630025443",
    "name": "LA GOOD CARE",
    "npi": null,
    "hcaiId": "406190121",
    "businessName": "LA GOOD CARE",
    "contactEmail": "LAGOODCARE@YAHOO.COM",
    "categoryName": "HOME HEALTH AGENCY",
    "categoryCode": "HHA",
    "licenseStatus": "ACTIVE",
    "inService": true,
    "licenseNumber": "550008592",
    "licenseEffectiveDate": "06/20/2025",
    "licenseExpirationDate": "06/19/2026",
    "dataDate": "10/18/2025",
    "capacity": 0,
    "address": "3415 S SEPULVEDA BLVD, SUITE 1171",
    "city": "LOS ANGELES",
    "zip": "90034",
    "county": "LOS ANGELES",
    "phone": "(818) 800-0506",
    "lat": 34.020531,
    "lng": -118.4239485
  },
  {
    "id": "980002277",
    "name": "LOS ANGELES HOME HEALTH CARE AGENCY",
    "npi": "1043360464",
    "hcaiId": "406196315",
    "businessName": "LOS ANGELES HOME HEALTH CARE AGENCY, INC.",
    "contactEmail": "INFO@LAHOMECARES.COM",
    "categoryName": "HOME HEALTH AGENCY",
    "categoryCode": "HHA",
    "licenseStatus": "ACTIVE",
    "inService": true,
    "licenseNumber": "980001392",
    "licenseEffectiveDate": "04/23/2025",
    "licenseExpirationDate": "04/22/2026",
    "dataDate": "10/18/2025",
    "capacity": 0,
    "address": "2741 S ROBERTSON BLVD, FLOOR 2",
    "city": "LOS ANGELES",
    "zip": "90034",
    "county": "LOS ANGELES",
    "phone": "(310) 559-2290",
    "lat": 34.036911,
    "lng": -118.38915
  },
  {
    "id": "910000027",
    "name": "OVERLAND TERRACE HEALTHCARE & WELLNESS CENTRE, LP",
    "npi": "1518367788",
    "hcaiId": "206190871",
    "businessName": "OVERLAND TERRACE HEALTHCARE & WELLNESS CENTRE, LP",
    "contactEmail": "FACILITYLICENSING@ROCKPORTHC.COM",
    "categoryName": "SKILLED NURSING FACILITY",
    "categoryCode": "SNF",
    "licenseStatus": "ACTIVE",
    "inService": true,
    "licenseNumber": "910000122",
    "licenseEffectiveDate": "11/01/2025",
    "licenseExpirationDate": "10/31/2026",
    "dataDate": "10/18/2025",
    "capacity": 87,
    "address": "3515 OVERLAND AVE",
    "city": "LOS ANGELES",
    "zip": "90034",
    "county": "LOS ANGELES",
    "phone": "(310) 839-5201",
    "lat": 34.024248,
    "lng": -118.4114745
  },
  {
    "id": "630025452",
    "name": "SAFE HAVEN HOME HEALTH",
    "npi": null,
    "hcaiId": "406190044",
    "businessName": "SAFE HAVEN HOME HEALTH",
    "contactEmail": "HAVENHOMEHEALTHHC@YAHOO.COM",
    "categoryName": "HOME HEALTH AGENCY",
    "categoryCode": "HHA",
    "licenseStatus": "ACTIVE",
    "inService": true,
    "licenseNumber": "550008673",
    "licenseEffectiveDate": "07/25/2025",
    "licenseExpirationDate": "07/24/2026",
    "dataDate": "10/18/2025",
    "capacity": 0,
    "address": "3415 S SEPULVEDA BLVD, SUITE 1143",
    "city": "LOS ANGELES",
    "zip": "90034",
    "county": "LOS ANGELES",
    "phone": "(424) 527-2013",
    "lat": 34.020531,
    "lng": -118.4239485
  },
  {
    "id": "060001819",
    "name": "SUNNY DAYS ADULT DAY HEALTH CARE",
    "npi": null,
    "hcaiId": null,
    "businessName": "MORE LOVE, LLC",
    "contactEmail": "SUNNYDAYSADHC@GMAIL.COM",
    "categoryName": "ADULT DAY HEALTH CARE",
    "categoryCode": "ADHC",
    "licenseStatus": "ACTIVE",
    "inService": true,
    "licenseNumber": "060000636",
    "licenseEffectiveDate": "09/09/2025",
    "licenseExpirationDate": "11/26/2025",
    "dataDate": "10/18/2025",
    "capacity": 0,
    "address": "3739 OVERLAND AVE",
    "city": "LOS ANGELES",
    "zip": "90034",
    "county": "LOS ANGELES",
    "phone": "(310) 717-8482",
    "lat": 34.020162,
    "lng": -118.4083245
  }
]