[
  {
    "id": "630025072",
    "name": "A & V HOME HEALTH CARE SERVICES",
    "npi": null,
    "hcaiId": "406196803",
    "businessName": "A & V HOME HEALTH CARE SERVICES",
    "contactEmail": "AVHHCS@GMAIL.COM",
    "categoryName": "HOME HEALTH AGENCY",
    "categoryCode": "HHA",
    "licenseStatus": "ACTIVE",
    "inService": true,
    "licenseNumber": "550008347",
    "licenseEffectiveDate": "01/25/2025",
    "licenseExpirationDate": "01/24/2026",
    "dataDate": "10/18/2025",
    "capacity": 0,
    "address": "3171 LOS FELIZ BLVD, SUITE 302",
    "city": "LOS ANGELES",
    "zip": "90039",
    "county": "LOS ANGELES",
    "phone": "(323) 880-0884",
    "lat": 34.123869,
    "lng": -118.2682755
  },
  {
    "id": "630025195",
    "name": "ANAFARM HOME HEALTH INC",
    "npi": null,
    "hcaiId": "406196521",
    "businessName": "ANAFARM HOME HEALTH INC",
    "contactEmail": "ANAFARMHH@GMAIL.COM",
    "categoryName": "HOME HEALTH AGENCY",
    "categoryCode": "HHA",
    "licenseStatus": "ACTIVE",
    "inService": true,
    "licenseNumber": "550008537",
    "licenseEffectiveDate": "05/11/2025",
    "licenseExpirationDate": "05/10/2026",
    "dataDate": "10/18/2025",
    "capacity": 0,
    "address": "3171 LOS FELIZ BLVD, SUITE 201",
    "city": "LOS ANGELES",
    "zip": "90039",
    "county": "LOS ANGELES",
    "phone": "(800) 465-7017",
    "lat": 34.123869,
    "lng": -118.2682755
  },
  {
    "id": "630021473",
    "name": "BRIGHT AND WHITE HOSPICE",
    "npi": null,
    "hcaiId": "406193289",
    "businessName": "BRIGHT AND WHITE HOSPICE",
    "contactEmail": "BRIGHTANDWHITEHOSPICE@GMAIL.COM",
    "categoryName": "HOSPICE",
    "categoryCode": "HOSPICE",
    "licenseStatus": "ACTIVE",
    "inService": true,
    "licenseNumber": "550007187",
    "licenseEffectiveDate": "11/03/2023",
    "licenseExpirationDate": "11/02/2025",
    "dataDate": "10/18/2025",
    "capacity": 0,
    "address": "3171 GLENDALE BLVD, SUITE C",
    "city": "LOS ANGELES",
    "zip": "90039",
    "county": "LOS ANGELES",
    "phone": "(323) 776-1607",
    "lat": 34.117473,
    "lng": -118.261689
  },
  {
    "id": "630022306",
    "name": "CROWN HOSPICE, INC.",
    "npi": null,
    "hcaiId": "406194777",
    "businessName": "CROWN HOSPICE, INC.",
    "contactEmail": "CROWNHOSPICEINC@GMAIL.COM",
    "categoryName": "HOSPICE",
    "categoryCode": "HOSPICE",
    "licenseStatus": "ACTIVE",
    "inService": true,
    "licenseNumber": "550007673",
    "licenseEffectiveDate": "12/22/2023",
    "licenseExpirationDate": "12/21/2025",
    "dataDate": "10/18/2025",
    "capacity": 0,
    "address": "3111 LOS FELIZ BLVD, SUITE 218",
    "city": "LOS ANGELES",
    "zip": "90039",
    "county": "LOS ANGELES",
    "phone": "(818) 646-7076",
    "lat": 34.12450001,
    "lng": -118.26711
  },
  {
    "id": "630026322",
    "name": "EVITA HOME HEALTH INC.",
    "npi": null,
    "hcaiId": null,
    "businessName": "EVITA HOME HEALTH INC.",
    "contactEmail": "EVITAHOMEHEALTH@GMAIL.COM",
    "categoryName": "HOME HEALTH AGENCY",
    "categoryCode": "HHA",
    "licenseStatus": "ACTIVE",
    "inService": true,
    "licenseNumber": "550009230",
    "licenseEffectiveDate": "06/28/2025",
    "licenseExpirationDate": "06/27/2026",
    "dataDate": "10/18/2025",
    "capacity": 0,
    "address": "3171 LOS FELIZ BLVD, SUITE 202-I",
    "city": "LOS ANGELES",
    "zip": "90039",
    "county": "LOS ANGELES",
    "phone": "(747) 356-4261",
    "lat": 34.124009,
    "lng": -118.26846
  },
  {
    "id": "630021508",
    "name": "GAMMA HOSPICE CARE, INC",
    "npi": null,
    "hcaiId": "406303698",
    "businessName": "GAMMA HOSPICE CARE, INC",
    "contactEmail": "GAMMAHOSPICE1@GMAIL.COM",
    "categoryName": "HOSPICE",
    "categoryCode": "HOSPICE",
    "licenseStatus": "ACTIVE",
    "inService": true,
    "licenseNumber": "550006862",
    "licenseEffectiveDate": "09/22/2025",
    "licenseExpirationDate": "09/21/2027",
    "dataDate": "10/18/2025",
    "capacity": 0,
    "address": "3111 LOS FELIZ BLVD, UNIT 108",
    "city": "LOS ANGELES",
    "zip": "90039",
    "county": "LOS ANGELES",
    "phone": "(714) 257-5620",
    "lat": 34.12449938,
    "lng": -118.267109
  },
  {
    "id": "630011667",
    "name": "GLORY HOME HEALTH, INC.",
    "npi": null,
    "hcaiId": "406197298",
    "businessName": "GLORY HOME HEALTH, INC.",
    "contactEmail": "GLORYHOMEHEALTHINC@GMAIL.COM",
    "categoryName": "HOME HEALTH AGENCY",
    "categoryCode": "HHA",
    "licenseStatus": "ACTIVE",
    "inService": true,
    "licenseNumber": "550001036",
    "licenseEffectiveDate": "07/13/2025",
    "licenseExpirationDate": "07/12/2026",
    "dataDate": "10/18/2025",
    "capacity": 0,
    "address": "3111 LOS FELIZ BLVD, SUITE 203",
    "city": "LOS ANGELES",
    "zip": "90039",
    "county": "LOS ANGELES",
    "phone": "(323) 931-0101",
    "lat": 34.12449,
    "lng": -118.2670605
  },
  {
    "id": "630025420",
    "name": "HANDY HOME HEALTH INC",
    "npi": null,
    "hcaiId": "406190107",
    "businessName": "HANDY HOME HEALTH INC",
    "contactEmail": "HANDYHOMEHEALTHINC@GMAIL.COM",
    "categoryName": "HOME HEALTH AGENCY",
    "categoryCode": "HHA",
    "licenseStatus": "ACTIVE",
    "inService": true,
    "licenseNumber": "550008587",
    "licenseEffectiveDate": "06/05/2025",
    "licenseExpirationDate": "06/04/2026",
    "dataDate": "10/18/2025",
    "capacity": 0,
    "address": "3371 GLENDALE BLVD, SUITE 208",
    "city": "LOS ANGELES",
    "zip": "90039",
    "county": "LOS ANGELES",
    "phone": "(213) 772-1960",
    "lat": 34.119882,
    "lng": -118.2591855
  },
  {
    "id": "630013168",
    "name": "IN THE ARMS OF GRACE HOSPICE, INC.",
    "npi": null,
    "hcaiId": "406197704",
    "businessName": "IN THE ARMS OF GRACE HOSPICE, INC.",
    "contactEmail": "GRACEHOSPICEINC@YAHOO.COM",
    "categoryName": "HOSPICE",
    "categoryCode": "HOSPICE",
    "licenseStatus": "ACTIVE",
    "inService": true,
    "licenseNumber": "550001986",
    "licenseEffectiveDate": "04/11/2024",
    "licenseExpirationDate": "04/10/2026",
    "dataDate": "10/18/2025",
    "capacity": 0,
    "address": "3111 LOS FELIZ BLVD, SUITE 107",
    "city": "LOS ANGELES",
    "zip": "90039",
    "county": "LOS ANGELES",
    "phone": "(323) 928-2992",
    "lat": 34.12449,
    "lng": -118.2670605
  },
  {
    "id": "630023747",
    "name": "L&H HOME HEALTH CARE, INC",
    "npi": null,
    "hcaiId": null,
    "businessName": "L & H HOME HEALTH CARE, INC",
    "contactEmail": "LHHH2022@YAHOO.COM",
    "categoryName": "HOME HEALTH AGENCY",
    "categoryCode": "HHA",
    "licenseStatus": "ACTIVE",
    "inService": true,
    "licenseNumber": "550009309",
    "licenseEffectiveDate": "02/07/2025",
    "licenseExpirationDate": "08/06/2025",
    "dataDate": "10/18/2025",
    "capacity": 0,
    "address": "3191 CASITAS AVE, SUITE 121E",
    "city": "LOS ANGELES",
    "zip": "90039",
    "county": "LOS ANGELES",
    "phone": "(323) 741-0301",
    "lat": 34.114878,
    "lng": -118.250271
  },
  {
    "id": "630016180",
    "name": "LAC HEALTH HOSPICE SERVICES",
    "npi": null,
    "hcaiId": "406198395",
    "businessName": "3NP INC",
    "contactEmail": "3NPINC@GMAIL.COM",
    "categoryName": "HOSPICE",
    "categoryCode": "HOSPICE",
    "licenseStatus": "ACTIVE",
    "inService": true,
    "licenseNumber": "550003785",
    "licenseEffectiveDate": "01/05/2023",
    "licenseExpirationDate": "01/04/2025",
    "dataDate": "10/18/2025",
    "capacity": 0,
    "address": "3333 GLENDALE BLVD., SUITE 3",
    "city": "LOS ANGELES",
    "zip": "90039",
    "county": "LOS ANGELES",
    "phone": "(323) 522-3057",
    "lat": 34.119405,
    "lng": -118.2598605
  },
  {
    "id": "630025710",
    "name": "LINDEN HOME HEALTH CARE INC",
    "npi": null,
    "hcaiId": "406190265",
    "businessName": "LINDEN HOME HEALTH CARE INC",
    "contactEmail": "LINDENHHINC@GMAIL.COM",
    "categoryName": "HOME HEALTH AGENCY",
    "categoryCode": "HHA",
    "licenseStatus": "ACTIVE",
    "inService": true,
    "licenseNumber": "550008963",
    "licenseEffectiveDate": "01/22/2025",
    "licenseExpirationDate": "01/21/2026",
    "dataDate": "10/18/2025",
    "capacity": 0,
    "address": "3333 GLENDALE BLVD, SUITE 7",
    "city": "LOS ANGELES",
    "zip": "90039",
    "county": "LOS ANGELES",
    "phone": "(818) 426-5616",
    "lat": 34.119342,
    "lng": -118.259856
  },
  {
    "id": "630020660",
    "name": "LOS FELIZ HEALTH CARE, INC.",
    "npi": null,
    "hcaiId": "406193030",
    "businessName": "LOS FELIZ HEALTH CARE, INC.",
    "contactEmail": "LOSFELIZHEALTHCARE@GMAIL.COM",
    "categoryName": "HOME HEALTH AGENCY",
    "categoryCode": "HHA",
    "licenseStatus": "ACTIVE",
    "inService": true,
    "licenseNumber": "550006212",
    "licenseEffectiveDate": "04/19/2025",
    "licenseExpirationDate": "04/18/2026",
    "dataDate": "10/18/2025",
    "capacity": 0,
    "address": "3111 LOS FELIZ BLVD, SUITE 203-A",
    "city": "LOS ANGELES",
    "zip": "90039",
    "county": "LOS ANGELES",
    "phone": "(323) 486-7639",
    "lat": 34.12449,
    "lng": -118.2670605
  },
  {
    "id": "970000083",
    "name": "LOS FELIZ HEALTHCARE & WELLNESS CENTRE, LP",
    "npi": "1437568672",
    "hcaiId": "206190141",
    "businessName": "LOS FELIZ HEALTHCARE & WELLNESS CENTRE, LP",
    "contactEmail": "ADMINISTRATOR@CVLOSFELIZNC.COM",
    "categoryName": "SKILLED NURSING FACILITY",
    "categoryCode": "SNF",
    "licenseStatus": "ACTIVE",
    "inService": true,
    "licenseNumber": "970000041",
    "licenseEffectiveDate": "11/01/2024",
    "licenseExpirationDate": "10/31/2025",
    "dataDate": "10/18/2025",
    "capacity": 131,
    "address": "3002 ROWENA AVE",
    "city": "LOS ANGELES",
    "zip": "90039",
    "county": "LOS ANGELES",
    "phone": "(323) 666-1544",
    "lat": 34.108515,
    "lng": -118.269486
  },
  {
    "id": "630023471",
    "name": "MARVI HOME HEALTH INC",
    "npi": null,
    "hcaiId": "406195469",
    "businessName": "MARVI HOME HEALTH INC",
    "contactEmail": "MARVIHHC@GMAIL.COM",
    "categoryName": "HOME HEALTH AGENCY",
    "categoryCode": "HHA",
    "licenseStatus": "ACTIVE",
    "inService": true,
    "licenseNumber": "550007877",
    "licenseEffectiveDate": "03/10/2025",
    "licenseExpirationDate": "03/09/2026",
    "dataDate": "10/18/2025",
    "capacity": 0,
    "address": "3171 LOS FELIZ BLVD, SUITE 202C",
    "city": "LOS ANGELES",
    "zip": "90039",
    "county": "LOS ANGELES",
    "phone": "(323) 741-0100",
    "lat": 34.123869,
    "lng": -118.2682755
  },
  {
    "id": "630020827",
    "name": "MIMAS HOSPICE AND PALLIATIVE CARE, INC.",
    "npi": null,
    "hcaiId": "406193487",
    "businessName": "MIMAS HOSPICE AND PALLIATIVE CARE, INC.",
    "contactEmail": "MIMASHSP@GMAIL.COM",
    "categoryName": "HOSPICE",
    "categoryCode": "HOSPICE",
    "licenseStatus": "ACTIVE",
    "inService": true,
    "licenseNumber": "550006694",
    "licenseEffectiveDate": "08/18/2025",
    "licenseExpirationDate": "08/17/2027",
    "dataDate": "10/18/2025",
    "capacity": 0,
    "address": "3171 LOS FELIZ BLVD, SUITE E",
    "city": "LOS ANGELES",
    "zip": "90039",
    "county": "LOS ANGELES",
    "phone": "(323) 486-7186",
    "lat": 34.123869,
    "lng": -118.2682755
  },
  {
    "id": "630023753",
    "name": "N&L HOME HEALTH CARE, INC.",
    "npi": null,
    "hcaiId": "406195501",
    "businessName": "N&L HOME HEALTH CARE, INC.",
    "contactEmail": "NLHOMEHEALTH0@GMAIL.COM",
    "categoryName": "HOME HEALTH AGENCY",
    "categoryCode": "HHA",
    "licenseStatus": "ACTIVE",
    "inService": true,
    "licenseNumber": "550008121",
    "licenseEffectiveDate": "10/14/2025",
    "licenseExpirationDate": "07/06/2026",
    "dataDate": "10/18/2025",
    "capacity": 0,
    "address": "3191 CASITAS AVE, SUITE 121F",
    "city": "LOS ANGELES",
    "zip": "90039",
    "county": "LOS ANGELES",
    "phone": "(323) 741-0314",
    "lat": 34.114878,
    "lng": -118.250271
  },
  {
    "id": "630018976",
    "name": "OJAX HOSPICE, INC",
    "npi": null,
    "hcaiId": "406192415",
    "businessName": "OJAX HOSPICE, INC.",
    "contactEmail": "OJAXHOSPICE@GMAIL.COM",
    "categoryName": "HOSPICE",
    "categoryCode": "HOSPICE",
    "licenseStatus": "ACTIVE",
    "inService": true,
    "licenseNumber": "550005290",
    "licenseEffectiveDate": "02/14/2024",
    "licenseExpirationDate": "02/13/2026",
    "dataDate": "10/18/2025",
    "capacity": 0,
    "address": "3111 LOS FELIZ BLVD, SUITE 208",
    "city": "LOS ANGELES",
    "zip": "90039",
    "county": "LOS ANGELES",
    "phone": "(213) 723-2742",
    "lat": 34.12450001,
    "lng": -118.26711
  },
  {
    "id": "630021551",
    "name": "PRO-MED HEALTH HOSPICE, INC.",
    "npi": null,
    "hcaiId": "406193678",
    "businessName": "PRO-MED HEALTH HOSPICE, INC.",
    "contactEmail": "PROMEDHEALTHHOSPICE@GMAIL.COM",
    "categoryName": "HOSPICE",
    "categoryCode": "HOSPICE",
    "licenseStatus": "ACTIVE",
    "inService": true,
    "licenseNumber": "550006887",
    "licenseEffectiveDate": "09/22/2023",
    "licenseExpirationDate": "09/21/2025",
    "dataDate": "10/18/2025",
    "capacity": 0,
    "address": "3171 LOS FELIZ BLVD, SUITE 200A",
    "city": "LOS ANGELES",
    "zip": "90039",
    "county": "LOS ANGELES",
    "phone": "(323) 486-7139",
    "lat": 34.123869,
    "lng": -118.2682755
  },
  {
    "id": "630021621",
    "name": "ROSE GARDEN HOSPICE, INC.",
    "npi": null,
    "hcaiId": "406193295",
    "businessName": "ROSE GARDEN HOSPICE, INC.",
    "contactEmail": "ROSEGARDENHOSPICE@YAHOO.COM",
    "categoryName": "HOSPICE",
    "categoryCode": "HOSPICE",
    "licenseStatus": "ACTIVE",
    "inService": true,
    "licenseNumber": "550007169",
    "licenseEffectiveDate": "11/11/2023",
    "licenseExpirationDate": "11/10/2025",
    "dataDate": "10/18/2025",
    "capacity": 0,
    "address": "3171 LOS FELIZ BLVD, SUITE 311A",
    "city": "LOS ANGELES",
    "zip": "90039",
    "county": "LOS ANGELES",
    "phone": "(323) 741-0012",
    "lat": 34.123869,
    "lng": -118.2682755
  },
  {
    "id": "630016881",
    "name": "SAINT LUCY, INC.",
    "npi": "1609288851",
    "hcaiId": "406190854",
    "businessName": "SAINT LUCY, INC.",
    "contactEmail": "SAINTLUCYHOSPIC@GMAIL.COM",
    "categoryName": "HOSPICE",
    "categoryCode": "HOSPICE",
    "licenseStatus": "ACTIVE",
    "inService": true,
    "licenseNumber": "550004103",
    "licenseEffectiveDate": "07/01/2025",
    "licenseExpirationDate": "12/07/2025",
    "dataDate": "10/18/2025",
    "capacity": 0,
    "address": "3111 LOS FELIZ BLVD, UNIT 103",
    "city": "LOS ANGELES",
    "zip": "90039",
    "county": "LOS ANGELES",
    "phone": "(323) 522-6655",
    "lat": 34.12450198,
    "lng": -118.267098
  },
  {
    "id": "630025965",
    "name": "SAVIDEA HHC INC",
    "npi": null,
    "hcaiId": null,
    "businessName": "SAVIDEA HHC INC",
    "contactEmail": "SAVIDEAHHC@GMAIL.COM",
    "categoryName": "HOME HEALTH AGENCY",
    "categoryCode": "HHA",
    "licenseStatus": "ACTIVE",
    "inService": true,
    "licenseNumber": "550009324",
    "licenseEffectiveDate": "08/16/2025",
    "licenseExpirationDate": "08/15/2026",
    "dataDate": "10/18/2025",
    "capacity": 0,
    "address": "3171 LOS FELIZ BLVD, SUITE 202E",
    "city": "LOS ANGELES",
    "zip": "90039",
    "county": "LOS ANGELES",
    "phone": "(323) 922-1060",
    "lat": 34.123869,
    "lng": -118.2682755
  },
  {
    "id": "630012566",
    "name": "SILVER STAR HOME HEALTH, INC.",
    "npi": "1811226707",
    "hcaiId": "406197492",
    "businessName": "SILVER STAR HOME HEALTH, INC.",
    "contactEmail": "ADMIN@SILVERSTARHOMEHEALTH.COM",
    "categoryName": "HOME HEALTH AGENCY",
    "categoryCode": "HHA",
    "licenseStatus": "ACTIVE",
    "inService": true,
    "licenseNumber": "550001491",
    "licenseEffectiveDate": "02/08/2025",
    "licenseExpirationDate": "02/07/2026",
    "dataDate": "10/18/2025",
    "capacity": 0,
    "address": "3171 LOS FELIZ BLVD, SUITE 200 E & F",
    "city": "LOS ANGELES",
    "zip": "90039",
    "county": "LOS ANGELES",
    "phone": "(323) 522-6971",
    "lat": 34.123869,
    "lng": -118.2682755
  },
  {
    "id": "630026270",
    "name": "SILVERLAKE HOME HEALTH, INC.",
    "npi": null,
    "hcaiId": null,
    "businessName": "SILVERLAKE HOME HEALTH, INC.",
    "contactEmail": "SILVERLAKEHH@GMAIL.COM",
    "categoryName": "HOME HEALTH AGENCY",
    "categoryCode": "HHA",
    "licenseStatus": "ACTIVE",
    "inService": true,
    "licenseNumber": "550009278",
    "licenseEffectiveDate": "07/15/2025",
    "licenseExpirationDate": "07/14/2026",
    "dataDate": "10/18/2025",
    "capacity": 0,
    "address": "2816 ROWENA AVE, SUITE 2",
    "city": "LOS ANGELES",
    "zip": "90039",
    "county": "LOS ANGELES",
    "phone": "(818) 253-4455",
    "lat": 34.107471,
    "lng": -118.265184
  },
  {
    "id": "970000097",
    "name": "SKYLINE HEALTHCARE CENTER-LOS ANGELES",
    "npi": "1487970927",
    "hcaiId": "206190354",
    "businessName": "SKYLINE HEALTHCARE & WELLNESS CENTER, LLC",
    "contactEmail": "ADMINISTRATOR@SKYLINEHC.COM",
    "categoryName": "SKILLED NURSING FACILITY",
    "categoryCode": "SNF",
    "licenseStatus": "ACTIVE",
    "inService": true,
    "licenseNumber": "970000048",
    "licenseEffectiveDate": "11/03/2024",
    "licenseExpirationDate": "11/02/2025",
    "dataDate": "10/18/2025",
    "capacity": 99,
    "address": "3032 ROWENA AVE",
    "city": "LOS ANGELES",
    "zip": "90039",
    "county": "LOS ANGELES",
    "phone": "(323) 665-1185",
    "lat": 34.108821,
    "lng": -118.270638
  },
  {
    "id": "630027574",
    "name": "WELLNESS PLUS HOME HEALTH INC",
    "npi": null,
    "hcaiId": null,
    "businessName": "WELLNESS PLUS HOME HEALTH INC",
    "contactEmail": "WELLNESSPLUSHH@GMAIL.COM",
    "categoryName": "HOME HEALTH AGENCY",
    "categoryCode": "HHA",
    "licenseStatus": "ACTIVE",
    "inService": true,
    "licenseNumber": "550009537",
    "licenseEffectiveDate": "06/02/2025",
    "licenseExpirationDate": "12/01/2025",
    "dataDate": "10/18/2025",
    "capacity": 0,
    "address": "3171 LOS FELIZ BLVD, SUITE 202G",
    "city": "LOS ANGELES",
    "zip": "90039",
    "county": "LOS ANGELES",
    "phone": "(323) 446-9838",
    "lat": 34.124009,
    "lng": -118.26846
  }
]