[
  {
    "id": "630025720",
    "name": "ALDEN ADVANCED SURGICENTER",
    "npi": null,
    "hcaiId": null,
    "businessName": null,
    "contactEmail": null,
    "categoryName": "SURGICAL CLINIC",
    "categoryCode": "ASC",
    "licenseStatus": null,
    "inService": null,
    "licenseNumber": null,
    "licenseEffectiveDate": null,
    "licenseExpirationDate": null,
    "dataDate": "10/18/2025",
    "capacity": 0,
    "address": "8741 ALDEN DR, SUITE B",
    "city": "LOS ANGELES",
    "zip": "90048",
    "county": "LOS ANGELES",
    "phone": "(310) 652-2744",
    "lat": 34.075413,
    "lng": -118.38312
  },
  {
    "id": "630024222",
    "name": "BEVERLY HILLS HOME HEALTH CARE, INC.",
    "npi": null,
    "hcaiId": "406195831",
    "businessName": "BEVERLY HILLS HOME HEALTH CARE, INC.",
    "contactEmail": "BEVERLYHILLSHOMECARE77@GMAIL.COM",
    "categoryName": "HOME HEALTH AGENCY",
    "categoryCode": "HHA",
    "licenseStatus": "ACTIVE",
    "inService": true,
    "licenseNumber": "550007954",
    "licenseEffectiveDate": "04/14/2025",
    "licenseExpirationDate": "04/13/2026",
    "dataDate": "10/18/2025",
    "capacity": 0,
    "address": "6404 WILSHIRE BLVD, SUITE 940",
    "city": "LOS ANGELES",
    "zip": "90048",
    "county": "LOS ANGELES",
    "phone": "(424) 566-1518",
    "lat": 34.063506,
    "lng": -118.368522
  },
  {
    "id": "910000312",
    "name": "BEVERLY HILLS REHABILITATION CENTRE",
    "npi": "1043983505",
    "hcaiId": "206194968",
    "businessName": "BEVERLY HILLS REHABILITATION CENTRE LLC",
    "contactEmail": "ANTON.NOVITSKY@BEACHWOODPA.COM",
    "categoryName": "SKILLED NURSING FACILITY",
    "categoryCode": "SNF",
    "licenseStatus": "ACTIVE",
    "inService": true,
    "licenseNumber": "910000142",
    "licenseEffectiveDate": "02/24/2025",
    "licenseExpirationDate": "02/23/2026",
    "dataDate": "10/18/2025",
    "capacity": 150,
    "address": "580 S SAN VICENTE BLVD",
    "city": "LOS ANGELES",
    "zip": "90048",
    "county": "LOS ANGELES",
    "phone": "(323) 782-1500",
    "lat": 34.066602,
    "lng": -118.3732515
  },
  {
    "id": "630026950",
    "name": "CARDIOVASCULAR SURGICENTER OF BEVERLY HILLS",
    "npi": null,
    "hcaiId": null,
    "businessName": null,
    "contactEmail": null,
    "categoryName": "SURGICAL CLINIC",
    "categoryCode": "ASC",
    "licenseStatus": null,
    "inService": null,
    "licenseNumber": null,
    "licenseEffectiveDate": null,
    "licenseExpirationDate": null,
    "dataDate": "10/18/2025",
    "capacity": 0,
    "address": "8741 ALDEN DR, SUITE C",
    "city": "LOS ANGELES",
    "zip": "90048",
    "county": "LOS ANGELES",
    "phone": "(310) 652-2744",
    "lat": 34.075413,
    "lng": -118.38312
  },
  {
    "id": "630024947",
    "name": "CARE CONNECT HOME HEALTH INC",
    "npi": null,
    "hcaiId": "406196282",
    "businessName": "CARE CONNECT HOME HEALTH INC",
    "contactEmail": "CARECONNECTHOMEHEALTH@GMAIL.COM",
    "categoryName": "HOME HEALTH AGENCY",
    "categoryCode": "HHA",
    "licenseStatus": "ACTIVE",
    "inService": true,
    "licenseNumber": "550008447",
    "licenseEffectiveDate": "03/13/2025",
    "licenseExpirationDate": "03/12/2026",
    "dataDate": "10/18/2025",
    "capacity": 0,
    "address": "8230 BEVERLY BLVD, SUITE 19",
    "city": "LOS ANGELES",
    "zip": "90048",
    "county": "LOS ANGELES",
    "phone": "(310) 272-9120",
    "lat": 34.075908,
    "lng": -118.369197
  },
  {
    "id": "630011539",
    "name": "CEDAR SINAI MEDICAL CENTER",
    "npi": null,
    "hcaiId": null,
    "businessName": null,
    "contactEmail": null,
    "categoryName": "GENERAL ACUTE CARE HOSPITAL",
    "categoryCode": "TRANS",
    "licenseStatus": null,
    "inService": null,
    "licenseNumber": null,
    "licenseEffectiveDate": null,
    "licenseExpirationDate": null,
    "dataDate": "10/18/2025",
    "capacity": 0,
    "address": "8700 BEVERLY BLVD",
    "city": "WEST HOLLYWOOD",
    "zip": "90048",
    "county": "LOS ANGELES",
    "phone": "(310) 423-3277",
    "lat": 34.076538,
    "lng": -118.3800015
  },
  {
    "id": "930000004",
    "name": "CEDARS-SINAI MEDICAL CENTER",
    "npi": "1639172372",
    "hcaiId": "106190555",
    "businessName": "CEDARS-SINAI MEDICAL CENTER",
    "contactEmail": "CHRISTINE.TUCHMAYER@CSHS.ORG",
    "categoryName": "GENERAL ACUTE CARE HOSPITAL",
    "categoryCode": "GACH",
    "licenseStatus": "ACTIVE",
    "inService": true,
    "licenseNumber": "930000110",
    "licenseEffectiveDate": "11/06/2025",
    "licenseExpirationDate": "11/05/2026",
    "dataDate": "10/18/2025",
    "capacity": 919,
    "address": "8700 BEVERLY BOULEVARD",
    "city": "LOS ANGELES",
    "zip": "90048",
    "county": "LOS ANGELES",
    "phone": "(310) 423-4298",
    "lat": 34.076538,
    "lng": -118.3800015
  },
  {
    "id": "630013265",
    "name": "COMFORT CHOICE HOSPICE CARE",
    "npi": "1659669562",
    "hcaiId": "406197921",
    "businessName": "LIRA HOSPICE, INC",
    "contactEmail": "DAVID@THEDOCTORSCHOICEAGENCY.COM",
    "categoryName": "HOSPICE",
    "categoryCode": "HOSPICE",
    "licenseStatus": "ACTIVE",
    "inService": true,
    "licenseNumber": "550001950",
    "licenseEffectiveDate": "05/21/2024",
    "licenseExpirationDate": "05/20/2026",
    "dataDate": "10/18/2025",
    "capacity": 0,
    "address": "6222 WILSHIRE BLVD, SUITE 230",
    "city": "LOS ANGELES",
    "zip": "90048",
    "county": "LOS ANGELES",
    "phone": "(323) 965-2263",
    "lat": 34.06293,
    "lng": -118.3641885
  },
  {
    "id": "930001661",
    "name": "CRESCENT HEIGHTS DIALYSIS CENTER",
    "npi": "1164483533",
    "hcaiId": "306196116",
    "businessName": "TOTAL RENAL CARE, INC.",
    "contactEmail": "CAL_C@DAVITA.COM",
    "categoryName": "CHRONIC DIALYSIS CLINIC",
    "categoryCode": "ESRD/CDC",
    "licenseStatus": "ACTIVE",
    "inService": true,
    "licenseNumber": "930000934",
    "licenseEffectiveDate": "11/27/2024",
    "licenseExpirationDate": "11/26/2025",
    "dataDate": "10/18/2025",
    "capacity": 22,
    "address": "8151 BEVERLY BLVD",
    "city": "LOS ANGELES",
    "zip": "90048",
    "county": "LOS ANGELES",
    "phone": "(323) 655-6226",
    "lat": 34.076259,
    "lng": -118.3670955
  },
  {
    "id": "930001470",
    "name": "DOCTORS OUTPATIENT CENTER FOR SURGERY, INC",
    "npi": "1215263355",
    "hcaiId": "306194996",
    "businessName": "BEVERLY HILLS ADVANCED SURGERY INSTITUTE, INC.",
    "contactEmail": "REBUJIOMM@AOL.COM",
    "categoryName": "SURGICAL CLINIC",
    "categoryCode": "ASC",
    "licenseStatus": "INACTIVE - CAPEN DECISION",
    "inService": false,
    "licenseNumber": "930000895",
    "licenseEffectiveDate": "11/01/2007",
    "licenseExpirationDate": "10/31/2008",
    "dataDate": "10/18/2025",
    "capacity": 0,
    "address": "8436 W 3RD ST, SUITE 700",
    "city": "LOS ANGELES",
    "zip": "90048",
    "county": "LOS ANGELES",
    "phone": "(310) 274-8228",
    "lat": 34.07301,
    "lng": -118.37448
  },
  {
    "id": "980002165",
    "name": "EPIC HOMECARE INC.",
    "npi": "1235136177",
    "hcaiId": "406196097",
    "businessName": "EPIC HOMECARE, INC.",
    "contactEmail": "INFO@EPICHOMECARE.COM",
    "categoryName": "HOME HEALTH AGENCY",
    "categoryCode": "HHA",
    "licenseStatus": "ACTIVE",
    "inService": true,
    "licenseNumber": "980001294",
    "licenseEffectiveDate": "08/10/2025",
    "licenseExpirationDate": "08/09/2026",
    "dataDate": "10/18/2025",
    "capacity": 0,
    "address": "6404 WILSHIRE BLVD, SUITE 550",
    "city": "LOS ANGELES",
    "zip": "90048",
    "county": "LOS ANGELES",
    "phone": "(323) 655-6186",
    "lat": 34.063398,
    "lng": -118.3685805
  },
  {
    "id": "630025093",
    "name": "GOLDEN HILLS HOME HEALTH INC",
    "npi": null,
    "hcaiId": null,
    "businessName": "GOLDEN HILLS HOME HEALTH INC.",
    "contactEmail": "GOLDENHILLSHH@GMAIL.COM",
    "categoryName": "HOME HEALTH AGENCY",
    "categoryCode": "HHA",
    "licenseStatus": "ACTIVE",
    "inService": true,
    "licenseNumber": "550009371",
    "licenseEffectiveDate": "09/16/2025",
    "licenseExpirationDate": "09/15/2026",
    "dataDate": "10/18/2025",
    "capacity": 0,
    "address": "6221 WILSHIRE BLVD, SUITE 620B",
    "city": "LOS ANGELES",
    "zip": "90048",
    "county": "LOS ANGELES",
    "phone": "(818) 405-8698",
    "lat": 34.063452,
    "lng": -118.363896
  },
  {
    "id": "630022021",
    "name": "IV KICKS",
    "npi": null,
    "hcaiId": "406195876",
    "businessName": "IV KICKS LLC",
    "contactEmail": "CHANADEAR93@GMAIL.COM",
    "categoryName": "HOME HEALTH AGENCY",
    "categoryCode": "HHA",
    "licenseStatus": "ACTIVE",
    "inService": true,
    "licenseNumber": "550008041",
    "licenseEffectiveDate": "05/26/2025",
    "licenseExpirationDate": "05/25/2026",
    "dataDate": "10/18/2025",
    "capacity": 0,
    "address": "6535 WILSHIRE BLVD, SUITE 103",
    "city": "LOS ANGELES",
    "zip": "90048",
    "county": "LOS ANGELES",
    "phone": "(845) 323-2884",
    "lat": 34.06428,
    "lng": -118.371159
  },
  {
    "id": "910000330",
    "name": "SHARON CARE CENTER",
    "npi": "1487645214",
    "hcaiId": "206190699",
    "businessName": "SHARON CARE CENTER, LLC",
    "contactEmail": "HANA.ROUSHDY@SHARONCARECENTER.COM",
    "categoryName": "SKILLED NURSING FACILITY",
    "categoryCode": "SNF",
    "licenseStatus": "ACTIVE",
    "inService": true,
    "licenseNumber": "910000151",
    "licenseEffectiveDate": "11/15/2024",
    "licenseExpirationDate": "11/14/2025",
    "dataDate": "10/18/2025",
    "capacity": 86,
    "address": "8167 W 3RD ST",
    "city": "LOS ANGELES",
    "zip": "90048",
    "county": "LOS ANGELES",
    "phone": "(323) 655-2023",
    "lat": 34.072497,
    "lng": -118.367523
  },
  {
    "id": "630008861",
    "name": "THE DOCTOR'S CHOICE AGENCY",
    "npi": "1942489398",
    "hcaiId": "406196953",
    "businessName": "OMNI HOME HEALTH, INC.",
    "contactEmail": "DAVID@THEDOCTORSCHOICEAGENCY.COM",
    "categoryName": "HOME HEALTH AGENCY",
    "categoryCode": "HHA",
    "licenseStatus": "ACTIVE",
    "inService": true,
    "licenseNumber": "550000419",
    "licenseEffectiveDate": "06/22/2025",
    "licenseExpirationDate": "06/21/2026",
    "dataDate": "10/18/2025",
    "capacity": 0,
    "address": "6222 WILSHIRE BLVD, SUITE 515",
    "city": "LOS ANGELES",
    "zip": "90048",
    "county": "LOS ANGELES",
    "phone": "(323) 965-0510",
    "lat": 34.06293,
    "lng": -118.3641885
  },
  {
    "id": "960001103",
    "name": "THE SABAN COMMUNITY CLINIC-BEVERLY HEALTH CENTER",
    "npi": null,
    "hcaiId": "306190306",
    "businessName": "LOS ANGELES FREE CLINIC INC.",
    "contactEmail": "TMILLER@SABANCOMMUNITYCLINIC.ORG",
    "categoryName": "PRIMARY CARE CLINIC",
    "categoryCode": "COMTYC",
    "licenseStatus": "ACTIVE",
    "inService": true,
    "licenseNumber": "960000578",
    "licenseEffectiveDate": "03/26/2025",
    "licenseExpirationDate": "03/25/2026",
    "dataDate": "10/18/2025",
    "capacity": 0,
    "address": "8405 BEVERLY BLVD",
    "city": "LOS ANGELES",
    "zip": "90048",
    "county": "LOS ANGELES",
    "phone": "(323) 337-1789",
    "lat": 34.07634,
    "lng": -118.3733955
  },
  {
    "id": "930000872",
    "name": "TOWER DIALYSIS",
    "npi": "1558337352",
    "hcaiId": "306196122",
    "businessName": "DVA RENAL HEALTHCARE, INC.",
    "contactEmail": "CAL_C@DAVITA.COM",
    "categoryName": "CHRONIC DIALYSIS CLINIC",
    "categoryCode": "ESRD/CDC",
    "licenseStatus": "ACTIVE",
    "inService": true,
    "licenseNumber": "930000937",
    "licenseEffectiveDate": "12/09/2024",
    "licenseExpirationDate": "12/08/2025",
    "dataDate": "10/18/2025",
    "capacity": 22,
    "address": "8635 W 3RD ST, SUITE 560W",
    "city": "LOS ANGELES",
    "zip": "90048",
    "county": "LOS ANGELES",
    "phone": "(310) 855-1742",
    "lat": 34.07418,
    "lng": -118.381149
  },
  {
    "id": "930001334",
    "name": "TOWER OUTPATIENT SURGERY CENTER",
    "npi": "1669687513",
    "hcaiId": null,
    "businessName": null,
    "contactEmail": "NONE@DHS.CA.GOV",
    "categoryName": "SURGICAL CLINIC",
    "categoryCode": "ASC",
    "licenseStatus": null,
    "inService": null,
    "licenseNumber": null,
    "licenseEffectiveDate": null,
    "licenseExpirationDate": null,
    "dataDate": "10/18/2025",
    "capacity": 0,
    "address": "8635 W 3RD ST, SUITE 1085",
    "city": "LOS ANGELES",
    "zip": "90048",
    "county": "LOS ANGELES",
    "phone": "(310) 659-5502",
    "lat": 34.07418,
    "lng": -118.381149
  },
  {
    "id": "930001650",
    "name": "U.S.RENAL CARE WESTSIDE DIALYSIS",
    "npi": "1962473025",
    "hcaiId": "306196040",
    "businessName": "300 S. ROBERTSON DIALYSIS, LLC",
    "contactEmail": "HAIDEE.CRUZ@USRENALCARE.COM",
    "categoryName": "CHRONIC DIALYSIS CLINIC",
    "categoryCode": "ESRD/CDC",
    "licenseStatus": "ACTIVE",
    "inService": true,
    "licenseNumber": "930000915",
    "licenseEffectiveDate": "11/01/2025",
    "licenseExpirationDate": "10/31/2026",
    "dataDate": "10/18/2025",
    "capacity": 26,
    "address": "300 S ROBERTSON BLVD",
    "city": "LOS ANGELES",
    "zip": "90048",
    "county": "LOS ANGELES",
    "phone": "(310) 385-8683",
    "lat": 34.073406,
    "lng": -118.383588
  }
]