[
  {
    "id": "930001744",
    "name": "AIRPORT ENDOSCOPY CENTER",
    "npi": "1013980317",
    "hcaiId": "306196217",
    "businessName": "THE LOS ANGELES/INGLEWOOD ENDOSCOPY ASC, L.P.",
    "contactEmail": "NONE@DHS.CA.GOV",
    "categoryName": "SURGICAL CLINIC",
    "categoryCode": "ASC",
    "licenseStatus": "INACTIVE - CAPEN DECISION",
    "inService": false,
    "licenseNumber": "930000964",
    "licenseEffectiveDate": "05/18/2007",
    "licenseExpirationDate": "05/17/2008",
    "dataDate": "10/18/2025",
    "capacity": 0,
    "address": "8110 AIRPORT BLVD, FLOOR 1",
    "city": "LOS ANGELES",
    "zip": "90045",
    "county": "LOS ANGELES",
    "phone": "(310) 846-4150",
    "lat": 33.965298,
    "lng": -118.384821
  },
  {
    "id": "960000127",
    "name": "AIRPORT MARINA COUNSELING SERVICE",
    "npi": null,
    "hcaiId": "306190863",
    "businessName": "AIRPORT MARINA COUNSELING SERVICE",
    "contactEmail": "AMCCLURE@AMCSHELPS.COM",
    "categoryName": "PRIMARY CARE CLINIC",
    "categoryCode": "COMTYC",
    "licenseStatus": "ACTIVE",
    "inService": true,
    "licenseNumber": "960000174",
    "licenseEffectiveDate": "05/09/2025",
    "licenseExpirationDate": "12/31/2025",
    "dataDate": "10/18/2025",
    "capacity": 0,
    "address": "7891 LA TIJERA BLVD",
    "city": "LOS ANGELES",
    "zip": "90045",
    "county": "LOS ANGELES",
    "phone": "(310) 670-1410",
    "lat": 33.965334,
    "lng": -118.3855725
  },
  {
    "id": "630020400",
    "name": "AVANT CARE HOSPICE, INC.",
    "npi": null,
    "hcaiId": "406193689",
    "businessName": "AVANT CARE HOSPICE, INC.",
    "contactEmail": "AVANTCAREHOSPICE@GMAIL.COM",
    "categoryName": "HOSPICE",
    "categoryCode": "HOSPICE",
    "licenseStatus": "ACTIVE",
    "inService": true,
    "licenseNumber": "550006514",
    "licenseEffectiveDate": "06/30/2025",
    "licenseExpirationDate": "06/29/2027",
    "dataDate": "10/18/2025",
    "capacity": 0,
    "address": "6427 W 87TH ST",
    "city": "LOS ANGELES",
    "zip": "90045",
    "county": "LOS ANGELES",
    "phone": "(323) 870-3020",
    "lat": 33.958692,
    "lng": -118.3999905
  },
  {
    "id": "980001377",
    "name": "DUHANEY HOME HEALTH CARE, INC.",
    "npi": "1407855620",
    "hcaiId": "406194573",
    "businessName": "DUHANEY HOME HEALTH CARE, INC.",
    "contactEmail": "BRDDUHANEYHH@YAHOO.COM",
    "categoryName": "HOME HEALTH AGENCY",
    "categoryCode": "HHA",
    "licenseStatus": "ACTIVE",
    "inService": true,
    "licenseNumber": "980000796",
    "licenseEffectiveDate": "11/12/2025",
    "licenseExpirationDate": "04/25/2026",
    "dataDate": "10/18/2025",
    "capacity": 0,
    "address": "6060 W MANCHESTER AVE, SUITE 312",
    "city": "LOS ANGELES",
    "zip": "90045",
    "county": "LOS ANGELES",
    "phone": "(310) 416-1160",
    "lat": 33.95964101,
    "lng": -118.390733
  },
  {
    "id": "980002411",
    "name": "FIVE STAR HOME HEALTH, INC.",
    "npi": "1124023494",
    "hcaiId": "406197014",
    "businessName": "FIVE STAR HOME HEALTH, INC.",
    "contactEmail": "INFO@FIVESTARHH.COM",
    "categoryName": "HOME HEALTH AGENCY",
    "categoryCode": "HHA",
    "licenseStatus": "ACTIVE",
    "inService": true,
    "licenseNumber": "980001521",
    "licenseEffectiveDate": "12/07/2022",
    "licenseExpirationDate": "12/06/2023",
    "dataDate": "10/18/2025",
    "capacity": 0,
    "address": "8616 LA TIJERA BLVD, SUITE 408",
    "city": "LOS ANGELES",
    "zip": "90045",
    "county": "LOS ANGELES",
    "phone": "(310) 642-0026",
    "lat": 33.959205,
    "lng": -118.3915575
  },
  {
    "id": "930001639",
    "name": "KERLAN-JOBE SURGERY CENTER",
    "npi": "1366408270",
    "hcaiId": "306196069",
    "businessName": "KERLAN-JOBE SURGERY CENTER, LLC",
    "contactEmail": "CLYDE.BREWSTER@HEALTHSOUTH.COM",
    "categoryName": "SURGICAL CLINIC",
    "categoryCode": "ASC",
    "licenseStatus": "INACTIVE - CAPEN DECISION",
    "inService": false,
    "licenseNumber": "930000907",
    "licenseEffectiveDate": "01/08/2008",
    "licenseExpirationDate": "01/07/2009",
    "dataDate": "10/18/2025",
    "capacity": 0,
    "address": "6801 PARK TERRACE DR, SUITE 300",
    "city": "LOS ANGELES",
    "zip": "90045",
    "county": "LOS ANGELES",
    "phone": "(310) 665-7150",
    "lat": 33.97778412,
    "lng": -118.3928343
  },
  {
    "id": "630023127",
    "name": "PRIME WELLNESS COMMUNITY HEALTH CENTER",
    "npi": null,
    "hcaiId": "306190706",
    "businessName": "PRIME WELLNESS COMMUNITY HEALTH CENTER",
    "contactEmail": "INFO@PRIMEWELLNESSCHC.ORG",
    "categoryName": "PRIMARY CARE CLINIC",
    "categoryCode": "COMTYC",
    "licenseStatus": "ACTIVE",
    "inService": true,
    "licenseNumber": "550007434",
    "licenseEffectiveDate": "11/10/2025",
    "licenseExpirationDate": "11/09/2026",
    "dataDate": "10/18/2025",
    "capacity": 0,
    "address": "8610 S SEPULVEDA BLVD, SUITE 104",
    "city": "LOS ANGELES",
    "zip": "90045",
    "county": "LOS ANGELES",
    "phone": "(310) 659-7867",
    "lat": 33.959502,
    "lng": -118.395972
  },
  {
    "id": "630024990",
    "name": "PRUDENT HOME HEALTH CARE, INC.",
    "npi": null,
    "hcaiId": "406198085",
    "businessName": "PRUDENT HOME HEALTH CARE, INC.",
    "contactEmail": "PRUDENTHOMEHEALTH@YAHOO.COM",
    "categoryName": "HOME HEALTH AGENCY",
    "categoryCode": "HHA",
    "licenseStatus": "ACTIVE",
    "inService": true,
    "licenseNumber": "550008539",
    "licenseEffectiveDate": "04/21/2025",
    "licenseExpirationDate": "04/20/2026",
    "dataDate": "10/18/2025",
    "capacity": 0,
    "address": "5250 W CENTURY BLVD, SUITE 208",
    "city": "LOS ANGELES",
    "zip": "90045",
    "county": "LOS ANGELES",
    "phone": "(213) 296-6940",
    "lat": 33.945129,
    "lng": -118.372176
  },
  {
    "id": "980001936",
    "name": "SPIRIT HOME HEALTH CARE",
    "npi": "1649263492",
    "hcaiId": "406195058",
    "businessName": "C.C.A.M., INC.",
    "contactEmail": "INFO@SPIRITHOMEHEALTH.COM",
    "categoryName": "HOME HEALTH AGENCY",
    "categoryCode": "HHA",
    "licenseStatus": "ACTIVE",
    "inService": true,
    "licenseNumber": "980001124",
    "licenseEffectiveDate": "03/06/2025",
    "licenseExpirationDate": "03/05/2026",
    "dataDate": "10/18/2025",
    "capacity": 0,
    "address": "8929 S SEPULVEDA BLVD, SUITE 306",
    "city": "LOS ANGELES",
    "zip": "90045",
    "county": "LOS ANGELES",
    "phone": "(310) 641-4100",
    "lat": 33.955155,
    "lng": -118.3964445
  },
  {
    "id": "980002202",
    "name": "WESTERN STATES HOME HEALTH CARE AGENCY, INC.",
    "npi": "1962474387",
    "hcaiId": "406196184",
    "businessName": "WESTERN STATES HOME HEALTH CARE AGENCY, INC.",
    "contactEmail": "ETILAHUN@AOL.COM",
    "categoryName": "HOME HEALTH AGENCY",
    "categoryCode": "HHA",
    "licenseStatus": "ACTIVE",
    "inService": true,
    "licenseNumber": "980001323",
    "licenseEffectiveDate": "11/10/2025",
    "licenseExpirationDate": "11/09/2026",
    "dataDate": "10/18/2025",
    "capacity": 0,
    "address": "5777 W CENTURY BLVD, SUITE 610",
    "city": "LOS ANGELES",
    "zip": "90045",
    "county": "LOS ANGELES",
    "phone": "(310) 672-4581",
    "lat": 33.945723,
    "lng": -118.383084
  }
]