[
  {
    "id": "630027876",
    "name": "APLA HEALTH - MICHAEL GOTTLIEB HEALTH CENTER",
    "npi": null,
    "hcaiId": null,
    "businessName": "APLA HEALTH & WELLNESS",
    "contactEmail": null,
    "categoryName": "PRIMARY CARE CLINIC",
    "categoryCode": "FQHC/COMTYC",
    "licenseStatus": "ACTIVE",
    "inService": true,
    "licenseNumber": "550002233",
    "licenseEffectiveDate": "04/10/2025",
    "licenseExpirationDate": "04/09/2026",
    "dataDate": "10/18/2025",
    "capacity": 0,
    "address": "7531 SANTA MONICA BLVD, SUITE 100",
    "city": "WEST HOLLYWOOD",
    "zip": "90046",
    "county": "LOS ANGELES",
    "phone": null,
    "lat": 34.09111699,
    "lng": -118.354113
  },
  {
    "id": "630021242",
    "name": "HEAL HOME HEALTH REMEDIES",
    "npi": null,
    "hcaiId": "406195660",
    "businessName": "HEAL HOME HEALTH REMEDIES",
    "contactEmail": "ADMIN@HEALHOMEHEALTHREMEDIES.COM",
    "categoryName": "HOME HEALTH AGENCY",
    "categoryCode": "HHA",
    "licenseStatus": "ACTIVE",
    "inService": true,
    "licenseNumber": "550006569",
    "licenseEffectiveDate": "07/20/2022",
    "licenseExpirationDate": "07/19/2023",
    "dataDate": "10/18/2025",
    "capacity": 0,
    "address": "7449 MELROSE AVE, SUITE 1",
    "city": "WEST HOLLYWOOD",
    "zip": "90046",
    "county": "LOS ANGELES",
    "phone": "(323) 826-5058",
    "lat": 34.0838129,
    "lng": -118.3545834
  },
  {
    "id": "060002020",
    "name": "L'CHAIM ADULT DAY HEALTH CENTER",
    "npi": null,
    "hcaiId": null,
    "businessName": "RUSSIAN JEWISH COMMUNITY CULTURAL CENTER, INC.",
    "contactEmail": "WEHO_ADHC@YAHOO.COM",
    "categoryName": "ADULT DAY HEALTH CARE",
    "categoryCode": "ADHC",
    "licenseStatus": "ACTIVE",
    "inService": true,
    "licenseNumber": "060000804",
    "licenseEffectiveDate": "05/21/2025",
    "licenseExpirationDate": "05/20/2026",
    "dataDate": "10/18/2025",
    "capacity": 0,
    "address": "7636 SANTA MONICA BLVD",
    "city": "WEST HOLLYWOOD",
    "zip": "90046",
    "county": "LOS ANGELES",
    "phone": "(323) 650-8118",
    "lat": 34.09072844,
    "lng": -118.355748
  },
  {
    "id": "980002056",
    "name": "PROGRESSIVE 2000 HOME HEALTH CARE, INC.",
    "npi": "1659323012",
    "hcaiId": "406195030",
    "businessName": "PROGRESSIVE 2000 HOME HEALTH CARE, INC.",
    "contactEmail": "PROGRESSIVE2000HHA@GMAIL.COM",
    "categoryName": "HOME HEALTH AGENCY",
    "categoryCode": "HHA",
    "licenseStatus": "ACTIVE",
    "inService": true,
    "licenseNumber": "980001219",
    "licenseEffectiveDate": "11/16/2025",
    "licenseExpirationDate": "11/15/2026",
    "dataDate": "10/18/2025",
    "capacity": 0,
    "address": "948 N FAIRFAX AVE, SUITE 200",
    "city": "WEST HOLLYWOOD",
    "zip": "90046",
    "county": "LOS ANGELES",
    "phone": "(323) 655-2011",
    "lat": 34.088562,
    "lng": -118.3611465
  },
  {
    "id": "630012248",
    "name": "SANTA HOME HEALTH CARE, INC.",
    "npi": "1730322884",
    "hcaiId": "406197635",
    "businessName": "SANTA HOME HEALTH CARE, INC.",
    "contactEmail": "SANTAHOME@HOTMAIL.COM",
    "categoryName": "HOME HEALTH AGENCY",
    "categoryCode": "HHA",
    "licenseStatus": "ACTIVE",
    "inService": true,
    "licenseNumber": "550001690",
    "licenseEffectiveDate": "11/16/2025",
    "licenseExpirationDate": "11/15/2026",
    "dataDate": "10/18/2025",
    "capacity": 0,
    "address": "8281 MELROSE AVE, SUITE 205",
    "city": "LOS ANGELES",
    "zip": "90046",
    "county": "LOS ANGELES",
    "phone": "(323) 933-3656",
    "lat": 34.08376787,
    "lng": -118.3699196
  },
  {
    "id": "630012559",
    "name": "SUPREME HOSPICE AND PALLIATIVE CARE, INC",
    "npi": null,
    "hcaiId": "406197546",
    "businessName": "SUPREME HOSPICE AND PALLIATIVE CARE, INC.",
    "contactEmail": "SUPREMEHOSPICE@YAHOO.COM",
    "categoryName": "HOSPICE",
    "categoryCode": "HOSPICE",
    "licenseStatus": "ACTIVE",
    "inService": true,
    "licenseNumber": "550001505",
    "licenseEffectiveDate": "03/08/2019",
    "licenseExpirationDate": "03/07/2021",
    "dataDate": "10/18/2025",
    "capacity": 0,
    "address": "8285 WEST SUNSET BLVD, SUITE 9",
    "city": "WEST HOLLYWOOD",
    "zip": "90046",
    "county": "LOS ANGELES",
    "phone": "(310) 281-0070",
    "lat": 34.096995,
    "lng": -118.369872
  },
  {
    "id": "910000326",
    "name": "WEST HOLLYWOOD HEALTHCARE & WELLNESS CENTRE, LP",
    "npi": "1548660350",
    "hcaiId": "206190443",
    "businessName": "WEST HOLLYWOOD HEALTHCARE & WELLNESS CENTRE, LP",
    "contactEmail": "ADMINISTRATOR@CVWILSHIRENC.COM",
    "categoryName": "SKILLED NURSING FACILITY",
    "categoryCode": "SNF",
    "licenseStatus": "ACTIVE",
    "inService": true,
    "licenseNumber": "910000149",
    "licenseEffectiveDate": "04/01/2025",
    "licenseExpirationDate": "03/31/2026",
    "dataDate": "10/18/2025",
    "capacity": 81,
    "address": "855 N FAIRFAX AVE",
    "city": "LOS ANGELES",
    "zip": "90046",
    "county": "LOS ANGELES",
    "phone": "(323) 653-1521",
    "lat": 34.08669715,
    "lng": -118.3615954
  }
]