[
  {
    "id": "630014229",
    "name": "BRITTANY'S PLACE",
    "npi": "1992921571",
    "hcaiId": null,
    "businessName": "BRITTANY'S PLACE, INC.",
    "contactEmail": "MGHCORPORATION@AOL.COM",
    "categoryName": "INTERMEDIATE CARE FACILITY-DD/H/N/CN/IID",
    "categoryCode": "ICFDDH",
    "licenseStatus": "ACTIVE",
    "inService": true,
    "licenseNumber": "550002296",
    "licenseEffectiveDate": "06/07/2025",
    "licenseExpirationDate": "06/06/2026",
    "dataDate": "10/18/2025",
    "capacity": 6,
    "address": "1217 W 101ST ST",
    "city": "LOS ANGELES",
    "zip": "90044",
    "county": "LOS ANGELES",
    "phone": "(323) 754-9051",
    "lat": 33.945129,
    "lng": -118.2968055
  },
  {
    "id": "630017729",
    "name": "BROWNSTONE WELLNESS CENTER",
    "npi": null,
    "hcaiId": null,
    "businessName": "BROWN & PIPKINS CORPORATION",
    "contactEmail": "BROWNPIPKINS@YAHOO.COM",
    "categoryName": "ADULT DAY HEALTH CARE",
    "categoryCode": "ADHC",
    "licenseStatus": "ACTIVE",
    "inService": true,
    "licenseNumber": "550004397",
    "licenseEffectiveDate": "10/15/2025",
    "licenseExpirationDate": "10/14/2026",
    "dataDate": "10/18/2025",
    "capacity": 0,
    "address": "10924 S VERMONT AVE",
    "city": "LOS ANGELES",
    "zip": "90044",
    "county": "LOS ANGELES",
    "phone": "(323) 970-7321",
    "lat": 33.936624,
    "lng": -118.291329
  },
  {
    "id": "630013648",
    "name": "FLORENCE MEDICAL CLINIC",
    "npi": "1093095192",
    "hcaiId": "306197675",
    "businessName": "YEHOWA MEDICAL SERVICES",
    "contactEmail": "CLINIC@YMEDICAL.ORG",
    "categoryName": "PRIMARY CARE CLINIC",
    "categoryCode": "COMTYC",
    "licenseStatus": "ACTIVE",
    "inService": true,
    "licenseNumber": "550001962",
    "licenseEffectiveDate": "06/20/2025",
    "licenseExpirationDate": "06/19/2026",
    "dataDate": "10/18/2025",
    "capacity": 0,
    "address": "1039 W FLORENCE AVE",
    "city": "LOS ANGELES",
    "zip": "90044",
    "county": "LOS ANGELES",
    "phone": "(323) 776-1500",
    "lat": 33.974838,
    "lng": -118.293318
  },
  {
    "id": "060002200",
    "name": "LMS HEALTH PARTNERS",
    "npi": null,
    "hcaiId": null,
    "businessName": "LMS HEALTH PARTNERS, INC.",
    "contactEmail": "LMSHEALTHPARTNERS@HOTMAIL.COM",
    "categoryName": "ADULT DAY HEALTH CARE",
    "categoryCode": "ADHC",
    "licenseStatus": "ACTIVE",
    "inService": true,
    "licenseNumber": "060000927",
    "licenseEffectiveDate": "04/22/2025",
    "licenseExpirationDate": "04/21/2026",
    "dataDate": "10/18/2025",
    "capacity": 0,
    "address": "9201-9203 S. VERMONT AVENUE",
    "city": "LOS ANGELES",
    "zip": "90044",
    "county": "LOS ANGELES",
    "phone": "(310) 300-1111",
    "lat": 33.953166,
    "lng": -118.292112
  },
  {
    "id": "970000064",
    "name": "MANCHESTER HEALTHCARE CENTER",
    "npi": "1134101348",
    "hcaiId": "206190497",
    "businessName": "MANCHESTER HEALTHCARE CENTER, LLC",
    "contactEmail": "ADMINISTRATOR@MANCHESTERHCC.COM",
    "categoryName": "SKILLED NURSING FACILITY",
    "categoryCode": "SNF",
    "licenseStatus": "ACTIVE",
    "inService": true,
    "licenseNumber": "970000032",
    "licenseEffectiveDate": "11/30/2025",
    "licenseExpirationDate": "11/29/2026",
    "dataDate": "10/18/2025",
    "capacity": 49,
    "address": "837 W MANCHESTER AVE",
    "city": "LOS ANGELES",
    "zip": "90044",
    "county": "LOS ANGELES",
    "phone": "(323) 753-1789",
    "lat": 33.960213,
    "lng": -118.288269
  },
  {
    "id": "630018245",
    "name": "NEXT DOOR MED. NET. INC.",
    "npi": null,
    "hcaiId": "306190759",
    "businessName": "NEXT DOOR MED. NET. INC.",
    "contactEmail": "NEXTDOOR58@AOL.COM",
    "categoryName": "PRIMARY CARE CLINIC",
    "categoryCode": "COMTYC",
    "licenseStatus": "ACTIVE",
    "inService": true,
    "licenseNumber": "550008195",
    "licenseEffectiveDate": "09/29/2024",
    "licenseExpirationDate": "09/28/2025",
    "dataDate": "10/18/2025",
    "capacity": 0,
    "address": "5832 S VERMONT AVE",
    "city": "LOS ANGELES",
    "zip": "90044",
    "county": "LOS ANGELES",
    "phone": "(323) 750-7354",
    "lat": 33.988464,
    "lng": -118.291284
  },
  {
    "id": "630027941",
    "name": "SAFE LANDINGS",
    "npi": null,
    "hcaiId": null,
    "businessName": "LOS ANGELES CHRISTIAN HEALTH CENTERS",
    "contactEmail": null,
    "categoryName": "PRIMARY CARE CLINIC",
    "categoryCode": "COMTYC",
    "licenseStatus": "ACTIVE",
    "inService": true,
    "licenseNumber": "550000820",
    "licenseEffectiveDate": "03/06/2025",
    "licenseExpirationDate": "03/05/2026",
    "dataDate": "10/18/2025",
    "capacity": 0,
    "address": "11460 S NORMANDIE AVE",
    "city": "LOS ANGELES",
    "zip": "90044",
    "county": "LOS ANGELES",
    "phone": null,
    "lat": 33.9290931,
    "lng": -118.3183616
  },
  {
    "id": "960002644",
    "name": "ST. ANTHONY MEDICAL CENTER / IMPERIAL CLINIC",
    "npi": null,
    "hcaiId": "306196164",
    "businessName": "ST. ANTHONY MEDICAL CENTERS",
    "contactEmail": "GFAHMY@STAMC.ORG",
    "categoryName": "PRIMARY CARE CLINIC",
    "categoryCode": "COMTYC",
    "licenseStatus": "ACTIVE",
    "inService": true,
    "licenseNumber": "550007255",
    "licenseEffectiveDate": "11/17/2024",
    "licenseExpirationDate": "11/16/2025",
    "dataDate": "10/18/2025",
    "capacity": 0,
    "address": "837 W IMPERIAL HWY",
    "city": "LOS ANGELES",
    "zip": "90044",
    "county": "LOS ANGELES",
    "phone": "(323) 469-5555",
    "lat": 33.931179,
    "lng": -118.290501
  },
  {
    "id": "960002683",
    "name": "UMMA COMMUNITY CLINIC",
    "npi": "1720171242",
    "hcaiId": "306196234",
    "businessName": "UNIVERSITY MUSLIM MEDICAL ASSOCIATION, INC.",
    "contactEmail": "FLORENCE@UMMACLINIC.ORG",
    "categoryName": "PRIMARY CARE CLINIC",
    "categoryCode": "COMTYC",
    "licenseStatus": "ACTIVE",
    "inService": true,
    "licenseNumber": "960001325",
    "licenseEffectiveDate": "05/16/2025",
    "licenseExpirationDate": "05/15/2026",
    "dataDate": "10/18/2025",
    "capacity": 0,
    "address": "711 W FLORENCE AVE",
    "city": "LOS ANGELES",
    "zip": "90044",
    "county": "LOS ANGELES",
    "phone": "(323) 647-1520",
    "lat": 33.974811,
    "lng": -118.286469
  },
  {
    "id": "630027411",
    "name": "UMMA COMMUNITY CLINIC - VERMONT",
    "npi": "1730421330",
    "hcaiId": null,
    "businessName": "UNIVERSITY MUSLIM MEDICAL ASSOCIATION, INC.",
    "contactEmail": null,
    "categoryName": "PRIMARY CARE CLINIC",
    "categoryCode": "COMTYC",
    "licenseStatus": "ACTIVE",
    "inService": true,
    "licenseNumber": "550002630",
    "licenseEffectiveDate": "08/11/2025",
    "licenseExpirationDate": "04/14/2026",
    "dataDate": "10/18/2025",
    "capacity": 0,
    "address": "8114 S VERMONT AVE",
    "city": "LOS ANGELES",
    "zip": "90044",
    "county": "LOS ANGELES",
    "phone": null,
    "lat": 33.96497601,
    "lng": -118.291146
  },
  {
    "id": "630026599",
    "name": "UMMA MOBILE CLINIC #1",
    "npi": "1720171242",
    "hcaiId": null,
    "businessName": "UNIVERSITY MUSLIM MEDICAL ASSOCIATION, INC.",
    "contactEmail": "FLORENCE@UMMACLINIC.ORG",
    "categoryName": "PRIMARY CARE CLINIC",
    "categoryCode": "COMTYC",
    "licenseStatus": "ACTIVE",
    "inService": true,
    "licenseNumber": "960001325",
    "licenseEffectiveDate": "05/16/2025",
    "licenseExpirationDate": "05/15/2026",
    "dataDate": "10/18/2025",
    "capacity": 0,
    "address": "711 W FLORENCE AVE",
    "city": "LOS ANGELES",
    "zip": "90044",
    "county": "LOS ANGELES",
    "phone": "(323) 789-5610",
    "lat": 33.974811,
    "lng": -118.286469
  },
  {
    "id": "630027007",
    "name": "UMMA MOBILE CLINIC #2",
    "npi": "1730421330",
    "hcaiId": null,
    "businessName": "UNIVERSITY MUSLIM MEDICAL ASSOCIATION, INC.",
    "contactEmail": null,
    "categoryName": "PRIMARY CARE CLINIC",
    "categoryCode": "COMTYC",
    "licenseStatus": "ACTIVE",
    "inService": true,
    "licenseNumber": "550002630",
    "licenseEffectiveDate": "08/11/2025",
    "licenseExpirationDate": "04/14/2026",
    "dataDate": "10/18/2025",
    "capacity": 0,
    "address": "711 W FLORENCE AVE",
    "city": "LOS ANGELES",
    "zip": "90044",
    "county": "LOS ANGELES",
    "phone": null,
    "lat": 33.974811,
    "lng": -118.286469
  },
  {
    "id": "630026551",
    "name": "YMS HEALTH CENTER",
    "npi": null,
    "hcaiId": null,
    "businessName": "YEHOWA MEDICAL SERVICES",
    "contactEmail": null,
    "categoryName": "PRIMARY CARE CLINIC",
    "categoryCode": "COMTYC",
    "licenseStatus": "ACTIVE",
    "inService": true,
    "licenseNumber": "550002162",
    "licenseEffectiveDate": "12/27/2024",
    "licenseExpirationDate": "12/26/2025",
    "dataDate": "10/18/2025",
    "capacity": 0,
    "address": "11502 S VERMONT AVE, SUITE C",
    "city": "LOS ANGELES",
    "zip": "90044",
    "county": "LOS ANGELES",
    "phone": null,
    "lat": 33.929901,
    "lng": -118.291365
  }
]