[
  {
    "id": "630015502",
    "name": "BEL AIR CONGREGATE LIVING",
    "npi": null,
    "hcaiId": "206198164",
    "businessName": "KUMBUM-8 INC.",
    "contactEmail": "NATVYDRUG8@GMAIL.COM",
    "categoryName": "CONGREGATE LIVING HEALTH FACILITY",
    "categoryCode": "CLHF",
    "licenseStatus": "ACTIVE",
    "inService": true,
    "licenseNumber": "550003191",
    "licenseEffectiveDate": "08/24/2025",
    "licenseExpirationDate": "08/23/2026",
    "dataDate": "10/18/2025",
    "capacity": 12,
    "address": "1024 NORTH SEPULVEDA BLVD",
    "city": "LOS ANGELES",
    "zip": "90049",
    "county": "LOS ANGELES",
    "phone": "(323) 833-1794",
    "lat": 34.082055,
    "lng": -118.4732055
  },
  {
    "id": "630026893",
    "name": "BRENTWOOD ORTHOPEDIC AND SPINE SURGERY, LLC",
    "npi": null,
    "hcaiId": null,
    "businessName": null,
    "contactEmail": null,
    "categoryName": "SURGICAL CLINIC",
    "categoryCode": "ASC",
    "licenseStatus": null,
    "inService": null,
    "licenseNumber": null,
    "licenseEffectiveDate": null,
    "licenseExpirationDate": null,
    "dataDate": "10/18/2025",
    "capacity": 0,
    "address": "11980 SAN VICENTE BLVD, SUITE 110",
    "city": "LOS ANGELES",
    "zip": "90049",
    "county": "LOS ANGELES",
    "phone": "(310) 207-2677",
    "lat": 34.052076,
    "lng": -118.472148
  },
  {
    "id": "630025534",
    "name": "HALE HEALTH SERVICES, INC.",
    "npi": null,
    "hcaiId": "406190057",
    "businessName": "HALE HEALTH SERVICES, INC.",
    "contactEmail": "HALEHHCINC@GMAIL.COM",
    "categoryName": "HOME HEALTH AGENCY",
    "categoryCode": "HHA",
    "licenseStatus": "ACTIVE",
    "inService": true,
    "licenseNumber": "550008897",
    "licenseEffectiveDate": "08/03/2025",
    "licenseExpirationDate": "08/02/2026",
    "dataDate": "10/18/2025",
    "capacity": 0,
    "address": "520 S SEPULVEDA BLVD, SUITE 305B",
    "city": "LOS ANGELES",
    "zip": "90049",
    "county": "LOS ANGELES",
    "phone": "(213) 306-7931",
    "lat": 34.065801,
    "lng": -118.459665
  },
  {
    "id": "630025985",
    "name": "KAPPA HHC, INC",
    "npi": null,
    "hcaiId": null,
    "businessName": "KAPPA HHC, INC",
    "contactEmail": "KAPPAHHC@GMAIL.COM",
    "categoryName": "HOME HEALTH AGENCY",
    "categoryCode": "HHA",
    "licenseStatus": "ACTIVE",
    "inService": true,
    "licenseNumber": "550009392",
    "licenseEffectiveDate": "01/26/2025",
    "licenseExpirationDate": "07/25/2025",
    "dataDate": "10/18/2025",
    "capacity": 0,
    "address": "520 S SEPULVEDA BLVD, SUITE 305A",
    "city": "LOS ANGELES",
    "zip": "90049",
    "county": "LOS ANGELES",
    "phone": "(213) 290-6545",
    "lat": 34.065801,
    "lng": -118.459665
  },
  {
    "id": "630025735",
    "name": "TELEA HOME HEALTH CARE, INC.",
    "npi": null,
    "hcaiId": null,
    "businessName": "TELEA HOME HEALTH CARE, INC.",
    "contactEmail": null,
    "categoryName": "HOME HEALTH AGENCY",
    "categoryCode": "HHA",
    "licenseStatus": "ACTIVE",
    "inService": true,
    "licenseNumber": "550009346",
    "licenseEffectiveDate": "01/26/2025",
    "licenseExpirationDate": "07/25/2025",
    "dataDate": "10/18/2025",
    "capacity": 0,
    "address": "520 S SEPULVEDA BLVD, SUITE 350C",
    "city": "LOS ANGELES",
    "zip": "90049",
    "county": "LOS ANGELES",
    "phone": "(213) 737-1577",
    "lat": 34.065801,
    "lng": -118.459665
  },
  {
    "id": "630013558",
    "name": "VETERANS HOME OF CALIFORNIA - WEST LOS ANGELES",
    "npi": null,
    "hcaiId": "206198090",
    "businessName": "CALIFORNIA DEPARTMENT OF VETERANS AFFAIRS",
    "contactEmail": "KEVIN.MCGUIRE@CALVET.CA.GOV",
    "categoryName": "SKILLED NURSING FACILITY",
    "categoryCode": "SNF",
    "licenseStatus": "ACTIVE",
    "inService": true,
    "licenseNumber": "550002051",
    "licenseEffectiveDate": "09/21/2025",
    "licenseExpirationDate": "09/20/2026",
    "dataDate": "10/18/2025",
    "capacity": 312,
    "address": "11500 NIMITZ AVE",
    "city": "LOS ANGELES",
    "zip": "90049",
    "county": "LOS ANGELES",
    "phone": "(424) 832-8200",
    "lat": 34.058007,
    "lng": -118.464516
  }
]