[
  {
    "id": "630011541",
    "name": "AFFINITY HEALTH CARE PROVIDERS, INC.",
    "npi": "1649465402",
    "hcaiId": "406197634",
    "businessName": "AFFINITY HEALTH CARE PROVIDERS, INC.",
    "contactEmail": "AFFINITYHCP@GMAIL.COM",
    "categoryName": "HOME HEALTH AGENCY",
    "categoryCode": "HHA",
    "licenseStatus": "ACTIVE",
    "inService": true,
    "licenseNumber": "550001691",
    "licenseEffectiveDate": "12/01/2024",
    "licenseExpirationDate": "11/30/2025",
    "dataDate": "10/18/2025",
    "capacity": 0,
    "address": "1551 COLORADO BLVD, SUITE 203",
    "city": "LOS ANGELES",
    "zip": "90041",
    "county": "LOS ANGELES",
    "phone": "(323) 259-9821",
    "lat": 34.139718,
    "lng": -118.1999115
  },
  {
    "id": "970000091",
    "name": "ARARAT CONVALESCENT HOSPITAL",
    "npi": "1003958356",
    "hcaiId": "206190251",
    "businessName": "ARARAT HOME OF LOS ANGELES, INC.",
    "contactEmail": "JACKW@ARARATHOME.ORG",
    "categoryName": "SKILLED NURSING FACILITY",
    "categoryCode": "SNF",
    "licenseStatus": "ACTIVE",
    "inService": true,
    "licenseNumber": "970000045",
    "licenseEffectiveDate": "11/19/2024",
    "licenseExpirationDate": "11/18/2025",
    "dataDate": "10/18/2025",
    "capacity": 42,
    "address": "2373 COLORADO BLVD",
    "city": "LOS ANGELES",
    "zip": "90041",
    "county": "LOS ANGELES",
    "phone": "(323) 256-8012",
    "lat": 34.140285,
    "lng": -118.218168
  },
  {
    "id": "630020945",
    "name": "CELEBRITY HOME HEALTH CARE",
    "npi": null,
    "hcaiId": "406193162",
    "businessName": "CELEBRITY HOME HEALTH CARE",
    "contactEmail": "CELEBRITYHOMEHEALTH@GMAIL.COM",
    "categoryName": "HOME HEALTH AGENCY",
    "categoryCode": "HHA",
    "licenseStatus": "ACTIVE",
    "inService": true,
    "licenseNumber": "550006975",
    "licenseEffectiveDate": "10/13/2025",
    "licenseExpirationDate": "10/12/2026",
    "dataDate": "10/18/2025",
    "capacity": 0,
    "address": "2455 COLORADO BLVD, SUITE 10",
    "city": "LOS ANGELES",
    "zip": "90041",
    "county": "LOS ANGELES",
    "phone": "(818) 536-7369",
    "lat": 34.141473,
    "lng": -118.220481
  },
  {
    "id": "970000089",
    "name": "COLLEGE VISTA POST-ACUTE",
    "npi": "1194195164",
    "hcaiId": "206190187",
    "businessName": "COLLEGE VISTA, LLC",
    "contactEmail": "ADMIN@COLLEGEVISTACARE.COM",
    "categoryName": "SKILLED NURSING FACILITY",
    "categoryCode": "SNF",
    "licenseStatus": "ACTIVE",
    "inService": true,
    "licenseNumber": "970000044",
    "licenseEffectiveDate": "02/05/2025",
    "licenseExpirationDate": "02/04/2026",
    "dataDate": "10/18/2025",
    "capacity": 49,
    "address": "4681 EAGLE ROCK BLVD",
    "city": "LOS ANGELES",
    "zip": "90041",
    "county": "LOS ANGELES",
    "phone": "(323) 257-8151",
    "lat": 34.129692,
    "lng": -118.217583
  },
  {
    "id": "960002821",
    "name": "COMPREHENSIVE COMMUNITY HEALTH CTR INC-EAGLE ROCK",
    "npi": null,
    "hcaiId": "306196528",
    "businessName": "COMPREHENSIVE COMMUNITY HEALTH CENTER, INC.",
    "contactEmail": "DAVIDLO@CCHCCENTERS.ORG",
    "categoryName": "PRIMARY CARE CLINIC",
    "categoryCode": "COMTYC",
    "licenseStatus": "ACTIVE",
    "inService": true,
    "licenseNumber": "960001406",
    "licenseEffectiveDate": "11/10/2024",
    "licenseExpirationDate": "11/09/2025",
    "dataDate": "10/18/2025",
    "capacity": 0,
    "address": "1704 COLORADO BLVD",
    "city": "LOS ANGELES",
    "zip": "90041",
    "county": "LOS ANGELES",
    "phone": "(323) 256-4116",
    "lat": 34.139214,
    "lng": -118.2039255
  },
  {
    "id": "630021079",
    "name": "DEPENDABLE HOSPICE & PALLIATIVE CARE INC",
    "npi": null,
    "hcaiId": "406196146",
    "businessName": "DEPENDABLE HOSPICE & PALLIATIVE CARE INC",
    "contactEmail": "DEPENDABLEHOSPICEPALLIATIVE@GMAIL.COM",
    "categoryName": "HOSPICE",
    "categoryCode": "HOSPICE",
    "licenseStatus": "ACTIVE",
    "inService": true,
    "licenseNumber": "550006408",
    "licenseEffectiveDate": "12/19/2024",
    "licenseExpirationDate": "06/07/2025",
    "dataDate": "10/18/2025",
    "capacity": 0,
    "address": "5015 EAGLE ROCK BLVD, SUITE 202",
    "city": "LOS ANGELES",
    "zip": "90041",
    "county": "LOS ANGELES",
    "phone": "(818) 584-8811",
    "lat": 34.13758982,
    "lng": -118.2149272
  },
  {
    "id": "630025789",
    "name": "E&E HOME HEALTH INC",
    "npi": null,
    "hcaiId": null,
    "businessName": "E&E HOME HEALTH INC",
    "contactEmail": "EEHHINC@GMAIL.COM",
    "categoryName": "HOME HEALTH AGENCY",
    "categoryCode": "HHA",
    "licenseStatus": "ACTIVE",
    "inService": true,
    "licenseNumber": "550008960",
    "licenseEffectiveDate": "02/08/2025",
    "licenseExpirationDate": "02/07/2026",
    "dataDate": "10/18/2025",
    "capacity": 0,
    "address": "2369 COLORADO BLVD, SUITE 201",
    "city": "LOS ANGELES",
    "zip": "90041",
    "county": "LOS ANGELES",
    "phone": "(818) 483-3354",
    "lat": 34.140141,
    "lng": -118.217862
  },
  {
    "id": "630025776",
    "name": "E&H HEALTHCARE, INC.",
    "npi": null,
    "hcaiId": null,
    "businessName": "E&H HEALTHCARE, INC.",
    "contactEmail": "EHHEALTHCAREINC@GMAIL.COM",
    "categoryName": "HOME HEALTH AGENCY",
    "categoryCode": "HHA",
    "licenseStatus": "ACTIVE",
    "inService": true,
    "licenseNumber": "550009142",
    "licenseEffectiveDate": "05/11/2025",
    "licenseExpirationDate": "05/10/2026",
    "dataDate": "10/18/2025",
    "capacity": 0,
    "address": "2369 COLORADO BLVD, SUITE 200",
    "city": "LOS ANGELES",
    "zip": "90041",
    "county": "LOS ANGELES",
    "phone": "(747) 788-4023",
    "lat": 34.140141,
    "lng": -118.217862
  },
  {
    "id": "960000915",
    "name": "EAGLEDALE DIVISION",
    "npi": "1033247440",
    "hcaiId": null,
    "businessName": "ABILITY PATHWAYS INCORPORATED",
    "contactEmail": "MRARN@AOL.COM",
    "categoryName": "INTERMEDIATE CARE FACILITY-DD/H/N/CN/IID",
    "categoryCode": "ICFDDH",
    "licenseStatus": "ACTIVE",
    "inService": true,
    "licenseNumber": "960000503",
    "licenseEffectiveDate": "06/19/2025",
    "licenseExpirationDate": "06/18/2026",
    "dataDate": "10/18/2025",
    "capacity": 6,
    "address": "5283 EAGLE DALE AVE",
    "city": "LOS ANGELES",
    "zip": "90041",
    "county": "LOS ANGELES",
    "phone": "(323) 254-5317",
    "lat": 34.145136,
    "lng": -118.2283425
  },
  {
    "id": "630024062",
    "name": "ETERNITY HOME HEALTH CARE, INC",
    "npi": null,
    "hcaiId": "406197168",
    "businessName": "ETERNITY HOME HEALTH CARE, INC",
    "contactEmail": "ETERNITYHHCS@GMAIL.COM",
    "categoryName": "HOME HEALTH AGENCY",
    "categoryCode": "HHA",
    "licenseStatus": "ACTIVE",
    "inService": true,
    "licenseNumber": "550008144",
    "licenseEffectiveDate": "08/18/2025",
    "licenseExpirationDate": "08/17/2026",
    "dataDate": "10/18/2025",
    "capacity": 0,
    "address": "1480 COLORADO BLVD, SUITE 125",
    "city": "LOS ANGELES",
    "zip": "90041",
    "county": "LOS ANGELES",
    "phone": "(323) 474-6712",
    "lat": 34.139106,
    "lng": -118.197315
  },
  {
    "id": "630018501",
    "name": "FIRST EAGLE HOSPICE INC.",
    "npi": "1609348382",
    "hcaiId": "406191960",
    "businessName": "FIRST EAGLE HOSPICE INC.",
    "contactEmail": "FIRSTEAGLEHOSPICE@GMAIL.COM",
    "categoryName": "HOSPICE",
    "categoryCode": "HOSPICE",
    "licenseStatus": "ACTIVE",
    "inService": true,
    "licenseNumber": "550005015",
    "licenseEffectiveDate": "05/03/2022",
    "licenseExpirationDate": "09/09/2023",
    "dataDate": "10/18/2025",
    "capacity": 0,
    "address": "850 COLORADO BLVD, SUITE 101",
    "city": "LOS ANGELES",
    "zip": "90041",
    "county": "LOS ANGELES",
    "phone": "(818) 446-2576",
    "lat": 34.139763,
    "lng": -118.184499
  },
  {
    "id": "960001598",
    "name": "GLENCREST DIVISION",
    "npi": "1558499541",
    "hcaiId": null,
    "businessName": "ABILITY PATHWAYS INCORPORATED",
    "contactEmail": "SISMAYRA26@YAHOO.COM",
    "categoryName": "INTERMEDIATE CARE FACILITY-DD/H/N/CN/IID",
    "categoryCode": "ICFDDH",
    "licenseStatus": "ACTIVE",
    "inService": true,
    "licenseNumber": "960000792",
    "licenseEffectiveDate": "06/19/2025",
    "licenseExpirationDate": "06/18/2026",
    "dataDate": "10/18/2025",
    "capacity": 6,
    "address": "5281 EAGLEDALE AVE",
    "city": "LOS ANGELES",
    "zip": "90041",
    "county": "LOS ANGELES",
    "phone": "(818) 568-5471",
    "lat": 34.145136,
    "lng": -118.2283425
  },
  {
    "id": "630025919",
    "name": "GLOBE HOME HEALTH, INC.",
    "npi": null,
    "hcaiId": null,
    "businessName": "GLOBE HOME HEALTH, INC.",
    "contactEmail": "GLOBEHHI@GMAIL.COM",
    "categoryName": "HOME HEALTH AGENCY",
    "categoryCode": "HHA",
    "licenseStatus": "ACTIVE",
    "inService": true,
    "licenseNumber": "550009239",
    "licenseEffectiveDate": "01/15/2025",
    "licenseExpirationDate": "07/14/2025",
    "dataDate": "10/18/2025",
    "capacity": 0,
    "address": "5015 EAGLE ROCK BLVD, SUITE 209C",
    "city": "LOS ANGELES",
    "zip": "90041",
    "county": "LOS ANGELES",
    "phone": "(747) 777-4564",
    "lat": 34.137459,
    "lng": -118.214793
  },
  {
    "id": "980001843",
    "name": "GOOD LIFE HOME HEALTH CARE SERVICES, INC.",
    "npi": "1790786150",
    "hcaiId": "406194929",
    "businessName": "GOOD LIFE HOME HEALTH CARE SERVICES, INC.",
    "contactEmail": "GOODLIFEHHCS@GMAIL.COM",
    "categoryName": "HOME HEALTH AGENCY",
    "categoryCode": "HHA",
    "licenseStatus": "ACTIVE",
    "inService": true,
    "licenseNumber": "980001092",
    "licenseEffectiveDate": "01/22/2025",
    "licenseExpirationDate": "01/21/2026",
    "dataDate": "10/18/2025",
    "capacity": 0,
    "address": "2501 COLORADO BLVD, SUITE G",
    "city": "LOS ANGELES",
    "zip": "90041",
    "county": "LOS ANGELES",
    "phone": "(323) 478-9471",
    "lat": 34.141806,
    "lng": -118.2212055
  },
  {
    "id": "960002406",
    "name": "GRACELIGHT COMMUNITY HEALTH",
    "npi": "1801967062",
    "hcaiId": "306196099",
    "businessName": "GRACELIGHT COMMUNITY HEALTH",
    "contactEmail": "COMPLIANCE@QUEENSCARE.ORG",
    "categoryName": "PRIMARY CARE CLINIC",
    "categoryCode": "COMTYC",
    "licenseStatus": "ACTIVE",
    "inService": true,
    "licenseNumber": "550000960",
    "licenseEffectiveDate": "04/01/2025",
    "licenseExpirationDate": "03/31/2026",
    "dataDate": "10/18/2025",
    "capacity": 0,
    "address": "4448 YORK BLVD",
    "city": "LOS ANGELES",
    "zip": "90041",
    "county": "LOS ANGELES",
    "phone": "(310) 492-3595",
    "lat": 34.123491,
    "lng": -118.2189195
  },
  {
    "id": "630025723",
    "name": "HARMONICA HOME HEALTH SERVICES INC",
    "npi": null,
    "hcaiId": "406190083",
    "businessName": "HARMONICA HOME HEALTH SERVICES INC",
    "contactEmail": "HARMONICA8899@GMAIL.COM",
    "categoryName": "HOME HEALTH AGENCY",
    "categoryCode": "HHA",
    "licenseStatus": "ACTIVE",
    "inService": true,
    "licenseNumber": "550008855",
    "licenseEffectiveDate": "12/14/2024",
    "licenseExpirationDate": "12/13/2025",
    "dataDate": "10/18/2025",
    "capacity": 0,
    "address": "1480 COLORADO BLVD, UNIT 240",
    "city": "LOS ANGELES",
    "zip": "90041",
    "county": "LOS ANGELES",
    "phone": "(747) 300-0801",
    "lat": 34.139106,
    "lng": -118.197315
  },
  {
    "id": "980002231",
    "name": "HEALING HANDS HOME HEALTH CARE, INC.",
    "npi": "1922006030",
    "hcaiId": "406196242",
    "businessName": "HEALING HANDS HOME HEALTH CARE, INC.",
    "contactEmail": "HHHI1014@YAHOO.COM",
    "categoryName": "HOME HEALTH AGENCY",
    "categoryCode": "HHA",
    "licenseStatus": "ACTIVE",
    "inService": true,
    "licenseNumber": "980001349",
    "licenseEffectiveDate": "11/08/2025",
    "licenseExpirationDate": "11/07/2026",
    "dataDate": "10/18/2025",
    "capacity": 0,
    "address": "2525 COLORADO BLVD, SUITE D",
    "city": "LOS ANGELES",
    "zip": "90041",
    "county": "LOS ANGELES",
    "phone": "(323) 739-0333",
    "lat": 34.141887,
    "lng": -118.221687
  },
  {
    "id": "630018609",
    "name": "HELLEN'S HOME HEALTH CARE, INC",
    "npi": null,
    "hcaiId": "406192139",
    "businessName": "HELLEN'S HOME HEALTH CARE, INC",
    "contactEmail": "HELENSHHCARE@GMAIL.COM",
    "categoryName": "HOME HEALTH AGENCY",
    "categoryCode": "HHA",
    "licenseStatus": "ACTIVE",
    "inService": true,
    "licenseNumber": "550005138",
    "licenseEffectiveDate": "12/03/2025",
    "licenseExpirationDate": "12/02/2026",
    "dataDate": "10/18/2025",
    "capacity": 0,
    "address": "1400 COLORADO BLVD, SUITE C",
    "city": "EAGLE ROCK",
    "zip": "90041",
    "county": "LOS ANGELES",
    "phone": "(323) 274-4586",
    "lat": 34.13933052,
    "lng": -118.194614
  },
  {
    "id": "630007524",
    "name": "J & L HOME HEALTH SERVICES, INC.",
    "npi": "1447457510",
    "hcaiId": "406196856",
    "businessName": "J & L HOME HEALTH SERVICES, INC.",
    "contactEmail": "MAIL@JLHOMEHEALTH.COM",
    "categoryName": "HOME HEALTH AGENCY",
    "categoryCode": "HHA",
    "licenseStatus": "ACTIVE",
    "inService": true,
    "licenseNumber": "550000316",
    "licenseEffectiveDate": "11/22/2024",
    "licenseExpirationDate": "11/21/2025",
    "dataDate": "10/18/2025",
    "capacity": 0,
    "address": "2161 COLORADO BLVD, SUITE 205",
    "city": "LOS ANGELES",
    "zip": "90041",
    "county": "LOS ANGELES",
    "phone": "(323) 255-3191",
    "lat": 34.139322,
    "lng": -118.2135735
  },
  {
    "id": "960002218",
    "name": "LAVERNA GUEST HOME",
    "npi": "1073721288",
    "hcaiId": null,
    "businessName": "MODEL RESIDENTIAL HOME, INC.",
    "contactEmail": "MARK.MORENORN@GMAIL.COM",
    "categoryName": "INTERMEDIATE CARE FACILITY-DD/H/N/CN/IID",
    "categoryCode": "ICFDDN",
    "licenseStatus": "ACTIVE",
    "inService": true,
    "licenseNumber": "960001042",
    "licenseEffectiveDate": "03/13/2025",
    "licenseExpirationDate": "03/12/2026",
    "dataDate": "10/18/2025",
    "capacity": 6,
    "address": "2227 LAVERNA AVE",
    "city": "LOS ANGELES",
    "zip": "90041",
    "county": "LOS ANGELES",
    "phone": "(323) 254-3621",
    "lat": 34.13385,
    "lng": -118.2167505
  },
  {
    "id": "630013452",
    "name": "LOLETA GUEST HOME, ICF-DDN",
    "npi": "1356619019",
    "hcaiId": null,
    "businessName": "MODEL RESIDENTIAL HOME, INC.",
    "contactEmail": "MRHI5129@GMAIL.COM",
    "categoryName": "INTERMEDIATE CARE FACILITY-DD/H/N/CN/IID",
    "categoryCode": "ICFDDN",
    "licenseStatus": "ACTIVE",
    "inService": true,
    "licenseNumber": "550001961",
    "licenseEffectiveDate": "06/11/2025",
    "licenseExpirationDate": "06/10/2026",
    "dataDate": "10/18/2025",
    "capacity": 6,
    "address": "5129 LOLETA AVE",
    "city": "LOS ANGELES",
    "zip": "90041",
    "county": "LOS ANGELES",
    "phone": "(323) 257-0115",
    "lat": 34.140051,
    "lng": -118.198422
  },
  {
    "id": "630022235",
    "name": "LOYAL HANDS HOME HEALTH CARE, INC.",
    "npi": null,
    "hcaiId": "406195402",
    "businessName": "LOYAL HANDS HOME HEALTH CARE, INC.",
    "contactEmail": "LOYALHANDSHOMEHEALTHCARE@GMAIL.COM",
    "categoryName": "HOME HEALTH AGENCY",
    "categoryCode": "HHA",
    "licenseStatus": "ACTIVE",
    "inService": true,
    "licenseNumber": "550007865",
    "licenseEffectiveDate": "02/14/2025",
    "licenseExpirationDate": "02/13/2026",
    "dataDate": "10/18/2025",
    "capacity": 0,
    "address": "825 COLORADO BLVD, SUITE 112",
    "city": "LOS ANGELES",
    "zip": "90041",
    "county": "LOS ANGELES",
    "phone": "(626) 800-0117",
    "lat": 34.140699,
    "lng": -118.184715
  },
  {
    "id": "630023746",
    "name": "MEDLINE HOME CARE",
    "npi": null,
    "hcaiId": "406190039",
    "businessName": "MEDLINE HOME CARE",
    "contactEmail": "MEDLINEHOMECARE@OUTLOOK.COM",
    "categoryName": "HOME HEALTH AGENCY",
    "categoryCode": "HHA",
    "licenseStatus": "ACTIVE",
    "inService": true,
    "licenseNumber": "550008704",
    "licenseEffectiveDate": "01/28/2024",
    "licenseExpirationDate": "07/27/2024",
    "dataDate": "10/18/2025",
    "capacity": 0,
    "address": "1480 COLORADO BLVD, SUITE 255A",
    "city": "LOS ANGELES",
    "zip": "90041",
    "county": "LOS ANGELES",
    "phone": "(818) 838-7314",
    "lat": 34.139106,
    "lng": -118.197315
  },
  {
    "id": "630024255",
    "name": "MK HOME HEALTH SERVICES",
    "npi": null,
    "hcaiId": null,
    "businessName": "MK HOME HEALTH SERVICES",
    "contactEmail": "MKHOMEHEALTHSERVICES@GMAIL.COM",
    "categoryName": "HOME HEALTH AGENCY",
    "categoryCode": "HHA",
    "licenseStatus": "ACTIVE",
    "inService": true,
    "licenseNumber": "550008295",
    "licenseEffectiveDate": "12/13/2024",
    "licenseExpirationDate": "12/12/2025",
    "dataDate": "10/18/2025",
    "capacity": 0,
    "address": "930 COLORADO BLVD, SUITE #1",
    "city": "LOS ANGELES",
    "zip": "90041",
    "county": "LOS ANGELES",
    "phone": "(818) 206-4702",
    "lat": 34.138476,
    "lng": -118.1856195
  },
  {
    "id": "630022675",
    "name": "PRACTITIONERS CARE HOME HEALTH",
    "npi": null,
    "hcaiId": "406195214",
    "businessName": "PRACTITIONERS CARE HOME HEALTH",
    "contactEmail": "PRACTITIONERSCAREHOMEHEALTH@GMAIL.COM",
    "categoryName": "HOME HEALTH AGENCY",
    "categoryCode": "HHA",
    "licenseStatus": "ACTIVE",
    "inService": true,
    "licenseNumber": "550007940",
    "licenseEffectiveDate": "04/06/2025",
    "licenseExpirationDate": "04/05/2026",
    "dataDate": "10/18/2025",
    "capacity": 0,
    "address": "2161 COLORADO BLVD, SUITE 204",
    "city": "LOS ANGELES",
    "zip": "90041",
    "county": "LOS ANGELES",
    "phone": "(747) 297-2890",
    "lat": 34.139322,
    "lng": -118.2135735
  },
  {
    "id": "980002367",
    "name": "PROVIDENT HOME HEALTH, INC.",
    "npi": "1801954466",
    "hcaiId": "406196425",
    "businessName": "PROVIDENT HOME HEALTH, INC.",
    "contactEmail": "OFFICE@PHHI.ONE",
    "categoryName": "HOME HEALTH AGENCY",
    "categoryCode": "HHA",
    "licenseStatus": "ACTIVE",
    "inService": true,
    "licenseNumber": "980001477",
    "licenseEffectiveDate": "02/25/2025",
    "licenseExpirationDate": "02/24/2026",
    "dataDate": "10/18/2025",
    "capacity": 0,
    "address": "5015 EAGLE ROCK BLVD, SUITE 207",
    "city": "LOS ANGELES",
    "zip": "90041",
    "county": "LOS ANGELES",
    "phone": "(818) 241-9500",
    "lat": 34.137459,
    "lng": -118.214793
  },
  {
    "id": "630018315",
    "name": "SAINT MARIAM HOME HEALTH CARE, INC.",
    "npi": "1326520065",
    "hcaiId": "406191897",
    "businessName": "SAINT MARIAM HOME HEALTH CARE",
    "contactEmail": "SAINTMARIAMHHC@GMAIL.COM",
    "categoryName": "HOME HEALTH AGENCY",
    "categoryCode": "HHA",
    "licenseStatus": "ACTIVE",
    "inService": true,
    "licenseNumber": "550004962",
    "licenseEffectiveDate": "09/24/2025",
    "licenseExpirationDate": "09/23/2026",
    "dataDate": "10/18/2025",
    "capacity": 0,
    "address": "1480 COLORADO BLVD, SUITE 275",
    "city": "LOS ANGELES",
    "zip": "90041",
    "county": "LOS ANGELES",
    "phone": "(323) 999-7515",
    "lat": 34.139106,
    "lng": -118.197315
  },
  {
    "id": "630028078",
    "name": "SHINING STAR ADHC INC",
    "npi": null,
    "hcaiId": null,
    "businessName": "SHINING STAR ADHC INC",
    "contactEmail": "SHININGSTARADHC@GMAIL.COM",
    "categoryName": "ADULT DAY HEALTH CARE",
    "categoryCode": "ADHC",
    "licenseStatus": "ACTIVE",
    "inService": true,
    "licenseNumber": "550009714",
    "licenseEffectiveDate": "04/25/2025",
    "licenseExpirationDate": "03/16/2026",
    "dataDate": "10/18/2025",
    "capacity": 0,
    "address": "1800 COLORADO BLVD",
    "city": "LOS ANGELES",
    "zip": "90041",
    "county": "LOS ANGELES",
    "phone": "(213) 927-4131",
    "lat": 34.13900955,
    "lng": -118.2065791
  },
  {
    "id": "630015526",
    "name": "SOFT TOUCH HOSPICE INC",
    "npi": "1669892584",
    "hcaiId": "406198531",
    "businessName": "SOFT TOUCH HOSPICE INC",
    "contactEmail": "OFFICE@SOFTTOUCHHOSPICE.COM",
    "categoryName": "HOSPICE",
    "categoryCode": "HOSPICE",
    "licenseStatus": "ACTIVE",
    "inService": true,
    "licenseNumber": "550004003",
    "licenseEffectiveDate": "10/27/2023",
    "licenseExpirationDate": "10/26/2025",
    "dataDate": "10/18/2025",
    "capacity": 0,
    "address": "5015 EAGLE ROCK BLVD, SUITE 309B",
    "city": "LOS ANGELES",
    "zip": "90041",
    "county": "LOS ANGELES",
    "phone": "(818) 376-8661",
    "lat": 34.137459,
    "lng": -118.214793
  },
  {
    "id": "970000099",
    "name": "SOLHEIM SENIOR COMMUNITY",
    "npi": "1114901741",
    "hcaiId": "206190725",
    "businessName": "SOLHEIM LUTHERAN HOME",
    "contactEmail": "MPIERCE@SOLHEIMSENIOR.ORG",
    "categoryName": "SKILLED NURSING FACILITY",
    "categoryCode": "SNF",
    "licenseStatus": "ACTIVE",
    "inService": true,
    "licenseNumber": "970000049",
    "licenseEffectiveDate": "11/30/2024",
    "licenseExpirationDate": "11/29/2025",
    "dataDate": "10/18/2025",
    "capacity": 76,
    "address": "2236 MERTON AVE",
    "city": "LOS ANGELES",
    "zip": "90041",
    "county": "LOS ANGELES",
    "phone": "(323) 257-7518",
    "lat": 34.137513,
    "lng": -118.215963
  },
  {
    "id": "630021928",
    "name": "SPIRITUAL HOSPICE CARE, INC.",
    "npi": null,
    "hcaiId": "406195008",
    "businessName": "SPIRITUAL HOSPICE CARE, INC.",
    "contactEmail": "SPIRITUALHOSPICECARE@GMAIL.COM",
    "categoryName": "HOSPICE",
    "categoryCode": "HOSPICE",
    "licenseStatus": "ACTIVE",
    "inService": true,
    "licenseNumber": "550007270",
    "licenseEffectiveDate": "11/30/2023",
    "licenseExpirationDate": "11/29/2025",
    "dataDate": "10/18/2025",
    "capacity": 0,
    "address": "1053 COLORADO BLVD, SUITE G1",
    "city": "LOS ANGELES",
    "zip": "90041",
    "county": "LOS ANGELES",
    "phone": "(213) 344-2555",
    "lat": 34.137585,
    "lng": -118.189305
  },
  {
    "id": "630020536",
    "name": "TRUE LEGACY INC.",
    "npi": null,
    "hcaiId": "406193942",
    "businessName": "TRUE LEGACY INC.",
    "contactEmail": "LEGACYLA19@YAHOO.COM",
    "categoryName": "HOSPICE",
    "categoryCode": "HOSPICE",
    "licenseStatus": "ACTIVE",
    "inService": true,
    "licenseNumber": "550006961",
    "licenseEffectiveDate": "10/07/2023",
    "licenseExpirationDate": "10/06/2025",
    "dataDate": "10/18/2025",
    "capacity": 0,
    "address": "1722 1/2 COLORADO BLVD",
    "city": "LOS ANGELES",
    "zip": "90041",
    "county": "LOS ANGELES",
    "phone": "(323) 255-1105",
    "lat": 34.13924113,
    "lng": -118.2044754
  },
  {
    "id": "630020424",
    "name": "UNITED HEALTH HOSPICE, INC.",
    "npi": null,
    "hcaiId": "406193790",
    "businessName": "UNITED HEALTH HOSPICE, INC.",
    "contactEmail": "INFO@UNITEDCAREHOSPICE.ORG",
    "categoryName": "HOSPICE",
    "categoryCode": "HOSPICE",
    "licenseStatus": "ACTIVE",
    "inService": true,
    "licenseNumber": "550006787",
    "licenseEffectiveDate": "03/05/2024",
    "licenseExpirationDate": "08/11/2025",
    "dataDate": "10/18/2025",
    "capacity": 0,
    "address": "2525 COLORADO BLVD, SUITE E",
    "city": "LOS ANGELES",
    "zip": "90041",
    "county": "LOS ANGELES",
    "phone": "(323) 474-6998",
    "lat": 34.141892,
    "lng": -118.221705
  },
  {
    "id": "630014257",
    "name": "URBAN HOSPICE CARE, INC.",
    "npi": null,
    "hcaiId": "406197855",
    "businessName": "URBAN HOSPICE CARE, INC.",
    "contactEmail": "RTROSARIO@SBCGLOBAL.NET",
    "categoryName": "HOSPICE",
    "categoryCode": "HOSPICE",
    "licenseStatus": "ACTIVE",
    "inService": true,
    "licenseNumber": "550002461",
    "licenseEffectiveDate": "10/16/2025",
    "licenseExpirationDate": "10/15/2027",
    "dataDate": "10/18/2025",
    "capacity": 0,
    "address": "2161 COLORADO BLVD, SUITE 206",
    "city": "LOS ANGELES",
    "zip": "90041",
    "county": "LOS ANGELES",
    "phone": "(323) 255-8030",
    "lat": 34.139322,
    "lng": -118.2135735
  }
]