[
  {
    "id": "630025204",
    "name": "A & H HOME HEALTH SERVICES, INC.",
    "npi": null,
    "hcaiId": null,
    "businessName": "A & H HOME HEALTH SERVICES, INC.",
    "contactEmail": "AHHOMEHSHH@GMAIL.COM",
    "categoryName": "HOME HEALTH AGENCY",
    "categoryCode": "HHA",
    "licenseStatus": "ACTIVE",
    "inService": true,
    "licenseNumber": "550008562",
    "licenseEffectiveDate": "05/11/2025",
    "licenseExpirationDate": "05/10/2026",
    "dataDate": "10/18/2025",
    "capacity": 0,
    "address": "5900 S EASTERN AVE, SUITE 140A",
    "city": "COMMERCE",
    "zip": "90040",
    "county": "LOS ANGELES",
    "phone": "(818) 823-5501",
    "lat": 33.98413398,
    "lng": -118.161527
  },
  {
    "id": "630022061",
    "name": "ALTAMED HEALTH SERVICES CORP.",
    "npi": null,
    "hcaiId": null,
    "businessName": "ALTAMED HEALTH SERVICES CORPORATION",
    "contactEmail": "OBARLEV@ALTAMED.ORG",
    "categoryName": "PRIMARY CARE CLINIC",
    "categoryCode": "COMTYC",
    "licenseStatus": "ACTIVE",
    "inService": true,
    "licenseNumber": "960000102",
    "licenseEffectiveDate": "11/15/2025",
    "licenseExpirationDate": "11/14/2026",
    "dataDate": "10/18/2025",
    "capacity": 0,
    "address": "2040 CAMFIELD AVE",
    "city": "LOS ANGELES",
    "zip": "90040",
    "county": "LOS ANGELES",
    "phone": "(323) 895-2987",
    "lat": 34.008003,
    "lng": -118.155222
  },
  {
    "id": "630015813",
    "name": "COMMERCE FAMILY MEDICAL CENTER",
    "npi": "1922416411",
    "hcaiId": "306190753",
    "businessName": "FAMILY HEALTH CARE CENTERS OF GREATER LOS ANGELES,INC.",
    "contactEmail": "RVILLA@FHCCGLA.ORG",
    "categoryName": "PRIMARY CARE CLINIC",
    "categoryCode": "COMTYC",
    "licenseStatus": "ACTIVE",
    "inService": true,
    "licenseNumber": "550003048",
    "licenseEffectiveDate": "04/23/2025",
    "licenseExpirationDate": "04/22/2026",
    "dataDate": "10/18/2025",
    "capacity": 0,
    "address": "6001 E WASHINGTON BLVD",
    "city": "COMMERCE",
    "zip": "90040",
    "county": "LOS ANGELES",
    "phone": "(562) 776-5014",
    "lat": 33.997095,
    "lng": -118.1493765
  },
  {
    "id": "630021202",
    "name": "ROSA BLUE HOSPICE, INC",
    "npi": null,
    "hcaiId": "406195742",
    "businessName": "ROSA BLUE HOSPICE, INC",
    "contactEmail": "RBHOSPICE@GMAIL.COM",
    "categoryName": "HOSPICE",
    "categoryCode": "HOSPICE",
    "licenseStatus": "ACTIVE",
    "inService": true,
    "licenseNumber": "550007721",
    "licenseEffectiveDate": "12/22/2021",
    "licenseExpirationDate": "12/21/2023",
    "dataDate": "10/18/2025",
    "capacity": 0,
    "address": "6400 E WASHINGTON BLVD, SUITE 144",
    "city": "LOS ANGELES",
    "zip": "90040",
    "county": "LOS ANGELES",
    "phone": "(888) 874-7330",
    "lat": 33.995466,
    "lng": -118.1396385
  },
  {
    "id": "630022194",
    "name": "WARIS HOSPICE INC",
    "npi": null,
    "hcaiId": null,
    "businessName": "WARIS HOSPICE, INC.",
    "contactEmail": "WARISHOSPICE@GMAIL.COM",
    "categoryName": "HOSPICE",
    "categoryCode": "HOSPICE",
    "licenseStatus": "ACTIVE",
    "inService": true,
    "licenseNumber": "550007665",
    "licenseEffectiveDate": "12/22/2021",
    "licenseExpirationDate": "12/21/2023",
    "dataDate": "10/18/2025",
    "capacity": 0,
    "address": "6400 E WASHINGTON BLVD, SUITE 108C",
    "city": "LOS ANGELES",
    "zip": "90040",
    "county": "LOS ANGELES",
    "phone": "(323) 325-2005",
    "lat": 33.995466,
    "lng": -118.1396385
  }
]