[
  {
    "id": "630004441",
    "name": "BAILEY CARE HOME 1",
    "npi": "1538385729",
    "hcaiId": null,
    "businessName": "BAILEY CARE HOMES, INC.",
    "contactEmail": "ADMMGR@BCHLACA.COM",
    "categoryName": "INTERMEDIATE CARE FACILITY-DD/H/N/CN/IID",
    "categoryCode": "ICFDDH",
    "licenseStatus": "ACTIVE",
    "inService": true,
    "licenseNumber": "550000183",
    "licenseEffectiveDate": "06/12/2025",
    "licenseExpirationDate": "06/11/2026",
    "dataDate": "10/18/2025",
    "capacity": 6,
    "address": "9811 S DENKER AVE",
    "city": "LOS ANGELES",
    "zip": "90047",
    "county": "LOS ANGELES",
    "phone": "(510) 695-7274",
    "lat": 33.946407,
    "lng": -118.304892
  },
  {
    "id": "630026519",
    "name": "DAY STAR HOME HEALTH INC",
    "npi": null,
    "hcaiId": null,
    "businessName": "DAY STAR HOME HEALTH INC",
    "contactEmail": "DAYSTARHOMEHEALTHINC@GMAIL.COM",
    "categoryName": "HOME HEALTH AGENCY",
    "categoryCode": "HHA",
    "licenseStatus": "ACTIVE",
    "inService": true,
    "licenseNumber": "550009152",
    "licenseEffectiveDate": "04/24/2025",
    "licenseExpirationDate": "04/23/2026",
    "dataDate": "10/18/2025",
    "capacity": 0,
    "address": "8928 1/2 S WESTERN AVE",
    "city": "LOS ANGELES",
    "zip": "90047",
    "county": "LOS ANGELES",
    "phone": "(213) 539-4066",
    "lat": 33.955434,
    "lng": -118.3088295
  },
  {
    "id": "930000377",
    "name": "PODIATRY GROUP SURGICAL CENTER, INC.",
    "npi": null,
    "hcaiId": null,
    "businessName": null,
    "contactEmail": "NONE@DHS.CA.GOV",
    "categoryName": "SURGICAL CLINIC",
    "categoryCode": "ASC",
    "licenseStatus": null,
    "inService": null,
    "licenseNumber": null,
    "licenseEffectiveDate": null,
    "licenseExpirationDate": null,
    "dataDate": "10/18/2025",
    "capacity": 0,
    "address": "1425 W MANCHESTER AVE",
    "city": "LOS ANGELES",
    "zip": "90047",
    "county": "LOS ANGELES",
    "phone": "(323) 750-1691",
    "lat": 33.960393,
    "lng": -118.301382
  },
  {
    "id": "630014385",
    "name": "ST. JOHN'S COMMUNITY HEALTH",
    "npi": "1972845113",
    "hcaiId": "306197823",
    "businessName": "ST. JOHN'S COMMUNITY HEALTH",
    "contactEmail": "MARLOPEZ@WELLCHILD.ORG",
    "categoryName": "PRIMARY CARE CLINIC",
    "categoryCode": "COMTYC",
    "licenseStatus": "ACTIVE",
    "inService": true,
    "licenseNumber": "550003001",
    "licenseEffectiveDate": "03/03/2025",
    "licenseExpirationDate": "03/02/2026",
    "dataDate": "10/18/2025",
    "capacity": 0,
    "address": "1555 W 110TH ST",
    "city": "LOS ANGELES",
    "zip": "90047",
    "county": "LOS ANGELES",
    "phone": "(323) 541-1600",
    "lat": 33.936237,
    "lng": -118.3031685
  },
  {
    "id": "630017953",
    "name": "ST. JOHN'S COMMUNITY HEALTH",
    "npi": "1598002628",
    "hcaiId": null,
    "businessName": "ST. JOHN'S COMMUNITY HEALTH",
    "contactEmail": null,
    "categoryName": "PRIMARY CARE CLINIC",
    "categoryCode": "COMTYC",
    "licenseStatus": "ACTIVE",
    "inService": true,
    "licenseNumber": "550002228",
    "licenseEffectiveDate": "04/03/2025",
    "licenseExpirationDate": "04/02/2026",
    "dataDate": "10/18/2025",
    "capacity": 0,
    "address": "1555 W 110TH ST",
    "city": "LOS ANGELES",
    "zip": "90047",
    "county": "LOS ANGELES",
    "phone": null,
    "lat": 33.936237,
    "lng": -118.3031685
  },
  {
    "id": "630015747",
    "name": "ST. JOHN'S WELL CHILD AND FAMILY CENTER",
    "npi": "1629491089",
    "hcaiId": "306198009",
    "businessName": "ST. JOHN'S COMMUNITY HEALTH",
    "contactEmail": "YALTAMIRAR@SJCH.ORG",
    "categoryName": "PRIMARY CARE CLINIC",
    "categoryCode": "COMTYC",
    "licenseStatus": "ACTIVE",
    "inService": true,
    "licenseNumber": "550002969",
    "licenseEffectiveDate": "02/09/2025",
    "licenseExpirationDate": "02/08/2026",
    "dataDate": "10/18/2025",
    "capacity": 0,
    "address": "1555 W. 110TH STREET",
    "city": "LOS ANGELES",
    "zip": "90047",
    "county": "LOS ANGELES",
    "phone": "(323) 541-1600",
    "lat": 33.936237,
    "lng": -118.3031685
  },
  {
    "id": "960001811",
    "name": "THOREAU HOUSE I",
    "npi": "1710334487",
    "hcaiId": null,
    "businessName": "GENMAR HOMES, INC",
    "contactEmail": "MLKEDCHIEF@AOL.COM",
    "categoryName": "INTERMEDIATE CARE FACILITY-DD/H/N/CN/IID",
    "categoryCode": "ICFDDH",
    "licenseStatus": "ACTIVE",
    "inService": true,
    "licenseNumber": "960000880",
    "licenseEffectiveDate": "02/22/2025",
    "licenseExpirationDate": "02/21/2026",
    "dataDate": "10/18/2025",
    "capacity": 6,
    "address": "1942 THOREAU ST",
    "city": "LOS ANGELES",
    "zip": "90047",
    "county": "LOS ANGELES",
    "phone": "(310) 739-3585",
    "lat": 33.935517,
    "lng": -118.3124835
  },
  {
    "id": "960001515",
    "name": "THOREAU HOUSE II",
    "npi": "1356790786",
    "hcaiId": null,
    "businessName": "GENMAR HOMES, INC",
    "contactEmail": "MLKEDCHIEF@AOL.COM",
    "categoryName": "INTERMEDIATE CARE FACILITY-DD/H/N/CN/IID",
    "categoryCode": "ICFDDN",
    "licenseStatus": "ACTIVE",
    "inService": true,
    "licenseNumber": "960000761",
    "licenseEffectiveDate": "09/22/2024",
    "licenseExpirationDate": "09/21/2025",
    "dataDate": "10/18/2025",
    "capacity": 6,
    "address": "1948 THOREAU ST",
    "city": "LOS ANGELES",
    "zip": "90047",
    "county": "LOS ANGELES",
    "phone": "(323) 755-7121",
    "lat": 33.935436,
    "lng": -118.3126275
  },
  {
    "id": "630018095",
    "name": "WESTMONT DIALYSIS",
    "npi": null,
    "hcaiId": "306190521",
    "businessName": "BRADDOCK DIALYSIS LLC",
    "contactEmail": "CAL_C@DAVITA.COM",
    "categoryName": "CHRONIC DIALYSIS CLINIC",
    "categoryCode": "ESRD/CDC",
    "licenseStatus": "ACTIVE",
    "inService": true,
    "licenseNumber": "550005368",
    "licenseEffectiveDate": "03/24/2025",
    "licenseExpirationDate": "03/23/2026",
    "dataDate": "10/18/2025",
    "capacity": 25,
    "address": "11239 S WESTERN AVE",
    "city": "LOS ANGELES",
    "zip": "90047",
    "county": "LOS ANGELES",
    "phone": "(323) 242-3970",
    "lat": 33.931539,
    "lng": -118.3094505
  }
]