[
  {
    "id": "960000748",
    "name": "ARROYO VISTA FAMILY HEALTH CENTER",
    "npi": "1447353701",
    "hcaiId": "306191135",
    "businessName": "ARROYO VISTA FAMILY HEALTH FOUNDATION",
    "contactEmail": "LESTRADAS@ARROYOVISTA.ORG",
    "categoryName": "PRIMARY CARE CLINIC",
    "categoryCode": "COMTYC",
    "licenseStatus": "ACTIVE",
    "inService": true,
    "licenseNumber": "960000438",
    "licenseEffectiveDate": "03/10/2025",
    "licenseExpirationDate": "03/09/2026",
    "dataDate": "10/18/2025",
    "capacity": 0,
    "address": "6000 N FIGUEROA ST",
    "city": "LOS ANGELES",
    "zip": "90042",
    "county": "LOS ANGELES",
    "phone": "(323) 254-5291",
    "lat": 34.111368,
    "lng": -118.1887875
  },
  {
    "id": "960002798",
    "name": "ARROYO VISTA FAMILY HEALTH CENTER-MOBILE CLINIC II",
    "npi": null,
    "hcaiId": "306196420",
    "businessName": "ARROYO VISTA FAMILY HEALTH FOUNDATION",
    "contactEmail": "LESTRADAS@ARROYOVISTA.ORG",
    "categoryName": "PRIMARY CARE CLINIC",
    "categoryCode": "COMTYC",
    "licenseStatus": "ACTIVE",
    "inService": true,
    "licenseNumber": "960001394",
    "licenseEffectiveDate": "04/02/2025",
    "licenseExpirationDate": "04/01/2026",
    "dataDate": "10/18/2025",
    "capacity": 0,
    "address": "6000 N FIGUEROA ST",
    "city": "LOS ANGELES",
    "zip": "90042",
    "county": "LOS ANGELES",
    "phone": "(323) 254-5291",
    "lat": 34.111368,
    "lng": -118.1887875
  },
  {
    "id": "960002822",
    "name": "COMPREHENSIVE COMMUNITY HEALTH CTR INC-HIGHLAND PK",
    "npi": null,
    "hcaiId": "306196529",
    "businessName": "COMPREHENSIVE COMMUNITY HEALTH CENTER, INC.",
    "contactEmail": "FLORAP@CCHCCENTERS.ORG",
    "categoryName": "PRIMARY CARE CLINIC",
    "categoryCode": "COMTYC",
    "licenseStatus": "ACTIVE",
    "inService": true,
    "licenseNumber": "550000322",
    "licenseEffectiveDate": "12/01/2024",
    "licenseExpirationDate": "11/30/2025",
    "dataDate": "10/18/2025",
    "capacity": 0,
    "address": "5059 YORK BLVD",
    "city": "LOS ANGELES",
    "zip": "90042",
    "county": "LOS ANGELES",
    "phone": "(323) 344-4144",
    "lat": 34.121214,
    "lng": -118.2048345
  },
  {
    "id": "970000117",
    "name": "HIGHLAND PARK SKILLED NURSING & WELLNESS CENTRE",
    "npi": "1609047117",
    "hcaiId": "206190604",
    "businessName": "HIGHLAND PARK SKILLED NURSING & WELLNESS CENTRE,  LLC",
    "contactEmail": "ADMINISTRATOR@HIGHLANDPARKNURSING.COM",
    "categoryName": "SKILLED NURSING FACILITY",
    "categoryCode": "SNF",
    "licenseStatus": "ACTIVE",
    "inService": true,
    "licenseNumber": "970000058",
    "licenseEffectiveDate": "05/06/2025",
    "licenseExpirationDate": "05/05/2026",
    "dataDate": "10/18/2025",
    "capacity": 59,
    "address": "5125 MONTE VISTA ST",
    "city": "LOS ANGELES",
    "zip": "90042",
    "county": "LOS ANGELES",
    "phone": "(323) 254-6125",
    "lat": 34.108344,
    "lng": -118.201644
  },
  {
    "id": "960000190",
    "name": "NORTHEAST COMMUNITY CLINIC",
    "npi": null,
    "hcaiId": "306190416",
    "businessName": "NORTHEAST COMMUNITY CLINIC",
    "contactEmail": "CLAV@NECC.MD",
    "categoryName": "PRIMARY CARE CLINIC",
    "categoryCode": "COMTYC",
    "licenseStatus": "ACTIVE",
    "inService": true,
    "licenseNumber": "550000125",
    "licenseEffectiveDate": "02/01/2025",
    "licenseExpirationDate": "01/31/2026",
    "dataDate": "10/18/2025",
    "capacity": 0,
    "address": "5420 N FIGUEROA ST",
    "city": "LOS ANGELES",
    "zip": "90042",
    "county": "LOS ANGELES",
    "phone": "(323) 256-3884",
    "lat": 34.107552,
    "lng": -118.1965455
  },
  {
    "id": "630006421",
    "name": "NORTHEAST COMMUNITY CLINIC-MOBIL MEDICAL VAN",
    "npi": null,
    "hcaiId": "306198367",
    "businessName": "NORTHEAST COMMUNITY CLINIC",
    "contactEmail": "OPSSUPPORT@NECC.NET",
    "categoryName": "PRIMARY CARE CLINIC",
    "categoryCode": "COMTYC",
    "licenseStatus": "ACTIVE",
    "inService": true,
    "licenseNumber": "550000103",
    "licenseEffectiveDate": "01/27/2025",
    "licenseExpirationDate": "01/26/2026",
    "dataDate": "10/18/2025",
    "capacity": 0,
    "address": "5428 N FIGUEROA ST",
    "city": "LOS ANGELES",
    "zip": "90042",
    "county": "LOS ANGELES",
    "phone": "(626) 457-6900",
    "lat": 34.10766,
    "lng": -118.1963295
  },
  {
    "id": "630020285",
    "name": "PASSIONATE HOSPICE AND PALLIATIVE CARE INC.",
    "npi": null,
    "hcaiId": "406196131",
    "businessName": "PASSIONATE HOSPICE AND PALLIATIVE CARE INC.",
    "contactEmail": "PASSIONATEHPC@GMAIL.COM",
    "categoryName": "HOSPICE",
    "categoryCode": "HOSPICE",
    "licenseStatus": "ACTIVE",
    "inService": true,
    "licenseNumber": "550006079",
    "licenseEffectiveDate": "02/25/2025",
    "licenseExpirationDate": "02/24/2027",
    "dataDate": "10/18/2025",
    "capacity": 0,
    "address": "6025 N FIGUEROA ST, SUITE D",
    "city": "LOS ANGELES",
    "zip": "90042",
    "county": "LOS ANGELES",
    "phone": "(323) 723-8182",
    "lat": 34.11179401,
    "lng": -118.1893
  },
  {
    "id": "630021291",
    "name": "PLANNED PARENTHOOD - HIGHLAND PARK",
    "npi": null,
    "hcaiId": "306190643",
    "businessName": "PLANNED PARENTHOOD PASADENA AND SAN GABRIEL VALLEY, INC.",
    "contactEmail": null,
    "categoryName": "PRIMARY CARE CLINIC",
    "categoryCode": "COMTYC",
    "licenseStatus": "ACTIVE",
    "inService": true,
    "licenseNumber": "960000134",
    "licenseEffectiveDate": "11/01/2025",
    "licenseExpirationDate": "10/31/2026",
    "dataDate": "10/18/2025",
    "capacity": 0,
    "address": "5903 N FIGUEROA ST",
    "city": "LOS ANGELES",
    "zip": "90042",
    "county": "LOS ANGELES",
    "phone": null,
    "lat": 34.11068193,
    "lng": -118.1907375
  },
  {
    "id": "630021586",
    "name": "PLANNED PARENTHOOD - HIGHLAND PARK",
    "npi": "1407406630",
    "hcaiId": null,
    "businessName": "PLANNED PARENTHOOD PASADENA AND SAN GABRIEL VALLEY, INC.",
    "contactEmail": null,
    "categoryName": "PRIMARY CARE CLINIC",
    "categoryCode": "COMTYC",
    "licenseStatus": "ACTIVE",
    "inService": true,
    "licenseNumber": "550006140",
    "licenseEffectiveDate": "04/02/2025",
    "licenseExpirationDate": "04/01/2026",
    "dataDate": "10/18/2025",
    "capacity": 0,
    "address": "5903 N FIGUEROA ST",
    "city": "LOS ANGELES",
    "zip": "90042",
    "county": "LOS ANGELES",
    "phone": "(916) 469-9264",
    "lat": 34.11068193,
    "lng": -118.1907375
  },
  {
    "id": "970000107",
    "name": "YORK HEALTHCARE & WELLNESS CENTRE",
    "npi": "1891056347",
    "hcaiId": "206190896",
    "businessName": "YORK HEALTHCARE & WELLNESS CENTRE, LP",
    "contactEmail": "ADMINISTRATOR@YORKHCWC.COM",
    "categoryName": "SKILLED NURSING FACILITY",
    "categoryCode": "SNF",
    "licenseStatus": "ACTIVE",
    "inService": true,
    "licenseNumber": "970000053",
    "licenseEffectiveDate": "09/25/2025",
    "licenseExpirationDate": "09/24/2026",
    "dataDate": "10/18/2025",
    "capacity": 107,
    "address": "6071 YORK BLVD",
    "city": "LOS ANGELES",
    "zip": "90042",
    "county": "LOS ANGELES",
    "phone": "(323) 254-3407",
    "lat": 34.117812,
    "lng": -118.1868165
  }
]