[
  {
    "id": "630025728",
    "name": "APLA HEALTH - CDU/MLK MEDICAL CAMPUS",
    "npi": "1639414139",
    "hcaiId": null,
    "businessName": "APLA HEALTH & WELLNESS",
    "contactEmail": "DLEE@APLAHEALTH.ORG",
    "categoryName": "PRIMARY CARE CLINIC",
    "categoryCode": "COMTYC",
    "licenseStatus": "ACTIVE",
    "inService": true,
    "licenseNumber": "550002233",
    "licenseEffectiveDate": "04/10/2025",
    "licenseExpirationDate": "04/09/2026",
    "dataDate": "10/18/2025",
    "capacity": 0,
    "address": "1679 E 120TH ST",
    "city": "LOS ANGELES",
    "zip": "90059",
    "county": "LOS ANGELES",
    "phone": null,
    "lat": 33.92460293,
    "lng": -118.2436292
  },
  {
    "id": "630014891",
    "name": "BENEVOLENCE HEALTH CENTER",
    "npi": "1457781676",
    "hcaiId": "306198068",
    "businessName": "BENEVOLENCE INDUSTRIES INCORPORATED",
    "contactEmail": "AAMEKUGEE@BHCHEALTH.ORG",
    "categoryName": "PRIMARY CARE CLINIC",
    "categoryCode": "COMTYC",
    "licenseStatus": "ACTIVE",
    "inService": true,
    "licenseNumber": "550003080",
    "licenseEffectiveDate": "05/12/2025",
    "licenseExpirationDate": "05/11/2026",
    "dataDate": "10/18/2025",
    "capacity": 0,
    "address": "611 E IMPERIAL HWY., SUITE 107",
    "city": "LOS ANGELES",
    "zip": "90059",
    "county": "LOS ANGELES",
    "phone": "(323) 732-0100",
    "lat": 33.931404,
    "lng": -118.2645045
  },
  {
    "id": "630020491",
    "name": "EMC HOSPICE INC",
    "npi": null,
    "hcaiId": "406193586",
    "businessName": "EMC HOSPICE, INC",
    "contactEmail": "LIANADAVTYAN@GMAIL.COM",
    "categoryName": "HOSPICE",
    "categoryCode": "HOSPICE",
    "licenseStatus": "ACTIVE",
    "inService": true,
    "licenseNumber": "550006473",
    "licenseEffectiveDate": "06/28/2025",
    "licenseExpirationDate": "06/27/2027",
    "dataDate": "10/18/2025",
    "capacity": 0,
    "address": "1123 N STANFORD AVE, SUITE 300",
    "city": "LOS ANGELES",
    "zip": "90059",
    "county": "LOS ANGELES",
    "phone": "(747) 318-0008",
    "lat": 33.90312888,
    "lng": -118.262346
  },
  {
    "id": "930001693",
    "name": "KENNETH HAHN PLAZA DIALYSIS CENTER",
    "npi": "1235198797",
    "hcaiId": "306196138",
    "businessName": "TOTAL RENAL CARE, INC.",
    "contactEmail": "CAL_C@DAVITA.COM",
    "categoryName": "CHRONIC DIALYSIS CLINIC",
    "categoryCode": "ESRD/CDC",
    "licenseStatus": "ACTIVE",
    "inService": true,
    "licenseNumber": "930000941",
    "licenseEffectiveDate": "03/01/2025",
    "licenseExpirationDate": "02/28/2026",
    "dataDate": "10/18/2025",
    "capacity": 20,
    "address": "11854 WILMINGTON AVE",
    "city": "LOS ANGELES",
    "zip": "90059",
    "county": "LOS ANGELES",
    "phone": "(323) 567-5077",
    "lat": 33.925041,
    "lng": -118.236969
  },
  {
    "id": "940000050",
    "name": "LIGHTHOUSE HEALTHCARE CENTER",
    "npi": "1144490053",
    "hcaiId": "206190301",
    "businessName": "LIGHTHOUSE HEALTHCARE CENTER, LLC",
    "contactEmail": "DAVID@LHCARECENTER.COM",
    "categoryName": "SKILLED NURSING FACILITY",
    "categoryCode": "SNF",
    "licenseStatus": "ACTIVE",
    "inService": true,
    "licenseNumber": "940000071",
    "licenseEffectiveDate": "11/17/2024",
    "licenseExpirationDate": "11/16/2025",
    "dataDate": "10/18/2025",
    "capacity": 149,
    "address": "2222 SANTA ANA BLVD.",
    "city": "LOS ANGELES",
    "zip": "90059",
    "county": "LOS ANGELES",
    "phone": "(323) 564-4461",
    "lat": 33.935022,
    "lng": -118.2331575
  },
  {
    "id": "060000924",
    "name": "LOS ANGELES GENERAL MEDICAL CENTER",
    "npi": "1093728743",
    "hcaiId": null,
    "businessName": "LOS ANGELES COUNTY DEPARTMENT OF HEALTH SERVICES",
    "contactEmail": null,
    "categoryName": "OTHER",
    "categoryCode": "PPSPSCH",
    "licenseStatus": "ACTIVE",
    "inService": true,
    "licenseNumber": "060000130",
    "licenseEffectiveDate": "06/30/2025",
    "licenseExpirationDate": "03/31/2026",
    "dataDate": "10/18/2025",
    "capacity": 0,
    "address": "1720 E 120TH ST",
    "city": "LOS ANGELES",
    "zip": "90059",
    "county": "LOS ANGELES",
    "phone": null,
    "lat": 33.924168,
    "lng": -118.242828
  },
  {
    "id": "630011711",
    "name": "MARTIN LUTHER KING, JR. AMBULATORY SURGERY CENTER",
    "npi": "1780877613",
    "hcaiId": "306198064",
    "businessName": "MARTIN LUTHER KING, JR., AMBULATORY SURGERY CENTER",
    "contactEmail": "MMILLS@DHS.LACOUNTY.GOV",
    "categoryName": "SURGICAL CLINIC",
    "categoryCode": "ASC/SURGC",
    "licenseStatus": "ACTIVE",
    "inService": true,
    "licenseNumber": "550000727",
    "licenseEffectiveDate": "05/28/2025",
    "licenseExpirationDate": "05/27/2026",
    "dataDate": "10/18/2025",
    "capacity": 0,
    "address": "1670 E 120TH ST",
    "city": "LOS ANGELES",
    "zip": "90059",
    "county": "LOS ANGELES",
    "phone": "(433) 338-1001",
    "lat": 33.924078,
    "lng": -118.2444525
  },
  {
    "id": "060000035",
    "name": "MARTIN LUTHER KING, JR. COMMUNITY HOSPITAL",
    "npi": "1114367497",
    "hcaiId": "106191230",
    "businessName": "MARTIN LUTHER KING JR HEALTHCARE CORPORATION",
    "contactEmail": "EDELEON@MLKCH.ORG",
    "categoryName": "GENERAL ACUTE CARE HOSPITAL",
    "categoryCode": "GACH",
    "licenseStatus": "ACTIVE",
    "inService": true,
    "licenseNumber": "060000132",
    "licenseEffectiveDate": "03/01/2025",
    "licenseExpirationDate": "02/28/2026",
    "dataDate": "10/18/2025",
    "capacity": 131,
    "address": "1680 EAST 120TH STREET",
    "city": "LOS ANGELES",
    "zip": "90059",
    "county": "LOS ANGELES",
    "phone": "(909) 374-3979",
    "lat": 33.924186,
    "lng": -118.244151
  },
  {
    "id": "930000223",
    "name": "RAI - COMPTON - LOS ANGELES",
    "npi": "1336212059",
    "hcaiId": "306191261",
    "businessName": "RAI CARE CENTERS OF SOUTHERN CALIFORNIA I, LLC",
    "contactEmail": "CLINIC7175@FMC-NA.COM",
    "categoryName": "CHRONIC DIALYSIS CLINIC",
    "categoryCode": "ESRD/CDC",
    "licenseStatus": "ACTIVE",
    "inService": true,
    "licenseNumber": "930000287",
    "licenseEffectiveDate": "11/01/2025",
    "licenseExpirationDate": "10/31/2026",
    "dataDate": "10/18/2025",
    "capacity": 27,
    "address": "11859 COMPTON AVE",
    "city": "LOS ANGELES",
    "zip": "90059",
    "county": "LOS ANGELES",
    "phone": "(323) 563-1140",
    "lat": 33.924816,
    "lng": -118.246509
  },
  {
    "id": "630027108",
    "name": "ST. JOHN'S COMMUNITY HEALTH- MLK",
    "npi": null,
    "hcaiId": null,
    "businessName": "ST. JOHN'S COMMUNITY HEALTH",
    "contactEmail": "MARLOPEZ@WELLCHILD.ORG",
    "categoryName": "PRIMARY CARE CLINIC",
    "categoryCode": "COMTYC",
    "licenseStatus": "ACTIVE",
    "inService": true,
    "licenseNumber": "550001120",
    "licenseEffectiveDate": "11/03/2025",
    "licenseExpirationDate": "11/02/2026",
    "dataDate": "10/18/2025",
    "capacity": 0,
    "address": "1741 E 120TH ST, FLOOR 2, SUITE 200",
    "city": "LOS ANGELES",
    "zip": "90059",
    "county": "LOS ANGELES",
    "phone": "(323) 541-1600",
    "lat": 33.9246417,
    "lng": -118.2427035
  },
  {
    "id": "630019519",
    "name": "WESLEY HEALTH CENTERS - MLK RECUPERATIVE CARE CENTER",
    "npi": null,
    "hcaiId": null,
    "businessName": "JWCH INSTITUTE, INC.",
    "contactEmail": null,
    "categoryName": "PRIMARY CARE CLINIC",
    "categoryCode": "COMTYC",
    "licenseStatus": "ACTIVE",
    "inService": true,
    "licenseNumber": "960001445",
    "licenseEffectiveDate": "06/16/2025",
    "licenseExpirationDate": "06/15/2026",
    "dataDate": "10/18/2025",
    "capacity": 0,
    "address": "1670 E 120TH ST, BUILDING WEST SUPPORT #14 FL 1",
    "city": "LOS ANGELES",
    "zip": "90059",
    "county": "LOS ANGELES",
    "phone": "(424) 338-2111",
    "lat": 33.924078,
    "lng": -118.2444525
  },
  {
    "id": "630019520",
    "name": "WESLEY HEALTH CENTERS - MLK RECUPERATIVE CARE CENTER",
    "npi": null,
    "hcaiId": null,
    "businessName": "JWCH INSTITUTE, INC.",
    "contactEmail": null,
    "categoryName": "PRIMARY CARE CLINIC",
    "categoryCode": "COMTYC",
    "licenseStatus": "ACTIVE",
    "inService": true,
    "licenseNumber": "960001445",
    "licenseEffectiveDate": "06/16/2025",
    "licenseExpirationDate": "06/15/2026",
    "dataDate": "10/18/2025",
    "capacity": 0,
    "address": "1670 E 120TH ST, BUILDING WEST SUPPORT #14 FL 2",
    "city": "LOS ANGELES",
    "zip": "90059",
    "county": "LOS ANGELES",
    "phone": null,
    "lat": 33.924078,
    "lng": -118.2444525
  }
]