[
  {
    "id": "630028157",
    "name": "ALTAMED MEDICAL GROUP - MOBILE VAN #2",
    "npi": null,
    "hcaiId": null,
    "businessName": "ALTAMED HEALTH SERVICES CORPORATION",
    "contactEmail": null,
    "categoryName": "PRIMARY CARE CLINIC",
    "categoryCode": "COMTYC",
    "licenseStatus": "ACTIVE",
    "inService": true,
    "licenseNumber": "550003268",
    "licenseEffectiveDate": "10/29/2025",
    "licenseExpirationDate": "10/28/2026",
    "dataDate": "10/18/2025",
    "capacity": 0,
    "address": "4305 S SANTA FE AVE",
    "city": "VERNON",
    "zip": "90058",
    "county": "LOS ANGELES",
    "phone": null,
    "lat": 34.00479919,
    "lng": -118.2314379
  },
  {
    "id": "630028158",
    "name": "ALTAMED MEDICAL GROUP - MOBILE VAN #3",
    "npi": null,
    "hcaiId": null,
    "businessName": "ALTAMED HEALTH SERVICES CORPORATION",
    "contactEmail": null,
    "categoryName": "PRIMARY CARE CLINIC",
    "categoryCode": "COMTYC",
    "licenseStatus": "ACTIVE",
    "inService": true,
    "licenseNumber": "550003268",
    "licenseEffectiveDate": "10/29/2025",
    "licenseExpirationDate": "10/28/2026",
    "dataDate": "10/18/2025",
    "capacity": 0,
    "address": "4305 S SANTA FE AVE",
    "city": "VERNON",
    "zip": "90058",
    "county": "LOS ANGELES",
    "phone": null,
    "lat": 34.00479919,
    "lng": -118.2314379
  },
  {
    "id": "630028156",
    "name": "ALTAMED MEDICAL GROUP - TRAILER #1",
    "npi": null,
    "hcaiId": null,
    "businessName": "ALTAMED HEALTH SERVICES CORPORATION",
    "contactEmail": null,
    "categoryName": "PRIMARY CARE CLINIC",
    "categoryCode": "COMTYC",
    "licenseStatus": "ACTIVE",
    "inService": true,
    "licenseNumber": "550003268",
    "licenseEffectiveDate": "10/29/2025",
    "licenseExpirationDate": "10/28/2026",
    "dataDate": "10/18/2025",
    "capacity": 0,
    "address": "4305 S SANTA FE AVE",
    "city": "VERNON",
    "zip": "90058",
    "county": "LOS ANGELES",
    "phone": null,
    "lat": 34.00479919,
    "lng": -118.2314379
  },
  {
    "id": "630019304",
    "name": "UNIVERSAL HUNTINGTON PARK DIALYSIS",
    "npi": null,
    "hcaiId": "306190558",
    "businessName": "TERRE DIALYSIS LLC",
    "contactEmail": "CAL_C@DAVITA.COM",
    "categoryName": "CHRONIC DIALYSIS CLINIC",
    "categoryCode": "ESRD/CDC",
    "licenseStatus": "ACTIVE",
    "inService": true,
    "licenseNumber": "550005366",
    "licenseEffectiveDate": "03/24/2025",
    "licenseExpirationDate": "03/23/2026",
    "dataDate": "10/18/2025",
    "capacity": 25,
    "address": "1824 E SLAUSON AVE",
    "city": "VERNON",
    "zip": "90058",
    "county": "LOS ANGELES",
    "phone": "(323) 364-0188",
    "lat": 33.98889,
    "lng": -118.240156
  }
]