[
  {
    "id": "060001885",
    "name": "2ND CENTURY ADULT DAY HEALTH CARE CENTER",
    "npi": null,
    "hcaiId": null,
    "businessName": "2ND CENTURY ADULT HEALTHCARE, INC.",
    "contactEmail": "SECONDCENTURYADHC@YAHOO.COM",
    "categoryName": "ADULT DAY HEALTH CARE",
    "categoryCode": "ADHC",
    "licenseStatus": "ACTIVE",
    "inService": true,
    "licenseNumber": "060000702",
    "licenseEffectiveDate": "12/12/2024",
    "licenseExpirationDate": "12/11/2025",
    "dataDate": "10/18/2025",
    "capacity": 0,
    "address": "2121 BEVERLY BLVD",
    "city": "LOS ANGELES",
    "zip": "90057",
    "county": "LOS ANGELES",
    "phone": "(213) 483-1117",
    "lat": 34.067196,
    "lng": -118.2710655
  },
  {
    "id": "630028193",
    "name": "ALLMED OF LOS ANGELES INC",
    "npi": null,
    "hcaiId": null,
    "businessName": "ALLMED OF LOS ANGELES INC",
    "contactEmail": null,
    "categoryName": "PRIMARY CARE CLINIC",
    "categoryCode": "COMTYC",
    "licenseStatus": "ACTIVE",
    "inService": true,
    "licenseNumber": "550008984",
    "licenseEffectiveDate": "01/31/2025",
    "licenseExpirationDate": "01/30/2026",
    "dataDate": "10/18/2025",
    "capacity": 0,
    "address": "672 S CARONDELET ST",
    "city": "LOS ANGELES",
    "zip": "90057",
    "county": "LOS ANGELES",
    "phone": null,
    "lat": 34.05912725,
    "lng": -118.2808151
  },
  {
    "id": "970000139",
    "name": "ALTA VIEW POST ACUTE",
    "npi": "1942906391",
    "hcaiId": "206190454",
    "businessName": "TOPANGA BEACH HOLDINGS, LLC",
    "contactEmail": "SSHULTZ@WESTHARBORHC.COM",
    "categoryName": "SKILLED NURSING FACILITY",
    "categoryCode": "SNF",
    "licenseStatus": "ACTIVE",
    "inService": true,
    "licenseNumber": "970000069",
    "licenseEffectiveDate": "03/03/2025",
    "licenseExpirationDate": "03/02/2026",
    "dataDate": "10/18/2025",
    "capacity": 99,
    "address": "831 S LAKE STREET",
    "city": "LOS ANGELES",
    "zip": "90057",
    "county": "LOS ANGELES",
    "phone": "(213) 380-9175",
    "lat": 34.054713,
    "lng": -118.2798765
  },
  {
    "id": "630017559",
    "name": "ALTAMED DENTAL GROUP - WESTLAKE, 3RD STREET",
    "npi": null,
    "hcaiId": "306190349",
    "businessName": "ALTAMED HEALTH SERVICES CORPORATION",
    "contactEmail": "NRIVERA@ALTAMED.ORG",
    "categoryName": "PRIMARY CARE CLINIC",
    "categoryCode": "COMTYC",
    "licenseStatus": "ACTIVE",
    "inService": true,
    "licenseNumber": "550004212",
    "licenseEffectiveDate": "04/19/2025",
    "licenseExpirationDate": "04/18/2026",
    "dataDate": "10/18/2025",
    "capacity": 0,
    "address": "2100 W 3RD ST, SUITE 220",
    "city": "LOS ANGELES",
    "zip": "90057",
    "county": "LOS ANGELES",
    "phone": "(888) 499-9303",
    "lat": 34.062435,
    "lng": -118.2735675
  },
  {
    "id": "630027029",
    "name": "ALTAMED DENTAL GROUP - WESTLAKE, 3RD STREET",
    "npi": null,
    "hcaiId": null,
    "businessName": "ALTAMED HEALTH SERVICES CORPORATION",
    "contactEmail": null,
    "categoryName": "PRIMARY CARE CLINIC",
    "categoryCode": "COMTYC",
    "licenseStatus": "ACTIVE",
    "inService": true,
    "licenseNumber": "550004212",
    "licenseEffectiveDate": "04/19/2025",
    "licenseExpirationDate": "04/18/2026",
    "dataDate": "10/18/2025",
    "capacity": 0,
    "address": "2100 W 3RD ST, SUITE 301",
    "city": "LOS ANGELES",
    "zip": "90057",
    "county": "LOS ANGELES",
    "phone": null,
    "lat": 34.062435,
    "lng": -118.2735675
  },
  {
    "id": "630017957",
    "name": "ALTAMED GENERAL PEDIATRICS-WESTLAKE 3RD STREET",
    "npi": "1629283197",
    "hcaiId": null,
    "businessName": "ALTAMED HEALTH SERVICES CORPORATION",
    "contactEmail": "JTIENDA@ALTAMED.ORG",
    "categoryName": "PRIMARY CARE CLINIC",
    "categoryCode": "COMTYC",
    "licenseStatus": "ACTIVE",
    "inService": true,
    "licenseNumber": "550000070",
    "licenseEffectiveDate": "11/12/2025",
    "licenseExpirationDate": "11/11/2026",
    "dataDate": "10/18/2025",
    "capacity": 0,
    "address": "2100 W 3RD ST, SUITE 200",
    "city": "LOS ANGELES",
    "zip": "90057",
    "county": "LOS ANGELES",
    "phone": "(323) 622-2449",
    "lat": 34.062435,
    "lng": -118.2735675
  },
  {
    "id": "630019261",
    "name": "ALTAMED MEDICAL GROUP - WESTLAKE, 3RD STREET",
    "npi": null,
    "hcaiId": "306190500",
    "businessName": "ALTAMED HEALTH SERVICES CORPORATION",
    "contactEmail": "JESSOSA@ALTAMED.ORG",
    "categoryName": "PRIMARY CARE CLINIC",
    "categoryCode": "COMTYC",
    "licenseStatus": "ACTIVE",
    "inService": true,
    "licenseNumber": "550005159",
    "licenseEffectiveDate": "12/20/2024",
    "licenseExpirationDate": "12/19/2025",
    "dataDate": "10/18/2025",
    "capacity": 0,
    "address": "2100 W 3RD ST, SUITE 400",
    "city": "LOS ANGELES",
    "zip": "90057",
    "county": "LOS ANGELES",
    "phone": "(323) 313-8009",
    "lat": 34.062435,
    "lng": -118.2735675
  },
  {
    "id": "980001595",
    "name": "AMERICAN NURSING HOME HEALTH",
    "npi": "1396739421",
    "hcaiId": "406191515",
    "businessName": "AMERICAN NURSING MANAGEMENT & CONSULTING, INC",
    "contactEmail": "RAJ@HOMEHEALTHUSA.COM",
    "categoryName": "HOME HEALTH AGENCY",
    "categoryCode": "HHA",
    "licenseStatus": "ACTIVE",
    "inService": true,
    "licenseNumber": "980000939",
    "licenseEffectiveDate": "01/04/2025",
    "licenseExpirationDate": "01/03/2026",
    "dataDate": "10/18/2025",
    "capacity": 0,
    "address": "2105 BEVERLY BLVD, SUITE 205",
    "city": "LOS ANGELES",
    "zip": "90057",
    "county": "LOS ANGELES",
    "phone": "(213) 572-0600",
    "lat": 34.067241,
    "lng": -118.2703725
  },
  {
    "id": "630013277",
    "name": "ANGEL'S SMILE HOSPICE, INC.",
    "npi": null,
    "hcaiId": "406197688",
    "businessName": "ANGEL'S SMILE HOSPICE, INC.",
    "contactEmail": "ANGELSSMILEH@GMAIL.COM",
    "categoryName": "HOSPICE",
    "categoryCode": "HOSPICE",
    "licenseStatus": "ACTIVE",
    "inService": true,
    "licenseNumber": "550001947",
    "licenseEffectiveDate": "04/13/2024",
    "licenseExpirationDate": "04/12/2026",
    "dataDate": "10/18/2025",
    "capacity": 0,
    "address": "2252 BEVERLY BLVD, SUITE 210",
    "city": "LOS ANGELES",
    "zip": "90057",
    "county": "LOS ANGELES",
    "phone": "(818) 505-9010",
    "lat": 34.067601,
    "lng": -118.2729645
  },
  {
    "id": "630016852",
    "name": "ANGELES COMMUNITY HEALTH CENTER",
    "npi": "1447703400",
    "hcaiId": "306198407",
    "businessName": "HEALTH ACCESS FOR ALL, INC.",
    "contactEmail": "M.CANELA@ANGELESCOMMUNITY.ORG",
    "categoryName": "PRIMARY CARE CLINIC",
    "categoryCode": "COMTYC",
    "licenseStatus": "ACTIVE",
    "inService": true,
    "licenseNumber": "550003838",
    "licenseEffectiveDate": "02/09/2025",
    "licenseExpirationDate": "02/08/2026",
    "dataDate": "10/18/2025",
    "capacity": 0,
    "address": "1919 WEST 7TH STREET, FLOOR 2 & 3",
    "city": "LOS ANGELES",
    "zip": "90057",
    "county": "LOS ANGELES",
    "phone": "(213) 413-2222",
    "lat": 34.05582,
    "lng": -118.275066
  },
  {
    "id": "630028490",
    "name": "ANGELES COMMUNITY HEALTH CENTER",
    "npi": null,
    "hcaiId": null,
    "businessName": "HEALTH ACCESS FOR ALL, INC.",
    "contactEmail": null,
    "categoryName": "PRIMARY CARE CLINIC",
    "categoryCode": "COMTYC",
    "licenseStatus": "ACTIVE",
    "inService": true,
    "licenseNumber": "550003838",
    "licenseEffectiveDate": "02/09/2025",
    "licenseExpirationDate": "02/08/2026",
    "dataDate": "10/18/2025",
    "capacity": 0,
    "address": "1919 WEST 7TH STREET, FLOOR 1",
    "city": "LOS ANGELES",
    "zip": "90057",
    "county": "LOS ANGELES",
    "phone": null,
    "lat": 34.05582603,
    "lng": -118.2750764
  },
  {
    "id": "960002693",
    "name": "BAART COMMUNITY HEALTHCARE",
    "npi": null,
    "hcaiId": "306196244",
    "businessName": "BAART COMMUNITY HEALTHCARE",
    "contactEmail": "EDAVIDIAN@BAARTPROGRAMS.COM",
    "categoryName": "PRIMARY CARE CLINIC",
    "categoryCode": "COMTYC",
    "licenseStatus": "ACTIVE",
    "inService": true,
    "licenseNumber": "960001330",
    "licenseEffectiveDate": "11/17/2025",
    "licenseExpirationDate": "11/16/2026",
    "dataDate": "10/18/2025",
    "capacity": 0,
    "address": "1926 W. BEVERLY BLVD",
    "city": "LOS ANGELES",
    "zip": "90057",
    "county": "LOS ANGELES",
    "phone": "(213) 353-1140",
    "lat": 34.065684,
    "lng": -118.268559
  },
  {
    "id": "630019460",
    "name": "BENEVOLENCE HEALTH CENTER",
    "npi": null,
    "hcaiId": "306190571",
    "businessName": "BENEVOLENCE INDUSTRIES INCORPORATED",
    "contactEmail": "GDANQUAH@BHCHEALTH.ORG",
    "categoryName": "PRIMARY CARE CLINIC",
    "categoryCode": "COMTYC",
    "licenseStatus": "ACTIVE",
    "inService": true,
    "licenseNumber": "550005584",
    "licenseEffectiveDate": "07/17/2025",
    "licenseExpirationDate": "07/16/2026",
    "dataDate": "10/18/2025",
    "capacity": 0,
    "address": "2065 W 6TH ST, SUITE 110",
    "city": "LOS ANGELES",
    "zip": "90057",
    "county": "LOS ANGELES",
    "phone": "(310) 490-6295",
    "lat": 34.059474,
    "lng": -118.2743505
  },
  {
    "id": "630018513",
    "name": "BEVERLY COMMUNITY CLINIC",
    "npi": null,
    "hcaiId": "306190602",
    "businessName": "BEVERLY COMMUNITY CLINIC",
    "contactEmail": "BEVCOMCENTER@GMAIL.COM",
    "categoryName": "PRIMARY CARE CLINIC",
    "categoryCode": "COMTYC",
    "licenseStatus": "ACTIVE",
    "inService": true,
    "licenseNumber": "550005867",
    "licenseEffectiveDate": "08/18/2025",
    "licenseExpirationDate": "08/17/2026",
    "dataDate": "10/18/2025",
    "capacity": 0,
    "address": "2252 BEVERLY BLVD, SUITE 103",
    "city": "LOS ANGELES",
    "zip": "90057",
    "county": "LOS ANGELES",
    "phone": "(213) 674-7424",
    "lat": 34.067601,
    "lng": -118.2729645
  },
  {
    "id": "970000125",
    "name": "BONNIE BRAE SKILLED NURSING",
    "npi": "1487706628",
    "hcaiId": "206190102",
    "businessName": "BONNIE BRAE CONVALESCENT HOSPITAL INC.",
    "contactEmail": "ADMINISTRATOR@BBCH1.COM",
    "categoryName": "SKILLED NURSING FACILITY",
    "categoryCode": "SNF",
    "licenseStatus": "ACTIVE",
    "inService": true,
    "licenseNumber": "970000062",
    "licenseEffectiveDate": "11/01/2025",
    "licenseExpirationDate": "10/31/2026",
    "dataDate": "10/18/2025",
    "capacity": 59,
    "address": "420 S BONNIE BRAE ST",
    "city": "LOS ANGELES",
    "zip": "90057",
    "county": "LOS ANGELES",
    "phone": "(213) 483-8144",
    "lat": 34.060212,
    "lng": -118.2709215
  },
  {
    "id": "970000127",
    "name": "BURLINGTON CONVALESCENT HOSPITAL",
    "npi": "1407934946",
    "hcaiId": "206190118",
    "businessName": "BURLINGTON CONVALESCENT HOSPITAL LLC",
    "contactEmail": "FAC01ADMIN@LONGWOODMGMT.COM",
    "categoryName": "SKILLED NURSING FACILITY",
    "categoryCode": "SNF",
    "licenseStatus": "ACTIVE",
    "inService": true,
    "licenseNumber": "970000063",
    "licenseEffectiveDate": "11/01/2025",
    "licenseExpirationDate": "10/31/2026",
    "dataDate": "10/18/2025",
    "capacity": 124,
    "address": "845 S BURLINGTON AVE",
    "city": "LOS ANGELES",
    "zip": "90057",
    "county": "LOS ANGELES",
    "phone": "(213) 381-5585",
    "lat": 34.052337,
    "lng": -118.27557
  },
  {
    "id": "630024675",
    "name": "CAMINO NUEVO FAMILY HEALTH CLINIC",
    "npi": null,
    "hcaiId": "306300734",
    "businessName": "CAMINO NUEVO FAMILY HEALTH CLINIC",
    "contactEmail": "CAMINONUEVOCLINIC@GMAIL.COM",
    "categoryName": "PRIMARY CARE CLINIC",
    "categoryCode": "COMTYC",
    "licenseStatus": "ACTIVE",
    "inService": true,
    "licenseNumber": "550008027",
    "licenseEffectiveDate": "06/10/2025",
    "licenseExpirationDate": "06/09/2026",
    "dataDate": "10/18/2025",
    "capacity": 0,
    "address": "1800 WILSHIRE BLVD",
    "city": "LOS ANGELES",
    "zip": "90057",
    "county": "LOS ANGELES",
    "phone": "(714) 316-5742",
    "lat": 34.05636499,
    "lng": -118.272946
  },
  {
    "id": "060001780",
    "name": "CENTRAL ADULT DAY HEALTH CARE CENTER",
    "npi": null,
    "hcaiId": null,
    "businessName": "QUALITYCARE HEALTH SERVICES CORPORATION",
    "contactEmail": "CENTRALADHC1825@GMAIL.COM",
    "categoryName": "ADULT DAY HEALTH CARE",
    "categoryCode": "ADHC",
    "licenseStatus": "ACTIVE",
    "inService": true,
    "licenseNumber": "060000597",
    "licenseEffectiveDate": "04/25/2025",
    "licenseExpirationDate": "04/24/2026",
    "dataDate": "10/18/2025",
    "capacity": 0,
    "address": "1825 BEVERLY BLVD",
    "city": "LOS ANGELES",
    "zip": "90057",
    "county": "LOS ANGELES",
    "phone": "(213) 413-6966",
    "lat": 34.065648,
    "lng": -118.2676635
  },
  {
    "id": "630011144",
    "name": "CITY OF ANGELS BEST CARE, INC.",
    "npi": "1811028830",
    "hcaiId": "406196979",
    "businessName": "CITY OF ANGELS BEST CARE, INC.",
    "contactEmail": "CITYOFANGELSBC@YAHOO.COM",
    "categoryName": "HOME HEALTH AGENCY",
    "categoryCode": "HHA",
    "licenseStatus": "ACTIVE",
    "inService": true,
    "licenseNumber": "550000501",
    "licenseEffectiveDate": "05/27/2025",
    "licenseExpirationDate": "05/26/2026",
    "dataDate": "10/18/2025",
    "capacity": 0,
    "address": "2252 BEVERLY BLVD, SUITE 201",
    "city": "LOS ANGELES",
    "zip": "90057",
    "county": "LOS ANGELES",
    "phone": "(213) 484-1530",
    "lat": 34.067565,
    "lng": -118.272942
  },
  {
    "id": "960000578",
    "name": "CLINICA MSR. OSCAR A. ROMERO",
    "npi": null,
    "hcaiId": "306194031",
    "businessName": "CLINICA MSR. OSCAR A ROMERO",
    "contactEmail": "CVAQUERANO@CLINICAROMERO.COM",
    "categoryName": "PRIMARY CARE CLINIC",
    "categoryCode": "COMTYC",
    "licenseStatus": "ACTIVE",
    "inService": true,
    "licenseNumber": "960000308",
    "licenseEffectiveDate": "11/05/2025",
    "licenseExpirationDate": "11/04/2026",
    "dataDate": "10/18/2025",
    "capacity": 0,
    "address": "123 S ALVARADO ST",
    "city": "LOS ANGELES",
    "zip": "90057",
    "county": "LOS ANGELES",
    "phone": "(213) 989-7700",
    "lat": 34.066143,
    "lng": -118.2708765
  },
  {
    "id": "630024052",
    "name": "CURA HOME HEALTH CARE INC",
    "npi": null,
    "hcaiId": "406197912",
    "businessName": "CURA HOME HEALTH CARE INC",
    "contactEmail": "CURAHOMEHEALTHCARE@GMAIL.COM",
    "categoryName": "HOME HEALTH AGENCY",
    "categoryCode": "HHA",
    "licenseStatus": "ACTIVE",
    "inService": true,
    "licenseNumber": "550008428",
    "licenseEffectiveDate": "02/28/2025",
    "licenseExpirationDate": "02/27/2026",
    "dataDate": "10/18/2025",
    "capacity": 0,
    "address": "2525 W 8TH ST, SUITE 220",
    "city": "LOS ANGELES",
    "zip": "90057",
    "county": "LOS ANGELES",
    "phone": "(213) 909-0088",
    "lat": 34.057188,
    "lng": -118.28268
  },
  {
    "id": "630018341",
    "name": "GOLDEN TOUCH HOME HEALTH, INC.",
    "npi": "1760957823",
    "hcaiId": "406192205",
    "businessName": "GOLDEN TOUCH HOME HEALTH, INC.",
    "contactEmail": "GOLDENTOUCHHOMEH@GMAIL.COM",
    "categoryName": "HOME HEALTH AGENCY",
    "categoryCode": "HHA",
    "licenseStatus": "ACTIVE",
    "inService": true,
    "licenseNumber": "550005247",
    "licenseEffectiveDate": "12/04/2024",
    "licenseExpirationDate": "12/03/2025",
    "dataDate": "10/18/2025",
    "capacity": 0,
    "address": "2001 BEVERLY BLVD, SUITE 215",
    "city": "LOS ANGELES",
    "zip": "90057",
    "county": "LOS ANGELES",
    "phone": "(213) 529-4067",
    "lat": 34.066233,
    "lng": -118.2688965
  },
  {
    "id": "970000133",
    "name": "GRAND PARK CONVALESCENT HOSPITAL",
    "npi": "1043251622",
    "hcaiId": "206190158",
    "businessName": "CARE FOR THE ELDERLY INC.",
    "contactEmail": "DON@GRANDPARKCH.COM",
    "categoryName": "SKILLED NURSING FACILITY",
    "categoryCode": "SNF",
    "licenseStatus": "ACTIVE",
    "inService": true,
    "licenseNumber": "970000066",
    "licenseEffectiveDate": "02/18/2025",
    "licenseExpirationDate": "02/17/2026",
    "dataDate": "10/18/2025",
    "capacity": 151,
    "address": "2312 W 8TH ST",
    "city": "LOS ANGELES",
    "zip": "90057",
    "county": "LOS ANGELES",
    "phone": "(213) 382-7315",
    "lat": 34.05582,
    "lng": -118.2806505
  },
  {
    "id": "630015151",
    "name": "HEALTHRIGHT 360",
    "npi": "1194138347",
    "hcaiId": "306197993",
    "businessName": "HEALTHRIGHT 360",
    "contactEmail": "AVALDES@HEALTHRIGHT360.ORG",
    "categoryName": "PRIMARY CARE CLINIC",
    "categoryCode": "COMTYC",
    "licenseStatus": "ACTIVE",
    "inService": true,
    "licenseNumber": "550002871",
    "licenseEffectiveDate": "10/27/2025",
    "licenseExpirationDate": "10/26/2026",
    "dataDate": "10/18/2025",
    "capacity": 0,
    "address": "521 S GRAND VIEW ST",
    "city": "LOS ANGELES",
    "zip": "90057",
    "county": "LOS ANGELES",
    "phone": "(415) 577-5868",
    "lat": 34.06095,
    "lng": -118.276776
  },
  {
    "id": "930000374",
    "name": "LASER THERAPY, INC",
    "npi": "1568551901",
    "hcaiId": null,
    "businessName": null,
    "contactEmail": "NONE@DHS.CA.GOV",
    "categoryName": "SURGICAL CLINIC",
    "categoryCode": "ASC",
    "licenseStatus": null,
    "inService": null,
    "licenseNumber": null,
    "licenseEffectiveDate": null,
    "licenseExpirationDate": null,
    "dataDate": "10/18/2025",
    "capacity": 0,
    "address": "201 S ALVARADO ST",
    "city": "LOS ANGELES",
    "zip": "90057",
    "county": "LOS ANGELES",
    "phone": "(213) 483-2470",
    "lat": 34.063902,
    "lng": -118.272357
  },
  {
    "id": "630019454",
    "name": "LOS ANGELES MEDICAL CENTER FOUNDATION",
    "npi": null,
    "hcaiId": "306190579",
    "businessName": "LOS ANGELES MEDICAL CENTER FOUNDATION",
    "contactEmail": "ROMINA@LAMC-F.ORG",
    "categoryName": "PRIMARY CARE CLINIC",
    "categoryCode": "COMTYC",
    "licenseStatus": "ACTIVE",
    "inService": true,
    "licenseNumber": "550005759",
    "licenseEffectiveDate": "07/15/2022",
    "licenseExpirationDate": "07/14/2023",
    "dataDate": "10/18/2025",
    "capacity": 0,
    "address": "2010 WILSHIRE BLVD, FLOOR 2ND",
    "city": "LOS ANGELES",
    "zip": "90057",
    "county": "LOS ANGELES",
    "phone": "(213) 483-2620",
    "lat": 34.057287,
    "lng": -118.2751785
  },
  {
    "id": "930001595",
    "name": "LOS ANGELES SURGICAL CENTER",
    "npi": "1841237831",
    "hcaiId": "306196071",
    "businessName": "LOS ANGELES SURGICAL CENTER, A MEDICAL CORPORATION",
    "contactEmail": "SILVINAGVALDEZ@HOTMAIL.COM",
    "categoryName": "SURGICAL CLINIC",
    "categoryCode": "ASC",
    "licenseStatus": "INACTIVE - CAPEN DECISION",
    "inService": false,
    "licenseNumber": "930000912",
    "licenseEffectiveDate": "04/23/2008",
    "licenseExpirationDate": "04/22/2009",
    "dataDate": "10/18/2025",
    "capacity": 0,
    "address": "2200 W 7TH ST",
    "city": "LOS ANGELES",
    "zip": "90057",
    "county": "LOS ANGELES",
    "phone": "(213) 637-2539",
    "lat": 34.056891,
    "lng": -118.278117
  },
  {
    "id": "970000143",
    "name": "MID-WILSHIRE HEALTH CARE CENTER",
    "npi": "1841654431",
    "hcaiId": "206190533",
    "businessName": "BEST HEALTH SERVICES, LLC",
    "contactEmail": "ROBERTV@MIDWILSHIREHCC.COM",
    "categoryName": "SKILLED NURSING FACILITY",
    "categoryCode": "SNF",
    "licenseStatus": "ACTIVE",
    "inService": true,
    "licenseNumber": "970000071",
    "licenseEffectiveDate": "02/16/2025",
    "licenseExpirationDate": "02/15/2026",
    "dataDate": "10/18/2025",
    "capacity": 80,
    "address": "676 S BONNIE BRAE ST",
    "city": "LOS ANGELES",
    "zip": "90057",
    "county": "LOS ANGELES",
    "phone": "(213) 483-9921",
    "lat": 34.056045,
    "lng": -118.2739905
  },
  {
    "id": "630018995",
    "name": "RUBICON HOSPICE CARE",
    "npi": "1235799123",
    "hcaiId": "406191917",
    "businessName": "RUBICON HOSPICE CARE",
    "contactEmail": "RUBICONHOSPICE@GMAIL.COM",
    "categoryName": "HOSPICE",
    "categoryCode": "HOSPICE",
    "licenseStatus": "ACTIVE",
    "inService": true,
    "licenseNumber": "550004956",
    "licenseEffectiveDate": "09/24/2025",
    "licenseExpirationDate": "09/23/2027",
    "dataDate": "10/18/2025",
    "capacity": 0,
    "address": "2001 BEVERLY BLVD, SUITE 211",
    "city": "LOS ANGELES",
    "zip": "90057",
    "county": "LOS ANGELES",
    "phone": "(888) 576-0059",
    "lat": 34.066233,
    "lng": -118.2688965
  },
  {
    "id": "630007623",
    "name": "SILVER AGE HOME HEALTH CARE AGENCY, INC.",
    "npi": "1962558239",
    "hcaiId": "406196791",
    "businessName": "SILVER AGE HOME HEALTH CARE AGENCY, INC.",
    "contactEmail": "SILVERAGEHOMEHEALTH@YAHOO.COM",
    "categoryName": "HOME HEALTH AGENCY",
    "categoryCode": "HHA",
    "licenseStatus": "ACTIVE",
    "inService": true,
    "licenseNumber": "550000242",
    "licenseEffectiveDate": "03/21/2025",
    "licenseExpirationDate": "03/20/2026",
    "dataDate": "10/18/2025",
    "capacity": 0,
    "address": "520 S LA FAYETTE PARK PL",
    "city": "LOS ANGELES",
    "zip": "90057",
    "county": "LOS ANGELES",
    "phone": "(213) 385-5788",
    "lat": 34.063758,
    "lng": -118.28241
  },
  {
    "id": "630018745",
    "name": "SILVERLAKE TOTAL CARE, INC.",
    "npi": null,
    "hcaiId": "406192472",
    "businessName": "SILVERLAKE TOTAL CARE, INC.",
    "contactEmail": "SILVERLAKETOTAL@GMAIL.COM",
    "categoryName": "HOME HEALTH AGENCY",
    "categoryCode": "HHA",
    "licenseStatus": "ACTIVE",
    "inService": true,
    "licenseNumber": "550005493",
    "licenseEffectiveDate": "06/06/2025",
    "licenseExpirationDate": "06/05/2026",
    "dataDate": "10/18/2025",
    "capacity": 0,
    "address": "2252 BEVERLY BLVD, SUITE 207",
    "city": "LOS ANGELES",
    "zip": "90057",
    "county": "LOS ANGELES",
    "phone": "(323) 784-9555",
    "lat": 34.067565,
    "lng": -118.272942
  },
  {
    "id": "970000137",
    "name": "THE REHABILITATION CENTER OF LOS ANGELES",
    "npi": "1134528904",
    "hcaiId": "206190375",
    "businessName": "LOS ANGELES REHABILITATION & WELLNESS CENTRE, LP",
    "contactEmail": "CHARLENE.GOROSPE@LOSANGELESREHABWC.COM",
    "categoryName": "SKILLED NURSING FACILITY",
    "categoryCode": "SNF",
    "licenseStatus": "ACTIVE",
    "inService": true,
    "licenseNumber": "970000068",
    "licenseEffectiveDate": "06/01/2025",
    "licenseExpirationDate": "05/31/2026",
    "dataDate": "10/18/2025",
    "capacity": 180,
    "address": "340 S ALVARADO ST",
    "city": "LOS ANGELES",
    "zip": "90057",
    "county": "LOS ANGELES",
    "phone": "(213) 484-9730",
    "lat": 34.061733,
    "lng": -118.273059
  },
  {
    "id": "630017016",
    "name": "U.S. RENAL CARE DOWNTOWN LOS ANGELES DIALYSIS",
    "npi": null,
    "hcaiId": "306190913",
    "businessName": "DOWNTOWN DIALYSIS, LLC",
    "contactEmail": "LICENSING@USRENALCARE.COM",
    "categoryName": "CHRONIC DIALYSIS CLINIC",
    "categoryCode": "ESRD/CDC",
    "licenseStatus": "ACTIVE",
    "inService": true,
    "licenseNumber": "550004092",
    "licenseEffectiveDate": "12/12/2024",
    "licenseExpirationDate": "12/11/2025",
    "dataDate": "10/18/2025",
    "capacity": 24,
    "address": "2511 W. 3RD STREET",
    "city": "LOS ANGELES",
    "zip": "90057",
    "county": "LOS ANGELES",
    "phone": "(214) 736-2700",
    "lat": 34.065243,
    "lng": -118.276848
  },
  {
    "id": "930001780",
    "name": "U.S. RENAL CARE LOS ANGELES DIALYSIS",
    "npi": "1982675682",
    "hcaiId": "306190748",
    "businessName": "KIDNEY CENTER OF LOS ANGELES, LLC",
    "contactEmail": "LICENSING@USRENALCARE.COM",
    "categoryName": "CHRONIC DIALYSIS CLINIC",
    "categoryCode": "ESRD/CDC",
    "licenseStatus": "ACTIVE",
    "inService": true,
    "licenseNumber": "930000987",
    "licenseEffectiveDate": "01/16/2025",
    "licenseExpirationDate": "01/15/2026",
    "dataDate": "10/18/2025",
    "capacity": 23,
    "address": "2100 W 3RD ST, SUITE 110 AND 105",
    "city": "LOS ANGELES",
    "zip": "90057",
    "county": "LOS ANGELES",
    "phone": "(562) 495-8075",
    "lat": 34.062435,
    "lng": -118.2735675
  },
  {
    "id": "630019176",
    "name": "UNICARE COMMUNITY HEALTH CENTER, INC.",
    "npi": null,
    "hcaiId": "306190589",
    "businessName": "UNICARE COMMUNITY HEALTH CENTER, INC.",
    "contactEmail": "K.VO@UNICARECHC.ORG",
    "categoryName": "PRIMARY CARE CLINIC",
    "categoryCode": "COMTYC",
    "licenseStatus": "ACTIVE",
    "inService": true,
    "licenseNumber": "550006138",
    "licenseEffectiveDate": "02/05/2025",
    "licenseExpirationDate": "02/04/2026",
    "dataDate": "10/18/2025",
    "capacity": 0,
    "address": "741 S ALVARADO ST",
    "city": "LOS ANGELES",
    "zip": "90057",
    "county": "LOS ANGELES",
    "phone": "(213) 413-6666",
    "lat": 34.055451,
    "lng": -118.2776445
  },
  {
    "id": "970000147",
    "name": "WESTLAKE CONVALESCENT HOSPITAL",
    "npi": "1730266883",
    "hcaiId": "206190868",
    "businessName": "AJIT HEALTHCARE, INC.",
    "contactEmail": "EPEREZ@WLCHOSPITAL.COM",
    "categoryName": "SKILLED NURSING FACILITY",
    "categoryCode": "SNF",
    "licenseStatus": "ACTIVE",
    "inService": true,
    "licenseNumber": "970000073",
    "licenseEffectiveDate": "11/16/2024",
    "licenseExpirationDate": "11/15/2025",
    "dataDate": "10/18/2025",
    "capacity": 114,
    "address": "316 S WESTLAKE AVE",
    "city": "LOS ANGELES",
    "zip": "90057",
    "county": "LOS ANGELES",
    "phone": "(213) 484-0510",
    "lat": 34.06185,
    "lng": -118.2715515
  }
]