[
  {
    "id": "630017364",
    "name": "BEVERLY HILLS SPECIALTY CARE SURGERY",
    "npi": "1275911232",
    "hcaiId": null,
    "businessName": null,
    "contactEmail": null,
    "categoryName": "SURGICAL CLINIC",
    "categoryCode": "ASC",
    "licenseStatus": null,
    "inService": null,
    "licenseNumber": null,
    "licenseEffectiveDate": null,
    "licenseExpirationDate": null,
    "dataDate": "10/18/2025",
    "capacity": 0,
    "address": "2080 CENTURY PARK E, SUITE 703",
    "city": "LOS ANGELES",
    "zip": "90067",
    "county": "LOS ANGELES",
    "phone": null,
    "lat": 34.059168,
    "lng": -118.4114835
  },
  {
    "id": "630016232",
    "name": "BEVERLYWOOD DIALYSIS",
    "npi": "1306243209",
    "hcaiId": "306198291",
    "businessName": "TOTAL RENAL CARE, INC.",
    "contactEmail": "CAL_C@DAVITA.COM",
    "categoryName": "CHRONIC DIALYSIS CLINIC",
    "categoryCode": "ESRD/CDC",
    "licenseStatus": "ACTIVE",
    "inService": true,
    "licenseNumber": "550003389",
    "licenseEffectiveDate": "12/15/2024",
    "licenseExpirationDate": "12/14/2025",
    "dataDate": "10/18/2025",
    "capacity": 15,
    "address": "2080 CENTURY PARK E, SUITE 210",
    "city": "LOS ANGELES",
    "zip": "90067",
    "county": "LOS ANGELES",
    "phone": "(310) 772-0224",
    "lat": 34.05913898,
    "lng": -118.411833
  },
  {
    "id": "930000031",
    "name": "CALIFORNIA REHABILITATION INSTITUTE, LLC",
    "npi": "1265814065",
    "hcaiId": "106190155",
    "businessName": "CALIFORNIA REHABILITATION INSTITUTE, LLC",
    "contactEmail": "AJAWHARJIAN@SELECTMEDICAL.COM",
    "categoryName": "GENERAL ACUTE CARE HOSPITAL",
    "categoryCode": "GACH",
    "licenseStatus": "ACTIVE",
    "inService": true,
    "licenseNumber": "930000029",
    "licenseEffectiveDate": "07/19/2025",
    "licenseExpirationDate": "07/18/2026",
    "dataDate": "10/18/2025",
    "capacity": 138,
    "address": "2070 CENTURY PARK E",
    "city": "LOS ANGELES",
    "zip": "90067",
    "county": "LOS ANGELES",
    "phone": "(424) 522-7879",
    "lat": 34.05906,
    "lng": -118.412271
  },
  {
    "id": "930000859",
    "name": "CENTURY CITY ENDOSCOPY",
    "npi": "1366554495",
    "hcaiId": null,
    "businessName": null,
    "contactEmail": "NONE@DHS.CA.GOV",
    "categoryName": "SURGICAL CLINIC",
    "categoryCode": "ASC",
    "licenseStatus": null,
    "inService": null,
    "licenseNumber": null,
    "licenseEffectiveDate": null,
    "licenseExpirationDate": null,
    "dataDate": "10/18/2025",
    "capacity": 0,
    "address": "2080 CENTURY PARK E, SUITE 1200",
    "city": "LOS ANGELES",
    "zip": "90067",
    "county": "LOS ANGELES",
    "phone": "(323) 277-8900",
    "lat": 34.059168,
    "lng": -118.4114835
  },
  {
    "id": "630014708",
    "name": "CENTURY CITY OUTPATIENT SURGERY CENTER, LLC",
    "npi": "1811246796",
    "hcaiId": null,
    "businessName": null,
    "contactEmail": "SHAUNA@LA-COMS.COM",
    "categoryName": "SURGICAL CLINIC",
    "categoryCode": "ASC",
    "licenseStatus": null,
    "inService": null,
    "licenseNumber": null,
    "licenseEffectiveDate": null,
    "licenseExpirationDate": null,
    "dataDate": "10/18/2025",
    "capacity": 0,
    "address": "2080 CENTURY PARK E, SUITE 610",
    "city": "LOS ANGELES",
    "zip": "90067",
    "county": "LOS ANGELES",
    "phone": "(310) 842-4811",
    "lat": 34.059168,
    "lng": -118.4114835
  },
  {
    "id": "630011723",
    "name": "CENTURY SURGERY, LLC",
    "npi": null,
    "hcaiId": null,
    "businessName": null,
    "contactEmail": null,
    "categoryName": "SURGICAL CLINIC",
    "categoryCode": "ASC",
    "licenseStatus": null,
    "inService": null,
    "licenseNumber": null,
    "licenseEffectiveDate": null,
    "licenseExpirationDate": null,
    "dataDate": "10/18/2025",
    "capacity": 0,
    "address": "2080 CENTURY PARK E, SUITE 703",
    "city": "LOS ANGELES",
    "zip": "90067",
    "county": "LOS ANGELES",
    "phone": "(310) 733-1000",
    "lat": 34.059168,
    "lng": -118.4114835
  }
]