[
  {
    "id": "630015102",
    "name": "ALLPOINT HOSPICE",
    "npi": "1710307699",
    "hcaiId": "406195974",
    "businessName": "ALLEVIATE CARE-LOS ANGELES, LLC",
    "contactEmail": "SYLVIE.BOAL@ALLEVIATE.CARE",
    "categoryName": "HOSPICE",
    "categoryCode": "HOSPICE",
    "licenseStatus": "ACTIVE",
    "inService": true,
    "licenseNumber": "550003794",
    "licenseEffectiveDate": "12/13/2024",
    "licenseExpirationDate": "12/12/2026",
    "dataDate": "10/18/2025",
    "capacity": 0,
    "address": "3800 BARHAM BLVD, SUITE 322",
    "city": "LOS ANGELES",
    "zip": "90068",
    "county": "LOS ANGELES",
    "phone": "(213) 265-7197",
    "lat": 34.143696,
    "lng": -118.3409865
  },
  {
    "id": "630016578",
    "name": "CATALEYA HOSPICE, INC.",
    "npi": "1194197228",
    "hcaiId": "406190949",
    "businessName": "CATALEYA HOSPICE, INC.",
    "contactEmail": "CATALEYHOSPICE@YAHOO.COM",
    "categoryName": "HOSPICE",
    "categoryCode": "HOSPICE",
    "licenseStatus": "ACTIVE",
    "inService": true,
    "licenseNumber": "550004244",
    "licenseEffectiveDate": "04/30/2024",
    "licenseExpirationDate": "04/29/2026",
    "dataDate": "10/18/2025",
    "capacity": 0,
    "address": "3151 CAHUENGA BLVD W, SUITE 220",
    "city": "LOS ANGELES",
    "zip": "90068",
    "county": "LOS ANGELES",
    "phone": "(424) 333-1331",
    "lat": 34.127685,
    "lng": -118.3466385
  },
  {
    "id": "630022008",
    "name": "CHARMING HOME HEALTH CARE, INC.",
    "npi": null,
    "hcaiId": "406193402",
    "businessName": "CHARMING HOME HEALTH CARE, INC.",
    "contactEmail": "CHARMINGHOMEHEALTH@GMAIL.COM",
    "categoryName": "HOME HEALTH AGENCY",
    "categoryCode": "HHA",
    "licenseStatus": "ACTIVE",
    "inService": true,
    "licenseNumber": "550007151",
    "licenseEffectiveDate": "04/16/2025",
    "licenseExpirationDate": "11/10/2025",
    "dataDate": "10/18/2025",
    "capacity": 0,
    "address": "3151 CAHUENGA BLVD W, SUITE 203",
    "city": "LOS ANGELES",
    "zip": "90068",
    "county": "LOS ANGELES",
    "phone": "(747) 666-0646",
    "lat": 34.127619,
    "lng": -118.346701
  },
  {
    "id": "630020786",
    "name": "DEVOTED HANDS HOSPICE INC",
    "npi": null,
    "hcaiId": "406193721",
    "businessName": "DEVOTED HANDS HOSPICE INC",
    "contactEmail": "DEVOTEDHANDSHOSPICE@GMAIL.COM",
    "categoryName": "HOSPICE",
    "categoryCode": "HOSPICE",
    "licenseStatus": "ACTIVE",
    "inService": true,
    "licenseNumber": "550006762",
    "licenseEffectiveDate": "08/25/2025",
    "licenseExpirationDate": "08/24/2027",
    "dataDate": "10/18/2025",
    "capacity": 0,
    "address": "3255 CAHUENGA BLVD W, SUITE 205",
    "city": "LOS ANGELES",
    "zip": "90068",
    "county": "LOS ANGELES",
    "phone": "(747) 777-8186",
    "lat": 34.12930184,
    "lng": -118.3490973
  },
  {
    "id": "630012820",
    "name": "ELITE HOME CARE",
    "npi": "1215165527",
    "hcaiId": "406197460",
    "businessName": "ENVOY HEALTH CARE, INC.",
    "contactEmail": "LODYJ.ENVOY@GMAIL.COM",
    "categoryName": "HOME HEALTH AGENCY",
    "categoryCode": "HHA",
    "licenseStatus": "ACTIVE",
    "inService": true,
    "licenseNumber": "550001393",
    "licenseEffectiveDate": "11/30/2025",
    "licenseExpirationDate": "11/29/2026",
    "dataDate": "10/18/2025",
    "capacity": 0,
    "address": "3151 CAHUENGA BLVD W, SUITE 320",
    "city": "LOS ANGELES",
    "zip": "90068",
    "county": "LOS ANGELES",
    "phone": "(818) 500-8778",
    "lat": 34.127619,
    "lng": -118.346701
  },
  {
    "id": "630016868",
    "name": "ENVOY HOSPICE CARE, INC.",
    "npi": null,
    "hcaiId": "406190161",
    "businessName": "ENVOY HOSPICE CARE, INC.",
    "contactEmail": "LODYJ.ENVOY@GMAIL.COM",
    "categoryName": "HOSPICE",
    "categoryCode": "HOSPICE",
    "licenseStatus": "ACTIVE",
    "inService": true,
    "licenseNumber": "550006534",
    "licenseEffectiveDate": "03/26/2025",
    "licenseExpirationDate": "03/25/2027",
    "dataDate": "10/18/2025",
    "capacity": 0,
    "address": "3151 CAHUENGA BLVD W, SUITE 307",
    "city": "LOS ANGELES",
    "zip": "90068",
    "county": "LOS ANGELES",
    "phone": "(818) 535-2009",
    "lat": 34.12762646,
    "lng": -118.3467224
  },
  {
    "id": "630017146",
    "name": "EQUANIMITY HOME HEALTH SERVICES, INC.",
    "npi": "1093250433",
    "hcaiId": "406191677",
    "businessName": "EQUANIMITY HOME HEALTH SERVICES, INC.",
    "contactEmail": "EQUANIMITYHOMEHEALTH@GMAIL.COM",
    "categoryName": "HOME HEALTH AGENCY",
    "categoryCode": "HHA",
    "licenseStatus": "ACTIVE",
    "inService": true,
    "licenseNumber": "550004675",
    "licenseEffectiveDate": "03/09/2025",
    "licenseExpirationDate": "03/08/2026",
    "dataDate": "10/18/2025",
    "capacity": 0,
    "address": "3169 BARBARA CT, UNIT D",
    "city": "LOS ANGELES",
    "zip": "90068",
    "county": "LOS ANGELES",
    "phone": "(818) 739-4880",
    "lat": 34.12790902,
    "lng": -118.347383
  },
  {
    "id": "630022913",
    "name": "EXCELLING HOME HEALTH INC.",
    "npi": null,
    "hcaiId": "406195410",
    "businessName": "EXCELLING HOME HEALTH INC.",
    "contactEmail": "EXCELLINGHH@GMAIL.COM",
    "categoryName": "HOME HEALTH AGENCY",
    "categoryCode": "HHA",
    "licenseStatus": "ACTIVE",
    "inService": true,
    "licenseNumber": "550007770",
    "licenseEffectiveDate": "01/14/2025",
    "licenseExpirationDate": "01/13/2026",
    "dataDate": "10/18/2025",
    "capacity": 0,
    "address": "3357 CAHUENGA BLVD W, SUITE 55",
    "city": "LOS ANGELES",
    "zip": "90068",
    "county": "LOS ANGELES",
    "phone": "(747) 297-5292",
    "lat": 34.131168,
    "lng": -118.3516245
  },
  {
    "id": "630024056",
    "name": "FLAG HOME HEALTH CARE, INC.",
    "npi": null,
    "hcaiId": "406197890",
    "businessName": "FLAG HOME HEALTH CARE, INC.",
    "contactEmail": "FLAGHOMEHEALTH@GMAIL.COM",
    "categoryName": "HOME HEALTH AGENCY",
    "categoryCode": "HHA",
    "licenseStatus": "ACTIVE",
    "inService": true,
    "licenseNumber": "550008422",
    "licenseEffectiveDate": "02/23/2025",
    "licenseExpirationDate": "02/22/2026",
    "dataDate": "10/18/2025",
    "capacity": 0,
    "address": "3213 DE WITT DR, SUITE A",
    "city": "LOS ANGELES",
    "zip": "90068",
    "county": "LOS ANGELES",
    "phone": "(213) 652-3377",
    "lat": 34.13191599,
    "lng": -118.34499
  },
  {
    "id": "630018888",
    "name": "GLENCARE HOME HEALTH SERVICES, LLC",
    "npi": null,
    "hcaiId": "406192800",
    "businessName": "GLENCARE HOME HEALTH SERVICES, LLC",
    "contactEmail": "GLENCAREHH@GMAIL.COM",
    "categoryName": "HOME HEALTH AGENCY",
    "categoryCode": "HHA",
    "licenseStatus": "ACTIVE",
    "inService": true,
    "licenseNumber": "550005690",
    "licenseEffectiveDate": "06/04/2025",
    "licenseExpirationDate": "02/14/2026",
    "dataDate": "10/18/2025",
    "capacity": 0,
    "address": "3255 CAHUENGA BLVD W, SUITE 111",
    "city": "LOS ANGELES",
    "zip": "90068",
    "county": "LOS ANGELES",
    "phone": "(323) 380-7427",
    "lat": 34.12931001,
    "lng": -118.349078
  },
  {
    "id": "630022020",
    "name": "GOLDEN BRIDGE HOSPICE INC.",
    "npi": null,
    "hcaiId": null,
    "businessName": "GOLDEN BRIDGE HOSPICE INC.",
    "contactEmail": "GOLDENBRIDGEHOSPICE@GMAIL.COM",
    "categoryName": "HOSPICE",
    "categoryCode": "HOSPICE",
    "licenseStatus": "ACTIVE",
    "inService": true,
    "licenseNumber": "550007629",
    "licenseEffectiveDate": "12/17/2023",
    "licenseExpirationDate": "12/16/2025",
    "dataDate": "10/18/2025",
    "capacity": 0,
    "address": "3357 CAHUENGA BLVD W, SUITE 60",
    "city": "LOS ANGELES",
    "zip": "90068",
    "county": "LOS ANGELES",
    "phone": "(323) 879-7032",
    "lat": 34.131168,
    "lng": -118.3516245
  },
  {
    "id": "630024420",
    "name": "HEALTH IS WEALTH HOME CARE SERVICES, INC.",
    "npi": null,
    "hcaiId": "406197928",
    "businessName": "HEALTH IS WEALTH HOME CARE SERVICES, INC.",
    "contactEmail": "HEALTHISWEALTHOMEHEALTH@GMAIL.COM",
    "categoryName": "HOME HEALTH AGENCY",
    "categoryCode": "HHA",
    "licenseStatus": "ACTIVE",
    "inService": true,
    "licenseNumber": "550008081",
    "licenseEffectiveDate": "07/07/2025",
    "licenseExpirationDate": "07/06/2026",
    "dataDate": "10/18/2025",
    "capacity": 0,
    "address": "3360 BARHAM BLVD, SUITE E",
    "city": "LOS ANGELES",
    "zip": "90068",
    "county": "LOS ANGELES",
    "phone": "(818) 860-7106",
    "lat": 34.132473,
    "lng": -118.3440825
  },
  {
    "id": "630024422",
    "name": "HIGH QUALITY CARE FOR ALL, INC.",
    "npi": null,
    "hcaiId": "406195878",
    "businessName": "HIGH QUALITY CARE FOR ALL, INC.",
    "contactEmail": "HIGHQUALITYCAREFORALL@GMAIL.COM",
    "categoryName": "HOME HEALTH AGENCY",
    "categoryCode": "HHA",
    "licenseStatus": "ACTIVE",
    "inService": true,
    "licenseNumber": "550008048",
    "licenseEffectiveDate": "06/21/2025",
    "licenseExpirationDate": "06/20/2026",
    "dataDate": "10/18/2025",
    "capacity": 0,
    "address": "3360 BARHAM BLVD, SUITE D",
    "city": "LOS ANGELES",
    "zip": "90068",
    "county": "LOS ANGELES",
    "phone": "(888) 728-1271",
    "lat": 34.132473,
    "lng": -118.3440825
  },
  {
    "id": "630019996",
    "name": "HOLDING HANDS HOSPICE",
    "npi": null,
    "hcaiId": null,
    "businessName": "HOLDING HANDS HOSPICE",
    "contactEmail": "HOLDINGHANDSHOSPICE2019@GMAIL.COM",
    "categoryName": "HOSPICE",
    "categoryCode": "HOSPICE",
    "licenseStatus": "ACTIVE",
    "inService": true,
    "licenseNumber": "550006340",
    "licenseEffectiveDate": "05/19/2025",
    "licenseExpirationDate": "05/18/2027",
    "dataDate": "10/18/2025",
    "capacity": 0,
    "address": "3169 BARBARA CT, SUITE F",
    "city": "LOS ANGELES",
    "zip": "90068",
    "county": "LOS ANGELES",
    "phone": "(323) 231-4040",
    "lat": 34.127784,
    "lng": -118.3472505
  },
  {
    "id": "630020142",
    "name": "LENTA HOSPICE",
    "npi": null,
    "hcaiId": "406193328",
    "businessName": "LENTA HOSPICE, INC.",
    "contactEmail": "LENTAHOSPICE@GMAIL.COM",
    "categoryName": "HOSPICE",
    "categoryCode": "HOSPICE",
    "licenseStatus": "ACTIVE",
    "inService": true,
    "licenseNumber": "550007027",
    "licenseEffectiveDate": "10/06/2025",
    "licenseExpirationDate": "10/05/2027",
    "dataDate": "10/18/2025",
    "capacity": 0,
    "address": "3330 BARHAM BLVD, SUITE 201",
    "city": "LOS ANGELES",
    "zip": "90068",
    "county": "LOS ANGELES",
    "phone": "(747) 500-7013",
    "lat": 34.131474,
    "lng": -118.344537
  },
  {
    "id": "630011324",
    "name": "LIRA HOME HEALTH, INC.",
    "npi": "1982829198",
    "hcaiId": "406197174",
    "businessName": "LIRA HOME HEALTH, INC.",
    "contactEmail": "ADMIN@LIRAHHA.COM",
    "categoryName": "HOME HEALTH AGENCY",
    "categoryCode": "HHA",
    "licenseStatus": "ACTIVE",
    "inService": true,
    "licenseNumber": "550000852",
    "licenseEffectiveDate": "05/11/2023",
    "licenseExpirationDate": "01/04/2024",
    "dataDate": "10/18/2025",
    "capacity": 0,
    "address": "6767 FOREST LAWN DR, SUITE 215",
    "city": "LOS ANGELES",
    "zip": "90068",
    "county": "LOS ANGELES",
    "phone": "(323) 782-1815",
    "lat": 34.14440402,
    "lng": -118.340278
  },
  {
    "id": "630021457",
    "name": "MEDIQ HOSPICE AND PALLIATIVE CARE",
    "npi": null,
    "hcaiId": "406190142",
    "businessName": "MEDIQ HOSPICE AND PALLIATIVE CARE",
    "contactEmail": "MEDIQHOSPICE@GMAIL.COM",
    "categoryName": "HOSPICE",
    "categoryCode": "HOSPICE",
    "licenseStatus": "ACTIVE",
    "inService": true,
    "licenseNumber": "550007593",
    "licenseEffectiveDate": "12/11/2023",
    "licenseExpirationDate": "12/10/2025",
    "dataDate": "10/18/2025",
    "capacity": 0,
    "address": "3151 CAHUENGA BLVD W, SUITE 220",
    "city": "LOS ANGELES",
    "zip": "90068",
    "county": "LOS ANGELES",
    "phone": "(323) 545-6996",
    "lat": 34.127709,
    "lng": -118.346511
  },
  {
    "id": "630027324",
    "name": "MORE LIFE HOME HEALTHCARE",
    "npi": null,
    "hcaiId": null,
    "businessName": "MORE LIFE HOME HEALTHCARE",
    "contactEmail": "MORELIFEHHC@GMAIL.COM",
    "categoryName": "HOME HEALTH AGENCY",
    "categoryCode": "HHA",
    "licenseStatus": "ACTIVE",
    "inService": true,
    "licenseNumber": "550009565",
    "licenseEffectiveDate": "11/22/2025",
    "licenseExpirationDate": "11/21/2026",
    "dataDate": "10/18/2025",
    "capacity": 0,
    "address": "3330 BARHAM BLVD, SUITE 104",
    "city": "LOS ANGELES",
    "zip": "90068",
    "county": "LOS ANGELES",
    "phone": "(818) 646-8228",
    "lat": 34.13148201,
    "lng": -118.344479
  },
  {
    "id": "630021101",
    "name": "MY OASIS HOSPICE, INC.",
    "npi": null,
    "hcaiId": "406193284",
    "businessName": "MY OASIS HOSPICE, INC.",
    "contactEmail": "MYOASISHOSPICE@GMAIL.COM",
    "categoryName": "HOSPICE",
    "categoryCode": "HOSPICE",
    "licenseStatus": "ACTIVE",
    "inService": true,
    "licenseNumber": "550007107",
    "licenseEffectiveDate": "10/07/2023",
    "licenseExpirationDate": "10/06/2025",
    "dataDate": "10/18/2025",
    "capacity": 0,
    "address": "3151 CAHUENGA BLVD W, SUITE 346",
    "city": "LOS ANGELES",
    "zip": "90068",
    "county": "LOS ANGELES",
    "phone": "(818) 570-1773",
    "lat": 34.127685,
    "lng": -118.3466385
  },
  {
    "id": "630015669",
    "name": "RELIABLE HOSPICE CARE, INC.",
    "npi": "1326445214",
    "hcaiId": "406191622",
    "businessName": "RELIABLE HOSPICE CARE, INC.",
    "contactEmail": "RELIABLEHOSPICECARE1@GMAIL.COM",
    "categoryName": "HOSPICE",
    "categoryCode": "HOSPICE",
    "licenseStatus": "ACTIVE",
    "inService": true,
    "licenseNumber": "550003605",
    "licenseEffectiveDate": "07/14/2024",
    "licenseExpirationDate": "07/13/2026",
    "dataDate": "10/18/2025",
    "capacity": 0,
    "address": "3151 CAHUENGA BLVD W, SUITE 342",
    "city": "LOS ANGELES",
    "zip": "90068",
    "county": "LOS ANGELES",
    "phone": "(818) 940-4786",
    "lat": 34.127685,
    "lng": -118.3466385
  },
  {
    "id": "630019603",
    "name": "SOUTHLAND HOME HEALTH INC",
    "npi": null,
    "hcaiId": "406192764",
    "businessName": "SOUTHLAND HOME HEALTH INC",
    "contactEmail": "SOUTHLANDHOMEINC@GMAIL.COM",
    "categoryName": "HOME HEALTH AGENCY",
    "categoryCode": "HHA",
    "licenseStatus": "ACTIVE",
    "inService": true,
    "licenseNumber": "550005502",
    "licenseEffectiveDate": "05/09/2025",
    "licenseExpirationDate": "05/08/2026",
    "dataDate": "10/18/2025",
    "capacity": 0,
    "address": "3151 CAHUENGA BLVD, SUITE 305",
    "city": "LOS ANGELES",
    "zip": "90068",
    "county": "LOS ANGELES",
    "phone": "(818) 945-4163",
    "lat": 34.127685,
    "lng": -118.3466385
  },
  {
    "id": "630021833",
    "name": "THRONE OF GRACE HOSPICE INC.",
    "npi": null,
    "hcaiId": "406197665",
    "businessName": "THRONE OF GRACE HOSPICE INC.",
    "contactEmail": "TOGHOSPICE@GMAIL.COM",
    "categoryName": "HOSPICE",
    "categoryCode": "HOSPICE",
    "licenseStatus": "ACTIVE",
    "inService": true,
    "licenseNumber": "550007393",
    "licenseEffectiveDate": "12/02/2023",
    "licenseExpirationDate": "12/01/2025",
    "dataDate": "10/18/2025",
    "capacity": 0,
    "address": "3355 CAHUENGA BLVD W, SUITE 44",
    "city": "LOS ANGELES",
    "zip": "90068",
    "county": "LOS ANGELES",
    "phone": "(323) 843-0242",
    "lat": 34.13121887,
    "lng": -118.3514923
  },
  {
    "id": "630020810",
    "name": "WEST COAST VALLEY HOME HEALTH, INC.",
    "npi": null,
    "hcaiId": "406193137",
    "businessName": "WEST COAST VALLEY HOME HEALTH, INC.",
    "contactEmail": "WCVHOMEHEALTH@GMAIL.COM",
    "categoryName": "HOME HEALTH AGENCY",
    "categoryCode": "HHA",
    "licenseStatus": "ACTIVE",
    "inService": true,
    "licenseNumber": "550006447",
    "licenseEffectiveDate": "06/21/2025",
    "licenseExpirationDate": "06/20/2026",
    "dataDate": "10/18/2025",
    "capacity": 0,
    "address": "3575 CAHUENGA BLVD W, SUITE 670",
    "city": "LOS ANGELES",
    "zip": "90068",
    "county": "LOS ANGELES",
    "phone": "(213) 474-3010",
    "lat": 34.13372602,
    "lng": -118.358393
  }
]