[
  {
    "id": "910000032",
    "name": "CULVER WEST HEALTH CENTER",
    "npi": "1710379946",
    "hcaiId": "206190229",
    "businessName": "CULVER WEST HEALTH CENTER, LLC",
    "contactEmail": "ADMINISTRATOR@CULVERWEST.COM",
    "categoryName": "SKILLED NURSING FACILITY",
    "categoryCode": "SNF",
    "licenseStatus": "ACTIVE",
    "inService": true,
    "licenseNumber": "910000038",
    "licenseEffectiveDate": "12/02/2024",
    "licenseExpirationDate": "12/01/2025",
    "dataDate": "10/18/2025",
    "capacity": 91,
    "address": "4035 GRAND VIEW BLVD",
    "city": "LOS ANGELES",
    "zip": "90066",
    "county": "LOS ANGELES",
    "phone": "(310) 390-9506",
    "lat": 33.999516,
    "lng": -118.427976
  },
  {
    "id": "980002481",
    "name": "GENTLE CARE, INC.",
    "npi": "1760594014",
    "hcaiId": "406196771",
    "businessName": "GENTLE CARE, INC.",
    "contactEmail": "MCRAIG803@YAHOO.COM",
    "categoryName": "HOME HEALTH AGENCY",
    "categoryCode": "HHA",
    "licenseStatus": "ACTIVE",
    "inService": true,
    "licenseNumber": "550000174",
    "licenseEffectiveDate": "06/05/2025",
    "licenseExpirationDate": "06/04/2026",
    "dataDate": "10/18/2025",
    "capacity": 0,
    "address": "13101 W WASHINGTON BLVD, SUITE 142",
    "city": "LOS ANGELES",
    "zip": "90066",
    "county": "LOS ANGELES",
    "phone": "(323) 295-0047",
    "lat": 33.99417,
    "lng": -118.441062
  },
  {
    "id": "060001865",
    "name": "HEALTHYLIFE ADULT DAY HEALTH CARE",
    "npi": null,
    "hcaiId": null,
    "businessName": "HEALTHYLIFE, INC.",
    "contactEmail": "HEALTHYLIFEADHC@YAHOO.COM",
    "categoryName": "ADULT DAY HEALTH CARE",
    "categoryCode": "ADHC",
    "licenseStatus": "ACTIVE",
    "inService": true,
    "licenseNumber": "060000682",
    "licenseEffectiveDate": "11/03/2025",
    "licenseExpirationDate": "11/02/2026",
    "dataDate": "10/18/2025",
    "capacity": 0,
    "address": "11613 W. WASHINGTON BLVD.",
    "city": "LOS ANGELES",
    "zip": "90066",
    "county": "LOS ANGELES",
    "phone": "(213) 637-9700",
    "lat": 34.000299,
    "lng": -118.4177025
  },
  {
    "id": "910000058",
    "name": "MAR VISTA COUNTRY VILLA HEALTHCARE & WELLNESS CENTRE, LP",
    "npi": "1720488067",
    "hcaiId": "206190499",
    "businessName": "MAR VISTA COUNTRY VILLA HEALTHCARE & WELLNESS CENTRE, LP",
    "contactEmail": "ADMINISTRATOR@CVMARVISTANC.COM",
    "categoryName": "SKILLED NURSING FACILITY",
    "categoryCode": "SNF",
    "licenseStatus": "ACTIVE",
    "inService": true,
    "licenseNumber": "910000077",
    "licenseEffectiveDate": "04/01/2025",
    "licenseExpirationDate": "03/31/2026",
    "dataDate": "10/18/2025",
    "capacity": 68,
    "address": "3966 MARCASEL AVE",
    "city": "LOS ANGELES",
    "zip": "90066",
    "county": "LOS ANGELES",
    "phone": "(310) 397-2372",
    "lat": 34.003881,
    "lng": -118.4244525
  },
  {
    "id": "910000061",
    "name": "MEADOWBROOK BEHAVIORAL HEALTH CENTER",
    "npi": "1891742946",
    "hcaiId": "206190514",
    "businessName": "SUNBRIDGE MEADOWBROOK REHABILITATION CENTER, LLC",
    "contactEmail": "ADMINISTRATOR@MEADOWBROOKBHC.COM",
    "categoryName": "SKILLED NURSING FACILITY",
    "categoryCode": "SNF",
    "licenseStatus": "ACTIVE",
    "inService": true,
    "licenseNumber": "910000080",
    "licenseEffectiveDate": "11/01/2025",
    "licenseExpirationDate": "10/31/2026",
    "dataDate": "10/18/2025",
    "capacity": 77,
    "address": "3951 EAST BLVD",
    "city": "LOS ANGELES",
    "zip": "90066",
    "county": "LOS ANGELES",
    "phone": "(310) 391-8266",
    "lat": 34.004736,
    "lng": -118.4241825
  },
  {
    "id": "060001816",
    "name": "UNIVERSAL ADULT DAY HEALTH CARE CENTER",
    "npi": null,
    "hcaiId": null,
    "businessName": "UNIVERSAL ADULT DAY HEALTH CARE CENTER, INC.",
    "contactEmail": "UNIVERSALCBAS@GMAIL.COM",
    "categoryName": "ADULT DAY HEALTH CARE",
    "categoryCode": "ADHC",
    "licenseStatus": "ACTIVE",
    "inService": true,
    "licenseNumber": "060000633",
    "licenseEffectiveDate": "11/30/2024",
    "licenseExpirationDate": "11/29/2025",
    "dataDate": "10/18/2025",
    "capacity": 0,
    "address": "3847 GRAND VIEW BLVD",
    "city": "LOS ANGELES",
    "zip": "90066",
    "county": "LOS ANGELES",
    "phone": "(310) 915-5252",
    "lat": 34.003503,
    "lng": -118.43028
  },
  {
    "id": "910000089",
    "name": "VISTA DEL SOL CARE CENTER",
    "npi": "1932587946",
    "hcaiId": "206190227",
    "businessName": "VISTA DEL SOL LTC, INC.",
    "contactEmail": "MIKEB@CAPHEALTH.COM",
    "categoryName": "SKILLED NURSING FACILITY",
    "categoryCode": "SNF",
    "licenseStatus": "ACTIVE",
    "inService": true,
    "licenseNumber": "910000037",
    "licenseEffectiveDate": "09/25/2024",
    "licenseExpirationDate": "09/24/2025",
    "dataDate": "10/18/2025",
    "capacity": 50,
    "address": "11620 W WASHINGTON BLVD",
    "city": "LOS ANGELES",
    "zip": "90066",
    "county": "LOS ANGELES",
    "phone": "(213) 385-7301",
    "lat": 34.000209,
    "lng": -118.4166585
  },
  {
    "id": "630012969",
    "name": "WELL BABY CENTER",
    "npi": null,
    "hcaiId": "306197554",
    "businessName": "WELL FAMILY MARIAN PLACE",
    "contactEmail": "VERONICA@WELLBABYCENTER.ORG",
    "categoryName": "PSYCHOLOGY CLINIC",
    "categoryCode": "PSYCHC",
    "licenseStatus": "ACTIVE",
    "inService": true,
    "licenseNumber": "550001464",
    "licenseEffectiveDate": "12/29/2024",
    "licenseExpirationDate": "12/28/2025",
    "dataDate": "10/18/2025",
    "capacity": 0,
    "address": "12316 VENICE BLVD",
    "city": "LOS ANGELES",
    "zip": "90066",
    "county": "LOS ANGELES",
    "phone": "(310) 402-2229",
    "lat": 34.003845,
    "lng": -118.4327505
  }
]