[
  {
    "id": "940000051",
    "name": "AVALON VILLA CARE CENTER",
    "npi": "1245604925",
    "hcaiId": "206190310",
    "businessName": "AVALON VILLA HEALTH CARE, LLC",
    "contactEmail": "JNUNEZ@AVALONVILLAHEALTHCARE.COM",
    "categoryName": "SKILLED NURSING FACILITY",
    "categoryCode": "SNF",
    "licenseStatus": "ACTIVE",
    "inService": true,
    "licenseNumber": "940000075",
    "licenseEffectiveDate": "09/22/2025",
    "licenseExpirationDate": "09/21/2026",
    "dataDate": "10/18/2025",
    "capacity": 131,
    "address": "12029 AVALON BLVD",
    "city": "LOS ANGELES",
    "zip": "90061",
    "county": "LOS ANGELES",
    "phone": "(323) 756-8191",
    "lat": 33.9228,
    "lng": -118.265463
  },
  {
    "id": "060001813",
    "name": "FOREVER CARING ADULT DAY HEALTH CARE",
    "npi": null,
    "hcaiId": null,
    "businessName": "GRACEFUL SENESCENCE ADULT DAY HEALTH CARE, INC.",
    "contactEmail": "SSELICO@FOREVERCARING.COM",
    "categoryName": "ADULT DAY HEALTH CARE",
    "categoryCode": "ADHC",
    "licenseStatus": "ACTIVE",
    "inService": true,
    "licenseNumber": "060000630",
    "licenseEffectiveDate": "05/10/2025",
    "licenseExpirationDate": "05/09/2026",
    "dataDate": "10/18/2025",
    "capacity": 0,
    "address": "120 W EL SEGUNDO BLVD",
    "city": "LOS ANGELES",
    "zip": "90061",
    "county": "LOS ANGELES",
    "phone": "(310) 538-5808",
    "lat": 33.916068,
    "lng": -118.27467
  },
  {
    "id": "630008341",
    "name": "FOREVER CARING HOME HEALTH SERVICES, INC.",
    "npi": "1477731792",
    "hcaiId": "406196873",
    "businessName": "FOREVER CARING HOME HEALTH SERVICES, INC.",
    "contactEmail": "SSELICO@FOREVERCARING.COM",
    "categoryName": "HOME HEALTH AGENCY",
    "categoryCode": "HHA",
    "licenseStatus": "ACTIVE",
    "inService": true,
    "licenseNumber": "550000335",
    "licenseEffectiveDate": "01/07/2025",
    "licenseExpirationDate": "11/27/2025",
    "dataDate": "10/18/2025",
    "capacity": 0,
    "address": "120 W EL SEGUNDO BLVD, SUITE B",
    "city": "LOS ANGELES",
    "zip": "90061",
    "county": "LOS ANGELES",
    "phone": "(323) 293-7072",
    "lat": 33.91603999,
    "lng": -118.274767
  },
  {
    "id": "630026956",
    "name": "LOS ANGELES CHRISTIAN HEALTH CENTERS - ANGELES HOME",
    "npi": null,
    "hcaiId": null,
    "businessName": "LOS ANGELES CHRISTIAN HEALTH CENTERS",
    "contactEmail": "BLEWIS@LACHC.COM",
    "categoryName": "PRIMARY CARE CLINIC",
    "categoryCode": "COMTYC",
    "licenseStatus": "ACTIVE",
    "inService": true,
    "licenseNumber": "550008151",
    "licenseEffectiveDate": "09/08/2025",
    "licenseExpirationDate": "09/07/2026",
    "dataDate": "10/18/2025",
    "capacity": 0,
    "address": "13200 AVALON BLVD",
    "city": "LOS ANGELES",
    "zip": "90061",
    "county": "LOS ANGELES",
    "phone": "(213) 893-1960",
    "lat": 33.912675,
    "lng": -118.264896
  },
  {
    "id": "630018491",
    "name": "MEDI MEDI COMMUNITY HEALTH CENTER",
    "npi": null,
    "hcaiId": "306190705",
    "businessName": "MEDI MEDI COMMUNITY HEALTH CENTER",
    "contactEmail": "A.PISKOULIAN@MEDIMEDICHC.ORG",
    "categoryName": "PRIMARY CARE CLINIC",
    "categoryCode": "COMTYC",
    "licenseStatus": "ACTIVE",
    "inService": true,
    "licenseNumber": "550007897",
    "licenseEffectiveDate": "07/15/2024",
    "licenseExpirationDate": "07/14/2025",
    "dataDate": "10/18/2025",
    "capacity": 0,
    "address": "11900 AVALON BLVD, UNIT 100",
    "city": "LOS ANGELES",
    "zip": "90061",
    "county": "LOS ANGELES",
    "phone": "(310) 200-7636",
    "lat": 33.924501,
    "lng": -118.264851
  },
  {
    "id": "630026089",
    "name": "PRO-CARE HOME HEALTH",
    "npi": null,
    "hcaiId": null,
    "businessName": "PRO-CARE HOME HEALTH",
    "contactEmail": "PROCAREHOMEHEALTH22@GMAIL.COM",
    "categoryName": "HOME HEALTH AGENCY",
    "categoryCode": "HHA",
    "licenseStatus": "ACTIVE",
    "inService": true,
    "licenseNumber": "550009550",
    "licenseEffectiveDate": "06/04/2025",
    "licenseExpirationDate": "12/03/2025",
    "dataDate": "10/18/2025",
    "capacity": 0,
    "address": "11900 AVALON BLVD, SUITE 101B",
    "city": "LOS ANGELES",
    "zip": "90061",
    "county": "LOS ANGELES",
    "phone": "(323) 633-9760",
    "lat": 33.924501,
    "lng": -118.264851
  },
  {
    "id": "940000025",
    "name": "VIEW HEIGHTS CONVALESCENT HOSPITAL",
    "npi": "1609927268",
    "hcaiId": "206190825",
    "businessName": "AMADA ENTERPRISES, INC.",
    "contactEmail": "CONTACTUS@VIEWHEIGHTS.COM",
    "categoryName": "SKILLED NURSING FACILITY",
    "categoryCode": "SNF",
    "licenseStatus": "ACTIVE",
    "inService": true,
    "licenseNumber": "940000171",
    "licenseEffectiveDate": "01/23/2025",
    "licenseExpirationDate": "11/19/2025",
    "dataDate": "10/18/2025",
    "capacity": 161,
    "address": "12619 AVALON BLVD",
    "city": "LOS ANGELES",
    "zip": "90061",
    "county": "LOS ANGELES",
    "phone": "(323) 757-1881",
    "lat": 33.918201,
    "lng": -118.265679
  }
]