[
  {
    "id": "630011455",
    "name": "ALL-INCLUSIVE COMMUNITY HEALTH CENTER",
    "npi": "1174996177",
    "hcaiId": "306196197",
    "businessName": "ALL-INCLUSIVE COMMUNITY HEALTH CENTER",
    "contactEmail": "ADMIN@AICHC.ORG",
    "categoryName": "PRIMARY CARE CLINIC",
    "categoryCode": "COMTYC",
    "licenseStatus": "ACTIVE",
    "inService": true,
    "licenseNumber": "550000708",
    "licenseEffectiveDate": "02/21/2025",
    "licenseExpirationDate": "02/20/2026",
    "dataDate": "10/18/2025",
    "capacity": 0,
    "address": "3920 EAGLE ROCK BLVD, SUITE A",
    "city": "LOS ANGELES",
    "zip": "90065",
    "county": "LOS ANGELES",
    "phone": "(323) 255-5225",
    "lat": 34.119054,
    "lng": -118.229895
  },
  {
    "id": "980001839",
    "name": "AS'LIEF HOME HEALTH",
    "npi": "1356332159",
    "hcaiId": "406194919",
    "businessName": "ULTIMATE CARE PLUS HOME HEALTH, INC.",
    "contactEmail": "CORLEANS@ASLIEF.COM",
    "categoryName": "HOME HEALTH AGENCY",
    "categoryCode": "HHA",
    "licenseStatus": "ACTIVE",
    "inService": true,
    "licenseNumber": "980001070",
    "licenseEffectiveDate": "03/01/2025",
    "licenseExpirationDate": "02/28/2026",
    "dataDate": "10/18/2025",
    "capacity": 0,
    "address": "4138 EAGLE ROCK BLVD, SUITE B",
    "city": "LOS ANGELES",
    "zip": "90065",
    "county": "LOS ANGELES",
    "phone": "(323) 999-2505",
    "lat": 34.121178,
    "lng": -118.2256515
  },
  {
    "id": "630017175",
    "name": "DEDICATED HOME HEALTH SERVICES, INC.",
    "npi": "1861939928",
    "hcaiId": "406190913",
    "businessName": "DEDICATED HOME HEALTH SERVICES, INC.",
    "contactEmail": "DHHSINC@YAHOO.COM",
    "categoryName": "HOME HEALTH AGENCY",
    "categoryCode": "HHA",
    "licenseStatus": "ACTIVE",
    "inService": true,
    "licenseNumber": "550004298",
    "licenseEffectiveDate": "07/13/2025",
    "licenseExpirationDate": "07/12/2026",
    "dataDate": "10/18/2025",
    "capacity": 0,
    "address": "4104 VERDUGO RD, 1/2",
    "city": "LOS ANGELES",
    "zip": "90065",
    "county": "LOS ANGELES",
    "phone": "(323) 474-6035",
    "lat": 34.125237,
    "lng": -118.2315735
  },
  {
    "id": "630019074",
    "name": "ELITE HOME HEALTH GROUP",
    "npi": null,
    "hcaiId": "406192509",
    "businessName": "ELITE HOME HEALTH GROUP",
    "contactEmail": "ELITEHOMEHEALTHGROUPINC@GMAIL.COM",
    "categoryName": "HOME HEALTH AGENCY",
    "categoryCode": "HHA",
    "licenseStatus": "ACTIVE",
    "inService": true,
    "licenseNumber": "550005446",
    "licenseEffectiveDate": "05/08/2025",
    "licenseExpirationDate": "05/07/2026",
    "dataDate": "10/18/2025",
    "capacity": 0,
    "address": "2829 N SAN FERNANDO RD, SUITE 201",
    "city": "LOS ANGELES",
    "zip": "90065",
    "county": "LOS ANGELES",
    "phone": "(626) 349-6002",
    "lat": 34.11130199,
    "lng": -118.243185
  },
  {
    "id": "630015315",
    "name": "FIDELIA HOSPICE, INC.",
    "npi": "1568872851",
    "hcaiId": "406191010",
    "businessName": "FIDELIA HOSPICE, INC.",
    "contactEmail": "FIDELIAHOSPICE@GMAIL.COM",
    "categoryName": "HOSPICE",
    "categoryCode": "HOSPICE",
    "licenseStatus": "ACTIVE",
    "inService": true,
    "licenseNumber": "550003768",
    "licenseEffectiveDate": "01/13/2025",
    "licenseExpirationDate": "01/12/2027",
    "dataDate": "10/18/2025",
    "capacity": 0,
    "address": "4210 EAGLE ROCK BLVD, SUITE 201",
    "city": "LOS ANGELES",
    "zip": "90065",
    "county": "LOS ANGELES",
    "phone": "(562) 403-0306",
    "lat": 34.12172099,
    "lng": -118.224704
  },
  {
    "id": "630020690",
    "name": "GERAS HOME HEALTH CARE, INC.",
    "npi": null,
    "hcaiId": "406563255",
    "businessName": "GERAS HOME HEALTH CARE, INC.",
    "contactEmail": "GERASHHC@GMAIL.COM",
    "categoryName": "HOME HEALTH AGENCY",
    "categoryCode": "HHA",
    "licenseStatus": "ACTIVE",
    "inService": true,
    "licenseNumber": "550006793",
    "licenseEffectiveDate": "09/13/2025",
    "licenseExpirationDate": "09/12/2026",
    "dataDate": "10/18/2025",
    "capacity": 0,
    "address": "4125 VERDUGO RD, UNIT 1",
    "city": "LOS ANGELES",
    "zip": "90065",
    "county": "LOS ANGELES",
    "phone": "(818) 303-3510",
    "lat": 34.1185612,
    "lng": -118.2247129
  },
  {
    "id": "630021832",
    "name": "HEMERA HOSPICE CARE LLC",
    "npi": null,
    "hcaiId": "406193866",
    "businessName": "HEMERA HOSPICE CARE LLC",
    "contactEmail": "HEMERAHOSPICECARE@GMAIL.COM",
    "categoryName": "HOSPICE",
    "categoryCode": "HOSPICE",
    "licenseStatus": "ACTIVE",
    "inService": true,
    "licenseNumber": "550007301",
    "licenseEffectiveDate": "11/06/2023",
    "licenseExpirationDate": "11/05/2025",
    "dataDate": "10/18/2025",
    "capacity": 0,
    "address": "3221 N SAN FERNANDO RD, SUITE H",
    "city": "LOS ANGELES",
    "zip": "90065",
    "county": "LOS ANGELES",
    "phone": "(213) 286-3336",
    "lat": 34.11674049,
    "lng": -118.2476118
  },
  {
    "id": "970000109",
    "name": "MONTECITO HEIGHTS HEALTHCARE & WELLNESS CENTRE, LP",
    "npi": "1326478066",
    "hcaiId": "206190779",
    "businessName": "MONTECITO HEIGHTS HEALTHCARE & WELLNESS CENTRE, LP",
    "contactEmail": "ADMINISTRATOR@MONTECITOHC.COM",
    "categoryName": "SKILLED NURSING FACILITY",
    "categoryCode": "SNF",
    "licenseStatus": "ACTIVE",
    "inService": true,
    "licenseNumber": "970000054",
    "licenseEffectiveDate": "06/23/2025",
    "licenseExpirationDate": "06/22/2026",
    "dataDate": "10/18/2025",
    "capacity": 90,
    "address": "4585 N FIGUEROA ST",
    "city": "LOS ANGELES",
    "zip": "90065",
    "county": "LOS ANGELES",
    "phone": "(323) 228-1532",
    "lat": 34.098057,
    "lng": -118.205856
  },
  {
    "id": "630013585",
    "name": "P.A.L. LOVING CARE HOME HEALTH, INC.",
    "npi": "1447521182",
    "hcaiId": "406197925",
    "businessName": "P.A.L. LOVING CARE HOME HEALTH, INC.",
    "contactEmail": "PALHOMECARE@GMAIL.COM",
    "categoryName": "HOME HEALTH AGENCY",
    "categoryCode": "HHA",
    "licenseStatus": "ACTIVE",
    "inService": true,
    "licenseNumber": "550002244",
    "licenseEffectiveDate": "04/08/2025",
    "licenseExpirationDate": "04/07/2026",
    "dataDate": "10/18/2025",
    "capacity": 0,
    "address": "2829 N SAN FERNANDO RD, SUITE 211",
    "city": "LOS ANGELES",
    "zip": "90065",
    "county": "LOS ANGELES",
    "phone": "(818) 244-7212",
    "lat": 34.111296,
    "lng": -118.243161
  },
  {
    "id": "630022059",
    "name": "PROVIDE HOME HEALTH, INC.",
    "npi": null,
    "hcaiId": "406193211",
    "businessName": "PROVIDE HOME HEALTH, INC.",
    "contactEmail": "PROVIDEHHC@GMAIL.COM",
    "categoryName": "HOME HEALTH AGENCY",
    "categoryCode": "HHA",
    "licenseStatus": "ACTIVE",
    "inService": true,
    "licenseNumber": "550007011",
    "licenseEffectiveDate": "10/21/2024",
    "licenseExpirationDate": "10/20/2025",
    "dataDate": "10/18/2025",
    "capacity": 0,
    "address": "2829 N SAN FERNANDO RD, SUITE 206",
    "city": "LOS ANGELES",
    "zip": "90065",
    "county": "LOS ANGELES",
    "phone": "(916) 900-6508",
    "lat": 34.111296,
    "lng": -118.243161
  },
  {
    "id": "060001917",
    "name": "ST. GABRIEL ADULT DAY HEALTH CARE CENTER",
    "npi": null,
    "hcaiId": null,
    "businessName": "ALL DAY HEALTHCARE, INC.",
    "contactEmail": "ST.GABRIELADHC@YAHOO.COM",
    "categoryName": "ADULT DAY HEALTH CARE",
    "categoryCode": "ADHC",
    "licenseStatus": "ACTIVE",
    "inService": true,
    "licenseNumber": "060000734",
    "licenseEffectiveDate": "11/27/2025",
    "licenseExpirationDate": "11/26/2026",
    "dataDate": "10/18/2025",
    "capacity": 0,
    "address": "2820 N. FIGUEROA ST.",
    "city": "LOS ANGELES",
    "zip": "90065",
    "county": "LOS ANGELES",
    "phone": "(323) 993-9400",
    "lat": 34.085106,
    "lng": -118.22049
  },
  {
    "id": "630020133",
    "name": "TRI-STATE COMMUNITY HEALTHCARE CENTER - VERDUGO",
    "npi": null,
    "hcaiId": null,
    "businessName": "TRI - STATE COMMUNITY HEALTHCARE CENTER",
    "contactEmail": null,
    "categoryName": "PRIMARY CARE CLINIC",
    "categoryCode": "COMTYC",
    "licenseStatus": "ACTIVE",
    "inService": true,
    "licenseNumber": "550004322",
    "licenseEffectiveDate": "08/09/2025",
    "licenseExpirationDate": "08/08/2026",
    "dataDate": "10/18/2025",
    "capacity": 0,
    "address": "4137 VERDUGO RD",
    "city": "LOS ANGELES",
    "zip": "90065",
    "county": "LOS ANGELES",
    "phone": null,
    "lat": 34.126074,
    "lng": -118.2320955
  },
  {
    "id": "630022113",
    "name": "TRI-STATE COMMUNITY HEALTHCARE CENTER- LA MOBILE UNIT",
    "npi": null,
    "hcaiId": null,
    "businessName": "TRI - STATE COMMUNITY HEALTHCARE CENTER",
    "contactEmail": null,
    "categoryName": "PRIMARY CARE CLINIC",
    "categoryCode": "COMTYC",
    "licenseStatus": "ACTIVE",
    "inService": true,
    "licenseNumber": "550004322",
    "licenseEffectiveDate": "08/09/2025",
    "licenseExpirationDate": "08/08/2026",
    "dataDate": "10/18/2025",
    "capacity": 0,
    "address": "4137 VERDUGO RD",
    "city": "LOS ANGELES",
    "zip": "90065",
    "county": "LOS ANGELES",
    "phone": null,
    "lat": 34.126074,
    "lng": -118.2320955
  },
  {
    "id": "630011369",
    "name": "VERDUGO HOME HEALTH, INC.",
    "npi": "1003029703",
    "hcaiId": "406197322",
    "businessName": "VERDUGO HOME HEALTH, INC.",
    "contactEmail": "ROBINA@VERDUGOHOMEHEALTH.COM",
    "categoryName": "HOME HEALTH AGENCY",
    "categoryCode": "HHA",
    "licenseStatus": "ACTIVE",
    "inService": true,
    "licenseNumber": "550000941",
    "licenseEffectiveDate": "03/17/2025",
    "licenseExpirationDate": "03/16/2026",
    "dataDate": "10/18/2025",
    "capacity": 0,
    "address": "4170 VERDUGO RD, SUITE C",
    "city": "LOS ANGELES",
    "zip": "90065",
    "county": "LOS ANGELES",
    "phone": "(323) 257-5115",
    "lat": 34.126992,
    "lng": -118.2319425
  },
  {
    "id": "980002332",
    "name": "VERDUGO HOSPICE CARE CENTER",
    "npi": null,
    "hcaiId": "406196622",
    "businessName": "ALTA VERDUGO CONSULTING INC",
    "contactEmail": "ROBINA@ALTAVERDUGO.COM",
    "categoryName": "HOSPICE",
    "categoryCode": "HOSPICE",
    "licenseStatus": "ACTIVE",
    "inService": true,
    "licenseNumber": "980001442",
    "licenseEffectiveDate": "11/29/2024",
    "licenseExpirationDate": "11/28/2026",
    "dataDate": "10/18/2025",
    "capacity": 0,
    "address": "4170 VERDUGO RD",
    "city": "LOS ANGELES",
    "zip": "90065",
    "county": "LOS ANGELES",
    "phone": "(323) 257-5715",
    "lat": 34.126992,
    "lng": -118.2319425
  }
]