[
  {
    "id": "060001930",
    "name": "LONGLIFE ADULT DAY HEALTH CARE CENTER",
    "npi": null,
    "hcaiId": null,
    "businessName": "SPIRIT OF HEALTH , INC.",
    "contactEmail": "ADHC323@GMAIL.COM",
    "categoryName": "ADULT DAY HEALTH CARE",
    "categoryCode": "ADHC",
    "licenseStatus": "ACTIVE",
    "inService": true,
    "licenseNumber": "060000747",
    "licenseEffectiveDate": "06/13/2025",
    "licenseExpirationDate": "06/12/2026",
    "dataDate": "10/18/2025",
    "capacity": 0,
    "address": "2001 W 48TH ST",
    "city": "LOS ANGELES",
    "zip": "90062",
    "county": "LOS ANGELES",
    "phone": "(323) 299-4649",
    "lat": 34.0002,
    "lng": -118.316223
  },
  {
    "id": "930000855",
    "name": "LOS ANGELES DIALYSIS CENTER",
    "npi": "1841547460",
    "hcaiId": "306197323",
    "businessName": "GLASSLAND DIALYSIS LLC",
    "contactEmail": "CAL_C@DAVITA.COM",
    "categoryName": "CHRONIC DIALYSIS CLINIC",
    "categoryCode": "ESRD/CDC",
    "licenseStatus": "ACTIVE",
    "inService": true,
    "licenseNumber": "930000446",
    "licenseEffectiveDate": "11/01/2025",
    "licenseExpirationDate": "10/31/2026",
    "dataDate": "10/18/2025",
    "capacity": 28,
    "address": "3901 S WESTERN AVE",
    "city": "LOS ANGELES",
    "zip": "90062",
    "county": "LOS ANGELES",
    "phone": "(323) 294-0670",
    "lat": 34.014357,
    "lng": -118.309257
  },
  {
    "id": "960002140",
    "name": "T.H.E. CLINIC AT RUTH TEMPLE HEALTH CENTER",
    "npi": null,
    "hcaiId": "306195048",
    "businessName": "THE CLINIC, INC.",
    "contactEmail": "LMARIN@TOHELPEVERYONE.ORG",
    "categoryName": "PRIMARY CARE CLINIC",
    "categoryCode": "COMTYC",
    "licenseStatus": "ACTIVE",
    "inService": true,
    "licenseNumber": "960001020",
    "licenseEffectiveDate": "11/08/2025",
    "licenseExpirationDate": "11/07/2026",
    "dataDate": "10/18/2025",
    "capacity": 0,
    "address": "3834 S WESTERN AVE",
    "city": "LOS ANGELES",
    "zip": "90062",
    "county": "LOS ANGELES",
    "phone": "(323) 309-6026",
    "lat": 34.01649344,
    "lng": -118.3088531
  }
]