[
  {
    "id": "930001576",
    "name": "BEVERLY HILLS SUNSET SURGERY CENTER, INC.",
    "npi": "1205968070",
    "hcaiId": "306194865",
    "businessName": "BEVERLY HILLS SUNSET SURGERY CENTER, INC.",
    "contactEmail": "RICHARD@BHSSC.COM",
    "categoryName": "SURGICAL CLINIC",
    "categoryCode": "ASC",
    "licenseStatus": "INACTIVE - CAPEN DECISION",
    "inService": false,
    "licenseNumber": "930000884",
    "licenseEffectiveDate": "06/26/2007",
    "licenseExpirationDate": "06/25/2008",
    "dataDate": "10/18/2025",
    "capacity": 0,
    "address": "9201 W SUNSET BLVD, SUITE 405",
    "city": "WEST HOLLYWOOD",
    "zip": "90069",
    "county": "LOS ANGELES",
    "phone": "(310) 887-1730",
    "lat": 34.090884,
    "lng": -118.392516
  },
  {
    "id": "630021942",
    "name": "LOS ANGELES LGBT CENTER - WEHO",
    "npi": "1548298532",
    "hcaiId": null,
    "businessName": "LOS ANGELES LGBT CENTER",
    "contactEmail": "ESMITH@LALGBTCENTER.ORG",
    "categoryName": "PRIMARY CARE CLINIC",
    "categoryCode": "COMTYC",
    "licenseStatus": "ACTIVE",
    "inService": true,
    "licenseNumber": "960000834",
    "licenseEffectiveDate": "06/23/2025",
    "licenseExpirationDate": "06/22/2026",
    "dataDate": "10/18/2025",
    "capacity": 0,
    "address": "8745 SANTA MONICA BLVD, FLOOR 2ND",
    "city": "WEST HOLLYWOOD",
    "zip": "90069",
    "county": "LOS ANGELES",
    "phone": "(323) 993-7466",
    "lat": 34.08687041,
    "lng": -118.3813771
  },
  {
    "id": "630018579",
    "name": "MEN'S HEALTH FOUNDATION",
    "npi": null,
    "hcaiId": null,
    "businessName": "MEN'S HEALTH FOUNDATION",
    "contactEmail": "GREGORY.MILLER@MENSHEALTHFOUND.ORG",
    "categoryName": "PRIMARY CARE CLINIC",
    "categoryCode": "COMTYC",
    "licenseStatus": "ACTIVE",
    "inService": true,
    "licenseNumber": "550009635",
    "licenseEffectiveDate": "09/04/2025",
    "licenseExpirationDate": "09/03/2026",
    "dataDate": "10/18/2025",
    "capacity": 0,
    "address": "9201 W SUNSET BLVD, SUITE 812",
    "city": "WEST HOLLYWOOD",
    "zip": "90069",
    "county": "LOS ANGELES",
    "phone": "(310) 550-1010",
    "lat": 34.09085648,
    "lng": -118.3924656
  },
  {
    "id": "630015986",
    "name": "PLANNED PARENTHOOD LOS ANGELES WEST HOLLYWOOD CENTER",
    "npi": "1114322518",
    "hcaiId": "306190612",
    "businessName": "PLANNED PARENTHOOD LOS ANGELES",
    "contactEmail": "BRENDA.GUERRERO@PP-LA.ORG",
    "categoryName": "PRIMARY CARE CLINIC",
    "categoryCode": "COMTYC",
    "licenseStatus": "ACTIVE",
    "inService": true,
    "licenseNumber": "550003215",
    "licenseEffectiveDate": "08/28/2025",
    "licenseExpirationDate": "08/27/2026",
    "dataDate": "10/18/2025",
    "capacity": 0,
    "address": "8704 SANTA MONICA BLVD, SUITE 300",
    "city": "WEST HOLLYWOOD",
    "zip": "90069",
    "county": "LOS ANGELES",
    "phone": "(213) 284-3200",
    "lat": 34.087122,
    "lng": -118.3800465
  },
  {
    "id": "630013370",
    "name": "STATE OF THE ART SURGERY CENTER, LLC",
    "npi": "1710152590",
    "hcaiId": null,
    "businessName": null,
    "contactEmail": null,
    "categoryName": "SURGICAL CLINIC",
    "categoryCode": "ASC",
    "licenseStatus": null,
    "inService": null,
    "licenseNumber": null,
    "licenseEffectiveDate": null,
    "licenseExpirationDate": null,
    "dataDate": "10/18/2025",
    "capacity": 0,
    "address": "9201 W SUNSET BLVD",
    "city": "WEST HOLLYWOOD",
    "zip": "90069",
    "county": "LOS ANGELES",
    "phone": null,
    "lat": 34.090875,
    "lng": -118.392507
  }
]