[
  {
    "id": "980002223",
    "name": "ALLPOINT HOME HEALTH CARE, LLC",
    "npi": null,
    "hcaiId": "406196243",
    "businessName": "ALLPOINT HOME HEALTH CARE, LLC",
    "contactEmail": "DJHERMAN@RHCCPA.COM",
    "categoryName": "HOME HEALTH AGENCY",
    "categoryCode": "HHA",
    "licenseStatus": "ACTIVE",
    "inService": true,
    "licenseNumber": "980001342",
    "licenseEffectiveDate": "12/01/2024",
    "licenseExpirationDate": "11/30/2025",
    "dataDate": "10/18/2025",
    "capacity": 0,
    "address": "11340 W OLYMPIC BLVD, SUITE 220",
    "city": "LOS ANGELES",
    "zip": "90064",
    "county": "LOS ANGELES",
    "phone": "(310) 441-2009",
    "lat": 34.037289,
    "lng": -118.441701
  },
  {
    "id": "960002235",
    "name": "C G JUNG INSTITUTE - KIEFFER E FRANTZ CLINIC",
    "npi": null,
    "hcaiId": "306194989",
    "businessName": "C G JUNG INSTITUTE OF LOS ANGELES",
    "contactEmail": "CLINIC@JUNGINLA.ORG",
    "categoryName": "PSYCHOLOGY CLINIC",
    "categoryCode": "PSYCHC",
    "licenseStatus": "ACTIVE",
    "inService": true,
    "licenseNumber": "960001046",
    "licenseEffectiveDate": "11/12/2024",
    "licenseExpirationDate": "11/11/2025",
    "dataDate": "10/18/2025",
    "capacity": 0,
    "address": "10349 W PICO BLVD",
    "city": "LOS ANGELES",
    "zip": "90064",
    "county": "LOS ANGELES",
    "phone": "(310) 556-1193",
    "lat": 34.04736,
    "lng": -118.4155785
  },
  {
    "id": "960002876",
    "name": "CLARIS HEALTH",
    "npi": "1306934930",
    "hcaiId": "306197040",
    "businessName": "CLARIS HEALTH",
    "contactEmail": "EVADNA@CLARISHEALTH.ORG",
    "categoryName": "PRIMARY CARE CLINIC",
    "categoryCode": "COMTYC",
    "licenseStatus": "ACTIVE",
    "inService": true,
    "licenseNumber": "960001442",
    "licenseEffectiveDate": "11/19/2024",
    "licenseExpirationDate": "11/18/2025",
    "dataDate": "10/18/2025",
    "capacity": 0,
    "address": "11500 W OLYMPIC BLVD, SUITE 570",
    "city": "LOS ANGELES",
    "zip": "90064",
    "county": "LOS ANGELES",
    "phone": "(310) 268-8111",
    "lat": 34.035777,
    "lng": -118.444131
  },
  {
    "id": "630019371",
    "name": "CLARIS HEALTH MEDICAL MOBILE UNIT",
    "npi": "1306934930",
    "hcaiId": null,
    "businessName": "CLARIS HEALTH",
    "contactEmail": null,
    "categoryName": "PRIMARY CARE CLINIC",
    "categoryCode": "COMTYC",
    "licenseStatus": "ACTIVE",
    "inService": true,
    "licenseNumber": "960001442",
    "licenseEffectiveDate": "11/19/2024",
    "licenseExpirationDate": "11/18/2025",
    "dataDate": "10/18/2025",
    "capacity": 0,
    "address": "11500 W OLYMPIC BLVD, SUITE 570",
    "city": "LOS ANGELES",
    "zip": "90064",
    "county": "LOS ANGELES",
    "phone": null,
    "lat": 34.036236,
    "lng": -118.4441445
  },
  {
    "id": "630019211",
    "name": "HOSPICE OF NATION, INC",
    "npi": "1891348918",
    "hcaiId": "406192040",
    "businessName": "HOSPICE OF NATION, INC",
    "contactEmail": "TORRESHOSPICEOFNATION@GMAIL.COM",
    "categoryName": "HOSPICE",
    "categoryCode": "HOSPICE",
    "licenseStatus": "ACTIVE",
    "inService": true,
    "licenseNumber": "550005153",
    "licenseEffectiveDate": "12/04/2023",
    "licenseExpirationDate": "12/03/2025",
    "dataDate": "10/18/2025",
    "capacity": 0,
    "address": "11835 W OLYMPIC BLVD, SUITE 830E",
    "city": "LOS ANGELES",
    "zip": "90064",
    "county": "LOS ANGELES",
    "phone": "(424) 535-3355",
    "lat": 34.033014,
    "lng": -118.4511915
  },
  {
    "id": "060002116",
    "name": "NATIONAL ADULT DAY HEALTH CARE CENTER",
    "npi": null,
    "hcaiId": null,
    "businessName": "RJR CARE, INC.",
    "contactEmail": "TOMASIAN2003@YAHOO.COM",
    "categoryName": "ADULT DAY HEALTH CARE",
    "categoryCode": "ADHC",
    "licenseStatus": "ACTIVE",
    "inService": true,
    "licenseNumber": "060000896",
    "licenseEffectiveDate": "12/26/2024",
    "licenseExpirationDate": "12/25/2025",
    "dataDate": "10/18/2025",
    "capacity": 0,
    "address": "11251 NATIONAL BLVD",
    "city": "LOS ANGELES",
    "zip": "90064",
    "county": "LOS ANGELES",
    "phone": "(310) 943-5400",
    "lat": 34.02665758,
    "lng": -118.4306875
  },
  {
    "id": "630025314",
    "name": "SANITAS HOME HEALTH CARE, INC.",
    "npi": null,
    "hcaiId": "406190319",
    "businessName": "SANITAS HOME HEALTH CARE, INC.",
    "contactEmail": "SANITASHOMEHEALTHCARE@GMAIL.COM",
    "categoryName": "HOME HEALTH AGENCY",
    "categoryCode": "HHA",
    "licenseStatus": "ACTIVE",
    "inService": true,
    "licenseNumber": "550008483",
    "licenseEffectiveDate": "06/24/2025",
    "licenseExpirationDate": "04/20/2026",
    "dataDate": "10/18/2025",
    "capacity": 0,
    "address": "10801 NATIONAL BLVD, SUITE 579",
    "city": "LOS ANGELES",
    "zip": "90064",
    "county": "LOS ANGELES",
    "phone": "(747) 737-3273",
    "lat": 34.03127699,
    "lng": -118.420437
  },
  {
    "id": "960000239",
    "name": "WRIGHT INSTITUTE LOS ANGELES CLINIC",
    "npi": null,
    "hcaiId": "306198065",
    "businessName": "WRIGHT INSTITUTE LOS ANGELES",
    "contactEmail": "BUSINESSDIRECTOR@WILA.ORG",
    "categoryName": "PSYCHOLOGY CLINIC",
    "categoryCode": "PSYCHC",
    "licenseStatus": "ACTIVE",
    "inService": true,
    "licenseNumber": "960000197",
    "licenseEffectiveDate": "04/15/2025",
    "licenseExpirationDate": "04/14/2026",
    "dataDate": "10/18/2025",
    "capacity": 0,
    "address": "11845 W. OLYMPIC BLVD., SUITE 505W",
    "city": "LOS ANGELES",
    "zip": "90064",
    "county": "LOS ANGELES",
    "phone": "(424) 371-5195",
    "lat": 34.032906,
    "lng": -118.4517675
  }
]