[
  {
    "id": "630028333",
    "name": "ALTAMED MEDICAL GROUP - BELL GARDENS",
    "npi": null,
    "hcaiId": null,
    "businessName": "ALTAMED HEALTH SERVICES CORPORATION",
    "contactEmail": null,
    "categoryName": "PRIMARY CARE CLINIC",
    "categoryCode": "COMTYC",
    "licenseStatus": "ACTIVE",
    "inService": true,
    "licenseNumber": "550003268",
    "licenseEffectiveDate": "10/29/2025",
    "licenseExpirationDate": "10/28/2026",
    "dataDate": "10/18/2025",
    "capacity": 0,
    "address": "6811 EASTERN AVE",
    "city": "BELL GARDENS",
    "zip": "90201",
    "county": "LOS ANGELES",
    "phone": null,
    "lat": 33.97131,
    "lng": -118.165298
  },
  {
    "id": "630026928",
    "name": "ANGELES COMMUNITY HEALTH CENTER",
    "npi": "1295288348",
    "hcaiId": null,
    "businessName": "HEALTH ACCESS FOR ALL, INC.",
    "contactEmail": null,
    "categoryName": "PRIMARY CARE CLINIC",
    "categoryCode": "COMTYC",
    "licenseStatus": "ACTIVE",
    "inService": true,
    "licenseNumber": "550003973",
    "licenseEffectiveDate": "09/15/2025",
    "licenseExpirationDate": "09/14/2026",
    "dataDate": "10/18/2025",
    "capacity": 0,
    "address": "4750 GAGE AVE",
    "city": "BELL GARDENS",
    "zip": "90201",
    "county": "LOS ANGELES",
    "phone": null,
    "lat": 33.977151,
    "lng": -118.180719
  },
  {
    "id": "940000011",
    "name": "BELL CONVALESCENT HOSPITAL",
    "npi": "1376575449",
    "hcaiId": "206190063",
    "businessName": "P & J HOSPITAL, INC.",
    "contactEmail": "TIM-PARK@BELLNURSINGCARE.COM",
    "categoryName": "SKILLED NURSING FACILITY",
    "categoryCode": "SNF",
    "licenseStatus": "ACTIVE",
    "inService": true,
    "licenseNumber": "940000014",
    "licenseEffectiveDate": "03/01/2025",
    "licenseExpirationDate": "02/28/2026",
    "dataDate": "10/18/2025",
    "capacity": 99,
    "address": "4900 FLORENCE AVE",
    "city": "BELL",
    "zip": "90201",
    "county": "LOS ANGELES",
    "phone": "(323) 560-2045",
    "lat": 33.968826,
    "lng": -118.180179
  },
  {
    "id": "630000541",
    "name": "BELL GARDENS COMMUNITY HEALTH CENTER",
    "npi": "1295829109",
    "hcaiId": "306194813",
    "businessName": "JWCH INSTITUTE, INC.",
    "contactEmail": "AIRIE@JWCH.ORG",
    "categoryName": "PRIMARY CARE CLINIC",
    "categoryCode": "COMTYC",
    "licenseStatus": "ACTIVE",
    "inService": true,
    "licenseNumber": "550000019",
    "licenseEffectiveDate": "05/04/2025",
    "licenseExpirationDate": "05/03/2026",
    "dataDate": "10/18/2025",
    "capacity": 0,
    "address": "6912 AJAX AVE",
    "city": "BELL GARDENS",
    "zip": "90201",
    "county": "LOS ANGELES",
    "phone": "(213) 562-5813",
    "lat": 33.969906,
    "lng": -118.1625795
  },
  {
    "id": "960001812",
    "name": "BELL GARDENS FAMILY MEDICAL CENTER",
    "npi": "1720115033",
    "hcaiId": "306194613",
    "businessName": "FAMILY HEALTH CARE CENTERS OF GREATER LOS ANGELES,INC.",
    "contactEmail": "RVILLA@FHCCGLA.ORG",
    "categoryName": "PRIMARY CARE CLINIC",
    "categoryCode": "COMTYC",
    "licenseStatus": "ACTIVE",
    "inService": true,
    "licenseNumber": "960000881",
    "licenseEffectiveDate": "06/12/2025",
    "licenseExpirationDate": "06/11/2026",
    "dataDate": "10/18/2025",
    "capacity": 0,
    "address": "6501 GARFIELD AVE",
    "city": "BELL GARDENS",
    "zip": "90201",
    "county": "LOS ANGELES",
    "phone": "(562) 776-5014",
    "lat": 33.973335,
    "lng": -118.1476845
  },
  {
    "id": "940000012",
    "name": "BRIARCREST NURSING CENTER",
    "npi": "1548255284",
    "hcaiId": "206190064",
    "businessName": "5648 EAST GOTHAM STREET, LLC",
    "contactEmail": "JGURON@BRIARCRESTNURSING.COM",
    "categoryName": "SKILLED NURSING FACILITY",
    "categoryCode": "SNF",
    "licenseStatus": "ACTIVE",
    "inService": true,
    "licenseNumber": "940000015",
    "licenseEffectiveDate": "01/12/2025",
    "licenseExpirationDate": "01/11/2026",
    "dataDate": "10/18/2025",
    "capacity": 135,
    "address": "5648 GOTHAM ST",
    "city": "BELL GARDENS",
    "zip": "90201",
    "county": "LOS ANGELES",
    "phone": "(562) 927-2641",
    "lat": 33.960726,
    "lng": -118.1664495
  },
  {
    "id": "630017171",
    "name": "CUDAHY FAMILY HEALTH CENTER",
    "npi": null,
    "hcaiId": "306190397",
    "businessName": "SOUTH CENTRAL FAMILY HEALTH CENTER",
    "contactEmail": "MARIAOC@SCFHC.ORG",
    "categoryName": "PRIMARY CARE CLINIC",
    "categoryCode": "COMTYC",
    "licenseStatus": "ACTIVE",
    "inService": true,
    "licenseNumber": "550002413",
    "licenseEffectiveDate": "09/30/2025",
    "licenseExpirationDate": "09/29/2026",
    "dataDate": "10/18/2025",
    "capacity": 0,
    "address": "7910 ATLANTIC AVE, SUITE M",
    "city": "CUDAHY",
    "zip": "90201",
    "county": "LOS ANGELES",
    "phone": "(323) 905-5809",
    "lat": 33.962499,
    "lng": -118.1852865
  },
  {
    "id": "630022389",
    "name": "CUDAHY PERITONEAL DIALYSIS CENTER",
    "npi": null,
    "hcaiId": null,
    "businessName": null,
    "contactEmail": "CUDAHYPERITONEAL@GMAIL.COM",
    "categoryName": "CHRONIC DIALYSIS CLINIC",
    "categoryCode": "ESRD",
    "licenseStatus": null,
    "inService": null,
    "licenseNumber": null,
    "licenseEffectiveDate": null,
    "licenseExpirationDate": null,
    "dataDate": "10/18/2025",
    "capacity": 0,
    "address": "4566 FLORENCE AVE, SUITE 3",
    "city": "CUDAHY",
    "zip": "90201",
    "county": "LOS ANGELES",
    "phone": "(323) 806-9225",
    "lat": 33.96933,
    "lng": -118.18611
  },
  {
    "id": "060001774",
    "name": "EL ARCA ADULT DAY HEALTH CARE CENTER",
    "npi": null,
    "hcaiId": null,
    "businessName": "EAST LOS ANGELES REMARKABLE CITIZEN'S ASSOCIATION, INC.",
    "contactEmail": "KANDRADE@ELARCAINC.ORG",
    "categoryName": "ADULT DAY HEALTH CARE",
    "categoryCode": "ADHC",
    "licenseStatus": "ACTIVE",
    "inService": true,
    "licenseNumber": "060000591",
    "licenseEffectiveDate": "02/03/2025",
    "licenseExpirationDate": "02/02/2026",
    "dataDate": "10/18/2025",
    "capacity": 0,
    "address": "4008 FLORENCE AVE.",
    "city": "BELL",
    "zip": "90201",
    "county": "LOS ANGELES",
    "phone": "(323) 718-7676",
    "lat": 33.970851,
    "lng": -118.196523
  },
  {
    "id": "630017318",
    "name": "FHCCGLA SCHOOL BASED HEALTH CENTER",
    "npi": null,
    "hcaiId": "306190940",
    "businessName": "FAMILY HEALTH CARE CENTERS OF GREATER LOS ANGELES,INC.",
    "contactEmail": "RVILLA@FHCCGLA.ORG",
    "categoryName": "PRIMARY CARE CLINIC",
    "categoryCode": "COMTYC",
    "licenseStatus": "ACTIVE",
    "inService": true,
    "licenseNumber": "550004111",
    "licenseEffectiveDate": "01/23/2025",
    "licenseExpirationDate": "01/22/2026",
    "dataDate": "10/18/2025",
    "capacity": 0,
    "address": "6119 AGRA STREET",
    "city": "BELL GARDENS",
    "zip": "90201",
    "county": "LOS ANGELES",
    "phone": "(562) 776-5014",
    "lat": 33.97563056,
    "lng": -118.1542035
  },
  {
    "id": "630017009",
    "name": "JWCH MEDICAL CLINIC @ BELL SHELTER",
    "npi": null,
    "hcaiId": null,
    "businessName": null,
    "contactEmail": null,
    "categoryName": "PRIMARY CARE CLINIC",
    "categoryCode": "COMTYC",
    "licenseStatus": null,
    "inService": null,
    "licenseNumber": null,
    "licenseEffectiveDate": null,
    "licenseExpirationDate": null,
    "dataDate": "10/18/2025",
    "capacity": 0,
    "address": "5600 RICKENBACKER RD., BUILDING 1E",
    "city": "BELL",
    "zip": "90201",
    "county": "LOS ANGELES",
    "phone": null,
    "lat": 33.98927937,
    "lng": -118.1638593
  },
  {
    "id": "960002815",
    "name": "NORTHEAST COMMUNITY CLINIC",
    "npi": null,
    "hcaiId": "306196519",
    "businessName": "NORTHEAST COMMUNITY CLINIC",
    "contactEmail": "CLAV@NECC.MD",
    "categoryName": "PRIMARY CARE CLINIC",
    "categoryCode": "COMTYC",
    "licenseStatus": "ACTIVE",
    "inService": true,
    "licenseNumber": "550002400",
    "licenseEffectiveDate": "09/20/2025",
    "licenseExpirationDate": "09/19/2026",
    "dataDate": "10/18/2025",
    "capacity": 0,
    "address": "4129 GAGE AVE",
    "city": "BELL",
    "zip": "90201",
    "county": "LOS ANGELES",
    "phone": "(323) 771-8545",
    "lat": 33.97869545,
    "lng": -118.1927722
  },
  {
    "id": "930001542",
    "name": "PREMIER DIALYSIS CENTER",
    "npi": "1073576153",
    "hcaiId": "306194707",
    "businessName": "TOTAL RENAL CARE, INC.",
    "contactEmail": "CAL_C@DAVITA.COM",
    "categoryName": "CHRONIC DIALYSIS CLINIC",
    "categoryCode": "ESRD/CDC",
    "licenseStatus": "ACTIVE",
    "inService": true,
    "licenseNumber": "930000867",
    "licenseEffectiveDate": "11/29/2024",
    "licenseExpirationDate": "11/28/2025",
    "dataDate": "10/18/2025",
    "capacity": 38,
    "address": "7612 ATLANTIC AVE",
    "city": "CUDAHY",
    "zip": "90201",
    "county": "LOS ANGELES",
    "phone": "(323) 562-5511",
    "lat": 33.966891,
    "lng": -118.1868615
  },
  {
    "id": "630027438",
    "name": "RENEW SURGERY CENTER, INC.",
    "npi": null,
    "hcaiId": null,
    "businessName": null,
    "contactEmail": "ROB9632@GMAIL.COM",
    "categoryName": "SURGICAL CLINIC",
    "categoryCode": "ASC",
    "licenseStatus": null,
    "inService": null,
    "licenseNumber": null,
    "licenseEffectiveDate": null,
    "licenseExpirationDate": null,
    "dataDate": "10/18/2025",
    "capacity": 0,
    "address": "8218 GARFIELD AVE, SUITE 101",
    "city": "BELL GARDENS",
    "zip": "90201",
    "county": "LOS ANGELES",
    "phone": "(310) 409-9059",
    "lat": 33.956037,
    "lng": -118.160065
  },
  {
    "id": "940000040",
    "name": "VILLA DEL RIO",
    "npi": "1366959876",
    "hcaiId": "206190234",
    "businessName": "VILLA DEL RIO, INC.",
    "contactEmail": "CRESENCIO.DACAYANAN@VDELRIO.COM",
    "categoryName": "SKILLED NURSING FACILITY",
    "categoryCode": "SNF",
    "licenseStatus": "ACTIVE",
    "inService": true,
    "licenseNumber": "940000052",
    "licenseEffectiveDate": "01/26/2025",
    "licenseExpirationDate": "01/25/2026",
    "dataDate": "10/18/2025",
    "capacity": 183,
    "address": "7002 GAGE AVE",
    "city": "BELL GARDENS",
    "zip": "90201",
    "county": "LOS ANGELES",
    "phone": "(562) 927-6586",
    "lat": 33.97241647,
    "lng": -118.1327959
  },
  {
    "id": "630020405",
    "name": "WELLNESS CENTER AT ELIZABETH LEARNING CENTER",
    "npi": "1588908305",
    "hcaiId": null,
    "businessName": "SOUTH CENTRAL FAMILY HEALTH CENTER",
    "contactEmail": null,
    "categoryName": "PRIMARY CARE CLINIC",
    "categoryCode": "COMTYC",
    "licenseStatus": "ACTIVE",
    "inService": true,
    "licenseNumber": "550002413",
    "licenseEffectiveDate": "09/30/2025",
    "licenseExpirationDate": "09/29/2026",
    "dataDate": "10/18/2025",
    "capacity": 0,
    "address": "4811 ELIZABETH ST",
    "city": "CUDAHY",
    "zip": "90201",
    "county": "LOS ANGELES",
    "phone": null,
    "lat": 33.964767,
    "lng": -118.182861
  },
  {
    "id": "630026104",
    "name": "WESLEY HEALTH CENTERS - BELL GARDENS DENTAL",
    "npi": null,
    "hcaiId": null,
    "businessName": "JWCH INSTITUTE, INC.",
    "contactEmail": null,
    "categoryName": "PRIMARY CARE CLINIC",
    "categoryCode": "COMTYC",
    "licenseStatus": "ACTIVE",
    "inService": true,
    "licenseNumber": "960001445",
    "licenseEffectiveDate": "06/16/2025",
    "licenseExpirationDate": "06/15/2026",
    "dataDate": "10/18/2025",
    "capacity": 0,
    "address": "6336 FLORENCE AVE",
    "city": "BELL GARDENS",
    "zip": "90201",
    "county": "LOS ANGELES",
    "phone": null,
    "lat": 33.965181,
    "lng": -118.1520045
  },
  {
    "id": "630027311",
    "name": "WESLEY HEALTH CENTERS BELL OASIS",
    "npi": "1407808058",
    "hcaiId": null,
    "businessName": "JWCH INSTITUTE, INC.",
    "contactEmail": null,
    "categoryName": "PRIMARY CARE CLINIC",
    "categoryCode": "COMTYC",
    "licenseStatus": "ACTIVE",
    "inService": true,
    "licenseNumber": "960001280",
    "licenseEffectiveDate": "11/30/2024",
    "licenseExpirationDate": "11/29/2025",
    "dataDate": "10/18/2025",
    "capacity": 0,
    "address": "5502 K ST, BUILDING C",
    "city": "BELL",
    "zip": "90201",
    "county": "LOS ANGELES",
    "phone": null,
    "lat": 33.98829199,
    "lng": -118.168127
  }
]