[
  {
    "id": "930000945",
    "name": "436 BEVERLY HILLS, LLC",
    "npi": "1972694487",
    "hcaiId": null,
    "businessName": null,
    "contactEmail": "NONE@DHS.CA.GOV",
    "categoryName": "SURGICAL CLINIC",
    "categoryCode": "ASC",
    "licenseStatus": null,
    "inService": null,
    "licenseNumber": null,
    "licenseEffectiveDate": null,
    "licenseExpirationDate": null,
    "dataDate": "10/18/2025",
    "capacity": 0,
    "address": "436 N BEDFORD DR, SUITE 103",
    "city": "BEVERLY HILLS",
    "zip": "90210",
    "county": "LOS ANGELES",
    "phone": "(310) 274-8001",
    "lat": 34.06869,
    "lng": -118.4053455
  },
  {
    "id": "930000378",
    "name": "90210 SURGERY MEDICAL CENTER, LLC",
    "npi": "1295769131",
    "hcaiId": "306194596",
    "businessName": "90210 SURGERY MEDICAL CENTER, LLC",
    "contactEmail": "BTAPIA@ASSILEYE.COM",
    "categoryName": "SURGICAL CLINIC",
    "categoryCode": "ASC",
    "licenseStatus": "INACTIVE - CAPEN DECISION",
    "inService": false,
    "licenseNumber": "930000805",
    "licenseEffectiveDate": "04/19/2008",
    "licenseExpirationDate": "04/18/2009",
    "dataDate": "10/18/2025",
    "capacity": 0,
    "address": "450 N ROXBURY DR, SUITE 600",
    "city": "BEVERLY HILLS",
    "zip": "90210",
    "county": "LOS ANGELES",
    "phone": "(310) 651-2280",
    "lat": 34.068393,
    "lng": -118.4067405
  },
  {
    "id": "930001806",
    "name": "BEDFORD AMBULATORY SURGERY CENTER",
    "npi": "1356494512",
    "hcaiId": "306196561",
    "businessName": "BEDFORD AMBULATORY SURGERY CENTER, INC.",
    "contactEmail": "NIKOLOV@DRNIKOLOV.COM",
    "categoryName": "SURGICAL CLINIC",
    "categoryCode": "ASC",
    "licenseStatus": "INACTIVE - CAPEN DECISION",
    "inService": false,
    "licenseNumber": "930001007",
    "licenseEffectiveDate": "06/01/2007",
    "licenseExpirationDate": "05/31/2008",
    "dataDate": "10/18/2025",
    "capacity": 0,
    "address": "436 N BEDFORD DR, SUITE 215",
    "city": "BEVERLY HILLS",
    "zip": "90210",
    "county": "LOS ANGELES",
    "phone": "(310) 247-1932",
    "lat": 34.06869,
    "lng": -118.4053455
  },
  {
    "id": "630012739",
    "name": "BEDFORD SURGICAL CENTER, INC.",
    "npi": "1598995664",
    "hcaiId": null,
    "businessName": null,
    "contactEmail": null,
    "categoryName": "SURGICAL CLINIC",
    "categoryCode": "ASC",
    "licenseStatus": null,
    "inService": null,
    "licenseNumber": null,
    "licenseEffectiveDate": null,
    "licenseExpirationDate": null,
    "dataDate": "10/18/2025",
    "capacity": 0,
    "address": "436 N BEDFORD DR, SUITE 305",
    "city": "BEVERLY HILLS",
    "zip": "90210",
    "county": "LOS ANGELES",
    "phone": "(310) 271-6996",
    "lat": 34.06869,
    "lng": -118.4053455
  },
  {
    "id": "630018806",
    "name": "BEVERLY HILLS GOLDEN SURGERY CENTER",
    "npi": null,
    "hcaiId": null,
    "businessName": null,
    "contactEmail": "NEALBLITZ@GMAIL.COM",
    "categoryName": "SURGICAL CLINIC",
    "categoryCode": "ASC",
    "licenseStatus": null,
    "inService": null,
    "licenseNumber": null,
    "licenseEffectiveDate": null,
    "licenseExpirationDate": null,
    "dataDate": "10/18/2025",
    "capacity": 0,
    "address": "435 N ROXBURY DR, PENTHOUSE",
    "city": "BEVERLY HILLS",
    "zip": "90210",
    "county": "LOS ANGELES",
    "phone": "(917) 355-1280",
    "lat": 34.067646,
    "lng": -118.4069655
  },
  {
    "id": "930001747",
    "name": "BEVERLY HILLS MEDICAL CENTER, INC",
    "npi": "1477088540",
    "hcaiId": null,
    "businessName": null,
    "contactEmail": "NONE@DHS.CA.GOV",
    "categoryName": "SURGICAL CLINIC",
    "categoryCode": "ASC",
    "licenseStatus": null,
    "inService": null,
    "licenseNumber": null,
    "licenseEffectiveDate": null,
    "licenseExpirationDate": null,
    "dataDate": "10/18/2025",
    "capacity": 0,
    "address": "414 N CAMDEN DR, SUITE 1010",
    "city": "BEVERLY HILLS",
    "zip": "90210",
    "county": "LOS ANGELES",
    "phone": "(310) 888-8818",
    "lat": 34.068987,
    "lng": -118.403955
  },
  {
    "id": "930001833",
    "name": "BEVERLY HILLS SOCIETY OF PLASTIC SURGEONS",
    "npi": "1568681187",
    "hcaiId": null,
    "businessName": null,
    "contactEmail": "MANAGER@BHSPSSURGERYCENTER.COM",
    "categoryName": "SURGICAL CLINIC",
    "categoryCode": "ASC",
    "licenseStatus": null,
    "inService": null,
    "licenseNumber": null,
    "licenseEffectiveDate": null,
    "licenseExpirationDate": null,
    "dataDate": "10/18/2025",
    "capacity": 0,
    "address": "435 N ROXBURY DR, SUITE 409",
    "city": "BEVERLY HILLS",
    "zip": "90210",
    "county": "LOS ANGELES",
    "phone": "(310) 274-0690",
    "lat": 34.067646,
    "lng": -118.4069655
  },
  {
    "id": "630017626",
    "name": "BHC SURGICAL GROUP INC.",
    "npi": "1881146298",
    "hcaiId": null,
    "businessName": null,
    "contactEmail": "VERONICA@BEVERLYHILLSCENTER.COM",
    "categoryName": "SURGICAL CLINIC",
    "categoryCode": "ASC",
    "licenseStatus": null,
    "inService": null,
    "licenseNumber": null,
    "licenseEffectiveDate": null,
    "licenseExpirationDate": null,
    "dataDate": "10/18/2025",
    "capacity": 0,
    "address": "465 N ROXBURY DR, SUITE 750",
    "city": "BEVERLY HILLS",
    "zip": "90210",
    "county": "LOS ANGELES",
    "phone": "(310) 288-0641",
    "lat": 34.068168,
    "lng": -118.407465
  },
  {
    "id": "930001724",
    "name": "BRIGHTON SURGICAL CENTER, INC.",
    "npi": "1982740734",
    "hcaiId": "306196193",
    "businessName": "BRIGHTON SURGICAL CENTER, INC.",
    "contactEmail": "BRIGHTONSURGICAL@YAHOO.COM",
    "categoryName": "SURGICAL CLINIC",
    "categoryCode": "ASC",
    "licenseStatus": "INACTIVE - CAPEN DECISION",
    "inService": false,
    "licenseNumber": "930000953",
    "licenseEffectiveDate": "11/30/2007",
    "licenseExpirationDate": "11/29/2008",
    "dataDate": "10/18/2025",
    "capacity": 0,
    "address": "9675 BRIGHTON WAY, SUITE 1",
    "city": "BEVERLY HILLS",
    "zip": "90210",
    "county": "LOS ANGELES",
    "phone": "(310) 278-3033",
    "lat": 34.06779,
    "lng": -118.405431
  },
  {
    "id": "930001471",
    "name": "CAMDEN SURGERY CENTER OF BEVERLY HILLS",
    "npi": "1003033341",
    "hcaiId": "306194602",
    "businessName": "CAMDEN SURGERY CENTER OF BEVERLY HILLS, INC.",
    "contactEmail": "CAMDEN_SURGERY@YAHOO.COM",
    "categoryName": "SURGICAL CLINIC",
    "categoryCode": "ASC",
    "licenseStatus": "INACTIVE - CAPEN DECISION",
    "inService": false,
    "licenseNumber": "930000816",
    "licenseEffectiveDate": "11/08/2008",
    "licenseExpirationDate": "11/07/2009",
    "dataDate": "10/18/2025",
    "capacity": 0,
    "address": "414 N CAMDEN DR, SUITE 800",
    "city": "BEVERLY HILLS",
    "zip": "90210",
    "county": "LOS ANGELES",
    "phone": "(310) 859-3991",
    "lat": 34.068987,
    "lng": -118.403955
  },
  {
    "id": "930001754",
    "name": "ORCHID OUTPATIENT MEDICAL & SURGICAL SURGERY CTR",
    "npi": "1720289069",
    "hcaiId": null,
    "businessName": null,
    "contactEmail": "INFO@ORCHIDSURGERY.COM",
    "categoryName": "SURGICAL CLINIC",
    "categoryCode": "ASC",
    "licenseStatus": null,
    "inService": null,
    "licenseNumber": null,
    "licenseEffectiveDate": null,
    "licenseExpirationDate": null,
    "dataDate": "10/18/2025",
    "capacity": 0,
    "address": "9301 WILSHIRE BLVD, SUITE 305",
    "city": "BEVERLY HILLS",
    "zip": "90210",
    "county": "LOS ANGELES",
    "phone": "(310) 435-8140",
    "lat": 34.067394,
    "lng": -118.394676
  },
  {
    "id": "630014810",
    "name": "PRECISION AMBULATORY SURGERY CENTER, LLC",
    "npi": "1114265519",
    "hcaiId": null,
    "businessName": null,
    "contactEmail": null,
    "categoryName": "SURGICAL CLINIC",
    "categoryCode": "ASC",
    "licenseStatus": null,
    "inService": null,
    "licenseNumber": null,
    "licenseEffectiveDate": null,
    "licenseExpirationDate": null,
    "dataDate": "10/18/2025",
    "capacity": 0,
    "address": "450 N ROXBURY DR, SUITE 250",
    "city": "BEVERLY HILLS",
    "zip": "90210",
    "county": "LOS ANGELES",
    "phone": "(310) 651-2040",
    "lat": 34.068393,
    "lng": -118.4067405
  },
  {
    "id": "630017927",
    "name": "PROSTAR REHABILITATION SERVICES, LLC",
    "npi": null,
    "hcaiId": "406195121",
    "businessName": "PROSTAR REHABILITATION SERVICES, LLC",
    "contactEmail": "SADAF.ROODBAEI@GMAIL.COM",
    "categoryName": "HOME HEALTH AGENCY",
    "categoryCode": "HHA",
    "licenseStatus": "ACTIVE",
    "inService": true,
    "licenseNumber": "550005854",
    "licenseEffectiveDate": "09/29/2025",
    "licenseExpirationDate": "09/28/2026",
    "dataDate": "10/18/2025",
    "capacity": 0,
    "address": "9171 WILSHIRE BLVD, UNIT 500",
    "city": "BEVERLY HILLS",
    "zip": "90210",
    "county": "LOS ANGELES",
    "phone": "(310) 935-0030",
    "lat": 34.067385,
    "lng": -118.391751
  },
  {
    "id": "930001808",
    "name": "REXFORD OPERATING ROOMS, INC.",
    "npi": "1164547857",
    "hcaiId": null,
    "businessName": null,
    "contactEmail": "REXFORDOR@AD.COM",
    "categoryName": "SURGICAL CLINIC",
    "categoryCode": "ASC",
    "licenseStatus": null,
    "inService": null,
    "licenseNumber": null,
    "licenseEffectiveDate": null,
    "licenseExpirationDate": null,
    "dataDate": "10/18/2025",
    "capacity": 0,
    "address": "9301 WILSHIRE BLVD, SUITE 125",
    "city": "BEVERLY HILLS",
    "zip": "90210",
    "county": "LOS ANGELES",
    "phone": "(310) 777-0033",
    "lat": 34.067394,
    "lng": -118.394676
  },
  {
    "id": "930001820",
    "name": "RODEO DRIVE PLASTIC SURGERY, INC.",
    "npi": "1114078342",
    "hcaiId": null,
    "businessName": null,
    "contactEmail": "INFO@RDPS.COM",
    "categoryName": "SURGICAL CLINIC",
    "categoryCode": "ASC",
    "licenseStatus": null,
    "inService": null,
    "licenseNumber": null,
    "licenseEffectiveDate": null,
    "licenseExpirationDate": null,
    "dataDate": "10/18/2025",
    "capacity": 0,
    "address": "421 N RODEO DR",
    "city": "BEVERLY HILLS",
    "zip": "90210",
    "county": "LOS ANGELES",
    "phone": "(310) 550-6300",
    "lat": 34.069491,
    "lng": -118.403739
  },
  {
    "id": "930001836",
    "name": "ROX BEVERLY HILLS SURGERY CENTER, LLC",
    "npi": "1619002698",
    "hcaiId": null,
    "businessName": null,
    "contactEmail": "LKOPLIN@AOL.COM",
    "categoryName": "SURGICAL CLINIC",
    "categoryCode": "ASC",
    "licenseStatus": null,
    "inService": null,
    "licenseNumber": null,
    "licenseEffectiveDate": null,
    "licenseExpirationDate": null,
    "dataDate": "10/18/2025",
    "capacity": 0,
    "address": "465 N ROXBURY DR, SUITE 802",
    "city": "BEVERLY HILLS",
    "zip": "90210",
    "county": "LOS ANGELES",
    "phone": "(310) 277-3223",
    "lat": 34.068168,
    "lng": -118.407465
  },
  {
    "id": "930001699",
    "name": "ROXBURY SURGERY CENTER",
    "npi": "1518007608",
    "hcaiId": null,
    "businessName": null,
    "contactEmail": "NONE@DHS.CA.GOV",
    "categoryName": "SURGICAL CLINIC",
    "categoryCode": "ASC",
    "licenseStatus": null,
    "inService": null,
    "licenseNumber": null,
    "licenseEffectiveDate": null,
    "licenseExpirationDate": null,
    "dataDate": "10/18/2025",
    "capacity": 0,
    "address": "450 N ROXBURY DR, SUITE 520",
    "city": "BEVERLY HILLS",
    "zip": "90210",
    "county": "LOS ANGELES",
    "phone": "(310) 277-2393",
    "lat": 34.068393,
    "lng": -118.4067405
  },
  {
    "id": "930001774",
    "name": "SUMMIT SURGICAL ASSOCIATES LLC",
    "npi": "1740371665",
    "hcaiId": null,
    "businessName": null,
    "contactEmail": null,
    "categoryName": "SURGICAL CLINIC",
    "categoryCode": "ASC",
    "licenseStatus": null,
    "inService": null,
    "licenseNumber": null,
    "licenseEffectiveDate": null,
    "licenseExpirationDate": null,
    "dataDate": "10/18/2025",
    "capacity": 0,
    "address": "416 N BEDFORD DR, SUITE 400B",
    "city": "BEVERLY HILLS",
    "zip": "90210",
    "county": "LOS ANGELES",
    "phone": "(310) 859-9988",
    "lat": 34.068366,
    "lng": -118.4049945
  },
  {
    "id": "930001655",
    "name": "SURGIWORLD",
    "npi": "1891853214",
    "hcaiId": null,
    "businessName": null,
    "contactEmail": "NONE@DHS.CA.GOV",
    "categoryName": "SURGICAL CLINIC",
    "categoryCode": "ASC",
    "licenseStatus": null,
    "inService": null,
    "licenseNumber": null,
    "licenseEffectiveDate": null,
    "licenseExpirationDate": null,
    "dataDate": "10/18/2025",
    "capacity": 0,
    "address": "465 N ROXBURY DR, SUITE 1012",
    "city": "BEVERLY HILLS",
    "zip": "90210",
    "county": "LOS ANGELES",
    "phone": "(310) 385-0590",
    "lat": 34.068168,
    "lng": -118.407465
  },
  {
    "id": "630013431",
    "name": "THE CENTER FOR SURGERY",
    "npi": "1457677452",
    "hcaiId": null,
    "businessName": null,
    "contactEmail": "GBISSEL@THECENTER4SURGERY.COM",
    "categoryName": "SURGICAL CLINIC",
    "categoryCode": "ASC",
    "licenseStatus": null,
    "inService": null,
    "licenseNumber": null,
    "licenseEffectiveDate": null,
    "licenseExpirationDate": null,
    "dataDate": "10/18/2025",
    "capacity": 0,
    "address": "436 N BEDFORD DR, SUITE 100",
    "city": "BEVERLY HILLS",
    "zip": "90210",
    "county": "LOS ANGELES",
    "phone": "(310) 409-2300",
    "lat": 34.06869,
    "lng": -118.4053455
  },
  {
    "id": "930001796",
    "name": "THE ROXBURY CLINIC AND SURGERY CENTER",
    "npi": "1003001967",
    "hcaiId": null,
    "businessName": null,
    "contactEmail": "NONE@DHS.CA.GOV",
    "categoryName": "SURGICAL CLINIC",
    "categoryCode": "ASC",
    "licenseStatus": null,
    "inService": null,
    "licenseNumber": null,
    "licenseEffectiveDate": null,
    "licenseExpirationDate": null,
    "dataDate": "10/18/2025",
    "capacity": 0,
    "address": "465 N ROXBURY DR, SUITE 1001",
    "city": "BEVERLY HILLS",
    "zip": "90210",
    "county": "LOS ANGELES",
    "phone": "(310) 246-9979",
    "lat": 34.068168,
    "lng": -118.407465
  },
  {
    "id": "930001817",
    "name": "TRIANGLE SURGERY CENTER",
    "npi": null,
    "hcaiId": "306196559",
    "businessName": "TRIANGLE SURGERY MEDICAL CENTER, INC.",
    "contactEmail": "SUSAN@TRIANGLESURGERYCENTER.COM",
    "categoryName": "SURGICAL CLINIC",
    "categoryCode": "ASC",
    "licenseStatus": "INACTIVE - CAPEN DECISION",
    "inService": false,
    "licenseNumber": "930001006",
    "licenseEffectiveDate": "06/23/2007",
    "licenseExpirationDate": "06/22/2008",
    "dataDate": "10/18/2025",
    "capacity": 0,
    "address": "450 N ROXBURY DR, SUITE 250",
    "city": "BEVERLY HILLS",
    "zip": "90210",
    "county": "LOS ANGELES",
    "phone": "(310) 278-7712",
    "lat": 34.068393,
    "lng": -118.4067405
  }
]