[
  {
    "id": "630014179",
    "name": "ADVANCED MULTISPECIALTY SURGERY CENTER",
    "npi": null,
    "hcaiId": null,
    "businessName": null,
    "contactEmail": null,
    "categoryName": "SURGICAL CLINIC",
    "categoryCode": "ASC",
    "licenseStatus": null,
    "inService": null,
    "licenseNumber": null,
    "licenseEffectiveDate": null,
    "licenseExpirationDate": null,
    "dataDate": "10/18/2025",
    "capacity": 0,
    "address": "50 N LA CIENEGA BLVD, SUITE 110",
    "city": "BEVERLY HILLS",
    "zip": "90211",
    "county": "LOS ANGELES",
    "phone": "(310) 289-7770",
    "lat": 34.066908,
    "lng": -118.3759155
  },
  {
    "id": "960002471",
    "name": "AHF HEALTHCARE CENTER - WESTSIDE HEALTHCARE CLINIC",
    "npi": null,
    "hcaiId": "306194615",
    "businessName": "AIDS HEALTHCARE FOUNDATION",
    "contactEmail": "PHARMACYOPERATIONS@AHFRX.ORG",
    "categoryName": "PRIMARY CARE CLINIC",
    "categoryCode": "COMTYC",
    "licenseStatus": "ACTIVE",
    "inService": true,
    "licenseNumber": "960001128",
    "licenseEffectiveDate": "11/04/2024",
    "licenseExpirationDate": "11/03/2025",
    "dataDate": "10/18/2025",
    "capacity": 0,
    "address": "99 N LA CIENEGA BLVD, SUITE 200",
    "city": "BEVERLY HILLS",
    "zip": "90211",
    "county": "LOS ANGELES",
    "phone": "(310) 999-6089",
    "lat": 34.067385,
    "lng": -118.3766265
  },
  {
    "id": "630011816",
    "name": "BACK INSTITUTE SURGERY CENTER OF BEVERLY HILLS",
    "npi": "1134326119",
    "hcaiId": null,
    "businessName": null,
    "contactEmail": null,
    "categoryName": "SURGICAL CLINIC",
    "categoryCode": "ASC",
    "licenseStatus": null,
    "inService": null,
    "licenseNumber": null,
    "licenseEffectiveDate": null,
    "licenseExpirationDate": null,
    "dataDate": "10/18/2025",
    "capacity": 0,
    "address": "220 S ROBERTSON BLVD",
    "city": "BEVERLY HILLS",
    "zip": "90211",
    "county": "LOS ANGELES",
    "phone": null,
    "lat": 34.064271,
    "lng": -118.3832685
  },
  {
    "id": "930001715",
    "name": "BEVERLY HILLS - ROBERTSON SURGERY CENTER",
    "npi": "1083842744",
    "hcaiId": null,
    "businessName": null,
    "contactEmail": "AGRIFF@PACBELL.NET",
    "categoryName": "SURGICAL CLINIC",
    "categoryCode": "ASC",
    "licenseStatus": null,
    "inService": null,
    "licenseNumber": null,
    "licenseEffectiveDate": null,
    "licenseExpirationDate": null,
    "dataDate": "10/18/2025",
    "capacity": 0,
    "address": "8641 WILSHIRE BLVD, SUITE 305",
    "city": "BEVERLY HILLS",
    "zip": "90211",
    "county": "LOS ANGELES",
    "phone": "(310) 657-5310",
    "lat": 34.066422,
    "lng": -118.3798035
  },
  {
    "id": "630012264",
    "name": "BEVERLY HILLS ENDOSCOPY CENTER, LLC",
    "npi": "1023039682",
    "hcaiId": null,
    "businessName": null,
    "contactEmail": null,
    "categoryName": "SURGICAL CLINIC",
    "categoryCode": "ASC",
    "licenseStatus": null,
    "inService": null,
    "licenseNumber": null,
    "licenseEffectiveDate": null,
    "licenseExpirationDate": null,
    "dataDate": "10/18/2025",
    "capacity": 0,
    "address": "8920 WILSHIRE BLVD, SUITE 320",
    "city": "BEVERLY HILLS",
    "zip": "90211",
    "county": "LOS ANGELES",
    "phone": "(310) 888-8898",
    "lat": 34.066692,
    "lng": -118.3863285
  },
  {
    "id": "630023922",
    "name": "BEVERLY HILLS ENDOSURGICAL CENTER, LLC",
    "npi": null,
    "hcaiId": null,
    "businessName": null,
    "contactEmail": null,
    "categoryName": "SURGICAL CLINIC",
    "categoryCode": "ASC",
    "licenseStatus": null,
    "inService": null,
    "licenseNumber": null,
    "licenseEffectiveDate": null,
    "licenseExpirationDate": null,
    "dataDate": "10/18/2025",
    "capacity": 0,
    "address": "150 N ROBERTSON BLVD, SUITE 110",
    "city": "BEVERLY HILLS",
    "zip": "90211",
    "county": "LOS ANGELES",
    "phone": "(323) 202-2023",
    "lat": 34.068132,
    "lng": -118.383399
  },
  {
    "id": "980002244",
    "name": "BEVERLY HILLS HOME HEALTH CARE, INC.",
    "npi": "1700883592",
    "hcaiId": "406196254",
    "businessName": "B&Y MANAGEMENT, INC.",
    "contactEmail": "BHHHCINC@HOTMAIL.COM",
    "categoryName": "HOME HEALTH AGENCY",
    "categoryCode": "HHA",
    "licenseStatus": "ACTIVE",
    "inService": true,
    "licenseNumber": "980001362",
    "licenseEffectiveDate": "02/16/2025",
    "licenseExpirationDate": "02/15/2026",
    "dataDate": "10/18/2025",
    "capacity": 0,
    "address": "292 S LA CIENEGA BLVD, SUITE 325",
    "city": "BEVERLY HILLS",
    "zip": "90211",
    "county": "LOS ANGELES",
    "phone": "(310) 659-7950",
    "lat": 34.062858,
    "lng": -118.3757805
  },
  {
    "id": "630017724",
    "name": "BEVERLY HILLS MULTISPECIALTY SURGICAL CENTER, LLC",
    "npi": "1558885541",
    "hcaiId": null,
    "businessName": null,
    "contactEmail": null,
    "categoryName": "SURGICAL CLINIC",
    "categoryCode": "ASC",
    "licenseStatus": null,
    "inService": null,
    "licenseNumber": null,
    "licenseEffectiveDate": null,
    "licenseExpirationDate": null,
    "dataDate": "10/18/2025",
    "capacity": 0,
    "address": "50 N LA CIENEGA BLVD, SUITE 201",
    "city": "BEVERLY HILLS",
    "zip": "90211",
    "county": "LOS ANGELES",
    "phone": "(818) 348-7251",
    "lat": 34.066908,
    "lng": -118.3759155
  },
  {
    "id": "630024492",
    "name": "BEVERLY HILLS OUTPATIENT SURGERY CENTER",
    "npi": null,
    "hcaiId": null,
    "businessName": null,
    "contactEmail": "BHOUTPATIENTSURGERYCENTER@GMAIL.COM",
    "categoryName": "SURGICAL CLINIC",
    "categoryCode": "ASC",
    "licenseStatus": null,
    "inService": null,
    "licenseNumber": null,
    "licenseEffectiveDate": null,
    "licenseExpirationDate": null,
    "dataDate": "10/18/2025",
    "capacity": 0,
    "address": "50 N LA CIENEGA BLVD, SUITE 203",
    "city": "BEVERLY HILLS",
    "zip": "90211",
    "county": "LOS ANGELES",
    "phone": "(424) 527-0344",
    "lat": 34.066899,
    "lng": -118.37592
  },
  {
    "id": "630014574",
    "name": "BEVERLY HILLS PENTHOUSE SURGERY CENTER, INC",
    "npi": "1205100427",
    "hcaiId": null,
    "businessName": null,
    "contactEmail": "JEFF@DRHOEFFLIN.COM",
    "categoryName": "SURGICAL CLINIC",
    "categoryCode": "ASC",
    "licenseStatus": null,
    "inService": null,
    "licenseNumber": null,
    "licenseEffectiveDate": null,
    "licenseExpirationDate": null,
    "dataDate": "10/18/2025",
    "capacity": 0,
    "address": "8929 WILSHIRE BLVD, SUITE PENTHOUSE SUITE",
    "city": "BEVERLY HILLS",
    "zip": "90211",
    "county": "LOS ANGELES",
    "phone": "(310) 273-5100",
    "lat": 34.067259,
    "lng": -118.386351
  },
  {
    "id": "630012668",
    "name": "BEVERLY HILLS SOUTH PACIFIC SURGERY CENTER, INC.",
    "npi": "1730313636",
    "hcaiId": null,
    "businessName": null,
    "contactEmail": null,
    "categoryName": "SURGICAL CLINIC",
    "categoryCode": "ASC",
    "licenseStatus": null,
    "inService": null,
    "licenseNumber": null,
    "licenseEffectiveDate": null,
    "licenseExpirationDate": null,
    "dataDate": "10/18/2025",
    "capacity": 0,
    "address": "99 N LA CIENEGA BLVD, SUITE 102",
    "city": "BEVERLY HILLS",
    "zip": "90211",
    "county": "LOS ANGELES",
    "phone": null,
    "lat": 34.067385,
    "lng": -118.3766265
  },
  {
    "id": "930001638",
    "name": "BEVERLY HILLS SURGICAL INSTITUTE",
    "npi": null,
    "hcaiId": null,
    "businessName": null,
    "contactEmail": "NONE@DHS.CA.GOV",
    "categoryName": "SURGICAL CLINIC",
    "categoryCode": "ASC",
    "licenseStatus": null,
    "inService": null,
    "licenseNumber": null,
    "licenseEffectiveDate": null,
    "licenseExpirationDate": null,
    "dataDate": "10/18/2025",
    "capacity": 0,
    "address": "9025 WILSHIRE BLVD, SUITE 203",
    "city": "BEVERLY HILLS",
    "zip": "90211",
    "county": "LOS ANGELES",
    "phone": "(310) 888-2351",
    "lat": 34.067394,
    "lng": -118.3884165
  },
  {
    "id": "630021454",
    "name": "BH OUTPATIENT SURGICAL CENTER",
    "npi": null,
    "hcaiId": null,
    "businessName": null,
    "contactEmail": "INFO@BHSURGICALCENTER.COM",
    "categoryName": "SURGICAL CLINIC",
    "categoryCode": "ASC",
    "licenseStatus": null,
    "inService": null,
    "licenseNumber": null,
    "licenseEffectiveDate": null,
    "licenseExpirationDate": null,
    "dataDate": "10/18/2025",
    "capacity": 0,
    "address": "50 N LA CIENEGA BLVD, SUITE 110",
    "city": "BEVERLY HILLS",
    "zip": "90211",
    "county": "LOS ANGELES",
    "phone": "(424) 230-3557",
    "lat": 34.066891,
    "lng": -118.376246
  },
  {
    "id": "630016948",
    "name": "CEDARS-SINAI ENDOSCOPY",
    "npi": "1154706018",
    "hcaiId": null,
    "businessName": null,
    "contactEmail": null,
    "categoryName": "SURGICAL CLINIC",
    "categoryCode": "ASC",
    "licenseStatus": null,
    "inService": null,
    "licenseNumber": null,
    "licenseEffectiveDate": null,
    "licenseExpirationDate": null,
    "dataDate": "10/18/2025",
    "capacity": 0,
    "address": "8536 WILSHIRE BLVD., SUITE #102",
    "city": "BEVERLY HILLS",
    "zip": "90211",
    "county": "LOS ANGELES",
    "phone": null,
    "lat": 34.065252,
    "lng": -118.3775985
  },
  {
    "id": "630011912",
    "name": "CRHG SURGICAL CENTER",
    "npi": "1861608960",
    "hcaiId": null,
    "businessName": null,
    "contactEmail": null,
    "categoryName": "SURGICAL CLINIC",
    "categoryCode": "ASC",
    "licenseStatus": null,
    "inService": null,
    "licenseNumber": null,
    "licenseEffectiveDate": null,
    "licenseExpirationDate": null,
    "dataDate": "10/18/2025",
    "capacity": 0,
    "address": "99 N LA CIENEGA BLVD, SUITE 111",
    "city": "BEVERLY HILLS",
    "zip": "90211",
    "county": "LOS ANGELES",
    "phone": "(310) 360-9036",
    "lat": 34.067385,
    "lng": -118.3766265
  },
  {
    "id": "630007523",
    "name": "DOHENY ENDOSURGICAL CENTER",
    "npi": "1881642288",
    "hcaiId": null,
    "businessName": null,
    "contactEmail": "CBSTRO@AOL.COM",
    "categoryName": "SURGICAL CLINIC",
    "categoryCode": "ASC",
    "licenseStatus": null,
    "inService": null,
    "licenseNumber": null,
    "licenseEffectiveDate": null,
    "licenseExpirationDate": null,
    "dataDate": "10/18/2025",
    "capacity": 0,
    "address": "9090 WILSHIRE BLVD, SUITE 100",
    "city": "BEVERLY HILLS",
    "zip": "90211",
    "county": "LOS ANGELES",
    "phone": "(310) 246-2555",
    "lat": 34.066701,
    "lng": -118.389411
  },
  {
    "id": "630018803",
    "name": "EOS WELLNESS SURGERY CENTER LLC",
    "npi": "1801384987",
    "hcaiId": null,
    "businessName": null,
    "contactEmail": null,
    "categoryName": "SURGICAL CLINIC",
    "categoryCode": "ASC",
    "licenseStatus": null,
    "inService": null,
    "licenseNumber": null,
    "licenseEffectiveDate": null,
    "licenseExpirationDate": null,
    "dataDate": "10/18/2025",
    "capacity": 0,
    "address": "8641 WILSHIRE BLVD, SUITE 305",
    "city": "BEVERLY HILLS",
    "zip": "90211",
    "county": "LOS ANGELES",
    "phone": "(310) 730-1218",
    "lat": 34.066422,
    "lng": -118.3798035
  },
  {
    "id": "630011483",
    "name": "EYE SURGERY CENTER OF BEVERLY HILLS",
    "npi": "1225179898",
    "hcaiId": null,
    "businessName": null,
    "contactEmail": null,
    "categoryName": "SURGICAL CLINIC",
    "categoryCode": "ASC",
    "licenseStatus": null,
    "inService": null,
    "licenseNumber": null,
    "licenseEffectiveDate": null,
    "licenseExpirationDate": null,
    "dataDate": "10/18/2025",
    "capacity": 0,
    "address": "240 S LA CIENEGA BLVD, SUITE 260",
    "city": "BEVERLY HILLS",
    "zip": "90211",
    "county": "LOS ANGELES",
    "phone": null,
    "lat": 34.063938,
    "lng": -118.3758435
  },
  {
    "id": "630014579",
    "name": "GRATEFUL PALLIATIVE CARE AND HOSPICE, LLC",
    "npi": "1710422175",
    "hcaiId": "406198374",
    "businessName": "GRATEFUL PALLIATIVE CARE AND HOSPICE, LLC",
    "contactEmail": "MICHAEL@GRATEFULHOSPICE.COM",
    "categoryName": "HOSPICE",
    "categoryCode": "HOSPICE",
    "licenseStatus": "ACTIVE",
    "inService": true,
    "licenseNumber": "550002942",
    "licenseEffectiveDate": "08/03/2023",
    "licenseExpirationDate": "08/02/2025",
    "dataDate": "10/18/2025",
    "capacity": 0,
    "address": "215 S LA CIENEGA BLVD, SUITE 206",
    "city": "BEVERLY HILLS",
    "zip": "90211",
    "county": "LOS ANGELES",
    "phone": "(310) 854-1055",
    "lat": 34.064442,
    "lng": -118.3765275
  },
  {
    "id": "980001891",
    "name": "HIGHLAND HOME HEALTHCARE, INC.",
    "npi": "1831370899",
    "hcaiId": "406195053",
    "businessName": "HIGHLAND HOME HEALTHCARE, INC.",
    "contactEmail": "KATTANALAN@HOTMAIL.COM",
    "categoryName": "HOME HEALTH AGENCY",
    "categoryCode": "HHA",
    "licenseStatus": "ACTIVE",
    "inService": true,
    "licenseNumber": "980001088",
    "licenseEffectiveDate": "01/18/2025",
    "licenseExpirationDate": "01/17/2026",
    "dataDate": "10/18/2025",
    "capacity": 0,
    "address": "8671 WILSHIRE BLVD, SUITE 606",
    "city": "BEVERLY HILLS",
    "zip": "90211",
    "county": "LOS ANGELES",
    "phone": "(310) 854-1023",
    "lat": 34.066647,
    "lng": -118.3806675
  },
  {
    "id": "630027383",
    "name": "HOAG ORTHOPEDIC INSTITUTE SURGERY CENTER BEVERLY HILLS, LLC",
    "npi": null,
    "hcaiId": null,
    "businessName": null,
    "contactEmail": "KEVIN@CALISHER.COM",
    "categoryName": "SURGICAL CLINIC",
    "categoryCode": "ASC",
    "licenseStatus": null,
    "inService": null,
    "licenseNumber": null,
    "licenseEffectiveDate": null,
    "licenseExpirationDate": null,
    "dataDate": "10/18/2025",
    "capacity": 0,
    "address": "9090 WILSHIRE BLVD, SUITE 102",
    "city": "BEVERLY HILLS",
    "zip": "90211",
    "county": "LOS ANGELES",
    "phone": "(714) 766-5833",
    "lat": 34.06670398,
    "lng": -118.389418
  },
  {
    "id": "630014002",
    "name": "K AND B SURGICAL CENTER, LLC",
    "npi": null,
    "hcaiId": null,
    "businessName": null,
    "contactEmail": "SKUIZON@KANDBSURGICALCENTER.COM",
    "categoryName": "SURGICAL CLINIC",
    "categoryCode": "ASC",
    "licenseStatus": null,
    "inService": null,
    "licenseNumber": null,
    "licenseEffectiveDate": null,
    "licenseExpirationDate": null,
    "dataDate": "10/18/2025",
    "capacity": 0,
    "address": "9033 WILSHIRE BLVD, SUITE 210",
    "city": "BEVERLY HILLS",
    "zip": "90211",
    "county": "LOS ANGELES",
    "phone": "(310) 746-4700",
    "lat": 34.067394,
    "lng": -118.3889295
  },
  {
    "id": "930001746",
    "name": "LA PEER SURGERY CENTER, LLC",
    "npi": "1932214624",
    "hcaiId": "306196239",
    "businessName": "LA PEER SURGERY CENTER, LLC",
    "contactEmail": "ALFIERAMOS@GMAIL.COM",
    "categoryName": "SURGICAL CLINIC",
    "categoryCode": "ASC",
    "licenseStatus": "INACTIVE - CAPEN DECISION",
    "inService": false,
    "licenseNumber": "930000968",
    "licenseEffectiveDate": "11/19/2007",
    "licenseExpirationDate": "11/18/2008",
    "dataDate": "10/18/2025",
    "capacity": 0,
    "address": "8920 WILSHIRE BLVD, SUITE 101",
    "city": "BEVERLY HILLS",
    "zip": "90211",
    "county": "LOS ANGELES",
    "phone": "(310) 360-9119",
    "lat": 34.066692,
    "lng": -118.3863285
  },
  {
    "id": "630025431",
    "name": "LIFE GIVING HOME HEALTH",
    "npi": null,
    "hcaiId": "406196526",
    "businessName": "LIFE GIVING HOME HEALTH",
    "contactEmail": "LIFEGIVINGHH8383@AOL.COM",
    "categoryName": "HOME HEALTH AGENCY",
    "categoryCode": "HHA",
    "licenseStatus": "ACTIVE",
    "inService": true,
    "licenseNumber": "550008543",
    "licenseEffectiveDate": "05/19/2024",
    "licenseExpirationDate": "05/18/2025",
    "dataDate": "10/18/2025",
    "capacity": 0,
    "address": "8383 WILSHIRE BLVD, OFFICE 828",
    "city": "BEVERLY HILLS",
    "zip": "90211",
    "county": "LOS ANGELES",
    "phone": "(310) 503-8037",
    "lat": 34.065036,
    "lng": -118.3734315
  },
  {
    "id": "630011518",
    "name": "MODERN INSTITUTE PLASTIC SURGERY INC.",
    "npi": null,
    "hcaiId": null,
    "businessName": null,
    "contactEmail": null,
    "categoryName": "SURGICAL CLINIC",
    "categoryCode": "ASC",
    "licenseStatus": null,
    "inService": null,
    "licenseNumber": null,
    "licenseEffectiveDate": null,
    "licenseExpirationDate": null,
    "dataDate": "10/18/2025",
    "capacity": 0,
    "address": "9090 BURTON WAY",
    "city": "BEVERLY HILLS",
    "zip": "90211",
    "county": "LOS ANGELES",
    "phone": "(310) 278-0077",
    "lat": 34.071885,
    "lng": -118.389393
  },
  {
    "id": "630020155",
    "name": "NEW LIGHT PALLIATIVE CARE",
    "npi": null,
    "hcaiId": "406190310",
    "businessName": "NEW LIGHT PALLIATIVE CARE",
    "contactEmail": "NEWLIGHT20@YAHOO.COM",
    "categoryName": "HOSPICE",
    "categoryCode": "HOSPICE",
    "licenseStatus": "ACTIVE",
    "inService": true,
    "licenseNumber": "550006151",
    "licenseEffectiveDate": "03/26/2023",
    "licenseExpirationDate": "03/25/2025",
    "dataDate": "10/18/2025",
    "capacity": 0,
    "address": "8383 WILSHIRE BLVD, SUITE 889",
    "city": "BEVERLY HILLS",
    "zip": "90211",
    "county": "LOS ANGELES",
    "phone": "(310) 503-8037",
    "lat": 34.065036,
    "lng": -118.3734315
  },
  {
    "id": "630015741",
    "name": "PREMIER SURGERY CENTER OF BEVERLY HILLS",
    "npi": "1467880245",
    "hcaiId": null,
    "businessName": null,
    "contactEmail": null,
    "categoryName": "SURGICAL CLINIC",
    "categoryCode": "ASC",
    "licenseStatus": null,
    "inService": null,
    "licenseNumber": null,
    "licenseEffectiveDate": null,
    "licenseExpirationDate": null,
    "dataDate": "10/18/2025",
    "capacity": 0,
    "address": "99 N LA CIENEGA BOULEVARD, SUITE 106",
    "city": "BEVERLY HILLS",
    "zip": "90211",
    "county": "LOS ANGELES",
    "phone": null,
    "lat": 34.06759603,
    "lng": -118.3763539
  },
  {
    "id": "060001869",
    "name": "ROBERTSON ADULT DAY HEALTH CARE CENTER",
    "npi": null,
    "hcaiId": null,
    "businessName": "ROBERTSON ADULT DAY HEALTH CARE, INC.",
    "contactEmail": "ROBERTSONADHC@YAHOO.COM",
    "categoryName": "ADULT DAY HEALTH CARE",
    "categoryCode": "ADHC",
    "licenseStatus": "ACTIVE",
    "inService": true,
    "licenseNumber": "060000686",
    "licenseEffectiveDate": "11/07/2025",
    "licenseExpirationDate": "11/06/2026",
    "dataDate": "10/18/2025",
    "capacity": 0,
    "address": "369 S ROBERTSON BLVD",
    "city": "BEVERLY HILLS",
    "zip": "90211",
    "county": "LOS ANGELES",
    "phone": "(310) 289-7711",
    "lat": 34.060257,
    "lng": -118.383885
  },
  {
    "id": "930001842",
    "name": "ROBERTSON SURGICAL CENTER",
    "npi": null,
    "hcaiId": null,
    "businessName": null,
    "contactEmail": "NONE@DHS.CA.GOV",
    "categoryName": "SURGICAL CLINIC",
    "categoryCode": "ASC",
    "licenseStatus": null,
    "inService": null,
    "licenseNumber": null,
    "licenseEffectiveDate": null,
    "licenseExpirationDate": null,
    "dataDate": "10/18/2025",
    "capacity": 0,
    "address": "150 N ROBERTSON BLVD, SUITE 110",
    "city": "BEVERLY HILLS",
    "zip": "90211",
    "county": "LOS ANGELES",
    "phone": "(310) 659-2400",
    "lat": 34.068132,
    "lng": -118.383399
  },
  {
    "id": "930001564",
    "name": "ROBERTSON SURGICAL INSTITUTE, INC.",
    "npi": "1871749952",
    "hcaiId": "306194781",
    "businessName": "COMPREHENSIVE OUTPATIENT SURGERY CENTER, L.P.",
    "contactEmail": "NONE@DHS.CA.GOV",
    "categoryName": "SURGICAL CLINIC",
    "categoryCode": "ASC",
    "licenseStatus": "INACTIVE - CAPEN DECISION",
    "inService": false,
    "licenseNumber": "930000874",
    "licenseEffectiveDate": "12/03/2007",
    "licenseExpirationDate": "12/02/2008",
    "dataDate": "10/18/2025",
    "capacity": 0,
    "address": "250 N ROBERTSON BLVD, SUITE 104",
    "city": "BEVERLY HILLS",
    "zip": "90211",
    "county": "LOS ANGELES",
    "phone": "(310) 273-9255",
    "lat": 34.06964056,
    "lng": -118.3837106
  },
  {
    "id": "630014001",
    "name": "SOMA SURGERY CENTER",
    "npi": "1013275965",
    "hcaiId": null,
    "businessName": null,
    "contactEmail": null,
    "categoryName": "SURGICAL CLINIC",
    "categoryCode": "ASC",
    "licenseStatus": null,
    "inService": null,
    "licenseNumber": null,
    "licenseEffectiveDate": null,
    "licenseExpirationDate": null,
    "dataDate": "10/18/2025",
    "capacity": 0,
    "address": "8929 WILSHIRE BLVD, SUITE 102",
    "city": "BEVERLY HILLS",
    "zip": "90211",
    "county": "LOS ANGELES",
    "phone": "(310) 673-0523",
    "lat": 34.067259,
    "lng": -118.386351
  },
  {
    "id": "930000383",
    "name": "SPECIALISTS AMBULATORY SURGERY CENTER MED. GROUP",
    "npi": null,
    "hcaiId": null,
    "businessName": null,
    "contactEmail": "NONE@DHS.CA.GOV",
    "categoryName": "SURGICAL CLINIC",
    "categoryCode": "ASC",
    "licenseStatus": null,
    "inService": null,
    "licenseNumber": null,
    "licenseEffectiveDate": null,
    "licenseExpirationDate": null,
    "dataDate": "10/18/2025",
    "capacity": 0,
    "address": "9001 WILSHIRE BLVD",
    "city": "BEVERLY HILLS",
    "zip": "90211",
    "county": "LOS ANGELES",
    "phone": "(213) 858-4961",
    "lat": 34.067394,
    "lng": -118.3880115
  },
  {
    "id": "930001669",
    "name": "SPECIALTY SURGICAL CENTER",
    "npi": "1174538748",
    "hcaiId": "306196052",
    "businessName": "SPECIALTY SURGICAL CENTER, LLC",
    "contactEmail": "MILA.LYMAN@SURGERYPARTNERS.COM",
    "categoryName": "SURGICAL CLINIC",
    "categoryCode": "ASC",
    "licenseStatus": "INACTIVE - CAPEN DECISION",
    "inService": false,
    "licenseNumber": "930000921",
    "licenseEffectiveDate": "11/27/2007",
    "licenseExpirationDate": "11/26/2008",
    "dataDate": "10/18/2025",
    "capacity": 0,
    "address": "9001 WILSHIRE BLVD, SUITE 100",
    "city": "BEVERLY HILLS",
    "zip": "90211",
    "county": "LOS ANGELES",
    "phone": "(310) 360-3822",
    "lat": 34.067394,
    "lng": -118.388007
  },
  {
    "id": "930001818",
    "name": "SPECIALTY SURGICAL CENTER OF BEVERLY HILLS, L.P.",
    "npi": "1376558965",
    "hcaiId": "306196524",
    "businessName": "SPECIALTY SURGICAL CENTER OF BEVERLY HILLS, L.P.",
    "contactEmail": "JORDAN.THEU@SPECIALTYSURGICAL.COM",
    "categoryName": "SURGICAL CLINIC",
    "categoryCode": "ASC",
    "licenseStatus": "INACTIVE - CAPEN DECISION",
    "inService": false,
    "licenseNumber": "930001000",
    "licenseEffectiveDate": "11/04/2007",
    "licenseExpirationDate": "11/03/2008",
    "dataDate": "10/18/2025",
    "capacity": 0,
    "address": "8670 WILSHIRE BLVD, SUITE 300",
    "city": "BEVERLY HILLS",
    "zip": "90211",
    "county": "LOS ANGELES",
    "phone": "(310) 275-1646",
    "lat": 34.066026,
    "lng": -118.380843
  },
  {
    "id": "630018892",
    "name": "SURGERY CENTER OF BEVERLY HILLS LLC",
    "npi": "1407327356",
    "hcaiId": null,
    "businessName": null,
    "contactEmail": "BARB@BAASC.COM",
    "categoryName": "SURGICAL CLINIC",
    "categoryCode": "ASC",
    "licenseStatus": null,
    "inService": null,
    "licenseNumber": null,
    "licenseEffectiveDate": null,
    "licenseExpirationDate": null,
    "dataDate": "10/18/2025",
    "capacity": 0,
    "address": "8750 WILSHIRE BLVD, SUITE 150",
    "city": "BEVERLY HILLS",
    "zip": "90211",
    "county": "LOS ANGELES",
    "phone": "(408) 761-5847",
    "lat": 34.066449,
    "lng": -118.383093
  },
  {
    "id": "630018150",
    "name": "SURGICAL INSTITUTE OF BEVERLY HILLS",
    "npi": null,
    "hcaiId": null,
    "businessName": null,
    "contactEmail": "DRJNAZARIAN@GMAIL.COM",
    "categoryName": "SURGICAL CLINIC",
    "categoryCode": "ASC",
    "licenseStatus": null,
    "inService": null,
    "licenseNumber": null,
    "licenseEffectiveDate": null,
    "licenseExpirationDate": null,
    "dataDate": "10/18/2025",
    "capacity": 0,
    "address": "8920 WILSHIRE BLVD, SUITE 611B",
    "city": "BEVERLY HILLS",
    "zip": "90211",
    "county": "LOS ANGELES",
    "phone": "(310) 854-1174",
    "lat": 34.066692,
    "lng": -118.3863285
  },
  {
    "id": "630016568",
    "name": "SWALL MEDICAL CORPORATION",
    "npi": "1316336555",
    "hcaiId": null,
    "businessName": null,
    "contactEmail": null,
    "categoryName": "SURGICAL CLINIC",
    "categoryCode": "ASC",
    "licenseStatus": null,
    "inService": null,
    "licenseNumber": null,
    "licenseEffectiveDate": null,
    "licenseExpirationDate": null,
    "dataDate": "10/18/2025",
    "capacity": 0,
    "address": "8907 WILSHIRE BLVD., SUITE 120",
    "city": "BEVERLY HILLS",
    "zip": "90211",
    "county": "LOS ANGELES",
    "phone": null,
    "lat": 34.067071,
    "lng": -118.386312
  },
  {
    "id": "630015834",
    "name": "U.S. RENAL CARE BEVERLY HILLS DIALYSIS",
    "npi": null,
    "hcaiId": "306197988",
    "businessName": "WILSHIRE-ROBERTSON DIALYSIS, LLC",
    "contactEmail": "LICENSING@USRENALCARE.COM",
    "categoryName": "CHRONIC DIALYSIS CLINIC",
    "categoryCode": "ESRD/CDC",
    "licenseStatus": "ACTIVE",
    "inService": true,
    "licenseNumber": "550003094",
    "licenseEffectiveDate": "05/18/2025",
    "licenseExpirationDate": "05/17/2026",
    "dataDate": "10/18/2025",
    "capacity": 22,
    "address": "8420 WILSHIRE BLVD.",
    "city": "BEVERLY HILLS",
    "zip": "90211",
    "county": "LOS ANGELES",
    "phone": "(323) 852-1272",
    "lat": 34.064442,
    "lng": -118.3745925
  },
  {
    "id": "980001644",
    "name": "UNIVERSAL HOME CARE, INC.",
    "npi": "1841232188",
    "hcaiId": "406194910",
    "businessName": "UNIVERSAL HOME CARE, INC.",
    "contactEmail": "MARINAGREENBERG@GMAIL.COM",
    "categoryName": "HOME HEALTH AGENCY",
    "categoryCode": "HHA",
    "licenseStatus": "ACTIVE",
    "inService": true,
    "licenseNumber": "980001005",
    "licenseEffectiveDate": "11/25/2024",
    "licenseExpirationDate": "11/24/2025",
    "dataDate": "10/18/2025",
    "capacity": 0,
    "address": "151 N SAN VICENTE BLVD, SUITE 200",
    "city": "BEVERLY HILLS",
    "zip": "90211",
    "county": "LOS ANGELES",
    "phone": "(323) 653-9222",
    "lat": 34.06801439,
    "lng": -118.374721
  },
  {
    "id": "630011525",
    "name": "UNIVERSAL HOSPICE, INC.",
    "npi": "1871877217",
    "hcaiId": "406197388",
    "businessName": "UNIVERSAL HOSPICE, INC.",
    "contactEmail": "MARINA.GREENBERG@HOTMAIL.COM",
    "categoryName": "HOSPICE",
    "categoryCode": "HOSPICE",
    "licenseStatus": "ACTIVE",
    "inService": true,
    "licenseNumber": "550001288",
    "licenseEffectiveDate": "02/06/2025",
    "licenseExpirationDate": "02/05/2027",
    "dataDate": "10/18/2025",
    "capacity": 0,
    "address": "151 N SAN VICENTE BLVD, SUITE 209",
    "city": "BEVERLY HILLS",
    "zip": "90211",
    "county": "LOS ANGELES",
    "phone": "(323) 655-6444",
    "lat": 34.06801439,
    "lng": -118.374721
  },
  {
    "id": "630027203",
    "name": "WESTSIDE HOME CARE, INC",
    "npi": null,
    "hcaiId": null,
    "businessName": "WESTSIDE HOME CARE, INC.",
    "contactEmail": "MANE@HOSPICEHHA.COM",
    "categoryName": "HOME HEALTH AGENCY",
    "categoryCode": "HHA",
    "licenseStatus": "ACTIVE",
    "inService": true,
    "licenseNumber": "550009772",
    "licenseEffectiveDate": "08/28/2025",
    "licenseExpirationDate": "02/27/2026",
    "dataDate": "10/18/2025",
    "capacity": 0,
    "address": "292 S LA CIENEGA BLVD, UNIT 300",
    "city": "BEVERLY HILLS",
    "zip": "90211",
    "county": "LOS ANGELES",
    "phone": "(818) 807-5640",
    "lat": 34.06283699,
    "lng": -118.375815
  },
  {
    "id": "930001712",
    "name": "WILSHIRE SURGICAL MEDICAL CENTER",
    "npi": "1407960578",
    "hcaiId": null,
    "businessName": null,
    "contactEmail": "NONE@DHS.CA.GOV",
    "categoryName": "SURGICAL CLINIC",
    "categoryCode": "ASC",
    "licenseStatus": null,
    "inService": null,
    "licenseNumber": null,
    "licenseEffectiveDate": null,
    "licenseExpirationDate": null,
    "dataDate": "10/18/2025",
    "capacity": 0,
    "address": "8750 WILSHIRE BLVD, SUITE 100",
    "city": "BEVERLY HILLS",
    "zip": "90211",
    "county": "LOS ANGELES",
    "phone": "(310) 689-3100",
    "lat": 34.066449,
    "lng": -118.383093
  },
  {
    "id": "930001691",
    "name": "WILSHIRE SURGICENTER",
    "npi": "1932275054",
    "hcaiId": "306196118",
    "businessName": "WILSHIRE SURGICENTER, INC.",
    "contactEmail": "BEVERLYHILLS@PHYSICIAN.COM",
    "categoryName": "SURGICAL CLINIC",
    "categoryCode": "ASC",
    "licenseStatus": "INACTIVE - CAPEN DECISION",
    "inService": false,
    "licenseNumber": "930000936",
    "licenseEffectiveDate": "11/04/2007",
    "licenseExpirationDate": "11/03/2008",
    "dataDate": "10/18/2025",
    "capacity": 0,
    "address": "8641 WILSHIRE BLVD, SUITE 201",
    "city": "BEVERLY HILLS",
    "zip": "90211",
    "county": "LOS ANGELES",
    "phone": "(310) 289-8600",
    "lat": 34.066422,
    "lng": -118.3798035
  }
]