[
  {
    "id": "630007101",
    "name": "90210 SURGERY MEDICAL CENTER AT LINDEN",
    "npi": "1902851009",
    "hcaiId": null,
    "businessName": null,
    "contactEmail": "NONE@DHS.CA.GOV",
    "categoryName": "SURGICAL CLINIC",
    "categoryCode": "ASC",
    "licenseStatus": null,
    "inService": null,
    "licenseNumber": null,
    "licenseEffectiveDate": null,
    "licenseExpirationDate": null,
    "dataDate": "10/18/2025",
    "capacity": 0,
    "address": "9735 WILSHIRE BLVD, SUITE 100",
    "city": "BEVERLY HILLS",
    "zip": "90212",
    "county": "LOS ANGELES",
    "phone": null,
    "lat": 34.06743,
    "lng": -118.4076585
  },
  {
    "id": "630017091",
    "name": "BEVERLY HILLS DOCTORS SURGERY CENTER,LLC",
    "npi": "1215394523",
    "hcaiId": null,
    "businessName": null,
    "contactEmail": null,
    "categoryName": "SURGICAL CLINIC",
    "categoryCode": "ASC",
    "licenseStatus": null,
    "inService": null,
    "licenseNumber": null,
    "licenseEffectiveDate": null,
    "licenseExpirationDate": null,
    "dataDate": "10/18/2025",
    "capacity": 0,
    "address": "120 S SPALDING DR",
    "city": "BEVERLY HILLS",
    "zip": "90212",
    "county": "LOS ANGELES",
    "phone": null,
    "lat": 34.066242,
    "lng": -118.4085765
  },
  {
    "id": "630014124",
    "name": "BEVERLY HILLS INTEGRATED SURGICAL, INC.",
    "npi": null,
    "hcaiId": "306197833",
    "businessName": "BEVERLY HILLS INTEGRATED SURGICAL, INC.",
    "contactEmail": "BHSSCBREE@YAHOO.COM",
    "categoryName": "SURGICAL CLINIC",
    "categoryCode": "SURGC",
    "licenseStatus": "ACTIVE",
    "inService": true,
    "licenseNumber": "550002336",
    "licenseEffectiveDate": "07/29/2025",
    "licenseExpirationDate": "07/28/2026",
    "dataDate": "10/18/2025",
    "capacity": 0,
    "address": "9231 W OLYMPIC BLVD, SUITE 100",
    "city": "BEVERLY HILLS",
    "zip": "90212",
    "county": "LOS ANGELES",
    "phone": "(310) 275-5400",
    "lat": 34.059681,
    "lng": -118.3933395
  },
  {
    "id": "630018518",
    "name": "COMPLETE CARE HOSPICE, INC.",
    "npi": "1669930160",
    "hcaiId": "406190190",
    "businessName": "COMPLETE CARE HOSPICE, INC.",
    "contactEmail": "COMPLETECAREHOSPICE@GMAIL.COM",
    "categoryName": "HOSPICE",
    "categoryCode": "HOSPICE",
    "licenseStatus": "ACTIVE",
    "inService": true,
    "licenseNumber": "550005144",
    "licenseEffectiveDate": "11/26/2023",
    "licenseExpirationDate": "11/25/2025",
    "dataDate": "10/18/2025",
    "capacity": 0,
    "address": "9100 WILSHIRE BLVD, SUITE 540E",
    "city": "BEVERLY HILLS",
    "zip": "90212",
    "county": "LOS ANGELES",
    "phone": "(805) 248-7501",
    "lat": 34.066692,
    "lng": -118.39023
  },
  {
    "id": "630013090",
    "name": "NEO SURGERY CENTER",
    "npi": "1457666885",
    "hcaiId": null,
    "businessName": null,
    "contactEmail": "DRBRENT@DRBRENT.COM",
    "categoryName": "SURGICAL CLINIC",
    "categoryCode": "ASC",
    "licenseStatus": null,
    "inService": null,
    "licenseNumber": null,
    "licenseEffectiveDate": null,
    "licenseExpirationDate": null,
    "dataDate": "10/18/2025",
    "capacity": 0,
    "address": "120 S SPALDING DR, SUITE 110",
    "city": "BEVERLY HILLS",
    "zip": "90212",
    "county": "LOS ANGELES",
    "phone": "(310) 273-1001",
    "lat": 34.066242,
    "lng": -118.4085765
  },
  {
    "id": "930001648",
    "name": "S & B SURGERY CENTER",
    "npi": null,
    "hcaiId": "306196084",
    "businessName": "S & B SURGERY CENTER",
    "contactEmail": "DKENNEDY@SNBSURGERY.COM",
    "categoryName": "SURGICAL CLINIC",
    "categoryCode": "ASC",
    "licenseStatus": "INACTIVE - CAPEN DECISION",
    "inService": false,
    "licenseNumber": "930000914",
    "licenseEffectiveDate": "01/28/2007",
    "licenseExpirationDate": "01/27/2008",
    "dataDate": "10/18/2025",
    "capacity": 0,
    "address": "120 S SPALDING DR, SUITE 301",
    "city": "BEVERLY HILLS",
    "zip": "90212",
    "county": "LOS ANGELES",
    "phone": "(310) 385-7755",
    "lat": 34.066242,
    "lng": -118.4085765
  },
  {
    "id": "930001771",
    "name": "S & B SURGERY CENTER II",
    "npi": null,
    "hcaiId": "306196336",
    "businessName": "S & B SURGERY CENTER",
    "contactEmail": "DKENNEDY@SNBSURGERY.COM",
    "categoryName": "SURGICAL CLINIC",
    "categoryCode": "ASC",
    "licenseStatus": "INACTIVE - CAPEN DECISION",
    "inService": false,
    "licenseNumber": "930000978",
    "licenseEffectiveDate": "06/03/2007",
    "licenseExpirationDate": "06/02/2008",
    "dataDate": "10/18/2025",
    "capacity": 0,
    "address": "120 S SPALDING DR, SUITE 402",
    "city": "BEVERLY HILLS",
    "zip": "90212",
    "county": "LOS ANGELES",
    "phone": "(310) 432-2826",
    "lat": 34.066242,
    "lng": -118.4085765
  },
  {
    "id": "630012358",
    "name": "SIGNATURE HOME HEALTH CARE, INC.",
    "npi": "1790912871",
    "hcaiId": "406197434",
    "businessName": "SIGNATURE HOME HEALTH CARE, INC.",
    "contactEmail": "INFO@SIGNATUREHHC.COM",
    "categoryName": "HOME HEALTH AGENCY",
    "categoryCode": "HHA",
    "licenseStatus": "ACTIVE",
    "inService": true,
    "licenseNumber": "550001377",
    "licenseEffectiveDate": "06/03/2025",
    "licenseExpirationDate": "06/02/2026",
    "dataDate": "10/18/2025",
    "capacity": 0,
    "address": "9595 WILSHIRE BLVD, SUITE 205",
    "city": "BEVERLY HILLS",
    "zip": "90212",
    "county": "LOS ANGELES",
    "phone": "(310) 278-0104",
    "lat": 34.06761501,
    "lng": -118.402618
  },
  {
    "id": "930001713",
    "name": "SPALDING OUTPATIENT SURGERY CENTER",
    "npi": "1437203684",
    "hcaiId": "306196176",
    "businessName": "SPALDING OUTPATIENT SURGERY CENTER, INC.",
    "contactEmail": "DAVIDEKIMMD@YAHOO.COM",
    "categoryName": "SURGICAL CLINIC",
    "categoryCode": "ASC",
    "licenseStatus": "INACTIVE - CAPEN DECISION",
    "inService": false,
    "licenseNumber": "930000948",
    "licenseEffectiveDate": "11/21/2007",
    "licenseExpirationDate": "11/20/2008",
    "dataDate": "10/18/2025",
    "capacity": 0,
    "address": "120 S SPALDING DR, SUITE 350",
    "city": "BEVERLY HILLS",
    "zip": "90212",
    "county": "LOS ANGELES",
    "phone": "(310) 205-4888",
    "lat": 34.066242,
    "lng": -118.4085765
  },
  {
    "id": "630007901",
    "name": "SPALDING TRIANGLE SURGERY CENTER",
    "npi": "1720023484",
    "hcaiId": "306434175",
    "businessName": null,
    "contactEmail": null,
    "categoryName": "SURGICAL CLINIC",
    "categoryCode": "ASC",
    "licenseStatus": "INACTIVE - CAPEN DECISION",
    "inService": false,
    "licenseNumber": "550000124",
    "licenseEffectiveDate": "11/17/2007",
    "licenseExpirationDate": "11/16/2008",
    "dataDate": "10/18/2025",
    "capacity": 0,
    "address": "120 S SPALDING DR, SUITE 115",
    "city": "BEVERLY HILLS",
    "zip": "90212",
    "county": "LOS ANGELES",
    "phone": "(424) 542-8485",
    "lat": 34.066242,
    "lng": -118.4085765
  }
]