[
  {
    "id": "630016369",
    "name": "BENEVOLENCE HEALTH CENTER",
    "npi": null,
    "hcaiId": "306198276",
    "businessName": "BENEVOLENCE INDUSTRIES INCORPORATED",
    "contactEmail": "GDANQUAH@BHCHEALTH.ORG",
    "categoryName": "PRIMARY CARE CLINIC",
    "categoryCode": "COMTYC",
    "licenseStatus": "ACTIVE",
    "inService": true,
    "licenseNumber": "550003763",
    "licenseEffectiveDate": "01/09/2025",
    "licenseExpirationDate": "01/08/2026",
    "dataDate": "10/18/2025",
    "capacity": 0,
    "address": "920 N. LONG BEACH AVENUE, SUITE 1, 2, 3",
    "city": "COMPTON",
    "zip": "90221",
    "county": "LOS ANGELES",
    "phone": "(323) 732-0100",
    "lat": 33.90237695,
    "lng": -118.2083276
  },
  {
    "id": "630013691",
    "name": "CHATEAU RESIDENTIAL CARE",
    "npi": "1578011839",
    "hcaiId": null,
    "businessName": "CHATEAU RESIDENTIAL CARE, LLC",
    "contactEmail": "CASSANDRATURNEC@AOL.COM",
    "categoryName": "INTERMEDIATE CARE FACILITY-DD/H/N/CN/IID",
    "categoryCode": "ICFDDH",
    "licenseStatus": "ACTIVE",
    "inService": true,
    "licenseNumber": "550002021",
    "licenseEffectiveDate": "08/08/2024",
    "licenseExpirationDate": "08/07/2025",
    "dataDate": "10/18/2025",
    "capacity": 6,
    "address": "1227 S WASHINGTON AVE",
    "city": "COMPTON",
    "zip": "90221",
    "county": "LOS ANGELES",
    "phone": "(213) 400-0673",
    "lat": 33.885225,
    "lng": -118.1938005
  },
  {
    "id": "060001799",
    "name": "COMPTON ADULT DAY HEALTH CARE CENTER",
    "npi": null,
    "hcaiId": null,
    "businessName": "COMPTON ADULT DAY HEALTH CARE CENTER, INC.",
    "contactEmail": "KIMMARSH3@AOL.COM",
    "categoryName": "ADULT DAY HEALTH CARE",
    "categoryCode": "ADHC",
    "licenseStatus": "ACTIVE",
    "inService": true,
    "licenseNumber": "060000616",
    "licenseEffectiveDate": "05/09/2025",
    "licenseExpirationDate": "05/08/2026",
    "dataDate": "10/18/2025",
    "capacity": 0,
    "address": "14925 S ATLANTIC AVE",
    "city": "COMPTON",
    "zip": "90221",
    "county": "LOS ANGELES",
    "phone": "(310) 764-2023",
    "lat": 33.89732533,
    "lng": -118.1935732
  },
  {
    "id": "630011874",
    "name": "DE NOVO HEALTH CARE",
    "npi": null,
    "hcaiId": "306197265",
    "businessName": "DE NOVO HEALTH CARE, INC.",
    "contactEmail": "GAMBA.KAMILAH@DENOVOHCC.COM",
    "categoryName": "PRIMARY CARE CLINIC",
    "categoryCode": "COMTYC",
    "licenseStatus": "ACTIVE",
    "inService": true,
    "licenseNumber": "550001089",
    "licenseEffectiveDate": "04/06/2025",
    "licenseExpirationDate": "04/05/2026",
    "dataDate": "10/18/2025",
    "capacity": 0,
    "address": "803 E ROSECRANS AVE",
    "city": "EAST RNCHO DOMINGUEZ",
    "zip": "90221",
    "county": "LOS ANGELES",
    "phone": "(310) 605-4800",
    "lat": 33.90351888,
    "lng": -118.2153407
  },
  {
    "id": "630020741",
    "name": "PLANNED PARENTHOOD LOS ANGELES- EAST COMPTON CENTER",
    "npi": null,
    "hcaiId": "306190657",
    "businessName": "PLANNED PARENTHOOD LOS ANGELES",
    "contactEmail": "BRENDA.GUERRERO@PP-LA.ORG",
    "categoryName": "PRIMARY CARE CLINIC",
    "categoryCode": "COMTYC",
    "licenseStatus": "ACTIVE",
    "inService": true,
    "licenseNumber": "550005995",
    "licenseEffectiveDate": "02/05/2025",
    "licenseExpirationDate": "02/04/2026",
    "dataDate": "10/18/2025",
    "capacity": 0,
    "address": "4402 E COMPTON BLVD",
    "city": "EAST RANCHO DOMINGUEZ",
    "zip": "90221",
    "county": "LOS ANGELES",
    "phone": "(213) 284-3125",
    "lat": 33.89608212,
    "lng": -118.1944728
  },
  {
    "id": "630015429",
    "name": "ROADS COMMUNITY CLINIC - COMPTON",
    "npi": "1508278359",
    "hcaiId": "306198026",
    "businessName": "THE R.O.A.D.S. FOUNDATION, INC.",
    "contactEmail": "RSORIANO@ROADSCLINIC.ORG",
    "categoryName": "PRIMARY CARE CLINIC",
    "categoryCode": "COMTYC",
    "licenseStatus": "ACTIVE",
    "inService": true,
    "licenseNumber": "550002986",
    "licenseEffectiveDate": "03/02/2025",
    "licenseExpirationDate": "03/01/2026",
    "dataDate": "10/18/2025",
    "capacity": 0,
    "address": "121 SOUTH LONG BEACH BLVD.",
    "city": "COMPTON",
    "zip": "90221",
    "county": "LOS ANGELES",
    "phone": "(310) 627-5800",
    "lat": 33.89481004,
    "lng": -118.2079631
  },
  {
    "id": "630019452",
    "name": "ST. ANTHONY MEDICAL CENTERS - COMPTON",
    "npi": null,
    "hcaiId": "306190670",
    "businessName": "ST. ANTHONY MEDICAL CENTERS",
    "contactEmail": "RGEORGE@STAMC.ORG",
    "categoryName": "PRIMARY CARE CLINIC",
    "categoryCode": "COMTYC",
    "licenseStatus": "ACTIVE",
    "inService": false,
    "licenseNumber": "550007255",
    "licenseEffectiveDate": "11/17/2024",
    "licenseExpirationDate": "11/16/2025",
    "dataDate": "10/18/2025",
    "capacity": 0,
    "address": "1145 E COMPTON BLVD",
    "city": "COMPTON",
    "zip": "90221",
    "county": "LOS ANGELES",
    "phone": "(310) 637-5555",
    "lat": 33.896304,
    "lng": -118.210599
  },
  {
    "id": "630013100",
    "name": "ST. JOHN'S COMMUNITY HEALTH",
    "npi": "1043542111",
    "hcaiId": "306197598",
    "businessName": "ST. JOHN'S COMMUNITY HEALTH",
    "contactEmail": "MARLOPEZ@WELLCHILD.ORG",
    "categoryName": "PRIMARY CARE CLINIC",
    "categoryCode": "COMTYC",
    "licenseStatus": "ACTIVE",
    "inService": true,
    "licenseNumber": "550001120",
    "licenseEffectiveDate": "11/03/2025",
    "licenseExpirationDate": "11/02/2026",
    "dataDate": "10/18/2025",
    "capacity": 0,
    "address": "15715 S ATLANTIC AVE, FLOOR 2",
    "city": "COMPTON",
    "zip": "90221",
    "county": "LOS ANGELES",
    "phone": "(323) 541-1600",
    "lat": 33.889995,
    "lng": -118.1932155
  },
  {
    "id": "630013974",
    "name": "ST. JOHN'S COMMUNITY HEALTH",
    "npi": null,
    "hcaiId": "306197743",
    "businessName": "ST. JOHN'S COMMUNITY HEALTH",
    "contactEmail": "MARLOPEZ@WELLCHILD.ORG",
    "categoryName": "PRIMARY CARE CLINIC",
    "categoryCode": "COMTYC",
    "licenseStatus": "ACTIVE",
    "inService": true,
    "licenseNumber": "550003001",
    "licenseEffectiveDate": "03/03/2025",
    "licenseExpirationDate": "03/02/2026",
    "dataDate": "10/18/2025",
    "capacity": 0,
    "address": "15301 S SAN JOSE AVE",
    "city": "COMPTON",
    "zip": "90221",
    "county": "LOS ANGELES",
    "phone": "(323) 541-1600",
    "lat": 33.8935955,
    "lng": -118.184051
  },
  {
    "id": "630018973",
    "name": "ST. JOHN'S COMMUNITY HEALTH",
    "npi": "1285874826",
    "hcaiId": null,
    "businessName": "ST. JOHN'S COMMUNITY HEALTH",
    "contactEmail": null,
    "categoryName": "PRIMARY CARE CLINIC",
    "categoryCode": "COMTYC",
    "licenseStatus": "ACTIVE",
    "inService": true,
    "licenseNumber": "550001120",
    "licenseEffectiveDate": "11/03/2025",
    "licenseExpirationDate": "11/02/2026",
    "dataDate": "10/18/2025",
    "capacity": 0,
    "address": "1111 E ARTESIA BLVD",
    "city": "COMPTON",
    "zip": "90221",
    "county": "LOS ANGELES",
    "phone": null,
    "lat": 33.87442153,
    "lng": -118.2086882
  },
  {
    "id": "630026971",
    "name": "ZOLA HOME HEALTH CARE AGENCY INC.",
    "npi": null,
    "hcaiId": null,
    "businessName": "ZOLA HOME HEALTH CARE AGENCY INC.",
    "contactEmail": "ZOLAHOMEHEALTH@GMAIL.COM",
    "categoryName": "HOME HEALTH AGENCY",
    "categoryCode": "HHA",
    "licenseStatus": "ACTIVE",
    "inService": true,
    "licenseNumber": "550009979",
    "licenseEffectiveDate": "10/06/2025",
    "licenseExpirationDate": "04/05/2026",
    "dataDate": "10/18/2025",
    "capacity": 0,
    "address": "508 N LONG BEACH BLVD, SUITE B",
    "city": "COMPTON",
    "zip": "90221",
    "county": "LOS ANGELES",
    "phone": "(562) 400-9997",
    "lat": 33.899445,
    "lng": -118.2078495
  }
]