[
  {
    "id": "960002609",
    "name": "COMPTON W.M. KECK FCHC",
    "npi": "1932249596",
    "hcaiId": "306196147",
    "businessName": "ST. JOHN'S COMMUNITY HEALTH",
    "contactEmail": "MARLOPEZ@WELLCHILD.ORG",
    "categoryName": "PRIMARY CARE CLINIC",
    "categoryCode": "COMTYC",
    "licenseStatus": "ACTIVE",
    "inService": true,
    "licenseNumber": "550008265",
    "licenseEffectiveDate": "12/16/2024",
    "licenseExpirationDate": "12/15/2025",
    "dataDate": "10/18/2025",
    "capacity": 0,
    "address": "2115 N WILMINGTON AVE",
    "city": "COMPTON",
    "zip": "90222",
    "county": "LOS ANGELES",
    "phone": "(323) 541-1600",
    "lat": 33.91153968,
    "lng": -118.2392164
  },
  {
    "id": "060002258",
    "name": "E & V ADULT DAY HEALTH CARE CENTER",
    "npi": null,
    "hcaiId": null,
    "businessName": "E & V ADULT DAY HEALTH CARE, INC.",
    "contactEmail": "MAAA.FAMILY@GMAIL.COM",
    "categoryName": "ADULT DAY HEALTH CARE",
    "categoryCode": "ADHC",
    "licenseStatus": "ACTIVE",
    "inService": true,
    "licenseNumber": "060000933",
    "licenseEffectiveDate": "06/30/2025",
    "licenseExpirationDate": "06/29/2026",
    "dataDate": "10/18/2025",
    "capacity": 0,
    "address": "2005 N WILMINGTON AVE",
    "city": "COMPTON",
    "zip": "90222",
    "county": "LOS ANGELES",
    "phone": "(310) 537-6291",
    "lat": 33.910929,
    "lng": -118.239417
  },
  {
    "id": "630026189",
    "name": "GOLDEN DREAMS ICF/DD-N",
    "npi": null,
    "hcaiId": null,
    "businessName": "CARE WORLD",
    "contactEmail": "GOLDENDREAMSICF@YAHOO.COM",
    "categoryName": "INTERMEDIATE CARE FACILITY-DD/H/N/CN/IID",
    "categoryCode": "ICFDDN",
    "licenseStatus": "ACTIVE",
    "inService": true,
    "licenseNumber": "550008633",
    "licenseEffectiveDate": "07/07/2025",
    "licenseExpirationDate": "07/06/2026",
    "dataDate": "10/18/2025",
    "capacity": 4,
    "address": "1405 W STOCKWELL ST",
    "city": "COMPTON",
    "zip": "90222",
    "county": "LOS ANGELES",
    "phone": "(323) 270-5379",
    "lat": 33.9096073,
    "lng": -118.2517079
  },
  {
    "id": "960002884",
    "name": "HEALTH CARE INTEGRATED SERVICES",
    "npi": "1124405881",
    "hcaiId": "306198060",
    "businessName": "HEALTH CARE INTEGRATED SERVICES",
    "contactEmail": "JCMILLER@HCISWELLNESS.ORG",
    "categoryName": "PRIMARY CARE CLINIC",
    "categoryCode": "COMTYC",
    "licenseStatus": "ACTIVE",
    "inService": true,
    "licenseNumber": "960001448",
    "licenseEffectiveDate": "06/13/2025",
    "licenseExpirationDate": "06/12/2026",
    "dataDate": "10/18/2025",
    "capacity": 0,
    "address": "2600 N. CENTRAL AVENUE, ROOM B1",
    "city": "COMPTON",
    "zip": "90222",
    "county": "LOS ANGELES",
    "phone": "(818) 675-8442",
    "lat": 33.91517579,
    "lng": -118.2543449
  },
  {
    "id": "630024597",
    "name": "OBRIALA COMPTON",
    "npi": null,
    "hcaiId": null,
    "businessName": "WHITTIER PREGNANCY CARE CLINIC, INC",
    "contactEmail": "JEANETTEK@WPCC.OBRIA.ORG",
    "categoryName": "PRIMARY CARE CLINIC",
    "categoryCode": "COMTYC",
    "licenseStatus": "ACTIVE",
    "inService": true,
    "licenseNumber": "960001056",
    "licenseEffectiveDate": "03/12/2025",
    "licenseExpirationDate": "03/11/2026",
    "dataDate": "10/18/2025",
    "capacity": 0,
    "address": "2817 N WILMINGTON AVE",
    "city": "COMPTON",
    "zip": "90222",
    "county": "LOS ANGELES",
    "phone": "(562) 902-3803",
    "lat": 33.917751,
    "lng": -118.2395295
  },
  {
    "id": "940000037",
    "name": "SANTA FE HEIGHTS HEALTHCARE CENTER LLC",
    "npi": "1356716815",
    "hcaiId": "206190204",
    "businessName": "SANTA FE HEIGHTS HEALTHCARE CENTER, LLC",
    "contactEmail": "ADMINISTRATOR@SANTAFEHEIGHTS.COM",
    "categoryName": "SKILLED NURSING FACILITY",
    "categoryCode": "SNF",
    "licenseStatus": "ACTIVE",
    "inService": true,
    "licenseNumber": "940000046",
    "licenseEffectiveDate": "04/18/2025",
    "licenseExpirationDate": "04/17/2026",
    "dataDate": "10/18/2025",
    "capacity": 99,
    "address": "2309 N SANTA FE AVE",
    "city": "COMPTON",
    "zip": "90222",
    "county": "LOS ANGELES",
    "phone": "(310) 639-8111",
    "lat": 33.913449,
    "lng": -118.2175965
  },
  {
    "id": "630026734",
    "name": "U.S. RENAL CARE MLK COMMUNITY DIALYSIS",
    "npi": null,
    "hcaiId": null,
    "businessName": "USRC COMPTON, LLC",
    "contactEmail": "MARIA.GATUS@USRENALCARE.COM",
    "categoryName": "CHRONIC DIALYSIS CLINIC",
    "categoryCode": "ESRD/CDC",
    "licenseStatus": "ACTIVE",
    "inService": true,
    "licenseNumber": "550008311",
    "licenseEffectiveDate": "12/20/2024",
    "licenseExpirationDate": "12/19/2025",
    "dataDate": "10/18/2025",
    "capacity": 28,
    "address": "2600 N WILMINGTON AVE",
    "city": "COMPTON",
    "zip": "90222",
    "county": "LOS ANGELES",
    "phone": "(310) 627-2255",
    "lat": 33.915564,
    "lng": -118.238616
  }
]