[
  {
    "id": "630015885",
    "name": "AGHABY COMPREHENSIVE COMMUNITY HEALTH CENTER",
    "npi": "1922490960",
    "hcaiId": "306198293",
    "businessName": "AGHABY COMPREHENSIVE COMMUNITY HEALTH CENTER",
    "contactEmail": "AGHABYCCHC@GMAIL.COM",
    "categoryName": "PRIMARY CARE CLINIC",
    "categoryCode": "COMTYC",
    "licenseStatus": "ACTIVE",
    "inService": true,
    "licenseNumber": "550003196",
    "licenseEffectiveDate": "08/17/2025",
    "licenseExpirationDate": "08/16/2026",
    "dataDate": "10/18/2025",
    "capacity": 0,
    "address": "349 W. COMPTON BLVD.",
    "city": "COMPTON",
    "zip": "90220",
    "county": "LOS ANGELES",
    "phone": "(424) 785-5170",
    "lat": 33.896223,
    "lng": -118.2276765
  },
  {
    "id": "960002450",
    "name": "BANJ HEALTH CENTER, INC.",
    "npi": "1518036565",
    "hcaiId": "306196131",
    "businessName": "BANJ HEALTH CENTER, INC.",
    "contactEmail": "ADMIN@BANJHEALTHCENTER.ORG",
    "categoryName": "PRIMARY CARE CLINIC",
    "categoryCode": "COMTYC",
    "licenseStatus": "ACTIVE",
    "inService": true,
    "licenseNumber": "960001116",
    "licenseEffectiveDate": "03/25/2024",
    "licenseExpirationDate": "03/24/2025",
    "dataDate": "10/18/2025",
    "capacity": 0,
    "address": "201 N CENTRAL AVE",
    "city": "COMPTON",
    "zip": "90220",
    "county": "LOS ANGELES",
    "phone": "(310) 635-7123",
    "lat": 33.896871,
    "lng": -118.2523995
  },
  {
    "id": "630018568",
    "name": "BANJ MOBIL HEALTH",
    "npi": null,
    "hcaiId": null,
    "businessName": "BANJ HEALTH CENTER, INC.",
    "contactEmail": null,
    "categoryName": "PRIMARY CARE CLINIC",
    "categoryCode": "COMTYC",
    "licenseStatus": "ACTIVE",
    "inService": true,
    "licenseNumber": "960001116",
    "licenseEffectiveDate": "03/25/2024",
    "licenseExpirationDate": "03/24/2025",
    "dataDate": "10/18/2025",
    "capacity": 0,
    "address": "201 N CENTRAL AVE",
    "city": "COMPTON",
    "zip": "90220",
    "county": "LOS ANGELES",
    "phone": null,
    "lat": 33.896871,
    "lng": -118.2523995
  },
  {
    "id": "930000207",
    "name": "COMPTON COMMUNITY HEMODIALYSIS CENTER",
    "npi": "1881686053",
    "hcaiId": "306190961",
    "businessName": "MOBILE DIALYSIS SERVICES, INC.",
    "contactEmail": "LDOOLITTLE@LOSALAMITOSDIALYSIS.COM",
    "categoryName": "CHRONIC DIALYSIS CLINIC",
    "categoryCode": "ESRD/CDC",
    "licenseStatus": "ACTIVE",
    "inService": true,
    "licenseNumber": "930000397",
    "licenseEffectiveDate": "06/01/2025",
    "licenseExpirationDate": "05/31/2026",
    "dataDate": "10/18/2025",
    "capacity": 36,
    "address": "801 W COMPTON BLVD",
    "city": "COMPTON",
    "zip": "90220",
    "county": "LOS ANGELES",
    "phone": "(310) 637-9026",
    "lat": 33.896124,
    "lng": -118.237932
  },
  {
    "id": "630012146",
    "name": "GATEWAY PLAZA DIALYSIS",
    "npi": "1457599276",
    "hcaiId": "306197427",
    "businessName": "TOTAL RENAL CARE, INC.",
    "contactEmail": "CAL_C@DAVITA.COM",
    "categoryName": "CHRONIC DIALYSIS CLINIC",
    "categoryCode": "ESRD/CDC",
    "licenseStatus": "ACTIVE",
    "inService": true,
    "licenseNumber": "550001334",
    "licenseEffectiveDate": "11/02/2025",
    "licenseExpirationDate": "11/01/2026",
    "dataDate": "10/18/2025",
    "capacity": 16,
    "address": "1580 W ROSECRANS AVE",
    "city": "COMPTON",
    "zip": "90220",
    "county": "LOS ANGELES",
    "phone": "(310) 631-3085",
    "lat": 33.90283708,
    "lng": -118.2504078
  },
  {
    "id": "630025178",
    "name": "LA COMPREHENSIVE MEDICAL GROUP",
    "npi": null,
    "hcaiId": null,
    "businessName": "LA COMPREHENSIVE MEDICAL GROUP",
    "contactEmail": "LACMEDICALG@GMAIL.COM",
    "categoryName": "PRIMARY CARE CLINIC",
    "categoryCode": "COMTYC",
    "licenseStatus": "ACTIVE",
    "inService": true,
    "licenseNumber": "550009308",
    "licenseEffectiveDate": "05/30/2025",
    "licenseExpirationDate": "05/29/2026",
    "dataDate": "10/18/2025",
    "capacity": 0,
    "address": "1410 W ALONDRA BLVD, SUITE B",
    "city": "COMPTON",
    "zip": "90220",
    "county": "LOS ANGELES",
    "phone": "(310) 402-7409",
    "lat": 33.888132,
    "lng": -118.2447225
  },
  {
    "id": "960002060",
    "name": "RAYMOND HOUSE",
    "npi": "1154542694",
    "hcaiId": null,
    "businessName": "LYNWOOD DEVELOPMENTAL CARE, INC.",
    "contactEmail": "KIMMARSH3@AOL.COM",
    "categoryName": "INTERMEDIATE CARE FACILITY-DD/H/N/CN/IID",
    "categoryCode": "ICFDDH",
    "licenseStatus": "ACTIVE",
    "inService": true,
    "licenseNumber": "960000985",
    "licenseEffectiveDate": "06/07/2025",
    "licenseExpirationDate": "06/06/2026",
    "dataDate": "10/18/2025",
    "capacity": 6,
    "address": "709 W RAYMOND ST",
    "city": "COMPTON",
    "zip": "90220",
    "county": "LOS ANGELES",
    "phone": "(310) 223-5920",
    "lat": 33.88743,
    "lng": -118.235745
  },
  {
    "id": "630011174",
    "name": "SUPREME VISITING NURSES, INC.",
    "npi": "1346388816",
    "hcaiId": "406197094",
    "businessName": "SUPREME VISITING NURSES, INC.",
    "contactEmail": "SUPREMENURSE@SBCGLOBAL.NET",
    "categoryName": "HOME HEALTH AGENCY",
    "categoryCode": "HHA",
    "licenseStatus": "ACTIVE",
    "inService": true,
    "licenseNumber": "550000683",
    "licenseEffectiveDate": "02/19/2025",
    "licenseExpirationDate": "02/18/2026",
    "dataDate": "10/18/2025",
    "capacity": 0,
    "address": "15310 S AVALON BLVD",
    "city": "COMPTON",
    "zip": "90220",
    "county": "LOS ANGELES",
    "phone": "(310) 808-9020",
    "lat": 33.89283,
    "lng": -118.265013
  }
]