[
  {
    "id": "930001824",
    "name": "AALPHA MEDICAL GROUP",
    "npi": null,
    "hcaiId": null,
    "businessName": null,
    "contactEmail": "NONE@DHS.CA.GOV",
    "categoryName": "SURGICAL CLINIC",
    "categoryCode": "ASC",
    "licenseStatus": null,
    "inService": null,
    "licenseNumber": null,
    "licenseEffectiveDate": null,
    "licenseExpirationDate": null,
    "dataDate": "10/18/2025",
    "capacity": 0,
    "address": "3831 HUGHES AVE, SUITE 512",
    "city": "CULVER CITY",
    "zip": "90232",
    "county": "LOS ANGELES",
    "phone": "(310) 204-4111",
    "lat": 34.022313,
    "lng": -118.398357
  },
  {
    "id": "930000492",
    "name": "BROTMAN MEDICAL CENTER D/P APH",
    "npi": "1245224732",
    "hcaiId": null,
    "businessName": "SOUTHERN CALIFORNIA HEALTHCARE SYSTEM, INC.",
    "contactEmail": null,
    "categoryName": "ACUTE PSYCHIATRIC HOSPITAL",
    "categoryCode": "APH",
    "licenseStatus": "ACTIVE",
    "inService": true,
    "licenseNumber": "930000066",
    "licenseEffectiveDate": "02/25/2025",
    "licenseExpirationDate": "02/24/2026",
    "dataDate": "10/18/2025",
    "capacity": 103,
    "address": "3828 DELMAS TER",
    "city": "CULVER CITY",
    "zip": "90232",
    "county": "LOS ANGELES",
    "phone": "(310) 836-7000",
    "lat": 34.023222,
    "lng": -118.3969305
  },
  {
    "id": "930001764",
    "name": "BROTMAN MEDICAL CENTER D/P CDRH",
    "npi": "1245224732",
    "hcaiId": null,
    "businessName": "SOUTHERN CALIFORNIA HEALTHCARE SYSTEM, INC.",
    "contactEmail": null,
    "categoryName": "CHEMICAL DEPENDENCY RECOVERY HOSPITAL",
    "categoryCode": "CDRH",
    "licenseStatus": "ACTIVE",
    "inService": true,
    "licenseNumber": "930000066",
    "licenseEffectiveDate": "02/25/2025",
    "licenseExpirationDate": "02/24/2026",
    "dataDate": "10/18/2025",
    "capacity": 18,
    "address": "3828 DELMAS TER",
    "city": "CULVER CITY",
    "zip": "90232",
    "county": "LOS ANGELES",
    "phone": "(310) 836-7000",
    "lat": 34.023222,
    "lng": -118.3969305
  },
  {
    "id": "630019650",
    "name": "COMPLETE CARE COMMUNITY HEALTH CENTER-CULVER CITY",
    "npi": "1215113964",
    "hcaiId": null,
    "businessName": "COMPLETE CARE COMMUNITY HEALTH CENTER, INC.",
    "contactEmail": null,
    "categoryName": "PRIMARY CARE CLINIC",
    "categoryCode": "COMTYC",
    "licenseStatus": "ACTIVE",
    "inService": true,
    "licenseNumber": "550000639",
    "licenseEffectiveDate": "12/10/2024",
    "licenseExpirationDate": "12/09/2025",
    "dataDate": "10/18/2025",
    "capacity": 0,
    "address": "3831 HUGHES AVE, SUITE 601",
    "city": "CULVER CITY",
    "zip": "90232",
    "county": "LOS ANGELES",
    "phone": null,
    "lat": 34.022313,
    "lng": -118.398357
  },
  {
    "id": "630013127",
    "name": "CULVER CITY SURGICAL SPECIALISTS",
    "npi": "1922138817",
    "hcaiId": null,
    "businessName": null,
    "contactEmail": "MINIAVILA@YAHOO.COM",
    "categoryName": "SURGICAL CLINIC",
    "categoryCode": "ASC",
    "licenseStatus": null,
    "inService": null,
    "licenseNumber": null,
    "licenseEffectiveDate": null,
    "licenseExpirationDate": null,
    "dataDate": "10/18/2025",
    "capacity": 0,
    "address": "3831 HUGHES AVE, SUITE 702",
    "city": "CULVER CITY",
    "zip": "90232",
    "county": "LOS ANGELES",
    "phone": "(310) 837-3668",
    "lat": 34.022313,
    "lng": -118.398357
  },
  {
    "id": "930000209",
    "name": "FMCNA OF CULVER CITY",
    "npi": "1114039914",
    "hcaiId": "306191012",
    "businessName": "BIO-MEDICAL APPLICATIONS OF CALIFORNIA INC.",
    "contactEmail": "CLINIC1690@FMC-NA.COM",
    "categoryName": "CHRONIC DIALYSIS CLINIC",
    "categoryCode": "ESRD/CDC",
    "licenseStatus": "ACTIVE",
    "inService": true,
    "licenseNumber": "930000219",
    "licenseEffectiveDate": "11/15/2025",
    "licenseExpirationDate": "11/14/2026",
    "dataDate": "10/18/2025",
    "capacity": 25,
    "address": "9432 VENICE BLVD",
    "city": "CULVER CITY",
    "zip": "90232",
    "county": "LOS ANGELES",
    "phone": "(310) 836-2237",
    "lat": 34.024869,
    "lng": -118.3955085
  },
  {
    "id": "630015781",
    "name": "QUALITY HEALTHCARE HOSPICE",
    "npi": "1457759656",
    "hcaiId": "406198472",
    "businessName": "QUALITY HEALTHCARE HOSPICE",
    "contactEmail": "KAMAL.SAKKAY@GMAIL.COM",
    "categoryName": "HOSPICE",
    "categoryCode": "HOSPICE",
    "licenseStatus": "ACTIVE",
    "inService": true,
    "licenseNumber": "550003949",
    "licenseEffectiveDate": "08/09/2023",
    "licenseExpirationDate": "08/08/2025",
    "dataDate": "10/18/2025",
    "capacity": 0,
    "address": "10220 CULVER BLVD., SUITE 206",
    "city": "CULVER CITY",
    "zip": "90232",
    "county": "LOS ANGELES",
    "phone": "(310) 595-4831",
    "lat": 34.017318,
    "lng": -118.399374
  },
  {
    "id": "930000802",
    "name": "SOUTHERN CALIFORNIA HOSPITAL",
    "npi": "1922350206",
    "hcaiId": null,
    "businessName": "SOUTHERN CALIFORNIA HEALTHCARE SYSTEM, INC.",
    "contactEmail": null,
    "categoryName": "SKILLED NURSING FACILITY",
    "categoryCode": "SNF",
    "licenseStatus": "ACTIVE",
    "inService": true,
    "licenseNumber": "930000066",
    "licenseEffectiveDate": "02/25/2025",
    "licenseExpirationDate": "02/24/2026",
    "dataDate": "10/18/2025",
    "capacity": 21,
    "address": "3828 DELMAS TER",
    "city": "CULVER CITY",
    "zip": "90232",
    "county": "LOS ANGELES",
    "phone": "(310) 836-7000",
    "lat": 34.023222,
    "lng": -118.3969305
  },
  {
    "id": "930000015",
    "name": "SOUTHERN CALIFORNIA HOSPITAL AT CULVER CITY",
    "npi": "1245224732",
    "hcaiId": "106190110",
    "businessName": "SOUTHERN CALIFORNIA HEALTHCARE SYSTEM, INC.",
    "contactEmail": "MARIA.PADILLA@ALTAHOSPITALS.COM",
    "categoryName": "GENERAL ACUTE CARE HOSPITAL",
    "categoryCode": "GACH",
    "licenseStatus": "ACTIVE",
    "inService": true,
    "licenseNumber": "930000066",
    "licenseEffectiveDate": "02/25/2025",
    "licenseExpirationDate": "02/24/2026",
    "dataDate": "10/18/2025",
    "capacity": 268,
    "address": "3828 DELMAS TER",
    "city": "CULVER CITY",
    "zip": "90232",
    "county": "LOS ANGELES",
    "phone": "(310) 840-7089",
    "lat": 34.023222,
    "lng": -118.3969305
  },
  {
    "id": "930001740",
    "name": "U.S. RENAL CARE CULVER CITY DIALYSIS",
    "npi": "1417046095",
    "hcaiId": "306196724",
    "businessName": "RENAL CAREPARTNERS OF LOS ANGELES, INC.",
    "contactEmail": "RITA.SMITH@USRENALCARE.COM",
    "categoryName": "CHRONIC DIALYSIS CLINIC",
    "categoryCode": "ESRD/CDC",
    "licenseStatus": "ACTIVE",
    "inService": true,
    "licenseNumber": "930000969",
    "licenseEffectiveDate": "11/09/2024",
    "licenseExpirationDate": "11/08/2025",
    "dataDate": "10/18/2025",
    "capacity": 18,
    "address": "9808 VENICE BLVD, SUITE 200",
    "city": "CULVER CITY",
    "zip": "90232",
    "county": "LOS ANGELES",
    "phone": "(310) 841-0500",
    "lat": 34.023492,
    "lng": -118.398015
  }
]