[
  {
    "id": "630018810",
    "name": "ANGELES COMMUNITY HEALTH CENTER",
    "npi": null,
    "hcaiId": null,
    "businessName": "HEALTH ACCESS FOR ALL, INC.",
    "contactEmail": "M.CANELA@ANGELESCOMMUNITY.ORG",
    "categoryName": "PRIMARY CARE CLINIC",
    "categoryCode": "COMTYC",
    "licenseStatus": "ACTIVE",
    "inService": true,
    "licenseNumber": "550003973",
    "licenseEffectiveDate": "09/15/2025",
    "licenseExpirationDate": "09/14/2026",
    "dataDate": "10/18/2025",
    "capacity": 0,
    "address": "1030 W GARDENA BLVD",
    "city": "GARDENA",
    "zip": "90247",
    "county": "LOS ANGELES",
    "phone": "(213) 413-4888",
    "lat": 33.881283,
    "lng": -118.292544
  },
  {
    "id": "910000024",
    "name": "CLEAR VIEW CONVALESCENT CENTER",
    "npi": "1073608600",
    "hcaiId": "206190181",
    "businessName": "CLEAR VIEW SANITARIUM, INC.",
    "contactEmail": "ADMISSIONS@CLEARVIEWCARE.COM",
    "categoryName": "SKILLED NURSING FACILITY",
    "categoryCode": "SNF",
    "licenseStatus": "ACTIVE",
    "inService": true,
    "licenseNumber": "910000027",
    "licenseEffectiveDate": "11/01/2024",
    "licenseExpirationDate": "10/31/2025",
    "dataDate": "10/18/2025",
    "capacity": 99,
    "address": "15823 S WESTERN AVE",
    "city": "GARDENA",
    "zip": "90247",
    "county": "LOS ANGELES",
    "phone": "(310) 538-2323",
    "lat": 33.886746,
    "lng": -118.309959
  },
  {
    "id": "910000025",
    "name": "CLEAR VIEW SANITARIUM",
    "npi": "1639264914",
    "hcaiId": "206190182",
    "businessName": "CLEAR VIEW SANITARIUM, INC.",
    "contactEmail": "ADMISSIONS@CLEARVIEWCARE.COM",
    "categoryName": "SKILLED NURSING FACILITY",
    "categoryCode": "SNF",
    "licenseStatus": "ACTIVE",
    "inService": true,
    "licenseNumber": "910000028",
    "licenseEffectiveDate": "11/01/2024",
    "licenseExpirationDate": "10/31/2025",
    "dataDate": "10/18/2025",
    "capacity": 73,
    "address": "15823 S WESTERN AVE",
    "city": "GARDENA",
    "zip": "90247",
    "county": "LOS ANGELES",
    "phone": "(310) 538-2323",
    "lat": 33.886746,
    "lng": -118.309959
  },
  {
    "id": "960002072",
    "name": "DANIEL'S CARE CENTER",
    "npi": "1730397944",
    "hcaiId": null,
    "businessName": null,
    "contactEmail": "PBALL.DHC@OUTLOOK.COM",
    "categoryName": "INTERMEDIATE CARE FACILITY-DD/H/N/CN/IID",
    "categoryCode": "ICFDDH",
    "licenseStatus": "ACTIVE",
    "inService": true,
    "licenseNumber": "960000990",
    "licenseEffectiveDate": "11/19/2024",
    "licenseExpirationDate": "11/18/2025",
    "dataDate": "10/18/2025",
    "capacity": 6,
    "address": "1309 W 159TH ST",
    "city": "GARDENA",
    "zip": "90247",
    "county": "LOS ANGELES",
    "phone": "(310) 871-7755",
    "lat": 33.886701,
    "lng": -118.298223
  },
  {
    "id": "630018412",
    "name": "GARDENA ADULT DAY HEALTH CARE CENTER",
    "npi": null,
    "hcaiId": null,
    "businessName": "LOJ HERITAGE, INC.",
    "contactEmail": "GARDENAADHC@GMAIL.COM",
    "categoryName": "ADULT DAY HEALTH CARE",
    "categoryCode": "ADHC",
    "licenseStatus": "ACTIVE",
    "inService": true,
    "licenseNumber": "550004766",
    "licenseEffectiveDate": "06/26/2025",
    "licenseExpirationDate": "06/25/2026",
    "dataDate": "10/18/2025",
    "capacity": 0,
    "address": "1875 W REDONDO BEACH BLVD, UNIT 100",
    "city": "GARDENA",
    "zip": "90247",
    "county": "LOS ANGELES",
    "phone": "(310) 715-1234",
    "lat": 33.888114,
    "lng": -118.311219
  },
  {
    "id": "910000275",
    "name": "GARDENA CONVALESCENT CENTER",
    "npi": "1346225059",
    "hcaiId": "206190311",
    "businessName": "B & E CONVALESCENT CENTER INC.",
    "contactEmail": "JWEISS@GARDENACONVALESCENTCENTER.COM",
    "categoryName": "SKILLED NURSING FACILITY",
    "categoryCode": "SNF",
    "licenseStatus": "ACTIVE",
    "inService": true,
    "licenseNumber": "910000136",
    "licenseEffectiveDate": "05/01/2025",
    "licenseExpirationDate": "04/30/2026",
    "dataDate": "10/18/2025",
    "capacity": 74,
    "address": "14819 S VERMONT AVE",
    "city": "GARDENA",
    "zip": "90247",
    "county": "LOS ANGELES",
    "phone": "(310) 532-9460",
    "lat": 33.896781,
    "lng": -118.2920254
  },
  {
    "id": "630018068",
    "name": "GARDENA DIALYSIS",
    "npi": null,
    "hcaiId": "306190510",
    "businessName": "SPRINGPOND DIALYSIS LLC",
    "contactEmail": "CAL_C@DAVITA.COM",
    "categoryName": "CHRONIC DIALYSIS CLINIC",
    "categoryCode": "ESRD/CDC",
    "licenseStatus": "ACTIVE",
    "inService": true,
    "licenseNumber": "550005216",
    "licenseEffectiveDate": "12/23/2024",
    "licenseExpirationDate": "12/22/2025",
    "dataDate": "10/18/2025",
    "capacity": 25,
    "address": "1201 W 155TH ST",
    "city": "GARDENA",
    "zip": "90247",
    "county": "LOS ANGELES",
    "phone": "(310) 538-6804",
    "lat": 33.89060984,
    "lng": -118.2961212
  },
  {
    "id": "910000276",
    "name": "KEI-AI SOUTH BAY HEALTHCARE CENTER",
    "npi": "1639548449",
    "hcaiId": "206190798",
    "businessName": "AGVA, LLC",
    "contactEmail": "JASONV@ASPENHEALTH.COM",
    "categoryName": "SKILLED NURSING FACILITY",
    "categoryCode": "SNF",
    "licenseStatus": "ACTIVE",
    "inService": true,
    "licenseNumber": "910000135",
    "licenseEffectiveDate": "05/19/2025",
    "licenseExpirationDate": "05/18/2026",
    "dataDate": "10/18/2025",
    "capacity": 98,
    "address": "15115 S VERMONT AVE",
    "city": "GARDENA",
    "zip": "90247",
    "county": "LOS ANGELES",
    "phone": "(310) 532-0700",
    "lat": 33.89431733,
    "lng": -118.2920816
  },
  {
    "id": "930000039",
    "name": "KINDRED HOSPITAL SOUTH BAY",
    "npi": null,
    "hcaiId": "106190196",
    "businessName": "KND DEVELOPMENT 53, L.L.C.",
    "contactEmail": "MARK.APODACA@KINDRED.COM",
    "categoryName": "GENERAL ACUTE CARE HOSPITAL",
    "categoryCode": "GACH",
    "licenseStatus": "ACTIVE",
    "inService": true,
    "licenseNumber": "930000037",
    "licenseEffectiveDate": "11/01/2025",
    "licenseExpirationDate": "10/31/2026",
    "dataDate": "10/18/2025",
    "capacity": 54,
    "address": "1246 W 155TH ST",
    "city": "GARDENA",
    "zip": "90247",
    "county": "LOS ANGELES",
    "phone": "(714) 267-7762",
    "lat": 33.890004,
    "lng": -118.2973995
  },
  {
    "id": "960002416",
    "name": "LOOP HOME FOUNDATION, INC. II",
    "npi": "1659589869",
    "hcaiId": null,
    "businessName": "DALTON AVENUE HOMES, INC.",
    "contactEmail": "LOOPCARE99@YAHOO.COM",
    "categoryName": "INTERMEDIATE CARE FACILITY-DD/H/N/CN/IID",
    "categoryCode": "ICFDDH",
    "licenseStatus": "ACTIVE",
    "inService": true,
    "licenseNumber": "960001101",
    "licenseEffectiveDate": "05/02/2025",
    "licenseExpirationDate": "05/01/2026",
    "dataDate": "10/18/2025",
    "capacity": 6,
    "address": "15918 S DALTON AVE",
    "city": "GARDENA",
    "zip": "90247",
    "county": "LOS ANGELES",
    "phone": "(310) 630-0636",
    "lat": 33.886017,
    "lng": -118.302957
  },
  {
    "id": "930000092",
    "name": "MEMORIAL HOSPITAL OF GARDENA",
    "npi": "1063412005",
    "hcaiId": "106190521",
    "businessName": "GARDENA HOSPITAL, L.P.",
    "contactEmail": "VCARRASCO@PIPELINEHEALTH.US",
    "categoryName": "GENERAL ACUTE CARE HOSPITAL",
    "categoryCode": "GACH",
    "licenseStatus": "ACTIVE",
    "inService": true,
    "licenseNumber": "930000098",
    "licenseEffectiveDate": "11/01/2025",
    "licenseExpirationDate": "10/31/2026",
    "dataDate": "10/18/2025",
    "capacity": 103,
    "address": "1145 W REDONDO BEACH BLVD",
    "city": "GARDENA",
    "zip": "90247",
    "county": "LOS ANGELES",
    "phone": "(310) 538-6500",
    "lat": 33.893073,
    "lng": -118.2950595
  },
  {
    "id": "930000904",
    "name": "MEMORIAL HOSPITAL OF GARDENA D/P SNF",
    "npi": "1063412005",
    "hcaiId": null,
    "businessName": "GARDENA HOSPITAL, L.P.",
    "contactEmail": null,
    "categoryName": "SKILLED NURSING FACILITY",
    "categoryCode": "SNF",
    "licenseStatus": "ACTIVE",
    "inService": true,
    "licenseNumber": "930000098",
    "licenseEffectiveDate": "11/01/2025",
    "licenseExpirationDate": "10/31/2026",
    "dataDate": "10/18/2025",
    "capacity": 69,
    "address": "1145 W REDONDO BEACH BLVD",
    "city": "GARDENA",
    "zip": "90247",
    "county": "LOS ANGELES",
    "phone": null,
    "lat": 33.893073,
    "lng": -118.2950595
  },
  {
    "id": "960002743",
    "name": "MVM HOME II",
    "npi": null,
    "hcaiId": null,
    "businessName": "MVM HOMES, INC.",
    "contactEmail": "LOOPCARE99@YAHOO.COM",
    "categoryName": "INTERMEDIATE CARE FACILITY-DD/H/N/CN/IID",
    "categoryCode": "ICFDDCN",
    "licenseStatus": "ACTIVE",
    "inService": true,
    "licenseNumber": "960001366",
    "licenseEffectiveDate": "07/01/2025",
    "licenseExpirationDate": "10/31/2025",
    "dataDate": "10/18/2025",
    "capacity": 7,
    "address": "16230 S ORCHARD AVE",
    "city": "GARDENA",
    "zip": "90247",
    "county": "LOS ANGELES",
    "phone": "(310) 767-1461",
    "lat": 33.883641,
    "lng": -118.287846
  },
  {
    "id": "960001601",
    "name": "NORMANDIE PLACE",
    "npi": "1407063886",
    "hcaiId": null,
    "businessName": "ST. MARY INVESTMENTS, INC.",
    "contactEmail": "MLKEDCHIEF@AOL.COM",
    "categoryName": "INTERMEDIATE CARE FACILITY-DD/H/N/CN/IID",
    "categoryCode": "ICFDDN",
    "licenseStatus": "ACTIVE",
    "inService": true,
    "licenseNumber": "960000798",
    "licenseEffectiveDate": "11/12/2024",
    "licenseExpirationDate": "11/11/2025",
    "dataDate": "10/18/2025",
    "capacity": 6,
    "address": "14509 S NORMANDIE AVE",
    "city": "GARDENA",
    "zip": "90247",
    "county": "LOS ANGELES",
    "phone": "(714) 269-2319",
    "lat": 33.899859,
    "lng": -118.3007385
  },
  {
    "id": "910000003",
    "name": "ROSECRANS CARE CENTER",
    "npi": "1669462891",
    "hcaiId": "206190024",
    "businessName": "HEALTHCARE INVESTMENTS, INC.",
    "contactEmail": "RBAUTISTA@ROSECRANSCC.COM",
    "categoryName": "SKILLED NURSING FACILITY",
    "categoryCode": "SNF",
    "licenseStatus": "ACTIVE",
    "inService": true,
    "licenseNumber": "910000005",
    "licenseEffectiveDate": "03/28/2025",
    "licenseExpirationDate": "03/27/2026",
    "dataDate": "10/18/2025",
    "capacity": 113,
    "address": "1140 W ROSECRANS AVE",
    "city": "GARDENA",
    "zip": "90247",
    "county": "LOS ANGELES",
    "phone": "(310) 323-3194",
    "lat": 33.901398,
    "lng": -118.2950595
  },
  {
    "id": "930000175",
    "name": "U.S. RENAL CARE GARDENA DIALYSIS",
    "npi": "1912978164",
    "hcaiId": "306191181",
    "businessName": "USRC GARDENA, LLC",
    "contactEmail": "LAMAR.CARR@USRENALCARE.COM",
    "categoryName": "CHRONIC DIALYSIS CLINIC",
    "categoryCode": "ESRD/CDC",
    "licenseStatus": "ACTIVE",
    "inService": true,
    "licenseNumber": "930000252",
    "licenseEffectiveDate": "11/10/2024",
    "licenseExpirationDate": "11/09/2025",
    "dataDate": "10/18/2025",
    "capacity": 17,
    "address": "1045 W REDONDO BEACH BLVD, SUITE 105",
    "city": "GARDENA",
    "zip": "90247",
    "county": "LOS ANGELES",
    "phone": "(310) 515-0788",
    "lat": 33.892947,
    "lng": -118.2932235
  },
  {
    "id": "960000248",
    "name": "VENICE SOUTH BAY GARDENA",
    "npi": null,
    "hcaiId": "306191020",
    "businessName": "VENICE FAMILY CLINIC",
    "contactEmail": "BFRANCO@SBCLINIC.ORG",
    "categoryName": "PRIMARY CARE CLINIC",
    "categoryCode": "COMTYC",
    "licenseStatus": "ACTIVE",
    "inService": true,
    "licenseNumber": "960000169",
    "licenseEffectiveDate": "11/01/2025",
    "licenseExpirationDate": "10/31/2026",
    "dataDate": "10/18/2025",
    "capacity": 0,
    "address": "742 W GARDENA BLVD",
    "city": "GARDENA",
    "zip": "90247",
    "county": "LOS ANGELES",
    "phone": "(310) 327-1357",
    "lat": 33.881391,
    "lng": -118.2887505
  }
]