[
  {
    "id": "940000069",
    "name": "BROOKFIELD HEALTHCARE CENTER",
    "npi": "1750380390",
    "hcaiId": "206190615",
    "businessName": "DOWNEY COMMUNITY CARE, LLC",
    "contactEmail": "RENEWALS@ENSIGNSERVICES.NET",
    "categoryName": "SKILLED NURSING FACILITY",
    "categoryCode": "SNF",
    "licenseStatus": "ACTIVE",
    "inService": true,
    "licenseNumber": "940000135",
    "licenseEffectiveDate": "06/01/2025",
    "licenseExpirationDate": "05/31/2026",
    "dataDate": "10/18/2025",
    "capacity": 70,
    "address": "9300 TELEGRAPH RD",
    "city": "DOWNEY",
    "zip": "90240",
    "county": "LOS ANGELES",
    "phone": "(562) 869-2567",
    "lat": 33.95703634,
    "lng": -118.1045257
  },
  {
    "id": "630015448",
    "name": "COMFORT LIFE HOSPICE",
    "npi": "1578971107",
    "hcaiId": "406190948",
    "businessName": "K & VAR MANAGEMENT INC.",
    "contactEmail": "COMFORTLIFE@OUTLOOK.COM",
    "categoryName": "HOSPICE",
    "categoryCode": "HOSPICE",
    "licenseStatus": "ACTIVE",
    "inService": true,
    "licenseNumber": "550003432",
    "licenseEffectiveDate": "02/12/2024",
    "licenseExpirationDate": "02/11/2026",
    "dataDate": "10/18/2025",
    "capacity": 0,
    "address": "8202 FLORENCE AVE, SUITE 100",
    "city": "DOWNEY",
    "zip": "90240",
    "county": "LOS ANGELES",
    "phone": "(562) 622-1400",
    "lat": 33.95166898,
    "lng": -118.126781
  },
  {
    "id": "930001428",
    "name": "DOWNEY SURGERY CENTER",
    "npi": "1770700593",
    "hcaiId": "306194834",
    "businessName": "DOWNEY SURGERY CENTER, INC.",
    "contactEmail": "ABUCK4590@AOL.COM",
    "categoryName": "SURGICAL CLINIC",
    "categoryCode": "ASC",
    "licenseStatus": "INACTIVE - CAPEN DECISION",
    "inService": false,
    "licenseNumber": "930000877",
    "licenseEffectiveDate": "12/26/2007",
    "licenseExpirationDate": "12/25/2008",
    "dataDate": "10/18/2025",
    "capacity": 0,
    "address": "8555 FLORENCE AVE",
    "city": "DOWNEY",
    "zip": "90240",
    "county": "LOS ANGELES",
    "phone": "(562) 923-9784",
    "lat": 33.94917369,
    "lng": -118.1203443
  },
  {
    "id": "060002135",
    "name": "HOME AVENUE ADULT DAY HEALTH CARE CENTER",
    "npi": null,
    "hcaiId": null,
    "businessName": "HOMEAVENUE, INC.",
    "contactEmail": "KATHLEEN@HOMEAVENUEADHC.COM",
    "categoryName": "ADULT DAY HEALTH CARE",
    "categoryCode": "ADHC",
    "licenseStatus": "ACTIVE",
    "inService": true,
    "licenseNumber": "060000868",
    "licenseEffectiveDate": "05/21/2025",
    "licenseExpirationDate": "05/20/2026",
    "dataDate": "10/18/2025",
    "capacity": 0,
    "address": "8114 TELEGRAPH RD",
    "city": "DOWNEY",
    "zip": "90240",
    "county": "LOS ANGELES",
    "phone": "(562) 927-7660",
    "lat": 33.96779603,
    "lng": -118.1165109
  },
  {
    "id": "630024417",
    "name": "SUNWEST HOME HEALTH CARE, INC",
    "npi": null,
    "hcaiId": "406195848",
    "businessName": "SUNWEST HOME HEALTH CARE, INC",
    "contactEmail": "SUNWESTHHC@GMAIL.COM",
    "categoryName": "HOME HEALTH AGENCY",
    "categoryCode": "HHA",
    "licenseStatus": "ACTIVE",
    "inService": true,
    "licenseNumber": "550008224",
    "licenseEffectiveDate": "10/27/2024",
    "licenseExpirationDate": "10/26/2025",
    "dataDate": "10/18/2025",
    "capacity": 0,
    "address": "9900 LAKEWOOD BLVD, SUITE 216",
    "city": "DOWNEY",
    "zip": "90240",
    "county": "LOS ANGELES",
    "phone": "(310) 694-1640",
    "lat": 33.949323,
    "lng": -118.115379
  },
  {
    "id": "630025572",
    "name": "WHITE LOTUS HOME HEALTH, INC.",
    "npi": null,
    "hcaiId": null,
    "businessName": "WHITE LOTUS HOME HEALTH, INC.",
    "contactEmail": "GODINEZC84@GMAIL.COM",
    "categoryName": "HOME HEALTH AGENCY",
    "categoryCode": "HHA",
    "licenseStatus": "ACTIVE",
    "inService": true,
    "licenseNumber": "550008646",
    "licenseEffectiveDate": "01/11/2024",
    "licenseExpirationDate": "07/10/2024",
    "dataDate": "10/18/2025",
    "capacity": 0,
    "address": "8050 FLORENCE AVE, SUITE 34A",
    "city": "DOWNEY",
    "zip": "90240",
    "county": "LOS ANGELES",
    "phone": "(562) 879-2870",
    "lat": 33.95178,
    "lng": -118.1287395
  }
]