[
  {
    "id": "630026317",
    "name": "EL SEGUNDO ENDOSCOPY CENTER",
    "npi": null,
    "hcaiId": null,
    "businessName": null,
    "contactEmail": "SUZETTE.TOLEDOECS@GMAIL.COM",
    "categoryName": "SURGICAL CLINIC",
    "categoryCode": "ASC",
    "licenseStatus": null,
    "inService": null,
    "licenseNumber": null,
    "licenseEffectiveDate": null,
    "licenseExpirationDate": null,
    "dataDate": "10/18/2025",
    "capacity": 0,
    "address": "2110 E EL SEGUNDO BLVD, SUITE 120",
    "city": "EL SEGUNDO",
    "zip": "90245",
    "county": "LOS ANGELES",
    "phone": "(424) 341-4800",
    "lat": 33.9161836,
    "lng": -118.3889971
  },
  {
    "id": "630027858",
    "name": "OXONE HEALTHCARE INC",
    "npi": null,
    "hcaiId": null,
    "businessName": "OXONE HEALTHCARE INC",
    "contactEmail": "OXONEHEALTH@GMAIL.COM",
    "categoryName": "HOME HEALTH AGENCY",
    "categoryCode": "HHA",
    "licenseStatus": "ACTIVE",
    "inService": true,
    "licenseNumber": "550009858",
    "licenseEffectiveDate": "06/06/2025",
    "licenseExpirationDate": "12/05/2025",
    "dataDate": "10/18/2025",
    "capacity": 0,
    "address": "222 N PACIFIC COAST HWY, SUITE 2000 OFC 29",
    "city": "EL SEGUNDO",
    "zip": "90245",
    "county": "LOS ANGELES",
    "phone": "(323) 206-8678",
    "lat": 33.91878301,
    "lng": -118.394493
  },
  {
    "id": "630027645",
    "name": "WHOLEHEALTH AT HOME",
    "npi": null,
    "hcaiId": null,
    "businessName": "WHOLEHEALTH ENTERPRISES INC.",
    "contactEmail": "HELLO@WHOLEHEALTHHOME.COM",
    "categoryName": "HOME HEALTH AGENCY",
    "categoryCode": "HHA",
    "licenseStatus": "ACTIVE",
    "inService": true,
    "licenseNumber": "550009694",
    "licenseEffectiveDate": "09/04/2025",
    "licenseExpirationDate": "03/03/2026",
    "dataDate": "10/18/2025",
    "capacity": 0,
    "address": "400 CONTINENTAL BLVD, SUITE 600, OFFICE 6135D",
    "city": "EL SEGUNDO",
    "zip": "90245",
    "county": "LOS ANGELES",
    "phone": "(310) 528-8002",
    "lat": 33.92095899,
    "lng": -118.390217
  }
]