[
  {
    "id": "630019027",
    "name": "AMERIBEST HOSPICE INC",
    "npi": "1710533740",
    "hcaiId": "406191861",
    "businessName": "AMERIBEST HOSPICE INC",
    "contactEmail": "AMERIBESTHOSPICE@YAHOO.COM",
    "categoryName": "HOSPICE",
    "categoryCode": "HOSPICE",
    "licenseStatus": "ACTIVE",
    "inService": true,
    "licenseNumber": "550004984",
    "licenseEffectiveDate": "03/11/2024",
    "licenseExpirationDate": "10/07/2025",
    "dataDate": "10/18/2025",
    "capacity": 0,
    "address": "14015 VAN NESS AVE, UNIT 4",
    "city": "GARDENA",
    "zip": "90249",
    "county": "LOS ANGELES",
    "phone": "(818) 249-1111",
    "lat": 33.90402101,
    "lng": -118.31823
  },
  {
    "id": "630026112",
    "name": "BHS INTEGRATED CARE SERVICES",
    "npi": "1548659105",
    "hcaiId": null,
    "businessName": "BEHAVIORAL HEALTH SERVICES, INC.",
    "contactEmail": null,
    "categoryName": "PRIMARY CARE CLINIC",
    "categoryCode": "COMTYC",
    "licenseStatus": "ACTIVE",
    "inService": true,
    "licenseNumber": "550003493",
    "licenseEffectiveDate": "04/11/2025",
    "licenseExpirationDate": "04/10/2026",
    "dataDate": "10/18/2025",
    "capacity": 0,
    "address": "15519 CRENSHAW BLVD",
    "city": "GARDENA",
    "zip": "90249",
    "county": "LOS ANGELES",
    "phone": null,
    "lat": 33.88971662,
    "lng": -118.3265989
  },
  {
    "id": "960001724",
    "name": "DIAMOND GARDEN",
    "npi": "1205010824",
    "hcaiId": null,
    "businessName": "DIAMOND GARDEN HOME CARE, INC.",
    "contactEmail": "CADIZIMELDA17@GMAIL.COM",
    "categoryName": "INTERMEDIATE CARE FACILITY-DD/H/N/CN/IID",
    "categoryCode": "ICFDDH",
    "licenseStatus": "ACTIVE",
    "inService": true,
    "licenseNumber": "960000845",
    "licenseEffectiveDate": "04/24/2025",
    "licenseExpirationDate": "04/23/2026",
    "dataDate": "10/18/2025",
    "capacity": 6,
    "address": "15319 SPINNING AVE",
    "city": "GARDENA",
    "zip": "90249",
    "county": "LOS ANGELES",
    "phone": "(310) 819-8284",
    "lat": 33.891867,
    "lng": -118.3190535
  },
  {
    "id": "060002262",
    "name": "EL CAMINO ADHC CENTER",
    "npi": null,
    "hcaiId": null,
    "businessName": "EL CAMINO ADULT DAY HEALTH CARE INC.",
    "contactEmail": "ELCAMINOADHC@YAHOO.COM",
    "categoryName": "ADULT DAY HEALTH CARE",
    "categoryCode": "ADHC",
    "licenseStatus": "ACTIVE",
    "inService": true,
    "licenseNumber": "060000932",
    "licenseEffectiveDate": "06/30/2025",
    "licenseExpirationDate": "06/29/2026",
    "dataDate": "10/18/2025",
    "capacity": 0,
    "address": "15429 CRENSHAW BLVD, SUITE D",
    "city": "GARDENA",
    "zip": "90249",
    "county": "LOS ANGELES",
    "phone": "(310) 679-7624",
    "lat": 33.89039833,
    "lng": -118.3265989
  },
  {
    "id": "910000053",
    "name": "LAS FLORES CONVALESCENT HOSPITAL",
    "npi": "1942220421",
    "hcaiId": "206190463",
    "businessName": "LAIBCO, LLC",
    "contactEmail": "JNELSON@LFLORES.NET",
    "categoryName": "SKILLED NURSING FACILITY",
    "categoryCode": "SNF",
    "licenseStatus": "ACTIVE",
    "inService": true,
    "licenseNumber": "910000073",
    "licenseEffectiveDate": "04/26/2025",
    "licenseExpirationDate": "04/25/2026",
    "dataDate": "10/18/2025",
    "capacity": 144,
    "address": "14165 PURCHE AVE",
    "city": "GARDENA",
    "zip": "90249",
    "county": "LOS ANGELES",
    "phone": "(310) 323-4570",
    "lat": 33.902793,
    "lng": -118.3212945
  },
  {
    "id": "630020595",
    "name": "LIFESTYLES ADULT DAY HEALTH CARE",
    "npi": null,
    "hcaiId": null,
    "businessName": "SK HEALTH LLC",
    "contactEmail": "LIFESTYLESADHC@GMAIL.COM",
    "categoryName": "ADULT DAY HEALTH CARE",
    "categoryCode": "ADHC",
    "licenseStatus": "ACTIVE",
    "inService": true,
    "licenseNumber": "550007714",
    "licenseEffectiveDate": "12/08/2024",
    "licenseExpirationDate": "12/07/2025",
    "dataDate": "10/18/2025",
    "capacity": 0,
    "address": "14627 S WESTERN AVE",
    "city": "GARDENA",
    "zip": "90249",
    "county": "LOS ANGELES",
    "phone": "(323) 308-5695",
    "lat": 33.898131,
    "lng": -118.3094685
  },
  {
    "id": "630027904",
    "name": "ROADS COMMUNITY CLINIC - GARDENA",
    "npi": null,
    "hcaiId": null,
    "businessName": "THE R.O.A.D.S. FOUNDATION, INC.",
    "contactEmail": null,
    "categoryName": "PRIMARY CARE CLINIC",
    "categoryCode": "COMTYC",
    "licenseStatus": "ACTIVE",
    "inService": true,
    "licenseNumber": "550002986",
    "licenseEffectiveDate": "03/02/2025",
    "licenseExpirationDate": "03/01/2026",
    "dataDate": "10/18/2025",
    "capacity": 0,
    "address": "14111 VAN NESS AVE, SUITE 2",
    "city": "GARDENA",
    "zip": "90249",
    "county": "LOS ANGELES",
    "phone": null,
    "lat": 33.90372601,
    "lng": -118.31819
  },
  {
    "id": "630018542",
    "name": "SAINT LUKA HOSPICE, INC.",
    "npi": null,
    "hcaiId": "406191856",
    "businessName": "SAINT LUKA HOSPICE INC.",
    "contactEmail": "STLUKAHOSPICE@GMAIL.COM",
    "categoryName": "HOSPICE",
    "categoryCode": "HOSPICE",
    "licenseStatus": "ACTIVE",
    "inService": true,
    "licenseNumber": "550005013",
    "licenseEffectiveDate": "10/10/2025",
    "licenseExpirationDate": "10/09/2027",
    "dataDate": "10/18/2025",
    "capacity": 0,
    "address": "14015 VAN NESS AVE, SUITE 6",
    "city": "GARDENA",
    "zip": "90249",
    "county": "LOS ANGELES",
    "phone": "(818) 960-7272",
    "lat": 33.90402101,
    "lng": -118.31823
  }
]