[
  {
    "id": "630026617",
    "name": "A.F.F.R.E.E.C.A.",
    "npi": null,
    "hcaiId": null,
    "businessName": "A.F.F.R.E.E.C.A.",
    "contactEmail": "AFFREECA@GMAIL.COM",
    "categoryName": "HOME HEALTH AGENCY",
    "categoryCode": "HHA",
    "licenseStatus": "ACTIVE",
    "inService": true,
    "licenseNumber": "550009732",
    "licenseEffectiveDate": "09/27/2025",
    "licenseExpirationDate": "03/26/2026",
    "dataDate": "10/18/2025",
    "capacity": 0,
    "address": "879 W 190TH ST, SUITE 430",
    "city": "GARDENA",
    "zip": "90248",
    "county": "LOS ANGELES",
    "phone": "(310) 590-8740",
    "lat": 33.85962898,
    "lng": -118.289873
  },
  {
    "id": "630010241",
    "name": "BIXBY KNOLL PLACE II",
    "npi": "1942464623",
    "hcaiId": null,
    "businessName": "LOOP CARE, INC.",
    "contactEmail": "LOOPCARE99@YAHOO.COM",
    "categoryName": "INTERMEDIATE CARE FACILITY-DD/H/N/CN/IID",
    "categoryCode": "ICFDDN",
    "licenseStatus": "ACTIVE",
    "inService": true,
    "licenseNumber": "550000558",
    "licenseEffectiveDate": "11/01/2024",
    "licenseExpirationDate": "10/31/2025",
    "dataDate": "10/18/2025",
    "capacity": 6,
    "address": "522 E 157TH STREET",
    "city": "GARDENA",
    "zip": "90248",
    "county": "LOS ANGELES",
    "phone": "(310) 991-3245",
    "lat": 33.889383,
    "lng": -118.267506
  },
  {
    "id": "980001663",
    "name": "MAXIM HEALTHCARE SERVICES, INC.",
    "npi": "1679506398",
    "hcaiId": "406194932",
    "businessName": "MAXIM HEALTHCARE SERVICES, INC.",
    "contactEmail": "GARDENAHOMECARE@MAXHEALTH.COM",
    "categoryName": "HOME HEALTH AGENCY",
    "categoryCode": "HHA",
    "licenseStatus": "ACTIVE",
    "inService": true,
    "licenseNumber": "980000985",
    "licenseEffectiveDate": "05/12/2025",
    "licenseExpirationDate": "05/11/2026",
    "dataDate": "10/18/2025",
    "capacity": 0,
    "address": "879 W 190TH ST, SUITE 1000",
    "city": "GARDENA",
    "zip": "90248",
    "county": "LOS ANGELES",
    "phone": "(310) 329-9115",
    "lat": 33.85962898,
    "lng": -118.289873
  },
  {
    "id": "630026003",
    "name": "PPLA - GARDENA HIGH SCHOOL",
    "npi": "1669561890",
    "hcaiId": null,
    "businessName": "PLANNED PARENTHOOD LOS ANGELES",
    "contactEmail": null,
    "categoryName": "PRIMARY CARE CLINIC",
    "categoryCode": "COMTYC",
    "licenseStatus": "ACTIVE",
    "inService": true,
    "licenseNumber": "960001447",
    "licenseEffectiveDate": "02/26/2025",
    "licenseExpirationDate": "02/25/2026",
    "dataDate": "10/18/2025",
    "capacity": 0,
    "address": "1301 W 182ND ST",
    "city": "GARDENA",
    "zip": "90248",
    "county": "LOS ANGELES",
    "phone": null,
    "lat": 33.866577,
    "lng": -118.2988575
  },
  {
    "id": "930001641",
    "name": "U.S. RENAL CARE PACIFIC GATEWAY DIALYSIS",
    "npi": "1962903690",
    "hcaiId": "306195059",
    "businessName": "USRC PACIFIC GATEWAY, LLC",
    "contactEmail": "LICENSING@USRENALCARE.COM",
    "categoryName": "CHRONIC DIALYSIS CLINIC",
    "categoryCode": "ESRD/CDC",
    "licenseStatus": "ACTIVE",
    "inService": true,
    "licenseNumber": "930000908",
    "licenseEffectiveDate": "02/11/2025",
    "licenseExpirationDate": "02/10/2026",
    "dataDate": "10/18/2025",
    "capacity": 26,
    "address": "1149 W 190TH ST, SUITE 1004",
    "city": "GARDENA",
    "zip": "90248",
    "county": "LOS ANGELES",
    "phone": "(562) 495-8075",
    "lat": 33.858819,
    "lng": -118.296513
  },
  {
    "id": "630011364",
    "name": "VANTAGE HOME HEALTH CARE SERVICES, INC.",
    "npi": "1063628501",
    "hcaiId": "406197222",
    "businessName": "VANTAGE HOME HEALTH CARE SERVICES, INC.",
    "contactEmail": "VANTAGEHH@ATT.NET",
    "categoryName": "HOME HEALTH AGENCY",
    "categoryCode": "HHA",
    "licenseStatus": "ACTIVE",
    "inService": true,
    "licenseNumber": "550000959",
    "licenseEffectiveDate": "03/16/2025",
    "licenseExpirationDate": "03/15/2026",
    "dataDate": "10/18/2025",
    "capacity": 0,
    "address": "19210 S VERMONT AVE, SUITE 205, #B",
    "city": "GARDENA",
    "zip": "90248",
    "county": "LOS ANGELES",
    "phone": "(310) 720-6097",
    "lat": 33.855597,
    "lng": -118.2899475
  },
  {
    "id": "910000007",
    "name": "WEST GARDENA POST ACUTE",
    "npi": "1407499163",
    "hcaiId": "206190047",
    "businessName": "WEST GARDENA CARE CENTER, LLC",
    "contactEmail": "ADMINISTRATOR@WESTGARDENAPOSTACUTE.COM",
    "categoryName": "SKILLED NURSING FACILITY",
    "categoryCode": "SNF",
    "licenseStatus": "ACTIVE",
    "inService": true,
    "licenseNumber": "910000007",
    "licenseEffectiveDate": "12/01/2024",
    "licenseExpirationDate": "11/30/2025",
    "dataDate": "10/18/2025",
    "capacity": 50,
    "address": "16530 S BROADWAY",
    "city": "GARDENA",
    "zip": "90248",
    "county": "LOS ANGELES",
    "phone": "(310) 329-9929",
    "lat": 33.88104,
    "lng": -118.277829
  }
]