[
  {
    "id": "630025008",
    "name": "BROOKSHIRE HOME TRAINING",
    "npi": null,
    "hcaiId": null,
    "businessName": null,
    "contactEmail": "CAL_C@DAVITA.COM",
    "categoryName": "CHRONIC DIALYSIS CLINIC",
    "categoryCode": "ESRD",
    "licenseStatus": null,
    "inService": null,
    "licenseNumber": null,
    "licenseEffectiveDate": null,
    "licenseExpirationDate": null,
    "dataDate": "10/18/2025",
    "capacity": 0,
    "address": "8333 IOWA ST, SUITE 200",
    "city": "DOWNEY",
    "zip": "90241",
    "county": "LOS ANGELES",
    "phone": "(562) 923-0014",
    "lat": 33.937659,
    "lng": -118.133757
  },
  {
    "id": "630013544",
    "name": "DOWNEY ADULT HOME CARE I",
    "npi": "1467660670",
    "hcaiId": null,
    "businessName": "DOWNEY CARE HOMES, INC.",
    "contactEmail": "DOWNEYADULT1@GMAIL.COM",
    "categoryName": "INTERMEDIATE CARE FACILITY-DD/H/N/CN/IID",
    "categoryCode": "ICFDDN",
    "licenseStatus": "ACTIVE",
    "inService": true,
    "licenseNumber": "550001923",
    "licenseEffectiveDate": "04/02/2025",
    "licenseExpirationDate": "04/01/2026",
    "dataDate": "10/18/2025",
    "capacity": 6,
    "address": "7943 7TH ST",
    "city": "DOWNEY",
    "zip": "90241",
    "county": "LOS ANGELES",
    "phone": "(310) 327-3237",
    "lat": 33.949125,
    "lng": -118.135143
  },
  {
    "id": "630013546",
    "name": "DOWNEY ADULT HOME CARE III",
    "npi": "1275741480",
    "hcaiId": null,
    "businessName": "DOWNEY CARE HOMES, INC.",
    "contactEmail": "DOWNEYADULT3@GMAIL.COM",
    "categoryName": "INTERMEDIATE CARE FACILITY-DD/H/N/CN/IID",
    "categoryCode": "ICFDDH",
    "licenseStatus": "ACTIVE",
    "inService": true,
    "licenseNumber": "550002024",
    "licenseEffectiveDate": "04/06/2025",
    "licenseExpirationDate": "04/05/2026",
    "dataDate": "10/18/2025",
    "capacity": 6,
    "address": "7446 MULLER ST",
    "city": "DOWNEY",
    "zip": "90241",
    "county": "LOS ANGELES",
    "phone": "(562) 927-4135",
    "lat": 33.952383,
    "lng": -118.14327
  },
  {
    "id": "940000057",
    "name": "DOWNEY COMMUNITY HEALTH CENTER",
    "npi": "1255334587",
    "hcaiId": "206191117",
    "businessName": "W D W JOINT VENTURE",
    "contactEmail": "OLIVERDCHC@GMAIL.COM",
    "categoryName": "SKILLED NURSING FACILITY",
    "categoryCode": "SNF",
    "licenseStatus": "ACTIVE",
    "inService": true,
    "licenseNumber": "940000223",
    "licenseEffectiveDate": "03/24/2025",
    "licenseExpirationDate": "03/23/2026",
    "dataDate": "10/18/2025",
    "capacity": 198,
    "address": "8425 IOWA ST",
    "city": "DOWNEY",
    "zip": "90241",
    "county": "LOS ANGELES",
    "phone": "(562) 862-6506",
    "lat": 33.937128,
    "lng": -118.1318265
  },
  {
    "id": "630011956",
    "name": "DOWNEY LANDING DIALYSIS CENTER",
    "npi": null,
    "hcaiId": "306197189",
    "businessName": "TOTAL RENAL CARE, INC.",
    "contactEmail": "CAL_C@DAVITA.COM",
    "categoryName": "CHRONIC DIALYSIS CLINIC",
    "categoryCode": "ESRD/CDC",
    "licenseStatus": "ACTIVE",
    "inService": true,
    "licenseNumber": "550000875",
    "licenseEffectiveDate": "02/04/2025",
    "licenseExpirationDate": "02/03/2026",
    "dataDate": "10/18/2025",
    "capacity": 31,
    "address": "11611 BELLFLOWER BLVD",
    "city": "DOWNEY",
    "zip": "90241",
    "county": "LOS ANGELES",
    "phone": "(562) 862-0001",
    "lat": 33.93112954,
    "lng": -118.1255154
  },
  {
    "id": "630017196",
    "name": "DOWNEY SURGICAL CLINIC INC",
    "npi": "1558587865",
    "hcaiId": null,
    "businessName": null,
    "contactEmail": null,
    "categoryName": "SURGICAL CLINIC",
    "categoryCode": "ASC",
    "licenseStatus": null,
    "inService": null,
    "licenseNumber": null,
    "licenseEffectiveDate": null,
    "licenseExpirationDate": null,
    "dataDate": "10/18/2025",
    "capacity": 0,
    "address": "7862 FIRESTONE BLVD",
    "city": "DOWNEY",
    "zip": "90241",
    "county": "LOS ANGELES",
    "phone": null,
    "lat": 33.94341,
    "lng": -118.140534
  },
  {
    "id": "980001795",
    "name": "EXTENDED HEALTH CARE - BRANCH",
    "npi": "1538237268",
    "hcaiId": "406196672",
    "businessName": "EXTENDED HEALTH CARE, INC.",
    "contactEmail": "EHCILONGBEACH@AOL.COM",
    "categoryName": "HOME HEALTH AGENCY",
    "categoryCode": "HHA",
    "licenseStatus": "ACTIVE",
    "inService": true,
    "licenseNumber": "980000544",
    "licenseEffectiveDate": "01/09/2025",
    "licenseExpirationDate": "01/08/2026",
    "dataDate": "10/18/2025",
    "capacity": 0,
    "address": "10239 OLD RIVER SCHOOL RD",
    "city": "DOWNEY",
    "zip": "90241",
    "county": "LOS ANGELES",
    "phone": "(562) 806-8766",
    "lat": 33.95799,
    "lng": -118.141533
  },
  {
    "id": "630014021",
    "name": "FHCCGLA DOWNEY FAMILY MEDICAL CENTER",
    "npi": "1790051423",
    "hcaiId": "306197744",
    "businessName": "FAMILY HEALTH CARE CENTERS OF GREATER LOS ANGELES,INC.",
    "contactEmail": "RVILLA@FHCCGLA.ORG",
    "categoryName": "PRIMARY CARE CLINIC",
    "categoryCode": "COMTYC",
    "licenseStatus": "ACTIVE",
    "inService": true,
    "licenseNumber": "550002151",
    "licenseEffectiveDate": "11/30/2024",
    "licenseExpirationDate": "11/29/2025",
    "dataDate": "10/18/2025",
    "capacity": 0,
    "address": "12113-A WOODRUFF AVENUE",
    "city": "DOWNEY",
    "zip": "90241",
    "county": "LOS ANGELES",
    "phone": "(562) 776-5014",
    "lat": 33.92385856,
    "lng": -118.1167684
  },
  {
    "id": "630013720",
    "name": "HEALING CARE HOSPICE, INC.",
    "npi": null,
    "hcaiId": "406198069",
    "businessName": "HEALING CARE HOSPICE, INC.",
    "contactEmail": "SHAHROUZ@HEALINGCAREHOSPICE.COM",
    "categoryName": "HOSPICE",
    "categoryCode": "HOSPICE",
    "licenseStatus": "ACTIVE",
    "inService": true,
    "licenseNumber": "550002311",
    "licenseEffectiveDate": "06/26/2025",
    "licenseExpirationDate": "06/25/2027",
    "dataDate": "10/18/2025",
    "capacity": 0,
    "address": "8255 FIRESTONE BLVD., SUITE 403",
    "city": "DOWNEY",
    "zip": "90241",
    "county": "LOS ANGELES",
    "phone": "(323) 988-1245",
    "lat": 33.941034,
    "lng": -118.1330685
  },
  {
    "id": "630011242",
    "name": "IOWA STREET DIALYSIS",
    "npi": "1962754333",
    "hcaiId": "306196917",
    "businessName": "TOTAL RENAL CARE, INC.",
    "contactEmail": "CAL_C@DAVITA.COM",
    "categoryName": "CHRONIC DIALYSIS CLINIC",
    "categoryCode": "ESRD/CDC",
    "licenseStatus": "ACTIVE",
    "inService": true,
    "licenseNumber": "550000983",
    "licenseEffectiveDate": "12/01/2024",
    "licenseExpirationDate": "11/30/2025",
    "dataDate": "10/18/2025",
    "capacity": 21,
    "address": "8333 IOWA ST, SUITE 100",
    "city": "DOWNEY",
    "zip": "90241",
    "county": "LOS ANGELES",
    "phone": "(562) 923-5901",
    "lat": 33.937659,
    "lng": -118.133757
  },
  {
    "id": "630025773",
    "name": "LILYS HOME HEALTH INC",
    "npi": null,
    "hcaiId": null,
    "businessName": "LILYS HOME HEALTH INC",
    "contactEmail": "LILYSHOMEHEALTH@GMAIL.COM",
    "categoryName": "HOME HEALTH AGENCY",
    "categoryCode": "HHA",
    "licenseStatus": "ACTIVE",
    "inService": true,
    "licenseNumber": "550009665",
    "licenseEffectiveDate": "08/28/2025",
    "licenseExpirationDate": "02/27/2026",
    "dataDate": "10/18/2025",
    "capacity": 0,
    "address": "8221 3RD ST, SUITE 303",
    "city": "DOWNEY",
    "zip": "90241",
    "county": "LOS ANGELES",
    "phone": "(562) 362-9304",
    "lat": 33.942555,
    "lng": -118.1327805
  },
  {
    "id": "630012536",
    "name": "PHYSICIANS' SURGERY CENTER OF DOWNEY, INC.",
    "npi": "1538316278",
    "hcaiId": null,
    "businessName": null,
    "contactEmail": null,
    "categoryName": "SURGICAL CLINIC",
    "categoryCode": "ASC",
    "licenseStatus": null,
    "inService": null,
    "licenseNumber": null,
    "licenseEffectiveDate": null,
    "licenseExpirationDate": null,
    "dataDate": "10/18/2025",
    "capacity": 0,
    "address": "8200 FIRESTONE BLVD",
    "city": "DOWNEY",
    "zip": "90241",
    "county": "LOS ANGELES",
    "phone": "(310) 980-5334",
    "lat": 33.94062,
    "lng": -118.135017
  },
  {
    "id": "930000052",
    "name": "PIH HEALTH DOWNEY HOSPITAL",
    "npi": "1265433551",
    "hcaiId": "106190243",
    "businessName": "PIH HEALTH DOWNEY HOSPITAL",
    "contactEmail": "JUDY.PUGACH@PIHHEALTH.ORG",
    "categoryName": "GENERAL ACUTE CARE HOSPITAL",
    "categoryCode": "GACH",
    "licenseStatus": "ACTIVE",
    "inService": true,
    "licenseNumber": "930000048",
    "licenseEffectiveDate": "10/01/2025",
    "licenseExpirationDate": "09/30/2026",
    "dataDate": "10/18/2025",
    "capacity": 199,
    "address": "11500 BROOKSHIRE AVE",
    "city": "DOWNEY",
    "zip": "90241",
    "county": "LOS ANGELES",
    "phone": "(562) 698-0811",
    "lat": 33.934302,
    "lng": -118.1309805
  },
  {
    "id": "630019501",
    "name": "SKILLED HOME HEALTH, INC.",
    "npi": null,
    "hcaiId": "406192753",
    "businessName": "SKILLED HOME HEALTH, INC.",
    "contactEmail": "ESALDIVAR@SKILLEDMANAGEMENT.COM",
    "categoryName": "HOME HEALTH AGENCY",
    "categoryCode": "HHA",
    "licenseStatus": "ACTIVE",
    "inService": true,
    "licenseNumber": "550005625",
    "licenseEffectiveDate": "07/22/2025",
    "licenseExpirationDate": "07/21/2026",
    "dataDate": "10/18/2025",
    "capacity": 0,
    "address": "8141 2ND ST, SUITE 208A",
    "city": "DOWNEY",
    "zip": "90241",
    "county": "LOS ANGELES",
    "phone": "(562) 450-1690",
    "lat": 33.94246901,
    "lng": -118.134705
  },
  {
    "id": "630017487",
    "name": "TENDER CARE COMMUNITY CLINIC",
    "npi": null,
    "hcaiId": "306190422",
    "businessName": "TENDER CARE COMMUNITY CLINIC, INC.",
    "contactEmail": "ADMIN@TENDERCARECC.ORG",
    "categoryName": "PRIMARY CARE CLINIC",
    "categoryCode": "COMTYC",
    "licenseStatus": "ACTIVE",
    "inService": true,
    "licenseNumber": "550004449",
    "licenseEffectiveDate": "11/27/2024",
    "licenseExpirationDate": "11/26/2025",
    "dataDate": "10/18/2025",
    "capacity": 0,
    "address": "7862 FIRESTONE BLVD",
    "city": "DOWNEY",
    "zip": "90241",
    "county": "LOS ANGELES",
    "phone": "(562) 869-7007",
    "lat": 33.94341,
    "lng": -118.140534
  },
  {
    "id": "630015554",
    "name": "WESLEY HEALTH CENTERS (DOWNEY)",
    "npi": "1770988370",
    "hcaiId": "306198053",
    "businessName": "JWCH INSTITUTE, INC.",
    "contactEmail": "AIRIE@JWCH.ORG",
    "categoryName": "PRIMARY CARE CLINIC",
    "categoryCode": "COMTYC",
    "licenseStatus": "ACTIVE",
    "inService": true,
    "licenseNumber": "550003026",
    "licenseEffectiveDate": "04/03/2025",
    "licenseExpirationDate": "04/02/2026",
    "dataDate": "10/18/2025",
    "capacity": 0,
    "address": "8530 FIRESTONE BLVD.",
    "city": "DOWNEY",
    "zip": "90241",
    "county": "LOS ANGELES",
    "phone": "(562) 867-7999",
    "lat": 33.937209,
    "lng": -118.129356
  }
]