[
  {
    "id": "630027252",
    "name": "AGHABY COMPREHENSIVE COMMUNITY HEALTH CENTER FQHC LOOK-ALIKE COMMUNITY CLINIC",
    "npi": "1922490960",
    "hcaiId": null,
    "businessName": "AGHABY COMPREHENSIVE COMMUNITY HEALTH CENTER",
    "contactEmail": null,
    "categoryName": "PRIMARY CARE CLINIC",
    "categoryCode": "COMTYC",
    "licenseStatus": "ACTIVE",
    "inService": true,
    "licenseNumber": "550003196",
    "licenseEffectiveDate": "08/17/2025",
    "licenseExpirationDate": "08/16/2026",
    "dataDate": "10/18/2025",
    "capacity": 0,
    "address": "2542 E FLORENCE AVE, SUITE B & C",
    "city": "WALNUT PARK",
    "zip": "90255",
    "county": "LOS ANGELES",
    "phone": "(323) 697-1603",
    "lat": 33.97407301,
    "lng": -118.226448
  },
  {
    "id": "630028192",
    "name": "ALLMED OF LOS ANGELES INC",
    "npi": null,
    "hcaiId": null,
    "businessName": "ALLMED OF LOS ANGELES INC",
    "contactEmail": null,
    "categoryName": "PRIMARY CARE CLINIC",
    "categoryCode": "COMTYC",
    "licenseStatus": "ACTIVE",
    "inService": true,
    "licenseNumber": "550008984",
    "licenseEffectiveDate": "01/31/2025",
    "licenseExpirationDate": "01/30/2026",
    "dataDate": "10/18/2025",
    "capacity": 0,
    "address": "7400 PACIFIC BLVD, SUITE A & B",
    "city": "HUNTINGTON PARK",
    "zip": "90255",
    "county": "LOS ANGELES",
    "phone": null,
    "lat": 33.972137,
    "lng": -118.2249315
  },
  {
    "id": "630027229",
    "name": "ALTAMED BEHAVIORAL HEALTH AT NIMITZ MIDDLE SCHOOL",
    "npi": null,
    "hcaiId": null,
    "businessName": "ALTAMED HEALTH SERVICES CORPORATION",
    "contactEmail": "RYOUNG@ALTAMED.ORG",
    "categoryName": "PRIMARY CARE CLINIC",
    "categoryCode": "COMTYC",
    "licenseStatus": "ACTIVE",
    "inService": true,
    "licenseNumber": "550003268",
    "licenseEffectiveDate": "10/29/2025",
    "licenseExpirationDate": "10/28/2026",
    "dataDate": "10/18/2025",
    "capacity": 0,
    "address": "6021 CARMELITA AVE",
    "city": "HUNTINGTON PARK",
    "zip": "90255",
    "county": "LOS ANGELES",
    "phone": "(323) 622-2429",
    "lat": 33.98727799,
    "lng": -118.198335
  },
  {
    "id": "630027259",
    "name": "ALTAMED BEHAVIORAL HEALTH AT WALNUT PARK MIDDLE SCHOOL SOCIAL JUSTICE/SERVICE LEARNING",
    "npi": "1790177582",
    "hcaiId": null,
    "businessName": "ALTAMED HEALTH SERVICES CORPORATION",
    "contactEmail": "RYOUNG@ALTAMED.ORG",
    "categoryName": "PRIMARY CARE CLINIC",
    "categoryCode": "COMTYC",
    "licenseStatus": "ACTIVE",
    "inService": true,
    "licenseNumber": "550003268",
    "licenseEffectiveDate": "10/29/2025",
    "licenseExpirationDate": "10/28/2026",
    "dataDate": "10/18/2025",
    "capacity": 0,
    "address": "7500 MARBRISA AVE, ROOM B-101F",
    "city": "WALNUT PARK",
    "zip": "90255",
    "county": "LOS ANGELES",
    "phone": "(323) 622-2429",
    "lat": 33.971144,
    "lng": -118.230907
  },
  {
    "id": "630027258",
    "name": "ALTAMED BEHAVIORAL HEALTH AT WALNUT PARK MIDDLE SCHOOL STEM ACADEMY",
    "npi": "1790177582",
    "hcaiId": null,
    "businessName": "ALTAMED HEALTH SERVICES CORPORATION",
    "contactEmail": "RYOUNG@ALTAMED.ORG",
    "categoryName": "PRIMARY CARE CLINIC",
    "categoryCode": "COMTYC",
    "licenseStatus": "ACTIVE",
    "inService": true,
    "licenseNumber": "550003268",
    "licenseEffectiveDate": "10/29/2025",
    "licenseExpirationDate": "10/28/2026",
    "dataDate": "10/18/2025",
    "capacity": 0,
    "address": "7500 MARBRISA AVE, ROOM B-101F",
    "city": "WALNUT PARK",
    "zip": "90255",
    "county": "LOS ANGELES",
    "phone": "(323) 622-2429",
    "lat": 33.971144,
    "lng": -118.230907
  },
  {
    "id": "630016244",
    "name": "ALTAMED MEDICAL GROUP - HUNTINGTON PARK",
    "npi": "1790177582",
    "hcaiId": "306197956",
    "businessName": "ALTAMED HEALTH SERVICES CORPORATION",
    "contactEmail": "RYOUNG@ALTAMED.ORG",
    "categoryName": "PRIMARY CARE CLINIC",
    "categoryCode": "COMTYC",
    "licenseStatus": "ACTIVE",
    "inService": true,
    "licenseNumber": "550003268",
    "licenseEffectiveDate": "10/29/2025",
    "licenseExpirationDate": "10/28/2026",
    "dataDate": "10/18/2025",
    "capacity": 0,
    "address": "1900 E. SLAUSON AVE.",
    "city": "HUNTINGTON PARK",
    "zip": "90255",
    "county": "LOS ANGELES",
    "phone": "(323) 662-2429",
    "lat": 33.989102,
    "lng": -118.237374
  },
  {
    "id": "630028387",
    "name": "ALTAMED MEDICAL GROUP - HUNTINGTON PARK, SEVILLE",
    "npi": null,
    "hcaiId": null,
    "businessName": "ALTAMED HEALTH SERVICES CORPORATION",
    "contactEmail": null,
    "categoryName": "PRIMARY CARE CLINIC",
    "categoryCode": "COMTYC",
    "licenseStatus": "ACTIVE",
    "inService": true,
    "licenseNumber": "550003268",
    "licenseEffectiveDate": "10/29/2025",
    "licenseExpirationDate": "10/28/2026",
    "dataDate": "10/18/2025",
    "capacity": 0,
    "address": "7705 SEVILLE AVE",
    "city": "HUNTINGTON PARK",
    "zip": "90255",
    "county": "LOS ANGELES",
    "phone": null,
    "lat": 33.96866698,
    "lng": -118.222637
  },
  {
    "id": "630022870",
    "name": "ALTAMED MEDICAL GROUP-HUNTINGTON PARK, RUGBY",
    "npi": "1790177582",
    "hcaiId": null,
    "businessName": "ALTAMED HEALTH SERVICES CORPORATION",
    "contactEmail": null,
    "categoryName": "PRIMARY CARE CLINIC",
    "categoryCode": "COMTYC",
    "licenseStatus": "ACTIVE",
    "inService": true,
    "licenseNumber": "550003268",
    "licenseEffectiveDate": "10/29/2025",
    "licenseExpirationDate": "10/28/2026",
    "dataDate": "10/18/2025",
    "capacity": 0,
    "address": "6601 RUGBY AVE, SUITE 300",
    "city": "HUNTINGTON PARK",
    "zip": "90255",
    "county": "LOS ANGELES",
    "phone": null,
    "lat": 33.979104,
    "lng": -118.2268665
  },
  {
    "id": "630016986",
    "name": "ANGELES COMMUNITY HEALTH CENTER",
    "npi": "1295288348",
    "hcaiId": "306198295",
    "businessName": "HEALTH ACCESS FOR ALL, INC.",
    "contactEmail": "BANOONI@ANGELESCOMMUNITY.ORG",
    "categoryName": "PRIMARY CARE CLINIC",
    "categoryCode": "COMTYC",
    "licenseStatus": "ACTIVE",
    "inService": true,
    "licenseNumber": "550003973",
    "licenseEffectiveDate": "09/15/2025",
    "licenseExpirationDate": "09/14/2026",
    "dataDate": "10/18/2025",
    "capacity": 0,
    "address": "6208 SEVILLE AVENUE",
    "city": "HUNTINGTON PARK",
    "zip": "90255",
    "county": "LOS ANGELES",
    "phone": "(213) 413-4888",
    "lat": 33.98382,
    "lng": -118.222263
  },
  {
    "id": "630018890",
    "name": "ANGELES COMMUNITY HEALTH CENTER",
    "npi": null,
    "hcaiId": null,
    "businessName": "HEALTH ACCESS FOR ALL, INC.",
    "contactEmail": null,
    "categoryName": "PRIMARY CARE CLINIC",
    "categoryCode": "COMTYC",
    "licenseStatus": "ACTIVE",
    "inService": true,
    "licenseNumber": "550003973",
    "licenseEffectiveDate": "09/15/2025",
    "licenseExpirationDate": "09/14/2026",
    "dataDate": "10/18/2025",
    "capacity": 0,
    "address": "6120 SEVILLE AVE",
    "city": "HUNTINGTON PARK",
    "zip": "90255",
    "county": "LOS ANGELES",
    "phone": null,
    "lat": 33.984414,
    "lng": -118.222263
  },
  {
    "id": "630020377",
    "name": "ANGELES COMMUNITY HEALTH CENTER",
    "npi": "1295288348",
    "hcaiId": null,
    "businessName": "HEALTH ACCESS FOR ALL, INC.",
    "contactEmail": null,
    "categoryName": "PRIMARY CARE CLINIC",
    "categoryCode": "COMTYC",
    "licenseStatus": "ACTIVE",
    "inService": true,
    "licenseNumber": "550003973",
    "licenseEffectiveDate": "09/15/2025",
    "licenseExpirationDate": "09/14/2026",
    "dataDate": "10/18/2025",
    "capacity": 0,
    "address": "6208 SEVILLE AVE",
    "city": "HUNTINGTON PARK",
    "zip": "90255",
    "county": "LOS ANGELES",
    "phone": null,
    "lat": 33.98382,
    "lng": -118.222263
  },
  {
    "id": "630026441",
    "name": "ANGELES COMMUNITY HEALTH CENTER",
    "npi": "1295288348",
    "hcaiId": null,
    "businessName": "HEALTH ACCESS FOR ALL, INC.",
    "contactEmail": null,
    "categoryName": "PRIMARY CARE CLINIC",
    "categoryCode": "COMTYC",
    "licenseStatus": "ACTIVE",
    "inService": true,
    "licenseNumber": "550003973",
    "licenseEffectiveDate": "09/15/2025",
    "licenseExpirationDate": "09/14/2026",
    "dataDate": "10/18/2025",
    "capacity": 0,
    "address": "6212 SEVILLE AVE",
    "city": "HUNTINGTON PARK",
    "zip": "90255",
    "county": "LOS ANGELES",
    "phone": null,
    "lat": 33.98391181,
    "lng": -118.2225896
  },
  {
    "id": "630024910",
    "name": "CENTRO DE CUIDADO RENAL, LLC",
    "npi": null,
    "hcaiId": "306190562",
    "businessName": "CENTRO DE CUIDADO RENAL, LLC",
    "contactEmail": "MIKE@STATEWIDERE.NET",
    "categoryName": "CHRONIC DIALYSIS CLINIC",
    "categoryCode": "ESRD/CDC",
    "licenseStatus": "ACTIVE",
    "inService": true,
    "licenseNumber": "550008235",
    "licenseEffectiveDate": "11/08/2024",
    "licenseExpirationDate": "11/07/2025",
    "dataDate": "10/18/2025",
    "capacity": 0,
    "address": "5949 STATE ST",
    "city": "HUNTINGTON PARK",
    "zip": "90255",
    "county": "LOS ANGELES",
    "phone": "(714) 654-0465",
    "lat": 33.98756103,
    "lng": -118.2128095
  },
  {
    "id": "930000040",
    "name": "COMMUNITY HOSPITAL OF HUNTINGTON PARK",
    "npi": "1891059127",
    "hcaiId": "106190197",
    "businessName": "CHHP HOLDINGS II, LLC",
    "contactEmail": "YVASQUEZ@PIPELINEHEALTH.US",
    "categoryName": "GENERAL ACUTE CARE HOSPITAL",
    "categoryCode": "GACH",
    "licenseStatus": "ACTIVE",
    "inService": true,
    "licenseNumber": "930000038",
    "licenseEffectiveDate": "12/19/2024",
    "licenseExpirationDate": "12/18/2025",
    "dataDate": "10/18/2025",
    "capacity": 81,
    "address": "2623 E SLAUSON AVE",
    "city": "HUNTINGTON PARK",
    "zip": "90255",
    "county": "LOS ANGELES",
    "phone": "(323) 583-1931",
    "lat": 33.989526,
    "lng": -118.2242565
  },
  {
    "id": "630019309",
    "name": "COMPLETE CARE COMMUNITY HEALTH CENTER - HUNTINGTON PARK",
    "npi": null,
    "hcaiId": null,
    "businessName": null,
    "contactEmail": null,
    "categoryName": "PRIMARY CARE CLINIC",
    "categoryCode": "COMTYC",
    "licenseStatus": null,
    "inService": null,
    "licenseNumber": null,
    "licenseEffectiveDate": null,
    "licenseExpirationDate": null,
    "dataDate": "10/18/2025",
    "capacity": 0,
    "address": "7301 STATE ST",
    "city": "HUNTINGTON PARK",
    "zip": "90255",
    "county": "LOS ANGELES",
    "phone": null,
    "lat": 33.971526,
    "lng": -118.2099195
  },
  {
    "id": "630027954",
    "name": "COMPLETE CARE COMMUNITY HEALTH CENTER-HUNTINGTON PARK",
    "npi": null,
    "hcaiId": null,
    "businessName": "COMPLETE CARE COMMUNITY HEALTH CENTER, INC.",
    "contactEmail": "K@CCCHELINIC.COM",
    "categoryName": "PRIMARY CARE CLINIC",
    "categoryCode": "COMTYC",
    "licenseStatus": "ACTIVE",
    "inService": true,
    "licenseNumber": "550009775",
    "licenseEffectiveDate": "05/01/2025",
    "licenseExpirationDate": "04/30/2026",
    "dataDate": "10/18/2025",
    "capacity": 0,
    "address": "7301 STATE ST",
    "city": "HUNTINGTON PARK",
    "zip": "90255",
    "county": "LOS ANGELES",
    "phone": "(310) 430-5884",
    "lat": 33.971517,
    "lng": -118.209944
  },
  {
    "id": "630013758",
    "name": "ELIZABETH HEALTH CENTER - NECC",
    "npi": "1881987576",
    "hcaiId": "306198343",
    "businessName": "NORTHEAST COMMUNITY CLINIC",
    "contactEmail": "OPSSUPPORT@NECC.NET",
    "categoryName": "PRIMARY CARE CLINIC",
    "categoryCode": "COMTYC",
    "licenseStatus": "ACTIVE",
    "inService": true,
    "licenseNumber": "550002027",
    "licenseEffectiveDate": "11/15/2025",
    "licenseExpirationDate": "11/14/2026",
    "dataDate": "10/18/2025",
    "capacity": 0,
    "address": "2822 E. FLORENCE AVENUE",
    "city": "HUNTINGTON PARK",
    "zip": "90255",
    "county": "LOS ANGELES",
    "phone": "(626) 457-6900",
    "lat": 33.973371,
    "lng": -118.2191985
  },
  {
    "id": "630012367",
    "name": "HUNTINGTON PARK DIALYSIS",
    "npi": "1124261854",
    "hcaiId": "306197522",
    "businessName": "HUNTINGTON PARK DIALYSIS, LLC",
    "contactEmail": "CAL_C@DAVITA.COM",
    "categoryName": "CHRONIC DIALYSIS CLINIC",
    "categoryCode": "ESRD/CDC",
    "licenseStatus": "ACTIVE",
    "inService": true,
    "licenseNumber": "550001465",
    "licenseEffectiveDate": "11/03/2025",
    "licenseExpirationDate": "11/02/2026",
    "dataDate": "10/18/2025",
    "capacity": 21,
    "address": "5942 RUGBY AVE",
    "city": "HUNTINGTON PARK",
    "zip": "90255",
    "county": "LOS ANGELES",
    "phone": "(323) 585-7605",
    "lat": 33.987897,
    "lng": -118.2261825
  },
  {
    "id": "630012711",
    "name": "HUNTINGTON PARK FAMILY HEALTH CENTER",
    "npi": "1669799896",
    "hcaiId": "306197407",
    "businessName": "SOUTH CENTRAL FAMILY HEALTH CENTER",
    "contactEmail": "MARIAOC@SCFHC.ORG",
    "categoryName": "PRIMARY CARE CLINIC",
    "categoryCode": "COMTYC",
    "licenseStatus": "ACTIVE",
    "inService": true,
    "licenseNumber": "550002413",
    "licenseEffectiveDate": "09/30/2025",
    "licenseExpirationDate": "09/29/2026",
    "dataDate": "10/18/2025",
    "capacity": 0,
    "address": "2680 SATURN AVE, SUITE 120, 220, 280",
    "city": "HUNTINGTON PARK",
    "zip": "90255",
    "county": "LOS ANGELES",
    "phone": "(323) 905-5809",
    "lat": 33.976746,
    "lng": -118.222884
  },
  {
    "id": "940000073",
    "name": "HUNTINGTON PARK NURSING CENTER",
    "npi": "1265573778",
    "hcaiId": "206190401",
    "businessName": "COVENANT CARE CALIFORNIA, LLC",
    "contactEmail": "HUNTINGTONPARKREG@COVENANTCARE.COM",
    "categoryName": "SKILLED NURSING FACILITY",
    "categoryCode": "SNF",
    "licenseStatus": "ACTIVE",
    "inService": true,
    "licenseNumber": "940000092",
    "licenseEffectiveDate": "03/15/2025",
    "licenseExpirationDate": "03/14/2026",
    "dataDate": "10/18/2025",
    "capacity": 99,
    "address": "6425 MILES AVE",
    "city": "HUNTINGTON PARK",
    "zip": "90255",
    "county": "LOS ANGELES",
    "phone": "(323) 589-5941",
    "lat": 33.980877,
    "lng": -118.2196755
  },
  {
    "id": "630017449",
    "name": "LUZ HOME HEALTH CARE, INC.",
    "npi": null,
    "hcaiId": "406191714",
    "businessName": "LUZ HOME HEALTH CARE, INC.",
    "contactEmail": "LAVA@LUZHHC.COM",
    "categoryName": "HOME HEALTH AGENCY",
    "categoryCode": "HHA",
    "licenseStatus": "ACTIVE",
    "inService": true,
    "licenseNumber": "550004802",
    "licenseEffectiveDate": "05/24/2025",
    "licenseExpirationDate": "05/23/2026",
    "dataDate": "10/18/2025",
    "capacity": 0,
    "address": "2701 E GAGE AVE, UNIT 203",
    "city": "HUNTINGTON PARK",
    "zip": "90255",
    "county": "LOS ANGELES",
    "phone": "(323) 553-9104",
    "lat": 33.981912,
    "lng": -118.2222675
  },
  {
    "id": "630014518",
    "name": "NECC GAGE HEALTH CENTER",
    "npi": "1124460274",
    "hcaiId": "306197844",
    "businessName": "NORTHEAST COMMUNITY CLINIC",
    "contactEmail": "OPSSUPPORT@NECC.NET",
    "categoryName": "PRIMARY CARE CLINIC",
    "categoryCode": "COMTYC",
    "licenseStatus": "ACTIVE",
    "inService": true,
    "licenseNumber": "550002400",
    "licenseEffectiveDate": "09/20/2025",
    "licenseExpirationDate": "09/19/2026",
    "dataDate": "10/18/2025",
    "capacity": 0,
    "address": "2975 ZOE AVENUE",
    "city": "HUNTINGTON PARK",
    "zip": "90255",
    "county": "LOS ANGELES",
    "phone": "(626) 457-6900",
    "lat": 33.97939995,
    "lng": -118.2160935
  },
  {
    "id": "630026473",
    "name": "PLANNED PARENTHOOD LOS ANGELES - HUNTINGTON PARK",
    "npi": null,
    "hcaiId": "306190704",
    "businessName": "PLANNED PARENTHOOD LOS ANGELES",
    "contactEmail": "BRENDA.GUERRERO@PP-LA.ORG",
    "categoryName": "PRIMARY CARE CLINIC",
    "categoryCode": "COMTYC",
    "licenseStatus": "ACTIVE",
    "inService": true,
    "licenseNumber": "550008149",
    "licenseEffectiveDate": "09/16/2025",
    "licenseExpirationDate": "09/15/2026",
    "dataDate": "10/18/2025",
    "capacity": 0,
    "address": "2550 E SLAUSON AVE, SUITE B",
    "city": "HUNTINGTON PARK",
    "zip": "90255",
    "county": "LOS ANGELES",
    "phone": "(213) 284-3200",
    "lat": 33.98913589,
    "lng": -118.2262504
  },
  {
    "id": "630028180",
    "name": "PRECISION HEALTH CENTER - HP",
    "npi": null,
    "hcaiId": null,
    "businessName": "PRECISION HEALTH CENTER",
    "contactEmail": null,
    "categoryName": "PRIMARY CARE CLINIC",
    "categoryCode": "COMTYC",
    "licenseStatus": "ACTIVE",
    "inService": true,
    "licenseNumber": "550008085",
    "licenseEffectiveDate": "07/13/2025",
    "licenseExpirationDate": "07/12/2026",
    "dataDate": "10/18/2025",
    "capacity": 0,
    "address": "2568 CLARENDON AVE",
    "city": "HUNTINGTON PARK",
    "zip": "90255",
    "county": "LOS ANGELES",
    "phone": null,
    "lat": 33.98349709,
    "lng": -118.2258507
  },
  {
    "id": "630019695",
    "name": "SCFHC - SANTA FE",
    "npi": "1588908305",
    "hcaiId": null,
    "businessName": "SOUTH CENTRAL FAMILY HEALTH CENTER",
    "contactEmail": "DOLORESO@SCFHC.ORG",
    "categoryName": "PRIMARY CARE CLINIC",
    "categoryCode": "COMTYC",
    "licenseStatus": "ACTIVE",
    "inService": true,
    "licenseNumber": "550002413",
    "licenseEffectiveDate": "09/30/2025",
    "licenseExpirationDate": "09/29/2026",
    "dataDate": "10/18/2025",
    "capacity": 0,
    "address": "7300 SANTA FE AVE",
    "city": "HUNTINGTON PARK",
    "zip": "90255",
    "county": "LOS ANGELES",
    "phone": null,
    "lat": 33.973569,
    "lng": -118.2300075
  },
  {
    "id": "630028402",
    "name": "SOUTH COAST SURGERY CENTER, INC",
    "npi": null,
    "hcaiId": null,
    "businessName": null,
    "contactEmail": "REGINA@SOUTHCOASTURGERYCENTER.COM",
    "categoryName": "SURGICAL CLINIC",
    "categoryCode": "ASC",
    "licenseStatus": null,
    "inService": null,
    "licenseNumber": null,
    "licenseEffectiveDate": null,
    "licenseExpirationDate": null,
    "dataDate": "10/18/2025",
    "capacity": 0,
    "address": "2621 ZOE AVE, UNIT 1B",
    "city": "HUNTINGTON PARK",
    "zip": "90255",
    "county": "LOS ANGELES",
    "phone": "(323) 446-4100",
    "lat": 33.97950399,
    "lng": -118.224309
  },
  {
    "id": "930001164",
    "name": "SOUTHERN CALIFORNIA SURGERY CENTER",
    "npi": null,
    "hcaiId": "306194737",
    "businessName": null,
    "contactEmail": "MATTZAKY@YAHOO.COM",
    "categoryName": "SURGICAL CLINIC",
    "categoryCode": "ASC",
    "licenseStatus": null,
    "inService": null,
    "licenseNumber": null,
    "licenseEffectiveDate": null,
    "licenseExpirationDate": null,
    "dataDate": "10/18/2025",
    "capacity": 0,
    "address": "2621 ZOE AVE, SUITE B",
    "city": "HUNTINGTON PARK",
    "zip": "90255",
    "county": "LOS ANGELES",
    "phone": "(323) 584-8222",
    "lat": 33.979491,
    "lng": -118.2243015
  },
  {
    "id": "630025232",
    "name": "THRIVE HOME HEALTH AGENCY, LLC",
    "npi": null,
    "hcaiId": "406190294",
    "businessName": "THRIVE HOME HEALTH AGENCY, LLC",
    "contactEmail": "THRIVEHOMEHEALTHAG@GMAIL.COM",
    "categoryName": "HOME HEALTH AGENCY",
    "categoryCode": "HHA",
    "licenseStatus": "ACTIVE",
    "inService": true,
    "licenseNumber": "550009011",
    "licenseEffectiveDate": "03/01/2025",
    "licenseExpirationDate": "02/28/2026",
    "dataDate": "10/18/2025",
    "capacity": 0,
    "address": "2677 ZOE AVE, SUITE 118",
    "city": "HUNTINGTON PARK",
    "zip": "90255",
    "county": "LOS ANGELES",
    "phone": "(323) 484-9722",
    "lat": 33.97932595,
    "lng": -118.2230911
  }
]