[
  {
    "id": "980002484",
    "name": "ACKNOWLEDGE HOME HEALTH, INC.",
    "npi": "1548462971",
    "hcaiId": "406196752",
    "businessName": "ACKNOWLEDGE HOME HEALTH, INC.",
    "contactEmail": "ACKNOWLEDGEHH@YAHOO.COM",
    "categoryName": "HOME HEALTH AGENCY",
    "categoryCode": "HHA",
    "licenseStatus": "ACTIVE",
    "inService": true,
    "licenseNumber": "980001587",
    "licenseEffectiveDate": "05/12/2025",
    "licenseExpirationDate": "05/11/2026",
    "dataDate": "10/18/2025",
    "capacity": 0,
    "address": "13624 HAWTHORNE BLVD, SUITE 210",
    "city": "HAWTHORNE",
    "zip": "90250",
    "county": "LOS ANGELES",
    "phone": "(310) 679-1040",
    "lat": 33.9084,
    "lng": -118.3520115
  },
  {
    "id": "980002287",
    "name": "ALWAYS STAY HOME NURSING SERVICE, INC.",
    "npi": "1275598500",
    "hcaiId": "406196317",
    "businessName": "ALWAYS STAY HOME NURSING SERVICES, INC.",
    "contactEmail": "SYLVIADKENNEDY@YAHOO.COM",
    "categoryName": "HOME HEALTH AGENCY",
    "categoryCode": "HHA",
    "licenseStatus": "ACTIVE",
    "inService": true,
    "licenseNumber": "980001402",
    "licenseEffectiveDate": "04/30/2023",
    "licenseExpirationDate": "04/29/2024",
    "dataDate": "10/18/2025",
    "capacity": 0,
    "address": "11633 HAWTHORNE BLVD, SUITE 220",
    "city": "HAWTHORNE",
    "zip": "90250",
    "county": "LOS ANGELES",
    "phone": "(310) 219-2857",
    "lat": 33.928479,
    "lng": -118.352997
  },
  {
    "id": "630016362",
    "name": "BEHAVIORAL HEALTH SERVICES- FAMILY HEALTH CENTER",
    "npi": "1548659105",
    "hcaiId": "306198247",
    "businessName": "BEHAVIORAL HEALTH SERVICES, INC.",
    "contactEmail": "MBALLUE@BHS-INC.ORG",
    "categoryName": "PRIMARY CARE CLINIC",
    "categoryCode": "COMTYC",
    "licenseStatus": "ACTIVE",
    "inService": true,
    "licenseNumber": "550003493",
    "licenseEffectiveDate": "04/11/2025",
    "licenseExpirationDate": "04/10/2026",
    "dataDate": "10/18/2025",
    "capacity": 0,
    "address": "2501 W. EL SEGUNDO BLVD., SUITE B",
    "city": "HAWTHORNE",
    "zip": "90250",
    "county": "LOS ANGELES",
    "phone": "(310) 679-9126",
    "lat": 33.916941,
    "lng": -118.320651
  },
  {
    "id": "630022364",
    "name": "BHS- HEALTH CENTER FOR WOMEN",
    "npi": "1548659105",
    "hcaiId": null,
    "businessName": "BEHAVIORAL HEALTH SERVICES, INC.",
    "contactEmail": null,
    "categoryName": "PRIMARY CARE CLINIC",
    "categoryCode": "COMTYC",
    "licenseStatus": "ACTIVE",
    "inService": true,
    "licenseNumber": "550003493",
    "licenseEffectiveDate": "04/11/2025",
    "licenseExpirationDate": "04/10/2026",
    "dataDate": "10/18/2025",
    "capacity": 0,
    "address": "12954 HAWTHORNE BLVD, SUITE 100",
    "city": "HAWTHORNE",
    "zip": "90250",
    "county": "LOS ANGELES",
    "phone": null,
    "lat": 33.914466,
    "lng": -118.3520115
  },
  {
    "id": "630016288",
    "name": "BLESSING BRIELE HOME HEALTH CARE, LLC",
    "npi": "1003284803",
    "hcaiId": "406304600",
    "businessName": "BLESSING BRIELE  HOME HEALTH CARE, LLC",
    "contactEmail": "NJUMESWORLD@HOTMAIL.COM",
    "categoryName": "HOME HEALTH AGENCY",
    "categoryCode": "HHA",
    "licenseStatus": "ACTIVE",
    "inService": true,
    "licenseNumber": "550003653",
    "licenseEffectiveDate": "09/14/2024",
    "licenseExpirationDate": "09/13/2025",
    "dataDate": "10/18/2025",
    "capacity": 0,
    "address": "11633 HAWTHORNE BLVD, SUITE 216",
    "city": "HAWTHORNE",
    "zip": "90250",
    "county": "LOS ANGELES",
    "phone": "(424) 456-4574",
    "lat": 33.92848598,
    "lng": -118.353024
  },
  {
    "id": "630011108",
    "name": "CALIFORNIA HEALTHCARE SERVICES",
    "npi": "1861673220",
    "hcaiId": "406197146",
    "businessName": "CALIFORNIA HEALTHCARE SERVICES, LLC",
    "contactEmail": "INFO@CALHCS.COM",
    "categoryName": "HOME HEALTH AGENCY",
    "categoryCode": "HHA",
    "licenseStatus": "ACTIVE",
    "inService": true,
    "licenseNumber": "550000732",
    "licenseEffectiveDate": "05/30/2025",
    "licenseExpirationDate": "05/29/2026",
    "dataDate": "10/18/2025",
    "capacity": 0,
    "address": "13658 HAWTHORNE BLVD, SUITE 200A",
    "city": "HAWTHORNE",
    "zip": "90250",
    "county": "LOS ANGELES",
    "phone": "(310) 644-8302",
    "lat": 33.9078364,
    "lng": -118.3523656
  },
  {
    "id": "910000081",
    "name": "CAMINO HEALTHCARE",
    "npi": "1801406772",
    "hcaiId": "206190744",
    "businessName": "PINE FOREST HEALTHCARE, INC.",
    "contactEmail": "JARMORGAN@ENSIGNSERVICES.NET",
    "categoryName": "SKILLED NURSING FACILITY",
    "categoryCode": "SNF",
    "licenseStatus": "ACTIVE",
    "inService": true,
    "licenseNumber": "910000107",
    "licenseEffectiveDate": "11/01/2025",
    "licenseExpirationDate": "10/31/2026",
    "dataDate": "10/18/2025",
    "capacity": 99,
    "address": "13922 CERISE AVE",
    "city": "HAWTHORNE",
    "zip": "90250",
    "county": "LOS ANGELES",
    "phone": "(310) 675-3304",
    "lat": 33.904701,
    "lng": -118.3324275
  },
  {
    "id": "630017867",
    "name": "CITYCARE HOMEHEALTH PROVIDER INC",
    "npi": null,
    "hcaiId": "406192790",
    "businessName": "CITYCARE HOMEHEALTH PROVIDER INC",
    "contactEmail": "ADEDEJIUS@YAHOO.COM",
    "categoryName": "HOME HEALTH AGENCY",
    "categoryCode": "HHA",
    "licenseStatus": "ACTIVE",
    "inService": true,
    "licenseNumber": "550005659",
    "licenseEffectiveDate": "07/23/2025",
    "licenseExpirationDate": "07/22/2026",
    "dataDate": "10/18/2025",
    "capacity": 0,
    "address": "11633 HAWTHORNE BLVD, SUITE 401",
    "city": "HAWTHORNE",
    "zip": "90250",
    "county": "LOS ANGELES",
    "phone": "(323) 202-6920",
    "lat": 33.928479,
    "lng": -118.352997
  },
  {
    "id": "930000094",
    "name": "COLLEGE MEDICAL CENTER HAWTHORNE CAMPUS",
    "npi": "1215373626",
    "hcaiId": "106190523",
    "businessName": "CHLB, LLC",
    "contactEmail": null,
    "categoryName": "ACUTE PSYCHIATRIC HOSPITAL",
    "categoryCode": "APH",
    "licenseStatus": "ACTIVE",
    "inService": true,
    "licenseNumber": "930000117",
    "licenseEffectiveDate": "10/09/2025",
    "licenseExpirationDate": "10/08/2026",
    "dataDate": "10/18/2025",
    "capacity": 64,
    "address": "13300 HAWTHORNE BLVD",
    "city": "HAWTHORNE",
    "zip": "90250",
    "county": "LOS ANGELES",
    "phone": "(424) 365-3000",
    "lat": 33.911649,
    "lng": -118.3518675
  },
  {
    "id": "630013422",
    "name": "CONTINUITY PROVIDERS HEALTHCARE, INC.",
    "npi": "0396028700",
    "hcaiId": "406197871",
    "businessName": "CONTINUITY PROVIDERS HEALTHCARE, INC.",
    "contactEmail": "CPHCSINC@HOTMAIL.COM",
    "categoryName": "HOME HEALTH AGENCY",
    "categoryCode": "HHA",
    "licenseStatus": "ACTIVE",
    "inService": true,
    "licenseNumber": "550002310",
    "licenseEffectiveDate": "06/27/2025",
    "licenseExpirationDate": "06/26/2026",
    "dataDate": "10/18/2025",
    "capacity": 0,
    "address": "11633 HAWTHORNE BLVD, SUITE 308",
    "city": "HAWTHORNE",
    "zip": "90250",
    "county": "LOS ANGELES",
    "phone": "(310) 941-1475",
    "lat": 33.928479,
    "lng": -118.352997
  },
  {
    "id": "630018786",
    "name": "DIABETES & ENDOCRINOLOGY SPECIALTY CENTER- HAWTHORNE",
    "npi": null,
    "hcaiId": null,
    "businessName": "NORTHEAST COMMUNITY CLINIC",
    "contactEmail": null,
    "categoryName": "PRIMARY CARE CLINIC",
    "categoryCode": "COMTYC",
    "licenseStatus": "ACTIVE",
    "inService": true,
    "licenseNumber": "550002400",
    "licenseEffectiveDate": "09/20/2025",
    "licenseExpirationDate": "09/19/2026",
    "dataDate": "10/18/2025",
    "capacity": 0,
    "address": "4455 W 117TH ST, SUITE 502",
    "city": "HAWTHORNE",
    "zip": "90250",
    "county": "LOS ANGELES",
    "phone": "(626) 457-6900",
    "lat": 33.928389,
    "lng": -118.353924
  },
  {
    "id": "980002380",
    "name": "GIDDA'S HOME HEALTH SERVICES, INC.",
    "npi": null,
    "hcaiId": "406196411",
    "businessName": "GIDDA'S HOME HEALTH SERVICES, INC.",
    "contactEmail": "GIDDAS@SBCGLOBAL.NET",
    "categoryName": "HOME HEALTH AGENCY",
    "categoryCode": "HHA",
    "licenseStatus": "ACTIVE",
    "inService": true,
    "licenseNumber": "980001490",
    "licenseEffectiveDate": "02/06/2025",
    "licenseExpirationDate": "02/05/2026",
    "dataDate": "10/18/2025",
    "capacity": 0,
    "address": "13351 HAWTHORNE BLVD",
    "city": "HAWTHORNE",
    "zip": "90250",
    "county": "LOS ANGELES",
    "phone": "(310) 644-0985",
    "lat": 33.91121277,
    "lng": -118.3527889
  },
  {
    "id": "630014514",
    "name": "HAWTHORNE DIALYSIS",
    "npi": null,
    "hcaiId": "306197878",
    "businessName": "MULGEE DIALYSIS LLC",
    "contactEmail": "CAL_C@DAVITA.COM",
    "categoryName": "CHRONIC DIALYSIS CLINIC",
    "categoryCode": "ESRD/CDC",
    "licenseStatus": "ACTIVE",
    "inService": true,
    "licenseNumber": "550002530",
    "licenseEffectiveDate": "12/12/2024",
    "licenseExpirationDate": "12/11/2025",
    "dataDate": "10/18/2025",
    "capacity": 25,
    "address": "14204 PRAIRIE AVE",
    "city": "HAWTHORNE",
    "zip": "90250",
    "county": "LOS ANGELES",
    "phone": "(310) 349-1174",
    "lat": 33.902892,
    "lng": -118.3429575
  },
  {
    "id": "910000047",
    "name": "HAWTHORNE HEALTHCARE & WELLNESS CENTRE, LP",
    "npi": "1831476365",
    "hcaiId": "206190367",
    "businessName": "HAWTHORNE HEALTHCARE & WELLNESS CENTRE, LP",
    "contactEmail": "ADMINISTRATOR@HAWTHORNEHC.COM",
    "categoryName": "SKILLED NURSING FACILITY",
    "categoryCode": "SNF",
    "licenseStatus": "ACTIVE",
    "inService": true,
    "licenseNumber": "910000063",
    "licenseEffectiveDate": "11/30/2024",
    "licenseExpirationDate": "11/29/2025",
    "dataDate": "10/18/2025",
    "capacity": 88,
    "address": "11630 GREVILLEA AVE",
    "city": "HAWTHORNE",
    "zip": "90250",
    "county": "LOS ANGELES",
    "phone": "(310) 679-9732",
    "lat": 33.92882079,
    "lng": -118.3547591
  },
  {
    "id": "630020284",
    "name": "HAWTHORNE SURGERY CENTER",
    "npi": "1871029389",
    "hcaiId": null,
    "businessName": null,
    "contactEmail": "BRANDON@CALISHER.COM",
    "categoryName": "SURGICAL CLINIC",
    "categoryCode": "ASC",
    "licenseStatus": null,
    "inService": null,
    "licenseNumber": null,
    "licenseEffectiveDate": null,
    "licenseExpirationDate": null,
    "dataDate": "10/18/2025",
    "capacity": 0,
    "address": "4477 W 118TH ST, SUITE 502",
    "city": "HAWTHORNE",
    "zip": "90250",
    "county": "LOS ANGELES",
    "phone": "(213) 465-0994",
    "lat": 33.927606,
    "lng": -118.354194
  },
  {
    "id": "910000041",
    "name": "IMPERIAL CREST HEALTH CARE CENTER",
    "npi": "1316033087",
    "hcaiId": "206190343",
    "businessName": "IMPERIAL CREST HEALTH CARE CENTER, LLC",
    "contactEmail": "FAC42ADMIN@LONGWOODMGMT.COM",
    "categoryName": "SKILLED NURSING FACILITY",
    "categoryCode": "SNF",
    "licenseStatus": "ACTIVE",
    "inService": true,
    "licenseNumber": "910000054",
    "licenseEffectiveDate": "06/01/2025",
    "licenseExpirationDate": "05/31/2026",
    "dataDate": "10/18/2025",
    "capacity": 105,
    "address": "11834 INGLEWOOD AVE",
    "city": "HAWTHORNE",
    "zip": "90250",
    "county": "LOS ANGELES",
    "phone": "(310) 679-1461",
    "lat": 33.926247,
    "lng": -118.360926
  },
  {
    "id": "980001820",
    "name": "ISOCARE MEDICAL EXTENDERS SERVICES, INC.",
    "npi": "1699832261",
    "hcaiId": "406194952",
    "businessName": "ISOCARE MEDICAL EXTENDERS SERVICES, INC.",
    "contactEmail": "ISOCARE.MEDICAL@YAHOO.COM",
    "categoryName": "HOME HEALTH AGENCY",
    "categoryCode": "HHA",
    "licenseStatus": "ACTIVE",
    "inService": true,
    "licenseNumber": "980001053",
    "licenseEffectiveDate": "12/03/2024",
    "licenseExpirationDate": "12/02/2025",
    "dataDate": "10/18/2025",
    "capacity": 0,
    "address": "13527 HAWTHORNE BLVD",
    "city": "HAWTHORNE",
    "zip": "90250",
    "county": "LOS ANGELES",
    "phone": "(310) 644-5151",
    "lat": 33.90932726,
    "lng": -118.3528159
  },
  {
    "id": "630019112",
    "name": "NORTHEAST COMMUNITY CLINIC",
    "npi": null,
    "hcaiId": null,
    "businessName": "NORTHEAST COMMUNITY CLINIC",
    "contactEmail": null,
    "categoryName": "PRIMARY CARE CLINIC",
    "categoryCode": "COMTYC",
    "licenseStatus": "ACTIVE",
    "inService": true,
    "licenseNumber": "550000125",
    "licenseEffectiveDate": "02/01/2025",
    "licenseExpirationDate": "01/31/2026",
    "dataDate": "10/18/2025",
    "capacity": 0,
    "address": "4455 W 117TH ST, SUITE 200",
    "city": "HAWTHORNE",
    "zip": "90250",
    "county": "LOS ANGELES",
    "phone": "(626) 457-6900",
    "lat": 33.928389,
    "lng": -118.353924
  },
  {
    "id": "630027117",
    "name": "NORTHEAST COMMUNITY CLINIC",
    "npi": "1700097540",
    "hcaiId": null,
    "businessName": "NORTHEAST COMMUNITY CLINIC",
    "contactEmail": null,
    "categoryName": "PRIMARY CARE CLINIC",
    "categoryCode": "FQHC/COMTYC",
    "licenseStatus": "ACTIVE",
    "inService": true,
    "licenseNumber": "550000125",
    "licenseEffectiveDate": "02/01/2025",
    "licenseExpirationDate": "01/31/2026",
    "dataDate": "10/18/2025",
    "capacity": 0,
    "address": "4455 W 117TH ST, SUITE 105",
    "city": "HAWTHORNE",
    "zip": "90250",
    "county": "LOS ANGELES",
    "phone": null,
    "lat": 33.928395,
    "lng": -118.353928
  },
  {
    "id": "630013407",
    "name": "NORTHEAST COMMUNITY CLINIC - HAWTHORNE",
    "npi": "1891028171",
    "hcaiId": "306197630",
    "businessName": "NORTHEAST COMMUNITY CLINIC",
    "contactEmail": "OPSSUPPORT@NECC.NET",
    "categoryName": "PRIMARY CARE CLINIC",
    "categoryCode": "COMTYC",
    "licenseStatus": "ACTIVE",
    "inService": true,
    "licenseNumber": "550001792",
    "licenseEffectiveDate": "12/14/2025",
    "licenseExpirationDate": "12/13/2026",
    "dataDate": "10/18/2025",
    "capacity": 0,
    "address": "4455 W 117TH ST, SUITE 300",
    "city": "HAWTHORNE",
    "zip": "90250",
    "county": "LOS ANGELES",
    "phone": "(626) 457-6900",
    "lat": 33.928389,
    "lng": -118.353924
  },
  {
    "id": "630027497",
    "name": "PACIFIC COAST HEALTHCARE SERVICES LLC",
    "npi": null,
    "hcaiId": null,
    "businessName": "PACIFIC COAST HEALTHCARE SERVICES, LLC",
    "contactEmail": "PACIFICCOASTHEALTHCARE@GMAIL.COM",
    "categoryName": "HOME HEALTH AGENCY",
    "categoryCode": "HHA",
    "licenseStatus": "ACTIVE",
    "inService": true,
    "licenseNumber": "550009850",
    "licenseEffectiveDate": "11/28/2025",
    "licenseExpirationDate": "05/27/2026",
    "dataDate": "10/18/2025",
    "capacity": 0,
    "address": "13658 HAWTHORNE WAY, SUITE 301",
    "city": "HAWTHORNE",
    "zip": "90250",
    "county": "LOS ANGELES",
    "phone": "(310) 487-5674",
    "lat": 33.92014568,
    "lng": -118.3534847
  },
  {
    "id": "960002360",
    "name": "PATE & INGRAM HOME II",
    "npi": "1700094927",
    "hcaiId": null,
    "businessName": "PATE & INGRAM HOMES",
    "contactEmail": "OVERTHISKALENIK@GMAIL.COM",
    "categoryName": "INTERMEDIATE CARE FACILITY-DD/H/N/CN/IID",
    "categoryCode": "ICFDDH",
    "licenseStatus": "ACTIVE",
    "inService": true,
    "licenseNumber": "960001083",
    "licenseEffectiveDate": "01/28/2025",
    "licenseExpirationDate": "01/27/2026",
    "dataDate": "10/18/2025",
    "capacity": 6,
    "address": "2303 W 116TH ST",
    "city": "HAWTHORNE",
    "zip": "90250",
    "county": "LOS ANGELES",
    "phone": "(323) 755-9567",
    "lat": 33.928776,
    "lng": -118.318905
  },
  {
    "id": "630027467",
    "name": "ST. ANTHONY MEDICAL CENTERS- HAWTHORNE CLINIC",
    "npi": null,
    "hcaiId": null,
    "businessName": "ST. ANTHONY MEDICAL CENTERS",
    "contactEmail": null,
    "categoryName": "PRIMARY CARE CLINIC",
    "categoryCode": "COMTYC",
    "licenseStatus": "ACTIVE",
    "inService": false,
    "licenseNumber": "550007255",
    "licenseEffectiveDate": "11/17/2024",
    "licenseExpirationDate": "11/16/2025",
    "dataDate": "10/18/2025",
    "capacity": 0,
    "address": "13865 HAWTHORNE BLVD",
    "city": "HAWTHORNE",
    "zip": "90250",
    "county": "LOS ANGELES",
    "phone": null,
    "lat": 33.90536802,
    "lng": -118.353016
  },
  {
    "id": "630017566",
    "name": "SUN RISE HOSPICE CARE LLC",
    "npi": "1871988840",
    "hcaiId": "406192631",
    "businessName": "SUN RISE HOSPICE CARE LLC",
    "contactEmail": "INFO@CALHCS.COM",
    "categoryName": "HOSPICE",
    "categoryCode": "HOSPICE",
    "licenseStatus": "ACTIVE",
    "inService": true,
    "licenseNumber": "550004838",
    "licenseEffectiveDate": "12/27/2024",
    "licenseExpirationDate": "12/26/2026",
    "dataDate": "10/18/2025",
    "capacity": 0,
    "address": "13658 HAWTHORNE BLVD, SUITE 200B",
    "city": "HAWTHORNE",
    "zip": "90250",
    "county": "LOS ANGELES",
    "phone": "(310) 644-8303",
    "lat": 33.9078364,
    "lng": -118.3523656
  },
  {
    "id": "630011391",
    "name": "TENDER LOVING TOUCH HOME HEALTH, INC.",
    "npi": "1861686610",
    "hcaiId": "406197257",
    "businessName": "TENDER LOVING TOUCH HOME HEALTH, INC.",
    "contactEmail": "TLTHOMEHEALTH@YAHOO.COM",
    "categoryName": "HOME HEALTH AGENCY",
    "categoryCode": "HHA",
    "licenseStatus": "ACTIVE",
    "inService": true,
    "licenseNumber": "550001010",
    "licenseEffectiveDate": "03/20/2023",
    "licenseExpirationDate": "03/19/2024",
    "dataDate": "10/18/2025",
    "capacity": 0,
    "address": "12517 CRENSHAW BLVD",
    "city": "HAWTHORNE",
    "zip": "90250",
    "county": "LOS ANGELES",
    "phone": "(323) 933-4633",
    "lat": 33.91919215,
    "lng": -118.3266664
  },
  {
    "id": "630027681",
    "name": "VENICE FAMILY CLINIC - MAXINE WATERS HEALTH & DIGNITY CENTER",
    "npi": null,
    "hcaiId": null,
    "businessName": "VENICE FAMILY CLINIC",
    "contactEmail": null,
    "categoryName": "PRIMARY CARE CLINIC",
    "categoryCode": "FQHC/COMTYC",
    "licenseStatus": "ACTIVE",
    "inService": true,
    "licenseNumber": "960000169",
    "licenseEffectiveDate": "11/01/2025",
    "licenseExpirationDate": "10/31/2026",
    "dataDate": "10/18/2025",
    "capacity": 0,
    "address": "11802 YORK AVE",
    "city": "HAWTHORNE",
    "zip": "90250",
    "county": "LOS ANGELES",
    "phone": null,
    "lat": 33.92722686,
    "lng": -118.3449609
  },
  {
    "id": "630015706",
    "name": "WOMEN AND FAMILY HEALTH CLINIC",
    "npi": "1912241258",
    "hcaiId": "306198066",
    "businessName": "BANJ HEALTH CENTER, INC.",
    "contactEmail": "NANDE05@AOL.COM",
    "categoryName": "PRIMARY CARE CLINIC",
    "categoryCode": "COMTYC",
    "licenseStatus": "ACTIVE",
    "inService": true,
    "licenseNumber": "550003250",
    "licenseEffectiveDate": "09/11/2023",
    "licenseExpirationDate": "09/10/2024",
    "dataDate": "10/18/2025",
    "capacity": 0,
    "address": "12954 HAWTHORNE BLVD., SUITE 101",
    "city": "HAWTHORNE",
    "zip": "90250",
    "county": "LOS ANGELES",
    "phone": "(562) 349-0659",
    "lat": 33.914466,
    "lng": -118.352025
  }
]