[
  {
    "id": "630024308",
    "name": "AFFECTION HOME HEALTH INC",
    "npi": null,
    "hcaiId": "406195896",
    "businessName": "AFFECTION HOME HEALTH INC",
    "contactEmail": "AFFECTIONHOMEHEALTH@GMAIL.COM",
    "categoryName": "HOME HEALTH AGENCY",
    "categoryCode": "HHA",
    "licenseStatus": "ACTIVE",
    "inService": true,
    "licenseNumber": "550008090",
    "licenseEffectiveDate": "07/26/2025",
    "licenseExpirationDate": "07/25/2026",
    "dataDate": "10/18/2025",
    "capacity": 0,
    "address": "1112 OCEAN DR, SUITE 102A",
    "city": "MANHATTAN BEACH",
    "zip": "90266",
    "county": "LOS ANGELES",
    "phone": "(310) 307-5750",
    "lat": 33.884064,
    "lng": -118.4110245
  },
  {
    "id": "630017764",
    "name": "BEACH CITIES ORTHOPEDICS SURGERY CENTER, LLC",
    "npi": "1336669456",
    "hcaiId": null,
    "businessName": null,
    "contactEmail": "BTMD@MAC.COM",
    "categoryName": "SURGICAL CLINIC",
    "categoryCode": "ASC",
    "licenseStatus": null,
    "inService": null,
    "licenseNumber": null,
    "licenseEffectiveDate": null,
    "licenseExpirationDate": null,
    "dataDate": "10/18/2025",
    "capacity": 0,
    "address": "400 S SEPULVEDA BLVD, SUITE 110",
    "city": "MANHATTAN BEACH",
    "zip": "90266",
    "county": "LOS ANGELES",
    "phone": "(310) 546-3461",
    "lat": 33.875847,
    "lng": -118.3955445
  },
  {
    "id": "980001712",
    "name": "HUMAN TOUCH HOME HEALTH CARE AGENCY, INC.",
    "npi": "1528153244",
    "hcaiId": "406194904",
    "businessName": "HUMAN TOUCH HOME HEALTH CARE AGENCY, INC.",
    "contactEmail": "SAADAHUMANTOUCH@YAHOO.COM",
    "categoryName": "HOME HEALTH AGENCY",
    "categoryCode": "HHA",
    "licenseStatus": "ACTIVE",
    "inService": true,
    "licenseNumber": "980001010",
    "licenseEffectiveDate": "12/21/2024",
    "licenseExpirationDate": "12/20/2025",
    "dataDate": "10/18/2025",
    "capacity": 0,
    "address": "3629 N SEPULVEDA BLVD, SUITE 101",
    "city": "MANHATTAN BEACH",
    "zip": "90266",
    "county": "LOS ANGELES",
    "phone": "(424) 247-8165",
    "lat": 33.901488,
    "lng": -118.397007
  },
  {
    "id": "630008645",
    "name": "HUMAN TOUCH PALLIATIVE AND HOSPICE CARE, INC.",
    "npi": null,
    "hcaiId": "406196948",
    "businessName": "HUMAN TOUCH PALLIATIVE AND HOSPICE CARE, INC.",
    "contactEmail": "INFO@HUMANTOUCHHOSPICE.COM",
    "categoryName": "HOSPICE",
    "categoryCode": "HOSPICE",
    "licenseStatus": "ACTIVE",
    "inService": true,
    "licenseNumber": "550000471",
    "licenseEffectiveDate": "02/16/2025",
    "licenseExpirationDate": "02/15/2027",
    "dataDate": "10/18/2025",
    "capacity": 0,
    "address": "3629 N SEPULVEDA BLVD, SUITE 102",
    "city": "MANHATTAN BEACH",
    "zip": "90266",
    "county": "LOS ANGELES",
    "phone": "(424) 247-8300",
    "lat": 33.901488,
    "lng": -118.397007
  },
  {
    "id": "630014215",
    "name": "MANHATTAN BEACH SURGERY CENTER",
    "npi": "1588929533",
    "hcaiId": null,
    "businessName": null,
    "contactEmail": null,
    "categoryName": "SURGICAL CLINIC",
    "categoryCode": "ASC",
    "licenseStatus": null,
    "inService": null,
    "licenseNumber": null,
    "licenseEffectiveDate": null,
    "licenseExpirationDate": null,
    "dataDate": "10/18/2025",
    "capacity": 0,
    "address": "1200 ROSECRANS AVE, SUITE 110",
    "city": "MANHATTAN BEACH",
    "zip": "90266",
    "county": "LOS ANGELES",
    "phone": null,
    "lat": 33.901506,
    "lng": -118.3933035
  }
]