[
  {
    "id": "630015841",
    "name": "ATTAIN HEALTH HOME HEALTH INC",
    "npi": "1619388808",
    "hcaiId": "406198509",
    "businessName": "ATTAIN HEALTH HOME HEALTH INC",
    "contactEmail": "ATTAINHEALTHHOME@GMAIL.COM",
    "categoryName": "HOME HEALTH AGENCY",
    "categoryCode": "HHA",
    "licenseStatus": "ACTIVE",
    "inService": true,
    "licenseNumber": "550003988",
    "licenseEffectiveDate": "09/29/2025",
    "licenseExpirationDate": "09/28/2026",
    "dataDate": "10/18/2025",
    "capacity": 0,
    "address": "1513 AVIATION BLVD",
    "city": "REDONDO BEACH",
    "zip": "90278",
    "county": "LOS ANGELES",
    "phone": "(310) 937-1406",
    "lat": 33.86847609,
    "lng": -118.3828543
  },
  {
    "id": "630016398",
    "name": "U.S. RENAL CARE SOUTH BAY DIALYSIS",
    "npi": null,
    "hcaiId": "306198372",
    "businessName": "USRC SOUTH BAY, LLC",
    "contactEmail": "LICENSING@USRENALCARE.COM",
    "categoryName": "CHRONIC DIALYSIS CLINIC",
    "categoryCode": "ESRD/CDC",
    "licenseStatus": "ACTIVE",
    "inService": true,
    "licenseNumber": "550003800",
    "licenseEffectiveDate": "12/05/2024",
    "licenseExpirationDate": "12/04/2025",
    "dataDate": "10/18/2025",
    "capacity": 0,
    "address": "4450 182ND STREET",
    "city": "REDONDO BEACH",
    "zip": "90278",
    "county": "LOS ANGELES",
    "phone": "(310) 542-8032",
    "lat": 33.865245,
    "lng": -118.354158
  },
  {
    "id": "960000247",
    "name": "VENICE SOUTH BAY REDONDO BEACH",
    "npi": null,
    "hcaiId": "306190733",
    "businessName": "VENICE FAMILY CLINIC",
    "contactEmail": "J.HICKS@SBCLINIC.ORG",
    "categoryName": "PRIMARY CARE CLINIC",
    "categoryCode": "COMTYC",
    "licenseStatus": "ACTIVE",
    "inService": true,
    "licenseNumber": "960000169",
    "licenseEffectiveDate": "11/01/2025",
    "licenseExpirationDate": "10/31/2026",
    "dataDate": "10/18/2025",
    "capacity": 0,
    "address": "2114 ARTESIA BLVD",
    "city": "REDONDO BEACH",
    "zip": "90278",
    "county": "LOS ANGELES",
    "phone": "(310) 318-2521",
    "lat": 33.87270914,
    "lng": -118.3734869
  }
]