[
  {
    "id": "630026840",
    "name": "ANGELES COMMUNITY HEALTH CENTER",
    "npi": "1295288348",
    "hcaiId": null,
    "businessName": "HEALTH ACCESS FOR ALL, INC.",
    "contactEmail": null,
    "categoryName": "PRIMARY CARE CLINIC",
    "categoryCode": "COMTYC",
    "licenseStatus": "ACTIVE",
    "inService": true,
    "licenseNumber": "550003973",
    "licenseEffectiveDate": "09/15/2025",
    "licenseExpirationDate": "09/14/2026",
    "dataDate": "10/18/2025",
    "capacity": 0,
    "address": "5800 KING AVE",
    "city": "MAYWOOD",
    "zip": "90270",
    "county": "LOS ANGELES",
    "phone": null,
    "lat": 33.98781382,
    "lng": -118.1832306
  },
  {
    "id": "630016339",
    "name": "EDEN CARE CENTER, INC.",
    "npi": null,
    "hcaiId": null,
    "businessName": "EDEN CARE CENTER, INC.",
    "contactEmail": "ELINA.FOGEL@GMAIL.COM",
    "categoryName": "PEDIATRIC DAY HEALTH & RESPITE CARE FACILITY",
    "categoryCode": "PDHRCF",
    "licenseStatus": "ACTIVE",
    "inService": true,
    "licenseNumber": "550003709",
    "licenseEffectiveDate": "10/28/2025",
    "licenseExpirationDate": "10/27/2026",
    "dataDate": "10/18/2025",
    "capacity": 50,
    "address": "4943 SLAUSON AVE",
    "city": "MAYWOOD",
    "zip": "90270",
    "county": "LOS ANGELES",
    "phone": "(323) 588-3337",
    "lat": 33.98634898,
    "lng": -118.174941
  },
  {
    "id": "630018408",
    "name": "MAYWOOD CLINIC",
    "npi": "1306194105",
    "hcaiId": null,
    "businessName": "AMH COMPREHENSIVE MEDICAL CENTERS",
    "contactEmail": null,
    "categoryName": "PRIMARY CARE CLINIC",
    "categoryCode": "COMTYC",
    "licenseStatus": "ACTIVE",
    "inService": true,
    "licenseNumber": "550002382",
    "licenseEffectiveDate": "09/04/2025",
    "licenseExpirationDate": "09/03/2026",
    "dataDate": "10/18/2025",
    "capacity": 0,
    "address": "6017 ATLANTIC BLVD",
    "city": "MAYWOOD",
    "zip": "90270",
    "county": "LOS ANGELES",
    "phone": null,
    "lat": 33.984729,
    "lng": -118.186227
  },
  {
    "id": "940000092",
    "name": "MAYWOOD SKILLED NURSING & WELLNESS CENTRE",
    "npi": "1972744837",
    "hcaiId": "206190510",
    "businessName": "MAYWOOD SKILLED NURSING & WELLNESS CENTRE, LLC",
    "contactEmail": "ADMINISTRATOR@MAYWOODHC.COM",
    "categoryName": "SKILLED NURSING FACILITY",
    "categoryCode": "SNF",
    "licenseStatus": "ACTIVE",
    "inService": true,
    "licenseNumber": "940000116",
    "licenseEffectiveDate": "06/29/2025",
    "licenseExpirationDate": "06/28/2026",
    "dataDate": "10/18/2025",
    "capacity": 133,
    "address": "6025 PINE AVE",
    "city": "MAYWOOD",
    "zip": "90270",
    "county": "LOS ANGELES",
    "phone": "(323) 560-0720",
    "lat": 33.984639,
    "lng": -118.1888145
  },
  {
    "id": "060002059",
    "name": "VISTA ADULT DAY HEALTH CARE CENTER",
    "npi": null,
    "hcaiId": null,
    "businessName": "TRIMICA, LLC",
    "contactEmail": "VISTAADHC@YAHOO.COM",
    "categoryName": "ADULT DAY HEALTH CARE",
    "categoryCode": "ADHC",
    "licenseStatus": "ACTIVE",
    "inService": true,
    "licenseNumber": "060000847",
    "licenseEffectiveDate": "12/05/2024",
    "licenseExpirationDate": "12/04/2025",
    "dataDate": "10/18/2025",
    "capacity": 0,
    "address": "6061 ATLANTIC BLVD",
    "city": "MAYWOOD",
    "zip": "90270",
    "county": "LOS ANGELES",
    "phone": "(323) 773-3555",
    "lat": 33.983811,
    "lng": -118.1864385
  }
]