[
  {
    "id": "630027484",
    "name": "AHF HEALTHCARE CENTER - REDONDO BEACH",
    "npi": null,
    "hcaiId": null,
    "businessName": "AIDS HEALTHCARE FOUNDATION",
    "contactEmail": null,
    "categoryName": "PRIMARY CARE CLINIC",
    "categoryCode": "COMTYC",
    "licenseStatus": "ACTIVE",
    "inService": true,
    "licenseNumber": "960001128",
    "licenseEffectiveDate": "11/04/2024",
    "licenseExpirationDate": "11/03/2025",
    "dataDate": "10/18/2025",
    "capacity": 0,
    "address": "520 N PROSPECT AVE, SUITE 209",
    "city": "REDONDO BEACH",
    "zip": "90277",
    "county": "LOS ANGELES",
    "phone": null,
    "lat": 33.85340102,
    "lng": -118.379846
  },
  {
    "id": "630010121",
    "name": "BEACH DISTRICT SURGERY CENTER, L.P.",
    "npi": "1952343204",
    "hcaiId": "306196821",
    "businessName": "BEACH DISTRICT SURGERY CENTER, L.P.",
    "contactEmail": "DSHAPHRAN@BEACHDISTRICTSURGERY.COM",
    "categoryName": "SURGICAL CLINIC",
    "categoryCode": "ASC",
    "licenseStatus": "INACTIVE - CAPEN DECISION",
    "inService": false,
    "licenseNumber": "550000281",
    "licenseEffectiveDate": "11/29/2007",
    "licenseExpirationDate": "11/28/2008",
    "dataDate": "10/18/2025",
    "capacity": 0,
    "address": "514 N PROSPECT AVE, SUITE 100",
    "city": "REDONDO BEACH",
    "zip": "90277",
    "county": "LOS ANGELES",
    "phone": "(310) 376-2707",
    "lat": 33.85247518,
    "lng": -118.3795079
  },
  {
    "id": "960000216",
    "name": "SOUTH BAY CHILDRENS HEALTH CENTER",
    "npi": null,
    "hcaiId": "306190169",
    "businessName": "SOUTH BAY CHILDREN'S HEALTH CENTER ASSOCIATION",
    "contactEmail": "MSCHENASI@SBCHC.COM",
    "categoryName": "PRIMARY CARE CLINIC",
    "categoryCode": "COMTYC",
    "licenseStatus": "ACTIVE",
    "inService": true,
    "licenseNumber": "960000038",
    "licenseEffectiveDate": "02/01/2025",
    "licenseExpirationDate": "01/31/2026",
    "dataDate": "10/18/2025",
    "capacity": 0,
    "address": "410 CAMINO REAL",
    "city": "REDONDO BEACH",
    "zip": "90277",
    "county": "LOS ANGELES",
    "phone": "(310) 316-1212",
    "lat": 33.836832,
    "lng": -118.3813605
  },
  {
    "id": "630027682",
    "name": "VENICE FAMILY CLINIC - ALLCOVE BEACH CITIES",
    "npi": null,
    "hcaiId": null,
    "businessName": "VENICE FAMILY CLINIC",
    "contactEmail": null,
    "categoryName": "PRIMARY CARE CLINIC",
    "categoryCode": "FQHC/COMTYC",
    "licenseStatus": "ACTIVE",
    "inService": true,
    "licenseNumber": "960000169",
    "licenseEffectiveDate": "11/01/2025",
    "licenseExpirationDate": "10/31/2026",
    "dataDate": "10/18/2025",
    "capacity": 0,
    "address": "514 N PROSPECT AVE, SUITE 400",
    "city": "REDONDO BEACH",
    "zip": "90277",
    "county": "LOS ANGELES",
    "phone": null,
    "lat": 33.85323799,
    "lng": -118.37896
  }
]