[
  {
    "id": "630027236",
    "name": "ALTAMED BEHAVIORAL HEALTH AT INTERNATIONAL STUDIES LEARNING CENTER MIDDLE SCHOOL",
    "npi": "1902267479",
    "hcaiId": null,
    "businessName": "ALTAMED HEALTH SERVICES CORPORATION",
    "contactEmail": null,
    "categoryName": "PRIMARY CARE CLINIC",
    "categoryCode": "COMTYC",
    "licenseStatus": "ACTIVE",
    "inService": true,
    "licenseNumber": "550003827",
    "licenseEffectiveDate": "03/29/2025",
    "licenseExpirationDate": "03/28/2026",
    "dataDate": "10/18/2025",
    "capacity": 0,
    "address": "5220 TWEEDY BLVD",
    "city": "SOUTH GATE",
    "zip": "90280",
    "county": "LOS ANGELES",
    "phone": null,
    "lat": 33.94107289,
    "lng": -118.1799156
  },
  {
    "id": "630027239",
    "name": "ALTAMED BEHAVIORAL HEALTH AT SOUTH GATE MIDDLE SCHOOL",
    "npi": "1902267479",
    "hcaiId": null,
    "businessName": "ALTAMED HEALTH SERVICES CORPORATION",
    "contactEmail": null,
    "categoryName": "PRIMARY CARE CLINIC",
    "categoryCode": "COMTYC",
    "licenseStatus": "ACTIVE",
    "inService": true,
    "licenseNumber": "550003827",
    "licenseEffectiveDate": "03/29/2025",
    "licenseExpirationDate": "03/28/2026",
    "dataDate": "10/18/2025",
    "capacity": 0,
    "address": "4100 FIRESTONE BLVD",
    "city": "SOUTH GATE",
    "zip": "90280",
    "county": "LOS ANGELES",
    "phone": null,
    "lat": 33.95182698,
    "lng": -118.197828
  },
  {
    "id": "630017088",
    "name": "ALTAMED MEDICAL AND DENTAL GROUP - SOUTH GATE",
    "npi": "1902267479",
    "hcaiId": "306198408",
    "businessName": "ALTAMED HEALTH SERVICES CORPORATION",
    "contactEmail": "ARIMARTINEZ@ALTAMED.ORG",
    "categoryName": "PRIMARY CARE CLINIC",
    "categoryCode": "COMTYC",
    "licenseStatus": "ACTIVE",
    "inService": true,
    "licenseNumber": "550003827",
    "licenseEffectiveDate": "03/29/2025",
    "licenseExpirationDate": "03/28/2026",
    "dataDate": "10/18/2025",
    "capacity": 0,
    "address": "8627 ATLANTIC AVENUE",
    "city": "SOUTH GATE",
    "zip": "90280",
    "county": "LOS ANGELES",
    "phone": "(323) 895-3147",
    "lat": 33.95457,
    "lng": -118.184112
  },
  {
    "id": "630025719",
    "name": "CALI MED CORPORATION",
    "npi": null,
    "hcaiId": "306190791",
    "businessName": "CALI MED CORPORATION",
    "contactEmail": "YERYCA.RA@GMAIL.COM",
    "categoryName": "PRIMARY CARE CLINIC",
    "categoryCode": "COMTYC",
    "licenseStatus": "ACTIVE",
    "inService": true,
    "licenseNumber": "550008148",
    "licenseEffectiveDate": "08/31/2024",
    "licenseExpirationDate": "08/30/2025",
    "dataDate": "10/18/2025",
    "capacity": 0,
    "address": "3314 FIRESTONE BLVD",
    "city": "SOUTH GATE",
    "zip": "90280",
    "county": "LOS ANGELES",
    "phone": "(213) 338-8387",
    "lat": 33.95453235,
    "lng": -118.2105279
  },
  {
    "id": "960002617",
    "name": "COMPLETE CARE HEALTH CENTER - SOUTH GATE",
    "npi": "1811397888",
    "hcaiId": "306196892",
    "businessName": "COMPLETE CARE COMMUNITY HEALTH CENTER, INC.",
    "contactEmail": "INFO@CCCHCLINIC.COM",
    "categoryName": "PRIMARY CARE CLINIC",
    "categoryCode": "COMTYC",
    "licenseStatus": "ACTIVE",
    "inService": true,
    "licenseNumber": "960001266",
    "licenseEffectiveDate": "01/22/2025",
    "licenseExpirationDate": "01/21/2026",
    "dataDate": "10/18/2025",
    "capacity": 0,
    "address": "5831 FIRESTONE BLVD, SUITE E",
    "city": "SOUTH GATE",
    "zip": "90280",
    "county": "LOS ANGELES",
    "phone": "(562) 806-7545",
    "lat": 33.950592,
    "lng": -118.1632365
  },
  {
    "id": "940000078",
    "name": "GREENFIELD CARE CENTER OF SOUTH GATE",
    "npi": "1790772465",
    "hcaiId": "206190764",
    "businessName": "GREENFIELD CARE CENTER OF SOUTH GATE, LLC",
    "contactEmail": "ADMIN@GCCSOUTHGATE.COM",
    "categoryName": "SKILLED NURSING FACILITY",
    "categoryCode": "SNF",
    "licenseStatus": "ACTIVE",
    "inService": true,
    "licenseNumber": "940000160",
    "licenseEffectiveDate": "11/16/2024",
    "licenseExpirationDate": "11/15/2025",
    "dataDate": "10/18/2025",
    "capacity": 99,
    "address": "8455 STATE ST",
    "city": "SOUTH GATE",
    "zip": "90280",
    "county": "LOS ANGELES",
    "phone": "(323) 564-7761",
    "lat": 33.959034,
    "lng": -118.211913
  },
  {
    "id": "630017881",
    "name": "LIMAR ADULT DAY HEALTH CARE CENTER",
    "npi": null,
    "hcaiId": null,
    "businessName": "LIMAR ADULT DAY HEALTH CARE CENTER, INC.",
    "contactEmail": "LIORBARKODAR@GMAIL.COM",
    "categoryName": "ADULT DAY HEALTH CARE",
    "categoryCode": "ADHC",
    "licenseStatus": "ACTIVE",
    "inService": true,
    "licenseNumber": "550005760",
    "licenseEffectiveDate": "09/14/2025",
    "licenseExpirationDate": "09/13/2026",
    "dataDate": "10/18/2025",
    "capacity": 0,
    "address": "2809 TWEEDY BLVD, UNIT B",
    "city": "SOUTH GATE",
    "zip": "90280",
    "county": "LOS ANGELES",
    "phone": "(424) 343-1391",
    "lat": 33.946182,
    "lng": -118.2210615
  },
  {
    "id": "630026822",
    "name": "SCHOOL BASED BH SERVICES- SOUTH GATE",
    "npi": "1902267479",
    "hcaiId": null,
    "businessName": "ALTAMED HEALTH SERVICES CORPORATION",
    "contactEmail": null,
    "categoryName": "PRIMARY CARE CLINIC",
    "categoryCode": "COMTYC",
    "licenseStatus": "ACTIVE",
    "inService": true,
    "licenseNumber": "550003827",
    "licenseEffectiveDate": "03/29/2025",
    "licenseExpirationDate": "03/28/2026",
    "dataDate": "10/18/2025",
    "capacity": 0,
    "address": "8627 ATLANTIC AVE",
    "city": "SOUTH GATE",
    "zip": "90280",
    "county": "LOS ANGELES",
    "phone": null,
    "lat": 33.95457,
    "lng": -118.184112
  },
  {
    "id": "630026914",
    "name": "SCHOOL BASED BH SERVICES- SOUTH GATE",
    "npi": "1902267479",
    "hcaiId": null,
    "businessName": "ALTAMED HEALTH SERVICES CORPORATION",
    "contactEmail": null,
    "categoryName": "PRIMARY CARE CLINIC",
    "categoryCode": "COMTYC",
    "licenseStatus": "ACTIVE",
    "inService": true,
    "licenseNumber": "550003827",
    "licenseEffectiveDate": "03/29/2025",
    "licenseExpirationDate": "03/28/2026",
    "dataDate": "10/18/2025",
    "capacity": 0,
    "address": "3351 FIRESTONE BLVD",
    "city": "SOUTH GATE",
    "zip": "90280",
    "county": "LOS ANGELES",
    "phone": null,
    "lat": 33.95472154,
    "lng": -118.2098352
  },
  {
    "id": "630026915",
    "name": "SCHOOL BASED BH SERVICES- SOUTH GATE",
    "npi": "1902267479",
    "hcaiId": null,
    "businessName": "ALTAMED HEALTH SERVICES CORPORATION",
    "contactEmail": null,
    "categoryName": "PRIMARY CARE CLINIC",
    "categoryCode": "COMTYC",
    "licenseStatus": "ACTIVE",
    "inService": true,
    "licenseNumber": "550003827",
    "licenseEffectiveDate": "03/29/2025",
    "licenseExpirationDate": "03/28/2026",
    "dataDate": "10/18/2025",
    "capacity": 0,
    "address": "2560 TWEEDY BLVD",
    "city": "SOUTH GATE",
    "zip": "90280",
    "county": "LOS ANGELES",
    "phone": null,
    "lat": 33.945624,
    "lng": -118.225809
  },
  {
    "id": "630011834",
    "name": "SOUTH GATE AMBULATORY SURGERY CENTER, LLC",
    "npi": "1477680684",
    "hcaiId": null,
    "businessName": null,
    "contactEmail": null,
    "categoryName": "SURGICAL CLINIC",
    "categoryCode": "ASC",
    "licenseStatus": null,
    "inService": null,
    "licenseNumber": null,
    "licenseEffectiveDate": null,
    "licenseExpirationDate": null,
    "dataDate": "10/18/2025",
    "capacity": 0,
    "address": "3425 FIRESTONE BLVD",
    "city": "SOUTH GATE",
    "zip": "90280",
    "county": "LOS ANGELES",
    "phone": "(323) 566-1183",
    "lat": 33.954651,
    "lng": -118.2077505
  },
  {
    "id": "630013861",
    "name": "SOUTH GATE COMMUNITY CLINIC",
    "npi": null,
    "hcaiId": "306197779",
    "businessName": "YEHOWA MEDICAL SERVICES",
    "contactEmail": "THOMAS@YMEDICAL.ORG",
    "categoryName": "PRIMARY CARE CLINIC",
    "categoryCode": "COMTYC",
    "licenseStatus": "ACTIVE",
    "inService": true,
    "licenseNumber": "550002162",
    "licenseEffectiveDate": "12/27/2024",
    "licenseExpirationDate": "12/26/2025",
    "dataDate": "10/18/2025",
    "capacity": 0,
    "address": "5720 IMPERIAL HWY, UNIT N-O",
    "city": "SOUTH GATE",
    "zip": "90280",
    "county": "LOS ANGELES",
    "phone": "(526) 250-3100",
    "lat": 33.929145,
    "lng": -118.1690415
  },
  {
    "id": "630016282",
    "name": "SOUTH GATE DIALYSIS",
    "npi": "1184004137",
    "hcaiId": "306198488",
    "businessName": "OLIVE DIALYSIS, LLC",
    "contactEmail": "CAL_C@DAVITA.COM",
    "categoryName": "CHRONIC DIALYSIS CLINIC",
    "categoryCode": "ESRD/CDC",
    "licenseStatus": "ACTIVE",
    "inService": true,
    "licenseNumber": "550003602",
    "licenseEffectiveDate": "07/12/2025",
    "licenseExpirationDate": "07/11/2026",
    "dataDate": "10/18/2025",
    "capacity": 27,
    "address": "9848 ATLANTIC AVENUE",
    "city": "SOUTH GATE",
    "zip": "90280",
    "county": "LOS ANGELES",
    "phone": "(323) 569-1035",
    "lat": 33.94209957,
    "lng": -118.1812638
  },
  {
    "id": "960001851",
    "name": "SOUTH GATE P.T. AND SPORTS MEDICINE CENTER",
    "npi": null,
    "hcaiId": null,
    "businessName": null,
    "contactEmail": null,
    "categoryName": "REHABILITATION CLINIC",
    "categoryCode": "OPT/SP",
    "licenseStatus": null,
    "inService": null,
    "licenseNumber": null,
    "licenseEffectiveDate": null,
    "licenseExpirationDate": null,
    "dataDate": "10/18/2025",
    "capacity": 0,
    "address": "4067 TWEEDY BLVD",
    "city": "SOUTH GATE",
    "zip": "90280",
    "county": "LOS ANGELES",
    "phone": "(323) 563-1160",
    "lat": 33.943923,
    "lng": -118.2004335
  },
  {
    "id": "630022170",
    "name": "VIA CARE COMMUNITY HEALTH CENTER",
    "npi": null,
    "hcaiId": null,
    "businessName": "VIA CARE COMMUNITY HEALTH CENTER, INC.",
    "contactEmail": "FTENORIO@VIACARELA.ORG",
    "categoryName": "PRIMARY CARE CLINIC",
    "categoryCode": "COMTYC",
    "licenseStatus": "ACTIVE",
    "inService": true,
    "licenseNumber": "550008582",
    "licenseEffectiveDate": "06/23/2025",
    "licenseExpirationDate": "06/22/2026",
    "dataDate": "10/18/2025",
    "capacity": 0,
    "address": "4476 TWEEDY BLVD, SUITE B",
    "city": "SOUTH GATE",
    "zip": "90280",
    "county": "LOS ANGELES",
    "phone": "(323) 268-9191",
    "lat": 33.942492,
    "lng": -118.1931345
  },
  {
    "id": "630028155",
    "name": "YMS HEALTH CENTER",
    "npi": null,
    "hcaiId": null,
    "businessName": "YEHOWA MEDICAL SERVICES",
    "contactEmail": null,
    "categoryName": "PRIMARY CARE CLINIC",
    "categoryCode": "COMTYC",
    "licenseStatus": "ACTIVE",
    "inService": true,
    "licenseNumber": "550002162",
    "licenseEffectiveDate": "12/27/2024",
    "licenseExpirationDate": "12/26/2025",
    "dataDate": "10/18/2025",
    "capacity": 0,
    "address": "5720 IMPERIAL HWY, SUITE M",
    "city": "SOUTH GATE",
    "zip": "90280",
    "county": "LOS ANGELES",
    "phone": null,
    "lat": 33.92934043,
    "lng": -118.1689665
  }
]