[
  {
    "id": "630015916",
    "name": "ADMIRALTY SURGERY CENTER",
    "npi": null,
    "hcaiId": null,
    "businessName": null,
    "contactEmail": null,
    "categoryName": "SURGICAL CLINIC",
    "categoryCode": "ASC",
    "licenseStatus": null,
    "inService": null,
    "licenseNumber": null,
    "licenseEffectiveDate": null,
    "licenseExpirationDate": null,
    "dataDate": "10/18/2025",
    "capacity": 0,
    "address": "4640 ADMIRALTY WAY, SUITE 718 B",
    "city": "MARINA DEL REY",
    "zip": "90292",
    "county": "LOS ANGELES",
    "phone": null,
    "lat": 33.98166,
    "lng": -118.441051
  },
  {
    "id": "630013299",
    "name": "BRIGHTSTAR CARE OF SANTA MONICA / MARINA DEL REY",
    "npi": null,
    "hcaiId": "406197776",
    "businessName": "PCHUNG CORPORATION",
    "contactEmail": "LOSANGELES@BRIGHTSTARCARE.COM",
    "categoryName": "HOME HEALTH AGENCY",
    "categoryCode": "HHA",
    "licenseStatus": "ACTIVE",
    "inService": true,
    "licenseNumber": "550002019",
    "licenseEffectiveDate": "07/13/2022",
    "licenseExpirationDate": "07/12/2023",
    "dataDate": "10/18/2025",
    "capacity": 0,
    "address": "4333 ADMIRALTY WAY, SUITE 9",
    "city": "MARINA DEL REY",
    "zip": "90292",
    "county": "LOS ANGELES",
    "phone": "(310) 944-6985",
    "lat": 33.9852148,
    "lng": -118.4530893
  },
  {
    "id": "630014453",
    "name": "CARING LIKE FAMILY HOSPICE",
    "npi": "1659788958",
    "hcaiId": "406197972",
    "businessName": "CARING LIKE FAMILY HOSPICE",
    "contactEmail": "EYELA@LIKEFAMILYHN.COM",
    "categoryName": "HOSPICE",
    "categoryCode": "HOSPICE",
    "licenseStatus": "ACTIVE",
    "inService": true,
    "licenseNumber": "550002895",
    "licenseEffectiveDate": "11/25/2022",
    "licenseExpirationDate": "11/24/2024",
    "dataDate": "10/18/2025",
    "capacity": 0,
    "address": "4223 GLENCOE AVE, SUITE B-109",
    "city": "MARINA DEL REY",
    "zip": "90292",
    "county": "LOS ANGELES",
    "phone": "(310) 395-4788",
    "lat": 33.987411,
    "lng": -118.4419035
  },
  {
    "id": "930000044",
    "name": "CEDARS-SINAI MARINA HOSPITAL",
    "npi": "1942269725",
    "hcaiId": "106190500",
    "businessName": "CEDARS-SINAI MARINA HOSPITAL",
    "contactEmail": "JOANNE.LAGUNA@CSHS.ORG",
    "categoryName": "GENERAL ACUTE CARE HOSPITAL",
    "categoryCode": "GACH",
    "licenseStatus": "ACTIVE",
    "inService": true,
    "licenseNumber": "930000096",
    "licenseEffectiveDate": "11/19/2024",
    "licenseExpirationDate": "11/18/2025",
    "dataDate": "10/18/2025",
    "capacity": 103,
    "address": "4650 LINCOLN BLVD",
    "city": "MARINA DEL REY",
    "zip": "90292",
    "county": "LOS ANGELES",
    "phone": "(310) 448-5261",
    "lat": 33.981741,
    "lng": -118.4400315
  },
  {
    "id": "630024587",
    "name": "DIAGNOSTIC AND INTERVENTIONAL SURGICAL CENTER",
    "npi": null,
    "hcaiId": null,
    "businessName": null,
    "contactEmail": "AKARAPETYAN@LASPINEORTHO.COM",
    "categoryName": "SURGICAL CLINIC",
    "categoryCode": "ASC",
    "licenseStatus": null,
    "inService": null,
    "licenseNumber": null,
    "licenseEffectiveDate": null,
    "licenseExpirationDate": null,
    "dataDate": "10/18/2025",
    "capacity": 0,
    "address": "13160 MINDANAO WAY, SUITE 150",
    "city": "MARINA DEL REY",
    "zip": "90292",
    "county": "LOS ANGELES",
    "phone": "(310) 574-0440",
    "lat": 33.984369,
    "lng": -118.436787
  },
  {
    "id": "630019504",
    "name": "HAPPY MOMENTS ADHC",
    "npi": null,
    "hcaiId": null,
    "businessName": "HAPPY MOMENTS ADHC",
    "contactEmail": "HAPPYMOMENTSADHC@YAHOO.COM",
    "categoryName": "ADULT DAY HEALTH CARE",
    "categoryCode": "ADHC",
    "licenseStatus": "ACTIVE",
    "inService": true,
    "licenseNumber": "550006189",
    "licenseEffectiveDate": "04/19/2025",
    "licenseExpirationDate": "04/18/2026",
    "dataDate": "10/18/2025",
    "capacity": 0,
    "address": "2929 WASHINGTON BLVD",
    "city": "MARINA DEL REY",
    "zip": "90292",
    "county": "LOS ANGELES",
    "phone": "(818) 731-4021",
    "lat": 33.988788,
    "lng": -118.450701
  },
  {
    "id": "930000931",
    "name": "MARINA DEL REY HOSPITAL D/P APH",
    "npi": null,
    "hcaiId": null,
    "businessName": null,
    "contactEmail": null,
    "categoryName": "ACUTE PSYCHIATRIC HOSPITAL",
    "categoryCode": "APH",
    "licenseStatus": null,
    "inService": null,
    "licenseNumber": null,
    "licenseEffectiveDate": null,
    "licenseExpirationDate": null,
    "dataDate": "10/18/2025",
    "capacity": 0,
    "address": "4650 LINCOLN BLVD",
    "city": "MARINA DEL REY",
    "zip": "90292",
    "county": "LOS ANGELES",
    "phone": "(310) 823-8911",
    "lat": 33.981741,
    "lng": -118.4400315
  },
  {
    "id": "630027610",
    "name": "REMEDY SURGICAL CENTER",
    "npi": null,
    "hcaiId": null,
    "businessName": null,
    "contactEmail": "JESSICA@ADVANTAGEHEALTHCARESYSTEMS.ORG",
    "categoryName": "SURGICAL CLINIC",
    "categoryCode": "ASC",
    "licenseStatus": null,
    "inService": null,
    "licenseNumber": null,
    "licenseEffectiveDate": null,
    "licenseExpirationDate": null,
    "dataDate": "10/18/2025",
    "capacity": 0,
    "address": "13160 MINDANAO WAY, SUITE 200B",
    "city": "MARINA DEL REY",
    "zip": "90292",
    "county": "LOS ANGELES",
    "phone": "(714) 747-1253",
    "lat": 33.984361,
    "lng": -118.436802
  }
]