[
  {
    "id": "630027832",
    "name": "MODMD, A PROFESSIONAL CORPORATION",
    "npi": null,
    "hcaiId": null,
    "businessName": "MODMD, A PROFESSIONAL CORPORATION",
    "contactEmail": "LISA@MODMD.COM",
    "categoryName": "HOME HEALTH AGENCY",
    "categoryCode": "HHA",
    "licenseStatus": "ACTIVE",
    "inService": true,
    "licenseNumber": "550009949",
    "licenseEffectiveDate": "09/12/2025",
    "licenseExpirationDate": "03/11/2026",
    "dataDate": "10/18/2025",
    "capacity": 0,
    "address": "208-B LINCOLN BLVD",
    "city": "VENICE",
    "zip": "90291",
    "county": "LOS ANGELES",
    "phone": "(310) 210-7681",
    "lat": 34.0023708,
    "lng": -118.4696808
  },
  {
    "id": "630011929",
    "name": "OCEAN PARK SURGICAL CENTER, INC.",
    "npi": "1497844625",
    "hcaiId": null,
    "businessName": null,
    "contactEmail": null,
    "categoryName": "SURGICAL CLINIC",
    "categoryCode": "ASC",
    "licenseStatus": null,
    "inService": null,
    "licenseNumber": null,
    "licenseEffectiveDate": null,
    "licenseExpirationDate": null,
    "dataDate": "10/18/2025",
    "capacity": 0,
    "address": "322 LINCOLN BLVD",
    "city": "VENICE",
    "zip": "90291",
    "county": "LOS ANGELES",
    "phone": "(310) 399-8168",
    "lat": 34.001055,
    "lng": -118.466865
  },
  {
    "id": "060002134",
    "name": "OCEANVIEW ADULT DAY HEALTH CARE CENTER",
    "npi": null,
    "hcaiId": null,
    "businessName": "OCEANVIEW ADULT DAY HEALTH CARE CENTER",
    "contactEmail": "ROBERT.MOYSEYEV@GMAIL.COM",
    "categoryName": "ADULT DAY HEALTH CARE",
    "categoryCode": "ADHC",
    "licenseStatus": "ACTIVE",
    "inService": true,
    "licenseNumber": "060000871",
    "licenseEffectiveDate": "05/16/2025",
    "licenseExpirationDate": "05/15/2026",
    "dataDate": "10/18/2025",
    "capacity": 0,
    "address": "1500 MAIN ST",
    "city": "VENICE",
    "zip": "90291",
    "county": "LOS ANGELES",
    "phone": "(310) 581-6700",
    "lat": 33.988698,
    "lng": -118.471302
  },
  {
    "id": "960000251",
    "name": "VENICE FAMILY CLINIC",
    "npi": null,
    "hcaiId": "306190817",
    "businessName": "VENICE FAMILY CLINIC",
    "contactEmail": "KARINAFRANCISCO@MEDNET.UCLA.EDU",
    "categoryName": "PRIMARY CARE CLINIC",
    "categoryCode": "COMTYC",
    "licenseStatus": "ACTIVE",
    "inService": true,
    "licenseNumber": "960000169",
    "licenseEffectiveDate": "11/01/2025",
    "licenseExpirationDate": "10/31/2026",
    "dataDate": "10/18/2025",
    "capacity": 0,
    "address": "604 ROSE AVE",
    "city": "VENICE",
    "zip": "90291",
    "county": "LOS ANGELES",
    "phone": "(310) 664-7923",
    "lat": 33.999147,
    "lng": -118.471653
  },
  {
    "id": "630017379",
    "name": "VENICE FAMILY CLINIC - BILLâ€™S CLINIC AT SAFE PLACE FOR YOUTH",
    "npi": null,
    "hcaiId": null,
    "businessName": "VENICE FAMILY CLINIC",
    "contactEmail": "VFCINFO@MEDNET.UCLA.EDU",
    "categoryName": "PRIMARY CARE CLINIC",
    "categoryCode": "COMTYC",
    "licenseStatus": "ACTIVE",
    "inService": true,
    "licenseNumber": "960000169",
    "licenseEffectiveDate": "11/01/2025",
    "licenseExpirationDate": "10/31/2026",
    "dataDate": "10/18/2025",
    "capacity": 0,
    "address": "2469 LINCOLN BLVD",
    "city": "VENICE",
    "zip": "90291",
    "county": "LOS ANGELES",
    "phone": "(310) 392-8636",
    "lat": 33.992802,
    "lng": -118.450692
  },
  {
    "id": "630026896",
    "name": "VENICE FAMILY CLINIC - DR. TERRI BREHOVE MOBILE CLINIC",
    "npi": null,
    "hcaiId": null,
    "businessName": "VENICE FAMILY CLINIC",
    "contactEmail": "VFCINFO@MEDNET.UCLA.EDU",
    "categoryName": "PRIMARY CARE CLINIC",
    "categoryCode": "COMTYC",
    "licenseStatus": "ACTIVE",
    "inService": true,
    "licenseNumber": "960000169",
    "licenseEffectiveDate": "11/01/2025",
    "licenseExpirationDate": "10/31/2026",
    "dataDate": "10/18/2025",
    "capacity": 0,
    "address": "100 SUNSET AVE",
    "city": "VENICE",
    "zip": "90291",
    "county": "LOS ANGELES",
    "phone": "(310) 392-8636",
    "lat": 33.993441,
    "lng": -118.476072
  },
  {
    "id": "630020412",
    "name": "VENICE FAMILY CLINIC - JUDY & BERNARD BRISKIN CENTER (COMMON GROUND)",
    "npi": null,
    "hcaiId": null,
    "businessName": "VENICE FAMILY CLINIC",
    "contactEmail": "VFCINFO@MEDNET.UCLA.EDU",
    "categoryName": "PRIMARY CARE CLINIC",
    "categoryCode": "FQHC/COMTYC",
    "licenseStatus": "ACTIVE",
    "inService": true,
    "licenseNumber": "960000169",
    "licenseEffectiveDate": "11/01/2025",
    "licenseExpirationDate": "10/31/2026",
    "dataDate": "10/18/2025",
    "capacity": 0,
    "address": "622 ROSE AVE",
    "city": "VENICE",
    "zip": "90291",
    "county": "LOS ANGELES",
    "phone": "(310) 392-8636",
    "lat": 33.999399,
    "lng": -118.471212
  },
  {
    "id": "630026478",
    "name": "VENICE FAMILY CLINIC - MEYER OUTREACH VAN",
    "npi": null,
    "hcaiId": null,
    "businessName": "VENICE FAMILY CLINIC",
    "contactEmail": null,
    "categoryName": "PRIMARY CARE CLINIC",
    "categoryCode": "COMTYC",
    "licenseStatus": "ACTIVE",
    "inService": true,
    "licenseNumber": "960000169",
    "licenseEffectiveDate": "11/01/2025",
    "licenseExpirationDate": "10/31/2026",
    "dataDate": "10/18/2025",
    "capacity": 0,
    "address": "604 ROSE AVE",
    "city": "VENICE",
    "zip": "90291",
    "county": "LOS ANGELES",
    "phone": null,
    "lat": 33.999147,
    "lng": -118.471653
  },
  {
    "id": "630027683",
    "name": "VENICE FAMILY CLINIC - MOBILE CLINIC #3",
    "npi": null,
    "hcaiId": null,
    "businessName": "VENICE FAMILY CLINIC",
    "contactEmail": null,
    "categoryName": "PRIMARY CARE CLINIC",
    "categoryCode": "COMTYC",
    "licenseStatus": "ACTIVE",
    "inService": true,
    "licenseNumber": "960000169",
    "licenseEffectiveDate": "11/01/2025",
    "licenseExpirationDate": "10/31/2026",
    "dataDate": "10/18/2025",
    "capacity": 0,
    "address": "622 ROSE AVE",
    "city": "VENICE",
    "zip": "90291",
    "county": "LOS ANGELES",
    "phone": null,
    "lat": 33.99931101,
    "lng": -118.47122
  },
  {
    "id": "960001994",
    "name": "VENICE FAMILY CLINIC - ROBERT LEVINE FAM. HEALTH",
    "npi": null,
    "hcaiId": "306194818",
    "businessName": "VENICE FAMILY CLINIC",
    "contactEmail": "KARINAFRANCISCO@MEDNET.UCLA.EDU",
    "categoryName": "PRIMARY CARE CLINIC",
    "categoryCode": "COMTYC",
    "licenseStatus": "ACTIVE",
    "inService": true,
    "licenseNumber": "960000959",
    "licenseEffectiveDate": "11/01/2025",
    "licenseExpirationDate": "10/31/2026",
    "dataDate": "10/18/2025",
    "capacity": 0,
    "address": "905 VENICE BLVD",
    "city": "VENICE",
    "zip": "90291",
    "county": "LOS ANGELES",
    "phone": "(310) 664-7923",
    "lat": 33.993504,
    "lng": -118.4543505
  }
]