[
  {
    "id": "930000799",
    "name": "IMPERIAL DIALYSIS",
    "npi": "1790759744",
    "hcaiId": "306196683",
    "businessName": "DVA HEALTHCARE RENAL CARE, INC.",
    "contactEmail": "CAL_C@DAVITA.COM",
    "categoryName": "CHRONIC DIALYSIS CLINIC",
    "categoryCode": "ESRD/CDC",
    "licenseStatus": "ACTIVE",
    "inService": true,
    "licenseNumber": "930000427",
    "licenseEffectiveDate": "11/13/2024",
    "licenseExpirationDate": "11/12/2025",
    "dataDate": "10/18/2025",
    "capacity": 33,
    "address": "2738 W IMPERIAL HWY",
    "city": "INGLEWOOD",
    "zip": "90303",
    "county": "LOS ANGELES",
    "phone": "(323) 779-5399",
    "lat": 33.93083109,
    "lng": -118.3235088
  },
  {
    "id": "060001926",
    "name": "MORNING-SIDE ADULT DAY HEALTH CARE CENTER",
    "npi": null,
    "hcaiId": null,
    "businessName": "LUCAS HEALTH PARTNERS, LLC",
    "contactEmail": "MORNINGSIDECBAS@GMAIL.COM",
    "categoryName": "ADULT DAY HEALTH CARE",
    "categoryCode": "ADHC",
    "licenseStatus": "ACTIVE",
    "inService": true,
    "licenseNumber": "060000743",
    "licenseEffectiveDate": "11/27/2024",
    "licenseExpirationDate": "11/26/2025",
    "dataDate": "10/18/2025",
    "capacity": 0,
    "address": "11225 CRENSHAW BLVD",
    "city": "INGLEWOOD",
    "zip": "90303",
    "county": "LOS ANGELES",
    "phone": "(310) 412-0200",
    "lat": 33.932142,
    "lng": -118.3268295
  },
  {
    "id": "980001840",
    "name": "PRECAUTIONARY HOME HEALTH SERVICES, INC.",
    "npi": "1578614087",
    "hcaiId": "406194987",
    "businessName": "PRECAUTIONARY HOME HEALTH SERVICES, INC.",
    "contactEmail": "SHIRLEY_MCCRANEY@SBCGLOBAL.NET",
    "categoryName": "HOME HEALTH AGENCY",
    "categoryCode": "HHA",
    "licenseStatus": "ACTIVE",
    "inService": true,
    "licenseNumber": "980001176",
    "licenseEffectiveDate": "12/01/2024",
    "licenseExpirationDate": "11/30/2025",
    "dataDate": "10/18/2025",
    "capacity": 0,
    "address": "11011 CRENSHAW BLVD, SUITE 203",
    "city": "INGLEWOOD",
    "zip": "90303",
    "county": "LOS ANGELES",
    "phone": "(323) 241-1150",
    "lat": 33.9354,
    "lng": -118.326789
  }
]