[
  {
    "id": "930001433",
    "name": "AIRPORT SUNRISE DIALYSIS",
    "npi": "1902869035",
    "hcaiId": "306197928",
    "businessName": "TOTAL RENAL CARE, INC.",
    "contactEmail": "CAL_C@DAVITA.COM",
    "categoryName": "CHRONIC DIALYSIS CLINIC",
    "categoryCode": "ESRD/CDC",
    "licenseStatus": "ACTIVE",
    "inService": true,
    "licenseNumber": "930000795",
    "licenseEffectiveDate": "05/10/2025",
    "licenseExpirationDate": "05/09/2026",
    "dataDate": "10/18/2025",
    "capacity": 58,
    "address": "11300 HAWTHORNE BLVD",
    "city": "INGLEWOOD",
    "zip": "90304",
    "county": "LOS ANGELES",
    "phone": "(310) 680-0601",
    "lat": 33.93198956,
    "lng": -118.3524311
  },
  {
    "id": "960000175",
    "name": "ELDORADO COMMUNITY SERVICE CENTER",
    "npi": null,
    "hcaiId": "306191169",
    "businessName": "EL DORADO COMMUNITY SERVICE CENTER",
    "contactEmail": "INFO@AMERICANHEALTHSERVICES.ORG",
    "categoryName": "PRIMARY CARE CLINIC",
    "categoryCode": "COMTYC",
    "licenseStatus": "ACTIVE",
    "inService": true,
    "licenseNumber": "960000232",
    "licenseEffectiveDate": "11/24/2024",
    "licenseExpirationDate": "11/23/2025",
    "dataDate": "10/18/2025",
    "capacity": 0,
    "address": "4450 W CENTURY BLVD",
    "city": "INGLEWOOD",
    "zip": "90304",
    "county": "LOS ANGELES",
    "phone": "(310) 671-0555",
    "lat": 33.945156,
    "lng": -118.3540005
  },
  {
    "id": "630017264",
    "name": "T.H.E. HEALTH AND WELLNESS CENTERS AT HAWTHORNE",
    "npi": null,
    "hcaiId": null,
    "businessName": "THE CLINIC, INC.",
    "contactEmail": null,
    "categoryName": "PRIMARY CARE CLINIC",
    "categoryCode": "COMTYC",
    "licenseStatus": "ACTIVE",
    "inService": true,
    "licenseNumber": "960001020",
    "licenseEffectiveDate": "11/08/2025",
    "licenseExpirationDate": "11/07/2026",
    "dataDate": "10/18/2025",
    "capacity": 0,
    "address": "10321 HAWTHORNE BLVD",
    "city": "INGLEWOOD",
    "zip": "90304",
    "county": "LOS ANGELES",
    "phone": "(323) 730-1920",
    "lat": 33.942042,
    "lng": -118.3531455
  },
  {
    "id": "630017322",
    "name": "T.H.E. HEALTH AND WELLNESS CENTERS AT LENNOX",
    "npi": null,
    "hcaiId": null,
    "businessName": "THE CLINIC, INC.",
    "contactEmail": null,
    "categoryName": "PRIMARY CARE CLINIC",
    "categoryCode": "COMTYC",
    "licenseStatus": "ACTIVE",
    "inService": true,
    "licenseNumber": "960001020",
    "licenseEffectiveDate": "11/08/2025",
    "licenseExpirationDate": "11/07/2026",
    "dataDate": "10/18/2025",
    "capacity": 0,
    "address": "10223 FIRMONA AVE",
    "city": "LENNOX",
    "zip": "90304",
    "county": "LOS ANGELES",
    "phone": "(323) 730-1920",
    "lat": 33.943014,
    "lng": -118.3571415
  }
]