[
  {
    "id": "630016706",
    "name": "CENTRAL NEIGHBORHOOD HEALTH FOUNDATION INGLEWOOD CLINIC",
    "npi": null,
    "hcaiId": "306198294",
    "businessName": "H STREET CLINIC, INC.",
    "contactEmail": null,
    "categoryName": "PRIMARY CARE CLINIC",
    "categoryCode": "COMTYC",
    "licenseStatus": "ACTIVE",
    "inService": true,
    "licenseNumber": "550000837",
    "licenseEffectiveDate": "12/09/2024",
    "licenseExpirationDate": "12/08/2025",
    "dataDate": "10/18/2025",
    "capacity": 0,
    "address": "2710 WEST MANCHESTER BLVD.",
    "city": "INGLEWOOD",
    "zip": "90305",
    "county": "LOS ANGELES",
    "phone": null,
    "lat": 33.95984707,
    "lng": -118.3233865
  },
  {
    "id": "630013767",
    "name": "OLIVE HOME HEALTH CENTER, INC.",
    "npi": "1346523784",
    "hcaiId": "406197923",
    "businessName": "OLIVE HOME HEALTH CENTER, INC.",
    "contactEmail": "OLIVEHHINC@YAHOO.COM",
    "categoryName": "HOME HEALTH AGENCY",
    "categoryCode": "HHA",
    "licenseStatus": "ACTIVE",
    "inService": true,
    "licenseNumber": "550002519",
    "licenseEffectiveDate": "12/24/2024",
    "licenseExpirationDate": "12/23/2025",
    "dataDate": "10/18/2025",
    "capacity": 0,
    "address": "2222 W MANCHESTER BLVD, SUITE B",
    "city": "INGLEWOOD",
    "zip": "90305",
    "county": "LOS ANGELES",
    "phone": "(323) 751-7000",
    "lat": 33.9597,
    "lng": -118.3186575
  },
  {
    "id": "960002358",
    "name": "PATE & INGRAM HOME I",
    "npi": "1982812194",
    "hcaiId": null,
    "businessName": "PATE & INGRAM HOMES",
    "contactEmail": "RENITA.CAMPBELL@GMAIL.COM",
    "categoryName": "INTERMEDIATE CARE FACILITY-DD/H/N/CN/IID",
    "categoryCode": "ICFDDH",
    "licenseStatus": "ACTIVE",
    "inService": true,
    "licenseNumber": "960001082",
    "licenseEffectiveDate": "01/28/2025",
    "licenseExpirationDate": "01/27/2026",
    "dataDate": "10/18/2025",
    "capacity": 6,
    "address": "9613 S 11TH AVE",
    "city": "INGLEWOOD",
    "zip": "90305",
    "county": "LOS ANGELES",
    "phone": "(310) 330-0097",
    "lat": 33.948657,
    "lng": -118.329012
  }
]