[
  {
    "id": "630026051",
    "name": "BEBU HOME HEALTH INC",
    "npi": null,
    "hcaiId": null,
    "businessName": "BEBU HOME HEALTH INC",
    "contactEmail": "BEBUHOMEHEALTH@GMAIL.COM",
    "categoryName": "HOME HEALTH AGENCY",
    "categoryCode": "HHA",
    "licenseStatus": "ACTIVE",
    "inService": true,
    "licenseNumber": "550009272",
    "licenseEffectiveDate": "07/15/2024",
    "licenseExpirationDate": "01/14/2025",
    "dataDate": "10/18/2025",
    "capacity": 0,
    "address": "971 N LA BREA AVE",
    "city": "INGLEWOOD",
    "zip": "90302",
    "county": "LOS ANGELES",
    "phone": "(310) 910-0588",
    "lat": 33.97585576,
    "lng": -118.3577035
  },
  {
    "id": "910000065",
    "name": "CENTURY VILLA, INC.",
    "npi": "1659612992",
    "hcaiId": "206190106",
    "businessName": "CENTURY VILLA, INC.",
    "contactEmail": "GEORGE.SIREGAR@CENTURYVIL.COM",
    "categoryName": "SKILLED NURSING FACILITY",
    "categoryCode": "SNF",
    "licenseStatus": "ACTIVE",
    "inService": true,
    "licenseNumber": "910000021",
    "licenseEffectiveDate": "07/12/2025",
    "licenseExpirationDate": "07/11/2026",
    "dataDate": "10/18/2025",
    "capacity": 99,
    "address": "301 CENTINELA AVE",
    "city": "INGLEWOOD",
    "zip": "90302",
    "county": "LOS ANGELES",
    "phone": "(310) 672-1012",
    "lat": 33.970185,
    "lng": -118.34802
  },
  {
    "id": "630008261",
    "name": "DESTINY HOME HEALTH SERVICES, INC.",
    "npi": "1629094099",
    "hcaiId": "406196864",
    "businessName": "DESTINY HOME HEALTH SERVICES, INC.",
    "contactEmail": "DESTINYHOMEHEALTHSERVICE@GMAIL.COM",
    "categoryName": "HOME HEALTH AGENCY",
    "categoryCode": "HHA",
    "licenseStatus": "ACTIVE",
    "inService": true,
    "licenseNumber": "550000339",
    "licenseEffectiveDate": "11/01/2025",
    "licenseExpirationDate": "10/31/2026",
    "dataDate": "10/18/2025",
    "capacity": 0,
    "address": "410-412 E. FLORENCE AVENUE",
    "city": "INGLEWOOD",
    "zip": "90302",
    "county": "LOS ANGELES",
    "phone": "(310) 672-2555",
    "lat": 33.96771031,
    "lng": -118.3501999
  },
  {
    "id": "630012688",
    "name": "FRESENIUS MEDICAL CARE EUCALYPTUS",
    "npi": "1013195213",
    "hcaiId": "306197120",
    "businessName": "FRESENIUS MEDICAL CARE EUCALYPTUS, LLC",
    "contactEmail": "ANA.ZELAYA@FRESENIUSMEDICALCARE.COM",
    "categoryName": "CHRONIC DIALYSIS CLINIC",
    "categoryCode": "ESRD/CDC",
    "licenseStatus": "ACTIVE",
    "inService": true,
    "licenseNumber": "550001443",
    "licenseEffectiveDate": "11/05/2024",
    "licenseExpirationDate": "11/04/2025",
    "dataDate": "10/18/2025",
    "capacity": 26,
    "address": "610 NORTH EUCALYPTUS AVE.",
    "city": "INGLEWOOD",
    "zip": "90302",
    "county": "LOS ANGELES",
    "phone": "(310) 680-9101",
    "lat": 33.97027074,
    "lng": -118.3588074
  },
  {
    "id": "630008462",
    "name": "HANNAH HOME HEALTH, INC.",
    "npi": "1487835963",
    "hcaiId": "406196857",
    "businessName": "HANNAH HOME HEALTH INC.",
    "contactEmail": "HANNAHHOMEHEALTHINC@GMAIL.COM",
    "categoryName": "HOME HEALTH AGENCY",
    "categoryCode": "HHA",
    "licenseStatus": "ACTIVE",
    "inService": true,
    "licenseNumber": "550000315",
    "licenseEffectiveDate": "07/03/2025",
    "licenseExpirationDate": "07/02/2026",
    "dataDate": "10/18/2025",
    "capacity": 0,
    "address": "963 N LA BREA AVE, SUITE A",
    "city": "INGLEWOOD",
    "zip": "90302",
    "county": "LOS ANGELES",
    "phone": "(323) 936-6484",
    "lat": 33.97541999,
    "lng": -118.358391
  },
  {
    "id": "630021895",
    "name": "HANNAH HOSPICE AND PALIATIVE CARE, INC.",
    "npi": null,
    "hcaiId": "406195063",
    "businessName": "HANNAH HOSPICE AND PALITIVE CARE, INC.",
    "contactEmail": "HANNAHHOSPICEPC@GMAIL.COM",
    "categoryName": "HOSPICE",
    "categoryCode": "HOSPICE",
    "licenseStatus": "ACTIVE",
    "inService": true,
    "licenseNumber": "550007586",
    "licenseEffectiveDate": "11/13/2024",
    "licenseExpirationDate": "12/18/2025",
    "dataDate": "10/18/2025",
    "capacity": 0,
    "address": "963 N LA BREA AVE, SUITE B",
    "city": "INGLEWOOD",
    "zip": "90302",
    "county": "LOS ANGELES",
    "phone": "(323) 815-4059",
    "lat": 33.97541999,
    "lng": -118.358391
  },
  {
    "id": "630016747",
    "name": "MOBILE MEDICAL LA LLC",
    "npi": "1083061626",
    "hcaiId": "406190925",
    "businessName": "MOBILE MEDICAL LA LLC",
    "contactEmail": "JULIA.YETIMOV@MOBILEMEDIALLA.COM",
    "categoryName": "HOME HEALTH AGENCY",
    "categoryCode": "HHA",
    "licenseStatus": "ACTIVE",
    "inService": true,
    "licenseNumber": "550004059",
    "licenseEffectiveDate": "12/21/2024",
    "licenseExpirationDate": "12/20/2025",
    "dataDate": "10/18/2025",
    "capacity": 0,
    "address": "6818 SOUTH LA CLENEGA BLVD., SUITE 203",
    "city": "INGLEWOOD",
    "zip": "90302",
    "county": "LOS ANGELES",
    "phone": "(310) 507-4305",
    "lat": 33.976413,
    "lng": -118.369944
  },
  {
    "id": "630026374",
    "name": "PLANNED PARENTHOOD LOS ANGELES - INGLEWOOD CENTER",
    "npi": null,
    "hcaiId": "306190649",
    "businessName": "PLANNED PARENTHOOD LOS ANGELES",
    "contactEmail": "BRENDA.GUERREO@PP-LA.ORG",
    "categoryName": "PRIMARY CARE CLINIC",
    "categoryCode": "COMTYC",
    "licenseStatus": "ACTIVE",
    "inService": true,
    "licenseNumber": "550008067",
    "licenseEffectiveDate": "07/15/2025",
    "licenseExpirationDate": "07/14/2026",
    "dataDate": "10/18/2025",
    "capacity": 0,
    "address": "905 N LA BREA AVE",
    "city": "INGLEWOOD",
    "zip": "90302",
    "county": "LOS ANGELES",
    "phone": "(213) 284-3200",
    "lat": 33.97562357,
    "lng": -118.3576958
  },
  {
    "id": "910000022",
    "name": "PRIMROSE POST-ACUTE",
    "npi": "1740664762",
    "hcaiId": "206190147",
    "businessName": "KUMQUAT HOLDINGS, LLC",
    "contactEmail": "RILEY.BUSHMAN@PRIMROSECA.COM",
    "categoryName": "SKILLED NURSING FACILITY",
    "categoryCode": "SNF",
    "licenseStatus": "ACTIVE",
    "inService": true,
    "licenseNumber": "910000024",
    "licenseEffectiveDate": "12/01/2024",
    "licenseExpirationDate": "11/30/2025",
    "dataDate": "10/18/2025",
    "capacity": 69,
    "address": "515 CENTINELA AVE",
    "city": "INGLEWOOD",
    "zip": "90302",
    "county": "LOS ANGELES",
    "phone": "(310) 674-4500",
    "lat": 33.972975,
    "lng": -118.350171
  },
  {
    "id": "930000397",
    "name": "RAI - CENTINELA - INGLEWOOD",
    "npi": "1912071564",
    "hcaiId": "306191443",
    "businessName": "RAI CARE CENTERS OF SOUTHERN CALIFORNIA II, LLC",
    "contactEmail": "CLINIC7178@FMC-NA.COM",
    "categoryName": "CHRONIC DIALYSIS CLINIC",
    "categoryCode": "ESRD/CDC",
    "licenseStatus": "ACTIVE",
    "inService": true,
    "licenseNumber": "930000357",
    "licenseEffectiveDate": "11/01/2025",
    "licenseExpirationDate": "10/31/2026",
    "dataDate": "10/18/2025",
    "capacity": 25,
    "address": "1416 CENTINELA AVE",
    "city": "INGLEWOOD",
    "zip": "90302",
    "county": "LOS ANGELES",
    "phone": "(310) 673-6865",
    "lat": 33.97716,
    "lng": -118.364931
  },
  {
    "id": "630012993",
    "name": "SOTERIA HOME HEALTH AGENCY, INC.",
    "npi": null,
    "hcaiId": "406197638",
    "businessName": "SOTERIA HOME HEALTH AGENCY, INC.",
    "contactEmail": "SOTERIAHOMEHEALTH@GMAIL.COM",
    "categoryName": "HOME HEALTH AGENCY",
    "categoryCode": "HHA",
    "licenseStatus": "ACTIVE",
    "inService": true,
    "licenseNumber": "550001764",
    "licenseEffectiveDate": "11/18/2025",
    "licenseExpirationDate": "11/17/2026",
    "dataDate": "10/18/2025",
    "capacity": 0,
    "address": "959 N LA BREA AVE",
    "city": "INGLEWOOD",
    "zip": "90302",
    "county": "LOS ANGELES",
    "phone": "(310) 672-6200",
    "lat": 33.97595207,
    "lng": -118.3576854
  }
]