[
  {
    "id": "630011964",
    "name": "ALLWELL MEDICAL SERVICES, INC.",
    "npi": "1386887255",
    "hcaiId": "406197444",
    "businessName": "ALLWELL MEDICAL SERVICES, INC.",
    "contactEmail": "FIFEDIBA@ALLWELLMEDS.COM",
    "categoryName": "HOME HEALTH AGENCY",
    "categoryCode": "HHA",
    "licenseStatus": "ACTIVE",
    "inService": true,
    "licenseNumber": "550001299",
    "licenseEffectiveDate": "06/02/2025",
    "licenseExpirationDate": "06/01/2026",
    "dataDate": "10/18/2025",
    "capacity": 0,
    "address": "110 S LA BREA AVE, SUITE 280",
    "city": "INGLEWOOD",
    "zip": "90301",
    "county": "LOS ANGELES",
    "phone": "(310) 673-1500",
    "lat": 33.962769,
    "lng": -118.352835
  },
  {
    "id": "630015491",
    "name": "ANPHON MEDICAL CENTER",
    "npi": "1801202676",
    "hcaiId": "306198154",
    "businessName": "ANPHON CORPORATION",
    "contactEmail": "RJENNINGS@AMCHEALTHCARE.ORG",
    "categoryName": "PRIMARY CARE CLINIC",
    "categoryCode": "COMTYC",
    "licenseStatus": "ACTIVE",
    "inService": true,
    "licenseNumber": "550003340",
    "licenseEffectiveDate": "10/08/2024",
    "licenseExpirationDate": "10/07/2025",
    "dataDate": "10/18/2025",
    "capacity": 0,
    "address": "333 E. NUTWOOD STREET, SUITE C",
    "city": "INGLEWOOD",
    "zip": "90301",
    "county": "LOS ANGELES",
    "phone": "(818) 923-4348",
    "lat": 33.960654,
    "lng": -118.3506615
  },
  {
    "id": "930000022",
    "name": "CENTINELA HOSPITAL MEDICAL CENTER",
    "npi": "1336328244",
    "hcaiId": "106190148",
    "businessName": "PRIME HEALTHCARE CENTINELA, LLC",
    "contactEmail": "KPRICEGHARZEDDINE@PRIMEHEALTHCARE.COM",
    "categoryName": "GENERAL ACUTE CARE HOSPITAL",
    "categoryCode": "GACH",
    "licenseStatus": "ACTIVE",
    "inService": true,
    "licenseNumber": "930000027",
    "licenseEffectiveDate": "02/01/2025",
    "licenseExpirationDate": "01/31/2026",
    "dataDate": "10/18/2025",
    "capacity": 362,
    "address": "555 E HARDY ST",
    "city": "INGLEWOOD",
    "zip": "90301",
    "county": "LOS ANGELES",
    "phone": "(310) 680-4514",
    "lat": 33.949135,
    "lng": -118.3482371
  },
  {
    "id": "910000005",
    "name": "CENTINELA SKILLED NURSING & WELLNESS CENTRE",
    "npi": "1265687644",
    "hcaiId": "206190304",
    "businessName": "CENTINELA SKILLED NURSING & WELLNESS CENTRE WEST, LLC",
    "contactEmail": "ADMINISTRATOR@CENTINELANURSING.COM",
    "categoryName": "SKILLED NURSING FACILITY",
    "categoryCode": "SNF",
    "licenseStatus": "ACTIVE",
    "inService": true,
    "licenseNumber": "910000052",
    "licenseEffectiveDate": "01/02/2025",
    "licenseExpirationDate": "01/01/2026",
    "dataDate": "10/18/2025",
    "capacity": 59,
    "address": "950 S FLOWER ST",
    "city": "INGLEWOOD",
    "zip": "90301",
    "county": "LOS ANGELES",
    "phone": "(310) 674-3216",
    "lat": 33.95149463,
    "lng": -118.3474033
  },
  {
    "id": "930001838",
    "name": "CENTINELA VALLEY ENDOSCOPY CENTER",
    "npi": "1336231059",
    "hcaiId": "306196612",
    "businessName": "CENTINELA VALLEY  ENDOSCOPY CENTER, INC",
    "contactEmail": null,
    "categoryName": "SURGICAL CLINIC",
    "categoryCode": "ASC",
    "licenseStatus": "INACTIVE - CAPEN DECISION",
    "inService": false,
    "licenseNumber": "550000012",
    "licenseEffectiveDate": "03/17/2007",
    "licenseExpirationDate": "03/16/2008",
    "dataDate": "10/18/2025",
    "capacity": 0,
    "address": "575 E HARDY ST, SUITE 101",
    "city": "INGLEWOOD",
    "zip": "90301",
    "county": "LOS ANGELES",
    "phone": "(310) 330-9900",
    "lat": 33.94913331,
    "lng": -118.3479098
  },
  {
    "id": "630026703",
    "name": "CLINICA MEDICA SAN JUDAS TADEO",
    "npi": null,
    "hcaiId": "306190779",
    "businessName": "CLINICA MEDICA SAN JUDAS TADEO",
    "contactEmail": "ODILIAW@GMAIL.COM",
    "categoryName": "PRIMARY CARE CLINIC",
    "categoryCode": "COMTYC",
    "licenseStatus": "ACTIVE",
    "inService": true,
    "licenseNumber": "550008596",
    "licenseEffectiveDate": "06/28/2025",
    "licenseExpirationDate": "06/27/2026",
    "dataDate": "10/18/2025",
    "capacity": 0,
    "address": "501 E HARDY ST, SUITE 110",
    "city": "INGLEWOOD",
    "zip": "90301",
    "county": "LOS ANGELES",
    "phone": "(424) 800-2124",
    "lat": 33.949638,
    "lng": -118.3488615
  },
  {
    "id": "980001342",
    "name": "CONCISE HOME HEALTH SERVICES",
    "npi": "1982074167",
    "hcaiId": "406194434",
    "businessName": "CARE MATTERS HEALTHCARE, INC",
    "contactEmail": "WECARE@CONCISECAREGROUP.COM",
    "categoryName": "HOME HEALTH AGENCY",
    "categoryCode": "HHA",
    "licenseStatus": "ACTIVE",
    "inService": true,
    "licenseNumber": "980000735",
    "licenseEffectiveDate": "02/22/2023",
    "licenseExpirationDate": "02/21/2024",
    "dataDate": "10/18/2025",
    "capacity": 0,
    "address": "145 N PRAIRIE AVE",
    "city": "INGLEWOOD",
    "zip": "90301",
    "county": "LOS ANGELES",
    "phone": "(310) 912-9274",
    "lat": 33.96404919,
    "lng": -118.3440274
  },
  {
    "id": "930001734",
    "name": "FMC DIALYSIS SERVICES OF WEST LOS ANGELES",
    "npi": "1881706687",
    "hcaiId": "306196282",
    "businessName": "BIO-MEDICAL APPLICATIONS OF CALIFORNIA, INC.",
    "contactEmail": "CLINIC2868@FMC-NA.COM",
    "categoryName": "CHRONIC DIALYSIS CLINIC",
    "categoryCode": "ESRD/CDC",
    "licenseStatus": "ACTIVE",
    "inService": true,
    "licenseNumber": "930000975",
    "licenseEffectiveDate": "12/19/2024",
    "licenseExpirationDate": "12/18/2025",
    "dataDate": "10/18/2025",
    "capacity": 22,
    "address": "301 N PRAIRIE AVE, SUITE 100",
    "city": "INGLEWOOD",
    "zip": "90301",
    "county": "LOS ANGELES",
    "phone": "(310) 674-9640",
    "lat": 33.965712,
    "lng": -118.3443525
  },
  {
    "id": "980002460",
    "name": "HOME REHABILITATION HEALTH CARE AGENCY",
    "npi": "1447232335",
    "hcaiId": "406196485",
    "businessName": "HOME REHABILITATION HEALTH CARE AGENCY, INC,",
    "contactEmail": "HRHC2930@YAHOO.COM",
    "categoryName": "HOME HEALTH AGENCY",
    "categoryCode": "HHA",
    "licenseStatus": "ACTIVE",
    "inService": true,
    "licenseNumber": "980001566",
    "licenseEffectiveDate": "05/28/2025",
    "licenseExpirationDate": "05/27/2026",
    "dataDate": "10/18/2025",
    "capacity": 0,
    "address": "644 EAST REGENT STREET, UNIT 101",
    "city": "INGLEWOOD",
    "zip": "90301",
    "county": "LOS ANGELES",
    "phone": "(310) 677-4400",
    "lat": 33.964227,
    "lng": -118.345041
  },
  {
    "id": "930000205",
    "name": "INGLEWOOD DIALYSIS",
    "npi": "1174597033",
    "hcaiId": "306191087",
    "businessName": "DVA HEALTHCARE RENAL CARE, INC.",
    "contactEmail": "CAL_C@DAVITA.COM",
    "categoryName": "CHRONIC DIALYSIS CLINIC",
    "categoryCode": "ESRD/CDC",
    "licenseStatus": "ACTIVE",
    "inService": true,
    "licenseNumber": "930000230",
    "licenseEffectiveDate": "06/01/2025",
    "licenseExpirationDate": "05/31/2026",
    "dataDate": "10/18/2025",
    "capacity": 40,
    "address": "125 E ARBOR VITAE ST",
    "city": "INGLEWOOD",
    "zip": "90301",
    "county": "LOS ANGELES",
    "phone": "(310) 677-6114",
    "lat": 33.953022,
    "lng": -118.353627
  },
  {
    "id": "910000050",
    "name": "INGLEWOOD HEALTH CARE CENTER",
    "npi": "1013989656",
    "hcaiId": "206190411",
    "businessName": "INGLEWOOD OPERATING COMPANY LP",
    "contactEmail": "KIANA.MOTEN@MARINERHEALTHCARE.COM",
    "categoryName": "SKILLED NURSING FACILITY",
    "categoryCode": "SNF",
    "licenseStatus": "ACTIVE",
    "inService": true,
    "licenseNumber": "910000067",
    "licenseEffectiveDate": "11/01/2024",
    "licenseExpirationDate": "10/31/2025",
    "dataDate": "10/18/2025",
    "capacity": 99,
    "address": "100 S HILLCREST BLVD",
    "city": "INGLEWOOD",
    "zip": "90301",
    "county": "LOS ANGELES",
    "phone": "(310) 677-9114",
    "lat": 33.96254056,
    "lng": -118.3486646
  },
  {
    "id": "980001948",
    "name": "JOLA HOME HEALTH AGENCY",
    "npi": "1720026958",
    "hcaiId": "406195095",
    "businessName": "JOLA HOME HEALTH SERVICES, INC.",
    "contactEmail": "JOLAHHS@AOL.COM",
    "categoryName": "HOME HEALTH AGENCY",
    "categoryCode": "HHA",
    "licenseStatus": "ACTIVE",
    "inService": true,
    "licenseNumber": "980001135",
    "licenseEffectiveDate": "12/30/2024",
    "licenseExpirationDate": "12/29/2025",
    "dataDate": "10/18/2025",
    "capacity": 0,
    "address": "323 N PRAIRIE AVE, SUITE 425",
    "city": "INGLEWOOD",
    "zip": "90301",
    "county": "LOS ANGELES",
    "phone": "(310) 412-0011",
    "lat": 33.966342,
    "lng": -118.3442895
  },
  {
    "id": "980002359",
    "name": "LA REMEDY HEALTH, INC.",
    "npi": "1780067405",
    "hcaiId": "406196374",
    "businessName": "LA REMEDY HEALTH, INC.",
    "contactEmail": "JONATHAN@LAREMEDY.COM",
    "categoryName": "HOME HEALTH AGENCY",
    "categoryCode": "HHA",
    "licenseStatus": "ACTIVE",
    "inService": true,
    "licenseNumber": "980001469",
    "licenseEffectiveDate": "02/20/2025",
    "licenseExpirationDate": "01/28/2026",
    "dataDate": "10/18/2025",
    "capacity": 0,
    "address": "9133 S LA CIENEGA BLVD, SUITE 270",
    "city": "INGLEWOOD",
    "zip": "90301",
    "county": "LOS ANGELES",
    "phone": "(310) 446-5777",
    "lat": 33.95314399,
    "lng": -118.370862
  },
  {
    "id": "630013437",
    "name": "MISSION CITY COMMUNITY NETWORK, INC. - PRAIRIE",
    "npi": "1346525912",
    "hcaiId": "306197763",
    "businessName": "MISSION CITY COMMUNITY NETWORK, INC.",
    "contactEmail": "NIKG@MCCN.ORG",
    "categoryName": "PRIMARY CARE CLINIC",
    "categoryCode": "COMTYC",
    "licenseStatus": "ACTIVE",
    "inService": true,
    "licenseNumber": "550001797",
    "licenseEffectiveDate": "12/30/2024",
    "licenseExpirationDate": "12/29/2025",
    "dataDate": "10/18/2025",
    "capacity": 0,
    "address": "301 N PRAIRIE AVE, SUITE 311",
    "city": "INGLEWOOD",
    "zip": "90301",
    "county": "LOS ANGELES",
    "phone": "(310) 981-4060",
    "lat": 33.965712,
    "lng": -118.3443525
  },
  {
    "id": "630000341",
    "name": "OPEN ARMS ICF/DD-N",
    "npi": "1669195053",
    "hcaiId": null,
    "businessName": "ARMS OUTSTRETCHED, INC.",
    "contactEmail": "CM.OPENARMS@GMAIL.COM",
    "categoryName": "INTERMEDIATE CARE FACILITY-DD/H/N/CN/IID",
    "categoryCode": "ICFDDN",
    "licenseStatus": "ACTIVE",
    "inService": true,
    "licenseNumber": "550000216",
    "licenseEffectiveDate": "01/18/2025",
    "licenseExpirationDate": "11/12/2025",
    "dataDate": "10/18/2025",
    "capacity": 6,
    "address": "325 W REGENT ST",
    "city": "INGLEWOOD",
    "zip": "90301",
    "county": "LOS ANGELES",
    "phone": "(310) 706-1942",
    "lat": 33.964704,
    "lng": -118.3607415
  },
  {
    "id": "910000004",
    "name": "OSAGE HEALTHCARE & WELLNESS CENTRE",
    "npi": "1891940276",
    "hcaiId": "206190303",
    "businessName": "CENTINELA SKILLED NURSING & WELLNESS CENTRE EAST, LLC",
    "contactEmail": "ADMINISTRATOR@OSAGEHCC.COM",
    "categoryName": "SKILLED NURSING FACILITY",
    "categoryCode": "SNF",
    "licenseStatus": "ACTIVE",
    "inService": true,
    "licenseNumber": "910000051",
    "licenseEffectiveDate": "01/02/2025",
    "licenseExpirationDate": "01/01/2026",
    "dataDate": "10/18/2025",
    "capacity": 53,
    "address": "1001 S OSAGE AVE",
    "city": "INGLEWOOD",
    "zip": "90301",
    "county": "LOS ANGELES",
    "phone": "(310) 674-3216",
    "lat": 33.950637,
    "lng": -118.346445
  },
  {
    "id": "630016882",
    "name": "SOLEO HEALTH",
    "npi": null,
    "hcaiId": "406191577",
    "businessName": "BIOMED CALIFORNIA, INC.",
    "contactEmail": "CREDENTIALING@SOLEOHEALTH.COM",
    "categoryName": "HOME HEALTH AGENCY",
    "categoryCode": "HHA",
    "licenseStatus": "ACTIVE",
    "inService": true,
    "licenseNumber": "550004400",
    "licenseEffectiveDate": "10/16/2025",
    "licenseExpirationDate": "10/15/2026",
    "dataDate": "10/18/2025",
    "capacity": 0,
    "address": "721 S. GLASGOW AVENUE, SUITE C",
    "city": "INGLEWOOD",
    "zip": "90301",
    "county": "LOS ANGELES",
    "phone": "(310) 665-1121",
    "lat": 33.954093,
    "lng": -118.372203
  },
  {
    "id": "960002869",
    "name": "VENICE SOUTH BAY INGLEWOOD",
    "npi": null,
    "hcaiId": "306196556",
    "businessName": "VENICE FAMILY CLINIC",
    "contactEmail": "JHICKS@SBCLINIC.ORG",
    "categoryName": "PRIMARY CARE CLINIC",
    "categoryCode": "COMTYC",
    "licenseStatus": "ACTIVE",
    "inService": true,
    "licenseNumber": "960000169",
    "licenseEffectiveDate": "11/01/2025",
    "licenseExpirationDate": "10/31/2026",
    "dataDate": "10/18/2025",
    "capacity": 0,
    "address": "1091 S LA BREA AVE",
    "city": "INGLEWOOD",
    "zip": "90301",
    "county": "LOS ANGELES",
    "phone": "(310) 330-2960",
    "lat": 33.949233,
    "lng": -118.3529745
  },
  {
    "id": "630019662",
    "name": "VENICE SOUTH BAY INGLEWOOD OB",
    "npi": null,
    "hcaiId": null,
    "businessName": "VENICE FAMILY CLINIC",
    "contactEmail": null,
    "categoryName": "PRIMARY CARE CLINIC",
    "categoryCode": "COMTYC",
    "licenseStatus": "ACTIVE",
    "inService": true,
    "licenseNumber": "960000169",
    "licenseEffectiveDate": "11/01/2025",
    "licenseExpirationDate": "10/31/2026",
    "dataDate": "10/18/2025",
    "capacity": 0,
    "address": "323 N PRAIRIE AVE, SUITE 210",
    "city": "INGLEWOOD",
    "zip": "90301",
    "county": "LOS ANGELES",
    "phone": null,
    "lat": 33.966342,
    "lng": -118.3442895
  }
]