[
  {
    "id": "930000837",
    "name": "20TH STREET SURGERY CENTER, LLC",
    "npi": "1740387323",
    "hcaiId": "306194083",
    "businessName": "20TH STREET SURGERY CENTER, LLC",
    "contactEmail": "MPOS@SMOG.NET",
    "categoryName": "SURGICAL CLINIC",
    "categoryCode": "ASC",
    "licenseStatus": "INACTIVE - CAPEN DECISION",
    "inService": false,
    "licenseNumber": "930000437",
    "licenseEffectiveDate": "04/01/2007",
    "licenseExpirationDate": "09/30/2007",
    "dataDate": "10/18/2025",
    "capacity": 0,
    "address": "1301 20TH ST, SUITE 140",
    "city": "SANTA MONICA",
    "zip": "90404",
    "county": "LOS ANGELES",
    "phone": "(310) 315-0215",
    "lat": 34.029981,
    "lng": -118.480995
  },
  {
    "id": "910000017",
    "name": "BEACHWOOD POST-ACUTE & REHAB",
    "npi": "1295119212",
    "hcaiId": "206190087",
    "businessName": "CANTALOUPE HOLDINGS, LLC",
    "contactEmail": "DENIS.ZAVATSKI@BEACHWOODPA.COM",
    "categoryName": "SKILLED NURSING FACILITY",
    "categoryCode": "SNF",
    "licenseStatus": "ACTIVE",
    "inService": true,
    "licenseNumber": "910000016",
    "licenseEffectiveDate": "12/01/2024",
    "licenseExpirationDate": "11/30/2025",
    "dataDate": "10/18/2025",
    "capacity": 227,
    "address": "1340 15TH STREET",
    "city": "SANTA MONICA",
    "zip": "90404",
    "county": "LOS ANGELES",
    "phone": "(310) 451-9706",
    "lat": 34.02533173,
    "lng": -118.4854261
  },
  {
    "id": "910000014",
    "name": "BERKLEY EAST HEALTHCARE CENTER",
    "npi": null,
    "hcaiId": "206190072",
    "businessName": "ASMB, LLC",
    "contactEmail": "KENDRAN@ASPENHEALTH.COM",
    "categoryName": "SKILLED NURSING FACILITY",
    "categoryCode": "SNF",
    "licenseStatus": "ACTIVE",
    "inService": true,
    "licenseNumber": "910000013",
    "licenseEffectiveDate": "11/25/2024",
    "licenseExpirationDate": "11/24/2025",
    "dataDate": "10/18/2025",
    "capacity": 207,
    "address": "2021 ARIZONA AVE",
    "city": "SANTA MONICA",
    "zip": "90404",
    "county": "LOS ANGELES",
    "phone": "(310) 829-5377",
    "lat": 34.030773,
    "lng": -118.4811975
  },
  {
    "id": "910000013",
    "name": "BERKLEY WEST HEALTHCARE CENTER",
    "npi": "1245865682",
    "hcaiId": "206190071",
    "businessName": "ASBW, LLC",
    "contactEmail": "ANDREWY@ASPENHEALTH.COM",
    "categoryName": "SKILLED NURSING FACILITY",
    "categoryCode": "SNF",
    "licenseStatus": "ACTIVE",
    "inService": true,
    "licenseNumber": "910000012",
    "licenseEffectiveDate": "02/01/2025",
    "licenseExpirationDate": "01/31/2026",
    "dataDate": "10/18/2025",
    "capacity": 54,
    "address": "1623 ARIZONA AVE",
    "city": "SANTA MONICA",
    "zip": "90404",
    "county": "LOS ANGELES",
    "phone": "(310) 837-1794",
    "lat": 34.027677,
    "lng": -118.484901
  },
  {
    "id": "630027926",
    "name": "BIOHEALTH SURGICAL INSTITUTE LLC",
    "npi": null,
    "hcaiId": null,
    "businessName": null,
    "contactEmail": "RSOLIS@BIOHEALTHSURGICALINSTITUTE.COM",
    "categoryName": "SURGICAL CLINIC",
    "categoryCode": "ASC",
    "licenseStatus": null,
    "inService": null,
    "licenseNumber": null,
    "licenseEffectiveDate": null,
    "licenseExpirationDate": null,
    "dataDate": "10/18/2025",
    "capacity": 0,
    "address": "1451 BROADWAY",
    "city": "SANTA MONICA",
    "zip": "90404",
    "county": "LOS ANGELES",
    "phone": "(323) 836-3035",
    "lat": 34.02335893,
    "lng": -118.4834867
  },
  {
    "id": "910000073",
    "name": "BRENTWOOD HEALTH CARE CENTER",
    "npi": "1962487272",
    "hcaiId": "206190690",
    "businessName": "COASTAL HEALTH CARE, INC.",
    "contactEmail": "DJWEAVER@BRENTWOODNURSING.COM",
    "categoryName": "SKILLED NURSING FACILITY",
    "categoryCode": "SNF",
    "licenseStatus": "ACTIVE",
    "inService": true,
    "licenseNumber": "910000099",
    "licenseEffectiveDate": "04/17/2025",
    "licenseExpirationDate": "04/16/2026",
    "dataDate": "10/18/2025",
    "capacity": 59,
    "address": "1321 FRANKLIN ST",
    "city": "SANTA MONICA",
    "zip": "90404",
    "county": "LOS ANGELES",
    "phone": "(310) 291-3067",
    "lat": 34.038855,
    "lng": -118.4692635
  },
  {
    "id": "930001759",
    "name": "COSMETIC SURGERY CENTER OF SANTA MONICA",
    "npi": "1033229323",
    "hcaiId": null,
    "businessName": null,
    "contactEmail": "DERMSURGMD@AOL.COM",
    "categoryName": "SURGICAL CLINIC",
    "categoryCode": "ASC",
    "licenseStatus": null,
    "inService": null,
    "licenseNumber": null,
    "licenseEffectiveDate": null,
    "licenseExpirationDate": null,
    "dataDate": "10/18/2025",
    "capacity": 0,
    "address": "1260 15TH ST, SUITE 1401",
    "city": "SANTA MONICA",
    "zip": "90404",
    "county": "LOS ANGELES",
    "phone": "(310) 434-2495",
    "lat": 34.026291,
    "lng": -118.4870025
  },
  {
    "id": "930000905",
    "name": "ENDOSCOPY CENTER OF SOUTHERN CALIFORNIA LLC",
    "npi": "1497788145",
    "hcaiId": "306194285",
    "businessName": null,
    "contactEmail": "NONE@DHS.CA.GOV",
    "categoryName": "SURGICAL CLINIC",
    "categoryCode": "ASC",
    "licenseStatus": "INACTIVE - CAPEN DECISION",
    "inService": false,
    "licenseNumber": "930000644",
    "licenseEffectiveDate": "02/20/2009",
    "licenseExpirationDate": "02/19/2010",
    "dataDate": "10/18/2025",
    "capacity": 0,
    "address": "2336 SANTA MONICA BLVD, SUITE 204",
    "city": "SANTA MONICA",
    "zip": "90404",
    "county": "LOS ANGELES",
    "phone": "(310) 453-4477",
    "lat": 34.031187,
    "lng": -118.4764725
  },
  {
    "id": "910000006",
    "name": "OCEAN POINTE HEALTHCARE CENTER",
    "npi": "1285292102",
    "hcaiId": "206190037",
    "businessName": "ASMS, LLC",
    "contactEmail": "ANDREWY@ASPENHEALTH.COM",
    "categoryName": "SKILLED NURSING FACILITY",
    "categoryCode": "SNF",
    "licenseStatus": "ACTIVE",
    "inService": true,
    "licenseNumber": "910000006",
    "licenseEffectiveDate": "04/01/2025",
    "licenseExpirationDate": "03/31/2026",
    "dataDate": "10/18/2025",
    "capacity": 72,
    "address": "1330 17TH ST",
    "city": "SANTA MONICA",
    "zip": "90404",
    "county": "LOS ANGELES",
    "phone": "(310) 829-5411",
    "lat": 34.02702311,
    "lng": -118.483735
  },
  {
    "id": "930000811",
    "name": "PACIFIC COAST PLASTIC SURGERY CENTER, INC.",
    "npi": "1124107073",
    "hcaiId": null,
    "businessName": null,
    "contactEmail": "NONE@DHS.CA.GOV",
    "categoryName": "SURGICAL CLINIC",
    "categoryCode": "ASC",
    "licenseStatus": null,
    "inService": null,
    "licenseNumber": null,
    "licenseEffectiveDate": null,
    "licenseExpirationDate": null,
    "dataDate": "10/18/2025",
    "capacity": 0,
    "address": "1301 20TH ST # 450",
    "city": "SANTA MONICA",
    "zip": "90404",
    "county": "LOS ANGELES",
    "phone": "(213) 453-2733",
    "lat": 34.029963,
    "lng": -118.480986
  },
  {
    "id": "910000064",
    "name": "PACIFIC POST - ACUTE",
    "npi": "1609972520",
    "hcaiId": "206190584",
    "businessName": "PC CARE, LLC",
    "contactEmail": "ADMIN@PACIFICPOSTACUTE.COM",
    "categoryName": "SKILLED NURSING FACILITY",
    "categoryCode": "SNF",
    "licenseStatus": "ACTIVE",
    "inService": true,
    "licenseNumber": "910000082",
    "licenseEffectiveDate": "06/01/2025",
    "licenseExpirationDate": "05/31/2026",
    "dataDate": "10/18/2025",
    "capacity": 49,
    "address": "1323 17TH STREET",
    "city": "SANTA MONICA",
    "zip": "90404",
    "county": "LOS ANGELES",
    "phone": "(917) 407-5515",
    "lat": 34.027443,
    "lng": -118.4835195
  },
  {
    "id": "930001795",
    "name": "PACIFIC SURGERY CENTER OF SANTA MONICA",
    "npi": "1689795312",
    "hcaiId": null,
    "businessName": null,
    "contactEmail": "NONE@DHS.CA.GOV",
    "categoryName": "SURGICAL CLINIC",
    "categoryCode": "ASC",
    "licenseStatus": null,
    "inService": null,
    "licenseNumber": null,
    "licenseEffectiveDate": null,
    "licenseExpirationDate": null,
    "dataDate": "10/18/2025",
    "capacity": 0,
    "address": "2021 SANTA MONICA BLVD, SUITE 724E",
    "city": "SANTA MONICA",
    "zip": "90404",
    "county": "LOS ANGELES",
    "phone": "(310) 829-9060",
    "lat": 34.0299,
    "lng": -118.480158
  },
  {
    "id": "930000100",
    "name": "SAINT JOHN'S HEALTH CENTER",
    "npi": "1124026273",
    "hcaiId": "106190756",
    "businessName": "PROVIDENCE SAINT JOHN'S HEALTH CENTER",
    "contactEmail": "MICHAEL.RICKS@PROVIDENCE.ORG",
    "categoryName": "GENERAL ACUTE CARE HOSPITAL",
    "categoryCode": "GACH",
    "licenseStatus": "ACTIVE",
    "inService": true,
    "licenseNumber": "930000158",
    "licenseEffectiveDate": "11/01/2025",
    "licenseExpirationDate": "10/31/2026",
    "dataDate": "10/18/2025",
    "capacity": 266,
    "address": "2121 SANTA MONICA BLVD",
    "city": "SANTA MONICA",
    "zip": "90404",
    "county": "LOS ANGELES",
    "phone": "(310) 829-5511",
    "lat": 34.0298191,
    "lng": -118.4786993
  },
  {
    "id": "930000380",
    "name": "SAINT MARY'S EYE SURGICAL CENTER",
    "npi": null,
    "hcaiId": null,
    "businessName": null,
    "contactEmail": "NONE@DHS.CA.GOV",
    "categoryName": "SURGICAL CLINIC",
    "categoryCode": "ASC",
    "licenseStatus": null,
    "inService": null,
    "licenseNumber": null,
    "licenseEffectiveDate": null,
    "licenseExpirationDate": null,
    "dataDate": "10/18/2025",
    "capacity": 0,
    "address": "1441 BROADWAY",
    "city": "SANTA MONICA",
    "zip": "90404",
    "county": "LOS ANGELES",
    "phone": "(323) 451-2020",
    "lat": 34.02313569,
    "lng": -118.4838136
  },
  {
    "id": "930000049",
    "name": "SANTA MONICA - UCLA MEDICAL CENTER AND ORTHOPAEDIC HOSPITAL",
    "npi": "1427055839",
    "hcaiId": "106190687",
    "businessName": "REGENTS UNIVERSITY OF CALIFORNIA HEALTH SCIENCES & SERVICES",
    "contactEmail": "JBERGEN@MEDNET.UCLA.EDU",
    "categoryName": "GENERAL ACUTE CARE HOSPITAL",
    "categoryCode": "GACH",
    "licenseStatus": "ACTIVE",
    "inService": true,
    "licenseNumber": "930000146",
    "licenseEffectiveDate": "11/09/2024",
    "licenseExpirationDate": "11/08/2025",
    "dataDate": "10/18/2025",
    "capacity": 281,
    "address": "1250 16TH ST",
    "city": "SANTA MONICA",
    "zip": "90404",
    "county": "LOS ANGELES",
    "phone": "(310) 267-2041",
    "lat": 34.02752368,
    "lng": -118.4861649
  },
  {
    "id": "630027192",
    "name": "SANTA MONICA ADVANCED SURGICAL INSTITUTE LLC",
    "npi": null,
    "hcaiId": null,
    "businessName": null,
    "contactEmail": "DRSTELZNER@DRSTELZNER.COM",
    "categoryName": "SURGICAL CLINIC",
    "categoryCode": "ASC",
    "licenseStatus": null,
    "inService": null,
    "licenseNumber": null,
    "licenseEffectiveDate": null,
    "licenseExpirationDate": null,
    "dataDate": "10/18/2025",
    "capacity": 0,
    "address": "1908 SANTA MONICA BLVD, SUITE 5",
    "city": "SANTA MONICA",
    "zip": "90404",
    "county": "LOS ANGELES",
    "phone": "(310) 500-5233",
    "lat": 34.02787301,
    "lng": -118.480389
  },
  {
    "id": "930000806",
    "name": "SANTA MONICA DIALYSIS",
    "npi": "1144295163",
    "hcaiId": "306194024",
    "businessName": "DVA RENAL HEALTHCARE, INC.",
    "contactEmail": "CAL_C@DAVITA.COM",
    "categoryName": "CHRONIC DIALYSIS CLINIC",
    "categoryCode": "ESRD/CDC",
    "licenseStatus": "ACTIVE",
    "inService": true,
    "licenseNumber": "930000429",
    "licenseEffectiveDate": "06/07/2025",
    "licenseExpirationDate": "06/06/2026",
    "dataDate": "10/18/2025",
    "capacity": 22,
    "address": "1260 15TH ST, SUITE 102",
    "city": "SANTA MONICA",
    "zip": "90404",
    "county": "LOS ANGELES",
    "phone": "(310) 393-4744",
    "lat": 34.026291,
    "lng": -118.4870025
  },
  {
    "id": "910000074",
    "name": "SANTA MONICA HEALTH CARE CENTER",
    "npi": "1003230590",
    "hcaiId": "206190686",
    "businessName": "SANTA MONICA OPERATING COMPANY, LP",
    "contactEmail": "BEL.TORRES@MARINERHEALTHCARE.COM",
    "categoryName": "SKILLED NURSING FACILITY",
    "categoryCode": "SNF",
    "licenseStatus": "ACTIVE",
    "inService": true,
    "licenseNumber": "910000096",
    "licenseEffectiveDate": "02/02/2025",
    "licenseExpirationDate": "02/01/2026",
    "dataDate": "10/18/2025",
    "capacity": 59,
    "address": "1320 20TH ST",
    "city": "SANTA MONICA",
    "zip": "90404",
    "county": "LOS ANGELES",
    "phone": "(310) 829-4301",
    "lat": 34.029279,
    "lng": -118.4812425
  },
  {
    "id": "910000336",
    "name": "SANTA MONICA REHABILITATION CENTER",
    "npi": "1649041195",
    "hcaiId": "206190613",
    "businessName": "1338 20TH STREET LLC",
    "contactEmail": "ADMINISTRATOR@FOOTHILLOPS.COM",
    "categoryName": "SKILLED NURSING FACILITY",
    "categoryCode": "SNF",
    "licenseStatus": "ACTIVE",
    "inService": true,
    "licenseNumber": "910000154",
    "licenseEffectiveDate": "02/01/2025",
    "licenseExpirationDate": "01/30/2026",
    "dataDate": "10/18/2025",
    "capacity": 144,
    "address": "1338 20TH ST",
    "city": "SANTA MONICA",
    "zip": "90404",
    "county": "LOS ANGELES",
    "phone": "(310) 255-2800",
    "lat": 34.028982,
    "lng": -118.4809005
  },
  {
    "id": "930001560",
    "name": "SANTA MONICA SURGERY AND LASER CENTER",
    "npi": "1689954539",
    "hcaiId": "306194776",
    "businessName": "LASER SURGICENTER, INC.",
    "contactEmail": "DRCLAVIN@CLAVIN.COM",
    "categoryName": "SURGICAL CLINIC",
    "categoryCode": "ASC",
    "licenseStatus": "INACTIVE - CAPEN DECISION",
    "inService": false,
    "licenseNumber": "930000873",
    "licenseEffectiveDate": "11/26/2007",
    "licenseExpirationDate": "11/25/2008",
    "dataDate": "10/18/2025",
    "capacity": 0,
    "address": "2001 SANTA MONICA BLVD, SUITE 1288W",
    "city": "SANTA MONICA",
    "zip": "90404",
    "county": "LOS ANGELES",
    "phone": "(310) 829-2005",
    "lat": 34.029369,
    "lng": -118.4801175
  },
  {
    "id": "630011730",
    "name": "SANTA MONICA SURGICAL CENTER",
    "npi": "1669667895",
    "hcaiId": null,
    "businessName": null,
    "contactEmail": null,
    "categoryName": "SURGICAL CLINIC",
    "categoryCode": "ASC",
    "licenseStatus": null,
    "inService": null,
    "licenseNumber": null,
    "licenseEffectiveDate": null,
    "licenseExpirationDate": null,
    "dataDate": "10/18/2025",
    "capacity": 0,
    "address": "2825 SANTA MONICA BLVD, SUITE 100B",
    "city": "SANTA MONICA",
    "zip": "90404",
    "county": "LOS ANGELES",
    "phone": "(310) 566-1474",
    "lat": 34.03540314,
    "lng": -118.4718031
  },
  {
    "id": "930001627",
    "name": "SOUTHERN CALIFORNIA HEAD & NECK SURGERY CENTER",
    "npi": "1629012448",
    "hcaiId": null,
    "businessName": null,
    "contactEmail": "NONE@DHS.CA.GOV",
    "categoryName": "SURGICAL CLINIC",
    "categoryCode": "ASC",
    "licenseStatus": null,
    "inService": null,
    "licenseNumber": null,
    "licenseEffectiveDate": null,
    "licenseExpirationDate": null,
    "dataDate": "10/18/2025",
    "capacity": 0,
    "address": "1301 20TH ST, SUITE 300",
    "city": "SANTA MONICA",
    "zip": "90404",
    "county": "LOS ANGELES",
    "phone": "(310) 829-7792",
    "lat": 34.029981,
    "lng": -118.480995
  },
  {
    "id": "630011374",
    "name": "SURGERY CENTER OF THE PACIFIC",
    "npi": "1699855213",
    "hcaiId": null,
    "businessName": null,
    "contactEmail": null,
    "categoryName": "SURGICAL CLINIC",
    "categoryCode": "ASC",
    "licenseStatus": null,
    "inService": null,
    "licenseNumber": null,
    "licenseEffectiveDate": null,
    "licenseExpirationDate": null,
    "dataDate": "10/18/2025",
    "capacity": 0,
    "address": "1508 ARIZONA AVE, SUITE 200",
    "city": "SANTA MONICA",
    "zip": "90404",
    "county": "LOS ANGELES",
    "phone": "(310) 576-7267",
    "lat": 34.02631419,
    "lng": -118.486091
  },
  {
    "id": "930000792",
    "name": "TOWER WOUND CARE CENTER OF SANTA MONICA",
    "npi": "1609104900",
    "hcaiId": "306194275",
    "businessName": "PACIFIC SURGICENTER, INC.",
    "contactEmail": "DRTHOMPSON@ANEWLOOK.COM",
    "categoryName": "SURGICAL CLINIC",
    "categoryCode": "ASC",
    "licenseStatus": "INACTIVE - CAPEN DECISION",
    "inService": false,
    "licenseNumber": "930000639",
    "licenseEffectiveDate": "12/03/2006",
    "licenseExpirationDate": "12/02/2007",
    "dataDate": "10/18/2025",
    "capacity": 0,
    "address": "1301 20TH ST, SUITE 470",
    "city": "SANTA MONICA",
    "zip": "90404",
    "county": "LOS ANGELES",
    "phone": "(310) 315-0222",
    "lat": 34.029981,
    "lng": -118.480995
  },
  {
    "id": "630026017",
    "name": "UCLA HOMELESS HEALTHCARE COLLABORATIVE",
    "npi": null,
    "hcaiId": "306190794",
    "businessName": "THE REGENTS OF THE UNIVERSITY OF CALIFORNIA",
    "contactEmail": "BZUNNER@MEDNET.UCLA.EDU",
    "categoryName": "PRIMARY CARE CLINIC",
    "categoryCode": "COMTYC",
    "licenseStatus": "ACTIVE",
    "inService": true,
    "licenseNumber": "550008737",
    "licenseEffectiveDate": "08/25/2025",
    "licenseExpirationDate": "08/24/2026",
    "dataDate": "10/18/2025",
    "capacity": 0,
    "address": "2211 MICHIGAN AVE",
    "city": "SANTA MONICA",
    "zip": "90404",
    "county": "LOS ANGELES",
    "phone": "(310) 562-1871",
    "lat": 34.025112,
    "lng": -118.471527
  },
  {
    "id": "630026613",
    "name": "UCLA HOMELESS HEALTHCARE COLLABORATIVE GOLD VAN",
    "npi": null,
    "hcaiId": "306190793",
    "businessName": "THE REGENTS OF THE UNIVERSITY OF CALIFORNIA",
    "contactEmail": "BZUNNER@MEDNET.UCLA.EDU",
    "categoryName": "PRIMARY CARE CLINIC",
    "categoryCode": "COMTYC",
    "licenseStatus": "ACTIVE",
    "inService": true,
    "licenseNumber": "550008736",
    "licenseEffectiveDate": "08/24/2025",
    "licenseExpirationDate": "08/23/2026",
    "dataDate": "10/18/2025",
    "capacity": 0,
    "address": "2211 MICHIGAN AVE",
    "city": "SANTA MONICA",
    "zip": "90404",
    "county": "LOS ANGELES",
    "phone": "(310) 562-1871",
    "lat": 34.025112,
    "lng": -118.471527
  }
]