[
  {
    "id": "910000043",
    "name": "GOOD SHEPHERD HEALTH CARE CENTER OF SANTA MONICA",
    "npi": "1114090206",
    "hcaiId": "206190346",
    "businessName": "GOOD SHEPHERD HEALTH CARE CENTER OF SANTA MONICA",
    "contactEmail": "ADMINISTRATOR@GOODSHEPHERDHCC.COM",
    "categoryName": "SKILLED NURSING FACILITY",
    "categoryCode": "SNF",
    "licenseStatus": "ACTIVE",
    "inService": true,
    "licenseNumber": "910000056",
    "licenseEffectiveDate": "11/01/2025",
    "licenseExpirationDate": "10/31/2026",
    "dataDate": "10/18/2025",
    "capacity": 48,
    "address": "1131 ARIZONA AVE",
    "city": "SANTA MONICA",
    "zip": "90401",
    "county": "LOS ANGELES",
    "phone": "(310) 451-4800",
    "lat": 34.023834,
    "lng": -118.489806
  },
  {
    "id": "630027015",
    "name": "LEGACY HOMECARE LA",
    "npi": null,
    "hcaiId": null,
    "businessName": "LEGACY HC, LLC",
    "contactEmail": "J.KIDUSHIM@LEGACYHOMECARELA.COM",
    "categoryName": "HOME HEALTH AGENCY",
    "categoryCode": "HHA",
    "licenseStatus": "ACTIVE",
    "inService": true,
    "licenseNumber": "550009533",
    "licenseEffectiveDate": "09/18/2025",
    "licenseExpirationDate": "12/02/2025",
    "dataDate": "10/18/2025",
    "capacity": 0,
    "address": "720 WILSHIRE BLVD, SUITE 300",
    "city": "SANTA MONICA",
    "zip": "90401",
    "county": "LOS ANGELES",
    "phone": "(310) 974-4517",
    "lat": 34.02175498,
    "lng": -118.494517
  },
  {
    "id": "960000199",
    "name": "PLANNED PARENTHOOD LOS ANGELES-SANTA MONICA CENTER",
    "npi": null,
    "hcaiId": "306191025",
    "businessName": "PLANNED PARENTHOOD LOS ANGELES",
    "contactEmail": "BRENDA.GUERRERO@PP-LA.ORG",
    "categoryName": "PRIMARY CARE CLINIC",
    "categoryCode": "COMTYC",
    "licenseStatus": "ACTIVE",
    "inService": true,
    "licenseNumber": "960000204",
    "licenseEffectiveDate": "11/01/2025",
    "licenseExpirationDate": "10/31/2026",
    "dataDate": "10/18/2025",
    "capacity": 0,
    "address": "1316 3RD STREET PROMENADE, SUITE 201",
    "city": "SANTA MONICA",
    "zip": "90401",
    "county": "LOS ANGELES",
    "phone": "(213) 284-3200",
    "lat": 34.0167007,
    "lng": -118.4974536
  },
  {
    "id": "630017378",
    "name": "VENICE FAMILY CLINIC - OPCC ANNENBERG ACCESS CENTER",
    "npi": null,
    "hcaiId": null,
    "businessName": "VENICE FAMILY CLINIC",
    "contactEmail": "VFCINFO@MEDNET.UCLA.EDU",
    "categoryName": "PRIMARY CARE CLINIC",
    "categoryCode": "COMTYC",
    "licenseStatus": "ACTIVE",
    "inService": true,
    "licenseNumber": "960000169",
    "licenseEffectiveDate": "11/01/2025",
    "licenseExpirationDate": "10/31/2026",
    "dataDate": "10/18/2025",
    "capacity": 0,
    "address": "503 OLYMPIC BLVD",
    "city": "SANTA MONICA",
    "zip": "90401",
    "county": "LOS ANGELES",
    "phone": "(310) 392-8636",
    "lat": 34.01338096,
    "lng": -118.4896822
  },
  {
    "id": "630027780",
    "name": "VITALE HOME HEALTH",
    "npi": null,
    "hcaiId": null,
    "businessName": "VITALE HOME HEALTH",
    "contactEmail": "JULIE@VITALENURSING.COM",
    "categoryName": "HOME HEALTH AGENCY",
    "categoryCode": "HHA",
    "licenseStatus": "ACTIVE",
    "inService": true,
    "licenseNumber": "550009801",
    "licenseEffectiveDate": "09/19/2025",
    "licenseExpirationDate": "03/18/2026",
    "dataDate": "10/18/2025",
    "capacity": 0,
    "address": "1431 OCEAN AVE, SUITE 500",
    "city": "SANTA MONICA",
    "zip": "90401",
    "county": "LOS ANGELES",
    "phone": "(310) 795-5854",
    "lat": 34.013547,
    "lng": -118.496694
  },
  {
    "id": "630025687",
    "name": "YOUNIQUE SURGERY CENTER",
    "npi": null,
    "hcaiId": null,
    "businessName": null,
    "contactEmail": "MARKMYOUSSEF@GMAIL.COM",
    "categoryName": "SURGICAL CLINIC",
    "categoryCode": "ASC",
    "licenseStatus": null,
    "inService": null,
    "licenseNumber": null,
    "licenseEffectiveDate": null,
    "licenseExpirationDate": null,
    "dataDate": "10/18/2025",
    "capacity": 0,
    "address": "1317 5TH ST, SUITE 300",
    "city": "SANTA MONICA",
    "zip": "90401",
    "county": "LOS ANGELES",
    "phone": "(310) 434-0044",
    "lat": 34.018317,
    "lng": -118.4950035
  }
]