[
  {
    "id": "910000075",
    "name": "OCEAN PARK HEALTHCARE",
    "npi": "1376128322",
    "hcaiId": "206190688",
    "businessName": "OCEAN PARK HEALTHCARE, LLC",
    "contactEmail": "MEMPHIS.MONTAG@OCEANPARKHCC.COM",
    "categoryName": "SKILLED NURSING FACILITY",
    "categoryCode": "SNF",
    "licenseStatus": "ACTIVE",
    "inService": true,
    "licenseNumber": "910000097",
    "licenseEffectiveDate": "03/26/2025",
    "licenseExpirationDate": "03/25/2026",
    "dataDate": "10/18/2025",
    "capacity": 41,
    "address": "2828 PICO BLVD",
    "city": "SANTA MONICA",
    "zip": "90405",
    "county": "LOS ANGELES",
    "phone": "(313) 646-5988",
    "lat": 34.024338,
    "lng": -118.459485
  },
  {
    "id": "910000076",
    "name": "SUNSET PARK HEALTHCARE",
    "npi": "1457936403",
    "hcaiId": "206190689",
    "businessName": "SUNSET PARK HEALTHCARE, LLC",
    "contactEmail": "MEMPHIS.MONTAG@OCEANPARKHCC.COM",
    "categoryName": "SKILLED NURSING FACILITY",
    "categoryCode": "SNF",
    "licenseStatus": "ACTIVE",
    "inService": true,
    "licenseNumber": "910000098",
    "licenseEffectiveDate": "05/31/2025",
    "licenseExpirationDate": "05/30/2026",
    "dataDate": "10/18/2025",
    "capacity": 44,
    "address": "2250 29TH ST",
    "city": "SANTA MONICA",
    "zip": "90405",
    "county": "LOS ANGELES",
    "phone": "(310) 450-7694",
    "lat": 34.0241582,
    "lng": -118.4590302
  },
  {
    "id": "630017476",
    "name": "VENICE FAMILY CLINIC - SANTA MONICA HIGH SCHOOL",
    "npi": null,
    "hcaiId": null,
    "businessName": "VENICE FAMILY CLINIC",
    "contactEmail": "VFCINFO@MEDNET.UCLA.EDU",
    "categoryName": "PRIMARY CARE CLINIC",
    "categoryCode": "COMTYC",
    "licenseStatus": "ACTIVE",
    "inService": true,
    "licenseNumber": "960000960",
    "licenseEffectiveDate": "11/01/2024",
    "licenseExpirationDate": "10/31/2025",
    "dataDate": "10/18/2025",
    "capacity": 0,
    "address": "601 PICO BLVD, ROOM AD203",
    "city": "SANTA MONICA",
    "zip": "90405",
    "county": "LOS ANGELES",
    "phone": "(310) 392-8636",
    "lat": 34.01132349,
    "lng": -118.4850265
  },
  {
    "id": "960001993",
    "name": "VENICE FAMILY CLINIC - SIMMS/MANN HEALTH AND WELLNESS CENTER",
    "npi": "1558397067",
    "hcaiId": "306194819",
    "businessName": "VENICE FAMILY CLINIC",
    "contactEmail": "JUANRODRIGUEZ@MEDNET.UCLA.EDU",
    "categoryName": "PRIMARY CARE CLINIC",
    "categoryCode": "COMTYC",
    "licenseStatus": "ACTIVE",
    "inService": true,
    "licenseNumber": "960000960",
    "licenseEffectiveDate": "11/01/2024",
    "licenseExpirationDate": "10/31/2025",
    "dataDate": "10/18/2025",
    "capacity": 0,
    "address": "2509 PICO BLVD",
    "city": "SANTA MONICA",
    "zip": "90405",
    "county": "LOS ANGELES",
    "phone": "(310) 664-7602",
    "lat": 34.02333,
    "lng": -118.463373
  }
]