[
  {
    "id": "930001752",
    "name": "DIRECTED INTERVENTIONAL SURGERY CENTER",
    "npi": "1679694392",
    "hcaiId": null,
    "businessName": null,
    "contactEmail": "MARCOFAVILLI@MICSC.COM",
    "categoryName": "SURGICAL CLINIC",
    "categoryCode": "ASC",
    "licenseStatus": null,
    "inService": null,
    "licenseNumber": null,
    "licenseEffectiveDate": null,
    "licenseExpirationDate": null,
    "dataDate": "10/18/2025",
    "capacity": 0,
    "address": "2827 WILSHIRE BLVD",
    "city": "SANTA MONICA",
    "zip": "90403",
    "county": "LOS ANGELES",
    "phone": "(310) 829-9788",
    "lat": 34.03804593,
    "lng": -118.4750264
  },
  {
    "id": "910000038",
    "name": "FIRESIDE HEALTH CARE CENTER",
    "npi": "1679558175",
    "hcaiId": "206190294",
    "businessName": "F.C.H., INC.",
    "contactEmail": "HSIBONGA@FIRESIDECARE.COM",
    "categoryName": "SKILLED NURSING FACILITY",
    "categoryCode": "SNF",
    "licenseStatus": "ACTIVE",
    "inService": true,
    "licenseNumber": "910000048",
    "licenseEffectiveDate": "11/01/2024",
    "licenseExpirationDate": "10/31/2025",
    "dataDate": "10/18/2025",
    "capacity": 66,
    "address": "947 3RD ST",
    "city": "SANTA MONICA",
    "zip": "90403",
    "county": "LOS ANGELES",
    "phone": "(310) 291-3067",
    "lat": 34.02153,
    "lng": -118.502442
  },
  {
    "id": "630017915",
    "name": "SOURCE SURGERY CENTER, LLC",
    "npi": "1558802249",
    "hcaiId": null,
    "businessName": null,
    "contactEmail": "TTDAVIS23@GMAIL.COM",
    "categoryName": "SURGICAL CLINIC",
    "categoryCode": "ASC",
    "licenseStatus": null,
    "inService": null,
    "licenseNumber": null,
    "licenseEffectiveDate": null,
    "licenseExpirationDate": null,
    "dataDate": "10/18/2025",
    "capacity": 0,
    "address": "2801 WILSHIRE BLVD",
    "city": "SANTA MONICA",
    "zip": "90403",
    "county": "LOS ANGELES",
    "phone": "(310) 574-2777",
    "lat": 34.03762158,
    "lng": -118.475571
  },
  {
    "id": "930001423",
    "name": "SURGERY CENTER OF SANTA MONICA",
    "npi": null,
    "hcaiId": "306194597",
    "businessName": "2121 SURGERY CENTER, LIMITED PARTNERSHIP",
    "contactEmail": "BILL.ARONIS@SCASURGERY.COM",
    "categoryName": "SURGICAL CLINIC",
    "categoryCode": "ASC",
    "licenseStatus": "INACTIVE - CAPEN DECISION",
    "inService": false,
    "licenseNumber": "930000804",
    "licenseEffectiveDate": "11/08/2007",
    "licenseExpirationDate": "11/07/2008",
    "dataDate": "10/18/2025",
    "capacity": 0,
    "address": "2121 WILSHIRE BLVD",
    "city": "SANTA MONICA",
    "zip": "90403",
    "county": "LOS ANGELES",
    "phone": "(310) 264-7300",
    "lat": 34.032834,
    "lng": -118.481967
  }
]