[
  {
    "id": "630020289",
    "name": "ENVISION HOME HEALTH SERVICE, INC.",
    "npi": null,
    "hcaiId": "406195286",
    "businessName": "ENVISION HOME HEALTH SERVICE, INC.",
    "contactEmail": "KRISTINA@ENVISIONHHS.COM",
    "categoryName": "HOME HEALTH AGENCY",
    "categoryCode": "HHA",
    "licenseStatus": "ACTIVE",
    "inService": true,
    "licenseNumber": "550007777",
    "licenseEffectiveDate": "12/23/2024",
    "licenseExpirationDate": "12/22/2025",
    "dataDate": "10/18/2025",
    "capacity": 0,
    "address": "17725 CRENSHAW BLVD, SUITE 302",
    "city": "TORRANCE",
    "zip": "90504",
    "county": "LOS ANGELES",
    "phone": "(310) 515-1246",
    "lat": 33.869412,
    "lng": -118.326726
  },
  {
    "id": "060001880",
    "name": "GETTOGETHER ADULT DAY HEALTH CARE",
    "npi": null,
    "hcaiId": null,
    "businessName": "LOV GETTOGETHER, INC.",
    "contactEmail": "EMELI@ADHC.NET",
    "categoryName": "ADULT DAY HEALTH CARE",
    "categoryCode": "ADHC",
    "licenseStatus": "ACTIVE",
    "inService": true,
    "licenseNumber": "060000697",
    "licenseEffectiveDate": "11/06/2024",
    "licenseExpirationDate": "11/05/2025",
    "dataDate": "10/18/2025",
    "capacity": 0,
    "address": "16636 CRENSHAW BLVD",
    "city": "TORRANCE",
    "zip": "90504",
    "county": "LOS ANGELES",
    "phone": "(310) 965-0110",
    "lat": 33.879294,
    "lng": -118.326186
  },
  {
    "id": "630025920",
    "name": "LC HOME HEALTH INC",
    "npi": null,
    "hcaiId": "406190341",
    "businessName": "LC HOME HEALTH INC",
    "contactEmail": "LCHOMEHEALTH22@GMAIL.COM",
    "categoryName": "HOME HEALTH AGENCY",
    "categoryCode": "HHA",
    "licenseStatus": "ACTIVE",
    "inService": true,
    "licenseNumber": "550009076",
    "licenseEffectiveDate": "03/27/2025",
    "licenseExpirationDate": "03/26/2026",
    "dataDate": "10/18/2025",
    "capacity": 0,
    "address": "18039 CRENSHAW BLVD, SUITE 305",
    "city": "TORRANCE",
    "zip": "90504",
    "county": "LOS ANGELES",
    "phone": "(818) 640-0525",
    "lat": 33.866757,
    "lng": -118.326726
  },
  {
    "id": "630025911",
    "name": "SILVER LINE HEALTH SERVICES",
    "npi": null,
    "hcaiId": "406190306",
    "businessName": "SILVER LINE HEALTH SERVICES",
    "contactEmail": "SILVERLINEHEALTHSERVICES@GMAIL.COM",
    "categoryName": "HOME HEALTH AGENCY",
    "categoryCode": "HHA",
    "licenseStatus": "ACTIVE",
    "inService": true,
    "licenseNumber": "550009048",
    "licenseEffectiveDate": "03/27/2025",
    "licenseExpirationDate": "03/26/2026",
    "dataDate": "10/18/2025",
    "capacity": 0,
    "address": "18039 CRENSHAW BLVD, SUITE 303",
    "city": "TORRANCE",
    "zip": "90504",
    "county": "LOS ANGELES",
    "phone": "(310) 526-5276",
    "lat": 33.866757,
    "lng": -118.326726
  }
]