[
  {
    "id": "960002487",
    "name": "1736 FAMILY CRISIS CENTER",
    "npi": null,
    "hcaiId": "306196888",
    "businessName": "1736 FAMILY CRISIS CENTER",
    "contactEmail": "DPOWELL@1736FCC.ORG",
    "categoryName": "PSYCHOLOGY CLINIC",
    "categoryCode": "PSYCHC",
    "licenseStatus": "ACTIVE",
    "inService": true,
    "licenseNumber": "960001142",
    "licenseEffectiveDate": "01/02/2025",
    "licenseExpirationDate": "01/01/2026",
    "dataDate": "10/18/2025",
    "capacity": 0,
    "address": "21707 HAWTHORNE BLVD, SUITE 300",
    "city": "TORRANCE",
    "zip": "90503",
    "county": "LOS ANGELES",
    "phone": "(323) 739-3900",
    "lat": 33.830622,
    "lng": -118.353015
  },
  {
    "id": "630020320",
    "name": "AMARE' VISTA HOSPICE",
    "npi": null,
    "hcaiId": "406196150",
    "businessName": "AMARE' VISTA HOSPICE",
    "contactEmail": "AMAREVISTAHOSPICE@GMAIL.COM",
    "categoryName": "HOSPICE",
    "categoryCode": "HOSPICE",
    "licenseStatus": "ACTIVE",
    "inService": true,
    "licenseNumber": "550006045",
    "licenseEffectiveDate": "12/18/2024",
    "licenseExpirationDate": "12/17/2026",
    "dataDate": "10/18/2025",
    "capacity": 0,
    "address": "3655 TORRANCE BLVD, SUITE 322",
    "city": "TORRANCE",
    "zip": "90503",
    "county": "LOS ANGELES",
    "phone": "(424) 247-1218",
    "lat": 33.838227,
    "lng": -118.3506345
  },
  {
    "id": "910000009",
    "name": "BAY CREST CARE CENTER",
    "npi": "1063409472",
    "hcaiId": "206190055",
    "businessName": "BAY CREST CARE CENTER, LLC",
    "contactEmail": "ADMINISTRATOR@BAYCRESTCC.COM",
    "categoryName": "SKILLED NURSING FACILITY",
    "categoryCode": "SNF",
    "licenseStatus": "ACTIVE",
    "inService": true,
    "licenseNumber": "910000008",
    "licenseEffectiveDate": "11/15/2024",
    "licenseExpirationDate": "11/14/2025",
    "dataDate": "10/18/2025",
    "capacity": 80,
    "address": "3750 GARNET ST",
    "city": "TORRANCE",
    "zip": "90503",
    "county": "LOS ANGELES",
    "phone": "(310) 371-2431",
    "lat": 33.84297,
    "lng": -118.352997
  },
  {
    "id": "630018222",
    "name": "BLUE IRIS HOME HEALTH, INC.",
    "npi": null,
    "hcaiId": "406192055",
    "businessName": "BLUE IRIS HOME HEALTH, INC.",
    "contactEmail": "BLUEIRISHOMEHEALTH@YAHOO.COM",
    "categoryName": "HOME HEALTH AGENCY",
    "categoryCode": "HHA",
    "licenseStatus": "ACTIVE",
    "inService": true,
    "licenseNumber": "550005093",
    "licenseEffectiveDate": "11/27/2024",
    "licenseExpirationDate": "11/26/2025",
    "dataDate": "10/18/2025",
    "capacity": 0,
    "address": "3820 DEL AMO BLVD, SUITE 228",
    "city": "TORRANCE",
    "zip": "90503",
    "county": "LOS ANGELES",
    "phone": "(323) 774-6393",
    "lat": 33.848136,
    "lng": -118.3545945
  },
  {
    "id": "630012405",
    "name": "COASTAL CARE, INC.",
    "npi": "1528297231",
    "hcaiId": "406197447",
    "businessName": "COASTAL CARE, INC.",
    "contactEmail": "JSASSOVER@PRIMEHH.COM",
    "categoryName": "HOME HEALTH AGENCY",
    "categoryCode": "HHA",
    "licenseStatus": "ACTIVE",
    "inService": true,
    "licenseNumber": "550001362",
    "licenseEffectiveDate": "11/16/2024",
    "licenseExpirationDate": "11/15/2025",
    "dataDate": "10/18/2025",
    "capacity": 0,
    "address": "21707 HAWTHORNE BLVD, SUITE 106",
    "city": "TORRANCE",
    "zip": "90503",
    "county": "LOS ANGELES",
    "phone": "(310) 600-2935",
    "lat": 33.830622,
    "lng": -118.353015
  },
  {
    "id": "630012702",
    "name": "COMPCARE HOSPICE, INC",
    "npi": "1972747046",
    "hcaiId": "406191510",
    "businessName": "COMPCARE HOSPICE, INC.",
    "contactEmail": "COMPCAREHOSPICE@GMAIL.COM",
    "categoryName": "HOSPICE",
    "categoryCode": "HOSPICE",
    "licenseStatus": "ACTIVE",
    "inService": true,
    "licenseNumber": "550001488",
    "licenseEffectiveDate": "12/22/2024",
    "licenseExpirationDate": "12/21/2026",
    "dataDate": "10/18/2025",
    "capacity": 0,
    "address": "4305 TORRANCE BLVD, SUITE 200",
    "city": "TORRANCE",
    "zip": "90503",
    "county": "LOS ANGELES",
    "phone": "(323) 782-0441",
    "lat": 33.837921,
    "lng": -118.359216
  },
  {
    "id": "910000034",
    "name": "DRIFTWOOD HEALTHCARE CENTER",
    "npi": "1790001212",
    "hcaiId": "206190278",
    "businessName": "DRIFTWOOD HEALTHCARE & WELLNESS CENTER, LLC",
    "contactEmail": "ADMINISTRATOR@DRIFTWOODHC.COM",
    "categoryName": "SKILLED NURSING FACILITY",
    "categoryCode": "SNF",
    "licenseStatus": "ACTIVE",
    "inService": true,
    "licenseNumber": "910000045",
    "licenseEffectiveDate": "11/03/2025",
    "licenseExpirationDate": "11/02/2026",
    "dataDate": "10/18/2025",
    "capacity": 99,
    "address": "4109 EMERALD ST",
    "city": "TORRANCE",
    "zip": "90503",
    "county": "LOS ANGELES",
    "phone": "(310) 371-4628",
    "lat": 33.842007,
    "lng": -118.357164
  },
  {
    "id": "630026033",
    "name": "ELITE SURGERY CENTER OF SOUTH BAY",
    "npi": null,
    "hcaiId": null,
    "businessName": null,
    "contactEmail": null,
    "categoryName": "SURGICAL CLINIC",
    "categoryCode": "ASC",
    "licenseStatus": null,
    "inService": null,
    "licenseNumber": null,
    "licenseEffectiveDate": null,
    "licenseExpirationDate": null,
    "dataDate": "10/18/2025",
    "capacity": 0,
    "address": "20528 HAWTHORNE BLVD, SUITE 301",
    "city": "TORRANCE",
    "zip": "90503",
    "county": "LOS ANGELES",
    "phone": "(424) 247-9090",
    "lat": 33.844176,
    "lng": -118.3533885
  },
  {
    "id": "630014217",
    "name": "GLOBAL HOSPICE CARE",
    "npi": null,
    "hcaiId": "406198022",
    "businessName": "GLOBAL HOSPICE CARE, INC.",
    "contactEmail": "ASGCORP@YAHOO.COM",
    "categoryName": "HOSPICE",
    "categoryCode": "HOSPICE",
    "licenseStatus": "ACTIVE",
    "inService": true,
    "licenseNumber": "550002485",
    "licenseEffectiveDate": "10/17/2023",
    "licenseExpirationDate": "10/16/2025",
    "dataDate": "10/18/2025",
    "capacity": 0,
    "address": "3510 TORRANCE BLVD, SUITE 215",
    "city": "TORRANCE",
    "zip": "90503",
    "county": "LOS ANGELES",
    "phone": "(310) 543-7700",
    "lat": 33.836067,
    "lng": -118.3468455
  },
  {
    "id": "980002514",
    "name": "HIGH QUALITY HOME HEALTH AGENCY, INC.",
    "npi": "1053471847",
    "hcaiId": "406196765",
    "businessName": "HIGH QUALITY HOME HEALTH AGENCY, INC.",
    "contactEmail": "HIGHQUALITYHOMEHEALTH@YAHOO.COM",
    "categoryName": "HOME HEALTH AGENCY",
    "categoryCode": "HHA",
    "licenseStatus": "ACTIVE",
    "inService": true,
    "licenseNumber": "980001609",
    "licenseEffectiveDate": "11/28/2024",
    "licenseExpirationDate": "11/27/2025",
    "dataDate": "10/18/2025",
    "capacity": 0,
    "address": "21707 HAWTHORNE BLVD, SUITE 202",
    "city": "TORRANCE",
    "zip": "90503",
    "county": "LOS ANGELES",
    "phone": "(323) 954-8102",
    "lat": 33.830622,
    "lng": -118.353015
  },
  {
    "id": "630013001",
    "name": "HIGH QUALITY HOSPICE CARE",
    "npi": null,
    "hcaiId": "406197658",
    "businessName": "HIGH QUALITY HOSPICE CARE",
    "contactEmail": "HIGHQUALITYHOSPICE@GMAIL.COM",
    "categoryName": "HOSPICE",
    "categoryCode": "HOSPICE",
    "licenseStatus": "ACTIVE",
    "inService": true,
    "licenseNumber": "550001759",
    "licenseEffectiveDate": "11/04/2023",
    "licenseExpirationDate": "11/03/2025",
    "dataDate": "10/18/2025",
    "capacity": 0,
    "address": "21707 HAWTHORNE BLVD, SUITE 304",
    "city": "TORRANCE",
    "zip": "90503",
    "county": "LOS ANGELES",
    "phone": "(310) 543-4679",
    "lat": 33.830622,
    "lng": -118.353015
  },
  {
    "id": "630013399",
    "name": "LEGEND HOME HEALTH, INC.",
    "npi": null,
    "hcaiId": "406197775",
    "businessName": "LEGEND HOME HEALTH, INC.",
    "contactEmail": "ASGCORP@YAHOO.COM",
    "categoryName": "HOME HEALTH AGENCY",
    "categoryCode": "HHA",
    "licenseStatus": "ACTIVE",
    "inService": true,
    "licenseNumber": "550002040",
    "licenseEffectiveDate": "06/06/2025",
    "licenseExpirationDate": "06/05/2026",
    "dataDate": "10/18/2025",
    "capacity": 0,
    "address": "3510 TORRANCE BLVD, SUITE 111",
    "city": "TORRANCE",
    "zip": "90503",
    "county": "LOS ANGELES",
    "phone": "(310) 540-4059",
    "lat": 33.836067,
    "lng": -118.3468455
  },
  {
    "id": "980001254",
    "name": "PHYSICIANS CHOICE HOME HEALTH, INC.",
    "npi": "1538114913",
    "hcaiId": "406194419",
    "businessName": "PHYSICIANS CHOICE HOME HEALTH, INC.",
    "contactEmail": "ADMIN@PHYSCHOICEHH.COM",
    "categoryName": "HOME HEALTH AGENCY",
    "categoryCode": "HHA",
    "licenseStatus": "ACTIVE",
    "inService": true,
    "licenseNumber": "980000685",
    "licenseEffectiveDate": "03/19/2025",
    "licenseExpirationDate": "03/18/2026",
    "dataDate": "10/18/2025",
    "capacity": 0,
    "address": "3528 TORRANCE BLVD, SUITE 220",
    "city": "TORRANCE",
    "zip": "90503",
    "county": "LOS ANGELES",
    "phone": "(310) 793-1616",
    "lat": 33.83594742,
    "lng": -118.3475406
  },
  {
    "id": "980001399",
    "name": "PROVIDENCE HOME HEALTH LA COUNTY SOUTH",
    "npi": "1700890514",
    "hcaiId": "406194655",
    "businessName": "PROVIDENCE HEALTH SYSTEM - SOUTHERN CALIFORNIA",
    "contactEmail": "SARAH.ELLIOTT@PROVIDENCE.ORG",
    "categoryName": "HOME HEALTH AGENCY",
    "categoryCode": "HHA",
    "licenseStatus": "ACTIVE",
    "inService": true,
    "licenseNumber": "980000818",
    "licenseEffectiveDate": "11/01/2025",
    "licenseExpirationDate": "10/31/2026",
    "dataDate": "10/18/2025",
    "capacity": 0,
    "address": "5315 TORRANCE BLVD, SUITE B-169",
    "city": "TORRANCE",
    "zip": "90503",
    "county": "LOS ANGELES",
    "phone": "(310) 543-3450",
    "lat": 33.838344,
    "lng": -118.3705605
  },
  {
    "id": "980001577",
    "name": "PROVIDENCE HOSPICE LA COUNTY",
    "npi": null,
    "hcaiId": "406194731",
    "businessName": "PROVIDENCE TRINITYCARE HOSPICE",
    "contactEmail": "SHAYNA.STILES@PROVIDENCE.ORG",
    "categoryName": "HOSPICE",
    "categoryCode": "HOSPICE",
    "licenseStatus": "ACTIVE",
    "inService": true,
    "licenseNumber": "980000880",
    "licenseEffectiveDate": "05/31/2024",
    "licenseExpirationDate": "05/30/2026",
    "dataDate": "10/18/2025",
    "capacity": 0,
    "address": "5315 TORRANCE BLVD, SUITE B-1",
    "city": "TORRANCE",
    "zip": "90503",
    "county": "LOS ANGELES",
    "phone": "(310) 543-3400",
    "lat": 33.838344,
    "lng": -118.3705605
  },
  {
    "id": "930000081",
    "name": "PROVIDENCE LITTLE COMPANY OF MARY MEDICAL CENTER TORRANCE",
    "npi": "1902844988",
    "hcaiId": "106190470",
    "businessName": "PROVIDENCE HEALTH SYSTEM - SOUTHERN CALIFORNIA",
    "contactEmail": "PLCMT.REGULATORY@PROVIDENCE.ORG",
    "categoryName": "GENERAL ACUTE CARE HOSPITAL",
    "categoryCode": "GACH",
    "licenseStatus": "ACTIVE",
    "inService": true,
    "licenseNumber": "930000089",
    "licenseEffectiveDate": "11/01/2025",
    "licenseExpirationDate": "10/31/2026",
    "dataDate": "10/18/2025",
    "capacity": 327,
    "address": "4101 TORRANCE BLVD",
    "city": "TORRANCE",
    "zip": "90503",
    "county": "LOS ANGELES",
    "phone": "(310) 303-6100",
    "lat": 33.83856,
    "lng": -118.3571595
  },
  {
    "id": "930000773",
    "name": "PROVIDENCE LITTLE COMPANY OF MARY TRANSITIONAL CARE CENTER",
    "npi": "1952348518",
    "hcaiId": "206190702",
    "businessName": "PROVIDENCE HEALTH SYSTEM - SOUTHERN CALIFORNIA",
    "contactEmail": "PLCMT-TCC.REGULATORY@PROVIDENCE.ORG",
    "categoryName": "SKILLED NURSING FACILITY",
    "categoryCode": "SNF",
    "licenseStatus": "ACTIVE",
    "inService": true,
    "licenseNumber": "930000089",
    "licenseEffectiveDate": "11/01/2025",
    "licenseExpirationDate": "10/31/2026",
    "dataDate": "10/18/2025",
    "capacity": 115,
    "address": "4320 MARICOPA ST",
    "city": "TORRANCE",
    "zip": "90503",
    "county": "LOS ANGELES",
    "phone": null,
    "lat": 33.839397,
    "lng": -118.3597155
  },
  {
    "id": "630024381",
    "name": "R&R SURGICAL INSTITUTE",
    "npi": null,
    "hcaiId": null,
    "businessName": null,
    "contactEmail": null,
    "categoryName": "SURGICAL CLINIC",
    "categoryCode": "ASC",
    "licenseStatus": null,
    "inService": null,
    "licenseNumber": null,
    "licenseEffectiveDate": null,
    "licenseExpirationDate": null,
    "dataDate": "10/18/2025",
    "capacity": 0,
    "address": "21250 HAWTHORNE BLVD, SUITE 435",
    "city": "TORRANCE",
    "zip": "90503",
    "county": "LOS ANGELES",
    "phone": "(310) 326-2102",
    "lat": 33.836121,
    "lng": -118.352097
  },
  {
    "id": "630007643",
    "name": "SILVER LINING HOME HEALTH CARE SERVICES",
    "npi": "1073684171",
    "hcaiId": "406194796",
    "businessName": "SILVER LINING PUBLIC RELATIONS AND COMMUNITY RESOURCES, INC.",
    "contactEmail": "SILVERLHH@GMAIL.COM",
    "categoryName": "HOME HEALTH AGENCY",
    "categoryCode": "HHA",
    "licenseStatus": "ACTIVE",
    "inService": true,
    "licenseNumber": "550000426",
    "licenseEffectiveDate": "11/27/2024",
    "licenseExpirationDate": "11/26/2025",
    "dataDate": "10/18/2025",
    "capacity": 0,
    "address": "370 CRENSHAW BLVD, SUITE E202M",
    "city": "TORRANCE",
    "zip": "90503",
    "county": "LOS ANGELES",
    "phone": "(310) 320-5000",
    "lat": 33.845481,
    "lng": -118.327815
  },
  {
    "id": "910000036",
    "name": "THE EARLWOOD",
    "npi": "1720153620",
    "hcaiId": "206190253",
    "businessName": "THE EARLWOOD, LLC",
    "contactEmail": "ADMINISTRATOR@EARLWOODCENTER.COM",
    "categoryName": "SKILLED NURSING FACILITY",
    "categoryCode": "SNF",
    "licenseStatus": "ACTIVE",
    "inService": true,
    "licenseNumber": "910000041",
    "licenseEffectiveDate": "11/15/2024",
    "licenseExpirationDate": "11/14/2025",
    "dataDate": "10/18/2025",
    "capacity": 87,
    "address": "20820 EARL ST",
    "city": "TORRANCE",
    "zip": "90503",
    "county": "LOS ANGELES",
    "phone": "(310) 371-1228",
    "lat": 33.840684,
    "lng": -118.357515
  },
  {
    "id": "910000091",
    "name": "TORRANCE CARE CENTER WEST, INC.",
    "npi": "1710072558",
    "hcaiId": "206190861",
    "businessName": "TORRANCE CARE CENTER WEST, INC.",
    "contactEmail": "SUSAN.LARA@TORRANCECARE.COM",
    "categoryName": "SKILLED NURSING FACILITY",
    "categoryCode": "SNF",
    "licenseStatus": "ACTIVE",
    "inService": true,
    "licenseNumber": "910000121",
    "licenseEffectiveDate": "11/01/2025",
    "licenseExpirationDate": "10/31/2026",
    "dataDate": "10/18/2025",
    "capacity": 195,
    "address": "4333 TORRANCE BLVD",
    "city": "TORRANCE",
    "zip": "90503",
    "county": "LOS ANGELES",
    "phone": "(310) 370-4561",
    "lat": 33.838263,
    "lng": -118.360089
  },
  {
    "id": "630017407",
    "name": "TORRANCE EMERALD DIALYSIS",
    "npi": null,
    "hcaiId": "306190407",
    "businessName": "HILGARDS DIALYSIS LLC",
    "contactEmail": "CAL_C@DAVITA.COM",
    "categoryName": "CHRONIC DIALYSIS CLINIC",
    "categoryCode": "ESRD/CDC",
    "licenseStatus": "ACTIVE",
    "inService": true,
    "licenseNumber": "550004413",
    "licenseEffectiveDate": "10/24/2025",
    "licenseExpirationDate": "10/23/2026",
    "dataDate": "10/18/2025",
    "capacity": 25,
    "address": "20821 HAWTHORNE BLVD",
    "city": "TORRANCE",
    "zip": "90503",
    "county": "LOS ANGELES",
    "phone": "(310) 214-1715",
    "lat": 33.840738,
    "lng": -118.3540095
  },
  {
    "id": "930000897",
    "name": "U.S. RENAL CARE EARL STREET DIALYSIS",
    "npi": "1922079987",
    "hcaiId": "306194210",
    "businessName": "USRC EARL STREET, LLC",
    "contactEmail": "LICENSING@USRENALCARE.COM",
    "categoryName": "CHRONIC DIALYSIS CLINIC",
    "categoryCode": "ESRD/CDC",
    "licenseStatus": "ACTIVE",
    "inService": true,
    "licenseNumber": "930000454",
    "licenseEffectiveDate": "11/10/2024",
    "licenseExpirationDate": "11/09/2025",
    "dataDate": "10/18/2025",
    "capacity": 9,
    "address": "20911 EARL ST, SUITE 160",
    "city": "TORRANCE",
    "zip": "90503",
    "county": "LOS ANGELES",
    "phone": "(310) 371-4244",
    "lat": 33.840441,
    "lng": -118.3586085
  },
  {
    "id": "630013230",
    "name": "U.S. RENAL CARE TORRANCE DIALYSIS",
    "npi": null,
    "hcaiId": "306197548",
    "businessName": "TORRANCE DIALYSIS CENTER, LLC",
    "contactEmail": "LICENSING@USRENALCARE.COM",
    "categoryName": "CHRONIC DIALYSIS CLINIC",
    "categoryCode": "ESRD/CDC",
    "licenseStatus": "ACTIVE",
    "inService": true,
    "licenseNumber": "550001617",
    "licenseEffectiveDate": "06/23/2025",
    "licenseExpirationDate": "06/22/2026",
    "dataDate": "10/18/2025",
    "capacity": 28,
    "address": "20430 HAWTHORNE BLVD.",
    "city": "TORRANCE",
    "zip": "90503",
    "county": "LOS ANGELES",
    "phone": "(562) 495-8075",
    "lat": 33.846039,
    "lng": -118.353411
  }
]