[
  {
    "id": "630017137",
    "name": "1 HEART HOSPICE AND PALLIATIVE CARE, INC.",
    "npi": "1174156285",
    "hcaiId": "406191327",
    "businessName": "1 HEART HOSPICE AND PALLIATIVE CARE, INC.",
    "contactEmail": "ADMIN@1HEARTHOSPICE.COM",
    "categoryName": "HOSPICE",
    "categoryCode": "HOSPICE",
    "licenseStatus": "ACTIVE",
    "inService": true,
    "licenseNumber": "550004326",
    "licenseEffectiveDate": "07/05/2024",
    "licenseExpirationDate": "07/04/2026",
    "dataDate": "10/18/2025",
    "capacity": 0,
    "address": "23720 ARLINGTON AVE, SUITE 4B",
    "city": "TORRANCE",
    "zip": "90501",
    "county": "LOS ANGELES",
    "phone": "(424) 263-5332",
    "lat": 33.809121,
    "lng": -118.3196295
  },
  {
    "id": "980002131",
    "name": "ACCXELL HOME HEALTH AGENCY",
    "npi": "1750432167",
    "hcaiId": "406304244",
    "businessName": "ACCXELL HOME HEALTH AGENCY, INC.",
    "contactEmail": "ACCXELL@SBCGLOBAL.NET",
    "categoryName": "HOME HEALTH AGENCY",
    "categoryCode": "HHA",
    "licenseStatus": "ACTIVE",
    "inService": true,
    "licenseNumber": "980001274",
    "licenseEffectiveDate": "12/31/2024",
    "licenseExpirationDate": "12/30/2025",
    "dataDate": "10/18/2025",
    "capacity": 0,
    "address": "370 AMAPOLA AVE, SUITE 203",
    "city": "TORRANCE",
    "zip": "90501",
    "county": "LOS ANGELES",
    "phone": "(310) 347-3327",
    "lat": 33.84576,
    "lng": -118.32273
  },
  {
    "id": "630021375",
    "name": "ALLPEACE CARE",
    "npi": null,
    "hcaiId": "406193521",
    "businessName": "MAGIC TOUCH HOSPICE",
    "contactEmail": "ADMIN@ALLPEACECARE.COM",
    "categoryName": "HOSPICE",
    "categoryCode": "HOSPICE",
    "licenseStatus": "ACTIVE",
    "inService": true,
    "licenseNumber": "550006458",
    "licenseEffectiveDate": "06/08/2025",
    "licenseExpirationDate": "06/07/2027",
    "dataDate": "10/18/2025",
    "capacity": 0,
    "address": "20710 MANHATTAN PL, SUITE 132",
    "city": "TORRANCE",
    "zip": "90501",
    "county": "LOS ANGELES",
    "phone": "(310) 956-1240",
    "lat": 33.842889,
    "lng": -118.3112235
  },
  {
    "id": "630008663",
    "name": "ALPHA HOSPICE CARE",
    "npi": "1720147689",
    "hcaiId": "406197240",
    "businessName": "ALPHA HEALTHCARE MANAGEMENT, INC.",
    "contactEmail": "INFO@ALPHAHOSPICECARE.COM",
    "categoryName": "HOSPICE",
    "categoryCode": "HOSPICE",
    "licenseStatus": "ACTIVE",
    "inService": true,
    "licenseNumber": "550000394",
    "licenseEffectiveDate": "01/21/2025",
    "licenseExpirationDate": "01/20/2027",
    "dataDate": "10/18/2025",
    "capacity": 0,
    "address": "373 VAN NESS AVE, SUITE 260",
    "city": "TORRANCE",
    "zip": "90501",
    "county": "LOS ANGELES",
    "phone": "(310) 771-0838",
    "lat": 33.84542034,
    "lng": -118.3186013
  },
  {
    "id": "630021802",
    "name": "ALTERNATIVE HOSPICE CARE INC.",
    "npi": null,
    "hcaiId": null,
    "businessName": "ALTERNATIVE HOSPICE CARE INC.",
    "contactEmail": "INFO@ALTERNATIVEHOSPICECARE.COM",
    "categoryName": "HOSPICE",
    "categoryCode": "HOSPICE",
    "licenseStatus": "ACTIVE",
    "inService": true,
    "licenseNumber": "550007633",
    "licenseEffectiveDate": "12/21/2023",
    "licenseExpirationDate": "12/20/2025",
    "dataDate": "10/18/2025",
    "capacity": 0,
    "address": "21151 S WESTERN AVE, SUITE 240",
    "city": "TORRANCE",
    "zip": "90501",
    "county": "LOS ANGELES",
    "phone": "(310) 328-8227",
    "lat": 33.139638,
    "lng": -117.156654
  },
  {
    "id": "630017199",
    "name": "AMARE HOSPICE",
    "npi": "1174068316",
    "hcaiId": "406191555",
    "businessName": "AMARE HOSPICE",
    "contactEmail": "AMAREHOSPICE@GMAIL.COM",
    "categoryName": "HOSPICE",
    "categoryCode": "HOSPICE",
    "licenseStatus": "ACTIVE",
    "inService": true,
    "licenseNumber": "550004489",
    "licenseEffectiveDate": "01/02/2025",
    "licenseExpirationDate": "01/01/2027",
    "dataDate": "10/18/2025",
    "capacity": 0,
    "address": "21151 S WESTERN AVE, SUITE 162",
    "city": "TORRANCE",
    "zip": "90501",
    "county": "LOS ANGELES",
    "phone": "(424) 558-3456",
    "lat": 33.836994,
    "lng": -118.3100085
  },
  {
    "id": "630008124",
    "name": "BEST CARE HOME HEALTH AGENCY, INC.",
    "npi": "1598970535",
    "hcaiId": "406196858",
    "businessName": "BEST CARE HOME HEALTH AGENCY, INC.",
    "contactEmail": "BESTCARE2H@GMAIL.COM",
    "categoryName": "HOME HEALTH AGENCY",
    "categoryCode": "HHA",
    "licenseStatus": "ACTIVE",
    "inService": true,
    "licenseNumber": "550000317",
    "licenseEffectiveDate": "11/22/2025",
    "licenseExpirationDate": "11/21/2026",
    "dataDate": "10/18/2025",
    "capacity": 0,
    "address": "2204 TORRANCE BLVD, SUITE 104A",
    "city": "TORRANCE",
    "zip": "90501",
    "county": "LOS ANGELES",
    "phone": "(310) 540-2637",
    "lat": 33.836112,
    "lng": -118.321686
  },
  {
    "id": "630016715",
    "name": "BRIDGEWATER HOSPICE",
    "npi": "1063861540",
    "hcaiId": "406190653",
    "businessName": "AMAZON HOSPICE, INC.",
    "contactEmail": "OQUNLADEUS@GMAIL.COM",
    "categoryName": "HOSPICE",
    "categoryCode": "HOSPICE",
    "licenseStatus": "ACTIVE",
    "inService": true,
    "licenseNumber": "550004172",
    "licenseEffectiveDate": "02/15/2024",
    "licenseExpirationDate": "02/14/2026",
    "dataDate": "10/18/2025",
    "capacity": 0,
    "address": "2420 W. CARSON STREET, SUITE 205",
    "city": "TORRANCE",
    "zip": "90501",
    "county": "LOS ANGELES",
    "phone": "(310) 320-0443",
    "lat": 33.830982,
    "lng": -118.3263975
  },
  {
    "id": "630021567",
    "name": "CARING SISTERS HOSPICE & PALLIATIVE CARE LLC",
    "npi": null,
    "hcaiId": "406193922",
    "businessName": "CARING SISTERS HOSPICE & PALLIATIVE CARE LLC",
    "contactEmail": "CARINGSISTERS.INFO@GMAIL.COM",
    "categoryName": "HOSPICE",
    "categoryCode": "HOSPICE",
    "licenseStatus": "ACTIVE",
    "inService": true,
    "licenseNumber": "550007140",
    "licenseEffectiveDate": "11/08/2025",
    "licenseExpirationDate": "11/07/2027",
    "dataDate": "10/18/2025",
    "capacity": 0,
    "address": "21171 S WESTERN AVE, SUITE 2838",
    "city": "TORRANCE",
    "zip": "90501",
    "county": "LOS ANGELES",
    "phone": "(562) 826-6648",
    "lat": 33.836922,
    "lng": -118.309923
  },
  {
    "id": "630008641",
    "name": "CHERISH HOSPICE",
    "npi": "1225207269",
    "hcaiId": "406197113",
    "businessName": "REELE CORP",
    "contactEmail": "ETSAYAS@AOL.COM",
    "categoryName": "HOSPICE",
    "categoryCode": "HOSPICE",
    "licenseStatus": "ACTIVE",
    "inService": true,
    "licenseNumber": "550000418",
    "licenseEffectiveDate": "03/13/2024",
    "licenseExpirationDate": "03/12/2026",
    "dataDate": "10/18/2025",
    "capacity": 0,
    "address": "2340 PLAZA DEL AMO, SUITE 230",
    "city": "TORRANCE",
    "zip": "90501",
    "county": "LOS ANGELES",
    "phone": "(310) 320-1677",
    "lat": 33.830298,
    "lng": -118.3242375
  },
  {
    "id": "630015620",
    "name": "COMFORTMAVENS-TORRANCE",
    "npi": null,
    "hcaiId": "206198539",
    "businessName": "GREEN MEADOW HOMES, INC.",
    "contactEmail": "COMFORTMAVEN2016@YAHOO.COM",
    "categoryName": "CONGREGATE LIVING HEALTH FACILITY",
    "categoryCode": "CLHF",
    "licenseStatus": "ACTIVE",
    "inService": true,
    "licenseNumber": "550003850",
    "licenseEffectiveDate": "04/24/2025",
    "licenseExpirationDate": "04/23/2026",
    "dataDate": "10/18/2025",
    "capacity": 6,
    "address": "2460 W. 229TH ST.",
    "city": "TORRANCE",
    "zip": "90501",
    "county": "LOS ANGELES",
    "phone": "(424) 378-1101",
    "lat": 33.818346,
    "lng": -118.327401
  },
  {
    "id": "630020169",
    "name": "CONCIERGE HOSPICE AND PALLIATIVE CARE",
    "npi": null,
    "hcaiId": "406193867",
    "businessName": "CONCIERGE HOSPICE AND PALLIATIVE CARE",
    "contactEmail": "NELLIEMINASYAN@GMAIL.COM",
    "categoryName": "HOSPICE",
    "categoryCode": "HOSPICE",
    "licenseStatus": "ACTIVE",
    "inService": true,
    "licenseNumber": "550007305",
    "licenseEffectiveDate": "11/06/2025",
    "licenseExpirationDate": "11/05/2027",
    "dataDate": "10/18/2025",
    "capacity": 0,
    "address": "2055 TORRANCE BLVD, SUITE 4",
    "city": "TORRANCE",
    "zip": "90501",
    "county": "LOS ANGELES",
    "phone": "(424) 999-5143",
    "lat": 33.83667,
    "lng": -118.3179645
  },
  {
    "id": "630021207",
    "name": "CONFORTO HOSPICE, INC.",
    "npi": null,
    "hcaiId": "406193657",
    "businessName": "CONFORTO HOSPICE, INC.",
    "contactEmail": "CONFORTOHOSPICE@GMAIL.COM",
    "categoryName": "HOSPICE",
    "categoryCode": "HOSPICE",
    "licenseStatus": "ACTIVE",
    "inService": true,
    "licenseNumber": "550006920",
    "licenseEffectiveDate": "09/04/2023",
    "licenseExpirationDate": "09/03/2025",
    "dataDate": "10/18/2025",
    "capacity": 0,
    "address": "21151 S WESTERN AVE, SUITE 143",
    "city": "TORRANCE",
    "zip": "90501",
    "county": "LOS ANGELES",
    "phone": "(310) 328-0888",
    "lat": 33.836994,
    "lng": -118.3100085
  },
  {
    "id": "630016797",
    "name": "CPI SURGERY CENTER",
    "npi": "1134535743",
    "hcaiId": null,
    "businessName": null,
    "contactEmail": null,
    "categoryName": "SURGICAL CLINIC",
    "categoryCode": "ASC",
    "licenseStatus": null,
    "inService": null,
    "licenseNumber": null,
    "licenseEffectiveDate": null,
    "licenseExpirationDate": null,
    "dataDate": "10/18/2025",
    "capacity": 0,
    "address": "1406 CRENSHAW BLVD",
    "city": "TORRANCE",
    "zip": "90501",
    "county": "LOS ANGELES",
    "phone": null,
    "lat": 33.834132,
    "lng": -118.3284
  },
  {
    "id": "630024237",
    "name": "DEDICATED HEALTH CARE MANAGEMENT",
    "npi": null,
    "hcaiId": "406197009",
    "businessName": "DEDICATED HEALTH CARE MANAGEMENT",
    "contactEmail": "DEDICATEDHCM@GMAIL.COM",
    "categoryName": "HOME HEALTH AGENCY",
    "categoryCode": "HHA",
    "licenseStatus": "ACTIVE",
    "inService": true,
    "licenseNumber": "550008391",
    "licenseEffectiveDate": "01/30/2025",
    "licenseExpirationDate": "01/29/2026",
    "dataDate": "10/18/2025",
    "capacity": 0,
    "address": "21151 S WESTERN AVE, SUITE 206",
    "city": "TORRANCE",
    "zip": "90501",
    "county": "LOS ANGELES",
    "phone": "(805) 298-0012",
    "lat": 33.837003,
    "lng": -118.30999
  },
  {
    "id": "630016447",
    "name": "DIAMOND HOSPICE SERVICES INC",
    "npi": "1609249523",
    "hcaiId": "406190863",
    "businessName": "DIAMOND HOSPICE SERVICES, INC.",
    "contactEmail": "DIAMONDHOSPICESERVICE@GMAIL.COM",
    "categoryName": "HOSPICE",
    "categoryCode": "HOSPICE",
    "licenseStatus": "ACTIVE",
    "inService": true,
    "licenseNumber": "550004222",
    "licenseEffectiveDate": "08/20/2025",
    "licenseExpirationDate": "04/03/2026",
    "dataDate": "10/18/2025",
    "capacity": 0,
    "address": "21221 S WESTERN AVE, SUITE 140 RM 1601",
    "city": "TORRANCE",
    "zip": "90501",
    "county": "LOS ANGELES",
    "phone": "(810) 817-5665",
    "lat": 33.83619201,
    "lng": -118.30981
  },
  {
    "id": "630016913",
    "name": "EPIONE HOSPICE, INC.",
    "npi": "1528513389",
    "hcaiId": "406190868",
    "businessName": "EPIONE HOSPICE, INC.",
    "contactEmail": "ADMIN@EPIONEHOSPICE.COM",
    "categoryName": "HOSPICE",
    "categoryCode": "HOSPICE",
    "licenseStatus": "ACTIVE",
    "inService": true,
    "licenseNumber": "550004077",
    "licenseEffectiveDate": "03/29/2022",
    "licenseExpirationDate": "11/28/2023",
    "dataDate": "10/18/2025",
    "capacity": 0,
    "address": "21151 S WESTERN AVE, SUITE 273",
    "city": "TORRANCE",
    "zip": "90501",
    "county": "LOS ANGELES",
    "phone": "(818) 930-5010",
    "lat": 33.836994,
    "lng": -118.3100085
  },
  {
    "id": "630010984",
    "name": "GREATER HOME HEALTH CARE INCORPORATED",
    "npi": "1295876290",
    "hcaiId": "406197089",
    "businessName": "GREATER HOME HEALTH CARE INCORPORATED",
    "contactEmail": "GREATERHOMEHEALTH@YAHOO.COM",
    "categoryName": "HOME HEALTH AGENCY",
    "categoryCode": "HHA",
    "licenseStatus": "ACTIVE",
    "inService": true,
    "licenseNumber": "550000528",
    "licenseEffectiveDate": "05/04/2025",
    "licenseExpirationDate": "05/03/2026",
    "dataDate": "10/18/2025",
    "capacity": 0,
    "address": "2400 W CARSON ST, SUITE 235",
    "city": "TORRANCE",
    "zip": "90501",
    "county": "LOS ANGELES",
    "phone": "(310) 787-1731",
    "lat": 33.830883,
    "lng": -118.3262175
  },
  {
    "id": "980002437",
    "name": "HOPE INTERNATIONAL HOSPICE, INC.",
    "npi": null,
    "hcaiId": "406196700",
    "businessName": "HOPE INTERNATIONAL HOSPICE, INC.",
    "contactEmail": "HOPE@HIHOSPICE.COM",
    "categoryName": "HOSPICE",
    "categoryCode": "HOSPICE",
    "licenseStatus": "ACTIVE",
    "inService": true,
    "licenseNumber": "980001544",
    "licenseEffectiveDate": "06/29/2025",
    "licenseExpirationDate": "06/28/2027",
    "dataDate": "10/18/2025",
    "capacity": 0,
    "address": "20705 S WESTERN AVE, SUITE 112",
    "city": "TORRANCE",
    "zip": "90501",
    "county": "LOS ANGELES",
    "phone": "(310) 782-7070",
    "lat": 33.842646,
    "lng": -118.3103505
  },
  {
    "id": "630019289",
    "name": "MEDSTAR HOME HEALTH, INC.",
    "npi": null,
    "hcaiId": "406192814",
    "businessName": "MEDSTAR HOME HEALTH, INC.",
    "contactEmail": "MEDSTAR_HOMEHEALTH@YAHOO.COM",
    "categoryName": "HOME HEALTH AGENCY",
    "categoryCode": "HHA",
    "licenseStatus": "ACTIVE",
    "inService": true,
    "licenseNumber": "550005655",
    "licenseEffectiveDate": "08/14/2025",
    "licenseExpirationDate": "08/13/2026",
    "dataDate": "10/18/2025",
    "capacity": 0,
    "address": "21221 S WESTERN AVE, SUITE 140, ROOM 1608",
    "city": "TORRANCE",
    "zip": "90501",
    "county": "LOS ANGELES",
    "phone": "(818) 967-5544",
    "lat": 33.83619901,
    "lng": -118.309832
  },
  {
    "id": "630018441",
    "name": "OMEGALIFE HOSPICE OF CALIFORNIA, INC",
    "npi": "1982174512",
    "hcaiId": "406192017",
    "businessName": "OMEGALIFE HOSPICE OF CALIFORNIA, INC",
    "contactEmail": "ASGCORP@YAHOO.COM",
    "categoryName": "HOSPICE",
    "categoryCode": "HOSPICE",
    "licenseStatus": "ACTIVE",
    "inService": true,
    "licenseNumber": "550005079",
    "licenseEffectiveDate": "10/19/2023",
    "licenseExpirationDate": "10/18/2025",
    "dataDate": "10/18/2025",
    "capacity": 0,
    "address": "21151 S WESTERN AVE, SUITE 256",
    "city": "TORRANCE",
    "zip": "90501",
    "county": "LOS ANGELES",
    "phone": "(310) 989-1941",
    "lat": 33.836994,
    "lng": -118.3100085
  },
  {
    "id": "630021980",
    "name": "PACIFIC HEARTS HOSPICE, INC.",
    "npi": null,
    "hcaiId": "406195080",
    "businessName": "PACIFIC HEARTS HOSPICE, INC.",
    "contactEmail": "PACIFICHEARTSHOSPICE@GMAIL.COM",
    "categoryName": "HOSPICE",
    "categoryCode": "HOSPICE",
    "licenseStatus": "ACTIVE",
    "inService": true,
    "licenseNumber": "550007529",
    "licenseEffectiveDate": "12/09/2025",
    "licenseExpirationDate": "12/08/2027",
    "dataDate": "10/18/2025",
    "capacity": 0,
    "address": "21151 S WESTERN AVE, SUITE 281",
    "city": "TORRANCE",
    "zip": "90501",
    "county": "LOS ANGELES",
    "phone": "(310) 755-6527",
    "lat": 33.836994,
    "lng": -118.3100085
  },
  {
    "id": "630012858",
    "name": "PEACE HOME HEALTH",
    "npi": "1487968749",
    "hcaiId": "406197568",
    "businessName": "PEACE HOME HEALTH",
    "contactEmail": "PEACEHOMEHEALTH10@GMAIL.COM",
    "categoryName": "HOME HEALTH AGENCY",
    "categoryCode": "HHA",
    "licenseStatus": "ACTIVE",
    "inService": true,
    "licenseNumber": "550001642",
    "licenseEffectiveDate": "05/24/2025",
    "licenseExpirationDate": "05/23/2026",
    "dataDate": "10/18/2025",
    "capacity": 0,
    "address": "2420 W CARSON ST, SUITE 200",
    "city": "TORRANCE",
    "zip": "90501",
    "county": "LOS ANGELES",
    "phone": "(310) 212-6200",
    "lat": 33.830982,
    "lng": -118.3263975
  },
  {
    "id": "630018867",
    "name": "PERPETUAL DAYS HOSPICE, INC.",
    "npi": null,
    "hcaiId": "406192253",
    "businessName": "PERPETUAL DAYS HOSPICE, INC.",
    "contactEmail": "PERPETUALDAYSHOSPICEINC@GMAIL.COM",
    "categoryName": "HOSPICE",
    "categoryCode": "HOSPICE",
    "licenseStatus": "ACTIVE",
    "inService": true,
    "licenseNumber": "550005263",
    "licenseEffectiveDate": "01/25/2024",
    "licenseExpirationDate": "01/24/2026",
    "dataDate": "10/18/2025",
    "capacity": 0,
    "address": "21151 S WESTERN AVE, SUITE 284",
    "city": "TORRANCE",
    "zip": "90501",
    "county": "LOS ANGELES",
    "phone": "(310) 755-2518",
    "lat": 33.836994,
    "lng": -118.3100085
  },
  {
    "id": "630027299",
    "name": "PHOENIX HOME HEALTH",
    "npi": null,
    "hcaiId": null,
    "businessName": "PHOENIX HOME HEALTH TORRANCE, LLC",
    "contactEmail": "PHONEIXHOMEHEALTHHOLDINGS@GMAIL.COM",
    "categoryName": "HOME HEALTH AGENCY",
    "categoryCode": "HHA",
    "licenseStatus": "ACTIVE",
    "inService": true,
    "licenseNumber": "550009661",
    "licenseEffectiveDate": "08/28/2025",
    "licenseExpirationDate": "02/27/2026",
    "dataDate": "10/18/2025",
    "capacity": 0,
    "address": "21151 S WESTERN AVE, SUITE 154",
    "city": "TORRANCE",
    "zip": "90501",
    "county": "LOS ANGELES",
    "phone": "(424) 262-2933",
    "lat": 33.83692702,
    "lng": -118.309934
  },
  {
    "id": "960001277",
    "name": "PREGNANCY HELP CENTER",
    "npi": null,
    "hcaiId": "306194222",
    "businessName": "PREGNANCY HELP CENTER",
    "contactEmail": "AGROSS@PHCTORRANCE.ORG",
    "categoryName": "PRIMARY CARE CLINIC",
    "categoryCode": "COMTYC",
    "licenseStatus": "ACTIVE",
    "inService": true,
    "licenseNumber": "960000663",
    "licenseEffectiveDate": "06/02/2025",
    "licenseExpirationDate": "06/01/2026",
    "dataDate": "10/18/2025",
    "capacity": 0,
    "address": "1311 CRENSHAW BLVD, SUITE A",
    "city": "TORRANCE",
    "zip": "90501",
    "county": "LOS ANGELES",
    "phone": "(424) 263-4855",
    "lat": 33.835059,
    "lng": -118.329183
  },
  {
    "id": "630019248",
    "name": "REAL ASSURANCE HOSPICE CARE",
    "npi": null,
    "hcaiId": "406195220",
    "businessName": "REAL ASSURANCE HEALTHCARE SERVICES LLC",
    "contactEmail": "REALASSURANCEHOSPICECARE@GMAIL.COM",
    "categoryName": "HOSPICE",
    "categoryCode": "HOSPICE",
    "licenseStatus": "ACTIVE",
    "inService": true,
    "licenseNumber": "550007498",
    "licenseEffectiveDate": "12/09/2023",
    "licenseExpirationDate": "12/08/2025",
    "dataDate": "10/18/2025",
    "capacity": 0,
    "address": "21151 S WESTERN AVE, SUITE 228",
    "city": "TORRANCE",
    "zip": "90501",
    "county": "LOS ANGELES",
    "phone": "(310) 527-1751",
    "lat": 33.836994,
    "lng": -118.3100085
  },
  {
    "id": "630026425",
    "name": "SHEKINAH HOME HEALTH INC.",
    "npi": null,
    "hcaiId": null,
    "businessName": "SHEKINAH HOME HEALTH INC.",
    "contactEmail": "SHEKINAHOMEHEALTH@GMAIL.COM",
    "categoryName": "HOME HEALTH AGENCY",
    "categoryCode": "HHA",
    "licenseStatus": "ACTIVE",
    "inService": true,
    "licenseNumber": "550009784",
    "licenseEffectiveDate": "10/24/2025",
    "licenseExpirationDate": "04/23/2026",
    "dataDate": "10/18/2025",
    "capacity": 0,
    "address": "21151 S WESTERN AVE, SUITE 279",
    "city": "TORRANCE",
    "zip": "90501",
    "county": "LOS ANGELES",
    "phone": "(818) 641-8714",
    "lat": 33.836994,
    "lng": -118.3100085
  },
  {
    "id": "630013663",
    "name": "SUMMERWIND HOSPICE, INC.",
    "npi": null,
    "hcaiId": "406191503",
    "businessName": "SUMMERWIND HOSPICE, INC.",
    "contactEmail": "SUMMERWINDHOSPICE@GMAIL.COM",
    "categoryName": "HOSPICE",
    "categoryCode": "HOSPICE",
    "licenseStatus": "ACTIVE",
    "inService": true,
    "licenseNumber": "550002380",
    "licenseEffectiveDate": "08/16/2025",
    "licenseExpirationDate": "08/15/2027",
    "dataDate": "10/18/2025",
    "capacity": 0,
    "address": "1500 CRENSHAW BLVD, SUITE 201",
    "city": "TORRANCE",
    "zip": "90501",
    "county": "LOS ANGELES",
    "phone": "(424) 558-3001",
    "lat": 33.833736,
    "lng": -118.328256
  },
  {
    "id": "630027855",
    "name": "TORRANCE CLHF",
    "npi": null,
    "hcaiId": null,
    "businessName": "TORRANCE CLHF, INC",
    "contactEmail": "ADMIN@TORRANCECLHF.COM",
    "categoryName": "CONGREGATE LIVING HEALTH FACILITY",
    "categoryCode": "CLHF",
    "licenseStatus": "ACTIVE",
    "inService": true,
    "licenseNumber": "550009615",
    "licenseEffectiveDate": "06/12/2025",
    "licenseExpirationDate": "12/11/2025",
    "dataDate": "10/18/2025",
    "capacity": 6,
    "address": "1806 SCHILLING CT",
    "city": "TORRANCE",
    "zip": "90501",
    "county": "LOS ANGELES",
    "phone": "(310) 257-9046",
    "lat": 33.81178801,
    "lng": -118.310827
  }
]