[
  {
    "id": "630011115",
    "name": "AVEANNA HEALTHCARE",
    "npi": "1134306970",
    "hcaiId": "406197061",
    "businessName": "PREMIER HEALTHCARE SERVICES, LLC",
    "contactEmail": "CREDENTIALING@AVEANNA.COM",
    "categoryName": "HOME HEALTH AGENCY",
    "categoryCode": "HHA",
    "licenseStatus": "ACTIVE",
    "inService": true,
    "licenseNumber": "550000657",
    "licenseEffectiveDate": "11/19/2024",
    "licenseExpirationDate": "11/18/2025",
    "dataDate": "10/18/2025",
    "capacity": 0,
    "address": "19191 S VERMONT AVE, SUITE 160",
    "city": "TORRANCE",
    "zip": "90502",
    "county": "LOS ANGELES",
    "phone": "(310) 988-1100",
    "lat": 33.856398,
    "lng": -118.291356
  },
  {
    "id": "980001854",
    "name": "CHARITY HOME HEALTH SERVICES",
    "npi": "1861503161",
    "hcaiId": "406195055",
    "businessName": "CHARITY HOME HEALTH SERVICES, INC.",
    "contactEmail": "OFFICE@CHARITYHHS.ORG",
    "categoryName": "HOME HEALTH AGENCY",
    "categoryCode": "HHA",
    "licenseStatus": "ACTIVE",
    "inService": true,
    "licenseNumber": "980001063",
    "licenseEffectiveDate": "12/23/2024",
    "licenseExpirationDate": "12/22/2025",
    "dataDate": "10/18/2025",
    "capacity": 0,
    "address": "20300 S VERMONT AVE, SUITE 120",
    "city": "TORRANCE",
    "zip": "90502",
    "county": "LOS ANGELES",
    "phone": "(310) 527-4339",
    "lat": 33.846741,
    "lng": -118.289619
  },
  {
    "id": "630013293",
    "name": "CHARITY HOSPICE CARE, INC.",
    "npi": "1821379173",
    "hcaiId": "406197924",
    "businessName": "CHARITY HOSPICE CARE, INC.",
    "contactEmail": "ELOKAONWUNYI@CHARITYHHS.ORG",
    "categoryName": "HOSPICE",
    "categoryCode": "HOSPICE",
    "licenseStatus": "ACTIVE",
    "inService": true,
    "licenseNumber": "550001999",
    "licenseEffectiveDate": "06/08/2024",
    "licenseExpirationDate": "06/07/2026",
    "dataDate": "10/18/2025",
    "capacity": 0,
    "address": "20300 S VERMONT AVE, SUITE 130",
    "city": "TORRANCE",
    "zip": "90502",
    "county": "LOS ANGELES",
    "phone": "(310) 527-2962",
    "lat": 33.846741,
    "lng": -118.289619
  },
  {
    "id": "910000046",
    "name": "HARBOR POST ACUTE CARE CENTER",
    "npi": "1053392639",
    "hcaiId": "206190209",
    "businessName": "GERI-CARE, INC.",
    "contactEmail": "HCC.ADMINISTRATOR@HARBORCARECENTER.COM",
    "categoryName": "SKILLED NURSING FACILITY",
    "categoryCode": "SNF",
    "licenseStatus": "ACTIVE",
    "inService": true,
    "licenseNumber": "910000031",
    "licenseEffectiveDate": "04/15/2025",
    "licenseExpirationDate": "04/14/2026",
    "dataDate": "10/18/2025",
    "capacity": 127,
    "address": "21521 S VERMONT AVE",
    "city": "TORRANCE",
    "zip": "90502",
    "county": "LOS ANGELES",
    "phone": "(310) 320-0961",
    "lat": 33.832638,
    "lng": -118.2910365
  },
  {
    "id": "630018634",
    "name": "HARBOR VERMONT HOME TRAINING",
    "npi": null,
    "hcaiId": null,
    "businessName": null,
    "contactEmail": "CYNTHIA.HUTCHISON@DAVITA.COM",
    "categoryName": "CHRONIC DIALYSIS CLINIC",
    "categoryCode": "ESRD",
    "licenseStatus": null,
    "inService": null,
    "licenseNumber": null,
    "licenseEffectiveDate": null,
    "licenseExpirationDate": null,
    "dataDate": "10/18/2025",
    "capacity": 0,
    "address": "21608 S VERMONT AVE",
    "city": "TORRANCE",
    "zip": "90502",
    "county": "LOS ANGELES",
    "phone": "(310) 212-7529",
    "lat": 33.832278,
    "lng": -118.2899745
  },
  {
    "id": "910000048",
    "name": "HERITAGE REHABILITATION CENTER",
    "npi": "1164410783",
    "hcaiId": "206190799",
    "businessName": "HERITAGE CARE, LLC",
    "contactEmail": "HERITAGE@HERITAGEREHABCENTER.COM",
    "categoryName": "SKILLED NURSING FACILITY",
    "categoryCode": "SNF",
    "licenseStatus": "ACTIVE",
    "inService": true,
    "licenseNumber": "910000115",
    "licenseEffectiveDate": "11/02/2025",
    "licenseExpirationDate": "11/01/2026",
    "dataDate": "10/18/2025",
    "capacity": 160,
    "address": "21414 S VERMONT AVE",
    "city": "TORRANCE",
    "zip": "90502",
    "county": "LOS ANGELES",
    "phone": "(310) 320-8714",
    "lat": 33.833862,
    "lng": -118.289601
  },
  {
    "id": "980002261",
    "name": "JCH MEDCARE SERVICES, LLC",
    "npi": null,
    "hcaiId": "406197153",
    "businessName": "JCH MEDCARE SERVICES, LLC",
    "contactEmail": "JCHMEDCARE@GMAIL.COM",
    "categoryName": "HOSPICE",
    "categoryCode": "HOSPICE",
    "licenseStatus": "ACTIVE",
    "inService": false,
    "licenseNumber": "980001377",
    "licenseEffectiveDate": "11/28/2023",
    "licenseExpirationDate": "11/27/2025",
    "dataDate": "10/18/2025",
    "capacity": 0,
    "address": "1001 W CARSON ST, SUITE T",
    "city": "TORRANCE",
    "zip": "90502",
    "county": "LOS ANGELES",
    "phone": "(562) 251-7686",
    "lat": 33.83223315,
    "lng": -118.292865
  },
  {
    "id": "060000027",
    "name": "LAC/HARBOR UCLA MEDICAL CENTER",
    "npi": "1487865184",
    "hcaiId": "106191227",
    "businessName": "LOS ANGELES COUNTY DEPARTMENT OF HEALTH SERVICES",
    "contactEmail": "JREES@DHS.LACOUNTY.GOV",
    "categoryName": "GENERAL ACUTE CARE HOSPITAL",
    "categoryCode": "GACH",
    "licenseStatus": "ACTIVE",
    "inService": true,
    "licenseNumber": "060000129",
    "licenseEffectiveDate": "09/26/2025",
    "licenseExpirationDate": "04/30/2026",
    "dataDate": "10/18/2025",
    "capacity": 415,
    "address": "1000 W CARSON ST",
    "city": "TORRANCE",
    "zip": "90502",
    "county": "LOS ANGELES",
    "phone": "(424) 306-6580",
    "lat": 33.830325,
    "lng": -118.2920175
  },
  {
    "id": "630027486",
    "name": "LAC/HARBOR UCLA MEDICAL CENTER",
    "npi": "1487865184",
    "hcaiId": null,
    "businessName": "LOS ANGELES COUNTY DEPARTMENT OF HEALTH SERVICES",
    "contactEmail": null,
    "categoryName": "GENERAL ACUTE CARE HOSPITAL",
    "categoryCode": "TRANS",
    "licenseStatus": "ACTIVE",
    "inService": true,
    "licenseNumber": "060000129",
    "licenseEffectiveDate": "09/26/2025",
    "licenseExpirationDate": "04/30/2026",
    "dataDate": "10/18/2025",
    "capacity": 0,
    "address": "1000 W CARSON ST",
    "city": "TORRANCE",
    "zip": "90502",
    "county": "LOS ANGELES",
    "phone": null,
    "lat": 33.830266,
    "lng": -118.292063
  },
  {
    "id": "060000912",
    "name": "LAC/HARBOR-UCLA MEDICAL CENTER",
    "npi": "1487865184",
    "hcaiId": null,
    "businessName": "LOS ANGELES COUNTY DEPARTMENT OF HEALTH SERVICES",
    "contactEmail": null,
    "categoryName": "OTHER",
    "categoryCode": "PPSPSCH",
    "licenseStatus": "ACTIVE",
    "inService": true,
    "licenseNumber": "060000129",
    "licenseEffectiveDate": "09/26/2025",
    "licenseExpirationDate": "04/30/2026",
    "dataDate": "10/18/2025",
    "capacity": 0,
    "address": "1000 W CARSON ST",
    "city": "TORRANCE",
    "zip": "90502",
    "county": "LOS ANGELES",
    "phone": null,
    "lat": 33.829794,
    "lng": -118.294722
  },
  {
    "id": "060000697",
    "name": "LAC/HARBOR-UCLA MEDICAL CENTER D/P APH",
    "npi": "1487865184",
    "hcaiId": null,
    "businessName": "LOS ANGELES COUNTY DEPARTMENT OF HEALTH SERVICES",
    "contactEmail": null,
    "categoryName": "ACUTE PSYCHIATRIC HOSPITAL",
    "categoryCode": "APH",
    "licenseStatus": "ACTIVE",
    "inService": true,
    "licenseNumber": "060000129",
    "licenseEffectiveDate": "09/26/2025",
    "licenseExpirationDate": "04/30/2026",
    "dataDate": "10/18/2025",
    "capacity": 38,
    "address": "1000 W CARSON ST",
    "city": "TORRANCE",
    "zip": "90502",
    "county": "LOS ANGELES",
    "phone": "(310) 222-2345",
    "lat": 33.829794,
    "lng": -118.294722
  },
  {
    "id": "630015537",
    "name": "PREMIER INFUSION AND HEALTHCARE SERVICES INC.",
    "npi": null,
    "hcaiId": "406198180",
    "businessName": "PREMIER INFUSION AND HEALTHCARE SERVICES INC.",
    "contactEmail": "SINA@PREMIERHCS.COM",
    "categoryName": "HOME HEALTH AGENCY",
    "categoryCode": "HHA",
    "licenseStatus": "ACTIVE",
    "inService": true,
    "licenseNumber": "550003235",
    "licenseEffectiveDate": "08/28/2025",
    "licenseExpirationDate": "08/27/2026",
    "dataDate": "10/18/2025",
    "capacity": 0,
    "address": "19500 NORMANDIE AVE, SUITE B",
    "city": "TORRANCE",
    "zip": "90502",
    "county": "LOS ANGELES",
    "phone": "(866) 365-2525",
    "lat": 33.854031,
    "lng": -118.298925
  },
  {
    "id": "910000084",
    "name": "SUNNYSIDE NURSING CENTER",
    "npi": "1588660369",
    "hcaiId": "206190732",
    "businessName": "FH & HF-TORRANCE I, LLC",
    "contactEmail": "ADMINISTRATOR@SUNNYSIDENURSING.COM",
    "categoryName": "SKILLED NURSING FACILITY",
    "categoryCode": "SNF",
    "licenseStatus": "ACTIVE",
    "inService": true,
    "licenseNumber": "910000106",
    "licenseEffectiveDate": "11/15/2024",
    "licenseExpirationDate": "11/14/2025",
    "dataDate": "10/18/2025",
    "capacity": 299,
    "address": "22617 S VERMONT AVE",
    "city": "TORRANCE",
    "zip": "90502",
    "county": "LOS ANGELES",
    "phone": "(310) 320-4130",
    "lat": 33.820326,
    "lng": -118.290546
  },
  {
    "id": "930001623",
    "name": "TRC/HARBOR-UCLA MFI-TOTAL RENAL DIALYSIS CENTER",
    "npi": "1962461418",
    "hcaiId": "306194990",
    "businessName": "TOTAL RENAL CARE, INC.",
    "contactEmail": "CAL_C@DAVITA.COM",
    "categoryName": "CHRONIC DIALYSIS CLINIC",
    "categoryCode": "ESRD/CDC",
    "licenseStatus": "ACTIVE",
    "inService": true,
    "licenseNumber": "930000901",
    "licenseEffectiveDate": "04/04/2025",
    "licenseExpirationDate": "04/03/2026",
    "dataDate": "10/18/2025",
    "capacity": 33,
    "address": "21602 S VERMONT AVE",
    "city": "TORRANCE",
    "zip": "90502",
    "county": "LOS ANGELES",
    "phone": "(310) 533-0413",
    "lat": 33.83268324,
    "lng": -118.2902231
  },
  {
    "id": "910000016",
    "name": "VERMONT HEALTHCARE CENTER",
    "npi": "1750792941",
    "hcaiId": "206190075",
    "businessName": "VERMONT HEALTHCARE CENTER, LLC",
    "contactEmail": "CHEFNER@VERMONTHC.COM",
    "categoryName": "SKILLED NURSING FACILITY",
    "categoryCode": "SNF",
    "licenseStatus": "ACTIVE",
    "inService": true,
    "licenseNumber": "910000015",
    "licenseEffectiveDate": "10/01/2025",
    "licenseExpirationDate": "09/30/2026",
    "dataDate": "10/18/2025",
    "capacity": 182,
    "address": "22035 S VERMONT AVE",
    "city": "TORRANCE",
    "zip": "90502",
    "county": "LOS ANGELES",
    "phone": "(310) 328-0812",
    "lat": 33.826968,
    "lng": -118.2913695
  },
  {
    "id": "980001165",
    "name": "VITAS HEALTHCARE CORPORATION OF CALIFORNIA",
    "npi": "1639213747",
    "hcaiId": "406194326",
    "businessName": "VITAS HEALTHCARE CORPORATION OF CALIFORNIA",
    "contactEmail": "HEIDI.JAUREGUI@VITAS.COM",
    "categoryName": "HOSPICE",
    "categoryCode": "HOSPICE",
    "licenseStatus": "ACTIVE",
    "inService": true,
    "licenseNumber": "980000653",
    "licenseEffectiveDate": "04/26/2024",
    "licenseExpirationDate": "04/25/2026",
    "dataDate": "10/18/2025",
    "capacity": 0,
    "address": "990 W 190TH ST, SUITE 550",
    "city": "TORRANCE",
    "zip": "90502",
    "county": "LOS ANGELES",
    "phone": "(310) 324-2273",
    "lat": 33.857685,
    "lng": -118.2949065
  }
]