[
  {
    "id": "630016607",
    "name": "A CARE HOSPICE INC",
    "npi": "1184094229",
    "hcaiId": "406192169",
    "businessName": "A CARE HOSPICE INC",
    "contactEmail": "INFO@ACAREHOSPICE.COM",
    "categoryName": "HOSPICE",
    "categoryCode": "HOSPICE",
    "licenseStatus": "ACTIVE",
    "inService": true,
    "licenseNumber": "550004481",
    "licenseEffectiveDate": "12/08/2024",
    "licenseExpirationDate": "12/07/2026",
    "dataDate": "10/18/2025",
    "capacity": 0,
    "address": "24445 HAWTHORNE BLVD., SUITE 105",
    "city": "TORRANCE",
    "zip": "90505",
    "county": "LOS ANGELES",
    "phone": "(310) 375-0090",
    "lat": 33.800229,
    "lng": -118.3513995
  },
  {
    "id": "630025654",
    "name": "ADVANCED SURGICAL CENTER OF TORRANCE",
    "npi": null,
    "hcaiId": null,
    "businessName": null,
    "contactEmail": "CAROLINET@PRIME-MSO.COM",
    "categoryName": "SURGICAL CLINIC",
    "categoryCode": "ASC",
    "licenseStatus": null,
    "inService": null,
    "licenseNumber": null,
    "licenseEffectiveDate": null,
    "licenseExpirationDate": null,
    "dataDate": "10/18/2025",
    "capacity": 0,
    "address": "22525 MAPLE AVE, SUITE 101",
    "city": "TORRANCE",
    "zip": "90505",
    "county": "LOS ANGELES",
    "phone": "(949) 903-3210",
    "lat": 33.822648,
    "lng": -118.3403835
  },
  {
    "id": "630013776",
    "name": "AGAPE HOSPICE & PALLIATIVE CARE LLC",
    "npi": null,
    "hcaiId": "406197990",
    "businessName": "AGAPE HOSPICE & PALLIATIVE CARE LLC",
    "contactEmail": "LARISA@AGAPEHOSPICEPC.ORG",
    "categoryName": "HOSPICE",
    "categoryCode": "HOSPICE",
    "licenseStatus": "ACTIVE",
    "inService": true,
    "licenseNumber": "550002355",
    "licenseEffectiveDate": "12/12/2024",
    "licenseExpirationDate": "12/11/2026",
    "dataDate": "10/18/2025",
    "capacity": 0,
    "address": "23001 HAWTHORNE BLVD, SUITE 200",
    "city": "TORRANCE",
    "zip": "90505",
    "county": "LOS ANGELES",
    "phone": "(213) 234-5535",
    "lat": 33.817977,
    "lng": -118.351516
  },
  {
    "id": "630012719",
    "name": "BAY CITY SURGERY CENTER",
    "npi": "1790909117",
    "hcaiId": null,
    "businessName": null,
    "contactEmail": null,
    "categoryName": "SURGICAL CLINIC",
    "categoryCode": "ASC",
    "licenseStatus": null,
    "inService": null,
    "licenseNumber": null,
    "licenseEffectiveDate": null,
    "licenseExpirationDate": null,
    "dataDate": "10/18/2025",
    "capacity": 0,
    "address": "2557 PACIFIC COAST HWY, SUITE A",
    "city": "TORRANCE",
    "zip": "90505",
    "county": "LOS ANGELES",
    "phone": "(310) 626-8037",
    "lat": 33.790671,
    "lng": -118.3298625
  },
  {
    "id": "910000071",
    "name": "BEACHSIDE POST ACUTE",
    "npi": "1760047708",
    "hcaiId": "206190666",
    "businessName": "TORRANCE POST ACUTE, LLC",
    "contactEmail": "JAY@IEPCORP.COM",
    "categoryName": "SKILLED NURSING FACILITY",
    "categoryCode": "SNF",
    "licenseStatus": "ACTIVE",
    "inService": true,
    "licenseNumber": "910000092",
    "licenseEffectiveDate": "11/15/2024",
    "licenseExpirationDate": "11/14/2025",
    "dataDate": "10/18/2025",
    "capacity": 110,
    "address": "22520 MAPLE AVE",
    "city": "TORRANCE",
    "zip": "90505",
    "county": "LOS ANGELES",
    "phone": "(917) 842-8361",
    "lat": 33.823017,
    "lng": -118.3398885
  },
  {
    "id": "630018276",
    "name": "BETHEL ESTATES",
    "npi": null,
    "hcaiId": "206190260",
    "businessName": "BEAUTIFUL HOMES RESIDENTIAL CARE, INC.",
    "contactEmail": "INFO@BHFECARE.COM",
    "categoryName": "CONGREGATE LIVING HEALTH FACILITY",
    "categoryCode": "CLHF",
    "licenseStatus": "ACTIVE",
    "inService": true,
    "licenseNumber": "550005597",
    "licenseEffectiveDate": "07/02/2025",
    "licenseExpirationDate": "07/01/2026",
    "dataDate": "10/18/2025",
    "capacity": 6,
    "address": "22525 CERISE AVE",
    "city": "TORRANCE",
    "zip": "90505",
    "county": "LOS ANGELES",
    "phone": "(424) 263-4881",
    "lat": 33.821226,
    "lng": -118.333395
  },
  {
    "id": "630017763",
    "name": "COAST CITIES SURGERY CENTER, INC.",
    "npi": "1487197943",
    "hcaiId": null,
    "businessName": null,
    "contactEmail": null,
    "categoryName": "SURGICAL CLINIC",
    "categoryCode": "ASC",
    "licenseStatus": null,
    "inService": null,
    "licenseNumber": null,
    "licenseEffectiveDate": null,
    "licenseExpirationDate": null,
    "dataDate": "10/18/2025",
    "capacity": 0,
    "address": "2802 PACIFIC COAST HWY",
    "city": "TORRANCE",
    "zip": "90505",
    "county": "LOS ANGELES",
    "phone": "(310) 325-1644",
    "lat": 33.793902,
    "lng": -118.336122
  },
  {
    "id": "930001679",
    "name": "COAST SURGERY CENTER OF SOUTH BAY",
    "npi": "1275532889",
    "hcaiId": "306196106",
    "businessName": "COAST SURGERY CENTER, L.P.",
    "contactEmail": "RHAWKINF@UNITESURGICAL.COM",
    "categoryName": "SURGICAL CLINIC",
    "categoryCode": "ASC",
    "licenseStatus": "INACTIVE - CAPEN DECISION",
    "inService": false,
    "licenseNumber": "930000932",
    "licenseEffectiveDate": "11/12/2007",
    "licenseExpirationDate": "11/11/2008",
    "dataDate": "10/18/2025",
    "capacity": 0,
    "address": "3445 PACIFIC COAST HWY, SUITE 110",
    "city": "TORRANCE",
    "zip": "90505",
    "county": "LOS ANGELES",
    "phone": "(310) 325-4555",
    "lat": 33.80165179,
    "lng": -118.3452438
  },
  {
    "id": "630017511",
    "name": "COVE SURGERY CENTER, LLC",
    "npi": "1558807263",
    "hcaiId": null,
    "businessName": null,
    "contactEmail": null,
    "categoryName": "SURGICAL CLINIC",
    "categoryCode": "ASC",
    "licenseStatus": null,
    "inService": null,
    "licenseNumber": null,
    "licenseEffectiveDate": null,
    "licenseExpirationDate": null,
    "dataDate": "10/18/2025",
    "capacity": 0,
    "address": "23430 HAWTHORNE BLVD, SUITE 110",
    "city": "TORRANCE",
    "zip": "90505",
    "county": "LOS ANGELES",
    "phone": null,
    "lat": 33.813027,
    "lng": -118.3503285
  },
  {
    "id": "630016837",
    "name": "CUTTING EDGE SURGERY CENTER, LLC",
    "npi": "1538569207",
    "hcaiId": null,
    "businessName": null,
    "contactEmail": null,
    "categoryName": "SURGICAL CLINIC",
    "categoryCode": "ASC",
    "licenseStatus": null,
    "inService": null,
    "licenseNumber": null,
    "licenseEffectiveDate": null,
    "licenseExpirationDate": null,
    "dataDate": "10/18/2025",
    "capacity": 0,
    "address": "23456 HAWTHORNE BLVD. #130",
    "city": "TORRANCE",
    "zip": "90505",
    "county": "LOS ANGELES",
    "phone": null,
    "lat": 33.812316,
    "lng": -118.3492305
  },
  {
    "id": "930000146",
    "name": "DEL AMO BEHAVIORAL HEALTH SYSTEM",
    "npi": "1245203447",
    "hcaiId": "106190232",
    "businessName": "DEL AMO HOSPITAL, INC.",
    "contactEmail": "WILLIAM.HOLT@UHSINC.COM",
    "categoryName": "ACUTE PSYCHIATRIC HOSPITAL",
    "categoryCode": "APH",
    "licenseStatus": "ACTIVE",
    "inService": true,
    "licenseNumber": "930000045",
    "licenseEffectiveDate": "06/14/2025",
    "licenseExpirationDate": "06/13/2026",
    "dataDate": "10/18/2025",
    "capacity": 166,
    "address": "23700 CAMINO DEL SOL",
    "city": "TORRANCE",
    "zip": "90505",
    "county": "LOS ANGELES",
    "phone": "(310) 784-2201",
    "lat": 33.811452,
    "lng": -118.3438305
  },
  {
    "id": "910000033",
    "name": "DEL AMO GARDENS CARE CENTER",
    "npi": "1215912910",
    "hcaiId": "206190231",
    "businessName": "DEL AMO GARDENS CONVALESCENT CENTER, LLC",
    "contactEmail": "BWAUKE@DELAMOGARDENS.COM",
    "categoryName": "SKILLED NURSING FACILITY",
    "categoryCode": "SNF",
    "licenseStatus": "ACTIVE",
    "inService": true,
    "licenseNumber": "910000039",
    "licenseEffectiveDate": "11/30/2024",
    "licenseExpirationDate": "11/29/2025",
    "dataDate": "10/18/2025",
    "capacity": 94,
    "address": "22419 KENT AVE",
    "city": "TORRANCE",
    "zip": "90505",
    "county": "LOS ANGELES",
    "phone": "(310) 378-4233",
    "lat": 33.824457,
    "lng": -118.3570245
  },
  {
    "id": "630024238",
    "name": "E & A HOME HEALTH CARE",
    "npi": null,
    "hcaiId": null,
    "businessName": "E & A HOME HEALTH CARE",
    "contactEmail": "AEHHCARE@GMAIL.COM",
    "categoryName": "HOME HEALTH AGENCY",
    "categoryCode": "HHA",
    "licenseStatus": "ACTIVE",
    "inService": true,
    "licenseNumber": "550008380",
    "licenseEffectiveDate": "02/03/2025",
    "licenseExpirationDate": "02/02/2026",
    "dataDate": "10/18/2025",
    "capacity": 0,
    "address": "23133 HAWTHORNE BLVD, SUITE B02",
    "city": "TORRANCE",
    "zip": "90505",
    "county": "LOS ANGELES",
    "phone": "(818) 531-5424",
    "lat": 33.816717,
    "lng": -118.351656
  },
  {
    "id": "630024434",
    "name": "E.M.A.G. HOME HEALTH, INC.",
    "npi": null,
    "hcaiId": "406197645",
    "businessName": "E.M.A.G. HOME HEALTH, INC.",
    "contactEmail": "EMAGHOMEHEALTH@GMAIL.COM",
    "categoryName": "HOME HEALTH AGENCY",
    "categoryCode": "HHA",
    "licenseStatus": "ACTIVE",
    "inService": true,
    "licenseNumber": "550008312",
    "licenseEffectiveDate": "01/09/2025",
    "licenseExpirationDate": "01/08/2026",
    "dataDate": "10/18/2025",
    "capacity": 0,
    "address": "23133 HAWTHORNE BLVD, SUITE B17",
    "city": "TORRANCE",
    "zip": "90505",
    "county": "LOS ANGELES",
    "phone": "(800) 706-6003",
    "lat": 33.816717,
    "lng": -118.351656
  },
  {
    "id": "930001762",
    "name": "ENDOSCOPY CENTER AT SKYPARK",
    "npi": "1336143734",
    "hcaiId": "306196310",
    "businessName": "TORRANCE ENDOSCOPY AND SURGICAL AFFILIATES, INC.",
    "contactEmail": "NONO@DHS.CA.GOV",
    "categoryName": "SURGICAL CLINIC",
    "categoryCode": "ASC",
    "licenseStatus": "INACTIVE - CAPEN DECISION",
    "inService": false,
    "licenseNumber": "930000980",
    "licenseEffectiveDate": "05/31/2007",
    "licenseExpirationDate": "05/30/2008",
    "dataDate": "10/18/2025",
    "capacity": 0,
    "address": "23441 MADISON ST, SUITE 230",
    "city": "TORRANCE",
    "zip": "90505",
    "county": "LOS ANGELES",
    "phone": "(310) 375-1246",
    "lat": 33.812478,
    "lng": -118.3485735
  },
  {
    "id": "630021558",
    "name": "GOOD REMEDY HEALTHCARE, INC",
    "npi": null,
    "hcaiId": "406195807",
    "businessName": "GOOD REMEDY HEALTHCARE, INC",
    "contactEmail": "GRHCINC@GMAIL.COM",
    "categoryName": "HOME HEALTH AGENCY",
    "categoryCode": "HHA",
    "licenseStatus": "ACTIVE",
    "inService": true,
    "licenseNumber": "550007835",
    "licenseEffectiveDate": "02/07/2025",
    "licenseExpirationDate": "02/06/2026",
    "dataDate": "10/18/2025",
    "capacity": 0,
    "address": "22939 HAWTHORNE BLVD, SUITE 304",
    "city": "TORRANCE",
    "zip": "90505",
    "county": "LOS ANGELES",
    "phone": "(310) 850-8529",
    "lat": 33.818724,
    "lng": -118.3515885
  },
  {
    "id": "630011447",
    "name": "OCEAN SURGERY CENTER",
    "npi": "1194774737",
    "hcaiId": null,
    "businessName": null,
    "contactEmail": null,
    "categoryName": "SURGICAL CLINIC",
    "categoryCode": "ASC",
    "licenseStatus": null,
    "inService": null,
    "licenseNumber": null,
    "licenseEffectiveDate": null,
    "licenseExpirationDate": null,
    "dataDate": "10/18/2025",
    "capacity": 0,
    "address": "2802 PACIFIC COAST HWY",
    "city": "TORRANCE",
    "zip": "90505",
    "county": "LOS ANGELES",
    "phone": "(310) 325-1644",
    "lat": 33.793902,
    "lng": -118.336122
  },
  {
    "id": "630011824",
    "name": "OMNICARE HOME HEALTH, INC",
    "npi": null,
    "hcaiId": "406197311",
    "businessName": "OMNICARE HOME HEALTH, INC.",
    "contactEmail": "ADMIN@OMNICAREHH.COM",
    "categoryName": "HOME HEALTH AGENCY",
    "categoryCode": "HHA",
    "licenseStatus": "ACTIVE",
    "inService": true,
    "licenseNumber": "550001076",
    "licenseEffectiveDate": "07/31/2025",
    "licenseExpirationDate": "07/30/2026",
    "dataDate": "10/18/2025",
    "capacity": 0,
    "address": "2430 AMSLER ST, SUITE A",
    "city": "TORRANCE",
    "zip": "90505",
    "county": "LOS ANGELES",
    "phone": "(310) 228-3141",
    "lat": 33.801255,
    "lng": -118.327158
  },
  {
    "id": "630027839",
    "name": "OSATO SURGICAL CENTER",
    "npi": null,
    "hcaiId": null,
    "businessName": null,
    "contactEmail": "JESSICA@ADVANTAGEHEALTHCARESYSTEMS.ORG",
    "categoryName": "SURGICAL CLINIC",
    "categoryCode": "ASC",
    "licenseStatus": null,
    "inService": null,
    "licenseNumber": null,
    "licenseEffectiveDate": null,
    "licenseExpirationDate": null,
    "dataDate": "10/18/2025",
    "capacity": 0,
    "address": "2860 SEPULVEDA BLVD",
    "city": "TORRANCE",
    "zip": "90505",
    "county": "LOS ANGELES",
    "phone": "(714) 747-1253",
    "lat": 33.82319901,
    "lng": -118.336932
  },
  {
    "id": "630012509",
    "name": "PACIFIC COAST SURGICAL CENTER LP",
    "npi": "1306031034",
    "hcaiId": null,
    "businessName": null,
    "contactEmail": null,
    "categoryName": "SURGICAL CLINIC",
    "categoryCode": "ASC",
    "licenseStatus": null,
    "inService": null,
    "licenseNumber": null,
    "licenseEffectiveDate": null,
    "licenseExpirationDate": null,
    "dataDate": "10/18/2025",
    "capacity": 0,
    "address": "3720 LOMITA BLVD, SUITE 100",
    "city": "TORRANCE",
    "zip": "90505",
    "county": "LOS ANGELES",
    "phone": "(310) 802-6260",
    "lat": 33.814944,
    "lng": -118.3497075
  },
  {
    "id": "930001763",
    "name": "PACIFIC ENDO-SURGICAL CENTER",
    "npi": "1588867030",
    "hcaiId": "306196309",
    "businessName": "PACIFIC ENDO-SURGICAL CENTER, LP",
    "contactEmail": "JDRISKILL@USPI.COM",
    "categoryName": "SURGICAL CLINIC",
    "categoryCode": "ASC",
    "licenseStatus": "INACTIVE - CAPEN DECISION",
    "inService": false,
    "licenseNumber": "930000979",
    "licenseEffectiveDate": "04/07/2008",
    "licenseExpirationDate": "04/06/2009",
    "dataDate": "10/18/2025",
    "capacity": 0,
    "address": "3445 PACIFIC COAST HWY, SUITE 120",
    "city": "TORRANCE",
    "zip": "90505",
    "county": "LOS ANGELES",
    "phone": "(310) 326-1666",
    "lat": 33.80165179,
    "lng": -118.3452438
  },
  {
    "id": "930000936",
    "name": "PALOS VERDES AMBULATORY SURGERY MEDICAL CENTER, INC.",
    "npi": "1538259080",
    "hcaiId": "306194546",
    "businessName": "PALOS VERDES AMBULATORY SURGERY MEDICAL CENTER, INC.",
    "contactEmail": "NONE@DHS.CA.GOV",
    "categoryName": "SURGICAL CLINIC",
    "categoryCode": "ASC",
    "licenseStatus": "INACTIVE - CAPEN DECISION",
    "inService": false,
    "licenseNumber": "930000722",
    "licenseEffectiveDate": "11/09/2007",
    "licenseExpirationDate": "11/08/2008",
    "dataDate": "10/18/2025",
    "capacity": 0,
    "address": "3400 LOMITA BLVD, SUITE 307A",
    "city": "TORRANCE",
    "zip": "90505",
    "county": "LOS ANGELES",
    "phone": "(310) 539-5888",
    "lat": 33.811911,
    "lng": -118.345572
  },
  {
    "id": "630007548",
    "name": "PATIENTS FIRST HOME HEALTH AGENCY",
    "npi": "1336355106",
    "hcaiId": "406196837",
    "businessName": "PATIENTS FIRST HOME HEALTH AGENCY, INC.",
    "contactEmail": "PATIENTSFIRSTHHA@GMAIL.COM",
    "categoryName": "HOME HEALTH AGENCY",
    "categoryCode": "HHA",
    "licenseStatus": "ACTIVE",
    "inService": true,
    "licenseNumber": "550000292",
    "licenseEffectiveDate": "09/22/2025",
    "licenseExpirationDate": "09/21/2026",
    "dataDate": "10/18/2025",
    "capacity": 0,
    "address": "23210 CRENSHAW BLVD, SUITE 200",
    "city": "TORRANCE",
    "zip": "90505",
    "county": "LOS ANGELES",
    "phone": "(310) 534-8689",
    "lat": 33.814719,
    "lng": -118.327599
  },
  {
    "id": "630027085",
    "name": "PRIME SURGICAL CENTER OF TORRANCE",
    "npi": null,
    "hcaiId": null,
    "businessName": null,
    "contactEmail": null,
    "categoryName": "SURGICAL CLINIC",
    "categoryCode": "ASC",
    "licenseStatus": null,
    "inService": null,
    "licenseNumber": null,
    "licenseEffectiveDate": null,
    "licenseExpirationDate": null,
    "dataDate": "10/18/2025",
    "capacity": 0,
    "address": "22525 MAPLE AVE, SUITE 106",
    "city": "TORRANCE",
    "zip": "90505",
    "county": "LOS ANGELES",
    "phone": null,
    "lat": 33.822644,
    "lng": -118.340527
  },
  {
    "id": "630011482",
    "name": "PV PENINSULA PLASTIC SURGERY CENTER",
    "npi": "1740491422",
    "hcaiId": null,
    "businessName": null,
    "contactEmail": null,
    "categoryName": "SURGICAL CLINIC",
    "categoryCode": "ASC",
    "licenseStatus": null,
    "inService": null,
    "licenseNumber": null,
    "licenseEffectiveDate": null,
    "licenseExpirationDate": null,
    "dataDate": "10/18/2025",
    "capacity": 0,
    "address": "3400 LOMITA BLVD, SUITE 306",
    "city": "TORRANCE",
    "zip": "90505",
    "county": "LOS ANGELES",
    "phone": "(310) 326-3636",
    "lat": 33.811911,
    "lng": -118.345572
  },
  {
    "id": "630016773",
    "name": "ROLLING HILLS DIALYSIS",
    "npi": null,
    "hcaiId": "306198373",
    "businessName": "MAGNEY DIALYSIS LLC",
    "contactEmail": "CAL_C@DAVITA.COM",
    "categoryName": "CHRONIC DIALYSIS CLINIC",
    "categoryCode": "ESRD/CDC",
    "licenseStatus": "ACTIVE",
    "inService": true,
    "licenseNumber": "550003798",
    "licenseEffectiveDate": "12/06/2024",
    "licenseExpirationDate": "12/05/2025",
    "dataDate": "10/18/2025",
    "capacity": 25,
    "address": "25210 CRENSHAW BLVD., SUITE 110",
    "city": "TORRANCE",
    "zip": "90505",
    "county": "LOS ANGELES",
    "phone": "(310) 530-1180",
    "lat": 33.794991,
    "lng": -118.328445
  },
  {
    "id": "630015998",
    "name": "SAS SURGERY CENTER",
    "npi": "1548674138",
    "hcaiId": null,
    "businessName": null,
    "contactEmail": null,
    "categoryName": "SURGICAL CLINIC",
    "categoryCode": "ASC",
    "licenseStatus": null,
    "inService": null,
    "licenseNumber": null,
    "licenseEffectiveDate": null,
    "licenseExpirationDate": null,
    "dataDate": "10/18/2025",
    "capacity": 0,
    "address": "23456 HAWTHORNE BOULEVARD, SUITE 110",
    "city": "TORRANCE",
    "zip": "90505",
    "county": "LOS ANGELES",
    "phone": null,
    "lat": 33.812316,
    "lng": -118.3492305
  },
  {
    "id": "630014809",
    "name": "SKYPARK SURGERY CENTER, LLC",
    "npi": "1982965612",
    "hcaiId": null,
    "businessName": null,
    "contactEmail": null,
    "categoryName": "SURGICAL CLINIC",
    "categoryCode": "ASC",
    "licenseStatus": null,
    "inService": null,
    "licenseNumber": null,
    "licenseEffectiveDate": null,
    "licenseExpirationDate": null,
    "dataDate": "10/18/2025",
    "capacity": 0,
    "address": "23441 MADISON ST, SUITE 115",
    "city": "TORRANCE",
    "zip": "90505",
    "county": "LOS ANGELES",
    "phone": "(310) 247-2206",
    "lat": 33.812388,
    "lng": -118.3483665
  },
  {
    "id": "930000174",
    "name": "SURGERY CENTER OF SOUTH BAY",
    "npi": "1730378498",
    "hcaiId": "306191041",
    "businessName": "THE TORRANCE CA MULTI-SPECIALTY ASC, LLC",
    "contactEmail": "SURGERYADMIN@SBCGLOBAL.NET",
    "categoryName": "SURGICAL CLINIC",
    "categoryCode": "ASC",
    "licenseStatus": "INACTIVE - CAPEN DECISION",
    "inService": false,
    "licenseNumber": "930000223",
    "licenseEffectiveDate": "11/14/2007",
    "licenseExpirationDate": "11/13/2008",
    "dataDate": "10/18/2025",
    "capacity": 0,
    "address": "23500 MADISON ST",
    "city": "TORRANCE",
    "zip": "90505",
    "county": "LOS ANGELES",
    "phone": "(310) 784-2710",
    "lat": 33.812262,
    "lng": -118.347138
  },
  {
    "id": "930000935",
    "name": "THE ENDOSCOPY CENTER OF THE SOUTH BAY",
    "npi": "1053391169",
    "hcaiId": "306194264",
    "businessName": "THE ENDOSCOPY CENTER OF THE SOUTH BAY, L.P.",
    "contactEmail": "NONE@DHS.CA.GOV",
    "categoryName": "SURGICAL CLINIC",
    "categoryCode": "ASC",
    "licenseStatus": "INACTIVE - CAPEN DECISION",
    "inService": false,
    "licenseNumber": "930000465",
    "licenseEffectiveDate": "01/14/2008",
    "licenseExpirationDate": "01/13/2009",
    "dataDate": "10/18/2025",
    "capacity": 0,
    "address": "23560 MADISON ST, SUITE 109",
    "city": "TORRANCE",
    "zip": "90505",
    "county": "LOS ANGELES",
    "phone": "(213) 325-6331",
    "lat": 33.81129,
    "lng": -118.347462
  },
  {
    "id": "630028039",
    "name": "TORRANCE CBAS",
    "npi": null,
    "hcaiId": null,
    "businessName": "TORRANCE CBAS INC",
    "contactEmail": "TORRANCECBAS@GMAIL.COM",
    "categoryName": "ADULT DAY HEALTH CARE",
    "categoryCode": "ADHC",
    "licenseStatus": "ACTIVE",
    "inService": true,
    "licenseNumber": "550009976",
    "licenseEffectiveDate": "10/09/2025",
    "licenseExpirationDate": "10/08/2026",
    "dataDate": "10/18/2025",
    "capacity": 0,
    "address": "2828 SEPULVEDA BLVD",
    "city": "TORRANCE",
    "zip": "90505",
    "county": "LOS ANGELES",
    "phone": "(310) 602-5500",
    "lat": 33.82317697,
    "lng": -118.3352467
  },
  {
    "id": "980000965",
    "name": "TORRANCE MEMORIAL HOME HEALTH",
    "npi": "1710989330",
    "hcaiId": "406194028",
    "businessName": "TORRANCE MEMORIAL MEDICAL CENTER",
    "contactEmail": "DEBORAH.GRIFFIN@TMMC.COM",
    "categoryName": "HOME HEALTH AGENCY",
    "categoryCode": "HHA",
    "licenseStatus": "ACTIVE",
    "inService": true,
    "licenseNumber": "980000483",
    "licenseEffectiveDate": "11/09/2025",
    "licenseExpirationDate": "11/08/2026",
    "dataDate": "10/18/2025",
    "capacity": 0,
    "address": "3121 SKYPARK DR, SUITE 3124",
    "city": "TORRANCE",
    "zip": "90505",
    "county": "LOS ANGELES",
    "phone": "(310) 784-3739",
    "lat": 33.8074613,
    "lng": -118.3421363
  },
  {
    "id": "980002180",
    "name": "TORRANCE MEMORIAL HOSPICE",
    "npi": null,
    "hcaiId": null,
    "businessName": "TORRANCE MEMORIAL MEDICAL CENTER",
    "contactEmail": "THERESA.FERRY@TMMC.COM",
    "categoryName": "HOSPICE",
    "categoryCode": "HOSPICE",
    "licenseStatus": "ACTIVE",
    "inService": true,
    "licenseNumber": "980000483",
    "licenseEffectiveDate": "11/09/2025",
    "licenseExpirationDate": "11/08/2026",
    "dataDate": "10/18/2025",
    "capacity": 0,
    "address": "3121 SKYPARK DR, SUITE 3126",
    "city": "TORRANCE",
    "zip": "90505",
    "county": "LOS ANGELES",
    "phone": "(310) 784-3751",
    "lat": 33.80705843,
    "lng": -118.3412795
  },
  {
    "id": "930000127",
    "name": "TORRANCE MEMORIAL MEDICAL CENTER",
    "npi": "1467459776",
    "hcaiId": "106190422",
    "businessName": "TORRANCE MEMORIAL MEDICAL CENTER",
    "contactEmail": "KEITH.HOBBS@TMMC.COM",
    "categoryName": "GENERAL ACUTE CARE HOSPITAL",
    "categoryCode": "GACH",
    "licenseStatus": "ACTIVE",
    "inService": true,
    "licenseNumber": "930000076",
    "licenseEffectiveDate": "10/07/2025",
    "licenseExpirationDate": "03/31/2026",
    "dataDate": "10/18/2025",
    "capacity": 548,
    "address": "3330 LOMITA BLVD",
    "city": "TORRANCE",
    "zip": "90505",
    "county": "LOS ANGELES",
    "phone": "(310) 325-9110",
    "lat": 33.812352,
    "lng": -118.344411
  },
  {
    "id": "930001463",
    "name": "TORRANCE MEMORIAL MEDICAL CENTER D/P SNF",
    "npi": "1740268713",
    "hcaiId": null,
    "businessName": "TORRANCE MEMORIAL MEDICAL CENTER",
    "contactEmail": null,
    "categoryName": "SKILLED NURSING FACILITY",
    "categoryCode": "SNF",
    "licenseStatus": "ACTIVE",
    "inService": true,
    "licenseNumber": "930000076",
    "licenseEffectiveDate": "10/07/2025",
    "licenseExpirationDate": "03/31/2026",
    "dataDate": "10/18/2025",
    "capacity": 40,
    "address": "3330 LOMITA BLVD",
    "city": "TORRANCE",
    "zip": "90505",
    "county": "LOS ANGELES",
    "phone": null,
    "lat": 33.812352,
    "lng": -118.344411
  },
  {
    "id": "930001753",
    "name": "TORRANCE SURGERY CENTER, L.P.",
    "npi": "1902860414",
    "hcaiId": "306196262",
    "businessName": "TORRANCE SURGERY CENTER, L.P.",
    "contactEmail": "TORRANCEASC.GARYB@AOL.COM",
    "categoryName": "SURGICAL CLINIC",
    "categoryCode": "ASC",
    "licenseStatus": "INACTIVE - CAPEN DECISION",
    "inService": false,
    "licenseNumber": "930000973",
    "licenseEffectiveDate": "12/04/2007",
    "licenseExpirationDate": "12/03/2008",
    "dataDate": "10/18/2025",
    "capacity": 0,
    "address": "23560 CRENSHAW BLVD, SUITE 104",
    "city": "TORRANCE",
    "zip": "90505",
    "county": "LOS ANGELES",
    "phone": "(310) 517-4880",
    "lat": 33.811668,
    "lng": -118.327248
  },
  {
    "id": "930001553",
    "name": "TORRANCE SURGICENTER",
    "npi": "1104922772",
    "hcaiId": null,
    "businessName": null,
    "contactEmail": "NONE@DHS.CA.GOV",
    "categoryName": "SURGICAL CLINIC",
    "categoryCode": "ASC",
    "licenseStatus": null,
    "inService": null,
    "licenseNumber": null,
    "licenseEffectiveDate": null,
    "licenseExpirationDate": null,
    "dataDate": "10/18/2025",
    "capacity": 0,
    "address": "22410 HAWTHORNE BLVD, SUITE 3",
    "city": "TORRANCE",
    "zip": "90505",
    "county": "LOS ANGELES",
    "phone": "(310) 373-2238",
    "lat": 33.824367,
    "lng": -118.3506705
  },
  {
    "id": "930000228",
    "name": "U.S. RENAL CARE SKYPARK DIALYSIS",
    "npi": "1619948825",
    "hcaiId": "306191073",
    "businessName": "USRC SKYPARK, LLC",
    "contactEmail": "LICENSING@USRENALCARE.COM",
    "categoryName": "CHRONIC DIALYSIS CLINIC",
    "categoryCode": "ESRD/CDC",
    "licenseStatus": "ACTIVE",
    "inService": true,
    "licenseNumber": "930000229",
    "licenseEffectiveDate": "02/09/2025",
    "licenseExpirationDate": "02/08/2026",
    "dataDate": "10/18/2025",
    "capacity": 12,
    "address": "3295 SKYPARK DR",
    "city": "TORRANCE",
    "zip": "90505",
    "county": "LOS ANGELES",
    "phone": "(310) 539-5091",
    "lat": 33.809886,
    "lng": -118.345383
  },
  {
    "id": "630016547",
    "name": "U.S. RENAL CARE SOUTH BAY HOME PROGRAM",
    "npi": "1528466331",
    "hcaiId": null,
    "businessName": null,
    "contactEmail": "ROBERT.KHAYE@USRENALCARE.COM",
    "categoryName": "CHRONIC DIALYSIS CLINIC",
    "categoryCode": "ESRD",
    "licenseStatus": null,
    "inService": null,
    "licenseNumber": null,
    "licenseEffectiveDate": null,
    "licenseExpirationDate": null,
    "dataDate": "10/18/2025",
    "capacity": 0,
    "address": "23441 MADISON ST, SUITE 320",
    "city": "TORRANCE",
    "zip": "90505",
    "county": "LOS ANGELES",
    "phone": "(310) 375-7173",
    "lat": 33.812478,
    "lng": -118.3485735
  },
  {
    "id": "630017977",
    "name": "UCLA HEALTH DIGESTIVE DISEASES SOUTHBAY",
    "npi": "1508304692",
    "hcaiId": null,
    "businessName": null,
    "contactEmail": null,
    "categoryName": "SURGICAL CLINIC",
    "categoryCode": "ASC",
    "licenseStatus": null,
    "inService": null,
    "licenseNumber": null,
    "licenseEffectiveDate": null,
    "licenseExpirationDate": null,
    "dataDate": "10/18/2025",
    "capacity": 0,
    "address": "2780 SKYPARK DR, SUITE 135",
    "city": "TORRANCE",
    "zip": "90505",
    "county": "LOS ANGELES",
    "phone": "(310) 530-8013",
    "lat": 33.804297,
    "lng": -118.3358835
  },
  {
    "id": "630017979",
    "name": "UCLA HEALTH PAIN MANAGEMENT SOUTHBAY",
    "npi": "1538608138",
    "hcaiId": null,
    "businessName": null,
    "contactEmail": null,
    "categoryName": "SURGICAL CLINIC",
    "categoryCode": "ASC",
    "licenseStatus": null,
    "inService": null,
    "licenseNumber": null,
    "licenseEffectiveDate": null,
    "licenseExpirationDate": null,
    "dataDate": "10/18/2025",
    "capacity": 0,
    "address": "2780 SKYPARK DR, SUITE 145",
    "city": "TORRANCE",
    "zip": "90505",
    "county": "LOS ANGELES",
    "phone": null,
    "lat": 33.804297,
    "lng": -118.3358835
  },
  {
    "id": "630014583",
    "name": "VC HOSPICE, INC.",
    "npi": "1902239395",
    "hcaiId": "406198207",
    "businessName": "VC HOSPICE, INC.",
    "contactEmail": "INFO@VCHOSPICE.COM",
    "categoryName": "HOSPICE",
    "categoryCode": "HOSPICE",
    "licenseStatus": "ACTIVE",
    "inService": true,
    "licenseNumber": "550002946",
    "licenseEffectiveDate": "12/24/2024",
    "licenseExpirationDate": "12/23/2026",
    "dataDate": "10/18/2025",
    "capacity": 0,
    "address": "23545 CRENSHAW BLVD, SUITE 202",
    "city": "TORRANCE",
    "zip": "90505",
    "county": "LOS ANGELES",
    "phone": "(310) 325-0982",
    "lat": 33.811695,
    "lng": -118.3284045
  },
  {
    "id": "630026072",
    "name": "WCU HOME HEALTH CARE",
    "npi": null,
    "hcaiId": "406190327",
    "businessName": "WCU HOME HEALTH CARE",
    "contactEmail": "WCUHHCARE@GMAIL.COM",
    "categoryName": "HOME HEALTH AGENCY",
    "categoryCode": "HHA",
    "licenseStatus": "ACTIVE",
    "inService": true,
    "licenseNumber": "550009074",
    "licenseEffectiveDate": "04/19/2025",
    "licenseExpirationDate": "04/18/2026",
    "dataDate": "10/18/2025",
    "capacity": 0,
    "address": "3855 PACIFIC COAST HWY, SUITE 15A",
    "city": "TORRANCE",
    "zip": "90505",
    "county": "LOS ANGELES",
    "phone": "(818) 624-6360",
    "lat": 33.806178,
    "lng": -118.3535145
  },
  {
    "id": "630020101",
    "name": "WEST HEALTHCARE SURGICAL INSTITUTE",
    "npi": "1447801022",
    "hcaiId": null,
    "businessName": null,
    "contactEmail": "JESSICA@ADVANTAGEHEALTHCARESYSTEMS.ORG",
    "categoryName": "SURGICAL CLINIC",
    "categoryCode": "ASC",
    "licenseStatus": null,
    "inService": null,
    "licenseNumber": null,
    "licenseEffectiveDate": null,
    "licenseExpirationDate": null,
    "dataDate": "10/18/2025",
    "capacity": 0,
    "address": "3220 SEPULVEDA BLVD, SUITE 201",
    "city": "TORRANCE",
    "zip": "90505",
    "county": "LOS ANGELES",
    "phone": "(714) 747-1253",
    "lat": 33.82461,
    "lng": -118.343637
  }
]