[
  {
    "id": "630026868",
    "name": "COMMUNITY MEDICAL WELLNESS CENTERS, USA",
    "npi": "1235500513",
    "hcaiId": null,
    "businessName": "COMMUNITY MEDICAL WELLNESS CENTERS, USA.",
    "contactEmail": null,
    "categoryName": "PRIMARY CARE CLINIC",
    "categoryCode": "COMTYC",
    "licenseStatus": "ACTIVE",
    "inService": true,
    "licenseNumber": "550003456",
    "licenseEffectiveDate": "02/26/2025",
    "licenseExpirationDate": "02/25/2026",
    "dataDate": "10/18/2025",
    "capacity": 0,
    "address": "12444 WASHINGTON BLVD",
    "city": "WHITTIER",
    "zip": "90602",
    "county": "LOS ANGELES",
    "phone": null,
    "lat": 33.96754085,
    "lng": -118.0462756
  },
  {
    "id": "930000917",
    "name": "LAMBERT DIALYSIS",
    "npi": "1588445316",
    "hcaiId": "306197662",
    "businessName": "LYLANE DIALYSIS, LLC",
    "contactEmail": "CAL_C@DAVITA.COM",
    "categoryName": "CHRONIC DIALYSIS CLINIC",
    "categoryCode": "ESRD/CDC",
    "licenseStatus": "ACTIVE",
    "inService": true,
    "licenseNumber": "930000462",
    "licenseEffectiveDate": "05/28/2025",
    "licenseExpirationDate": "05/27/2026",
    "dataDate": "10/18/2025",
    "capacity": 35,
    "address": "12455 WASHINGTON BLVD",
    "city": "WHITTIER",
    "zip": "90602",
    "county": "LOS ANGELES",
    "phone": "(562) 670-3921",
    "lat": 33.968025,
    "lng": -118.0465065
  },
  {
    "id": "630015861",
    "name": "M/S SURGERY CENTER, LLC",
    "npi": "1578994265",
    "hcaiId": null,
    "businessName": null,
    "contactEmail": null,
    "categoryName": "SURGICAL CLINIC",
    "categoryCode": "ASC",
    "licenseStatus": null,
    "inService": null,
    "licenseNumber": null,
    "licenseEffectiveDate": null,
    "licenseExpirationDate": null,
    "dataDate": "10/18/2025",
    "capacity": 0,
    "address": "7957 PAINTER AVE, SUITE 104",
    "city": "WHITTIER",
    "zip": "90602",
    "county": "LOS ANGELES",
    "phone": "(310) 533-9511",
    "lat": 33.968412,
    "lng": -118.032894
  },
  {
    "id": "930000099",
    "name": "PIH HEALTH WHITTIER HOSPITAL",
    "npi": "1043215379",
    "hcaiId": "106190631",
    "businessName": "PIH HEALTH HOSPITAL-WHITTIER",
    "contactEmail": "JUDY.PUGACH@PIHHEALTH.ORG",
    "categoryName": "GENERAL ACUTE CARE HOSPITAL",
    "categoryCode": "GACH",
    "licenseStatus": "ACTIVE",
    "inService": true,
    "licenseNumber": "930000129",
    "licenseEffectiveDate": "01/01/2025",
    "licenseExpirationDate": "12/31/2025",
    "dataDate": "10/18/2025",
    "capacity": 488,
    "address": "12401 WASHINGTON BLVD",
    "city": "WHITTIER",
    "zip": "90602",
    "county": "LOS ANGELES",
    "phone": "(562) 698-0811",
    "lat": 33.969339,
    "lng": -118.0490535
  },
  {
    "id": "960001999",
    "name": "PLANNED PARENTHOOD LOS ANGELES - JONES CENTER",
    "npi": null,
    "hcaiId": "306194820",
    "businessName": "PLANNED PARENTHOOD LOS ANGELES",
    "contactEmail": "BRENDA.GUERRERO@PP-LA.ORG",
    "categoryName": "PRIMARY CARE CLINIC",
    "categoryCode": "COMTYC",
    "licenseStatus": "ACTIVE",
    "inService": true,
    "licenseNumber": "960000962",
    "licenseEffectiveDate": "12/18/2024",
    "licenseExpirationDate": "12/17/2025",
    "dataDate": "10/18/2025",
    "capacity": 0,
    "address": "7655 GREENLEAF AVE",
    "city": "WHITTIER",
    "zip": "90602",
    "county": "LOS ANGELES",
    "phone": "(213) 284-3200",
    "lat": 33.9721245,
    "lng": -118.0374486
  },
  {
    "id": "930001577",
    "name": "PRESBYTERIAN INTERCOMMUNITY HOSPITAL D/P SNF",
    "npi": null,
    "hcaiId": null,
    "businessName": "PIH HEALTH HOSPITAL-WHITTIER",
    "contactEmail": "NORMA.DIAZ-PHAN@PIHHEALTH.ORG",
    "categoryName": "SKILLED NURSING FACILITY",
    "categoryCode": "SNF",
    "licenseStatus": "ACTIVE",
    "inService": true,
    "licenseNumber": "930000129",
    "licenseEffectiveDate": "01/01/2025",
    "licenseExpirationDate": "12/31/2025",
    "dataDate": "10/18/2025",
    "capacity": 35,
    "address": "12401 WASHINGTON BLVD",
    "city": "WHITTIER",
    "zip": "90602",
    "county": "LOS ANGELES",
    "phone": "(562) 698-0811",
    "lat": 33.969339,
    "lng": -118.0490535
  },
  {
    "id": "940000077",
    "name": "WHITTIER NURSING AND WELLNESS CENTER, INC.",
    "npi": "1407241318",
    "hcaiId": "206190238",
    "businessName": "WHITTIER NURSING AND WELLNESS CENTER, INC",
    "contactEmail": "ADMINISTRATOR@WHITTIERNURSINGWELLNESS.COM",
    "categoryName": "SKILLED NURSING FACILITY",
    "categoryCode": "SNF",
    "licenseStatus": "ACTIVE",
    "inService": true,
    "licenseNumber": "940000055",
    "licenseEffectiveDate": "12/01/2024",
    "licenseExpirationDate": "11/30/2025",
    "dataDate": "10/18/2025",
    "capacity": 36,
    "address": "7926 PAINTER AVE",
    "city": "WHITTIER",
    "zip": "90602",
    "county": "LOS ANGELES",
    "phone": "(562) 693-5618",
    "lat": 33.969231,
    "lng": -118.032489
  },
  {
    "id": "630012813",
    "name": "WHITTIER OUTPATIENT SURGERY CENTER",
    "npi": "1356663454",
    "hcaiId": null,
    "businessName": null,
    "contactEmail": null,
    "categoryName": "SURGICAL CLINIC",
    "categoryCode": "ASC",
    "licenseStatus": null,
    "inService": null,
    "licenseNumber": null,
    "licenseEffectiveDate": null,
    "licenseExpirationDate": null,
    "dataDate": "10/18/2025",
    "capacity": 0,
    "address": "8135 PAINTER AVE, SUITE 103",
    "city": "WHITTIER",
    "zip": "90602",
    "county": "LOS ANGELES",
    "phone": "(562) 464-1600",
    "lat": 33.965739,
    "lng": -118.0330695
  },
  {
    "id": "940000116",
    "name": "WHITTIER PACIFIC CARE CENTER",
    "npi": "1679657993",
    "hcaiId": "206190703",
    "businessName": "SHEA HEALTHCARE CENTER LLC",
    "contactEmail": "FAC20ADMIN@LONGWOODMGMT.COM",
    "categoryName": "SKILLED NURSING FACILITY",
    "categoryCode": "SNF",
    "licenseStatus": "ACTIVE",
    "inService": true,
    "licenseNumber": "940000149",
    "licenseEffectiveDate": "02/01/2025",
    "licenseExpirationDate": "01/31/2026",
    "dataDate": "10/18/2025",
    "capacity": 105,
    "address": "7716 PICKERING AVE",
    "city": "WHITTIER",
    "zip": "90602",
    "county": "LOS ANGELES",
    "phone": "(562) 693-5240",
    "lat": 33.971409,
    "lng": -118.0414575
  }
]