[
  {
    "id": "980002265",
    "name": "LEGACY HOMECARE, INC.",
    "npi": "1528045671",
    "hcaiId": "406196604",
    "businessName": "LEGACY HOMECARE, INC.",
    "contactEmail": "LEGACYHOMECARE@YAHOO.COM",
    "categoryName": "HOME HEALTH AGENCY",
    "categoryCode": "HHA",
    "licenseStatus": "ACTIVE",
    "inService": true,
    "licenseNumber": "980001381",
    "licenseEffectiveDate": "03/19/2025",
    "licenseExpirationDate": "03/18/2026",
    "dataDate": "10/18/2025",
    "capacity": 0,
    "address": "11036 WASHINGTON BLVD, SUITE A",
    "city": "WHITTIER",
    "zip": "90606",
    "county": "LOS ANGELES",
    "phone": "(562) 568-0162",
    "lat": 33.972066,
    "lng": -118.074249
  },
  {
    "id": "630011329",
    "name": "SANTA FE SPRINGS DIALYSIS",
    "npi": "1619184199",
    "hcaiId": "306197112",
    "businessName": "SANTA FE SPRINGS DIALYSIS, LLC",
    "contactEmail": "CAL_C@DAVITA.COM",
    "categoryName": "CHRONIC DIALYSIS CLINIC",
    "categoryCode": "ESRD/CDC",
    "licenseStatus": "ACTIVE",
    "inService": true,
    "licenseNumber": "550000685",
    "licenseEffectiveDate": "01/25/2025",
    "licenseExpirationDate": "01/24/2026",
    "dataDate": "10/18/2025",
    "capacity": 16,
    "address": "11147 WASHINGTON BLVD",
    "city": "WHITTIER",
    "zip": "90606",
    "county": "LOS ANGELES",
    "phone": "(562) 695-0827",
    "lat": 33.9722738,
    "lng": -118.0726674
  },
  {
    "id": "940000117",
    "name": "SOCAL POST-ACUTE CARE",
    "npi": "1891706487",
    "hcaiId": "206190726",
    "businessName": "SO CAL POST ACUTE HOLDINGS, LLC",
    "contactEmail": "SHANE.DAHL@SOCALPOSTACUTECARE.COM",
    "categoryName": "SKILLED NURSING FACILITY",
    "categoryCode": "SNF",
    "licenseStatus": "ACTIVE",
    "inService": true,
    "licenseNumber": "940000150",
    "licenseEffectiveDate": "11/19/2024",
    "licenseExpirationDate": "11/18/2025",
    "dataDate": "10/18/2025",
    "capacity": 59,
    "address": "7931 SORENSEN AVE",
    "city": "WHITTIER",
    "zip": "90606",
    "county": "LOS ANGELES",
    "phone": "(562) 698-0451",
    "lat": 33.970068,
    "lng": -118.0600515
  },
  {
    "id": "940000015",
    "name": "THE ORCHARD - POST ACUTE CARE",
    "npi": "1740289982",
    "hcaiId": "206190089",
    "businessName": "ENSIGN WHITTIER WEST LLC",
    "contactEmail": "RENEWALS@ENSIGNSERVICES.NET",
    "categoryName": "SKILLED NURSING FACILITY",
    "categoryCode": "SNF",
    "licenseStatus": "ACTIVE",
    "inService": true,
    "licenseNumber": "940000019",
    "licenseEffectiveDate": "12/01/2024",
    "licenseExpirationDate": "11/30/2025",
    "dataDate": "10/18/2025",
    "capacity": 162,
    "address": "12385 WASHINGTON BLVD",
    "city": "WHITTIER",
    "zip": "90606",
    "county": "LOS ANGELES",
    "phone": "(562) 693-7701",
    "lat": 33.968052,
    "lng": -118.049733
  },
  {
    "id": "630011212",
    "name": "VICTORIA HOSPICE SERVICES, INC.",
    "npi": "1386867141",
    "hcaiId": "406197187",
    "businessName": "VICTORIA HOSPICE SERVICES, INC.",
    "contactEmail": "MUBASHIR@VICTORIA-HOSPICE.COM",
    "categoryName": "HOSPICE",
    "categoryCode": "HOSPICE",
    "licenseStatus": "ACTIVE",
    "inService": true,
    "licenseNumber": "550000871",
    "licenseEffectiveDate": "11/18/2024",
    "licenseExpirationDate": "11/17/2026",
    "dataDate": "10/18/2025",
    "capacity": 0,
    "address": "12403 SLAUSON AVE, SUITE A",
    "city": "WHITTIER",
    "zip": "90606",
    "county": "LOS ANGELES",
    "phone": "(323) 653-0544",
    "lat": 33.96118198,
    "lng": -118.052328
  }
]