[
  {
    "id": "630015447",
    "name": "PASSION AND LOVE HOSPICE INC",
    "npi": "1295149789",
    "hcaiId": "406198152",
    "businessName": "PASSION AND LOVE HOSPICE INC",
    "contactEmail": "PASSIONLOVEHOSPICE@GMAIL.COM",
    "categoryName": "HOSPICE",
    "categoryCode": "HOSPICE",
    "licenseStatus": "ACTIVE",
    "inService": true,
    "licenseNumber": "550003327",
    "licenseEffectiveDate": "10/19/2023",
    "licenseExpirationDate": "10/18/2025",
    "dataDate": "10/18/2025",
    "capacity": 0,
    "address": "13601 WHITTIER BLVD, SUITE 413",
    "city": "WHITTIER",
    "zip": "90605",
    "county": "LOS ANGELES",
    "phone": "(626) 671-1070",
    "lat": 33.961491,
    "lng": -118.0288125
  },
  {
    "id": "630016497",
    "name": "S.N.E. HOME HEALTH CARE SERVICES",
    "npi": "1881067734",
    "hcaiId": "406190635",
    "businessName": "S.N.E. HOME HEALTH CARE SERVICES",
    "contactEmail": "SNEHOMEHEALTH@GMAIL.COM",
    "categoryName": "HOME HEALTH AGENCY",
    "categoryCode": "HHA",
    "licenseStatus": "ACTIVE",
    "inService": true,
    "licenseNumber": "550004141",
    "licenseEffectiveDate": "02/09/2025",
    "licenseExpirationDate": "02/08/2026",
    "dataDate": "10/18/2025",
    "capacity": 0,
    "address": "13583 WHITTIER BLVD., SUITE 201",
    "city": "WHITTIER",
    "zip": "90605",
    "county": "LOS ANGELES",
    "phone": "(562) 325-5335",
    "lat": 33.961635,
    "lng": -118.0292535
  },
  {
    "id": "630017163",
    "name": "SUNRISE ADULT DAY HEALTH CARE CENTER",
    "npi": null,
    "hcaiId": null,
    "businessName": "SUNRISE CBAS, INC.",
    "contactEmail": "ADMIN@SUNRISEDAYHEALTHCARE.ORG",
    "categoryName": "ADULT DAY HEALTH CARE",
    "categoryCode": "ADHC",
    "licenseStatus": "ACTIVE",
    "inService": true,
    "licenseNumber": "550004556",
    "licenseEffectiveDate": "02/21/2025",
    "licenseExpirationDate": "02/20/2026",
    "dataDate": "10/18/2025",
    "capacity": 0,
    "address": "14360 WHITTIER BLVD",
    "city": "WHITTIER",
    "zip": "90605",
    "county": "LOS ANGELES",
    "phone": "(562) 325-5787",
    "lat": 33.954579,
    "lng": -118.018215
  },
  {
    "id": "630019746",
    "name": "WESLEY HEALTH CENTERS - WHITTIER",
    "npi": "1245786532",
    "hcaiId": null,
    "businessName": "JWCH INSTITUTE, INC.",
    "contactEmail": null,
    "categoryName": "PRIMARY CARE CLINIC",
    "categoryCode": "COMTYC",
    "licenseStatus": "ACTIVE",
    "inService": true,
    "licenseNumber": "550000250",
    "licenseEffectiveDate": "11/01/2025",
    "licenseExpirationDate": "10/31/2026",
    "dataDate": "10/18/2025",
    "capacity": 0,
    "address": "10750 LAUREL AVE",
    "city": "WHITTIER",
    "zip": "90605",
    "county": "LOS ANGELES",
    "phone": "(323) 201-4516",
    "lat": 33.93483856,
    "lng": -118.0487531
  },
  {
    "id": "930000151",
    "name": "WHITTIER HOSPITAL MEDICAL CENTER",
    "npi": "1023000569",
    "hcaiId": "106190883",
    "businessName": "AHMC WHITTIER HOSPITAL MEDICAL CENTER LP",
    "contactEmail": "MARYANNE.MONJE@AHMCHEALTH.COM",
    "categoryName": "GENERAL ACUTE CARE HOSPITAL",
    "categoryCode": "GACH",
    "licenseStatus": "ACTIVE",
    "inService": true,
    "licenseNumber": "930000402",
    "licenseEffectiveDate": "12/01/2024",
    "licenseExpirationDate": "11/30/2025",
    "dataDate": "10/18/2025",
    "capacity": 156,
    "address": "9080 COLIMA RD",
    "city": "WHITTIER",
    "zip": "90605",
    "county": "LOS ANGELES",
    "phone": "(562) 907-1540",
    "lat": 33.950448,
    "lng": -118.004499
  },
  {
    "id": "930001410",
    "name": "WHITTIER HOSPITAL MEDICAL CENTER D/P SNF",
    "npi": "1023000569",
    "hcaiId": null,
    "businessName": "AHMC WHITTIER HOSPITAL MEDICAL CENTER LP",
    "contactEmail": "REINALI.ZABALERIO@AHMCHEALTH.COM",
    "categoryName": "SKILLED NURSING FACILITY",
    "categoryCode": "SNF",
    "licenseStatus": "ACTIVE",
    "inService": true,
    "licenseNumber": "930000402",
    "licenseEffectiveDate": "12/01/2024",
    "licenseExpirationDate": "11/30/2025",
    "dataDate": "10/18/2025",
    "capacity": 22,
    "address": "9080 COLIMA RD",
    "city": "WHITTIER",
    "zip": "90605",
    "county": "LOS ANGELES",
    "phone": "(562) 945-3561",
    "lat": 33.950448,
    "lng": -118.004499
  }
]