[
  {
    "id": "930001653",
    "name": "CENTER FOR OUTPATIENT SURGERY",
    "npi": "1932153509",
    "hcaiId": "306196046",
    "businessName": "NOVAMED SURGERY CENTER OF WHITTIER, LLC",
    "contactEmail": "DBREWER@NOVAMED.COM",
    "categoryName": "SURGICAL CLINIC",
    "categoryCode": "ASC",
    "licenseStatus": "INACTIVE - CAPEN DECISION",
    "inService": false,
    "licenseNumber": "930000917",
    "licenseEffectiveDate": "11/01/2007",
    "licenseExpirationDate": "10/31/2008",
    "dataDate": "10/18/2025",
    "capacity": 0,
    "address": "15141 WHITTIER BLVD, SUITE 130",
    "city": "WHITTIER",
    "zip": "90603",
    "county": "LOS ANGELES",
    "phone": "(562) 645-2832",
    "lat": 33.948459,
    "lng": -118.003887
  },
  {
    "id": "930001757",
    "name": "MAYBROOK DIALYSIS",
    "npi": "1538210208",
    "hcaiId": "306196299",
    "businessName": "LEAPSHORE DIALYSIS, LLC",
    "contactEmail": "CAL_C@DAVITA.COM",
    "categoryName": "CHRONIC DIALYSIS CLINIC",
    "categoryCode": "ESRD/CDC",
    "licenseStatus": "ACTIVE",
    "inService": true,
    "licenseNumber": "930000977",
    "licenseEffectiveDate": "04/25/2025",
    "licenseExpirationDate": "04/24/2026",
    "dataDate": "10/18/2025",
    "capacity": 30,
    "address": "16417 WHITTIER BLVD",
    "city": "WHITTIER",
    "zip": "90603",
    "county": "LOS ANGELES",
    "phone": "(562) 670-3839",
    "lat": 33.94035,
    "lng": -117.9801855
  },
  {
    "id": "930001811",
    "name": "WHITTIER DIALYSIS",
    "npi": "1003879479",
    "hcaiId": "306196434",
    "businessName": "ORANGE DIALYSIS, LLC",
    "contactEmail": "CAL_C@DAVITA.COM",
    "categoryName": "CHRONIC DIALYSIS CLINIC",
    "categoryCode": "ESRD/CDC",
    "licenseStatus": "ACTIVE",
    "inService": true,
    "licenseNumber": "930000994",
    "licenseEffectiveDate": "06/02/2025",
    "licenseExpirationDate": "06/01/2026",
    "dataDate": "10/18/2025",
    "capacity": 18,
    "address": "10055 WHITTWOOD DR, SUITE A",
    "city": "WHITTIER",
    "zip": "90603",
    "county": "LOS ANGELES",
    "phone": "(562) 947-1808",
    "lat": 33.94503843,
    "lng": -117.9992453
  },
  {
    "id": "940000019",
    "name": "WHITTIER HILLS HEALTH CARE CENTER",
    "npi": "1255326039",
    "hcaiId": "206190088",
    "businessName": "ENSIGN WHITTIER EAST LLC",
    "contactEmail": "MBUSHMAN@ENSIGNSERVICES.NET",
    "categoryName": "SKILLED NURSING FACILITY",
    "categoryCode": "SNF",
    "licenseStatus": "ACTIVE",
    "inService": true,
    "licenseNumber": "940000018",
    "licenseEffectiveDate": "12/01/2024",
    "licenseExpirationDate": "11/30/2025",
    "dataDate": "10/18/2025",
    "capacity": 160,
    "address": "10426 BOGARDUS AVE",
    "city": "WHITTIER",
    "zip": "90603",
    "county": "LOS ANGELES",
    "phone": "(562) 599-9423",
    "lat": 33.941592,
    "lng": -117.9830025
  },
  {
    "id": "630021440",
    "name": "WHITTIER HOME HEALTH CARE, INC.",
    "npi": null,
    "hcaiId": "406195708",
    "businessName": "WHITTIER HOME HEALTH CARE, INC",
    "contactEmail": "WHHPCINC@GMAIL.COM",
    "categoryName": "HOME HEALTH AGENCY",
    "categoryCode": "HHA",
    "licenseStatus": "ACTIVE",
    "inService": true,
    "licenseNumber": "550007489",
    "licenseEffectiveDate": "12/16/2024",
    "licenseExpirationDate": "12/15/2025",
    "dataDate": "10/18/2025",
    "capacity": 0,
    "address": "15141 WHITTIER BLVD, SUITE 480 A",
    "city": "WHITTIER",
    "zip": "90603",
    "county": "LOS ANGELES",
    "phone": "(323) 605-1194",
    "lat": 33.948128,
    "lng": -118.004021
  },
  {
    "id": "960002250",
    "name": "WHITTIER PREGNANCY CARE CLINIC",
    "npi": null,
    "hcaiId": "306195056",
    "businessName": "WHITTIER PREGNANCY CARE CLINIC, INC",
    "contactEmail": "JESSICAE@WPCC.OBRIA.ORG",
    "categoryName": "PRIMARY CARE CLINIC",
    "categoryCode": "COMTYC",
    "licenseStatus": "ACTIVE",
    "inService": true,
    "licenseNumber": "960001056",
    "licenseEffectiveDate": "03/12/2025",
    "licenseExpirationDate": "03/11/2026",
    "dataDate": "10/18/2025",
    "capacity": 0,
    "address": "16147 WHITTIER BLVD",
    "city": "WHITTIER",
    "zip": "90603",
    "county": "LOS ANGELES",
    "phone": "(626) 902-3803",
    "lat": 33.9415552,
    "lng": -117.9858443
  }
]