[
  {
    "id": "630027935",
    "name": "BEACH ADHC",
    "npi": null,
    "hcaiId": null,
    "businessName": "BEACH ADHC, INC",
    "contactEmail": "BEACHADHC@GMAIL.COM",
    "categoryName": "ADULT DAY HEALTH CARE",
    "categoryCode": "ADHC",
    "licenseStatus": "ACTIVE",
    "inService": true,
    "licenseNumber": "550009606",
    "licenseEffectiveDate": "06/06/2025",
    "licenseExpirationDate": "01/14/2026",
    "dataDate": "10/18/2025",
    "capacity": 0,
    "address": "4560 BEACH BLVD",
    "city": "BUENA PARK",
    "zip": "90621",
    "county": "ORANGE",
    "phone": "(714) 735-8313",
    "lat": 33.89532399,
    "lng": -117.986112
  },
  {
    "id": "630019292",
    "name": "BUENA PARK HIGH SCHOOL (VCC: COMMUNITY SMILES ORANGE COUNTY)",
    "npi": "1497203541",
    "hcaiId": null,
    "businessName": "VISTA COMMUNITY CLINIC",
    "contactEmail": null,
    "categoryName": "PRIMARY CARE CLINIC",
    "categoryCode": "COMTYC",
    "licenseStatus": "ACTIVE",
    "inService": true,
    "licenseNumber": "550003781",
    "licenseEffectiveDate": "02/06/2025",
    "licenseExpirationDate": "02/05/2026",
    "dataDate": "10/18/2025",
    "capacity": 0,
    "address": "8833 ACADEMY DR, ROOM HOWL",
    "city": "BUENA PARK",
    "zip": "90621",
    "county": "ORANGE",
    "phone": null,
    "lat": 33.864021,
    "lng": -117.9769185
  },
  {
    "id": "060002124",
    "name": "COMMONWEALTH ADULT DAY HEALTH CARE CENTER",
    "npi": null,
    "hcaiId": null,
    "businessName": "THE SPRING HIGHLAND FIELDS CORPORATION",
    "contactEmail": "LEEHYUNOK@GMAIL.COM",
    "categoryName": "ADULT DAY HEALTH CARE",
    "categoryCode": "ADHC",
    "licenseStatus": "ACTIVE",
    "inService": true,
    "licenseNumber": "060000859",
    "licenseEffectiveDate": "04/25/2025",
    "licenseExpirationDate": "04/24/2026",
    "dataDate": "10/18/2025",
    "capacity": 0,
    "address": "7811 COMMONWEALTH AVE",
    "city": "BUENA PARK",
    "zip": "90621",
    "county": "ORANGE",
    "phone": "(625) 252-4579",
    "lat": 33.870042,
    "lng": -117.9967005
  },
  {
    "id": "630020875",
    "name": "HOSPICE OF OC, INC.",
    "npi": null,
    "hcaiId": "406306124",
    "businessName": "HOSPICE OF OC, INC.",
    "contactEmail": "HOSPICEOFOCINC@GMAIL.COM",
    "categoryName": "HOSPICE",
    "categoryCode": "HOSPICE",
    "licenseStatus": "ACTIVE",
    "inService": true,
    "licenseNumber": "550006333",
    "licenseEffectiveDate": "05/24/2025",
    "licenseExpirationDate": "05/23/2027",
    "dataDate": "10/18/2025",
    "capacity": 0,
    "address": "7430 ORANGETHORPE AVE",
    "city": "BUENA PARK",
    "zip": "90621",
    "county": "ORANGE",
    "phone": "(714) 790-0594",
    "lat": 33.85890268,
    "lng": -118.003295
  },
  {
    "id": "630019637",
    "name": "KCS HEALTH CENTER",
    "npi": "1861525602",
    "hcaiId": null,
    "businessName": "KOREAN COMMUNITY SERVICES, INCORPORATED",
    "contactEmail": null,
    "categoryName": "PRIMARY CARE CLINIC",
    "categoryCode": "COMTYC",
    "licenseStatus": "ACTIVE",
    "inService": true,
    "licenseNumber": "550001806",
    "licenseEffectiveDate": "11/22/2025",
    "licenseExpirationDate": "11/21/2026",
    "dataDate": "10/18/2025",
    "capacity": 0,
    "address": "8352 COMMONWEALTH AVE",
    "city": "BUENA PARK",
    "zip": "90621",
    "county": "ORANGE",
    "phone": null,
    "lat": 33.869709,
    "lng": -117.9874485
  },
  {
    "id": "630019436",
    "name": "KCS HEALTH CENTER MOBILE",
    "npi": "1861525602",
    "hcaiId": null,
    "businessName": "KOREAN COMMUNITY SERVICES, INCORPORATED",
    "contactEmail": null,
    "categoryName": "PRIMARY CARE CLINIC",
    "categoryCode": "COMTYC",
    "licenseStatus": "ACTIVE",
    "inService": true,
    "licenseNumber": "550001806",
    "licenseEffectiveDate": "11/22/2025",
    "licenseExpirationDate": "11/21/2026",
    "dataDate": "10/18/2025",
    "capacity": 0,
    "address": "7212 ORANGETHORPE AVE, SUITE 9A",
    "city": "BUENA PARK",
    "zip": "90621",
    "county": "ORANGE",
    "phone": null,
    "lat": 33.857685,
    "lng": -118.0073475
  },
  {
    "id": "630013252",
    "name": "KOREAN COMMUNITY SERVICES",
    "npi": "1861525602",
    "hcaiId": "306304483",
    "businessName": "KOREAN COMMUNITY SERVICES, INCORPORATED",
    "contactEmail": "AHN.ELLEN@KCSINC.ORG",
    "categoryName": "PRIMARY CARE CLINIC",
    "categoryCode": "COMTYC",
    "licenseStatus": "ACTIVE",
    "inService": true,
    "licenseNumber": "550001806",
    "licenseEffectiveDate": "11/22/2025",
    "licenseExpirationDate": "11/21/2026",
    "dataDate": "10/18/2025",
    "capacity": 0,
    "address": "7212 ORANGETHORPE AVE, SUITE 9A",
    "city": "BUENA PARK",
    "zip": "90621",
    "county": "ORANGE",
    "phone": "(714) 527-6561",
    "lat": 33.857685,
    "lng": -118.0073475
  },
  {
    "id": "060001039",
    "name": "LIVINGSTONE HOME HEALTH SERVICES, INC.",
    "npi": "1972611846",
    "hcaiId": "406304138",
    "businessName": "LIVINGSTONE HOME HEALTH SERVICES, INC.",
    "contactEmail": "LIVINGSTONE99@SBCGLOBAL.NET",
    "categoryName": "HOME HEALTH AGENCY",
    "categoryCode": "HHA",
    "licenseStatus": "ACTIVE",
    "inService": true,
    "licenseNumber": "060000366",
    "licenseEffectiveDate": "11/15/2024",
    "licenseExpirationDate": "11/14/2025",
    "dataDate": "10/18/2025",
    "capacity": 0,
    "address": "6301 BEACH BLVD, SUITE 212",
    "city": "BUENA PARK",
    "zip": "90621",
    "county": "ORANGE",
    "phone": "(714) 994-6329",
    "lat": 33.868719,
    "lng": -117.9988875
  },
  {
    "id": "630011142",
    "name": "MONTICELLO HOME",
    "npi": "1083859094",
    "hcaiId": null,
    "businessName": "C & R GUEST HOMES, INC.",
    "contactEmail": "EVAUNQMRP@SBCGLOBAL.NET",
    "categoryName": "INTERMEDIATE CARE FACILITY-DD/H/N/CN/IID",
    "categoryCode": "ICFDDH",
    "licenseStatus": "ACTIVE",
    "inService": true,
    "licenseNumber": "550000600",
    "licenseEffectiveDate": "11/09/2025",
    "licenseExpirationDate": "11/08/2026",
    "dataDate": "10/18/2025",
    "capacity": 6,
    "address": "5581 MONTICELLO AVE",
    "city": "BUENA PARK",
    "zip": "90621",
    "county": "ORANGE",
    "phone": "(714) 609-5209",
    "lat": 33.879627,
    "lng": -117.9863955
  },
  {
    "id": "630026251",
    "name": "ON BEACH SURGERY CENTER, LLC",
    "npi": null,
    "hcaiId": null,
    "businessName": null,
    "contactEmail": "MANAGER@ONBEACHSURGERYCENTER.COM",
    "categoryName": "SURGICAL CLINIC",
    "categoryCode": "ASC",
    "licenseStatus": null,
    "inService": null,
    "licenseNumber": null,
    "licenseEffectiveDate": null,
    "licenseExpirationDate": null,
    "dataDate": "10/18/2025",
    "capacity": 0,
    "address": "5832 BEACH BLVD, SUITE 210",
    "city": "BUENA PARK",
    "zip": "90621",
    "county": "ORANGE",
    "phone": "(714) 515-5300",
    "lat": 33.875451,
    "lng": -117.997974
  },
  {
    "id": "060001999",
    "name": "RIDGLEA HOME",
    "npi": "1770669327",
    "hcaiId": null,
    "businessName": "ROSE LU ANN HOMES, INC.",
    "contactEmail": "EVAUNQMRP@SBCGLOBAL.NET",
    "categoryName": "INTERMEDIATE CARE FACILITY-DD/H/N/CN/IID",
    "categoryCode": "ICFDDN",
    "licenseStatus": "ACTIVE",
    "inService": true,
    "licenseNumber": "060000806",
    "licenseEffectiveDate": "06/29/2025",
    "licenseExpirationDate": "06/28/2026",
    "dataDate": "10/18/2025",
    "capacity": 6,
    "address": "5101 RIDGLEA AVE",
    "city": "BUENA PARK",
    "zip": "90621",
    "county": "ORANGE",
    "phone": "(714) 609-5209",
    "lat": 33.886593,
    "lng": -117.989388
  },
  {
    "id": "060001414",
    "name": "SUNSET HAVEN HOME",
    "npi": "1316021942",
    "hcaiId": null,
    "businessName": "PILAR M. DE CASTRO & CO., INC.",
    "contactEmail": "EDUVENTUREINC@GMAIL.COM",
    "categoryName": "INTERMEDIATE CARE FACILITY-DD/H/N/CN/IID",
    "categoryCode": "ICFDDN",
    "licenseStatus": "ACTIVE",
    "inService": true,
    "licenseNumber": "060000433",
    "licenseEffectiveDate": "11/01/2025",
    "licenseExpirationDate": "10/31/2026",
    "dataDate": "10/18/2025",
    "capacity": 6,
    "address": "6282 LOS ROBLES AVE",
    "city": "BUENA PARK",
    "zip": "90621",
    "county": "ORANGE",
    "phone": "(714) 906-6064",
    "lat": 33.869169,
    "lng": -117.9913275
  },
  {
    "id": "630024158",
    "name": "TRUSTFUL HOME HEALTH INC",
    "npi": null,
    "hcaiId": "406195847",
    "businessName": "TRUSTFUL HOME HEALTH INC",
    "contactEmail": "TRUSTFULLHH@GMAIL.COM",
    "categoryName": "HOME HEALTH AGENCY",
    "categoryCode": "HHA",
    "licenseStatus": "ACTIVE",
    "inService": true,
    "licenseNumber": "550007997",
    "licenseEffectiveDate": "09/30/2025",
    "licenseExpirationDate": "05/12/2026",
    "dataDate": "10/18/2025",
    "capacity": 0,
    "address": "6301 BEACH BLVD, SUITE 306",
    "city": "BUENA PARK",
    "zip": "90621",
    "county": "ORANGE",
    "phone": "(818) 396-7494",
    "lat": 33.868818,
    "lng": -117.9988155
  }
]