[
  {
    "id": "630027897",
    "name": "ALTAMED DENTAL GROUP AT STEVE LUTHER ELEMENTARY SCHOOL",
    "npi": null,
    "hcaiId": null,
    "businessName": "ALTAMED HEALTH SERVICES CORPORATION",
    "contactEmail": null,
    "categoryName": "PRIMARY CARE CLINIC",
    "categoryCode": "COMTYC",
    "licenseStatus": "ACTIVE",
    "inService": true,
    "licenseNumber": "550005158",
    "licenseEffectiveDate": "12/20/2024",
    "licenseExpirationDate": "12/19/2025",
    "dataDate": "10/18/2025",
    "capacity": 0,
    "address": "4631 LA PALMA AVE",
    "city": "LA PALMA",
    "zip": "90623",
    "county": "ORANGE",
    "phone": null,
    "lat": 33.84792998,
    "lng": -118.05152
  },
  {
    "id": "630021979",
    "name": "BENEFICIAL HOSPICE AND PALLIATIVE CARE",
    "npi": null,
    "hcaiId": "406305199",
    "businessName": "BENEFICIAL HOSPICE AND PALLIATIVE CARE",
    "contactEmail": "BENEFICIALHOSPICE@GMAIL.COM",
    "categoryName": "HOSPICE",
    "categoryCode": "HOSPICE",
    "licenseStatus": "ACTIVE",
    "inService": true,
    "licenseNumber": "550007495",
    "licenseEffectiveDate": "12/20/2023",
    "licenseExpirationDate": "12/19/2025",
    "dataDate": "10/18/2025",
    "capacity": 0,
    "address": "7002 MOODY ST, SUITE 205B",
    "city": "LA PALMA",
    "zip": "90623",
    "county": "ORANGE",
    "phone": "(562) 263-6098",
    "lat": 33.857559,
    "lng": -118.045665
  },
  {
    "id": "630020131",
    "name": "BEVERLY HILLS HOSPICE AND PALLIATIVE CARE",
    "npi": null,
    "hcaiId": null,
    "businessName": "BEVERLY HILLS HOSPICE AND PALLIATIVE CARE",
    "contactEmail": "KAMAL.SAKKAY@GMAIL.COM",
    "categoryName": "HOSPICE",
    "categoryCode": "HOSPICE",
    "licenseStatus": "ACTIVE",
    "inService": true,
    "licenseNumber": "550006281",
    "licenseEffectiveDate": "04/30/2023",
    "licenseExpirationDate": "04/29/2025",
    "dataDate": "10/18/2025",
    "capacity": 0,
    "address": "7002 MOODY ST, SUITE 210",
    "city": "LA PALMA",
    "zip": "90623",
    "county": "ORANGE",
    "phone": "(562) 271-5003",
    "lat": 33.857874,
    "lng": -118.0453275
  },
  {
    "id": "630011310",
    "name": "EMC HOME HEALTH PROVIDERS, INC.",
    "npi": "1093910283",
    "hcaiId": "406304429",
    "businessName": "EMC HOME HEALTH PROVIDERS, INC.",
    "contactEmail": "EMCHHPI@GMAIL.COM",
    "categoryName": "HOME HEALTH AGENCY",
    "categoryCode": "HHA",
    "licenseStatus": "ACTIVE",
    "inService": true,
    "licenseNumber": "550000760",
    "licenseEffectiveDate": "11/03/2025",
    "licenseExpirationDate": "11/02/2026",
    "dataDate": "10/18/2025",
    "capacity": 0,
    "address": "7851 WALKER ST, SUITE 101",
    "city": "LA PALMA",
    "zip": "90623",
    "county": "ORANGE",
    "phone": "(714) 521-4476",
    "lat": 33.848325,
    "lng": -118.037673
  },
  {
    "id": "060000024",
    "name": "LA PALMA INTERCOMMUNITY HOSPITAL",
    "npi": "1417965559",
    "hcaiId": "106301234",
    "businessName": "PRIME HEALTHCARE LA PALMA, LLC",
    "contactEmail": "LPIH-STATEAGENCY@PRIMEHEALTHCARE.COM",
    "categoryName": "GENERAL ACUTE CARE HOSPITAL",
    "categoryCode": "GACH",
    "licenseStatus": "ACTIVE",
    "inService": true,
    "licenseNumber": "060000136",
    "licenseEffectiveDate": "11/27/2025",
    "licenseExpirationDate": "11/26/2026",
    "dataDate": "10/18/2025",
    "capacity": 104,
    "address": "7901 WALKER ST",
    "city": "LA PALMA",
    "zip": "90623",
    "county": "ORANGE",
    "phone": "(714) 670-6047",
    "lat": 33.847524,
    "lng": -118.038312
  },
  {
    "id": "060000955",
    "name": "LA PALMA INTERCOMMUNITY HOSPITAL",
    "npi": "1417965559",
    "hcaiId": null,
    "businessName": "PRIME HEALTHCARE LA PALMA, LLC",
    "contactEmail": null,
    "categoryName": "OTHER",
    "categoryCode": "PPSPSCH",
    "licenseStatus": "ACTIVE",
    "inService": true,
    "licenseNumber": "060000136",
    "licenseEffectiveDate": "11/27/2025",
    "licenseExpirationDate": "11/26/2026",
    "dataDate": "10/18/2025",
    "capacity": 0,
    "address": "7901 WALKER ST",
    "city": "LA PALMA",
    "zip": "90623",
    "county": "ORANGE",
    "phone": null,
    "lat": 33.847524,
    "lng": -118.038312
  },
  {
    "id": "060000944",
    "name": "LA PALMA INTERCOMMUNITY HOSPITAL D/P APH",
    "npi": "1417965559",
    "hcaiId": null,
    "businessName": "PRIME HEALTHCARE LA PALMA, LLC",
    "contactEmail": null,
    "categoryName": "ACUTE PSYCHIATRIC HOSPITAL",
    "categoryCode": "APH",
    "licenseStatus": "ACTIVE",
    "inService": true,
    "licenseNumber": "060000136",
    "licenseEffectiveDate": "11/27/2025",
    "licenseExpirationDate": "11/26/2026",
    "dataDate": "10/18/2025",
    "capacity": 23,
    "address": "7901 WALKER ST",
    "city": "LA PALMA",
    "zip": "90623",
    "county": "ORANGE",
    "phone": "(714) 670-7400",
    "lat": 33.847524,
    "lng": -118.038312
  },
  {
    "id": "980001607",
    "name": "NETWORK PROVIDERS FOR HOME HEALTH, INC.",
    "npi": "1225030463",
    "hcaiId": "406305650",
    "businessName": "NETWORK PROVIDERS FOR HOME HEALTH, INC.",
    "contactEmail": "NETWORK@NPHH.INFO",
    "categoryName": "HOME HEALTH AGENCY",
    "categoryCode": "HHA",
    "licenseStatus": "ACTIVE",
    "inService": true,
    "licenseNumber": "980000915",
    "licenseEffectiveDate": "04/14/2025",
    "licenseExpirationDate": "04/13/2026",
    "dataDate": "10/18/2025",
    "capacity": 0,
    "address": "5451 LA PALMA AVE, SUITE 34",
    "city": "LA PALMA",
    "zip": "90623",
    "county": "ORANGE",
    "phone": "(866) 802-8516",
    "lat": 33.84666,
    "lng": -118.038744
  }
]