[
  {
    "id": "630011757",
    "name": "ATRIUM HOME HEALTH, INC.",
    "npi": "1902089378",
    "hcaiId": "406304448",
    "businessName": "ATRIUM HOME HEALTH, INC.",
    "contactEmail": "ATRIUMHH@GMAIL.COM",
    "categoryName": "HOME HEALTH AGENCY",
    "categoryCode": "HHA",
    "licenseStatus": "ACTIVE",
    "inService": true,
    "licenseNumber": "550001150",
    "licenseEffectiveDate": "10/27/2025",
    "licenseExpirationDate": "10/31/2025",
    "dataDate": "10/18/2025",
    "capacity": 0,
    "address": "1901 E LAMBERT RD, SUITE 207",
    "city": "LA HABRA",
    "zip": "90631",
    "county": "ORANGE",
    "phone": "(562) 691-3888",
    "lat": 33.924969,
    "lng": -117.9252945
  },
  {
    "id": "630011140",
    "name": "BENEFICIAL HOME HEALTH SERVICES, INC.",
    "npi": "1588845036",
    "hcaiId": "406304405",
    "businessName": "BENEFICIAL HOME HEALTH SERVICES, INC.",
    "contactEmail": "BENEFICIALHOMEHEALTH@GMAIL.COM",
    "categoryName": "HOME HEALTH AGENCY",
    "categoryCode": "HHA",
    "licenseStatus": "ACTIVE",
    "inService": true,
    "licenseNumber": "550000576",
    "licenseEffectiveDate": "11/15/2024",
    "licenseExpirationDate": "11/14/2025",
    "dataDate": "10/18/2025",
    "capacity": 0,
    "address": "1901 E LAMBERT RD, SUITE 203S",
    "city": "LA HABRA",
    "zip": "90631",
    "county": "ORANGE",
    "phone": "(714) 256-0756",
    "lat": 33.924969,
    "lng": -117.9252945
  },
  {
    "id": "060000117",
    "name": "BONITA HILLS POST ACUTE",
    "npi": "1437884038",
    "hcaiId": "206301233",
    "businessName": "LA HABRA POST ACUTE, LLC",
    "contactEmail": "ADMIN@BONITAHILLSPOSTACUTE.COM",
    "categoryName": "SKILLED NURSING FACILITY",
    "categoryCode": "SNF",
    "licenseStatus": "ACTIVE",
    "inService": true,
    "licenseNumber": "060000135",
    "licenseEffectiveDate": "11/18/2024",
    "licenseExpirationDate": "11/17/2025",
    "dataDate": "10/18/2025",
    "capacity": 86,
    "address": "1233 W LA HABRA BLVD",
    "city": "LA HABRA",
    "zip": "90631",
    "county": "ORANGE",
    "phone": "(714) 577-3880",
    "lat": 33.932178,
    "lng": -117.960048
  },
  {
    "id": "630026658",
    "name": "CARE AT HOME HEALTHCARE, INC.",
    "npi": null,
    "hcaiId": null,
    "businessName": "CARE AT HOME HEALTHCARE, INC.",
    "contactEmail": "CAREATHOME562@GMAIL.COM",
    "categoryName": "HOME HEALTH AGENCY",
    "categoryCode": "HHA",
    "licenseStatus": "ACTIVE",
    "inService": true,
    "licenseNumber": "550009328",
    "licenseEffectiveDate": "08/21/2025",
    "licenseExpirationDate": "08/20/2026",
    "dataDate": "10/18/2025",
    "capacity": 0,
    "address": "1901 E LAMBERT RD, SUITE 102",
    "city": "LA HABRA",
    "zip": "90631",
    "county": "ORANGE",
    "phone": "(562) 741-5523",
    "lat": 33.924969,
    "lng": -117.9252945
  },
  {
    "id": "630012584",
    "name": "CENTER FOR DISCOVERY AND ADOLESCENT CHANGE IV",
    "npi": null,
    "hcaiId": "206197491",
    "businessName": "DISCOVERY PRACTICE MANAGEMENT, INC.",
    "contactEmail": "JACQUELYN.ROCHA@CENTERFORDISCOVERY.COM",
    "categoryName": "CONGREGATE LIVING HEALTH FACILITY",
    "categoryCode": "CLHF",
    "licenseStatus": "ACTIVE",
    "inService": true,
    "licenseNumber": "550001575",
    "licenseEffectiveDate": "04/14/2025",
    "licenseExpirationDate": "04/13/2026",
    "dataDate": "10/18/2025",
    "capacity": 6,
    "address": "2115 LAS PALOMAS DR",
    "city": "LA HABRA HEIGHTS",
    "zip": "90631",
    "county": "LOS ANGELES",
    "phone": "(562) 690-3360",
    "lat": 33.963489,
    "lng": -117.972639
  },
  {
    "id": "630019567",
    "name": "CITY OF LA HABRA CHILD DEVELOPMENT CENTER (VCC: COMMUNITY SMILES ORANGE COUNTY)",
    "npi": "1497203541",
    "hcaiId": null,
    "businessName": "VISTA COMMUNITY CLINIC",
    "contactEmail": null,
    "categoryName": "PRIMARY CARE CLINIC",
    "categoryCode": "COMTYC",
    "licenseStatus": "ACTIVE",
    "inService": true,
    "licenseNumber": "550003781",
    "licenseEffectiveDate": "02/06/2025",
    "licenseExpirationDate": "02/05/2026",
    "dataDate": "10/18/2025",
    "capacity": 0,
    "address": "401 S EUCLID ST, ROOM 3",
    "city": "LA HABRA",
    "zip": "90631",
    "county": "ORANGE",
    "phone": null,
    "lat": 33.928578,
    "lng": -117.946539
  },
  {
    "id": "630019568",
    "name": "CITY OF LA HABRA CLAIRE BROWN (VCC: COMMUNITY SMILES ORANGE COUNTY)",
    "npi": "1497203541",
    "hcaiId": null,
    "businessName": "VISTA COMMUNITY CLINIC",
    "contactEmail": null,
    "categoryName": "PRIMARY CARE CLINIC",
    "categoryCode": "COMTYC",
    "licenseStatus": "ACTIVE",
    "inService": true,
    "licenseNumber": "550003781",
    "licenseEffectiveDate": "02/06/2025",
    "licenseExpirationDate": "02/05/2026",
    "dataDate": "10/18/2025",
    "capacity": 0,
    "address": "305 S EUCLID ST, ROOM 1",
    "city": "LA HABRA",
    "zip": "90631",
    "county": "ORANGE",
    "phone": null,
    "lat": 33.9294645,
    "lng": -117.9461374
  },
  {
    "id": "630019569",
    "name": "CITY OF LA HABRA HEAD START (VCC: COMMUNITY SMILES ORANGE COUNTY)",
    "npi": "1497203541",
    "hcaiId": null,
    "businessName": "VISTA COMMUNITY CLINIC",
    "contactEmail": null,
    "categoryName": "PRIMARY CARE CLINIC",
    "categoryCode": "COMTYC",
    "licenseStatus": "ACTIVE",
    "inService": true,
    "licenseNumber": "550003781",
    "licenseEffectiveDate": "02/06/2025",
    "licenseExpirationDate": "02/05/2026",
    "dataDate": "10/18/2025",
    "capacity": 0,
    "address": "215 N EUCLID ST, ROOM 5",
    "city": "LA HABRA",
    "zip": "90631",
    "county": "ORANGE",
    "phone": null,
    "lat": 33.933384,
    "lng": -117.946242
  },
  {
    "id": "630019570",
    "name": "CITY OF LA HABRA PRE-SCHOOL (VCC: COMMUNITY SMILES ORANGE COUNTY)",
    "npi": "1497203541",
    "hcaiId": null,
    "businessName": "VISTA COMMUNITY CLINIC",
    "contactEmail": null,
    "categoryName": "PRIMARY CARE CLINIC",
    "categoryCode": "COMTYC",
    "licenseStatus": "ACTIVE",
    "inService": true,
    "licenseNumber": "550003781",
    "licenseEffectiveDate": "02/06/2025",
    "licenseExpirationDate": "02/05/2026",
    "dataDate": "10/18/2025",
    "capacity": 0,
    "address": "1440 W WHITTIER BLVD, ROOM 2",
    "city": "LA HABRA",
    "zip": "90631",
    "county": "ORANGE",
    "phone": null,
    "lat": 33.938937,
    "lng": -117.9617355
  },
  {
    "id": "060001639",
    "name": "FRIENDS OF FAMILY HEALTH CENTER",
    "npi": "1871818138",
    "hcaiId": "306304415",
    "businessName": "FRIENDS OF FAMILY HEALTH CENTER",
    "contactEmail": "SUPPORT@FOFHEALTHCENTER.ORG",
    "categoryName": "PRIMARY CARE CLINIC",
    "categoryCode": "COMTYC",
    "licenseStatus": "ACTIVE",
    "inService": true,
    "licenseNumber": "060000516",
    "licenseEffectiveDate": "06/16/2025",
    "licenseExpirationDate": "06/15/2026",
    "dataDate": "10/18/2025",
    "capacity": 0,
    "address": "501 S IDAHO ST, SUITE 100 & 190",
    "city": "LA HABRA",
    "zip": "90631",
    "county": "ORANGE",
    "phone": "(562) 690-0400",
    "lat": 33.927786,
    "lng": -117.9597645
  },
  {
    "id": "060002090",
    "name": "HAPPY (BREA) ADULT DAY HEALTH CARE",
    "npi": null,
    "hcaiId": null,
    "businessName": "H.H.J., INC.",
    "contactEmail": "HAPPYDAYCENTER@YAHOO.COM",
    "categoryName": "ADULT DAY HEALTH CARE",
    "categoryCode": "ADHC",
    "licenseStatus": "ACTIVE",
    "inService": true,
    "licenseNumber": "060000861",
    "licenseEffectiveDate": "03/17/2025",
    "licenseExpirationDate": "03/16/2026",
    "dataDate": "10/18/2025",
    "capacity": 0,
    "address": "401 W WHITTIER BLVD, SUITE 201",
    "city": "LA HABRA",
    "zip": "90631",
    "county": "ORANGE",
    "phone": "(562) 266-3736",
    "lat": 33.93918591,
    "lng": -117.9494609
  },
  {
    "id": "630012411",
    "name": "JM HOMECARE SOLUTIONS, INC.",
    "npi": "1639305667",
    "hcaiId": "406304457",
    "businessName": "JM HOMECARE SOLUTIONS, INC.",
    "contactEmail": "JMHOMECARESOLUTIONSINC@GMAIL.COM",
    "categoryName": "HOME HEALTH AGENCY",
    "categoryCode": "HHA",
    "licenseStatus": "ACTIVE",
    "inService": true,
    "licenseNumber": "550001349",
    "licenseEffectiveDate": "11/18/2023",
    "licenseExpirationDate": "11/17/2024",
    "dataDate": "10/18/2025",
    "capacity": 0,
    "address": "625 S PALM ST, SUITE E",
    "city": "LA HABRA",
    "zip": "90631",
    "county": "ORANGE",
    "phone": "(657) 210-4593",
    "lat": 33.92565525,
    "lng": -117.9244444
  },
  {
    "id": "630019113",
    "name": "JOHN MUIR CHARTER SCHOOL (VCC: COMMUNITY SMILES ORANGE COUNTY)",
    "npi": "1497203541",
    "hcaiId": null,
    "businessName": "VISTA COMMUNITY CLINIC",
    "contactEmail": null,
    "categoryName": "PRIMARY CARE CLINIC",
    "categoryCode": "COMTYC",
    "licenseStatus": "ACTIVE",
    "inService": true,
    "licenseNumber": "550003781",
    "licenseEffectiveDate": "02/06/2025",
    "licenseExpirationDate": "02/05/2026",
    "dataDate": "10/18/2025",
    "capacity": 0,
    "address": "441 E WHITTIER BLVD, SUITE A, ROOM 421B",
    "city": "LA HABRA",
    "zip": "90631",
    "county": "ORANGE",
    "phone": null,
    "lat": 33.93918591,
    "lng": -117.9414024
  },
  {
    "id": "630019009",
    "name": "LA HABRA HIGH SCHOOL (VCC:COMMUNITY SMILES ORANGE COUNTY)",
    "npi": "1497203541",
    "hcaiId": null,
    "businessName": "VISTA COMMUNITY CLINIC",
    "contactEmail": null,
    "categoryName": "PRIMARY CARE CLINIC",
    "categoryCode": "COMTYC",
    "licenseStatus": "ACTIVE",
    "inService": true,
    "licenseNumber": "550003781",
    "licenseEffectiveDate": "02/06/2025",
    "licenseExpirationDate": "02/05/2026",
    "dataDate": "10/18/2025",
    "capacity": 0,
    "address": "801 HIGHLANDER AVE, ROOM 70",
    "city": "LA HABRA",
    "zip": "90631",
    "county": "ORANGE",
    "phone": null,
    "lat": 33.936219,
    "lng": -117.9557865
  },
  {
    "id": "630017380",
    "name": "LA HABRA LIFE CENTER, INC.",
    "npi": null,
    "hcaiId": "306300401",
    "businessName": "LA HABRA LIFE CENTER, INC.",
    "contactEmail": "LHLCPC@GMAIL.COM",
    "categoryName": "PRIMARY CARE CLINIC",
    "categoryCode": "COMTYC",
    "licenseStatus": "ACTIVE",
    "inService": true,
    "licenseNumber": "550004362",
    "licenseEffectiveDate": "08/22/2025",
    "licenseExpirationDate": "08/21/2026",
    "dataDate": "10/18/2025",
    "capacity": 0,
    "address": "860 E LA HABRA BLVD, UNIT 150",
    "city": "LA HABRA",
    "zip": "90631",
    "county": "ORANGE",
    "phone": "(562) 691-9395",
    "lat": 33.931728,
    "lng": -117.936045
  },
  {
    "id": "630014927",
    "name": "LAKESIDE HOSPICE CARE, INC.",
    "npi": null,
    "hcaiId": "406304578",
    "businessName": "LAKESIDE HOSPICE CARE, INC.",
    "contactEmail": "INFO@LAKESIDEHOSPICECARE.COM",
    "categoryName": "HOSPICE",
    "categoryCode": "HOSPICE",
    "licenseStatus": "ACTIVE",
    "inService": true,
    "licenseNumber": "550003089",
    "licenseEffectiveDate": "06/04/2025",
    "licenseExpirationDate": "06/03/2027",
    "dataDate": "10/18/2025",
    "capacity": 0,
    "address": "800 N HARBOR BLVD, SUITE A",
    "city": "LA HABRA",
    "zip": "90631",
    "county": "ORANGE",
    "phone": "(714) 871-0099",
    "lat": 33.87243502,
    "lng": -117.940848
  },
  {
    "id": "630011086",
    "name": "LIFESAVERS' HOME HEALTH SERVICES",
    "npi": "1770789554",
    "hcaiId": "406304404",
    "businessName": "LIFESAVERS' HOME HEALTH SERVICES, INC.",
    "contactEmail": "INFO@LIFESAVERSHHS.COM",
    "categoryName": "HOME HEALTH AGENCY",
    "categoryCode": "HHA",
    "licenseStatus": "ACTIVE",
    "inService": true,
    "licenseNumber": "550000538",
    "licenseEffectiveDate": "11/09/2025",
    "licenseExpirationDate": "11/08/2026",
    "dataDate": "10/18/2025",
    "capacity": 0,
    "address": "800 N HARBOR BLVD, SUITE A",
    "city": "LA HABRA",
    "zip": "90631",
    "county": "ORANGE",
    "phone": "(714) 871-7700",
    "lat": 33.939378,
    "lng": -117.9327555
  },
  {
    "id": "630025870",
    "name": "MVE HOME HEALTH CARE, LLC",
    "npi": null,
    "hcaiId": null,
    "businessName": "MVE HOME HEALTH CARE LLC",
    "contactEmail": "MVEHOMEHEALTHCARE@GMAIL.COM",
    "categoryName": "HOME HEALTH AGENCY",
    "categoryCode": "HHA",
    "licenseStatus": "ACTIVE",
    "inService": true,
    "licenseNumber": "550009031",
    "licenseEffectiveDate": "03/11/2025",
    "licenseExpirationDate": "03/10/2026",
    "dataDate": "10/18/2025",
    "capacity": 0,
    "address": "1901 E LAMBERT RD, SUITE 202",
    "city": "LA HABRA",
    "zip": "90631",
    "county": "ORANGE",
    "phone": "(562) 316-5311",
    "lat": 33.924969,
    "lng": -117.9252945
  },
  {
    "id": "980001273",
    "name": "NEURORESTORATIVE CALIFORNIA",
    "npi": null,
    "hcaiId": "206304172",
    "businessName": "CAREMERIDIAN, LLC",
    "contactEmail": "ELIZABETHTALAVERA@SEVITAHEALTH.COM",
    "categoryName": "CONGREGATE LIVING HEALTH FACILITY",
    "categoryCode": "CLHF",
    "licenseStatus": "ACTIVE",
    "inService": true,
    "licenseNumber": "980000693",
    "licenseEffectiveDate": "11/01/2025",
    "licenseExpirationDate": "10/31/2026",
    "dataDate": "10/18/2025",
    "capacity": 10,
    "address": "102 E AVOCADO CREST RD",
    "city": "LA HABRA HEIGHTS",
    "zip": "90631",
    "county": "LOS ANGELES",
    "phone": "(562) 691-2486",
    "lat": 33.94935,
    "lng": -117.9621315
  },
  {
    "id": "630022484",
    "name": "NEXT LEVEL HOSPICE CARE",
    "npi": null,
    "hcaiId": "406300029",
    "businessName": "NEXT LEVEL HOSPICE CARE",
    "contactEmail": "NEXTLEVELHOSPICECARE@GMAIL.COM",
    "categoryName": "HOSPICE",
    "categoryCode": "HOSPICE",
    "licenseStatus": "ACTIVE",
    "inService": true,
    "licenseNumber": "550007657",
    "licenseEffectiveDate": "12/22/2023",
    "licenseExpirationDate": "12/21/2025",
    "dataDate": "10/18/2025",
    "capacity": 0,
    "address": "121 W WHITTIER BLVD, SUITE 221",
    "city": "LA HABRA",
    "zip": "90631",
    "county": "ORANGE",
    "phone": "(818) 275-0710",
    "lat": 33.939432,
    "lng": -117.946656
  },
  {
    "id": "060000978",
    "name": "PARK REGENCY CARE CENTER",
    "npi": "1184720005",
    "hcaiId": "206304055",
    "businessName": "PARK REGENCY CARE, LLC",
    "contactEmail": "ADMIN@PARKREGENCYCARE.COM",
    "categoryName": "SKILLED NURSING FACILITY",
    "categoryCode": "SNF",
    "licenseStatus": "ACTIVE",
    "inService": true,
    "licenseNumber": "060000269",
    "licenseEffectiveDate": "11/02/2025",
    "licenseExpirationDate": "11/01/2026",
    "dataDate": "10/18/2025",
    "capacity": 99,
    "address": "1770 W LA HABRA BLVD",
    "city": "LA HABRA",
    "zip": "90631",
    "county": "ORANGE",
    "phone": "(714) 773-0750",
    "lat": 33.931449,
    "lng": -117.966024
  },
  {
    "id": "630019205",
    "name": "PARTNERS HOSPICE QUALITY CARE, LLC",
    "npi": null,
    "hcaiId": "406306068",
    "businessName": "PARTNERS HOSPICE QUALITY CARE, LLC",
    "contactEmail": "PARTNERSHQCLLC@GMAIL.COM",
    "categoryName": "HOSPICE",
    "categoryCode": "HOSPICE",
    "licenseStatus": "ACTIVE",
    "inService": true,
    "licenseNumber": "550007634",
    "licenseEffectiveDate": "12/23/2023",
    "licenseExpirationDate": "12/22/2025",
    "dataDate": "10/18/2025",
    "capacity": 0,
    "address": "317 W LA HABRA BLVD, SUITE 200",
    "city": "LA HABRA",
    "zip": "90631",
    "county": "ORANGE",
    "phone": "(562) 245-7580",
    "lat": 33.932142,
    "lng": -117.9489555
  },
  {
    "id": "630011562",
    "name": "QUOTIDIAN HOME DIALYSIS CLINIC",
    "npi": "1235254541",
    "hcaiId": "306304533",
    "businessName": "QUOTIDIAN HOME DIALYSIS ORANGE COUNTY, LLC",
    "contactEmail": "SMEHRABIAN@ROGERS.COM",
    "categoryName": "CHRONIC DIALYSIS CLINIC",
    "categoryCode": "ESRD/CDC",
    "licenseStatus": "ACTIVE",
    "inService": true,
    "licenseNumber": "550002287",
    "licenseEffectiveDate": "04/29/2025",
    "licenseExpirationDate": "04/28/2026",
    "dataDate": "10/18/2025",
    "capacity": 1,
    "address": "511 S HARBOR BLVD, SUITE T",
    "city": "LA HABRA",
    "zip": "90631",
    "county": "ORANGE",
    "phone": "(562) 694-8520",
    "lat": 33.9272955,
    "lng": -117.9331054
  },
  {
    "id": "630018899",
    "name": "SONORA HIGH SCHOOL",
    "npi": "1497203541",
    "hcaiId": null,
    "businessName": "VISTA COMMUNITY CLINIC",
    "contactEmail": null,
    "categoryName": "PRIMARY CARE CLINIC",
    "categoryCode": "COMTYC",
    "licenseStatus": "ACTIVE",
    "inService": true,
    "licenseNumber": "550003781",
    "licenseEffectiveDate": "02/06/2025",
    "licenseExpirationDate": "02/05/2026",
    "dataDate": "10/18/2025",
    "capacity": 0,
    "address": "401 S PALM ST, ROOM 107",
    "city": "LA HABRA",
    "zip": "90631",
    "county": "ORANGE",
    "phone": null,
    "lat": 33.928794,
    "lng": -117.926748
  },
  {
    "id": "630017216",
    "name": "SRS-LA HABRA, LLC",
    "npi": "1417633355",
    "hcaiId": "306300375",
    "businessName": "SRS-LA HABRA",
    "contactEmail": "DRUPP@SANDERLINGLLC.COM",
    "categoryName": "CHRONIC DIALYSIS CLINIC",
    "categoryCode": "ESRD/CDC",
    "licenseStatus": "ACTIVE",
    "inService": true,
    "licenseNumber": "550004232",
    "licenseEffectiveDate": "04/26/2025",
    "licenseExpirationDate": "04/25/2026",
    "dataDate": "10/18/2025",
    "capacity": 37,
    "address": "1611 W WHITTIER BLVD",
    "city": "LA HABRA",
    "zip": "90631",
    "county": "ORANGE",
    "phone": "(615) 988-1060",
    "lat": 33.93959589,
    "lng": -117.9642428
  },
  {
    "id": "060000152",
    "name": "THE GARY CENTER",
    "npi": null,
    "hcaiId": "306300072",
    "businessName": null,
    "contactEmail": "DENTAL@THEGARYCENTER.ORG",
    "categoryName": "PRIMARY CARE CLINIC",
    "categoryCode": "COMTYC",
    "licenseStatus": null,
    "inService": null,
    "licenseNumber": null,
    "licenseEffectiveDate": null,
    "licenseExpirationDate": null,
    "dataDate": "10/18/2025",
    "capacity": 0,
    "address": "341 HILLCREST ST",
    "city": "LA HABRA",
    "zip": "90631",
    "county": "ORANGE",
    "phone": "(562) 691-3263",
    "lat": 33.928722,
    "lng": -117.953478
  },
  {
    "id": "630017003",
    "name": "VCC: THE GARY CENTER",
    "npi": "1497203541",
    "hcaiId": "306304603",
    "businessName": "VISTA COMMUNITY CLINIC",
    "contactEmail": "FERNANDO@VCC.ORG",
    "categoryName": "PRIMARY CARE CLINIC",
    "categoryCode": "COMTYC",
    "licenseStatus": "ACTIVE",
    "inService": true,
    "licenseNumber": "550003781",
    "licenseEffectiveDate": "02/06/2025",
    "licenseExpirationDate": "02/05/2026",
    "dataDate": "10/18/2025",
    "capacity": 0,
    "address": "201 S. HARBOR BLVD.",
    "city": "LA HABRA",
    "zip": "90631",
    "county": "ORANGE",
    "phone": "(760) 631-5000",
    "lat": 33.93029886,
    "lng": -117.9331189
  }
]