[
  {
    "id": "630013339",
    "name": "ALTERNATIVE HEALTH CARE, LLC",
    "npi": "1558677286",
    "hcaiId": "406197845",
    "businessName": "ALTERNATIVE HEALTH CARE, LLC",
    "contactEmail": "MSI.AHC@GMAIL.COM",
    "categoryName": "HOME HEALTH AGENCY",
    "categoryCode": "HHA",
    "licenseStatus": "ACTIVE",
    "inService": true,
    "licenseNumber": "550002130",
    "licenseEffectiveDate": "11/07/2025",
    "licenseExpirationDate": "11/06/2026",
    "dataDate": "10/18/2025",
    "capacity": 0,
    "address": "14752 BEACH BLVD, SUITE 101",
    "city": "LA MIRADA",
    "zip": "90638",
    "county": "LOS ANGELES",
    "phone": "(714) 522-3070",
    "lat": 33.89764828,
    "lng": -117.986208
  },
  {
    "id": "980001931",
    "name": "DIVINE HOME HEALTH, INC.",
    "npi": null,
    "hcaiId": "406196010",
    "businessName": "DIVINE HOME HEALTH, INC.",
    "contactEmail": "DIVINEHHINC7@GMAIL.COM",
    "categoryName": "HOME HEALTH AGENCY",
    "categoryCode": "HHA",
    "licenseStatus": "ACTIVE",
    "inService": true,
    "licenseNumber": "980001120",
    "licenseEffectiveDate": "06/22/2025",
    "licenseExpirationDate": "06/21/2026",
    "dataDate": "10/18/2025",
    "capacity": 0,
    "address": "14241 FIRESTONE BLVD, SUITE 235",
    "city": "LA MIRADA",
    "zip": "90638",
    "county": "LOS ANGELES",
    "phone": "(562) 407-0288",
    "lat": 33.88483471,
    "lng": -118.0284225
  },
  {
    "id": "960002760",
    "name": "DWC HOME CARE",
    "npi": "1710029541",
    "hcaiId": null,
    "businessName": "DWC HOME CARE, INC",
    "contactEmail": "TANTEMALOU@MSN.COM",
    "categoryName": "INTERMEDIATE CARE FACILITY-DD/H/N/CN/IID",
    "categoryCode": "ICFDDN",
    "licenseStatus": "ACTIVE",
    "inService": true,
    "licenseNumber": "960001367",
    "licenseEffectiveDate": "11/08/2024",
    "licenseExpirationDate": "11/07/2025",
    "dataDate": "10/18/2025",
    "capacity": 6,
    "address": "15340 MANZANARES RD",
    "city": "LA MIRADA",
    "zip": "90638",
    "county": "LOS ANGELES",
    "phone": "(310) 386-4235",
    "lat": 33.901785,
    "lng": -118.0040985
  },
  {
    "id": "980001690",
    "name": "HOSPICE OF PRESBYTERIAN",
    "npi": null,
    "hcaiId": null,
    "businessName": "PRESBYTERIAN INTERCOMMUNITY HOSPITAL",
    "contactEmail": "LYNZE.RUVALCABA@PHIHEALTH.ORG",
    "categoryName": "HOSPICE",
    "categoryCode": "HOSPICE",
    "licenseStatus": "ACTIVE",
    "inService": true,
    "licenseNumber": "980000525",
    "licenseEffectiveDate": "12/01/2024",
    "licenseExpirationDate": "11/30/2025",
    "dataDate": "10/18/2025",
    "capacity": 0,
    "address": "15050 IMPERIAL HWY",
    "city": "LA MIRADA",
    "zip": "90638",
    "county": "LOS ANGELES",
    "phone": "(562) 947-3668",
    "lat": 33.91706615,
    "lng": -118.0098058
  },
  {
    "id": "940000115",
    "name": "IMPERIAL HEALTHCARE CENTER",
    "npi": "1255742904",
    "hcaiId": "206190404",
    "businessName": "LA MIRADA HEALTHCARE, LLC",
    "contactEmail": "YCURIEL@IMPERIALHCC.COM",
    "categoryName": "SKILLED NURSING FACILITY",
    "categoryCode": "SNF",
    "licenseStatus": "ACTIVE",
    "inService": true,
    "licenseNumber": "940000094",
    "licenseEffectiveDate": "10/01/2025",
    "licenseExpirationDate": "09/30/2026",
    "dataDate": "10/18/2025",
    "capacity": 99,
    "address": "11926 LA MIRADA BLVD",
    "city": "LA MIRADA",
    "zip": "90638",
    "county": "LOS ANGELES",
    "phone": "(562) 943-7156",
    "lat": 33.9218018,
    "lng": -118.0118036
  },
  {
    "id": "960001896",
    "name": "JANRAY",
    "npi": "1154519015",
    "hcaiId": null,
    "businessName": "JANRAY HOME, INC.",
    "contactEmail": "MALOU.BAESA@YAHOO.COM",
    "categoryName": "INTERMEDIATE CARE FACILITY-DD/H/N/CN/IID",
    "categoryCode": "ICFDDN",
    "licenseStatus": "ACTIVE",
    "inService": true,
    "licenseNumber": "960000908",
    "licenseEffectiveDate": "11/09/2024",
    "licenseExpirationDate": "11/08/2025",
    "dataDate": "10/18/2025",
    "capacity": 6,
    "address": "12921 BIOLA AVE",
    "city": "LA MIRADA",
    "zip": "90638",
    "county": "LOS ANGELES",
    "phone": "(562) 203-5396",
    "lat": 33.91371,
    "lng": -118.020528
  },
  {
    "id": "630004921",
    "name": "JANRAY HOME II",
    "npi": "1114105970",
    "hcaiId": null,
    "businessName": "JANRAY HOME, INC.",
    "contactEmail": "ARBIE321@YAHOO.COM",
    "categoryName": "INTERMEDIATE CARE FACILITY-DD/H/N/CN/IID",
    "categoryCode": "ICFDDN",
    "licenseStatus": "ACTIVE",
    "inService": true,
    "licenseNumber": "550000197",
    "licenseEffectiveDate": "06/27/2025",
    "licenseExpirationDate": "06/26/2026",
    "dataDate": "10/18/2025",
    "capacity": 6,
    "address": "15695 HESSE DR",
    "city": "LA MIRADA",
    "zip": "90638",
    "county": "LOS ANGELES",
    "phone": "(562) 773-5700",
    "lat": 33.891984,
    "lng": -117.99747
  },
  {
    "id": "630019967",
    "name": "JBNS CONSULTING LLC",
    "npi": "1487288338",
    "hcaiId": "406194690",
    "businessName": "JBNS CONSULTING LLC",
    "contactEmail": "JBNSCONSULTINGLLC@GMAIL.COM",
    "categoryName": "HOSPICE",
    "categoryCode": "HOSPICE",
    "licenseStatus": "ACTIVE",
    "inService": true,
    "licenseNumber": "550005921",
    "licenseEffectiveDate": "12/05/2022",
    "licenseExpirationDate": "12/04/2024",
    "dataDate": "10/18/2025",
    "capacity": 0,
    "address": "16700 VALLEY VIEW AVE, SUITE 300",
    "city": "LA MIRADA",
    "zip": "90638",
    "county": "LOS ANGELES",
    "phone": "(800) 988-8434",
    "lat": 33.879915,
    "lng": -118.027908
  },
  {
    "id": "630021364",
    "name": "JSRK HEALTHCARE LLC",
    "npi": null,
    "hcaiId": "406194763",
    "businessName": "JSRK HEALTHCARE LLC",
    "contactEmail": "JSRKHEALTHCARELLC@GMAIL.COM",
    "categoryName": "HOSPICE",
    "categoryCode": "HOSPICE",
    "licenseStatus": "ACTIVE",
    "inService": true,
    "licenseNumber": "550006826",
    "licenseEffectiveDate": "09/24/2023",
    "licenseExpirationDate": "09/23/2025",
    "dataDate": "10/18/2025",
    "capacity": 0,
    "address": "14241 FIRESTONE BLVD, SUITE 400",
    "city": "LA MIRADA",
    "zip": "90638",
    "county": "LOS ANGELES",
    "phone": "(800) 988-8593",
    "lat": 33.884847,
    "lng": -118.0283985
  },
  {
    "id": "930000089",
    "name": "KINDRED HOSPITAL - LA MIRADA",
    "npi": "1033294723",
    "hcaiId": "106190449",
    "businessName": "SOUTHERN CALIFORNIA SPECIALTY CARE, LLC",
    "contactEmail": "HOPELEVYBIEHL@DWT.COM",
    "categoryName": "GENERAL ACUTE CARE HOSPITAL",
    "categoryCode": "GACH",
    "licenseStatus": "ACTIVE",
    "inService": true,
    "licenseNumber": "930000084",
    "licenseEffectiveDate": "09/01/2025",
    "licenseExpirationDate": "10/31/2025",
    "dataDate": "10/18/2025",
    "capacity": 118,
    "address": "14900 IMPERIAL HWY",
    "city": "LA MIRADA",
    "zip": "90638",
    "county": "LOS ANGELES",
    "phone": "(213) 633-8608",
    "lat": 33.916284,
    "lng": -118.0133955
  },
  {
    "id": "980002530",
    "name": "ORANGE COUNTY CARE PROVIDERS, INC.",
    "npi": "1144416876",
    "hcaiId": "406196781",
    "businessName": "ORANGE COUNTY CARE PROVIDERS, INC.",
    "contactEmail": "OFFICE@OCCPINC.COM",
    "categoryName": "HOME HEALTH AGENCY",
    "categoryCode": "HHA",
    "licenseStatus": "ACTIVE",
    "inService": true,
    "licenseNumber": "980001625",
    "licenseEffectiveDate": "11/07/2024",
    "licenseExpirationDate": "11/06/2025",
    "dataDate": "10/18/2025",
    "capacity": 0,
    "address": "20110 PIONEER BLVD., SUITE E & F",
    "city": "CERRITOS",
    "zip": "90638",
    "county": "LOS ANGELES",
    "phone": "(714) 994-5210",
    "lat": 33.84758,
    "lng": -118.081908
  },
  {
    "id": "980001007",
    "name": "PRESBYTERIAN INTERCOMMUNITY HOSPITAL HOME HEALTH SERVICES",
    "npi": "1649275868",
    "hcaiId": "406190841",
    "businessName": "PRESBYTERIAN INTERCOMMUNITY HOSPITAL",
    "contactEmail": "SHELLY.NECKE@PIHHEALTH.ORG",
    "categoryName": "HOME HEALTH AGENCY",
    "categoryCode": "HHA",
    "licenseStatus": "ACTIVE",
    "inService": true,
    "licenseNumber": "980000525",
    "licenseEffectiveDate": "12/01/2024",
    "licenseExpirationDate": "11/30/2025",
    "dataDate": "10/18/2025",
    "capacity": 0,
    "address": "15050 IMPERIAL HWY",
    "city": "LA MIRADA",
    "zip": "90638",
    "county": "LOS ANGELES",
    "phone": "(562) 902-7763",
    "lat": 33.91706615,
    "lng": -118.0098058
  },
  {
    "id": "960001096",
    "name": "PURE JOY #1",
    "npi": "1992993786",
    "hcaiId": null,
    "businessName": "UNITED CARE HOMES",
    "contactEmail": "UNITEDCAREHOMES@YAHOO.COM",
    "categoryName": "INTERMEDIATE CARE FACILITY-DD/H/N/CN/IID",
    "categoryCode": "ICFDDH",
    "licenseStatus": "ACTIVE",
    "inService": true,
    "licenseNumber": "960000579",
    "licenseEffectiveDate": "05/15/2025",
    "licenseExpirationDate": "05/14/2026",
    "dataDate": "10/18/2025",
    "capacity": 6,
    "address": "15924 GLAZEBROOK DR",
    "city": "LA MIRADA",
    "zip": "90638",
    "county": "LOS ANGELES",
    "phone": "(657) 325-4023",
    "lat": 33.91155,
    "lng": -117.992169
  },
  {
    "id": "980002416",
    "name": "RELIABLE HOME HEALTH",
    "npi": "1043251986",
    "hcaiId": "406196479",
    "businessName": "CARE CENTER HOME HEALTH, INC.",
    "contactEmail": "CARECENTER@GMAIL.COM",
    "categoryName": "HOME HEALTH AGENCY",
    "categoryCode": "HHA",
    "licenseStatus": "ACTIVE",
    "inService": true,
    "licenseNumber": "980001526",
    "licenseEffectiveDate": "05/05/2025",
    "licenseExpirationDate": "05/04/2026",
    "dataDate": "10/18/2025",
    "capacity": 0,
    "address": "14762 BEACH BLVD",
    "city": "LA MIRADA",
    "zip": "90638",
    "county": "LOS ANGELES",
    "phone": "(714) 932-8931",
    "lat": 33.89755575,
    "lng": -117.9862714
  },
  {
    "id": "630016172",
    "name": "SOVEREIGN HOME HEALTH CARE AGENCY, INC.",
    "npi": "1033591912",
    "hcaiId": "406198535",
    "businessName": "SOVEREIGN HOME HEALTH CARE AGENCY, INC.",
    "contactEmail": "SOVEREIGN4HEALTH@GMAIL.COM",
    "categoryName": "HOME HEALTH AGENCY",
    "categoryCode": "HHA",
    "licenseStatus": "ACTIVE",
    "inService": true,
    "licenseNumber": "550004001",
    "licenseEffectiveDate": "10/27/2025",
    "licenseExpirationDate": "10/26/2026",
    "dataDate": "10/18/2025",
    "capacity": 0,
    "address": "15707 E. IMPERIAL HIGHWAY, SUITE D",
    "city": "LA MIRADA, CA",
    "zip": "90638",
    "county": "LOS ANGELES",
    "phone": "(562) 943-4600",
    "lat": 33.917607,
    "lng": -117.9962775
  },
  {
    "id": "630017612",
    "name": "SRS-LA MIRADA",
    "npi": "1538845474",
    "hcaiId": "306190482",
    "businessName": "SRS-LA MIRADA LLC",
    "contactEmail": "LCOOK@SANDERLINGLLC.COM",
    "categoryName": "CHRONIC DIALYSIS CLINIC",
    "categoryCode": "ESRD/CDC",
    "licenseStatus": "ACTIVE",
    "inService": true,
    "licenseNumber": "550005090",
    "licenseEffectiveDate": "07/26/2025",
    "licenseExpirationDate": "07/25/2026",
    "dataDate": "10/18/2025",
    "capacity": 21,
    "address": "14337 IMPERIAL HWY",
    "city": "LA MIRADA",
    "zip": "90638",
    "county": "LOS ANGELES",
    "phone": "(615) 988-1060",
    "lat": 33.917418,
    "lng": -118.025415
  },
  {
    "id": "940000001",
    "name": "SUNNY HILLS POST ACUTE",
    "npi": "1891420394",
    "hcaiId": "206190536",
    "businessName": "LA MIRADA POST ACUTE, LLC",
    "contactEmail": "ADMIN@SUNNYHILLSPOSTACUTE.COM",
    "categoryName": "SKILLED NURSING FACILITY",
    "categoryCode": "SNF",
    "licenseStatus": "ACTIVE",
    "inService": true,
    "licenseNumber": "940000118",
    "licenseEffectiveDate": "06/14/2025",
    "licenseExpirationDate": "06/13/2026",
    "dataDate": "10/18/2025",
    "capacity": 142,
    "address": "12200 LA MIRADA BLVD",
    "city": "LA MIRADA",
    "zip": "90638",
    "county": "LOS ANGELES",
    "phone": "(562) 947-8691",
    "lat": 33.919623,
    "lng": -118.010664
  },
  {
    "id": "630017916",
    "name": "TELEGRAPH DIALYSIS",
    "npi": "1114461043",
    "hcaiId": "306190473",
    "businessName": "HAWARREN DIALYSIS, LLC",
    "contactEmail": "CAL_C@DAVITA.COM",
    "categoryName": "CHRONIC DIALYSIS CLINIC",
    "categoryCode": "ESRD/CDC",
    "licenseStatus": "ACTIVE",
    "inService": true,
    "licenseNumber": "550004868",
    "licenseEffectiveDate": "08/26/2025",
    "licenseExpirationDate": "08/25/2026",
    "dataDate": "10/18/2025",
    "capacity": 31,
    "address": "15060 IMPERIAL HWY",
    "city": "LA MIRADA",
    "zip": "90638",
    "county": "LOS ANGELES",
    "phone": "(657) 977-3089",
    "lat": 33.91706995,
    "lng": -118.0096443
  }
]