[
  {
    "id": "630027896",
    "name": "ALTAMED DENTAL GROUP AT CLARA KING ELEMENTARY SCHOOL",
    "npi": null,
    "hcaiId": null,
    "businessName": "ALTAMED HEALTH SERVICES CORPORATION",
    "contactEmail": null,
    "categoryName": "PRIMARY CARE CLINIC",
    "categoryCode": "COMTYC",
    "licenseStatus": "ACTIVE",
    "inService": true,
    "licenseNumber": "550005158",
    "licenseEffectiveDate": "12/20/2024",
    "licenseExpirationDate": "12/19/2025",
    "dataDate": "10/18/2025",
    "capacity": 0,
    "address": "8710 MOODY ST",
    "city": "CYPRESS",
    "zip": "90630",
    "county": "ORANGE",
    "phone": null,
    "lat": 33.83615399,
    "lng": -118.044348
  },
  {
    "id": "630011062",
    "name": "CARETECH HOME HEALTH, INC.",
    "npi": null,
    "hcaiId": "406304421",
    "businessName": "CARETECH HOME HEALTH, INC.",
    "contactEmail": "CARETECH@LIVE.COM",
    "categoryName": "HOME HEALTH AGENCY",
    "categoryCode": "HHA",
    "licenseStatus": "ACTIVE",
    "inService": true,
    "licenseNumber": "550000619",
    "licenseEffectiveDate": "11/22/2024",
    "licenseExpirationDate": "11/21/2025",
    "dataDate": "10/18/2025",
    "capacity": 0,
    "address": "5252 ORANGE AVE, SUITE 205",
    "city": "CYPRESS",
    "zip": "90630",
    "county": "ORANGE",
    "phone": "(714) 484-7828",
    "lat": 33.824106,
    "lng": -118.040949
  },
  {
    "id": "060001693",
    "name": "CYPRESS ADULT DAY HEALTH CARE CENTER",
    "npi": null,
    "hcaiId": null,
    "businessName": "MERIDIAN HEALTHCARE CORP",
    "contactEmail": "CYPRESSADHCC@YAHOO.COM",
    "categoryName": "ADULT DAY HEALTH CARE",
    "categoryCode": "ADHC",
    "licenseStatus": "ACTIVE",
    "inService": true,
    "licenseNumber": "060000528",
    "licenseEffectiveDate": "04/20/2025",
    "licenseExpirationDate": "04/19/2026",
    "dataDate": "10/18/2025",
    "capacity": 0,
    "address": "4470 LINCOLN AVE, UNIT 1",
    "city": "CYPRESS",
    "zip": "90630",
    "county": "ORANGE",
    "phone": "(714) 826-9664",
    "lat": 33.830874,
    "lng": -118.0562625
  },
  {
    "id": "630011849",
    "name": "GFK HOME HEALTH CARE",
    "npi": "1881841104",
    "hcaiId": "406304428",
    "businessName": "GFK SERVICES, INC.",
    "contactEmail": "GFKINC@AOL.COM",
    "categoryName": "HOME HEALTH AGENCY",
    "categoryCode": "HHA",
    "licenseStatus": "ACTIVE",
    "inService": true,
    "licenseNumber": "550000772",
    "licenseEffectiveDate": "11/17/2025",
    "licenseExpirationDate": "11/16/2026",
    "dataDate": "10/18/2025",
    "capacity": 0,
    "address": "8891 WATSON ST, SUITE 201",
    "city": "CYPRESS",
    "zip": "90630",
    "county": "ORANGE",
    "phone": "(714) 828-0474",
    "lat": 33.832917,
    "lng": -118.0396395
  },
  {
    "id": "060001025",
    "name": "JENYMEL'S HOME",
    "npi": "1508950601",
    "hcaiId": null,
    "businessName": "MARY ANN B. AND VICTOR P. OPENA",
    "contactEmail": "SHANE.G.PASE@GMAIL.COM",
    "categoryName": "INTERMEDIATE CARE FACILITY-DD/H/N/CN/IID",
    "categoryCode": "ICFDDH",
    "licenseStatus": "ACTIVE",
    "inService": true,
    "licenseNumber": "060000288",
    "licenseEffectiveDate": "02/11/2025",
    "licenseExpirationDate": "02/10/2026",
    "dataDate": "10/18/2025",
    "capacity": 6,
    "address": "6321 ROSEMARY DR",
    "city": "CYPRESS",
    "zip": "90630",
    "county": "ORANGE",
    "phone": "(714) 878-7245",
    "lat": 33.823332,
    "lng": -118.022319
  },
  {
    "id": "060002079",
    "name": "SARANG ADULT DAY HEALTH CARE CENTER",
    "npi": null,
    "hcaiId": null,
    "businessName": "PHILEMON HEALTHCARE CORPORATION",
    "contactEmail": "SARANGADHC@GMAIL.COM",
    "categoryName": "ADULT DAY HEALTH CARE",
    "categoryCode": "ADHC",
    "licenseStatus": "ACTIVE",
    "inService": true,
    "licenseNumber": "060000849",
    "licenseEffectiveDate": "02/24/2025",
    "licenseExpirationDate": "02/23/2026",
    "dataDate": "10/18/2025",
    "capacity": 0,
    "address": "5171 LINCOLN AVE",
    "city": "CYPRESS",
    "zip": "90630",
    "county": "ORANGE",
    "phone": "(714) 713-4751",
    "lat": 33.831981,
    "lng": -118.042884
  },
  {
    "id": "630018331",
    "name": "THRIVE HOME HEALTH AGENCY, INC.",
    "npi": null,
    "hcaiId": "406302674",
    "businessName": "THRIVE HOME HEALTH AGENCY INC.",
    "contactEmail": "NIRUZAT@SBCGLOBAL.NET",
    "categoryName": "HOME HEALTH AGENCY",
    "categoryCode": "HHA",
    "licenseStatus": "ACTIVE",
    "inService": true,
    "licenseNumber": "550005538",
    "licenseEffectiveDate": "05/29/2025",
    "licenseExpirationDate": "05/28/2026",
    "dataDate": "10/18/2025",
    "capacity": 0,
    "address": "9060 WALKER ST",
    "city": "CYPRESS",
    "zip": "90630",
    "county": "ORANGE",
    "phone": "(714) 236-5700",
    "lat": 33.830658,
    "lng": -118.036584
  }
]