[
  {
    "id": "630014825",
    "name": "21ST CENTURY NURSING SERVICES INC.",
    "npi": "1073934709",
    "hcaiId": "406197979",
    "businessName": "21ST CENTURY NURSING SERVICES INC.",
    "contactEmail": "21CENTURYNS@ATT.NET",
    "categoryName": "HOME HEALTH AGENCY",
    "categoryCode": "HHA",
    "licenseStatus": "ACTIVE",
    "inService": true,
    "licenseNumber": "550002867",
    "licenseEffectiveDate": "10/28/2024",
    "licenseExpirationDate": "10/27/2025",
    "dataDate": "10/18/2025",
    "capacity": 0,
    "address": "3538 W BEVERLY BLVD, SUITE F",
    "city": "MONTEBELLO",
    "zip": "90640",
    "county": "LOS ANGELES",
    "phone": "(323) 721-2300",
    "lat": 34.025886,
    "lng": -118.1426175
  },
  {
    "id": "930000012",
    "name": "ADVENTIST HEALTH WHITE MEMORIAL MONTEBELLO",
    "npi": null,
    "hcaiId": "106190081",
    "businessName": "WHITE MEMORIAL MEDICAL CENTER",
    "contactEmail": "BRYANTMC@AH.ORG",
    "categoryName": "GENERAL ACUTE CARE HOSPITAL",
    "categoryCode": "GACH",
    "licenseStatus": "ACTIVE",
    "inService": true,
    "licenseNumber": "930000195",
    "licenseEffectiveDate": "11/01/2024",
    "licenseExpirationDate": "10/31/2025",
    "dataDate": "10/18/2025",
    "capacity": 192,
    "address": "309 W BEVERLY BLVD",
    "city": "MONTEBELLO",
    "zip": "90640",
    "county": "LOS ANGELES",
    "phone": "(323) 268-5000",
    "lat": 34.015014,
    "lng": -118.100637
  },
  {
    "id": "630024647",
    "name": "AIDING HANDS HOME HEALTH INC",
    "npi": null,
    "hcaiId": "406195972",
    "businessName": "AIDING HANDS HOME HEALTH INC",
    "contactEmail": "AIDINGHANDSHOMEHEALTH@GMAIL.COM",
    "categoryName": "HOME HEALTH AGENCY",
    "categoryCode": "HHA",
    "licenseStatus": "ACTIVE",
    "inService": true,
    "licenseNumber": "550008301",
    "licenseEffectiveDate": "12/21/2022",
    "licenseExpirationDate": "06/20/2023",
    "dataDate": "10/18/2025",
    "capacity": 0,
    "address": "110 S GARFIELD AVE, SUITE 202",
    "city": "MONTEBELLO",
    "zip": "90640",
    "county": "LOS ANGELES",
    "phone": "(323) 213-3160",
    "lat": 34.014024,
    "lng": -118.129869
  },
  {
    "id": "980000951",
    "name": "AMERICADE HOME HEALTH AGENCY",
    "npi": "1295888543",
    "hcaiId": "406196703",
    "businessName": "AMERICADE HEALTH SERVICES, INC.",
    "contactEmail": "AMERICADEHOMEHEALTH@GMAIL.COM",
    "categoryName": "HOME HEALTH AGENCY",
    "categoryCode": "HHA",
    "licenseStatus": "ACTIVE",
    "inService": true,
    "licenseNumber": "980000469",
    "licenseEffectiveDate": "11/15/2024",
    "licenseExpirationDate": "11/14/2025",
    "dataDate": "10/18/2025",
    "capacity": 0,
    "address": "420 N. MONTEBELLO BLVD., SUITE 203",
    "city": "MONTEBELLO",
    "zip": "90640",
    "county": "LOS ANGELES",
    "phone": "(323) 278-1283",
    "lat": 34.016283,
    "lng": -118.105767
  },
  {
    "id": "630013828",
    "name": "AMERICADE PALLIATIVE HEALTH SERVICES, INC.",
    "npi": "1376817973",
    "hcaiId": "406197910",
    "businessName": "AMERICADE PALLIATIVE HEALTH SERVICES, INC.",
    "contactEmail": "AMERICADEHOSPICE@GMAIL.COM",
    "categoryName": "HOSPICE",
    "categoryCode": "HOSPICE",
    "licenseStatus": "ACTIVE",
    "inService": true,
    "licenseNumber": "550002422",
    "licenseEffectiveDate": "09/23/2025",
    "licenseExpirationDate": "09/22/2027",
    "dataDate": "10/18/2025",
    "capacity": 0,
    "address": "420 N. MONTEBELLO BLVD., SUITE 204",
    "city": "MONTEBELLO",
    "zip": "90640",
    "county": "LOS ANGELES",
    "phone": "(323) 728-8160",
    "lat": 34.016283,
    "lng": -118.105767
  },
  {
    "id": "630017173",
    "name": "BEVERLYCARE",
    "npi": null,
    "hcaiId": "306190513",
    "businessName": "BEVERLYCARE",
    "contactEmail": "JBRISENO@BEVERLYCARE.ORG",
    "categoryName": "PRIMARY CARE CLINIC",
    "categoryCode": "COMTYC",
    "licenseStatus": "ACTIVE",
    "inService": true,
    "licenseNumber": "550004280",
    "licenseEffectiveDate": "05/24/2025",
    "licenseExpirationDate": "05/23/2026",
    "dataDate": "10/18/2025",
    "capacity": 0,
    "address": "101 E BEVERLY BLVD, SUITE 303",
    "city": "MONTEBELLO",
    "zip": "90640",
    "county": "LOS ANGELES",
    "phone": "(323) 405-1496",
    "lat": 34.014897,
    "lng": -118.098585
  },
  {
    "id": "630018321",
    "name": "BEVERLYCARE",
    "npi": null,
    "hcaiId": null,
    "businessName": "BEVERLYCARE",
    "contactEmail": null,
    "categoryName": "PRIMARY CARE CLINIC",
    "categoryCode": "COMTYC",
    "licenseStatus": "ACTIVE",
    "inService": true,
    "licenseNumber": "550004280",
    "licenseEffectiveDate": "05/24/2025",
    "licenseExpirationDate": "05/23/2026",
    "dataDate": "10/18/2025",
    "capacity": 0,
    "address": "1920 W WHITTIER BLVD",
    "city": "MONTEBELLO",
    "zip": "90640",
    "county": "LOS ANGELES",
    "phone": "(323) 725-1519",
    "lat": 34.013304,
    "lng": -118.122165
  },
  {
    "id": "630020381",
    "name": "BEVERLYCARE",
    "npi": null,
    "hcaiId": null,
    "businessName": "BEVERLYCARE",
    "contactEmail": null,
    "categoryName": "PRIMARY CARE CLINIC",
    "categoryCode": "COMTYC",
    "licenseStatus": "ACTIVE",
    "inService": true,
    "licenseNumber": "550004280",
    "licenseEffectiveDate": "05/24/2025",
    "licenseExpirationDate": "05/23/2026",
    "dataDate": "10/18/2025",
    "capacity": 0,
    "address": "101 E BEVERLY BLVD, SUITE 301",
    "city": "MONTEBELLO",
    "zip": "90640",
    "county": "LOS ANGELES",
    "phone": null,
    "lat": 34.014897,
    "lng": -118.098585
  },
  {
    "id": "630014994",
    "name": "BLUFF RD DIALYSIS",
    "npi": "1679990543",
    "hcaiId": "306197962",
    "businessName": "POKAGON DIALYSIS, LLC",
    "contactEmail": "CAL_C@DAVITA.COM",
    "categoryName": "CHRONIC DIALYSIS CLINIC",
    "categoryCode": "ESRD/CDC",
    "licenseStatus": "ACTIVE",
    "inService": true,
    "licenseNumber": "550002814",
    "licenseEffectiveDate": "09/15/2025",
    "licenseExpirationDate": "09/14/2026",
    "dataDate": "10/18/2025",
    "capacity": 26,
    "address": "100 WEST WASHINGTON BLVD",
    "city": "MONTEBELLO",
    "zip": "90640",
    "county": "LOS ANGELES",
    "phone": "(323) 728-2984",
    "lat": 33.992298,
    "lng": -118.11186
  },
  {
    "id": "630026115",
    "name": "CLINICA ROMERO - MONTEBELLO",
    "npi": null,
    "hcaiId": null,
    "businessName": "CLINICA MSR. OSCAR A ROMERO",
    "contactEmail": null,
    "categoryName": "PRIMARY CARE CLINIC",
    "categoryCode": "FQHC/COMTYC",
    "licenseStatus": "ACTIVE",
    "inService": true,
    "licenseNumber": "960000308",
    "licenseEffectiveDate": "11/05/2025",
    "licenseExpirationDate": "11/04/2026",
    "dataDate": "10/18/2025",
    "capacity": 0,
    "address": "540 N MONTEBELLO BLVD, SUITE C & D",
    "city": "MONTEBELLO",
    "zip": "90640",
    "county": "LOS ANGELES",
    "phone": null,
    "lat": 34.01847,
    "lng": -118.105128
  },
  {
    "id": "930001579",
    "name": "DOCTORS DIALYSIS CENTER OF MONTEBELLO",
    "npi": "1568601789",
    "hcaiId": "306194862",
    "businessName": "ANIMAS DIALYSIS, LLC",
    "contactEmail": "CAL_C@DAVITA.COM",
    "categoryName": "CHRONIC DIALYSIS CLINIC",
    "categoryCode": "ESRD/CDC",
    "licenseStatus": "ACTIVE",
    "inService": true,
    "licenseNumber": "930000882",
    "licenseEffectiveDate": "01/01/2025",
    "licenseExpirationDate": "12/31/2025",
    "dataDate": "10/18/2025",
    "capacity": 28,
    "address": "1721 W WHITTIER BLVD",
    "city": "MONTEBELLO",
    "zip": "90640",
    "county": "LOS ANGELES",
    "phone": "(323) 722-1116",
    "lat": 34.01235,
    "lng": -118.1200905
  },
  {
    "id": "630008282",
    "name": "ER HOME HEALTH, INC.",
    "npi": "1598937237",
    "hcaiId": "406196863",
    "businessName": "ER HOME HEALTH, INC.",
    "contactEmail": "ERHOMEHEALTH@YAHOO.COM",
    "categoryName": "HOME HEALTH AGENCY",
    "categoryCode": "HHA",
    "licenseStatus": "ACTIVE",
    "inService": true,
    "licenseNumber": "550000323",
    "licenseEffectiveDate": "11/22/2024",
    "licenseExpirationDate": "11/21/2025",
    "dataDate": "10/18/2025",
    "capacity": 0,
    "address": "2001 W BEVERLY BLVD, UNIT B",
    "city": "MONTEBELLO",
    "zip": "90640",
    "county": "LOS ANGELES",
    "phone": "(323) 887-2883",
    "lat": 34.02005899,
    "lng": -118.120563
  },
  {
    "id": "630026208",
    "name": "GENTLE HANDS HOME HEALTH AGENCY INC.",
    "npi": null,
    "hcaiId": null,
    "businessName": "GENTLE HANDS HOME HEALTH AGENCY, INC.",
    "contactEmail": "GENTLEHHA@GMAIL.COM",
    "categoryName": "HOME HEALTH AGENCY",
    "categoryCode": "HHA",
    "licenseStatus": "ACTIVE",
    "inService": true,
    "licenseNumber": "550009673",
    "licenseEffectiveDate": "08/27/2025",
    "licenseExpirationDate": "02/26/2026",
    "dataDate": "10/18/2025",
    "capacity": 0,
    "address": "813 W WHITTIER BLVD, SUITE 206",
    "city": "MONTEBELLO",
    "zip": "90640",
    "county": "LOS ANGELES",
    "phone": "(818) 300-8047",
    "lat": 34.010113,
    "lng": -118.1087228
  },
  {
    "id": "630021587",
    "name": "GLOWING SMILE HOSPICE",
    "npi": null,
    "hcaiId": "406193362",
    "businessName": "GLOWING SMILE HOSPICE",
    "contactEmail": "GLOWSMILEHOSPICE@GMAIL.COM",
    "categoryName": "HOSPICE",
    "categoryCode": "HOSPICE",
    "licenseStatus": "ACTIVE",
    "inService": true,
    "licenseNumber": "550006969",
    "licenseEffectiveDate": "10/08/2025",
    "licenseExpirationDate": "10/07/2027",
    "dataDate": "10/18/2025",
    "capacity": 0,
    "address": "104 W BEVERLY BLVD, SUITE A",
    "city": "MONTEBELLO",
    "zip": "90640",
    "county": "LOS ANGELES",
    "phone": "(747) 257-0030",
    "lat": 34.01570409,
    "lng": -118.0986915
  },
  {
    "id": "630021003",
    "name": "HAVEN HOSPICE, INC.",
    "npi": null,
    "hcaiId": "406193480",
    "businessName": "HAVEN HOSPICE, INC.",
    "contactEmail": "HAVENHOSPICEINFO@GMAIL.COM",
    "categoryName": "HOSPICE",
    "categoryCode": "HOSPICE",
    "licenseStatus": "ACTIVE",
    "inService": true,
    "licenseNumber": "550006690",
    "licenseEffectiveDate": "08/18/2025",
    "licenseExpirationDate": "08/17/2027",
    "dataDate": "10/18/2025",
    "capacity": 0,
    "address": "2605 1/2 W BEVERLY BLVD",
    "city": "MONTEBELLO",
    "zip": "90640",
    "county": "LOS ANGELES",
    "phone": "(818) 339-4724",
    "lat": 34.02078384,
    "lng": -118.1305857
  },
  {
    "id": "630017719",
    "name": "HEALING ANGELS NURSING SERVICES, INC.",
    "npi": null,
    "hcaiId": "406192666",
    "businessName": "HEALING ANGELS NURSING SERVICES, INC.",
    "contactEmail": "HEALINGANGELES@YAHOO.COM",
    "categoryName": "HOME HEALTH AGENCY",
    "categoryCode": "HHA",
    "licenseStatus": "ACTIVE",
    "inService": true,
    "licenseNumber": "550005507",
    "licenseEffectiveDate": "06/09/2023",
    "licenseExpirationDate": "06/08/2024",
    "dataDate": "10/18/2025",
    "capacity": 0,
    "address": "3538 W BEVERLY BLVD, SUITE C",
    "city": "MONTEBELLO",
    "zip": "90640",
    "county": "LOS ANGELES",
    "phone": "(323) 721-1443",
    "lat": 34.025886,
    "lng": -118.1426175
  },
  {
    "id": "630027149",
    "name": "KAPLAN HOME HEALTH, INC.",
    "npi": null,
    "hcaiId": null,
    "businessName": "KAPLAN HOME HEALTH, INC.",
    "contactEmail": "KAPLANHOMEHEALTH@GMAIL.COM",
    "categoryName": "HOME HEALTH AGENCY",
    "categoryCode": "HHA",
    "licenseStatus": "ACTIVE",
    "inService": true,
    "licenseNumber": "550009684",
    "licenseEffectiveDate": "08/28/2025",
    "licenseExpirationDate": "02/27/2026",
    "dataDate": "10/18/2025",
    "capacity": 0,
    "address": "1520 WASHINGTON BLVD, SUITE 110",
    "city": "MONTEBELLO",
    "zip": "90640",
    "county": "LOS ANGELES",
    "phone": "(323) 530-0970",
    "lat": 33.99753602,
    "lng": -118.124314
  },
  {
    "id": "060002050",
    "name": "LOTUS BLOSSOM THERAPY CENTER",
    "npi": null,
    "hcaiId": null,
    "businessName": "LOTUS BLOSSOM COMMUNITY SERVICES, INC.",
    "contactEmail": "LOTUSCARE@SBCGLOBAL.NET",
    "categoryName": "ADULT DAY HEALTH CARE",
    "categoryCode": "ADHC",
    "licenseStatus": "ACTIVE",
    "inService": true,
    "licenseNumber": "060000853",
    "licenseEffectiveDate": "11/27/2024",
    "licenseExpirationDate": "11/26/2025",
    "dataDate": "10/18/2025",
    "capacity": 0,
    "address": "1305 W BEVERLY BLVD",
    "city": "MONTEBELLO",
    "zip": "90640",
    "county": "LOS ANGELES",
    "phone": "(323) 346-0360",
    "lat": 34.018254,
    "lng": -118.1121705
  },
  {
    "id": "630012919",
    "name": "M.G.A. HOME HEALTH SERVICES, INC.",
    "npi": "1790085694",
    "hcaiId": "406197524",
    "businessName": "M.G.A. HOME HEALTH SERVICES INC.",
    "contactEmail": "MGAHHC@ATT.NET",
    "categoryName": "HOME HEALTH AGENCY",
    "categoryCode": "HHA",
    "licenseStatus": "ACTIVE",
    "inService": true,
    "licenseNumber": "550001574",
    "licenseEffectiveDate": "04/20/2025",
    "licenseExpirationDate": "04/19/2026",
    "dataDate": "10/18/2025",
    "capacity": 0,
    "address": "3538 W BEVERLY BLVD, SUITE E",
    "city": "MONTEBELLO",
    "zip": "90640",
    "county": "LOS ANGELES",
    "phone": "(323) 727-0503",
    "lat": 34.025886,
    "lng": -118.1426175
  },
  {
    "id": "630022223",
    "name": "MADO HOME HEALTH CARE, INC.",
    "npi": null,
    "hcaiId": "406195577",
    "businessName": "MADO HOME HEALTH CARE, INC.",
    "contactEmail": "MADOHHC@GMAIL.COM",
    "categoryName": "HOME HEALTH AGENCY",
    "categoryCode": "HHA",
    "licenseStatus": "ACTIVE",
    "inService": true,
    "licenseNumber": "550007712",
    "licenseEffectiveDate": "11/29/2024",
    "licenseExpirationDate": "11/28/2025",
    "dataDate": "10/18/2025",
    "capacity": 0,
    "address": "1800 W BEVERLY BLVD, SUITE 201",
    "city": "MONTEBELLO",
    "zip": "90640",
    "county": "LOS ANGELES",
    "phone": "(747) 215-9062",
    "lat": 34.02014205,
    "lng": -118.1183195
  },
  {
    "id": "930001803",
    "name": "MED-LASER SURGICAL CENTER",
    "npi": "1538178256",
    "hcaiId": "306196514",
    "businessName": "MED-LASER SURGICAL CENTER",
    "contactEmail": "MVALDEZRN@CS.COM",
    "categoryName": "SURGICAL CLINIC",
    "categoryCode": "ASC",
    "licenseStatus": "INACTIVE - CAPEN DECISION",
    "inService": false,
    "licenseNumber": "930000999",
    "licenseEffectiveDate": "11/13/2007",
    "licenseExpirationDate": "11/12/2008",
    "dataDate": "10/18/2025",
    "capacity": 0,
    "address": "2445 W WHITTIER BLVD",
    "city": "MONTEBELLO",
    "zip": "90640",
    "county": "LOS ANGELES",
    "phone": "(323) 727-2550",
    "lat": 34.014168,
    "lng": -118.1289825
  },
  {
    "id": "630015422",
    "name": "MEDI-ART HOME HEALTH CARE, INC.",
    "npi": "1598174104",
    "hcaiId": "406198044",
    "businessName": "MEDI-ART HOME HEALTH CARE, INC.",
    "contactEmail": "INFO@ACTIVEHS.CO",
    "categoryName": "HOME HEALTH AGENCY",
    "categoryCode": "HHA",
    "licenseStatus": "ACTIVE",
    "inService": true,
    "licenseNumber": "550002971",
    "licenseEffectiveDate": "07/31/2025",
    "licenseExpirationDate": "02/05/2026",
    "dataDate": "10/18/2025",
    "capacity": 0,
    "address": "2112 W WHITTIER BLVD, SUITE 201",
    "city": "MONTEBELLO",
    "zip": "90640",
    "county": "LOS ANGELES",
    "phone": "(858) 524-6200",
    "lat": 34.013781,
    "lng": -118.123992
  },
  {
    "id": "630014136",
    "name": "MONARCH PALLIATIVE CARE, INC.",
    "npi": null,
    "hcaiId": "406198124",
    "businessName": "MONARCH PALLIATIVE CARE, INC.",
    "contactEmail": "MONARCHPCINC@GMAIL.COM",
    "categoryName": "HOSPICE",
    "categoryCode": "HOSPICE",
    "licenseStatus": "ACTIVE",
    "inService": true,
    "licenseNumber": "550002520",
    "licenseEffectiveDate": "12/18/2023",
    "licenseExpirationDate": "12/17/2025",
    "dataDate": "10/18/2025",
    "capacity": 0,
    "address": "2001 W BEVERLY BLVD, UNIT A",
    "city": "MONTEBELLO",
    "zip": "90640",
    "county": "LOS ANGELES",
    "phone": "(323) 721-0648",
    "lat": 34.020045,
    "lng": -118.120617
  },
  {
    "id": "060001992",
    "name": "MONTEBELLO ADULT DAY HEALTH CENTER",
    "npi": null,
    "hcaiId": null,
    "businessName": "MTB ADULT DAY CARE, INC.",
    "contactEmail": "MTBADHCINC@YAHOO.COM",
    "categoryName": "ADULT DAY HEALTH CARE",
    "categoryCode": "ADHC",
    "licenseStatus": "ACTIVE",
    "inService": true,
    "licenseNumber": "060000788",
    "licenseEffectiveDate": "06/23/2025",
    "licenseExpirationDate": "06/22/2026",
    "dataDate": "10/18/2025",
    "capacity": 0,
    "address": "833 W BEVERLY BLVD",
    "city": "MONTEBELLO",
    "zip": "90640",
    "county": "LOS ANGELES",
    "phone": "(323) 728-9111",
    "lat": 34.017219,
    "lng": -118.107414
  },
  {
    "id": "630011891",
    "name": "MONTEBELLO ARTIFICIAL KIDNEY CENTER",
    "npi": "1790960060",
    "hcaiId": "306197272",
    "businessName": "MONTEBELLO ARTIFICIAL KIDNEY CENTER, LLC",
    "contactEmail": "RICHARDD@RELIANCE-CC.ORG",
    "categoryName": "CHRONIC DIALYSIS CLINIC",
    "categoryCode": "CDC",
    "licenseStatus": "ACTIVE",
    "inService": true,
    "licenseNumber": "550000982",
    "licenseEffectiveDate": "05/08/2025",
    "licenseExpirationDate": "11/19/2025",
    "dataDate": "10/18/2025",
    "capacity": 25,
    "address": "3404 W BEVERLY BLVD",
    "city": "MONTEBELLO",
    "zip": "90640",
    "county": "LOS ANGELES",
    "phone": "(323) 728-7580",
    "lat": 34.024761,
    "lng": -118.1405385
  },
  {
    "id": "940000109",
    "name": "MONTEBELLO CARE CENTER",
    "npi": "1447225438",
    "hcaiId": "206190545",
    "businessName": "MONTEBELLO CARE CENTER, LLC",
    "contactEmail": "FGONCALVES@SUPPORTRESOURCE.COM",
    "categoryName": "SKILLED NURSING FACILITY",
    "categoryCode": "SNF",
    "licenseStatus": "ACTIVE",
    "inService": true,
    "licenseNumber": "940000119",
    "licenseEffectiveDate": "11/16/2024",
    "licenseExpirationDate": "11/15/2025",
    "dataDate": "10/18/2025",
    "capacity": 99,
    "address": "1035 W BEVERLY BLVD",
    "city": "MONTEBELLO",
    "zip": "90640",
    "county": "LOS ANGELES",
    "phone": "(323) 724-1315",
    "lat": 34.01721,
    "lng": -118.109682
  },
  {
    "id": "630020796",
    "name": "MONTEBELLO FAMILY HEALTH CENTER",
    "npi": "1588908305",
    "hcaiId": null,
    "businessName": "SOUTH CENTRAL FAMILY HEALTH CENTER",
    "contactEmail": null,
    "categoryName": "PRIMARY CARE CLINIC",
    "categoryCode": "COMTYC",
    "licenseStatus": "ACTIVE",
    "inService": true,
    "licenseNumber": "550002413",
    "licenseEffectiveDate": "09/30/2025",
    "licenseExpirationDate": "09/29/2026",
    "dataDate": "10/18/2025",
    "capacity": 0,
    "address": "2417 W WHITTIER BLVD",
    "city": "MONTEBELLO",
    "zip": "90640",
    "county": "LOS ANGELES",
    "phone": null,
    "lat": 34.013907,
    "lng": -118.1277855
  },
  {
    "id": "630011509",
    "name": "PERITONEAL DIALYSIS CENTER OF AMERICA, INC.",
    "npi": "1750495669",
    "hcaiId": null,
    "businessName": null,
    "contactEmail": null,
    "categoryName": "CHRONIC DIALYSIS CLINIC",
    "categoryCode": "ESRD",
    "licenseStatus": null,
    "inService": null,
    "licenseNumber": null,
    "licenseEffectiveDate": null,
    "licenseExpirationDate": null,
    "dataDate": "10/18/2025",
    "capacity": 0,
    "address": "3112 W BEVERLY BLVD",
    "city": "MONTEBELLO",
    "zip": "90640",
    "county": "LOS ANGELES",
    "phone": "(323) 726-3868",
    "lat": 34.02405,
    "lng": -118.137078
  },
  {
    "id": "630026002",
    "name": "PPLA - MONTEBELLO HIGH SCHOOL",
    "npi": null,
    "hcaiId": null,
    "businessName": null,
    "contactEmail": null,
    "categoryName": "PRIMARY CARE CLINIC",
    "categoryCode": "COMTYC",
    "licenseStatus": null,
    "inService": null,
    "licenseNumber": null,
    "licenseEffectiveDate": null,
    "licenseExpirationDate": null,
    "dataDate": "10/18/2025",
    "capacity": 0,
    "address": "2100 W CLEVELAND AVE",
    "city": "MONTEBELLO",
    "zip": "90640",
    "county": "LOS ANGELES",
    "phone": null,
    "lat": 34.01523024,
    "lng": -118.1229327
  },
  {
    "id": "940000094",
    "name": "RIO HONDO SUBACUTE & NURSING CENTER",
    "npi": "1902896301",
    "hcaiId": "206190650",
    "businessName": "RIO HONDO SUBACUTE & NURSING CENTER, LLC",
    "contactEmail": "ADMINISTRATOR@RIOHONDOSUBACUTE.COM",
    "categoryName": "SKILLED NURSING FACILITY",
    "categoryCode": "SNF",
    "licenseStatus": "ACTIVE",
    "inService": true,
    "licenseNumber": "940000143",
    "licenseEffectiveDate": "12/01/2024",
    "licenseExpirationDate": "11/30/2025",
    "dataDate": "10/18/2025",
    "capacity": 200,
    "address": "273 E BEVERLY BLVD",
    "city": "MONTEBELLO",
    "zip": "90640",
    "county": "LOS ANGELES",
    "phone": "(323) 724-5100",
    "lat": 34.01456918,
    "lng": -118.0939553
  },
  {
    "id": "630014388",
    "name": "SGV HOME HEALTH",
    "npi": "1871998492",
    "hcaiId": "406197960",
    "businessName": "NEW AGE ENTERPRISES LLC",
    "contactEmail": "ADMIN@SGVHH.COM",
    "categoryName": "HOME HEALTH AGENCY",
    "categoryCode": "HHA",
    "licenseStatus": "ACTIVE",
    "inService": true,
    "licenseNumber": "550002837",
    "licenseEffectiveDate": "10/03/2024",
    "licenseExpirationDate": "10/02/2025",
    "dataDate": "10/18/2025",
    "capacity": 0,
    "address": "817 W BEVERLY BLVD, SUITE 206",
    "city": "MONTEBELLO",
    "zip": "90640",
    "county": "LOS ANGELES",
    "phone": "(323) 278-0995",
    "lat": 34.017165,
    "lng": -118.1069595
  },
  {
    "id": "930001680",
    "name": "U.S. RENAL CARE MONTEBELLO DIALYSIS",
    "npi": "1548231251",
    "hcaiId": "306197950",
    "businessName": "MONTEBELLO DIALYSIS CENTER, LLC",
    "contactEmail": "LEGAL@USRENALCARE.COM",
    "categoryName": "CHRONIC DIALYSIS CLINIC",
    "categoryCode": "ESRD/CDC",
    "licenseStatus": "ACTIVE",
    "inService": true,
    "licenseNumber": "930000926",
    "licenseEffectiveDate": "03/22/2025",
    "licenseExpirationDate": "03/21/2026",
    "dataDate": "10/18/2025",
    "capacity": 15,
    "address": "433 N 4TH ST, SUITE 102",
    "city": "MONTEBELLO",
    "zip": "90640",
    "county": "LOS ANGELES",
    "phone": "(323) 278-5555",
    "lat": 34.015671,
    "lng": -118.1022615
  },
  {
    "id": "930001789",
    "name": "UNITED SURGERY MEDICAL CENTER",
    "npi": "1639214778",
    "hcaiId": "306196433",
    "businessName": "UNITED SURGERY MEDICAL CENTER, INC.",
    "contactEmail": null,
    "categoryName": "SURGICAL CLINIC",
    "categoryCode": "ASC",
    "licenseStatus": "INACTIVE - CAPEN DECISION",
    "inService": false,
    "licenseNumber": "930000995",
    "licenseEffectiveDate": "06/11/2007",
    "licenseExpirationDate": "06/10/2008",
    "dataDate": "10/18/2025",
    "capacity": 0,
    "address": "128 S MONTEBELLO BLVD",
    "city": "MONTEBELLO",
    "zip": "90640",
    "county": "LOS ANGELES",
    "phone": "(323) 726-0577",
    "lat": 34.00917101,
    "lng": -118.1083419
  }
]