[
  {
    "id": "960000522",
    "name": "ALTAMED MEDICAL GROUP",
    "npi": null,
    "hcaiId": "306194050",
    "businessName": "ALTAMED HEALTH SERVICES CORPORATION",
    "contactEmail": "SGANDARA@ALTAMED.ORG",
    "categoryName": "PRIMARY CARE CLINIC",
    "categoryCode": "COMTYC",
    "licenseStatus": "ACTIVE",
    "inService": true,
    "licenseNumber": "960000296",
    "licenseEffectiveDate": "11/14/2025",
    "licenseExpirationDate": "11/13/2026",
    "dataDate": "10/18/2025",
    "capacity": 0,
    "address": "9436 SLAUSON AVE",
    "city": "PICO RIVERA",
    "zip": "90660",
    "county": "LOS ANGELES",
    "phone": "(323) 203-7822",
    "lat": 33.967992,
    "lng": -118.0956325
  },
  {
    "id": "630014632",
    "name": "ALTAMED MEDICAL GROUP - PICO RIVERA, PASSONS",
    "npi": "1356775878",
    "hcaiId": "306197858",
    "businessName": "ALTAMED HEALTH SERVICES CORPORATION",
    "contactEmail": "BROJAS@ALTAMED.ORG",
    "categoryName": "PRIMARY CARE CLINIC",
    "categoryCode": "COMTYC",
    "licenseStatus": "ACTIVE",
    "inService": true,
    "licenseNumber": "550002493",
    "licenseEffectiveDate": "11/15/2025",
    "licenseExpirationDate": "11/14/2026",
    "dataDate": "10/18/2025",
    "capacity": 0,
    "address": "6336 PASSONS BLVD",
    "city": "PICO RIVERA",
    "zip": "90660",
    "county": "LOS ANGELES",
    "phone": "(323) 693-4732",
    "lat": 33.9851508,
    "lng": -118.0862299
  },
  {
    "id": "630028341",
    "name": "ALTAMED MEDICAL GROUP - PICO RIVERA,WASHINGTON",
    "npi": null,
    "hcaiId": null,
    "businessName": "ALTAMED HEALTH SERVICES CORPORATION",
    "contactEmail": "ELCEJA@ALTAMED.ORG",
    "categoryName": "PRIMARY CARE CLINIC",
    "categoryCode": "COMTYC",
    "licenseStatus": "ACTIVE",
    "inService": true,
    "licenseNumber": "550009964",
    "licenseEffectiveDate": "09/01/2025",
    "licenseExpirationDate": "08/31/2026",
    "dataDate": "10/18/2025",
    "capacity": 0,
    "address": "9406 WASHINGTON BLVD",
    "city": "PICO RIVERA",
    "zip": "90660",
    "county": "LOS ANGELES",
    "phone": "(562) 942-3270",
    "lat": 33.97874315,
    "lng": -118.0894159
  },
  {
    "id": "630019312",
    "name": "BEVERLYCARE",
    "npi": null,
    "hcaiId": null,
    "businessName": null,
    "contactEmail": null,
    "categoryName": "PRIMARY CARE CLINIC",
    "categoryCode": "COMTYC",
    "licenseStatus": null,
    "inService": null,
    "licenseNumber": null,
    "licenseEffectiveDate": null,
    "licenseExpirationDate": null,
    "dataDate": "10/18/2025",
    "capacity": 0,
    "address": "8862 WHITTIER BLVD",
    "city": "PICO RIVERA",
    "zip": "90660",
    "county": "LOS ANGELES",
    "phone": null,
    "lat": 34.00170739,
    "lng": -118.0850576
  },
  {
    "id": "940000033",
    "name": "COLONIAL GARDENS NURSING CENTER",
    "npi": "1861580029",
    "hcaiId": "206190188",
    "businessName": "GARDENS HEALTHCARE LLC",
    "contactEmail": "BLOWN1969@HOTMAIL.COM",
    "categoryName": "SKILLED NURSING FACILITY",
    "categoryCode": "SNF",
    "licenseStatus": "ACTIVE",
    "inService": true,
    "licenseNumber": "940000042",
    "licenseEffectiveDate": "05/01/2025",
    "licenseExpirationDate": "02/13/2026",
    "dataDate": "10/18/2025",
    "capacity": 99,
    "address": "7246 ROSEMEAD BLVD",
    "city": "PICO RIVERA",
    "zip": "90660",
    "county": "LOS ANGELES",
    "phone": "(562) 949-2591",
    "lat": 33.979239,
    "lng": -118.0986165
  },
  {
    "id": "940000044",
    "name": "EL RANCHO VISTA HEALTH CARE CENTER",
    "npi": "1346569258",
    "hcaiId": "206190028",
    "businessName": "BMS HEALTHCARE, INC.",
    "contactEmail": "ADMINISTRATOR@ELRANCHOVISTA.COM",
    "categoryName": "SKILLED NURSING FACILITY",
    "categoryCode": "SNF",
    "licenseStatus": "ACTIVE",
    "inService": true,
    "licenseNumber": "940000008",
    "licenseEffectiveDate": "03/01/2025",
    "licenseExpirationDate": "02/28/2026",
    "dataDate": "10/18/2025",
    "capacity": 86,
    "address": "8925 MINES AVE",
    "city": "PICO RIVERA",
    "zip": "90660",
    "county": "LOS ANGELES",
    "phone": "(562) 942-7019",
    "lat": 33.992838,
    "lng": -118.0904445
  },
  {
    "id": "630026746",
    "name": "FRIENDS OF FAMILY HEALTH CENTER",
    "npi": "1871818138",
    "hcaiId": null,
    "businessName": "FRIENDS OF FAMILY HEALTH CENTER",
    "contactEmail": null,
    "categoryName": "PRIMARY CARE CLINIC",
    "categoryCode": "COMTYC",
    "licenseStatus": "ACTIVE",
    "inService": true,
    "licenseNumber": "060000516",
    "licenseEffectiveDate": "06/16/2025",
    "licenseExpirationDate": "06/15/2026",
    "dataDate": "10/18/2025",
    "capacity": 0,
    "address": "5062 ROSEMEAD BLVD",
    "city": "PICO RIVERA",
    "zip": "90660",
    "county": "LOS ANGELES",
    "phone": null,
    "lat": 34.00044856,
    "lng": -118.0839053
  },
  {
    "id": "630022457",
    "name": "HOSPICE NUMBER 10 INC",
    "npi": null,
    "hcaiId": "406195065",
    "businessName": "HOSPICE NUMBER 10 INC",
    "contactEmail": "HOSPICEN10@GMAIL.COM",
    "categoryName": "HOSPICE",
    "categoryCode": "HOSPICE",
    "licenseStatus": "ACTIVE",
    "inService": true,
    "licenseNumber": "550007465",
    "licenseEffectiveDate": "07/03/2024",
    "licenseExpirationDate": "12/17/2025",
    "dataDate": "10/18/2025",
    "capacity": 0,
    "address": "7621 INDUSTRY AVE, SUITE 2B",
    "city": "PICO RIVERA",
    "zip": "90660",
    "county": "LOS ANGELES",
    "phone": "(747) 333-9162",
    "lat": 33.979355,
    "lng": -118.112988
  },
  {
    "id": "630022455",
    "name": "HOSPICE NUMBER 12 INC",
    "npi": null,
    "hcaiId": "406195208",
    "businessName": "HOSPICE NUMBER 12 INC",
    "contactEmail": "HOSPICEN12@GMAIL.COM",
    "categoryName": "HOSPICE",
    "categoryCode": "HOSPICE",
    "licenseStatus": "ACTIVE",
    "inService": true,
    "licenseNumber": "550007568",
    "licenseEffectiveDate": "05/20/2024",
    "licenseExpirationDate": "12/17/2025",
    "dataDate": "10/18/2025",
    "capacity": 0,
    "address": "7621 INDUSTRY AVE, UNIT 3C",
    "city": "PICO RIVERA",
    "zip": "90660",
    "county": "LOS ANGELES",
    "phone": "(747) 333-9162",
    "lat": 33.979355,
    "lng": -118.112988
  },
  {
    "id": "940000079",
    "name": "PICO RIVERA HEALTHCARE CENTER",
    "npi": "1528148020",
    "hcaiId": "206190761",
    "businessName": "PICO RIVERA HEALTHCARE LLC",
    "contactEmail": "FAC58ADMIN@LONGWOODMGMT.COM",
    "categoryName": "SKILLED NURSING FACILITY",
    "categoryCode": "SNF",
    "licenseStatus": "ACTIVE",
    "inService": true,
    "licenseNumber": "940000281",
    "licenseEffectiveDate": "05/01/2025",
    "licenseExpirationDate": "04/30/2026",
    "dataDate": "10/18/2025",
    "capacity": 99,
    "address": "9140 VERNER ST",
    "city": "PICO RIVERA",
    "zip": "90660",
    "county": "LOS ANGELES",
    "phone": "(562) 948-1961",
    "lat": 33.998247,
    "lng": -118.082781
  },
  {
    "id": "940000095",
    "name": "RIVIERA HEALTHCARE CENTER",
    "npi": "1407831118",
    "hcaiId": "206190656",
    "businessName": "RIVIERA NURSING & CONVALESCENT HOME, INC.",
    "contactEmail": "RBRAMBILA@RIVIERAHEALTHCARE.COM",
    "categoryName": "SKILLED NURSING FACILITY",
    "categoryCode": "SNF",
    "licenseStatus": "ACTIVE",
    "inService": true,
    "licenseNumber": "940000144",
    "licenseEffectiveDate": "12/01/2024",
    "licenseExpirationDate": "11/30/2025",
    "dataDate": "10/18/2025",
    "capacity": 154,
    "address": "8203 TELEGRAPH RD",
    "city": "PICO RIVERA",
    "zip": "90660",
    "county": "LOS ANGELES",
    "phone": "(562) 806-2576",
    "lat": 33.967071,
    "lng": -118.115028
  },
  {
    "id": "630012576",
    "name": "SOUTHERN CALIFORNIA MEDICAL CENTER - PICO RIVERA",
    "npi": null,
    "hcaiId": "306197431",
    "businessName": "SOUTHERN CALIFORNIA MEDICAL CENTER, INC.",
    "contactEmail": "ABAGHDASARIAN@SCMEDCENTER.ORG",
    "categoryName": "PRIMARY CARE CLINIC",
    "categoryCode": "COMTYC",
    "licenseStatus": "ACTIVE",
    "inService": true,
    "licenseNumber": "550001363",
    "licenseEffectiveDate": "11/20/2025",
    "licenseExpirationDate": "11/19/2026",
    "dataDate": "10/18/2025",
    "capacity": 0,
    "address": "8825 WHITTIER BLVD",
    "city": "PICO RIVERA",
    "zip": "90660",
    "county": "LOS ANGELES",
    "phone": "(818) 427-3239",
    "lat": 34.001973,
    "lng": -118.08459
  },
  {
    "id": "960001240",
    "name": "TAVARUA MEDICAL REHABILITATION SERVICES",
    "npi": null,
    "hcaiId": "306194189",
    "businessName": "TAVARUA MEDICAL REHABILITATION SERVICES",
    "contactEmail": "CCABELLO@AMERICANHEALTHSERVICES.ORG",
    "categoryName": "PRIMARY CARE CLINIC",
    "categoryCode": "COMTYC",
    "licenseStatus": "ACTIVE",
    "inService": true,
    "licenseNumber": "960000644",
    "licenseEffectiveDate": "05/28/2025",
    "licenseExpirationDate": "05/27/2026",
    "dataDate": "10/18/2025",
    "capacity": 0,
    "address": "8207 WHITTIER BLVD",
    "city": "PICO RIVERA",
    "zip": "90660",
    "county": "LOS ANGELES",
    "phone": "(562) 692-2522",
    "lat": 34.006941,
    "lng": -118.09611
  }
]