[
  {
    "id": "630021723",
    "name": "AUHC BRANCH OFFICE - SANTA FE SPRINGS",
    "npi": "1740752997",
    "hcaiId": null,
    "businessName": "PINE STREET HEALTHCARE PARTNERS, LLC",
    "contactEmail": "JSASSOVER@AMERICANUNITEDHOMECARE.COM",
    "categoryName": "HOME HEALTH AGENCY",
    "categoryCode": "HHA",
    "licenseStatus": "ACTIVE",
    "inService": true,
    "licenseNumber": "980000988",
    "licenseEffectiveDate": "11/23/2024",
    "licenseExpirationDate": "11/22/2025",
    "dataDate": "10/18/2025",
    "capacity": 0,
    "address": "9900 NORWALK BLVD, SUITE 100",
    "city": "SANTA FE SPRINGS",
    "zip": "90670",
    "county": "LOS ANGELES",
    "phone": "(818) 366-6358",
    "lat": 33.94784896,
    "lng": -118.0726687
  },
  {
    "id": "630025699",
    "name": "COMFORTING SERVICES HOME HEALTH",
    "npi": null,
    "hcaiId": null,
    "businessName": "COMFORTING SERVICES HOME HEALTH",
    "contactEmail": "COMFORTSERVICEHOSP@GMAIL.COM",
    "categoryName": "HOME HEALTH AGENCY",
    "categoryCode": "HHA",
    "licenseStatus": "ACTIVE",
    "inService": true,
    "licenseNumber": "550009032",
    "licenseEffectiveDate": "03/22/2024",
    "licenseExpirationDate": "09/21/2024",
    "dataDate": "10/18/2025",
    "capacity": 0,
    "address": "11751 SLAUSON AVE, UNIT 1",
    "city": "SANTA FE SPRINGS",
    "zip": "90670",
    "county": "LOS ANGELES",
    "phone": "(818) 624-6360",
    "lat": 33.964857,
    "lng": -118.0645605
  },
  {
    "id": "060001973",
    "name": "CRESCENT HEALTHCARE, INC.",
    "npi": null,
    "hcaiId": "406197147",
    "businessName": "CRESCENT HEALTHCARE, INC.",
    "contactEmail": "OC-PEANDL@OPTIONCARE.COM",
    "categoryName": "HOME HEALTH AGENCY",
    "categoryCode": "HHA",
    "licenseStatus": "ACTIVE",
    "inService": true,
    "licenseNumber": "060000775",
    "licenseEffectiveDate": "07/15/2025",
    "licenseExpirationDate": "07/14/2026",
    "dataDate": "10/18/2025",
    "capacity": 0,
    "address": "11980 TELEGRAPH RD, SUITE 100",
    "city": "SANTA FE SPRINGS",
    "zip": "90670",
    "county": "LOS ANGELES",
    "phone": "(562) 347-2900",
    "lat": 33.94341,
    "lng": -118.077948
  },
  {
    "id": "630011861",
    "name": "FRESENIUS MEDICAL CARE - NORWALK EAST",
    "npi": "1760677652",
    "hcaiId": "306197264",
    "businessName": "FRESENIUS MEDICAL CARE NORWALK, LLC",
    "contactEmail": "TAMMY.TENNISON-ROUSE@FRESENIUSMEDICALCARE.COM",
    "categoryName": "CHRONIC DIALYSIS CLINIC",
    "categoryCode": "ESRD/CDC",
    "licenseStatus": "ACTIVE",
    "inService": true,
    "licenseNumber": "550001071",
    "licenseEffectiveDate": "12/12/2024",
    "licenseExpirationDate": "12/11/2025",
    "dataDate": "10/18/2025",
    "capacity": 19,
    "address": "13063 ROSECRANS AVE, BUILDING 1",
    "city": "SANTA FE SPRINGS",
    "zip": "90670",
    "county": "LOS ANGELES",
    "phone": "(562) 404-7400",
    "lat": 33.90251088,
    "lng": -118.0527795
  },
  {
    "id": "630021070",
    "name": "INSPIRED HOSPICE CARE, INC",
    "npi": null,
    "hcaiId": "406193541",
    "businessName": "INSPIRED HOSPICE CARE, INC",
    "contactEmail": "INSPIREDHOSPICECARE@GMAIL.COM",
    "categoryName": "HOSPICE",
    "categoryCode": "HOSPICE",
    "licenseStatus": "ACTIVE",
    "inService": true,
    "licenseNumber": "550006614",
    "licenseEffectiveDate": "07/08/2025",
    "licenseExpirationDate": "07/07/2027",
    "dataDate": "10/18/2025",
    "capacity": 0,
    "address": "12015 MORA DR, UNIT 3",
    "city": "SANTA FE SPRINGS",
    "zip": "90670",
    "county": "LOS ANGELES",
    "phone": "(951) 900-1577",
    "lat": 33.94123498,
    "lng": -118.077793
  },
  {
    "id": "630020757",
    "name": "LIBERUM HOSPICE CARE, INC",
    "npi": null,
    "hcaiId": "406193706",
    "businessName": "LIBERUM HOSPICE CARE, INC",
    "contactEmail": "INFO@LIBERUMHOSPICE.COM",
    "categoryName": "HOSPICE",
    "categoryCode": "HOSPICE",
    "licenseStatus": "ACTIVE",
    "inService": true,
    "licenseNumber": "550006519",
    "licenseEffectiveDate": "05/28/2025",
    "licenseExpirationDate": "05/27/2027",
    "dataDate": "10/18/2025",
    "capacity": 0,
    "address": "13353 ALONDRA BLVD, SUITE 200-H",
    "city": "SANTA FE SPRINGS",
    "zip": "90670",
    "county": "LOS ANGELES",
    "phone": "(888) 611-0757",
    "lat": 33.88847601,
    "lng": -118.047048
  },
  {
    "id": "630025690",
    "name": "LIGHTHOUSE HEALTH CARE",
    "npi": null,
    "hcaiId": "406198020",
    "businessName": "LIGHTHOUSE HEALTH CARE",
    "contactEmail": "LIGHTHOUSEHEALTHCARE30@GMAIL.COM",
    "categoryName": "HOME HEALTH AGENCY",
    "categoryCode": "HHA",
    "licenseStatus": "ACTIVE",
    "inService": true,
    "licenseNumber": "550008806",
    "licenseEffectiveDate": "04/20/2024",
    "licenseExpirationDate": "10/19/2024",
    "dataDate": "10/18/2025",
    "capacity": 0,
    "address": "11751 SLAUSON AVE, UNIT 4",
    "city": "SANTA FE SPRINGS",
    "zip": "90670",
    "county": "LOS ANGELES",
    "phone": "(818) 517-7506",
    "lat": 33.964857,
    "lng": -118.0645605
  },
  {
    "id": "630019091",
    "name": "MD PREFERRED HOME HEALTH INC",
    "npi": null,
    "hcaiId": "406192944",
    "businessName": "MD PREFERRED HOME HEALTH, INC.",
    "contactEmail": "MDPREFERREDHH@GMAIL.COM",
    "categoryName": "HOME HEALTH AGENCY",
    "categoryCode": "HHA",
    "licenseStatus": "ACTIVE",
    "inService": true,
    "licenseNumber": "550005810",
    "licenseEffectiveDate": "10/24/2025",
    "licenseExpirationDate": "10/23/2026",
    "dataDate": "10/18/2025",
    "capacity": 0,
    "address": "12631 IMPERIAL HWY, SUITE D120",
    "city": "SANTA FE SPRINGS",
    "zip": "90670",
    "county": "LOS ANGELES",
    "phone": "(562) 484-0006",
    "lat": 33.917697,
    "lng": -118.0627335
  },
  {
    "id": "630014698",
    "name": "MD PREFERRED HOSPICE INC",
    "npi": "1841695830",
    "hcaiId": "406198366",
    "businessName": "MD PREFERRED HOSPICE INC",
    "contactEmail": "MDPREFERREDHOSPICE@YAHOO.COM",
    "categoryName": "HOSPICE",
    "categoryCode": "HOSPICE",
    "licenseStatus": "ACTIVE",
    "inService": true,
    "licenseNumber": "550002990",
    "licenseEffectiveDate": "01/16/2025",
    "licenseExpirationDate": "01/15/2027",
    "dataDate": "10/18/2025",
    "capacity": 0,
    "address": "12631 IMPERIAL HWY, SUITE E-127",
    "city": "SANTA FE SPRINGS",
    "zip": "90670",
    "county": "LOS ANGELES",
    "phone": "(888) 670-0838",
    "lat": 33.917697,
    "lng": -118.0627335
  },
  {
    "id": "980002110",
    "name": "NEW VISION HOME HEALTH AGENCY",
    "npi": "1346399219",
    "hcaiId": "406197051",
    "businessName": "NEW VISION HOME HEALTH AGENCY, INC.",
    "contactEmail": "INFO@NEWVISIONHH.COM",
    "categoryName": "HOME HEALTH AGENCY",
    "categoryCode": "HHA",
    "licenseStatus": "ACTIVE",
    "inService": true,
    "licenseNumber": "980001259",
    "licenseEffectiveDate": "01/15/2025",
    "licenseExpirationDate": "01/14/2026",
    "dataDate": "10/18/2025",
    "capacity": 0,
    "address": "12145 MORA DRIVE, UNIT 10",
    "city": "SANTA FE SPRINGS",
    "zip": "90670",
    "county": "LOS ANGELES",
    "phone": "(562) 903-7771",
    "lat": 33.940638,
    "lng": -118.074042
  },
  {
    "id": "630019437",
    "name": "NEW VISION HOSPICE",
    "npi": "1649813890",
    "hcaiId": "406192577",
    "businessName": "CARE ME HOSPICE INC.",
    "contactEmail": "INFO@NEWVISIONHOSPICECARE.COM",
    "categoryName": "HOSPICE",
    "categoryCode": "HOSPICE",
    "licenseStatus": "ACTIVE",
    "inService": true,
    "licenseNumber": "550005484",
    "licenseEffectiveDate": "05/14/2024",
    "licenseExpirationDate": "05/13/2026",
    "dataDate": "10/18/2025",
    "capacity": 0,
    "address": "12145 MORA DR, UNIT 11",
    "city": "SANTA FE SPRINGS",
    "zip": "90670",
    "county": "LOS ANGELES",
    "phone": "(818) 738-9404",
    "lat": 33.940629,
    "lng": -118.074186
  },
  {
    "id": "630019867",
    "name": "OPTIMA CARE HOSPICE",
    "npi": null,
    "hcaiId": "406196103",
    "businessName": "OPTIMA CARE HOSPICE",
    "contactEmail": "ADMIN@OPTIMACAREHOSPICEINC.COM",
    "categoryName": "HOSPICE",
    "categoryCode": "HOSPICE",
    "licenseStatus": "ACTIVE",
    "inService": true,
    "licenseNumber": "550005989",
    "licenseEffectiveDate": "12/05/2024",
    "licenseExpirationDate": "12/04/2026",
    "dataDate": "10/18/2025",
    "capacity": 0,
    "address": "12631 IMPERIAL HWY, SUITE D-126",
    "city": "SANTA FE SPRINGS",
    "zip": "90670",
    "county": "LOS ANGELES",
    "phone": "(626) 905-1214",
    "lat": 33.91769998,
    "lng": -118.062735
  },
  {
    "id": "630007583",
    "name": "PURITY HOME HEALTH SERVICES",
    "npi": "1821214032",
    "hcaiId": "406196869",
    "businessName": "PURITY HOME HEALTH SERVICES",
    "contactEmail": "PURITYHHS@YAHOO.COM",
    "categoryName": "HOME HEALTH AGENCY",
    "categoryCode": "HHA",
    "licenseStatus": "ACTIVE",
    "inService": true,
    "licenseNumber": "550000331",
    "licenseEffectiveDate": "02/22/2025",
    "licenseExpirationDate": "02/21/2026",
    "dataDate": "10/18/2025",
    "capacity": 0,
    "address": "12631 IMPERIAL HWY, SUITE D118",
    "city": "SANTA FE SPRINGS",
    "zip": "90670",
    "county": "LOS ANGELES",
    "phone": "(562) 863-5652",
    "lat": 33.917697,
    "lng": -118.0627335
  },
  {
    "id": "630025943",
    "name": "QRS HOME CARE INC",
    "npi": null,
    "hcaiId": "406190091",
    "businessName": "QRS HOME CARE INC",
    "contactEmail": "QRSHOMEHEALTH@GMAIL.COM",
    "categoryName": "HOME HEALTH AGENCY",
    "categoryCode": "HHA",
    "licenseStatus": "ACTIVE",
    "inService": true,
    "licenseNumber": "550008832",
    "licenseEffectiveDate": "06/02/2025",
    "licenseExpirationDate": "11/21/2025",
    "dataDate": "10/18/2025",
    "capacity": 0,
    "address": "13353 ALONDRA BLVD, SUITE 200B",
    "city": "SANTA FE SPRINGS",
    "zip": "90670",
    "county": "LOS ANGELES",
    "phone": "(562) 652-7725",
    "lat": 33.88847601,
    "lng": -118.047048
  },
  {
    "id": "630025692",
    "name": "SANTA FE HOME HEALTH",
    "npi": null,
    "hcaiId": "406190304",
    "businessName": "SANTA FE HOME HEALTH",
    "contactEmail": "SANTAFEHOSPICE@GMAIL.COM",
    "categoryName": "HOME HEALTH AGENCY",
    "categoryCode": "HHA",
    "licenseStatus": "ACTIVE",
    "inService": true,
    "licenseNumber": "550009025",
    "licenseEffectiveDate": "08/01/2024",
    "licenseExpirationDate": "01/31/2025",
    "dataDate": "10/18/2025",
    "capacity": 0,
    "address": "11751 SLAUSON AVE, UNIT 2",
    "city": "SANTA FE SPRINGS",
    "zip": "90670",
    "county": "LOS ANGELES",
    "phone": "(818) 624-6360",
    "lat": 33.964857,
    "lng": -118.0645605
  },
  {
    "id": "930001173",
    "name": "SRS-LOS NIETOS",
    "npi": "1457037384",
    "hcaiId": "306194299",
    "businessName": "SRS-LOS NIETOS",
    "contactEmail": "DRUPP@SANDERLINGLLC.COM",
    "categoryName": "CHRONIC DIALYSIS CLINIC",
    "categoryCode": "ESRD/CDC",
    "licenseStatus": "ACTIVE",
    "inService": true,
    "licenseNumber": "930000659",
    "licenseEffectiveDate": "12/01/2024",
    "licenseExpirationDate": "11/30/2025",
    "dataDate": "10/18/2025",
    "capacity": 24,
    "address": "10012 NORWALK BLVD, SUITE 190",
    "city": "SANTA FE SPRINGS",
    "zip": "90670",
    "county": "LOS ANGELES",
    "phone": "(615) 988-1060",
    "lat": 33.94709494,
    "lng": -118.0726621
  },
  {
    "id": "630025694",
    "name": "TERRASA HOME HEALTH",
    "npi": null,
    "hcaiId": "406190103",
    "businessName": "TERRASA HOME HEALTH",
    "contactEmail": "TERRASAHOMEHEALTH@GMAIL.COM",
    "categoryName": "HOME HEALTH AGENCY",
    "categoryCode": "HHA",
    "licenseStatus": "ACTIVE",
    "inService": true,
    "licenseNumber": "550008861",
    "licenseEffectiveDate": "06/04/2024",
    "licenseExpirationDate": "12/03/2024",
    "dataDate": "10/18/2025",
    "capacity": 0,
    "address": "11751 SLAUSON AVE, UNIT 3",
    "city": "SANTA FE SPRINGS",
    "zip": "90670",
    "county": "LOS ANGELES",
    "phone": "(747) 209-0080",
    "lat": 33.964857,
    "lng": -118.0645605
  },
  {
    "id": "630013457",
    "name": "TRANQUILITY HOSPICE, INC.",
    "npi": "1033491709",
    "hcaiId": "406197761",
    "businessName": "TRANQUILITY HOSPICE, INC.",
    "contactEmail": "HOSPICETRANQUILITY@GMAIL.COM",
    "categoryName": "HOSPICE",
    "categoryCode": "HOSPICE",
    "licenseStatus": "ACTIVE",
    "inService": true,
    "licenseNumber": "550002104",
    "licenseEffectiveDate": "11/10/2022",
    "licenseExpirationDate": "11/09/2024",
    "dataDate": "10/18/2025",
    "capacity": 0,
    "address": "12631 IMPERIAL HWY, SUITE F-208",
    "city": "SANTA FE SPRINGS",
    "zip": "90670",
    "county": "LOS ANGELES",
    "phone": "(562) 465-0067",
    "lat": 33.917697,
    "lng": -118.0627335
  },
  {
    "id": "630020267",
    "name": "UNITED CARE HOSPICE, LLC",
    "npi": null,
    "hcaiId": "406195675",
    "businessName": "UNITED CARE HOSPICE, LLC",
    "contactEmail": "UNITEDCAREHOSPICELLC@GMAIL.COM",
    "categoryName": "HOSPICE",
    "categoryCode": "HOSPICE",
    "licenseStatus": "ACTIVE",
    "inService": true,
    "licenseNumber": "550006179",
    "licenseEffectiveDate": "03/26/2025",
    "licenseExpirationDate": "03/25/2027",
    "dataDate": "10/18/2025",
    "capacity": 0,
    "address": "13353 ALONDRA BLVD, SUITE 208B",
    "city": "SANTA FE SPRINGS",
    "zip": "90670",
    "county": "LOS ANGELES",
    "phone": "(800) 988-8947",
    "lat": 33.88797587,
    "lng": -118.047446
  }
]