[
  {
    "id": "630027668",
    "name": "ALL ABOUT CARE HHA",
    "npi": null,
    "hcaiId": null,
    "businessName": "ALL ABOUT CARE HHA",
    "contactEmail": "ABOUTCAREHH@GMAIL.COM",
    "categoryName": "HOME HEALTH AGENCY",
    "categoryCode": "HHA",
    "licenseStatus": "ACTIVE",
    "inService": true,
    "licenseNumber": "550009904",
    "licenseEffectiveDate": "07/25/2025",
    "licenseExpirationDate": "01/24/2026",
    "dataDate": "10/18/2025",
    "capacity": 0,
    "address": "12363 BEACH BLVD, SUITE 14E",
    "city": "STANTON",
    "zip": "90680",
    "county": "ORANGE",
    "phone": "(714) 363-6405",
    "lat": 33.782575,
    "lng": -117.993059
  },
  {
    "id": "630021894",
    "name": "ALLCARE HOSPICE AND PALLIATIVE CARE INC",
    "npi": null,
    "hcaiId": "406300027",
    "businessName": "ALLCARE HOSPICE AND PALLIATIVE CARE INC",
    "contactEmail": "ACHOSPICEINC@GMAIL.COM",
    "categoryName": "HOSPICE",
    "categoryCode": "HOSPICE",
    "licenseStatus": "ACTIVE",
    "inService": true,
    "licenseNumber": "550007648",
    "licenseEffectiveDate": "12/22/2023",
    "licenseExpirationDate": "12/21/2025",
    "dataDate": "10/18/2025",
    "capacity": 0,
    "address": "12235 BEACH BLVD, SUITE 207B",
    "city": "STANTON",
    "zip": "90680",
    "county": "ORANGE",
    "phone": "(949) 749-1144",
    "lat": 33.784533,
    "lng": -117.993447
  },
  {
    "id": "630015181",
    "name": "ALLIED CARE HOSPICE, INC",
    "npi": "1508278755",
    "hcaiId": "406302111",
    "businessName": "ALLIED CARE HOSPICE,INC.",
    "contactEmail": "ALLIEDCAREHOSPICE@GMAIL.COM",
    "categoryName": "HOSPICE",
    "categoryCode": "HOSPICE",
    "licenseStatus": "ACTIVE",
    "inService": true,
    "licenseNumber": "550002905",
    "licenseEffectiveDate": "12/18/2024",
    "licenseExpirationDate": "10/19/2026",
    "dataDate": "10/18/2025",
    "capacity": 0,
    "address": "8220 KATELLA AVE, SUITE 210",
    "city": "STANTON",
    "zip": "90680",
    "county": "ORANGE",
    "phone": "(909) 989-6246",
    "lat": 33.80242098,
    "lng": -117.988989
  },
  {
    "id": "630027590",
    "name": "AMETHYST CARE HOME HEALTH",
    "npi": null,
    "hcaiId": null,
    "businessName": "AMETHYST CARE HOME HEALTH",
    "contactEmail": "AMETHYSTCAREHOMEHEALTH@GMAIL.COM",
    "categoryName": "HOME HEALTH AGENCY",
    "categoryCode": "HHA",
    "licenseStatus": "ACTIVE",
    "inService": true,
    "licenseNumber": "550009960",
    "licenseEffectiveDate": "09/23/2025",
    "licenseExpirationDate": "03/22/2026",
    "dataDate": "10/18/2025",
    "capacity": 0,
    "address": "12235 BEACH BLVD, SUITE 207C",
    "city": "STANTON",
    "zip": "90680",
    "county": "ORANGE",
    "phone": "(951) 237-9423",
    "lat": 33.78442202,
    "lng": -117.99352
  },
  {
    "id": "630026639",
    "name": "ARIA HOME HEALTH SERVICES INC",
    "npi": null,
    "hcaiId": null,
    "businessName": "ARIA HOME HEALTH SERVICES INC",
    "contactEmail": "ARIAHOMEHEALTH22@GMAIL.COM",
    "categoryName": "HOME HEALTH AGENCY",
    "categoryCode": "HHA",
    "licenseStatus": "ACTIVE",
    "inService": true,
    "licenseNumber": "550009188",
    "licenseEffectiveDate": "05/30/2025",
    "licenseExpirationDate": "05/29/2026",
    "dataDate": "10/18/2025",
    "capacity": 0,
    "address": "12235 BEACH BLVD, SUITE 205C",
    "city": "STANTON",
    "zip": "90680",
    "county": "ORANGE",
    "phone": "(714) 209-2349",
    "lat": 33.784533,
    "lng": -117.993447
  },
  {
    "id": "630019764",
    "name": "ASTREA HOSPICE, INC.",
    "npi": null,
    "hcaiId": "406302842",
    "businessName": "ASTREA HOSPICE, INC.",
    "contactEmail": "ASTREAHOSPICE@GMAIL.COM",
    "categoryName": "HOSPICE",
    "categoryCode": "HOSPICE",
    "licenseStatus": "ACTIVE",
    "inService": true,
    "licenseNumber": "550005673",
    "licenseEffectiveDate": "08/18/2024",
    "licenseExpirationDate": "08/17/2026",
    "dataDate": "10/18/2025",
    "capacity": 0,
    "address": "12235 BEACH BLVD, SUITE 200B",
    "city": "STANTON",
    "zip": "90680",
    "county": "ORANGE",
    "phone": "(714) 441-8856",
    "lat": 33.784533,
    "lng": -117.993447
  },
  {
    "id": "630018016",
    "name": "BEACH DIALYSIS",
    "npi": null,
    "hcaiId": "306300475",
    "businessName": "BARRONS DIALYSIS LLC",
    "contactEmail": "CAL_C@DAVITA.COM",
    "categoryName": "CHRONIC DIALYSIS CLINIC",
    "categoryCode": "ESRD/CDC",
    "licenseStatus": "ACTIVE",
    "inService": true,
    "licenseNumber": "550004827",
    "licenseEffectiveDate": "07/19/2025",
    "licenseExpirationDate": "07/18/2026",
    "dataDate": "10/18/2025",
    "capacity": 25,
    "address": "12456 BEACH BLVD",
    "city": "STANTON",
    "zip": "90680",
    "county": "ORANGE",
    "phone": "(714) 373-9447",
    "lat": 33.781977,
    "lng": -117.9926145
  },
  {
    "id": "630017460",
    "name": "BIG VINE HOME HEALTH SERVICES, INC.",
    "npi": null,
    "hcaiId": "406301680",
    "businessName": "BIG VINE HOME HEALTH SERVICES, INC.",
    "contactEmail": "BIGVINEHHS@GMAIL.COM",
    "categoryName": "HOME HEALTH AGENCY",
    "categoryCode": "HHA",
    "licenseStatus": "ACTIVE",
    "inService": true,
    "licenseNumber": "550004720",
    "licenseEffectiveDate": "03/01/2025",
    "licenseExpirationDate": "02/28/2026",
    "dataDate": "10/18/2025",
    "capacity": 0,
    "address": "8220 KATELLA AVE, UNIT 218",
    "city": "STANTON",
    "zip": "90680",
    "county": "ORANGE",
    "phone": "(714) 622-5338",
    "lat": 33.802452,
    "lng": -117.988731
  },
  {
    "id": "630012328",
    "name": "CENTRAL CITY COMMUNITY HEALTH CENTER",
    "npi": "1174757967",
    "hcaiId": "306304383",
    "businessName": "CENTRAL CITY COMMUNITY HEALTH CENTER, INC.",
    "contactEmail": "KAREN.RODRIGUEZ@CENTRALCITYHEALTH.ORG",
    "categoryName": "PRIMARY CARE CLINIC",
    "categoryCode": "COMTYC",
    "licenseStatus": "ACTIVE",
    "inService": true,
    "licenseNumber": "550001184",
    "licenseEffectiveDate": "11/28/2024",
    "licenseExpirationDate": "11/27/2025",
    "dataDate": "10/18/2025",
    "capacity": 0,
    "address": "12116 BEACH BLVD",
    "city": "STANTON",
    "zip": "90680",
    "county": "ORANGE",
    "phone": "(714) 898-2222",
    "lat": 33.786504,
    "lng": -117.9920115
  },
  {
    "id": "630017648",
    "name": "DEVOTED HEALTHCARE OC",
    "npi": "1073024691",
    "hcaiId": "406301658",
    "businessName": "MEGA HOSPICE CARE",
    "contactEmail": "MEGAHOSPICECARE@GMAIL.COM",
    "categoryName": "HOSPICE",
    "categoryCode": "HOSPICE",
    "licenseStatus": "ACTIVE",
    "inService": true,
    "licenseNumber": "550004673",
    "licenseEffectiveDate": "05/20/2025",
    "licenseExpirationDate": "05/19/2027",
    "dataDate": "10/18/2025",
    "capacity": 0,
    "address": "12235 BEACH BLVD, SUITE 106",
    "city": "STANTON",
    "zip": "90680",
    "county": "ORANGE",
    "phone": "(714) 494-1041",
    "lat": 33.784407,
    "lng": -117.993501
  },
  {
    "id": "630015852",
    "name": "HEARTEN HOSPICE CARE, INC.",
    "npi": null,
    "hcaiId": "406301003",
    "businessName": "HEARTEN HOSPICE CARE, INC.",
    "contactEmail": "HEARTENHOSPICE200E@GMAIL.COM",
    "categoryName": "HOSPICE",
    "categoryCode": "HOSPICE",
    "licenseStatus": "ACTIVE",
    "inService": true,
    "licenseNumber": "550003552",
    "licenseEffectiveDate": "06/16/2022",
    "licenseExpirationDate": "06/15/2024",
    "dataDate": "10/18/2025",
    "capacity": 0,
    "address": "12235 BEACH BLVD., SUITE 200-E",
    "city": "STANTON",
    "zip": "90680",
    "county": "ORANGE",
    "phone": "(714) 733-7446",
    "lat": 33.784533,
    "lng": -117.993447
  },
  {
    "id": "630021888",
    "name": "JEREMIAH HOSPICE AND PALLIATIVE CARE, INC.",
    "npi": null,
    "hcaiId": null,
    "businessName": "JEREMIAH HOSPICE AND PALLIATIVE CARE, INC.",
    "contactEmail": "ANGELABISLAMYAN0@GMAIL.COM",
    "categoryName": "HOSPICE",
    "categoryCode": "HOSPICE",
    "licenseStatus": "ACTIVE",
    "inService": true,
    "licenseNumber": "550007561",
    "licenseEffectiveDate": "12/17/2023",
    "licenseExpirationDate": "12/16/2025",
    "dataDate": "10/18/2025",
    "capacity": 0,
    "address": "12235 BEACH BLVD, SUITE 207D",
    "city": "STANTON",
    "zip": "90680",
    "county": "ORANGE",
    "phone": "(949) 676-0012",
    "lat": 33.784533,
    "lng": -117.993447
  },
  {
    "id": "250001787",
    "name": "JOY HEALTH CARE SERVICES",
    "npi": "1821091380",
    "hcaiId": "406306063",
    "businessName": "JAR-CV ENTERPRISES, INCORPORATED",
    "contactEmail": "JOYHEALTHCARESERVICES@YAHOO.COM",
    "categoryName": "HOME HEALTH AGENCY",
    "categoryCode": "HHA",
    "licenseStatus": "ACTIVE",
    "inService": true,
    "licenseNumber": "250000783",
    "licenseEffectiveDate": "12/12/2024",
    "licenseExpirationDate": "12/11/2025",
    "dataDate": "10/18/2025",
    "capacity": 0,
    "address": "12362 BEACH BLVD, SUITE 5",
    "city": "STANTON",
    "zip": "90680",
    "county": "ORANGE",
    "phone": "(951) 352-4400",
    "lat": 33.783021,
    "lng": -117.99225
  },
  {
    "id": "060001096",
    "name": "LENMAR HOME",
    "npi": "1285722876",
    "hcaiId": null,
    "businessName": "HARRIS CARE CENTERS, INC.",
    "contactEmail": "CMS549@EARTHLINK.NET",
    "categoryName": "INTERMEDIATE CARE FACILITY-DD/H/N/CN/IID",
    "categoryCode": "ICFDDH",
    "licenseStatus": "ACTIVE",
    "inService": true,
    "licenseNumber": "060000311",
    "licenseEffectiveDate": "12/05/2025",
    "licenseExpirationDate": "12/04/2026",
    "dataDate": "10/18/2025",
    "capacity": 6,
    "address": "11581 LENMAR ST",
    "city": "STANTON",
    "zip": "90680",
    "county": "ORANGE",
    "phone": "(951) 315-4747",
    "lat": 33.794487,
    "lng": -117.9946485
  },
  {
    "id": "630013782",
    "name": "LIVINGSTONE COMMUNITY HEALTH CLINIC",
    "npi": "1952662686",
    "hcaiId": "306304516",
    "businessName": "LIVINGSTONE COMMUNITY DEVELOPMENT CORPORATION",
    "contactEmail": "ADMIN@LIVINGSTONECDC.COM",
    "categoryName": "PRIMARY CARE CLINIC",
    "categoryCode": "COMTYC",
    "licenseStatus": "ACTIVE",
    "inService": true,
    "licenseNumber": "550002134",
    "licenseEffectiveDate": "11/15/2025",
    "licenseExpirationDate": "11/14/2026",
    "dataDate": "10/18/2025",
    "capacity": 0,
    "address": "12362 BEACH BLVD, SUITE 10",
    "city": "STANTON",
    "zip": "90680",
    "county": "ORANGE",
    "phone": "(714) 248-9500",
    "lat": 33.783021,
    "lng": -117.99225
  },
  {
    "id": "630026464",
    "name": "LUMINA HOME HEALTH, INC.",
    "npi": null,
    "hcaiId": null,
    "businessName": "LUMINA HOME HEALTH, INC.",
    "contactEmail": "LUMINAHOMEHEALTH@GMAIL.COM",
    "categoryName": "HOME HEALTH AGENCY",
    "categoryCode": "HHA",
    "licenseStatus": "ACTIVE",
    "inService": true,
    "licenseNumber": "550009049",
    "licenseEffectiveDate": "03/18/2025",
    "licenseExpirationDate": "03/17/2026",
    "dataDate": "10/18/2025",
    "capacity": 0,
    "address": "12235 BEACH BLVD, SUITE 205B",
    "city": "STANTON",
    "zip": "90680",
    "county": "ORANGE",
    "phone": "(949) 577-0236",
    "lat": 33.784533,
    "lng": -117.993447
  },
  {
    "id": "060001647",
    "name": "NEW LEAF REHAB AGENCY",
    "npi": null,
    "hcaiId": null,
    "businessName": null,
    "contactEmail": null,
    "categoryName": "REHABILITATION CLINIC",
    "categoryCode": "OPT/SP",
    "licenseStatus": null,
    "inService": null,
    "licenseNumber": null,
    "licenseEffectiveDate": null,
    "licenseExpirationDate": null,
    "dataDate": "10/18/2025",
    "capacity": 0,
    "address": "12151 DALE AVE",
    "city": "STANTON",
    "zip": "90680",
    "county": "ORANGE",
    "phone": "(714) 530-9100",
    "lat": 33.785442,
    "lng": -117.9844875
  },
  {
    "id": "630017073",
    "name": "OCEAN VIEW HOSPICE, INC",
    "npi": null,
    "hcaiId": "406301361",
    "businessName": "OCEAN VIEW HOSPICE, INC",
    "contactEmail": "OCEANVIEWHOSPICE@GMAIL.COM",
    "categoryName": "HOSPICE",
    "categoryCode": "HOSPICE",
    "licenseStatus": "ACTIVE",
    "inService": true,
    "licenseNumber": "550003914",
    "licenseEffectiveDate": "07/11/2025",
    "licenseExpirationDate": "07/10/2027",
    "dataDate": "10/18/2025",
    "capacity": 0,
    "address": "12362 BEACH BLVD, SUITE 22",
    "city": "STANTON",
    "zip": "90680",
    "county": "ORANGE",
    "phone": "(714) 603-7303",
    "lat": 33.783021,
    "lng": -117.99225
  },
  {
    "id": "060001263",
    "name": "PARAMOUNT HOME CARE",
    "npi": "1881773430",
    "hcaiId": "406304144",
    "businessName": "PARAMOUNT HOME CARE, INC.",
    "contactEmail": "JOEL@THEPHCARE.COM",
    "categoryName": "HOME HEALTH AGENCY",
    "categoryCode": "HHA",
    "licenseStatus": "ACTIVE",
    "inService": true,
    "licenseNumber": "060000374",
    "licenseEffectiveDate": "01/15/2024",
    "licenseExpirationDate": "01/14/2025",
    "dataDate": "10/18/2025",
    "capacity": 0,
    "address": "12235 BEACH BLVD, SUITE 102",
    "city": "STANTON",
    "zip": "90680",
    "county": "ORANGE",
    "phone": "(714) 994-1250",
    "lat": 33.784533,
    "lng": -117.993447
  },
  {
    "id": "630018672",
    "name": "RELEVANT HOME HEALTH SERVICES, LLC",
    "npi": null,
    "hcaiId": "406302467",
    "businessName": "RELEVANT HOME HEALTH SERVICES, LLC",
    "contactEmail": "RELEVANTHOMEHEALTH@YAHOO.COM",
    "categoryName": "HOME HEALTH AGENCY",
    "categoryCode": "HHA",
    "licenseStatus": "ACTIVE",
    "inService": true,
    "licenseNumber": "550005325",
    "licenseEffectiveDate": "02/28/2025",
    "licenseExpirationDate": "02/27/2026",
    "dataDate": "10/18/2025",
    "capacity": 0,
    "address": "12235 BEACH BLVD, SUITE 200C",
    "city": "STANTON",
    "zip": "90680",
    "county": "ORANGE",
    "phone": "(657) 227-8707",
    "lat": 33.784371,
    "lng": -117.993321
  },
  {
    "id": "060000132",
    "name": "ROWNTREE GARDENS",
    "npi": null,
    "hcaiId": "206301303",
    "businessName": "CALIFORNIA FRIENDS HOMES",
    "contactEmail": "KATIEP@ROWNTREEGARDENS.ORG",
    "categoryName": "SKILLED NURSING FACILITY",
    "categoryCode": "SNF",
    "licenseStatus": "ACTIVE",
    "inService": true,
    "licenseNumber": "060000159",
    "licenseEffectiveDate": "11/30/2024",
    "licenseExpirationDate": "11/29/2025",
    "dataDate": "10/18/2025",
    "capacity": 58,
    "address": "12151 DALE AVE",
    "city": "STANTON",
    "zip": "90680",
    "county": "ORANGE",
    "phone": "(714) 873-2302",
    "lat": 33.785442,
    "lng": -117.9844875
  },
  {
    "id": "630021637",
    "name": "ST. ANTHONY HOSPICE AND PALLIATIVE CARE, INC.",
    "npi": null,
    "hcaiId": null,
    "businessName": "ST. ANTHONY HOSPICE AND PALLIATIVE CARE, INC.",
    "contactEmail": "SAINTANTHONYHOSPICE@GMAIL.COM",
    "categoryName": "HOSPICE",
    "categoryCode": "HOSPICE",
    "licenseStatus": "ACTIVE",
    "inService": true,
    "licenseNumber": "550007322",
    "licenseEffectiveDate": "12/01/2023",
    "licenseExpirationDate": "11/30/2025",
    "dataDate": "10/18/2025",
    "capacity": 0,
    "address": "12235 BEACH BLVD, SUITE 207E",
    "city": "STANTON",
    "zip": "90680",
    "county": "ORANGE",
    "phone": "(949) 818-2002",
    "lat": 33.784533,
    "lng": -117.993447
  },
  {
    "id": "630015846",
    "name": "WECARE HOSPICE AND PALLIATIVE",
    "npi": "1629475090",
    "hcaiId": "406300998",
    "businessName": "WORLDWIDE HOSPICE CARE",
    "contactEmail": "INFO@WECAREHOSPICE.ORG",
    "categoryName": "HOSPICE",
    "categoryCode": "HOSPICE",
    "licenseStatus": "ACTIVE",
    "inService": true,
    "licenseNumber": "550003426",
    "licenseEffectiveDate": "03/10/2024",
    "licenseExpirationDate": "03/09/2026",
    "dataDate": "10/18/2025",
    "capacity": 0,
    "address": "12235 BEACH BLVD, SUITE 109",
    "city": "STANTON",
    "zip": "90680",
    "county": "ORANGE",
    "phone": "(714) 503-0068",
    "lat": 33.784425,
    "lng": -117.99378
  }
]