[
  {
    "id": "630028334",
    "name": "ALTAMED MEDICAL GROUP - BELLFLOWER",
    "npi": null,
    "hcaiId": null,
    "businessName": "ALTAMED HEALTH SERVICES CORPORATION",
    "contactEmail": null,
    "categoryName": "PRIMARY CARE CLINIC",
    "categoryCode": "COMTYC",
    "licenseStatus": "ACTIVE",
    "inService": true,
    "licenseNumber": "550003268",
    "licenseEffectiveDate": "10/29/2025",
    "licenseExpirationDate": "10/28/2026",
    "dataDate": "10/18/2025",
    "capacity": 0,
    "address": "10234 ROSECRANS AVE",
    "city": "BELLFLOWER",
    "zip": "90706",
    "county": "LOS ANGELES",
    "phone": null,
    "lat": 33.90197598,
    "lng": -118.114723
  },
  {
    "id": "980001857",
    "name": "ALWAYS BETTER CARE HOME HEALTH SERVICES LLC",
    "npi": "1104889229",
    "hcaiId": "406194992",
    "businessName": "ALWAYS BETTER CARE HOME HEALTH SERVICES, LLC",
    "contactEmail": "ABC.HOMEHEALTHSERVICES@GMAIL.COM",
    "categoryName": "HOME HEALTH AGENCY",
    "categoryCode": "HHA",
    "licenseStatus": "ACTIVE",
    "inService": true,
    "licenseNumber": "980001164",
    "licenseEffectiveDate": "07/06/2025",
    "licenseExpirationDate": "12/09/2025",
    "dataDate": "10/18/2025",
    "capacity": 0,
    "address": "9604 ARTESIA BLVD, SUITE 105",
    "city": "BELLFLOWER",
    "zip": "90706",
    "county": "LOS ANGELES",
    "phone": "(562) 804-3200",
    "lat": 33.87457249,
    "lng": -118.1288563
  },
  {
    "id": "630011042",
    "name": "ARCHANGEL HOME HEALTH INC.",
    "npi": "1760699144",
    "hcaiId": "406197026",
    "businessName": "ARCHANGEL HOME HEALTH, INC.",
    "contactEmail": "DANIELSUH57@GMAIL.COM",
    "categoryName": "HOME HEALTH AGENCY",
    "categoryCode": "HHA",
    "licenseStatus": "ACTIVE",
    "inService": true,
    "licenseNumber": "550000586",
    "licenseEffectiveDate": "06/29/2024",
    "licenseExpirationDate": "06/28/2025",
    "dataDate": "10/18/2025",
    "capacity": 0,
    "address": "16446 WOODRUFF AVENUE, SUITE A",
    "city": "BELLFLOWER",
    "zip": "90706",
    "county": "LOS ANGELES",
    "phone": "(562) 861-7047",
    "lat": 33.883893,
    "lng": -118.1169405
  },
  {
    "id": "630013446",
    "name": "ARTESIA HOME TRAINING",
    "npi": "1902198450",
    "hcaiId": null,
    "businessName": null,
    "contactEmail": null,
    "categoryName": "CHRONIC DIALYSIS CLINIC",
    "categoryCode": "ESRD",
    "licenseStatus": null,
    "inService": null,
    "licenseNumber": null,
    "licenseEffectiveDate": null,
    "licenseExpirationDate": null,
    "dataDate": "10/18/2025",
    "capacity": 0,
    "address": "16506 LAKEWOOD BLVD, SUITE 100",
    "city": "BELLFLOWER",
    "zip": "90706",
    "county": "LOS ANGELES",
    "phone": "(562) 882-5108",
    "lat": 33.884514,
    "lng": -118.142271
  },
  {
    "id": "630026781",
    "name": "AZURA SURGERY CENTER LONG BEACH",
    "npi": null,
    "hcaiId": null,
    "businessName": null,
    "contactEmail": "AZURAGOVENROLLMENT@AZURACARE.COM",
    "categoryName": "SURGICAL CLINIC",
    "categoryCode": "ASC",
    "licenseStatus": null,
    "inService": null,
    "licenseNumber": null,
    "licenseEffectiveDate": null,
    "licenseExpirationDate": null,
    "dataDate": "10/18/2025",
    "capacity": 0,
    "address": "16506 LAKEWOOD BLVD, SUITE 200",
    "city": "BELLFLOWER",
    "zip": "90706",
    "county": "LOS ANGELES",
    "phone": "(562) 888-8961",
    "lat": 33.884469,
    "lng": -118.1421585
  },
  {
    "id": "630010884",
    "name": "BELLFLOWER DIALYSIS CENTER",
    "npi": "1487609384",
    "hcaiId": "306197037",
    "businessName": "RENAL TREATMENT CENTERS - CALIFORNIA, INC.",
    "contactEmail": "CAL_C@DAVITA.COM",
    "categoryName": "CHRONIC DIALYSIS CLINIC",
    "categoryCode": "ESRD/CDC",
    "licenseStatus": "ACTIVE",
    "inService": true,
    "licenseNumber": "550000585",
    "licenseEffectiveDate": "06/30/2025",
    "licenseExpirationDate": "06/29/2026",
    "dataDate": "10/18/2025",
    "capacity": 21,
    "address": "15736 WOODRUFF AVE",
    "city": "BELLFLOWER",
    "zip": "90706",
    "county": "LOS ANGELES",
    "phone": "(562) 804-3099",
    "lat": 33.890526,
    "lng": -118.116495
  },
  {
    "id": "930000894",
    "name": "BELLFLOWER MEDICAL CENTER D/P APH",
    "npi": "1922001809",
    "hcaiId": null,
    "businessName": "ALTA LOS ANGELES HOSPITALS, INC.",
    "contactEmail": null,
    "categoryName": "ACUTE PSYCHIATRIC HOSPITAL",
    "categoryCode": "APH",
    "licenseStatus": "ACTIVE",
    "inService": true,
    "licenseNumber": "930000039",
    "licenseEffectiveDate": "03/15/2025",
    "licenseExpirationDate": "03/14/2026",
    "dataDate": "10/18/2025",
    "capacity": 32,
    "address": "9542 ARTESIA BLVD",
    "city": "BELLFLOWER",
    "zip": "90706",
    "county": "LOS ANGELES",
    "phone": "(562) 925-8355",
    "lat": 33.87468014,
    "lng": -118.1296831
  },
  {
    "id": "940000013",
    "name": "BELLFLOWER POST ACUTE",
    "npi": "1154791895",
    "hcaiId": "206190067",
    "businessName": "BELLFLOWER POST ACUTE, LLC",
    "contactEmail": "ADMINISTRATOR@BELLFLOWERPA.COM",
    "categoryName": "SKILLED NURSING FACILITY",
    "categoryCode": "SNF",
    "licenseStatus": "ACTIVE",
    "inService": true,
    "licenseNumber": "940000016",
    "licenseEffectiveDate": "02/08/2025",
    "licenseExpirationDate": "02/07/2026",
    "dataDate": "10/18/2025",
    "capacity": 59,
    "address": "9710 ARTESIA BLVD",
    "city": "BELLFLOWER",
    "zip": "90706",
    "county": "LOS ANGELES",
    "phone": "(562) 925-2274",
    "lat": 33.87429,
    "lng": -118.127133
  },
  {
    "id": "960001150",
    "name": "CAMELOT DIVISION",
    "npi": "1457489759",
    "hcaiId": null,
    "businessName": "HARBOR HEALTH CARE, INC.",
    "contactEmail": "CHERYL@HARBORHEALTHCARE.ORG",
    "categoryName": "INTERMEDIATE CARE FACILITY-DD/H/N/CN/IID",
    "categoryCode": "ICFDDN",
    "licenseStatus": "ACTIVE",
    "inService": true,
    "licenseNumber": "960000600",
    "licenseEffectiveDate": "01/04/2025",
    "licenseExpirationDate": "01/03/2026",
    "dataDate": "10/18/2025",
    "capacity": 6,
    "address": "9902 ROSE ST",
    "city": "BELLFLOWER",
    "zip": "90706",
    "county": "LOS ANGELES",
    "phone": "(562) 866-7054",
    "lat": 33.869322,
    "lng": -118.122498
  },
  {
    "id": "940000112",
    "name": "CERRITOS VISTA HEALTHCARE CENTER",
    "npi": "1932273976",
    "hcaiId": "206190892",
    "businessName": "CERRITOS VISTA HEALTHCARE CENTER LLC",
    "contactEmail": "FAC77ADMIN@LONGWOODMGMT.COM",
    "categoryName": "SKILLED NURSING FACILITY",
    "categoryCode": "SNF",
    "licenseStatus": "ACTIVE",
    "inService": true,
    "licenseNumber": "940000180",
    "licenseEffectiveDate": "05/28/2025",
    "licenseExpirationDate": "05/27/2026",
    "dataDate": "10/18/2025",
    "capacity": 140,
    "address": "17836 WOODRUFF AVE",
    "city": "BELLFLOWER",
    "zip": "90706",
    "county": "LOS ANGELES",
    "phone": "(562) 925-8457",
    "lat": 33.870015,
    "lng": -118.1163195
  },
  {
    "id": "960001407",
    "name": "CLARK DIVISION",
    "npi": "1518095819",
    "hcaiId": null,
    "businessName": "HARBOR HEALTH CARE, INC.",
    "contactEmail": "CHERYL@HARBORHEALTHCARE.ORG",
    "categoryName": "INTERMEDIATE CARE FACILITY-DD/H/N/CN/IID",
    "categoryCode": "ICFDDN",
    "licenseStatus": "ACTIVE",
    "inService": true,
    "licenseNumber": "960000719",
    "licenseEffectiveDate": "01/04/2025",
    "licenseExpirationDate": "01/03/2026",
    "dataDate": "10/18/2025",
    "capacity": 6,
    "address": "13638 CLARK AVE",
    "city": "BELLFLOWER",
    "zip": "90706",
    "county": "LOS ANGELES",
    "phone": "(562) 866-7054",
    "lat": 33.906546,
    "lng": -118.1336265
  },
  {
    "id": "630019891",
    "name": "COMMUNITY MEDICINE INC.",
    "npi": "1457744476",
    "hcaiId": null,
    "businessName": "COMMUNITY MEDICINE INC.",
    "contactEmail": "HABIB@CMINC.ORG",
    "categoryName": "PRIMARY CARE CLINIC",
    "categoryCode": "COMTYC",
    "licenseStatus": "ACTIVE",
    "inService": true,
    "licenseNumber": "550003676",
    "licenseEffectiveDate": "09/01/2025",
    "licenseExpirationDate": "08/31/2026",
    "dataDate": "10/18/2025",
    "capacity": 0,
    "address": "8800 ALONDRA BLVD, SUITE C",
    "city": "BELLFLOWER",
    "zip": "90706",
    "county": "LOS ANGELES",
    "phone": "(562) 602-2508",
    "lat": 33.888852,
    "lng": -118.14462
  },
  {
    "id": "630019585",
    "name": "EMPIRE HOSPICE",
    "npi": null,
    "hcaiId": "406192761",
    "businessName": "5TH EMPIRE, LLC",
    "contactEmail": "EMPIREHOSPICE18@GMAIL.COM",
    "categoryName": "HOSPICE",
    "categoryCode": "HOSPICE",
    "licenseStatus": "ACTIVE",
    "inService": true,
    "licenseNumber": "550005527",
    "licenseEffectiveDate": "06/09/2024",
    "licenseExpirationDate": "06/08/2026",
    "dataDate": "10/18/2025",
    "capacity": 0,
    "address": "17610 BELLFLOWER BLVD, SUITE A206",
    "city": "BELLFLOWER",
    "zip": "90706",
    "county": "LOS ANGELES",
    "phone": "(818) 649-1161",
    "lat": 33.87260356,
    "lng": -118.1250731
  },
  {
    "id": "930001737",
    "name": "FMC DIALYSIS SERVICES OF BELLFLOWER",
    "npi": "1790897593",
    "hcaiId": "306196255",
    "businessName": "BIO-MEDICAL APPLICATIONS OF CALIFORNIA, INC.",
    "contactEmail": "ALEJANDRO.ORTIZ1@FRESENIUSMEDICALCARE.COM",
    "categoryName": "CHRONIC DIALYSIS CLINIC",
    "categoryCode": "ESRD/CDC",
    "licenseStatus": "ACTIVE",
    "inService": true,
    "licenseNumber": "930000970",
    "licenseEffectiveDate": "11/01/2024",
    "licenseExpirationDate": "10/31/2025",
    "dataDate": "10/18/2025",
    "capacity": 37,
    "address": "10116 ROSECRANS AVE",
    "city": "BELLFLOWER",
    "zip": "90706",
    "county": "LOS ANGELES",
    "phone": "(562) 920-2070",
    "lat": 33.901452,
    "lng": -118.1179665
  },
  {
    "id": "630024636",
    "name": "FORWARD HOME HEALTH INC",
    "npi": null,
    "hcaiId": "406195634",
    "businessName": "FORWARD HOME HEALTH INC",
    "contactEmail": "FORWARDHOMEHEALTH@GMAIL.COM",
    "categoryName": "HOME HEALTH AGENCY",
    "categoryCode": "HHA",
    "licenseStatus": "ACTIVE",
    "inService": true,
    "licenseNumber": "550008184",
    "licenseEffectiveDate": "09/13/2025",
    "licenseExpirationDate": "09/12/2026",
    "dataDate": "10/18/2025",
    "capacity": 0,
    "address": "16600 WOODRUFF AVE, SUITE 201",
    "city": "BELLFLOWER",
    "zip": "90706",
    "county": "LOS ANGELES",
    "phone": "(213) 660-3078",
    "lat": 33.88355198,
    "lng": -118.117009
  },
  {
    "id": "960001506",
    "name": "GABLE DIVISION",
    "npi": "1427186725",
    "hcaiId": null,
    "businessName": "HARBOR HEALTH CARE, INC.",
    "contactEmail": "CHERYL@HARBORHEALTHCARE.ORG",
    "categoryName": "INTERMEDIATE CARE FACILITY-DD/H/N/CN/IID",
    "categoryCode": "ICFDDN",
    "licenseStatus": "ACTIVE",
    "inService": true,
    "licenseNumber": "960000765",
    "licenseEffectiveDate": "01/04/2025",
    "licenseExpirationDate": "01/03/2026",
    "dataDate": "10/18/2025",
    "capacity": 6,
    "address": "13640 CLARK AVE",
    "city": "BELLFLOWER",
    "zip": "90706",
    "county": "LOS ANGELES",
    "phone": "(562) 866-7054",
    "lat": 33.9065055,
    "lng": -118.1340416
  },
  {
    "id": "960001148",
    "name": "GRANADA DIVISION",
    "npi": "1366570665",
    "hcaiId": null,
    "businessName": "HARBOR HEALTH CARE, INC.",
    "contactEmail": "CHERYL@HARBORHEALTHCARE.ORG",
    "categoryName": "INTERMEDIATE CARE FACILITY-DD/H/N/CN/IID",
    "categoryCode": "ICFDDN",
    "licenseStatus": "ACTIVE",
    "inService": true,
    "licenseNumber": "960000599",
    "licenseEffectiveDate": "01/04/2025",
    "licenseExpirationDate": "01/03/2026",
    "dataDate": "10/18/2025",
    "capacity": 6,
    "address": "9904 ROSE ST",
    "city": "BELLFLOWER",
    "zip": "90706",
    "county": "LOS ANGELES",
    "phone": "(562) 866-7054",
    "lat": 33.86959514,
    "lng": -118.1224994
  },
  {
    "id": "980001925",
    "name": "IMMACULATE HEART OF MARY HOME HEALTH, INC.",
    "npi": "1083656664",
    "hcaiId": "406195051",
    "businessName": "IMMACULATE HEART OF MARY HOME HEALTH, INC.",
    "contactEmail": "IMMAC.HEART@YAHOO.COM",
    "categoryName": "HOME HEALTH AGENCY",
    "categoryCode": "HHA",
    "licenseStatus": "ACTIVE",
    "inService": true,
    "licenseNumber": "980001114",
    "licenseEffectiveDate": "01/20/2025",
    "licenseExpirationDate": "01/19/2026",
    "dataDate": "10/18/2025",
    "capacity": 0,
    "address": "14329 WOODRUFF AVE, SUITE A",
    "city": "BELLFLOWER",
    "zip": "90706",
    "county": "LOS ANGELES",
    "phone": "(562) 920-9868",
    "lat": 33.90123773,
    "lng": -118.1167296
  },
  {
    "id": "930000017",
    "name": "LOS ANGELES COMMUNITY HOSPITAL AT BELLFLOWER",
    "npi": "1922001809",
    "hcaiId": "106190066",
    "businessName": "ALTA LOS ANGELES HOSPITALS, INC.",
    "contactEmail": "JLINHARES.BMC@PACIFICHEALTHCORP.COM",
    "categoryName": "GENERAL ACUTE CARE HOSPITAL",
    "categoryCode": "GACH",
    "licenseStatus": "ACTIVE",
    "inService": true,
    "licenseNumber": "930000039",
    "licenseEffectiveDate": "03/15/2025",
    "licenseExpirationDate": "03/14/2026",
    "dataDate": "10/18/2025",
    "capacity": 0,
    "address": "9542 ARTESIA BLVD",
    "city": "BELLFLOWER",
    "zip": "90706",
    "county": "LOS ANGELES",
    "phone": "(562) 925-8355",
    "lat": 33.87468014,
    "lng": -118.1296831
  },
  {
    "id": "960001071",
    "name": "MINUET DIVISION",
    "npi": "1194853499",
    "hcaiId": null,
    "businessName": "HARBOR HEALTH CARE, INC.",
    "contactEmail": "CHERYL@HARBORHEALTHCARE.ORG",
    "categoryName": "INTERMEDIATE CARE FACILITY-DD/H/N/CN/IID",
    "categoryCode": "ICFDDN",
    "licenseStatus": "ACTIVE",
    "inService": true,
    "licenseNumber": "960000573",
    "licenseEffectiveDate": "01/04/2025",
    "licenseExpirationDate": "01/03/2026",
    "dataDate": "10/18/2025",
    "capacity": 6,
    "address": "9634 ROSE ST",
    "city": "BELLFLOWER",
    "zip": "90706",
    "county": "LOS ANGELES",
    "phone": "(562) 866-7054",
    "lat": 33.869304,
    "lng": -118.1278755
  },
  {
    "id": "960001043",
    "name": "PHOENIX DIVISION",
    "npi": "1386772689",
    "hcaiId": null,
    "businessName": "HARBOR HEALTH CARE, INC.",
    "contactEmail": "CHERYL@HARBORHEALTHCARE.ORG",
    "categoryName": "INTERMEDIATE CARE FACILITY-DD/H/N/CN/IID",
    "categoryCode": "ICFDDN",
    "licenseStatus": "ACTIVE",
    "inService": true,
    "licenseNumber": "960000558",
    "licenseEffectiveDate": "01/04/2025",
    "licenseExpirationDate": "01/03/2026",
    "dataDate": "10/18/2025",
    "capacity": 6,
    "address": "9630 ROSE ST",
    "city": "BELLFLOWER",
    "zip": "90706",
    "county": "LOS ANGELES",
    "phone": "(562) 866-7054",
    "lat": 33.86954806,
    "lng": -118.1283172
  },
  {
    "id": "630016557",
    "name": "PRECISION NURSING CARE INC.",
    "npi": null,
    "hcaiId": "406192988",
    "businessName": "PRECISION NURSING CARE, INC.",
    "contactEmail": "PRECISIONA211@GMAIL.COM",
    "categoryName": "HOME HEALTH AGENCY",
    "categoryCode": "HHA",
    "licenseStatus": "ACTIVE",
    "inService": true,
    "licenseNumber": "550005857",
    "licenseEffectiveDate": "11/02/2025",
    "licenseExpirationDate": "11/01/2026",
    "dataDate": "10/18/2025",
    "capacity": 0,
    "address": "17610 BELLFLOWER BLVD., SUITE A211",
    "city": "BELLFLOWER",
    "zip": "90706",
    "county": "LOS ANGELES",
    "phone": "(310) 279-8082",
    "lat": 33.87260356,
    "lng": -118.1250731
  },
  {
    "id": "960000872",
    "name": "ROSE DIVISION",
    "npi": "1477681773",
    "hcaiId": null,
    "businessName": "HARBOR HEALTH CARE, INC.",
    "contactEmail": "CHERYL@HARBORHEALTHCARE.ORG",
    "categoryName": "INTERMEDIATE CARE FACILITY-DD/H/N/CN/IID",
    "categoryCode": "ICFDDN",
    "licenseStatus": "ACTIVE",
    "inService": true,
    "licenseNumber": "960000480",
    "licenseEffectiveDate": "01/04/2025",
    "licenseExpirationDate": "01/03/2026",
    "dataDate": "10/18/2025",
    "capacity": 6,
    "address": "9632 ROSE ST",
    "city": "BELLFLOWER",
    "zip": "90706",
    "county": "LOS ANGELES",
    "phone": "(562) 866-7054",
    "lat": 33.86954848,
    "lng": -118.1282724
  },
  {
    "id": "940000014",
    "name": "ROSE VILLA HEALTHCARE CENTER",
    "npi": "1619976248",
    "hcaiId": "206190068",
    "businessName": "BELL VILLA CARE ASSOCIATES LLC",
    "contactEmail": "RENEWALS@ENSIGNSERVICES.NET",
    "categoryName": "SKILLED NURSING FACILITY",
    "categoryCode": "SNF",
    "licenseStatus": "ACTIVE",
    "inService": true,
    "licenseNumber": "940000017",
    "licenseEffectiveDate": "06/01/2025",
    "licenseExpirationDate": "05/31/2026",
    "dataDate": "10/18/2025",
    "capacity": 53,
    "address": "9028 ROSE ST",
    "city": "BELLFLOWER",
    "zip": "90706",
    "county": "LOS ANGELES",
    "phone": "(562) 925-4252",
    "lat": 33.869088,
    "lng": -118.141713
  },
  {
    "id": "630012841",
    "name": "STEWARD HOME HEALTH AGENCY, INC.",
    "npi": null,
    "hcaiId": "406197633",
    "businessName": "STEWARD HOME HEALTH AGENCY, INC.",
    "contactEmail": "STEWARDHOMEHEALTH@YAHOO.COM",
    "categoryName": "HOME HEALTH AGENCY",
    "categoryCode": "HHA",
    "licenseStatus": "ACTIVE",
    "inService": true,
    "licenseNumber": "550001708",
    "licenseEffectiveDate": "11/18/2024",
    "licenseExpirationDate": "11/17/2025",
    "dataDate": "10/18/2025",
    "capacity": 0,
    "address": "16446 WOODRUFF AVENUE, SUITE B",
    "city": "BELLFLOWER",
    "zip": "90706",
    "county": "LOS ANGELES",
    "phone": "(562) 869-6723",
    "lat": 33.883893,
    "lng": -118.117035
  },
  {
    "id": "630014161",
    "name": "STEWARD HOSPICE CARE INC",
    "npi": null,
    "hcaiId": "406197857",
    "businessName": "STEWARD HOSPICE CARE INC",
    "contactEmail": "DANIELSUH57@GMAIL.COM",
    "categoryName": "HOSPICE",
    "categoryCode": "HOSPICE",
    "licenseStatus": "ACTIVE",
    "inService": true,
    "licenseNumber": "550002463",
    "licenseEffectiveDate": "10/18/2025",
    "licenseExpirationDate": "10/17/2027",
    "dataDate": "10/18/2025",
    "capacity": 0,
    "address": "16446 WOODRUFF AVE., SUITE C",
    "city": "BELLFLOWER",
    "zip": "90706",
    "county": "LOS ANGELES",
    "phone": "(562) 291-2052",
    "lat": 33.883893,
    "lng": -118.117035
  },
  {
    "id": "630013015",
    "name": "THE CHILDREN'S CLINIC FAMILY HEALTH CENTER IN BELLFLOWER",
    "npi": null,
    "hcaiId": "306197625",
    "businessName": "THE CHILDREN'S CLINIC \"SERVING CHILDREN AND THEIR FAMILIES\"",
    "contactEmail": "JLAWLER@THECHILDRENSCLINIC.ORG",
    "categoryName": "PRIMARY CARE CLINIC",
    "categoryCode": "COMTYC",
    "licenseStatus": "ACTIVE",
    "inService": true,
    "licenseNumber": "960001378",
    "licenseEffectiveDate": "03/18/2025",
    "licenseExpirationDate": "03/17/2026",
    "dataDate": "10/18/2025",
    "capacity": 0,
    "address": "17660 LAKEWOOD BLVD",
    "city": "BELLFLOWER",
    "zip": "90706",
    "county": "LOS ANGELES",
    "phone": "(562) 933-0471",
    "lat": 33.871383,
    "lng": -118.1422575
  },
  {
    "id": "630027104",
    "name": "VIA CARE COMMUNITY HEALTH CENTER",
    "npi": "1497001226",
    "hcaiId": null,
    "businessName": "VIA CARE COMMUNITY HEALTH CENTER, INC.",
    "contactEmail": null,
    "categoryName": "PRIMARY CARE CLINIC",
    "categoryCode": "COMTYC",
    "licenseStatus": "ACTIVE",
    "inService": true,
    "licenseNumber": "960001182",
    "licenseEffectiveDate": "11/15/2025",
    "licenseExpirationDate": "11/14/2026",
    "dataDate": "10/18/2025",
    "capacity": 0,
    "address": "10230 ARTESIA BLVD, SUITE 207, 208, 209, 211, 218",
    "city": "BELLFLOWER",
    "zip": "90706",
    "county": "LOS ANGELES",
    "phone": null,
    "lat": 33.87283148,
    "lng": -118.1160425
  },
  {
    "id": "940000047",
    "name": "VILLA DEL SOL POST ACUTE",
    "npi": "1902531403",
    "hcaiId": "206190097",
    "businessName": "BELLFLOWER SKILLED, LLC",
    "contactEmail": "ADMIN@VILLADELSOLPOSTACUTE.COM",
    "categoryName": "SKILLED NURSING FACILITY",
    "categoryCode": "SNF",
    "licenseStatus": "ACTIVE",
    "inService": true,
    "licenseNumber": "940000020",
    "licenseEffectiveDate": "06/14/2025",
    "licenseExpirationDate": "06/13/2026",
    "dataDate": "10/18/2025",
    "capacity": 99,
    "address": "16910 WOODRUFF AVE",
    "city": "BELLFLOWER",
    "zip": "90706",
    "county": "LOS ANGELES",
    "phone": "(858) 603-3985",
    "lat": 33.880842,
    "lng": -118.116882
  },
  {
    "id": "960001656",
    "name": "WESLEY HEALTH CENTERS (BELLFLOWER)",
    "npi": "1538342704",
    "hcaiId": "306197623",
    "businessName": "JWCH INSTITUTE, INC.",
    "contactEmail": "ABALLESTEROS@JWCH.ORG",
    "categoryName": "PRIMARY CARE CLINIC",
    "categoryCode": "COMTYC",
    "licenseStatus": "ACTIVE",
    "inService": true,
    "licenseNumber": "960001445",
    "licenseEffectiveDate": "06/16/2025",
    "licenseExpirationDate": "06/15/2026",
    "dataDate": "10/18/2025",
    "capacity": 0,
    "address": "14371 CLARK AVE",
    "city": "BELLFLOWER",
    "zip": "90706",
    "county": "LOS ANGELES",
    "phone": "(213) 926-4278",
    "lat": 33.90323765,
    "lng": -118.1341294
  }
]