[
  {
    "id": "630014328",
    "name": "ABSOLUTE HOSPICE & PALLIATIVE CARE, INC.",
    "npi": "1760725568",
    "hcaiId": "406197875",
    "businessName": "ABSOLUTE HOSPICE & PALLIATIVE CARE, INC.",
    "contactEmail": "ABSOLUTEHPC@GMAIL.COM",
    "categoryName": "HOSPICE",
    "categoryCode": "HOSPICE",
    "licenseStatus": "ACTIVE",
    "inService": true,
    "licenseNumber": "550002545",
    "licenseEffectiveDate": "12/27/2023",
    "licenseExpirationDate": "12/26/2025",
    "dataDate": "10/18/2025",
    "capacity": 0,
    "address": "17215 STUDEBAKER RD, SUITE 215",
    "city": "CERRITOS",
    "zip": "90703",
    "county": "LOS ANGELES",
    "phone": "(562) 461-2512",
    "lat": 33.874605,
    "lng": -118.1003805
  },
  {
    "id": "630021075",
    "name": "ADLIFE HOSPICE INC.",
    "npi": null,
    "hcaiId": "406190247",
    "businessName": "ADLIFE HOSPICE INC.",
    "contactEmail": "ADMIN@ADLIFEHOSPICEINC.COM",
    "categoryName": "HOSPICE",
    "categoryCode": "HOSPICE",
    "licenseStatus": "ACTIVE",
    "inService": true,
    "licenseNumber": "550006387",
    "licenseEffectiveDate": "05/04/2025",
    "licenseExpirationDate": "05/03/2027",
    "dataDate": "10/18/2025",
    "capacity": 0,
    "address": "16468 NORWALK BLVD",
    "city": "CERRITOS",
    "zip": "90703",
    "county": "LOS ANGELES",
    "phone": "(562) 219-0557",
    "lat": 33.880923,
    "lng": -118.0716705
  },
  {
    "id": "630016289",
    "name": "ADVANCE SPECIALTY CARE NORTH, INC.",
    "npi": "1528440351",
    "hcaiId": "406074183",
    "businessName": "ADVANCE SPECIALTY CARE NORTH, INC.",
    "contactEmail": "INFONORTH@ASCHOMEHEALTH.NET",
    "categoryName": "HOME HEALTH AGENCY",
    "categoryCode": "HHA",
    "licenseStatus": "ACTIVE",
    "inService": true,
    "licenseNumber": "550004207",
    "licenseEffectiveDate": "02/08/2025",
    "licenseExpirationDate": "02/07/2026",
    "dataDate": "10/18/2025",
    "capacity": 0,
    "address": "17315 STUDEBAKER RD, SUITE 211",
    "city": "CERRITOS",
    "zip": "90703",
    "county": "LOS ANGELES",
    "phone": "(562) 685-8310",
    "lat": 33.873345,
    "lng": -118.100124
  },
  {
    "id": "980001808",
    "name": "AMICABLE HOMECARE, INC.",
    "npi": "1669477121",
    "hcaiId": "406197105",
    "businessName": "AMICABLE HOMECARE, INC.",
    "contactEmail": "AMICABLE@HHRGCONNECT.COM",
    "categoryName": "HOME HEALTH AGENCY",
    "categoryCode": "HHA",
    "licenseStatus": "ACTIVE",
    "inService": true,
    "licenseNumber": "980001109",
    "licenseEffectiveDate": "02/02/2025",
    "licenseExpirationDate": "02/01/2026",
    "dataDate": "10/18/2025",
    "capacity": 0,
    "address": "11829 SOUTH ST, # 100",
    "city": "CERRITOS",
    "zip": "90703",
    "county": "LOS ANGELES",
    "phone": "(562) 868-8881",
    "lat": 33.859224,
    "lng": -118.08108
  },
  {
    "id": "630015100",
    "name": "CALIFORNIA PROFESSIONAL HEALTH CARE",
    "npi": "1346664182",
    "hcaiId": "406198480",
    "businessName": "SOS HOSPICE INC.",
    "contactEmail": "CAPROFESSIONALHEALTHCARE@GMAIL.COM",
    "categoryName": "HOSPICE",
    "categoryCode": "HOSPICE",
    "licenseStatus": "ACTIVE",
    "inService": true,
    "licenseNumber": "550003910",
    "licenseEffectiveDate": "06/08/2023",
    "licenseExpirationDate": "06/07/2025",
    "dataDate": "10/18/2025",
    "capacity": 0,
    "address": "17326 EDWARDS RD, SUITE A205",
    "city": "CERRITOS",
    "zip": "90703",
    "county": "LOS ANGELES",
    "phone": "(562) 404-2955",
    "lat": 33.873867,
    "lng": -118.0337805
  },
  {
    "id": "630024005",
    "name": "CALPACIFIC HOME HEALTH",
    "npi": null,
    "hcaiId": null,
    "businessName": "CALPACIFIC HOME HEALTH",
    "contactEmail": "CALPACHOMEHEALTH@GMAIL.COM",
    "categoryName": "HOME HEALTH AGENCY",
    "categoryCode": "HHA",
    "licenseStatus": "ACTIVE",
    "inService": true,
    "licenseNumber": "550008577",
    "licenseEffectiveDate": "05/11/2025",
    "licenseExpirationDate": "05/10/2026",
    "dataDate": "10/18/2025",
    "capacity": 0,
    "address": "18000 STUDEBAKER RD, SUITE 785",
    "city": "CERRITOS",
    "zip": "90703",
    "county": "LOS ANGELES",
    "phone": "(562) 467-6988",
    "lat": 33.868575,
    "lng": -118.0968795
  },
  {
    "id": "930001767",
    "name": "CERRITOS DIALYSIS",
    "npi": "1255681011",
    "hcaiId": "306196337",
    "businessName": "TOTAL RENAL CARE, INC.",
    "contactEmail": "CAL_C@DAVITA.COM",
    "categoryName": "CHRONIC DIALYSIS CLINIC",
    "categoryCode": "ESRD/CDC",
    "licenseStatus": "ACTIVE",
    "inService": true,
    "licenseNumber": "930000982",
    "licenseEffectiveDate": "12/01/2024",
    "licenseExpirationDate": "11/30/2025",
    "dataDate": "10/18/2025",
    "capacity": 21,
    "address": "19222 PIONEER BLVD, SUITE 101",
    "city": "CERRITOS",
    "zip": "90703",
    "county": "LOS ANGELES",
    "phone": "(562) 924-9990",
    "lat": 33.855624,
    "lng": -118.08135
  },
  {
    "id": "930001687",
    "name": "CERRITOS ENDOSCOPIC MEDICAL CENTER",
    "npi": "1366633257",
    "hcaiId": null,
    "businessName": null,
    "contactEmail": "NONE@DHS.CA.GOV",
    "categoryName": "SURGICAL CLINIC",
    "categoryCode": "ASC",
    "licenseStatus": null,
    "inService": null,
    "licenseNumber": null,
    "licenseEffectiveDate": null,
    "licenseExpirationDate": null,
    "dataDate": "10/18/2025",
    "capacity": 0,
    "address": "11845 SOUTH ST",
    "city": "CERRITOS",
    "zip": "90703",
    "county": "LOS ANGELES",
    "phone": "(562) 809-8082",
    "lat": 33.858909,
    "lng": -118.080423
  },
  {
    "id": "630012577",
    "name": "CERRITOS SURGERY CENTER",
    "npi": "1316190077",
    "hcaiId": null,
    "businessName": null,
    "contactEmail": "ADVORTHO@CERRITOSSC.NET",
    "categoryName": "SURGICAL CLINIC",
    "categoryCode": "ASC",
    "licenseStatus": null,
    "inService": null,
    "licenseNumber": null,
    "licenseEffectiveDate": null,
    "licenseExpirationDate": null,
    "dataDate": "10/18/2025",
    "capacity": 0,
    "address": "16543 CARMENITA RD",
    "city": "CERRITOS",
    "zip": "90703",
    "county": "LOS ANGELES",
    "phone": "(562) 219-7251",
    "lat": 33.880941,
    "lng": -118.0470105
  },
  {
    "id": "630021630",
    "name": "COLLECTIVE HOSPICE CARE, INC.",
    "npi": null,
    "hcaiId": "406195250",
    "businessName": "COLLECTIVE HOSPICE CARE, INC.",
    "contactEmail": "CONTACT@COLLECTIVEHOSPICECARE.COM",
    "categoryName": "HOSPICE",
    "categoryCode": "HOSPICE",
    "licenseStatus": "ACTIVE",
    "inService": true,
    "licenseNumber": "550007251",
    "licenseEffectiveDate": "11/22/2023",
    "licenseExpirationDate": "11/21/2025",
    "dataDate": "10/18/2025",
    "capacity": 0,
    "address": "16220 MANNING WAY, UNIT 103",
    "city": "CERRITOS",
    "zip": "90703",
    "county": "LOS ANGELES",
    "phone": "(800) 615-8657",
    "lat": 33.88460399,
    "lng": -118.048206
  },
  {
    "id": "930000196",
    "name": "COLLEGE HOSPITAL",
    "npi": "1225016595",
    "hcaiId": "106190184",
    "businessName": "COLLEGE HOSPITAL INC.",
    "contactEmail": "LOUISEF@CHC.LA",
    "categoryName": "ACUTE PSYCHIATRIC HOSPITAL",
    "categoryCode": "APH",
    "licenseStatus": "ACTIVE",
    "inService": true,
    "licenseNumber": "930000036",
    "licenseEffectiveDate": "05/01/2025",
    "licenseExpirationDate": "04/30/2026",
    "dataDate": "10/18/2025",
    "capacity": 187,
    "address": "10802 COLLEGE PL",
    "city": "CERRITOS",
    "zip": "90703",
    "county": "LOS ANGELES",
    "phone": "(562) 924-9581",
    "lat": 33.884298,
    "lng": -118.1029275
  },
  {
    "id": "630027407",
    "name": "COMPREHENSIVE CARE HOME HEALTH AGENCY INC.",
    "npi": null,
    "hcaiId": null,
    "businessName": "COMPREHENSIVE CARE HOME HEALTH AGENCY INC",
    "contactEmail": "COMPREHENSIVE.CCHHA@YAHOO.COM",
    "categoryName": "HOME HEALTH AGENCY",
    "categoryCode": "HHA",
    "licenseStatus": "ACTIVE",
    "inService": true,
    "licenseNumber": "550009518",
    "licenseEffectiveDate": "11/11/2025",
    "licenseExpirationDate": "11/10/2026",
    "dataDate": "10/18/2025",
    "capacity": 0,
    "address": "19112 GRIDLEY RD, SUITE 200",
    "city": "CERRITOS",
    "zip": "90703",
    "county": "LOS ANGELES",
    "phone": "(562) 740-6661",
    "lat": 33.85710301,
    "lng": -118.090396
  },
  {
    "id": "980002295",
    "name": "EVERGREEN HOME HEALTH, INC.",
    "npi": "1104821537",
    "hcaiId": "406196324",
    "businessName": "EVERGREEN HOME HEALTH, INC.",
    "contactEmail": "JOHNNLYDIA@YAHOO.COM",
    "categoryName": "HOME HEALTH AGENCY",
    "categoryCode": "HHA",
    "licenseStatus": "ACTIVE",
    "inService": true,
    "licenseNumber": "980001410",
    "licenseEffectiveDate": "11/02/2025",
    "licenseExpirationDate": "11/01/2026",
    "dataDate": "10/18/2025",
    "capacity": 0,
    "address": "17215 STUDEBAKER RD, SUITE 270",
    "city": "CERRITOS",
    "zip": "90703",
    "county": "LOS ANGELES",
    "phone": "(562) 860-9444",
    "lat": 33.874695,
    "lng": -118.1003805
  },
  {
    "id": "630008563",
    "name": "EVERGREEN HOSPICE CARE, INC.",
    "npi": null,
    "hcaiId": "406196860",
    "businessName": "EVERGREEN HOSPICE CARE, INC.",
    "contactEmail": "JOHNNLYDIA@YAHOO.COM",
    "categoryName": "HOSPICE",
    "categoryCode": "HOSPICE",
    "licenseStatus": "ACTIVE",
    "inService": true,
    "licenseNumber": "550000319",
    "licenseEffectiveDate": "11/22/2024",
    "licenseExpirationDate": "11/21/2026",
    "dataDate": "10/18/2025",
    "capacity": 0,
    "address": "17215 STUDEBAKER RD, SUITE 100",
    "city": "CERRITOS",
    "zip": "90703",
    "county": "LOS ANGELES",
    "phone": "(562) 865-9006",
    "lat": 33.874497,
    "lng": -118.100277
  },
  {
    "id": "960001792",
    "name": "FELIZ HEALTH CARE CENTER",
    "npi": "1255415006",
    "hcaiId": null,
    "businessName": null,
    "contactEmail": "FELIZHEALTHCARE@HOTMAIL.COM",
    "categoryName": "INTERMEDIATE CARE FACILITY-DD/H/N/CN/IID",
    "categoryCode": "ICFDDH",
    "licenseStatus": "ACTIVE",
    "inService": true,
    "licenseNumber": "960000869",
    "licenseEffectiveDate": "06/13/2025",
    "licenseExpirationDate": "06/12/2026",
    "dataDate": "10/18/2025",
    "capacity": 6,
    "address": "17741 CORTNER AVE",
    "city": "CERRITOS",
    "zip": "90703",
    "county": "LOS ANGELES",
    "phone": "(310) 514-3513",
    "lat": 33.869376,
    "lng": -118.070163
  },
  {
    "id": "630022138",
    "name": "GREENFIELD HOSPICE AND PALLIATIVE CARE INC.",
    "npi": null,
    "hcaiId": "406195745",
    "businessName": "GREENFIELD HOSPICE AND PALLIATIVE CARE INC.",
    "contactEmail": "GREENFIELDHOSPICE@GMAIL.COM",
    "categoryName": "HOSPICE",
    "categoryCode": "HOSPICE",
    "licenseStatus": "ACTIVE",
    "inService": true,
    "licenseNumber": "550007724",
    "licenseEffectiveDate": "12/10/2023",
    "licenseExpirationDate": "12/09/2025",
    "dataDate": "10/18/2025",
    "capacity": 0,
    "address": "17315 STUDEBAKER RD, SUITE 214",
    "city": "CERRITOS",
    "zip": "90703",
    "county": "LOS ANGELES",
    "phone": "(562) 683-1183",
    "lat": 33.873345,
    "lng": -118.100124
  },
  {
    "id": "960000973",
    "name": "HARBOR HEALTH CARE, INC. - DESTINO DIVISION",
    "npi": "1437287711",
    "hcaiId": null,
    "businessName": "HARBOR HEALTH CARE, INC.",
    "contactEmail": "CHERYL@HARBORHEALTHCARE.ORG",
    "categoryName": "INTERMEDIATE CARE FACILITY-DD/H/N/CN/IID",
    "categoryCode": "ICFDDH",
    "licenseStatus": "ACTIVE",
    "inService": true,
    "licenseNumber": "960000527",
    "licenseEffectiveDate": "11/01/2024",
    "licenseExpirationDate": "10/31/2025",
    "dataDate": "10/18/2025",
    "capacity": 6,
    "address": "13556 DESTINO ST",
    "city": "CERRITOS",
    "zip": "90703",
    "county": "LOS ANGELES",
    "phone": "(562) 866-7054",
    "lat": 33.87114,
    "lng": -118.0423215
  },
  {
    "id": "980001769",
    "name": "HEALTHVIEW HOME HEALTH LLC",
    "npi": "1881226322",
    "hcaiId": "406194893",
    "businessName": "HEALTHVIEW HOME HEALTH LLC",
    "contactEmail": "SATLAS@HVHH.COM",
    "categoryName": "HOME HEALTH AGENCY",
    "categoryCode": "HHA",
    "licenseStatus": "ACTIVE",
    "inService": true,
    "licenseNumber": "980001034",
    "licenseEffectiveDate": "11/29/2024",
    "licenseExpirationDate": "11/28/2025",
    "dataDate": "10/18/2025",
    "capacity": 0,
    "address": "12750 CENTER COURT DR S, SUITE 670",
    "city": "CERRITOS",
    "zip": "90703",
    "county": "LOS ANGELES",
    "phone": "(323) 902-6000",
    "lat": 33.86761702,
    "lng": -118.060475
  },
  {
    "id": "630019798",
    "name": "HEALTHVIEW HOSPICE & PALLIATIVE CARE",
    "npi": "1548800840",
    "hcaiId": "406192986",
    "businessName": "HUNTINGTON HOSPICE CARE INC",
    "contactEmail": "MCUTIA@HVHH.COM",
    "categoryName": "HOSPICE",
    "categoryCode": "HOSPICE",
    "licenseStatus": "ACTIVE",
    "inService": true,
    "licenseNumber": "550005852",
    "licenseEffectiveDate": "05/20/2025",
    "licenseExpirationDate": "09/22/2026",
    "dataDate": "10/18/2025",
    "capacity": 0,
    "address": "12750 CENTER COURT DR S, SUITE 660",
    "city": "CERRITOS",
    "zip": "90703",
    "county": "LOS ANGELES",
    "phone": "(626) 505-1000",
    "lat": 33.8676254,
    "lng": -118.0604737
  },
  {
    "id": "980002363",
    "name": "HERALDS HOME HEALTH",
    "npi": "1609853142",
    "hcaiId": "406196710",
    "businessName": "HERALDS HOME HEALTH",
    "contactEmail": "ADMIN@HERALDSHOMEHEALTH.COM",
    "categoryName": "HOME HEALTH AGENCY",
    "categoryCode": "HHA",
    "licenseStatus": "ACTIVE",
    "inService": true,
    "licenseNumber": "980001473",
    "licenseEffectiveDate": "02/04/2025",
    "licenseExpirationDate": "02/03/2026",
    "dataDate": "10/18/2025",
    "capacity": 0,
    "address": "13047 ARTESIA BLVD, SUITE C200 1/2",
    "city": "CERRITOS",
    "zip": "90703",
    "county": "LOS ANGELES",
    "phone": "(562) 988-0395",
    "lat": 33.873561,
    "lng": -118.054197
  },
  {
    "id": "980002401",
    "name": "HOME CARE EXCELLENCE HEALTH SERVICES, INC.",
    "npi": "1114947660",
    "hcaiId": "406196477",
    "businessName": "HOME CARE EXCELLENCE HEALTH SERVICES, INC.",
    "contactEmail": "HOMECAREEXCELLENCE@GMAIL.COM",
    "categoryName": "HOME HEALTH AGENCY",
    "categoryCode": "HHA",
    "licenseStatus": "ACTIVE",
    "inService": true,
    "licenseNumber": "980001511",
    "licenseEffectiveDate": "02/22/2025",
    "licenseExpirationDate": "02/21/2026",
    "dataDate": "10/18/2025",
    "capacity": 0,
    "address": "10900 183RD ST, SUITE 190",
    "city": "CERRITOS",
    "zip": "90703",
    "county": "LOS ANGELES",
    "phone": "(562) 860-3424",
    "lat": 33.865074,
    "lng": -118.1021715
  },
  {
    "id": "630012615",
    "name": "HYGIEIA HOSPICE",
    "npi": "1720316805",
    "hcaiId": "406197473",
    "businessName": "PRUDENTIAL HOSPICE CARE, INC.",
    "contactEmail": "OSANTAANA@PRUDENTIALHC.COM",
    "categoryName": "HOSPICE",
    "categoryCode": "HOSPICE",
    "licenseStatus": "ACTIVE",
    "inService": true,
    "licenseNumber": "550001429",
    "licenseEffectiveDate": "11/29/2024",
    "licenseExpirationDate": "11/28/2026",
    "dataDate": "10/18/2025",
    "capacity": 0,
    "address": "13047 ARTESIA BLVD, SUITE C200",
    "city": "CERRITOS",
    "zip": "90703",
    "county": "LOS ANGELES",
    "phone": "(562) 924-1555",
    "lat": 33.873561,
    "lng": -118.054197
  },
  {
    "id": "240001881",
    "name": "KABAFUSION HH",
    "npi": null,
    "hcaiId": "406197892",
    "businessName": "STELLAR HEALTHCARE, INC.",
    "contactEmail": "KABAFUSIONLICENSING@KABAFUSION.COM",
    "categoryName": "HOME HEALTH AGENCY",
    "categoryCode": "HHA",
    "licenseStatus": "ACTIVE",
    "inService": true,
    "licenseNumber": "240000843",
    "licenseEffectiveDate": "10/24/2025",
    "licenseExpirationDate": "10/23/2026",
    "dataDate": "10/18/2025",
    "capacity": 0,
    "address": "17777 CENTER COURT DR N, SUITE 270",
    "city": "CERRITOS",
    "zip": "90703",
    "county": "LOS ANGELES",
    "phone": "(866) 539-8493",
    "lat": 33.86950601,
    "lng": -118.061199
  },
  {
    "id": "630015531",
    "name": "PACIFIC HOSPICE, LLC.",
    "npi": null,
    "hcaiId": "406198316",
    "businessName": "PACIFIC HOSPICE LLC",
    "contactEmail": "PACIFICHOSPICELLC@GMAIL.COM",
    "categoryName": "HOSPICE",
    "categoryCode": "HOSPICE",
    "licenseStatus": "ACTIVE",
    "inService": true,
    "licenseNumber": "550003647",
    "licenseEffectiveDate": "08/03/2024",
    "licenseExpirationDate": "08/02/2026",
    "dataDate": "10/18/2025",
    "capacity": 0,
    "address": "11829 SOUTH STREET, SUITE 103",
    "city": "CERRITOS",
    "zip": "90703",
    "county": "LOS ANGELES",
    "phone": "(562) 809-0988",
    "lat": 33.859089,
    "lng": -118.08117
  },
  {
    "id": "630015015",
    "name": "PAPILLON HOSPICE, LLC",
    "npi": null,
    "hcaiId": "406192207",
    "businessName": "PAPILLON HOSPICE, LLC",
    "contactEmail": "CAMERON@ALCAMMEDICAL.COM",
    "categoryName": "HOSPICE",
    "categoryCode": "HOSPICE",
    "licenseStatus": "ACTIVE",
    "inService": true,
    "licenseNumber": "550005175",
    "licenseEffectiveDate": "11/12/2021",
    "licenseExpirationDate": "11/11/2023",
    "dataDate": "10/18/2025",
    "capacity": 0,
    "address": "17316 EDWARDS RD, SUITE B135",
    "city": "CERRITOS",
    "zip": "90703",
    "county": "LOS ANGELES",
    "phone": "(562) 222-4487",
    "lat": 33.873957,
    "lng": -118.0337175
  },
  {
    "id": "240001929",
    "name": "PEOPLE'S CARE HOME HEALTH, INC.",
    "npi": "1205932605",
    "hcaiId": "406191523",
    "businessName": "PEOPLE'S CARE HOME HEALTH, INC.",
    "contactEmail": "HOMEHEALTH@PEOPLESCARE.ORG",
    "categoryName": "HOME HEALTH AGENCY",
    "categoryCode": "HHA",
    "licenseStatus": "ACTIVE",
    "inService": true,
    "licenseNumber": "240000876",
    "licenseEffectiveDate": "10/22/2022",
    "licenseExpirationDate": "10/21/2023",
    "dataDate": "10/18/2025",
    "capacity": 0,
    "address": "12611 HIDDENCREEK WAY, SUITE JK",
    "city": "CERRITOS",
    "zip": "90703",
    "county": "LOS ANGELES",
    "phone": "(562) 321-5109",
    "lat": 33.885648,
    "lng": -118.062936
  },
  {
    "id": "630011650",
    "name": "PEOPLE'S CARE HOSPICE, INC",
    "npi": "1902017916",
    "hcaiId": "406192036",
    "businessName": "PEOPLE'S CARE HOSPICE, INC.",
    "contactEmail": "ATORRES@PEOPLESCARE.ORG",
    "categoryName": "HOSPICE",
    "categoryCode": "HOSPICE",
    "licenseStatus": "ACTIVE",
    "inService": true,
    "licenseNumber": "550000963",
    "licenseEffectiveDate": "01/16/2024",
    "licenseExpirationDate": "10/21/2024",
    "dataDate": "10/18/2025",
    "capacity": 0,
    "address": "12611 HIDDENCREEK WAY, SUITE K",
    "city": "CERRITOS",
    "zip": "90703",
    "county": "LOS ANGELES",
    "phone": "(909) 203-7999",
    "lat": 33.88543502,
    "lng": -118.063078
  },
  {
    "id": "630011819",
    "name": "PRIVILEGE HOME SERVICES, INC.",
    "npi": null,
    "hcaiId": "406197305",
    "businessName": "PRIVILEGE HOME SERVICES, INC.",
    "contactEmail": "PRIVILEGEHOMESERVICESINC@GMAIL.COM",
    "categoryName": "HOME HEALTH AGENCY",
    "categoryCode": "HHA",
    "licenseStatus": "ACTIVE",
    "inService": true,
    "licenseNumber": "550001022",
    "licenseEffectiveDate": "11/10/2024",
    "licenseExpirationDate": "11/09/2025",
    "dataDate": "10/18/2025",
    "capacity": 0,
    "address": "11395 183RD ST",
    "city": "CERRITOS",
    "zip": "90703",
    "county": "LOS ANGELES",
    "phone": "(562) 468-0888",
    "lat": 33.866136,
    "lng": -118.092105
  },
  {
    "id": "980002138",
    "name": "PROVIDENCE HOSPICE LA COUNTY",
    "npi": null,
    "hcaiId": "406196419",
    "businessName": "PROVIDENCE TRINITYCARE HOSPICE",
    "contactEmail": null,
    "categoryName": "HOSPICE",
    "categoryCode": "HOSPICE",
    "licenseStatus": "ACTIVE",
    "inService": true,
    "licenseNumber": "980000880",
    "licenseEffectiveDate": "05/31/2024",
    "licenseExpirationDate": "05/30/2026",
    "dataDate": "10/18/2025",
    "capacity": 0,
    "address": "17315 STUDEBAKER RD, SUITE 101",
    "city": "CERRITOS",
    "zip": "90703",
    "county": "LOS ANGELES",
    "phone": "(310) 530-3800",
    "lat": 33.873318,
    "lng": -118.1001465
  },
  {
    "id": "980002448",
    "name": "RAE STAR HEALTH SYSTEMS, INC.",
    "npi": "1235344961",
    "hcaiId": "406196992",
    "businessName": "RAE STAR HEALTH SYSTEMS, INC.",
    "contactEmail": "RAESTAR_HSI@YAHOO.COM",
    "categoryName": "HOME HEALTH AGENCY",
    "categoryCode": "HHA",
    "licenseStatus": "ACTIVE",
    "inService": true,
    "licenseNumber": "980001554",
    "licenseEffectiveDate": "12/19/2024",
    "licenseExpirationDate": "12/18/2025",
    "dataDate": "10/18/2025",
    "capacity": 0,
    "address": "17215 STUDEBAKER ROAD, SUITE 175",
    "city": "CERRITOS",
    "zip": "90703",
    "county": "LOS ANGELES",
    "phone": "(562) 865-1340",
    "lat": 33.874497,
    "lng": -118.100277
  },
  {
    "id": "630013276",
    "name": "RELIANCE HOSPICE AND PALLIATIVE CARE",
    "npi": null,
    "hcaiId": "406197698",
    "businessName": "BURNET HOSPICE CARE INCORPORATION",
    "contactEmail": "LPHAN@CAREDIMENSIONSHC.COM",
    "categoryName": "HOSPICE",
    "categoryCode": "HOSPICE",
    "licenseStatus": "ACTIVE",
    "inService": true,
    "licenseNumber": "550001912",
    "licenseEffectiveDate": "01/15/2025",
    "licenseExpirationDate": "03/28/2026",
    "dataDate": "10/18/2025",
    "capacity": 0,
    "address": "17785 CENTER COURT DR N, SUITE 640",
    "city": "CERRITOS",
    "zip": "90703",
    "county": "LOS ANGELES",
    "phone": "(323) 446-4493",
    "lat": 33.86861015,
    "lng": -118.0616874
  },
  {
    "id": "980001657",
    "name": "RUNNING RIVER HOME HEALTH SERVICES",
    "npi": "1144374653",
    "hcaiId": "406196673",
    "businessName": "RUNNING RIVER HOME HEALTH SERVICES",
    "contactEmail": "RYANVILANO@RUNNINGRIVERHH.COM",
    "categoryName": "HOME HEALTH AGENCY",
    "categoryCode": "HHA",
    "licenseStatus": "ACTIVE",
    "inService": true,
    "licenseNumber": "980000977",
    "licenseEffectiveDate": "08/07/2024",
    "licenseExpirationDate": "08/06/2025",
    "dataDate": "10/18/2025",
    "capacity": 0,
    "address": "11110 ARTESIA BLVD., SUITE E",
    "city": "CERRITOS",
    "zip": "90703",
    "county": "LOS ANGELES",
    "phone": "(562) 474-1541",
    "lat": 33.872409,
    "lng": -118.097289
  },
  {
    "id": "980002184",
    "name": "THE CENTER OF HOME HEALTH, INC.",
    "npi": "1891749487",
    "hcaiId": "406196760",
    "businessName": "THE CENTER OF HOME HEALTH, INC.",
    "contactEmail": "THECENTEROFHOMEHEALTH@YAHOO.COM",
    "categoryName": "HOME HEALTH AGENCY",
    "categoryCode": "HHA",
    "licenseStatus": "ACTIVE",
    "inService": true,
    "licenseNumber": "980001309",
    "licenseEffectiveDate": "06/02/2025",
    "licenseExpirationDate": "06/01/2026",
    "dataDate": "10/18/2025",
    "capacity": 0,
    "address": "13017 ARTESIA BLVD, SUITE D210",
    "city": "CERRITOS",
    "zip": "90703",
    "county": "LOS ANGELES",
    "phone": "(310) 782-8100",
    "lat": 33.87376799,
    "lng": -118.054435
  },
  {
    "id": "630015915",
    "name": "UNITEDCARE HOSPICE, INC.",
    "npi": "1700281102",
    "hcaiId": "406190857",
    "businessName": "UNITEDCARE HOSPICE, INC.",
    "contactEmail": "ANGIE@UNITEDCAREHOSPICE.COM",
    "categoryName": "HOSPICE",
    "categoryCode": "HOSPICE",
    "licenseStatus": "ACTIVE",
    "inService": true,
    "licenseNumber": "550004097",
    "licenseEffectiveDate": "11/13/2025",
    "licenseExpirationDate": "11/12/2027",
    "dataDate": "10/18/2025",
    "capacity": 0,
    "address": "11080 ARTESIA BLVD., SUITE D",
    "city": "CERRITOS",
    "zip": "90703",
    "county": "LOS ANGELES",
    "phone": "(562) 584-4072",
    "lat": 33.87141,
    "lng": -118.0975995
  },
  {
    "id": "630019863",
    "name": "VALHALLA HOSPICE LLC",
    "npi": null,
    "hcaiId": null,
    "businessName": "VALHALLA HOSPICE LLC",
    "contactEmail": "ADMIN@VALHALLAHOSPICE.COM",
    "categoryName": "HOSPICE",
    "categoryCode": "HOSPICE",
    "licenseStatus": "ACTIVE",
    "inService": true,
    "licenseNumber": "550005804",
    "licenseEffectiveDate": "09/19/2025",
    "licenseExpirationDate": "10/05/2026",
    "dataDate": "10/18/2025",
    "capacity": 0,
    "address": "13737 ARTESIA BOULEVARD, SUITE 207",
    "city": "CERRITOS",
    "zip": "90703",
    "county": "LOS ANGELES",
    "phone": "(714) 583-7002",
    "lat": 33.87361557,
    "lng": -118.038647
  }
]