[
  {
    "id": "630019892",
    "name": "AMBASSADORE HEALTH CARE, INC.",
    "npi": null,
    "hcaiId": "406195182",
    "businessName": "AMBASSADORE HEALTH CARE, INC.",
    "contactEmail": "CEO@AMBASSADOREHEALTHCARE.COM",
    "categoryName": "HOME HEALTH AGENCY",
    "categoryCode": "HHA",
    "licenseStatus": "ACTIVE",
    "inService": true,
    "licenseNumber": "550005983",
    "licenseEffectiveDate": "01/21/2025",
    "licenseExpirationDate": "01/20/2026",
    "dataDate": "10/18/2025",
    "capacity": 0,
    "address": "17100 PIONEER BLVD, SUITE 270",
    "city": "ARTESIA",
    "zip": "90701",
    "county": "LOS ANGELES",
    "phone": "(562) 409-4110",
    "lat": 33.87542956,
    "lng": -118.0821926
  },
  {
    "id": "940000093",
    "name": "ARTESIA CHRISTIAN HOME INC.",
    "npi": "1164508180",
    "hcaiId": "206190618",
    "businessName": "ARTESIA CHRISTIAN HOME INC",
    "contactEmail": "MICHELLER@ACHOME.ORG",
    "categoryName": "SKILLED NURSING FACILITY",
    "categoryCode": "SNF",
    "licenseStatus": "ACTIVE",
    "inService": true,
    "licenseNumber": "940000136",
    "licenseEffectiveDate": "12/01/2024",
    "licenseExpirationDate": "11/30/2025",
    "dataDate": "10/18/2025",
    "capacity": 66,
    "address": "11614 183RD ST",
    "city": "ARTESIA",
    "zip": "90701",
    "county": "LOS ANGELES",
    "phone": "(562) 865-5218",
    "lat": 33.86475,
    "lng": -118.0859445
  },
  {
    "id": "940000111",
    "name": "ARTESIA PALMS CARE CENTER",
    "npi": "1083320774",
    "hcaiId": "206190795",
    "businessName": "ARTESIA COMMUNITY HEALTHCARE, LLC",
    "contactEmail": "ROBIN.VIELMANN@ARTESIAPALMSCC.COM",
    "categoryName": "SKILLED NURSING FACILITY",
    "categoryCode": "SNF",
    "licenseStatus": "ACTIVE",
    "inService": true,
    "licenseNumber": "940000166",
    "licenseEffectiveDate": "12/26/2024",
    "licenseExpirationDate": "12/25/2025",
    "dataDate": "10/18/2025",
    "capacity": 296,
    "address": "11900 ARTESIA BLVD",
    "city": "ARTESIA",
    "zip": "90701",
    "county": "LOS ANGELES",
    "phone": "(562) 865-0271",
    "lat": 33.872526,
    "lng": -118.0792845
  },
  {
    "id": "630019059",
    "name": "BLESSING HOSPICE CARE, INC.",
    "npi": "1093373417",
    "hcaiId": "406192002",
    "businessName": "BLESSING HOSPICE CARE, INC.",
    "contactEmail": "BLESSINGHOSPICECARE@GMAIL.COM",
    "categoryName": "HOSPICE",
    "categoryCode": "HOSPICE",
    "licenseStatus": "ACTIVE",
    "inService": true,
    "licenseNumber": "550005062",
    "licenseEffectiveDate": "01/30/2024",
    "licenseExpirationDate": "11/07/2025",
    "dataDate": "10/18/2025",
    "capacity": 0,
    "address": "11428 ARTESIA BLVD, SUITE 11",
    "city": "ARTESIA",
    "zip": "90701",
    "county": "LOS ANGELES",
    "phone": "(818) 649-9790",
    "lat": 33.872655,
    "lng": -118.09004
  },
  {
    "id": "630014127",
    "name": "C V HOSPICE CARE",
    "npi": null,
    "hcaiId": "406197850",
    "businessName": "C V HOSPICE CARE, INC.",
    "contactEmail": "CVHOSPICECARE@GMAIL.COM",
    "categoryName": "HOSPICE",
    "categoryCode": "HOSPICE",
    "licenseStatus": "ACTIVE",
    "inService": true,
    "licenseNumber": "550002462",
    "licenseEffectiveDate": "10/16/2025",
    "licenseExpirationDate": "10/15/2027",
    "dataDate": "10/18/2025",
    "capacity": 0,
    "address": "12140 ARTESIA BLVD, SUITE 214",
    "city": "ARTESIA",
    "zip": "90701",
    "county": "LOS ANGELES",
    "phone": "(562) 809-5789",
    "lat": 33.87276,
    "lng": -118.0732995
  },
  {
    "id": "630007981",
    "name": "D & B HEALTH CARE PROFESSIONALS BURBANK, INC.",
    "npi": null,
    "hcaiId": "406196925",
    "businessName": "D & B HEALTH CARE PROFESSIONALS BURBANK, INC.",
    "contactEmail": "DNBHEALTHCARE@GMAIL.COM",
    "categoryName": "HOME HEALTH AGENCY",
    "categoryCode": "HHA",
    "licenseStatus": "ACTIVE",
    "inService": true,
    "licenseNumber": "550000413",
    "licenseEffectiveDate": "12/04/2024",
    "licenseExpirationDate": "12/03/2025",
    "dataDate": "10/18/2025",
    "capacity": 0,
    "address": "12140 ARTESIA BLVD., SUITE 202",
    "city": "ARTESIA",
    "zip": "90701",
    "county": "LOS ANGELES",
    "phone": "(818) 848-8887",
    "lat": 33.87276,
    "lng": -118.0732995
  },
  {
    "id": "630020739",
    "name": "DAVIDA HOSPICE, INC.",
    "npi": null,
    "hcaiId": "406196248",
    "businessName": "DAVIDA HOSPICE, INC.",
    "contactEmail": "DHOSPICEINC@GMAIL.COM",
    "categoryName": "HOSPICE",
    "categoryCode": "HOSPICE",
    "licenseStatus": "ACTIVE",
    "inService": true,
    "licenseNumber": "550007395",
    "licenseEffectiveDate": "12/02/2023",
    "licenseExpirationDate": "12/01/2025",
    "dataDate": "10/18/2025",
    "capacity": 0,
    "address": "11428 ARTESIA BLVD, SUITE 13",
    "city": "ARTESIA",
    "zip": "90701",
    "county": "LOS ANGELES",
    "phone": "(562) 403-3133",
    "lat": 33.872562,
    "lng": -118.0900305
  },
  {
    "id": "980001947",
    "name": "EAST WEST HOME HEALTH",
    "npi": "1336545706",
    "hcaiId": "406197016",
    "businessName": "GLOBAL MEDICAL SERVICE, INC,",
    "contactEmail": "ALEX@EWHOMEHEALTH.COM",
    "categoryName": "HOME HEALTH AGENCY",
    "categoryCode": "HHA",
    "licenseStatus": "ACTIVE",
    "inService": true,
    "licenseNumber": "980001134",
    "licenseEffectiveDate": "06/03/2025",
    "licenseExpirationDate": "06/02/2026",
    "dataDate": "10/18/2025",
    "capacity": 0,
    "address": "17100 PIONEER BLVD, SUITE 311",
    "city": "ARTESIA",
    "zip": "90701",
    "county": "LOS ANGELES",
    "phone": "(562) 207-6970",
    "lat": 33.87574399,
    "lng": -118.08075
  },
  {
    "id": "630017876",
    "name": "HADASSA HOSPICE",
    "npi": null,
    "hcaiId": "406190316",
    "businessName": "OLIVE BRANCH HOSPICE INC",
    "contactEmail": "ADMIN@OLIVEBRANCHHOSPICE.ORG",
    "categoryName": "HOSPICE",
    "categoryCode": "HOSPICE",
    "licenseStatus": "ACTIVE",
    "inService": true,
    "licenseNumber": "550005938",
    "licenseEffectiveDate": "11/20/2024",
    "licenseExpirationDate": "11/19/2026",
    "dataDate": "10/18/2025",
    "capacity": 0,
    "address": "11428 ARTESIA BLVD, SUITE 27",
    "city": "ARTESIA",
    "zip": "90701",
    "county": "LOS ANGELES",
    "phone": "(714) 941-0853",
    "lat": 33.872562,
    "lng": -118.0900305
  },
  {
    "id": "630026616",
    "name": "HOME HEALTH CARE OF THE EAST, INC.",
    "npi": null,
    "hcaiId": null,
    "businessName": "HOME HEALTH CARE OF THE EAST, INC.",
    "contactEmail": "INFO.EASTHOMEHEALTH@GMAIL.COM",
    "categoryName": "HOME HEALTH AGENCY",
    "categoryCode": "HHA",
    "licenseStatus": "ACTIVE",
    "inService": true,
    "licenseNumber": "550009739",
    "licenseEffectiveDate": "09/13/2025",
    "licenseExpirationDate": "03/12/2026",
    "dataDate": "10/18/2025",
    "capacity": 0,
    "address": "11911 ARTESIA BLVD, SUITE 206B",
    "city": "ARTESIA",
    "zip": "90701",
    "county": "LOS ANGELES",
    "phone": "(562) 474-1238",
    "lat": 33.873687,
    "lng": -118.079712
  },
  {
    "id": "630020040",
    "name": "HOSPICE OF THE EAST AND PALLIATIVE CARE INC.",
    "npi": null,
    "hcaiId": "406193628",
    "businessName": "HOSPICE OF THE EAST AND PALLIATIVE CARE INC.",
    "contactEmail": "EASTHOSPICE@GMAIL.COM",
    "categoryName": "HOSPICE",
    "categoryCode": "HOSPICE",
    "licenseStatus": "ACTIVE",
    "inService": true,
    "licenseNumber": "550006456",
    "licenseEffectiveDate": "06/28/2025",
    "licenseExpirationDate": "06/27/2027",
    "dataDate": "10/18/2025",
    "capacity": 0,
    "address": "11911 ARTESIA BLVD, SUITE 206A",
    "city": "CERRITOS",
    "zip": "90701",
    "county": "LOS ANGELES",
    "phone": "(562) 474-1099",
    "lat": 33.873687,
    "lng": -118.079712
  },
  {
    "id": "960002036",
    "name": "JENYMEL'S HOME CARE INC. III",
    "npi": "1811156524",
    "hcaiId": null,
    "businessName": "JENYMEL'S HOME CARE, INC.",
    "contactEmail": "JENYMELSHOME@GMAIL.COM",
    "categoryName": "INTERMEDIATE CARE FACILITY-DD/H/N/CN/IID",
    "categoryCode": "ICFDDH",
    "licenseStatus": "ACTIVE",
    "inService": true,
    "licenseNumber": "960000977",
    "licenseEffectiveDate": "04/23/2025",
    "licenseExpirationDate": "04/22/2026",
    "dataDate": "10/18/2025",
    "capacity": 6,
    "address": "18314 IBEX AVE",
    "city": "ARTESIA",
    "zip": "90701",
    "county": "LOS ANGELES",
    "phone": "(714) 875-0581",
    "lat": 33.865254,
    "lng": -118.0732365
  },
  {
    "id": "960001723",
    "name": "JENYMEL'S HOME CARE, INC. II",
    "npi": "1811156524",
    "hcaiId": null,
    "businessName": "JENYMEL'S HOME CARE, INC.",
    "contactEmail": "JENYMELS@AOL.COM",
    "categoryName": "INTERMEDIATE CARE FACILITY-DD/H/N/CN/IID",
    "categoryCode": "ICFDDH",
    "licenseStatus": "ACTIVE",
    "inService": true,
    "licenseNumber": "960000846",
    "licenseEffectiveDate": "04/23/2025",
    "licenseExpirationDate": "04/22/2026",
    "dataDate": "10/18/2025",
    "capacity": 6,
    "address": "12108 HIBBING ST",
    "city": "ARTESIA",
    "zip": "90701",
    "county": "LOS ANGELES",
    "phone": "(714) 875-0581",
    "lat": 33.857082,
    "lng": -118.074375
  },
  {
    "id": "630010441",
    "name": "LA METROPOLITAN HOME HEALTH INCORPORATED",
    "npi": "1730352378",
    "hcaiId": "406197063",
    "businessName": "LA METROPOLITAN HOME HEALTH INC.",
    "contactEmail": "ADMINISTRATOR@LAMETROPOLITAN.COM",
    "categoryName": "HOME HEALTH AGENCY",
    "categoryCode": "HHA",
    "licenseStatus": "ACTIVE",
    "inService": true,
    "licenseNumber": "550000441",
    "licenseEffectiveDate": "05/08/2025",
    "licenseExpirationDate": "05/07/2026",
    "dataDate": "10/18/2025",
    "capacity": 0,
    "address": "17100 PIONEER BLVD, SUITE 313",
    "city": "ARTESIA",
    "zip": "90701",
    "county": "LOS ANGELES",
    "phone": "(562) 246-0770",
    "lat": 33.87542956,
    "lng": -118.0821926
  },
  {
    "id": "980002279",
    "name": "NEURORESTORATIVE CALIFORNIA",
    "npi": null,
    "hcaiId": "206196319",
    "businessName": "CAREMERIDIAN, LLC",
    "contactEmail": "SHIRLEY.LUONG@SEVITAHEALTH.COM",
    "categoryName": "CONGREGATE LIVING HEALTH FACILITY",
    "categoryCode": "CLHF",
    "licenseStatus": "ACTIVE",
    "inService": true,
    "licenseNumber": "980001399",
    "licenseEffectiveDate": "11/01/2025",
    "licenseExpirationDate": "10/31/2026",
    "dataDate": "10/18/2025",
    "capacity": 10,
    "address": "17724 GRIDLEY RD",
    "city": "ARTESIA",
    "zip": "90701",
    "county": "LOS ANGELES",
    "phone": "(562) 865-0809",
    "lat": 33.869619,
    "lng": -118.090575
  },
  {
    "id": "980002456",
    "name": "NURSES PLUS HOSPICE",
    "npi": "1477623460",
    "hcaiId": "406197002",
    "businessName": "NURSES PLUS HOSPICE, INC.",
    "contactEmail": "NURSESPLUSHOSPICEOFFICE@GMAIL.COM",
    "categoryName": "HOSPICE",
    "categoryCode": "HOSPICE",
    "licenseStatus": "ACTIVE",
    "inService": true,
    "licenseNumber": "980001562",
    "licenseEffectiveDate": "01/16/2025",
    "licenseExpirationDate": "11/05/2026",
    "dataDate": "10/18/2025",
    "capacity": 0,
    "address": "11428 ARTESIA BLVD, SUITE 3",
    "city": "ARTESIA",
    "zip": "90701",
    "county": "LOS ANGELES",
    "phone": "(562) 653-9347",
    "lat": 33.87258912,
    "lng": -118.090035
  },
  {
    "id": "630014324",
    "name": "PASSIONATE HEART HOSPICE, INC",
    "npi": "1366885154",
    "hcaiId": "406198015",
    "businessName": "PASSIONATE HEART HOSPICE, INC.",
    "contactEmail": "MARCO.VEDEO@PASSIONATEHOSPICE.COM",
    "categoryName": "HOSPICE",
    "categoryCode": "HOSPICE",
    "licenseStatus": "ACTIVE",
    "inService": true,
    "licenseNumber": "550002481",
    "licenseEffectiveDate": "10/16/2025",
    "licenseExpirationDate": "10/15/2027",
    "dataDate": "10/18/2025",
    "capacity": 0,
    "address": "17100 PIONEER BLVD, SUITE 315",
    "city": "ARTESIA",
    "zip": "90701",
    "county": "LOS ANGELES",
    "phone": "(818) 541-9400",
    "lat": 33.87574399,
    "lng": -118.08075
  },
  {
    "id": "630017472",
    "name": "PURE CARE HOSPICE INC.",
    "npi": null,
    "hcaiId": "406192531",
    "businessName": "PURE CARE HOSPICE INC.",
    "contactEmail": "PURECAREHOSPICE@GMAIL.COM",
    "categoryName": "HOSPICE",
    "categoryCode": "HOSPICE",
    "licenseStatus": "ACTIVE",
    "inService": true,
    "licenseNumber": "550005297",
    "licenseEffectiveDate": "02/13/2024",
    "licenseExpirationDate": "02/12/2026",
    "dataDate": "10/18/2025",
    "capacity": 0,
    "address": "11911 ARTESIA BLVD, SUITE 208",
    "city": "CERRITOS",
    "zip": "90701",
    "county": "LOS ANGELES",
    "phone": "(562) 474-1690",
    "lat": 33.873687,
    "lng": -118.079712
  },
  {
    "id": "630016161",
    "name": "SDKJ FOREVER, LLC",
    "npi": "1689051559",
    "hcaiId": "406191840",
    "businessName": "SDKJ FOREVER, LLC",
    "contactEmail": "SDKJFOREVER@GMAIL.COM",
    "categoryName": "HOSPICE",
    "categoryCode": "HOSPICE",
    "licenseStatus": "ACTIVE",
    "inService": true,
    "licenseNumber": "550004705",
    "licenseEffectiveDate": "05/24/2023",
    "licenseExpirationDate": "05/23/2025",
    "dataDate": "10/18/2025",
    "capacity": 0,
    "address": "11428 E. ARTESIA BLVD., SUITE 26",
    "city": "ARTESIA",
    "zip": "90701",
    "county": "LOS ANGELES",
    "phone": "(800) 407-1545",
    "lat": 33.872562,
    "lng": -118.0900305
  },
  {
    "id": "630017503",
    "name": "SMILE ADULT DAY HEALTH CENTER",
    "npi": null,
    "hcaiId": null,
    "businessName": "SMILE ADULT DAY HEALTH CARE, INC.",
    "contactEmail": "SMILEADHC@GMAIL.COM",
    "categoryName": "ADULT DAY HEALTH CARE",
    "categoryCode": "ADHC",
    "licenseStatus": "ACTIVE",
    "inService": true,
    "licenseNumber": "550004760",
    "licenseEffectiveDate": "06/17/2025",
    "licenseExpirationDate": "06/16/2026",
    "dataDate": "10/18/2025",
    "capacity": 0,
    "address": "12220 SOUTH ST",
    "city": "ARTESIA",
    "zip": "90701",
    "county": "LOS ANGELES",
    "phone": "(562) 402-0111",
    "lat": 33.857982,
    "lng": -118.071405
  },
  {
    "id": "630018994",
    "name": "TOPANGA HOSPICE CARE, INC.",
    "npi": "1528627106",
    "hcaiId": "406191912",
    "businessName": "TOPANGA HOSPICE CARE, INC.",
    "contactEmail": "TOPANGAHOSPICECAREINC@GMAIL.COM",
    "categoryName": "HOSPICE",
    "categoryCode": "HOSPICE",
    "licenseStatus": "ACTIVE",
    "inService": true,
    "licenseNumber": "550004871",
    "licenseEffectiveDate": "08/28/2023",
    "licenseExpirationDate": "08/27/2025",
    "dataDate": "10/18/2025",
    "capacity": 0,
    "address": "18300 GRIDLEY RD, SUITE G",
    "city": "ARTESIA",
    "zip": "90701",
    "county": "LOS ANGELES",
    "phone": "(818) 405-0646",
    "lat": 33.864912,
    "lng": -118.0903185
  },
  {
    "id": "630021415",
    "name": "ZINNIA HOSPICE CARE, INC.",
    "npi": null,
    "hcaiId": "406194820",
    "businessName": "ZINNIA HOSPICE CARE, INC.",
    "contactEmail": "ZINNIAHOSPICE@GMAIL.COM",
    "categoryName": "HOSPICE",
    "categoryCode": "HOSPICE",
    "licenseStatus": "ACTIVE",
    "inService": true,
    "licenseNumber": "550007225",
    "licenseEffectiveDate": "11/22/2023",
    "licenseExpirationDate": "11/21/2025",
    "dataDate": "10/18/2025",
    "capacity": 0,
    "address": "18012 PIONEER BLVD, SUITE D",
    "city": "ARTESIA",
    "zip": "90701",
    "county": "LOS ANGELES",
    "phone": "(562) 377-7199",
    "lat": 33.867201,
    "lng": -118.082137
  }
]