[
  {
    "id": "630021631",
    "name": "EVERCLEAR HOSPICE & PALLIATIVE CARE, INC.",
    "npi": null,
    "hcaiId": "406193191",
    "businessName": "EVERCLEAR HOSPICE & PALLIATIVE CARE, INC.",
    "contactEmail": "MELR@EVERCLEARHOSPICE.COM",
    "categoryName": "HOSPICE",
    "categoryCode": "HOSPICE",
    "licenseStatus": "ACTIVE",
    "inService": true,
    "licenseNumber": "550007028",
    "licenseEffectiveDate": "10/27/2023",
    "licenseExpirationDate": "10/26/2025",
    "dataDate": "10/18/2025",
    "capacity": 0,
    "address": "25835 NARBONNE AVE, SUITE 277",
    "city": "LOMITA",
    "zip": "90717",
    "county": "LOS ANGELES",
    "phone": "(310) 894-9401",
    "lat": 33.788484,
    "lng": -118.3208445
  },
  {
    "id": "060001934",
    "name": "FAMILY ADHC - LOMITA",
    "npi": null,
    "hcaiId": null,
    "businessName": "FAMILY ADULT DAY HEALTH CARE, INC.",
    "contactEmail": "FAMILYADHC@GMAIL.COM",
    "categoryName": "ADULT DAY HEALTH CARE",
    "categoryCode": "ADHC",
    "licenseStatus": "ACTIVE",
    "inService": true,
    "licenseNumber": "060000751",
    "licenseEffectiveDate": "01/15/2025",
    "licenseExpirationDate": "01/14/2026",
    "dataDate": "10/18/2025",
    "capacity": 0,
    "address": "2280 LOMITA BLVD",
    "city": "LOMITA",
    "zip": "90717",
    "county": "LOS ANGELES",
    "phone": "(310) 602-0123",
    "lat": 33.8033848,
    "lng": -118.3223896
  },
  {
    "id": "630013119",
    "name": "GANDSE HOME HEALTH CARE INC.",
    "npi": "1265722623",
    "hcaiId": "406197659",
    "businessName": "GANDSE HOME HEALTH CARE INC.",
    "contactEmail": "INFO@GANDSEHOMEHEALTH.COM",
    "categoryName": "HOME HEALTH AGENCY",
    "categoryCode": "HHA",
    "licenseStatus": "ACTIVE",
    "inService": true,
    "licenseNumber": "550001843",
    "licenseEffectiveDate": "02/02/2025",
    "licenseExpirationDate": "02/01/2026",
    "dataDate": "10/18/2025",
    "capacity": 0,
    "address": "26302 WESTERN AVE, SUITE 4",
    "city": "LOMITA",
    "zip": "90717",
    "county": "LOS ANGELES",
    "phone": "(310) 344-5924",
    "lat": 33.78354346,
    "lng": -118.309815
  },
  {
    "id": "910000055",
    "name": "LOMITA POST-ACUTE CARE CENTER",
    "npi": "1720791346",
    "hcaiId": "206190472",
    "businessName": "SUNGAZER HEALTHCARE, INC.",
    "contactEmail": "KARMSTRONG@ENSIGNSERVICES.NET",
    "categoryName": "SKILLED NURSING FACILITY",
    "categoryCode": "SNF",
    "licenseStatus": "ACTIVE",
    "inService": true,
    "licenseNumber": "910000074",
    "licenseEffectiveDate": "04/10/2025",
    "licenseExpirationDate": "04/09/2026",
    "dataDate": "10/18/2025",
    "capacity": 71,
    "address": "1955 LOMITA BLVD",
    "city": "LOMITA",
    "zip": "90717",
    "county": "LOS ANGELES",
    "phone": "(310) 325-1970",
    "lat": 33.800202,
    "lng": -118.3135815
  },
  {
    "id": "960000997",
    "name": "MOMENTUM AGENCIES ICF/DD-H HARBOR",
    "npi": "1518119775",
    "hcaiId": null,
    "businessName": "MOMENTUM AGENCIES",
    "contactEmail": "CJONES@MOMENTUM4ALL.ORG",
    "categoryName": "INTERMEDIATE CARE FACILITY-DD/H/N/CN/IID",
    "categoryCode": "ICFDDH",
    "licenseStatus": "ACTIVE",
    "inService": true,
    "licenseNumber": "960000537",
    "licenseEffectiveDate": "12/18/2024",
    "licenseExpirationDate": "12/17/2025",
    "dataDate": "10/18/2025",
    "capacity": 15,
    "address": "1729 252ND ST",
    "city": "LOMITA",
    "zip": "90717",
    "county": "LOS ANGELES",
    "phone": "(310) 326-0089",
    "lat": 33.796044,
    "lng": -118.308573
  },
  {
    "id": "630012842",
    "name": "OMEGA HOME HEALTH CARE SERVICES",
    "npi": "1346567708",
    "hcaiId": "406197735",
    "businessName": "OMEGA HOME HEALTH SERVICES, INC.",
    "contactEmail": "OMEGAHOMECARES@GMAIL.COM",
    "categoryName": "HOME HEALTH AGENCY",
    "categoryCode": "HHA",
    "licenseStatus": "ACTIVE",
    "inService": true,
    "licenseNumber": "550001956",
    "licenseEffectiveDate": "06/01/2025",
    "licenseExpirationDate": "05/31/2026",
    "dataDate": "10/18/2025",
    "capacity": 0,
    "address": "2049 PACIFIC COAST HWY, SUITE 103",
    "city": "LOMITA",
    "zip": "90717",
    "county": "LOS ANGELES",
    "phone": "(310) 530-1100",
    "lat": 33.78956186,
    "lng": -118.3163248
  },
  {
    "id": "910000068",
    "name": "PALOS VERDES HEALTH CARE CENTER",
    "npi": "1104817071",
    "hcaiId": "206190614",
    "businessName": "ALLELO & ASSOCIATES",
    "contactEmail": "ADMINISTRATOR@PALOSVERDESHEALTHCARECENTER.COM",
    "categoryName": "SKILLED NURSING FACILITY",
    "categoryCode": "SNF",
    "licenseStatus": "ACTIVE",
    "inService": true,
    "licenseNumber": "910000088",
    "licenseEffectiveDate": "11/21/2024",
    "licenseExpirationDate": "11/20/2025",
    "dataDate": "10/18/2025",
    "capacity": 48,
    "address": "26303 WESTERN AVE",
    "city": "LOMITA",
    "zip": "90717",
    "county": "LOS ANGELES",
    "phone": "(310) 291-5173",
    "lat": 33.783399,
    "lng": -118.3105035
  },
  {
    "id": "630013190",
    "name": "SALUTE HOSPICE INC.",
    "npi": "1568753358",
    "hcaiId": "406197848",
    "businessName": "SALUTE HOSPICE, INC",
    "contactEmail": "DLITTLE@SALUTEHOSPICE.COM",
    "categoryName": "HOSPICE",
    "categoryCode": "HOSPICE",
    "licenseStatus": "ACTIVE",
    "inService": true,
    "licenseNumber": "550002127",
    "licenseEffectiveDate": "11/02/2024",
    "licenseExpirationDate": "11/01/2026",
    "dataDate": "10/18/2025",
    "capacity": 0,
    "address": "25835 NARBONNE AVE, SUITE 280C",
    "city": "LOMITA",
    "zip": "90717",
    "county": "LOS ANGELES",
    "phone": "(818) 638-8522",
    "lat": 33.788529,
    "lng": -118.3209975
  },
  {
    "id": "630017669",
    "name": "SUNSHINE 1 CONGREGATE HOME INC.",
    "npi": null,
    "hcaiId": "206190155",
    "businessName": "SUNSHINE 1 CONGREGATE HOME INC.",
    "contactEmail": "LOMITAHOME1@GMAIL.COM",
    "categoryName": "CONGREGATE LIVING HEALTH FACILITY",
    "categoryCode": "CLHF",
    "licenseStatus": "ACTIVE",
    "inService": true,
    "licenseNumber": "550004804",
    "licenseEffectiveDate": "06/13/2025",
    "licenseExpirationDate": "06/12/2026",
    "dataDate": "10/18/2025",
    "capacity": 6,
    "address": "1721 W 242ND ST",
    "city": "LOMITA",
    "zip": "90717",
    "county": "LOS ANGELES",
    "phone": "(424) 347-7065",
    "lat": 33.805935,
    "lng": -118.3084245
  },
  {
    "id": "930000930",
    "name": "U.S. RENAL CARE LOMITA DIALYSIS",
    "npi": "1801397526",
    "hcaiId": "306194257",
    "businessName": "USRC LOMITA, LLC",
    "contactEmail": "LICENSING@USRENALCARE.COM",
    "categoryName": "CHRONIC DIALYSIS CLINIC",
    "categoryCode": "ESRD/CDC",
    "licenseStatus": "ACTIVE",
    "inService": true,
    "licenseNumber": "930000464",
    "licenseEffectiveDate": "12/01/2024",
    "licenseExpirationDate": "11/30/2025",
    "dataDate": "10/18/2025",
    "capacity": 21,
    "address": "1830 LOMITA BLVD",
    "city": "LOMITA",
    "zip": "90717",
    "county": "LOS ANGELES",
    "phone": "(310) 530-7796",
    "lat": 33.79802988,
    "lng": -118.3102383
  },
  {
    "id": "630026228",
    "name": "UNIFIEDCARE COMMUNITY HEALTH CENTER",
    "npi": null,
    "hcaiId": null,
    "businessName": "UNIFIEDCARE COMMUNITY HEALTH CENTER, A CALIFORNIA NONPROFIT ORGANIZATION",
    "contactEmail": "RRAMOS@UNIFIEDCARECHC.ORG",
    "categoryName": "PRIMARY CARE CLINIC",
    "categoryCode": "COMTYC",
    "licenseStatus": "ACTIVE",
    "inService": true,
    "licenseNumber": "550008799",
    "licenseEffectiveDate": "09/21/2025",
    "licenseExpirationDate": "09/20/2026",
    "dataDate": "10/18/2025",
    "capacity": 0,
    "address": "2040 PACIFIC COAST HWY, SUITE S",
    "city": "LOMITA",
    "zip": "90717",
    "county": "LOS ANGELES",
    "phone": "(424) 457-7012",
    "lat": 33.789042,
    "lng": -118.316025
  }
]