[
  {
    "id": "630015216",
    "name": "ELDORADO COMMUNITY SERVICE CENTER",
    "npi": "1427469386",
    "hcaiId": "306197970",
    "businessName": "EL DORADO COMMUNITY SERVICE CENTER",
    "contactEmail": "PSHARMA@AMERICANHEALTHSERVICES.ORG",
    "categoryName": "PRIMARY CARE CLINIC",
    "categoryCode": "COMTYC",
    "licenseStatus": "ACTIVE",
    "inService": true,
    "licenseNumber": "550002901",
    "licenseEffectiveDate": "11/21/2025",
    "licenseExpirationDate": "11/20/2026",
    "dataDate": "10/18/2025",
    "capacity": 0,
    "address": "21619 NORWALK BLVD",
    "city": "HAWAIIAN GARDENS",
    "zip": "90716",
    "county": "LOS ANGELES",
    "phone": "(562) 222-1310",
    "lat": 33.832647,
    "lng": -118.072323
  },
  {
    "id": "630027583",
    "name": "FHCCGLA FEDDE SCHOOL BASED HEALTH CENTER",
    "npi": "1790051423",
    "hcaiId": null,
    "businessName": "FAMILY HEALTH CARE CENTERS OF GREATER LOS ANGELES,INC.",
    "contactEmail": "EROCHA@FHCCGLA.ORG",
    "categoryName": "PRIMARY CARE CLINIC",
    "categoryCode": "FQHC/COMTYC",
    "licenseStatus": "ACTIVE",
    "inService": true,
    "licenseNumber": "550002151",
    "licenseEffectiveDate": "11/30/2024",
    "licenseExpirationDate": "11/29/2025",
    "dataDate": "10/18/2025",
    "capacity": 0,
    "address": "21409 ELAINE AVE",
    "city": "HAWAIIAN GARDENS",
    "zip": "90716",
    "county": "LOS ANGELES",
    "phone": "(562) 928-9600",
    "lat": 33.835292,
    "lng": -118.078152
  },
  {
    "id": "960002410",
    "name": "HAWAIIAN GARDENS HEALTH CENTER",
    "npi": null,
    "hcaiId": "306196080",
    "businessName": "FAMILY HEALTH CARE CENTERS OF GREATER LOS ANGELES,INC.",
    "contactEmail": "RVILLA@FHCCGLA.ORG",
    "categoryName": "PRIMARY CARE CLINIC",
    "categoryCode": "COMTYC",
    "licenseStatus": "ACTIVE",
    "inService": true,
    "licenseNumber": "550002151",
    "licenseEffectiveDate": "11/30/2024",
    "licenseExpirationDate": "11/29/2025",
    "dataDate": "10/18/2025",
    "capacity": 0,
    "address": "22310 WARDHAM AVE",
    "city": "HAWAIIAN GARDENS",
    "zip": "90716",
    "county": "LOS ANGELES",
    "phone": "(562) 420-2433",
    "lat": 33.826869,
    "lng": -118.064736
  },
  {
    "id": "630024395",
    "name": "SOMANG ADHC CBAS",
    "npi": null,
    "hcaiId": null,
    "businessName": "TWO WINGS HEALTH SERVICES, INC.",
    "contactEmail": "SOMANGCBASCENTER@GMAIL.COM",
    "categoryName": "ADULT DAY HEALTH CARE",
    "categoryCode": "ADHC",
    "licenseStatus": "ACTIVE",
    "inService": true,
    "licenseNumber": "550007912",
    "licenseEffectiveDate": "03/21/2025",
    "licenseExpirationDate": "03/20/2026",
    "dataDate": "10/18/2025",
    "capacity": 0,
    "address": "22437 NORWALK BLVD",
    "city": "HAWAIIAN GARDENS",
    "zip": "90716",
    "county": "LOS ANGELES",
    "phone": "(714) 875-9832",
    "lat": 33.82420601,
    "lng": -118.072212
  }
]