[
  {
    "id": "630016458",
    "name": "ASSURE HOSPICE CARE, INC.",
    "npi": "1346615457",
    "hcaiId": "406191287",
    "businessName": "ASSURE HOSPICE CARE, INC.",
    "contactEmail": "DOCS@ASSUREHEALTHGROUP.COM",
    "categoryName": "HOSPICE",
    "categoryCode": "HOSPICE",
    "licenseStatus": "ACTIVE",
    "inService": true,
    "licenseNumber": "550004279",
    "licenseEffectiveDate": "05/24/2022",
    "licenseExpirationDate": "05/23/2024",
    "dataDate": "10/18/2025",
    "capacity": 0,
    "address": "24404 S. VERMONT AVENUE, SUITE 303",
    "city": "HARBOR CITY",
    "zip": "90710",
    "county": "LOS ANGELES",
    "phone": "(310) 326-2703",
    "lat": 33.803019,
    "lng": -118.289916
  },
  {
    "id": "630014968",
    "name": "DEVINA HOSPICE CARE INC.",
    "npi": "1235560947",
    "hcaiId": "406198502",
    "businessName": "DEVINA HOSPICE CARE INC.",
    "contactEmail": "ADMIN@DEVINAHOSPICECARE.COM",
    "categoryName": "HOSPICE",
    "categoryCode": "HOSPICE",
    "licenseStatus": "ACTIVE",
    "inService": true,
    "licenseNumber": "550003136",
    "licenseEffectiveDate": "07/07/2021",
    "licenseExpirationDate": "07/06/2023",
    "dataDate": "10/18/2025",
    "capacity": 0,
    "address": "24404 VERMONT AVE, SUITE 307G",
    "city": "HARBOR CITY",
    "zip": "90710",
    "county": "LOS ANGELES",
    "phone": "(424) 263-4793",
    "lat": 33.803019,
    "lng": -118.289916
  },
  {
    "id": "630020878",
    "name": "FIRST UNLIMITED HOSPICE CARE, INC.",
    "npi": null,
    "hcaiId": "406196679",
    "businessName": "FIRST UNLIMITED HOSPICE CARE, INC.",
    "contactEmail": "FIRSTUNLIMITEDHOSPICE@GMAIL.COM",
    "categoryName": "HOSPICE",
    "categoryCode": "HOSPICE",
    "licenseStatus": "ACTIVE",
    "inService": true,
    "licenseNumber": "550006386",
    "licenseEffectiveDate": "05/28/2025",
    "licenseExpirationDate": "05/27/2027",
    "dataDate": "10/18/2025",
    "capacity": 0,
    "address": "1533 LOMITA BLVD",
    "city": "HARBOR CITY",
    "zip": "90710",
    "county": "LOS ANGELES",
    "phone": "(424) 263-5446",
    "lat": 33.79805502,
    "lng": -118.303888
  },
  {
    "id": "930001826",
    "name": "FRESENIUS MEDICAL CARE OF SOUTH BAY",
    "npi": "1609988401",
    "hcaiId": "306196566",
    "businessName": "BIO-MEDICAL APPLICATIONS OF CALIFORNIA, INC.",
    "contactEmail": "CLINIC2773@FMC-NA.COM",
    "categoryName": "CHRONIC DIALYSIS CLINIC",
    "categoryCode": "ESRD/CDC",
    "licenseStatus": "ACTIVE",
    "inService": true,
    "licenseNumber": "930001011",
    "licenseEffectiveDate": "11/11/2024",
    "licenseExpirationDate": "11/10/2025",
    "dataDate": "10/18/2025",
    "capacity": 25,
    "address": "1221 PACIFIC COAST HWY",
    "city": "HARBOR CITY",
    "zip": "90710",
    "county": "LOS ANGELES",
    "phone": "(310) 539-1221",
    "lat": 33.78975419,
    "lng": -118.2982955
  },
  {
    "id": "630016269",
    "name": "FRESENIUS MEDICAL CARE SOUTH BAY HOME THERAPY",
    "npi": null,
    "hcaiId": null,
    "businessName": null,
    "contactEmail": "SHARON.CNASH@FMC-NA.COM",
    "categoryName": "CHRONIC DIALYSIS CLINIC",
    "categoryCode": "ESRD",
    "licenseStatus": null,
    "inService": null,
    "licenseNumber": null,
    "licenseEffectiveDate": null,
    "licenseExpirationDate": null,
    "dataDate": "10/18/2025",
    "capacity": 0,
    "address": "1223 PACIFIC COAST HIGHWAY",
    "city": "HARBOR CITY",
    "zip": "90710",
    "county": "LOS ANGELES",
    "phone": "(310) 325-0426",
    "lat": 33.79053,
    "lng": -118.298741
  },
  {
    "id": "630027666",
    "name": "GLOVIA HOME HEALTH INC",
    "npi": null,
    "hcaiId": null,
    "businessName": "GLOVIA HOME HEALTH INC",
    "contactEmail": "GLOVIAHHA@GMAIL.COM",
    "categoryName": "HOME HEALTH AGENCY",
    "categoryCode": "HHA",
    "licenseStatus": "ACTIVE",
    "inService": true,
    "licenseNumber": "550009971",
    "licenseEffectiveDate": "09/22/2025",
    "licenseExpirationDate": "03/21/2026",
    "dataDate": "10/18/2025",
    "capacity": 0,
    "address": "24328 VERMONT AVE, SUITE 309",
    "city": "HARBOR CITY",
    "zip": "90710",
    "county": "LOS ANGELES",
    "phone": "(310) 628-4739",
    "lat": 33.803329,
    "lng": -118.289927
  },
  {
    "id": "630012998",
    "name": "HAGA HOSPICE, INC.",
    "npi": null,
    "hcaiId": "406197577",
    "businessName": "HAGA HOSPICE, INC.",
    "contactEmail": "HAGAHOSPICE@GMAIL.COM",
    "categoryName": "HOSPICE",
    "categoryCode": "HOSPICE",
    "licenseStatus": "ACTIVE",
    "inService": true,
    "licenseNumber": "550001644",
    "licenseEffectiveDate": "06/17/2025",
    "licenseExpirationDate": "06/16/2027",
    "dataDate": "10/18/2025",
    "capacity": 0,
    "address": "1403 LOMITA BLVD, SUITE 303A",
    "city": "HARBOR CITY",
    "zip": "90710",
    "county": "LOS ANGELES",
    "phone": "(818) 988-0162",
    "lat": 33.798888,
    "lng": -118.3021875
  },
  {
    "id": "930000071",
    "name": "KAISER FOUNDATION HOSPITAL - SOUTH BAY",
    "npi": "1336294040",
    "hcaiId": "106190431",
    "businessName": "KAISER FOUNDATION HOSPITALS",
    "contactEmail": "MERAY.F.EL-AHDAB@KP.ORG",
    "categoryName": "GENERAL ACUTE CARE HOSPITAL",
    "categoryCode": "GACH",
    "licenseStatus": "ACTIVE",
    "inService": true,
    "licenseNumber": "930000079",
    "licenseEffectiveDate": "11/01/2025",
    "licenseExpirationDate": "10/31/2026",
    "dataDate": "10/18/2025",
    "capacity": 257,
    "address": "25825 S. VERMONT AVE",
    "city": "HARBOR CITY",
    "zip": "90710",
    "county": "LOS ANGELES",
    "phone": "(310) 517-2657",
    "lat": 33.788979,
    "lng": -118.295478
  },
  {
    "id": "630012415",
    "name": "KAISER PERMANENTE - SOUTHBAY HHA BRANCH",
    "npi": null,
    "hcaiId": "406197404",
    "businessName": "KAISER FOUNDATION HOSPITALS",
    "contactEmail": null,
    "categoryName": "HOME HEALTH AGENCY",
    "categoryCode": "HHA",
    "licenseStatus": "ACTIVE",
    "inService": true,
    "licenseNumber": "980000534",
    "licenseEffectiveDate": "11/24/2025",
    "licenseExpirationDate": "11/23/2026",
    "dataDate": "10/18/2025",
    "capacity": 0,
    "address": "25975 NORMANDIE AVE",
    "city": "HARBOR CITY",
    "zip": "90710",
    "county": "LOS ANGELES",
    "phone": "(562) 622-4350",
    "lat": 33.787359,
    "lng": -118.298394
  },
  {
    "id": "630012416",
    "name": "KAISER PERMANENTE - SOUTHBAY HOSPICE BRANCH",
    "npi": null,
    "hcaiId": "406197403",
    "businessName": "KAISER FOUNDATION HOSPITALS",
    "contactEmail": null,
    "categoryName": "HOSPICE",
    "categoryCode": "HOSPICE",
    "licenseStatus": "ACTIVE",
    "inService": true,
    "licenseNumber": "980000509",
    "licenseEffectiveDate": "06/27/2025",
    "licenseExpirationDate": "06/26/2027",
    "dataDate": "10/18/2025",
    "capacity": 0,
    "address": "25975 NORMANDIE AVE",
    "city": "HARBOR CITY",
    "zip": "90710",
    "county": "LOS ANGELES",
    "phone": "(562) 622-4350",
    "lat": 33.787359,
    "lng": -118.298394
  },
  {
    "id": "060002105",
    "name": "LOMITA ADULT DAY HEALTH CARE CENTER",
    "npi": null,
    "hcaiId": null,
    "businessName": "LOMITA HEALTH MANAGEMENT, INC.",
    "contactEmail": "LOMITAADHC@YAHOO.COM",
    "categoryName": "ADULT DAY HEALTH CARE",
    "categoryCode": "ADHC",
    "licenseStatus": "ACTIVE",
    "inService": true,
    "licenseNumber": "060000862",
    "licenseEffectiveDate": "02/25/2025",
    "licenseExpirationDate": "02/24/2026",
    "dataDate": "10/18/2025",
    "capacity": 0,
    "address": "1234 LOMITA BLVD, SUITE E",
    "city": "HARBOR CITY",
    "zip": "90710",
    "county": "LOS ANGELES",
    "phone": "(310) 539-4800",
    "lat": 33.797619,
    "lng": -118.2988485
  },
  {
    "id": "630014456",
    "name": "NECC HARBOR CITY HEALTH CENTER",
    "npi": "1952641136",
    "hcaiId": "306197827",
    "businessName": "NORTHEAST COMMUNITY CLINIC",
    "contactEmail": "OPSSUPPORT@NECC.NET",
    "categoryName": "PRIMARY CARE CLINIC",
    "categoryCode": "COMTYC",
    "licenseStatus": "ACTIVE",
    "inService": true,
    "licenseNumber": "550002363",
    "licenseEffectiveDate": "08/12/2025",
    "licenseExpirationDate": "08/11/2026",
    "dataDate": "10/18/2025",
    "capacity": 0,
    "address": "1403 LOMITA BLVD, SUITE 100, 101 & 106",
    "city": "HARBOR CITY",
    "zip": "90710",
    "county": "LOS ANGELES",
    "phone": "(626) 457-6900",
    "lat": 33.798888,
    "lng": -118.3021875
  },
  {
    "id": "630017664",
    "name": "NORTHEAST COMMUNITY CLINIC",
    "npi": null,
    "hcaiId": null,
    "businessName": null,
    "contactEmail": null,
    "categoryName": "PRIMARY CARE CLINIC",
    "categoryCode": "COMTYC",
    "licenseStatus": null,
    "inService": null,
    "licenseNumber": null,
    "licenseEffectiveDate": null,
    "licenseExpirationDate": null,
    "dataDate": "10/18/2025",
    "capacity": 0,
    "address": "1403 LOMITA BLVD, SUITE 103",
    "city": "HARBOR CITY",
    "zip": "90710",
    "county": "LOS ANGELES",
    "phone": null,
    "lat": 33.798888,
    "lng": -118.3021875
  },
  {
    "id": "630015647",
    "name": "THE HELPING HANDS CLHF",
    "npi": null,
    "hcaiId": "206198487",
    "businessName": "CB CAREHOME INC.",
    "contactEmail": "CARE@HELPINGHANDSCLHF.COM",
    "categoryName": "CONGREGATE LIVING HEALTH FACILITY",
    "categoryCode": "CLHF",
    "licenseStatus": "ACTIVE",
    "inService": true,
    "licenseNumber": "550003938",
    "licenseEffectiveDate": "07/14/2025",
    "licenseExpirationDate": "07/13/2026",
    "dataDate": "10/18/2025",
    "capacity": 6,
    "address": "23331 MALTBY PLACE",
    "city": "HARBOR CITY",
    "zip": "90710",
    "county": "LOS ANGELES",
    "phone": "(424) 263-4432",
    "lat": 33.813792,
    "lng": -118.304919
  },
  {
    "id": "630018703",
    "name": "VITA HOME HEALTH SERVICES INC",
    "npi": "1639637200",
    "hcaiId": "406192097",
    "businessName": "VITA HOME HEALTH SERVICES INC",
    "contactEmail": "VHERNANDEZ@VITAHOME.ORG",
    "categoryName": "HOME HEALTH AGENCY",
    "categoryCode": "HHA",
    "licenseStatus": "ACTIVE",
    "inService": true,
    "licenseNumber": "550005188",
    "licenseEffectiveDate": "11/07/2024",
    "licenseExpirationDate": "11/06/2025",
    "dataDate": "10/18/2025",
    "capacity": 0,
    "address": "24404 VERMONT AVE, SUITE 309A",
    "city": "HARBOR CITY",
    "zip": "90710",
    "county": "LOS ANGELES",
    "phone": "(323) 451-7110",
    "lat": 33.80302498,
    "lng": -118.289933
  }
]