[
  {
    "id": "980001695",
    "name": "ADMIRAL HOME HEALTH, INC.",
    "npi": null,
    "hcaiId": "406196709",
    "businessName": "ADMIRAL HOME HEALTH, INC.",
    "contactEmail": "INFO@ADMIRALHOMEHEALTH.NET",
    "categoryName": "HOME HEALTH AGENCY",
    "categoryCode": "HHA",
    "licenseStatus": "ACTIVE",
    "inService": true,
    "licenseNumber": "980000974",
    "licenseEffectiveDate": "05/09/2023",
    "licenseExpirationDate": "05/08/2024",
    "dataDate": "10/18/2025",
    "capacity": 0,
    "address": "4010 WATSON PLAZA DR, SUITE 150",
    "city": "LAKEWOOD",
    "zip": "90712",
    "county": "LOS ANGELES",
    "phone": "(562) 421-0777",
    "lat": 33.831333,
    "lng": -118.1543895
  },
  {
    "id": "630008682",
    "name": "ADMIRAL HOSPICE CARE, INC.",
    "npi": null,
    "hcaiId": "406196789",
    "businessName": "ADMIRAL HOSPICE CARE, INC.",
    "contactEmail": "INFO@ADMIRALHOSPICECARE.COM",
    "categoryName": "HOSPICE",
    "categoryCode": "HOSPICE",
    "licenseStatus": "ACTIVE",
    "inService": true,
    "licenseNumber": "550000244",
    "licenseEffectiveDate": "11/15/2022",
    "licenseExpirationDate": "11/14/2024",
    "dataDate": "10/18/2025",
    "capacity": 0,
    "address": "4010 WATSON PLAZA DR, SUITE 120",
    "city": "LAKEWOOD",
    "zip": "90712",
    "county": "LOS ANGELES",
    "phone": "(562) 429-1500",
    "lat": 33.831387,
    "lng": -118.154322
  },
  {
    "id": "630010601",
    "name": "BRISTOL HOSPICE - GREATER LOS ANGELES",
    "npi": "1548217011",
    "hcaiId": "406197158",
    "businessName": "GERINET PHYSICIAN SERVICES, INC",
    "contactEmail": "SILVIA.GALAN@BRISTOLHOSPICE.COM",
    "categoryName": "HOSPICE",
    "categoryCode": "HOSPICE",
    "licenseStatus": "ACTIVE",
    "inService": true,
    "licenseNumber": "550000196",
    "licenseEffectiveDate": "11/04/2024",
    "licenseExpirationDate": "06/08/2026",
    "dataDate": "10/18/2025",
    "capacity": 0,
    "address": "4010 WATSON PLAZA DR, SUITE 140",
    "city": "LAKEWOOD",
    "zip": "90712",
    "county": "LOS ANGELES",
    "phone": "(562) 904-6777",
    "lat": 33.831153,
    "lng": -118.1543445
  },
  {
    "id": "630017512",
    "name": "MAYFAIR DIALYSIS",
    "npi": null,
    "hcaiId": "306190419",
    "businessName": "TOTAL RENAL CARE, INC.",
    "contactEmail": "CAL_C@DAVITA.COM",
    "categoryName": "CHRONIC DIALYSIS CLINIC",
    "categoryCode": "ESRD/CDC",
    "licenseStatus": "ACTIVE",
    "inService": true,
    "licenseNumber": "550004431",
    "licenseEffectiveDate": "10/30/2025",
    "licenseExpirationDate": "10/29/2026",
    "dataDate": "10/18/2025",
    "capacity": 36,
    "address": "4930 PARAMOUNT BLVD",
    "city": "LAKEWOOD",
    "zip": "90712",
    "county": "LOS ANGELES",
    "phone": "(424) 296-6870",
    "lat": 33.848136,
    "lng": -118.1593485
  },
  {
    "id": "630027105",
    "name": "MD SURGICAL",
    "npi": null,
    "hcaiId": null,
    "businessName": null,
    "contactEmail": null,
    "categoryName": "SURGICAL CLINIC",
    "categoryCode": "ASC",
    "licenseStatus": null,
    "inService": null,
    "licenseNumber": null,
    "licenseEffectiveDate": null,
    "licenseExpirationDate": null,
    "dataDate": "10/18/2025",
    "capacity": 0,
    "address": "3510 E SOUTH ST, SUITE A",
    "city": "LAKEWOOD",
    "zip": "90712",
    "county": "LOS ANGELES",
    "phone": null,
    "lat": 33.86016269,
    "lng": -118.150977
  },
  {
    "id": "980002320",
    "name": "THE CENTER FOR DISCOVERY AND ADOLESCENT CHANGE II",
    "npi": null,
    "hcaiId": "206196472",
    "businessName": "DISCOVERY PRACTICE MANAGEMENT, INC.",
    "contactEmail": "JCLARCK@DISCOVERYBH.COM",
    "categoryName": "CONGREGATE LIVING HEALTH FACILITY",
    "categoryCode": "CLHF",
    "licenseStatus": "ACTIVE",
    "inService": true,
    "licenseNumber": "980001602",
    "licenseEffectiveDate": "11/05/2024",
    "licenseExpirationDate": "11/04/2025",
    "dataDate": "10/18/2025",
    "capacity": 6,
    "address": "4136 ANN ARBOR RD",
    "city": "LAKEWOOD",
    "zip": "90712",
    "county": "LOS ANGELES",
    "phone": "(562) 425-7418",
    "lat": 33.832809,
    "lng": -118.143747
  },
  {
    "id": "630021903",
    "name": "TRINITAS HOSPICE CARE LLC",
    "npi": null,
    "hcaiId": "406195141",
    "businessName": "TRINITAS HOSPICE CARE LLC",
    "contactEmail": "TRINITASHOSPICE2020@GMAIL.COM",
    "categoryName": "HOSPICE",
    "categoryCode": "HOSPICE",
    "licenseStatus": "ACTIVE",
    "inService": true,
    "licenseNumber": "550007616",
    "licenseEffectiveDate": "12/22/2023",
    "licenseExpirationDate": "12/21/2025",
    "dataDate": "10/18/2025",
    "capacity": 0,
    "address": "5230 CLARK AVE, SUITE 1",
    "city": "LAKEWOOD",
    "zip": "90712",
    "county": "LOS ANGELES",
    "phone": "(562) 219-5834",
    "lat": 33.852978,
    "lng": -118.133541
  },
  {
    "id": "930000047",
    "name": "UCI HEALTH-LAKEWOOD",
    "npi": "1184655581",
    "hcaiId": "106190240",
    "businessName": "UNIVERSITY OF CALIFORNIA IRVINE",
    "contactEmail": "REZAH1@HS.UCI.EDU",
    "categoryName": "GENERAL ACUTE CARE HOSPITAL",
    "categoryCode": "GACH",
    "licenseStatus": "ACTIVE",
    "inService": true,
    "licenseNumber": "930000046",
    "licenseEffectiveDate": "05/31/2025",
    "licenseExpirationDate": "05/30/2026",
    "dataDate": "10/18/2025",
    "capacity": 172,
    "address": "3700 SOUTH ST",
    "city": "LAKEWOOD",
    "zip": "90712",
    "county": "LOS ANGELES",
    "phone": "(562) 602-6797",
    "lat": 33.859701,
    "lng": -118.148427
  },
  {
    "id": "630008646",
    "name": "ZIBA HOSPICE",
    "npi": null,
    "hcaiId": "406196558",
    "businessName": "ZIBA HOSPICE, LLC",
    "contactEmail": "CCALAYAG@ZIBAHOSPICE.COM",
    "categoryName": "HOSPICE",
    "categoryCode": "HOSPICE",
    "licenseStatus": "ACTIVE",
    "inService": true,
    "licenseNumber": "550000417",
    "licenseEffectiveDate": "12/30/2024",
    "licenseExpirationDate": "12/29/2026",
    "dataDate": "10/18/2025",
    "capacity": 0,
    "address": "3950 PARAMOUNT BLVD., SUITE 107",
    "city": "LAKEWOOD",
    "zip": "90712",
    "county": "LOS ANGELES",
    "phone": "(310) 328-4865",
    "lat": 33.829344,
    "lng": -118.1584485
  }
]