[
  {
    "id": "060000022",
    "name": "ALAMITOS WEST HEALTH AND REHABILITATION",
    "npi": "1154359586",
    "hcaiId": "206301089",
    "businessName": "MALCOLM HEALTHCARE, INC.",
    "contactEmail": "SBURNAM@ENSIGNSERVICES.NET",
    "categoryName": "SKILLED NURSING FACILITY",
    "categoryCode": "SNF",
    "licenseStatus": "ACTIVE",
    "inService": true,
    "licenseNumber": "060000076",
    "licenseEffectiveDate": "11/19/2025",
    "licenseExpirationDate": "04/30/2026",
    "dataDate": "10/18/2025",
    "capacity": 150,
    "address": "3902 KATELLA AVE",
    "city": "LOS ALAMITOS",
    "zip": "90720",
    "county": "ORANGE",
    "phone": "(949) 540-1249",
    "lat": 33.802839,
    "lng": -118.0644165
  },
  {
    "id": "630012187",
    "name": "EXCELLENCE HOME HEALTH PROVIDER, INC.",
    "npi": "1114161445",
    "hcaiId": "406304458",
    "businessName": "EXCELLENCE HOME HEALTH PROVIDER, INC",
    "contactEmail": "LORETZ12@YAHOO.COM",
    "categoryName": "HOME HEALTH AGENCY",
    "categoryCode": "HHA",
    "licenseStatus": "ACTIVE",
    "inService": true,
    "licenseNumber": "550001331",
    "licenseEffectiveDate": "12/02/2024",
    "licenseExpirationDate": "12/01/2025",
    "dataDate": "10/18/2025",
    "capacity": 0,
    "address": "4050 KATELLA AVE, SUITE 204",
    "city": "LOS ALAMITOS",
    "zip": "90720",
    "county": "ORANGE",
    "phone": "(714) 571-5551",
    "lat": 33.802578,
    "lng": -118.061865
  },
  {
    "id": "630021383",
    "name": "EXPRESS HOME HEALTH, INC",
    "npi": null,
    "hcaiId": "406195307",
    "businessName": "EXPRESS HOME HEALTH, INC",
    "contactEmail": "INFO@EXPRESSHOMEHEALTH.ORG",
    "categoryName": "HOME HEALTH AGENCY",
    "categoryCode": "HHA",
    "licenseStatus": "ACTIVE",
    "inService": true,
    "licenseNumber": "550006811",
    "licenseEffectiveDate": "08/23/2025",
    "licenseExpirationDate": "08/22/2026",
    "dataDate": "10/18/2025",
    "capacity": 0,
    "address": "5122 KATELLA AVE, SUITE 304",
    "city": "LOS ALAMITOS",
    "zip": "90720",
    "county": "ORANGE",
    "phone": "(562) 684-3748",
    "lat": 33.80259801,
    "lng": -118.043337
  },
  {
    "id": "630020954",
    "name": "LESTONNAC FREE CLINIC (LOS ALAMITOS)",
    "npi": null,
    "hcaiId": null,
    "businessName": "ST JEANNE DE LESTONNAC FREE CLINIC",
    "contactEmail": null,
    "categoryName": "PRIMARY CARE CLINIC",
    "categoryCode": "FREEC",
    "licenseStatus": "ACTIVE",
    "inService": true,
    "licenseNumber": "060000070",
    "licenseEffectiveDate": "12/18/2024",
    "licenseExpirationDate": "12/17/2025",
    "dataDate": "10/18/2025",
    "capacity": 0,
    "address": "3801 KATELLA AVE, SUITE 212",
    "city": "LOS ALAMITOS",
    "zip": "90720",
    "county": "ORANGE",
    "phone": null,
    "lat": 33.803406,
    "lng": -118.065357
  },
  {
    "id": "630012856",
    "name": "LOS ALAMITOS DIALYSIS",
    "npi": "1427296433",
    "hcaiId": "306304474",
    "businessName": "CHIPETA DIALYSIS, LLC",
    "contactEmail": "CAL_C@DAVITA.COM",
    "categoryName": "CHRONIC DIALYSIS CLINIC",
    "categoryCode": "ESRD/CDC",
    "licenseStatus": "ACTIVE",
    "inService": true,
    "licenseNumber": "550001662",
    "licenseEffectiveDate": "11/11/2024",
    "licenseExpirationDate": "11/10/2025",
    "dataDate": "10/18/2025",
    "capacity": 24,
    "address": "4141 KATELLA AVE",
    "city": "LOS ALAMITOS",
    "zip": "90720",
    "county": "ORANGE",
    "phone": "(714) 952-0175",
    "lat": 33.803622,
    "lng": -118.060317
  },
  {
    "id": "060002146",
    "name": "LOS ALAMITOS SURGERY CENTER",
    "npi": null,
    "hcaiId": "306304315",
    "businessName": "LOS ALAMITOS SURGERY CENTER, L.P.",
    "contactEmail": "JODY@LOSALAMITOSSURGERYCENTER.COM",
    "categoryName": "SURGICAL CLINIC",
    "categoryCode": "ASC",
    "licenseStatus": "INACTIVE - CAPEN DECISION",
    "inService": false,
    "licenseNumber": "060000882",
    "licenseEffectiveDate": "11/13/2007",
    "licenseExpirationDate": "11/12/2008",
    "dataDate": "10/18/2025",
    "capacity": 0,
    "address": "10921 CHERRY ST, SUITE 100",
    "city": "LOS ALAMITOS",
    "zip": "90720",
    "county": "ORANGE",
    "phone": "(562) 795-5600",
    "lat": 33.803937,
    "lng": -118.0681335
  },
  {
    "id": "630018781",
    "name": "ORANGE COUNTY CARE HOSPICE",
    "npi": null,
    "hcaiId": "406302653",
    "businessName": "ORANGE COUNTY CARE HOSPICE",
    "contactEmail": "ADMIN@OCCAREHOSPICE.ORG",
    "categoryName": "HOSPICE",
    "categoryCode": "HOSPICE",
    "licenseStatus": "ACTIVE",
    "inService": true,
    "licenseNumber": "550004834",
    "licenseEffectiveDate": "09/16/2024",
    "licenseExpirationDate": "08/13/2025",
    "dataDate": "10/18/2025",
    "capacity": 0,
    "address": "11021 WINNERS CIR, SUITE 204",
    "city": "LOS ALAMITOS",
    "zip": "90720",
    "county": "ORANGE",
    "phone": "(562) 356-0475",
    "lat": 33.80204602,
    "lng": -118.041069
  },
  {
    "id": "630018292",
    "name": "ORANGE COUNTY HOME HEALTH, INC.",
    "npi": null,
    "hcaiId": "406301866",
    "businessName": "ORANGE COUNTY HOME HEALTH, INC.",
    "contactEmail": "OCHOMEHEALTH@YAHOO.COM",
    "categoryName": "HOME HEALTH AGENCY",
    "categoryCode": "HHA",
    "licenseStatus": "ACTIVE",
    "inService": true,
    "licenseNumber": "550004828",
    "licenseEffectiveDate": "08/01/2025",
    "licenseExpirationDate": "07/31/2026",
    "dataDate": "10/18/2025",
    "capacity": 0,
    "address": "3532 KATELLA AVE, SUITE 111",
    "city": "LOS ALAMITOS",
    "zip": "90720",
    "county": "ORANGE",
    "phone": "(562) 446-0125",
    "lat": 33.802569,
    "lng": -118.0711935
  },
  {
    "id": "630016136",
    "name": "PINNACLE HOSPICE CARE, LLC.",
    "npi": null,
    "hcaiId": "406301311",
    "businessName": "PINNACLE HOSPICE CARE, LLC",
    "contactEmail": "JOSECITA.PINNACLEHOSPICE@GMAIL.COM",
    "categoryName": "HOSPICE",
    "categoryCode": "HOSPICE",
    "licenseStatus": "ACTIVE",
    "inService": true,
    "licenseNumber": "550003592",
    "licenseEffectiveDate": "07/11/2024",
    "licenseExpirationDate": "07/10/2026",
    "dataDate": "10/18/2025",
    "capacity": 0,
    "address": "4050 KATELLA AVENUE, SUITE 209",
    "city": "LOS ALAMITOS",
    "zip": "90720",
    "county": "ORANGE",
    "phone": "(562) 795-7000",
    "lat": 33.80283,
    "lng": -118.062225
  },
  {
    "id": "630008162",
    "name": "REAGAN STREET SURGERY CENTER",
    "npi": "1447213954",
    "hcaiId": "306304412",
    "businessName": "REAGAN STREET SURGERY CENTER, LLC",
    "contactEmail": "PAULA.VONWINCKELMANN@TENETHEALTH.COM",
    "categoryName": "SURGICAL CLINIC",
    "categoryCode": "ASC",
    "licenseStatus": "INACTIVE - CAPEN DECISION",
    "inService": false,
    "licenseNumber": "550000643",
    "licenseEffectiveDate": "08/08/2008",
    "licenseExpirationDate": "11/07/2009",
    "dataDate": "10/18/2025",
    "capacity": 0,
    "address": "10904 REAGAN ST",
    "city": "LOS ALAMITOS",
    "zip": "90720",
    "county": "ORANGE",
    "phone": "(562) 596-3140",
    "lat": 33.804072,
    "lng": -118.068957
  },
  {
    "id": "630020879",
    "name": "REGENCY HOSPICE CARE, INC.",
    "npi": null,
    "hcaiId": "406303703",
    "businessName": "REGENCY HOSPICE CARE, INC.",
    "contactEmail": "REGENCYHOSPICECARE@OUTLOOK.COM",
    "categoryName": "HOSPICE",
    "categoryCode": "HOSPICE",
    "licenseStatus": "ACTIVE",
    "inService": true,
    "licenseNumber": "550006531",
    "licenseEffectiveDate": "06/29/2023",
    "licenseExpirationDate": "06/28/2025",
    "dataDate": "10/18/2025",
    "capacity": 0,
    "address": "5242 KATELLA AVE, SUITE 103A",
    "city": "LOS ALAMITOS",
    "zip": "90720",
    "county": "ORANGE",
    "phone": "(562) 512-9938",
    "lat": 33.802776,
    "lng": -118.041876
  },
  {
    "id": "630014907",
    "name": "SANTA ANA HOSPICE, INC.",
    "npi": "1386074128",
    "hcaiId": "406300473",
    "businessName": "SANTA ANA HOSPICE, INC.",
    "contactEmail": "SANTAANAHOSPICE@YAHOO.COM",
    "categoryName": "HOSPICE",
    "categoryCode": "HOSPICE",
    "licenseStatus": "ACTIVE",
    "inService": true,
    "licenseNumber": "550003258",
    "licenseEffectiveDate": "10/15/2023",
    "licenseExpirationDate": "10/14/2025",
    "dataDate": "10/18/2025",
    "capacity": 0,
    "address": "3532 KATELLA AVE, SUITE 111A",
    "city": "LOS ALAMITOS",
    "zip": "90720",
    "county": "ORANGE",
    "phone": "(562) 430-1922",
    "lat": 33.802731,
    "lng": -118.071135
  },
  {
    "id": "080001591",
    "name": "U.S. RENAL CARE LOS ALAMITOS DIALYSIS",
    "npi": "1881686046",
    "hcaiId": "306301701",
    "businessName": "USRC LOS ALAMITOS, LLC",
    "contactEmail": "JSUAREZ@LOSALAMITOSDIALYSIS.COM",
    "categoryName": "CHRONIC DIALYSIS CLINIC",
    "categoryCode": "ESRD/CDC",
    "licenseStatus": "ACTIVE",
    "inService": true,
    "licenseNumber": "080000683",
    "licenseEffectiveDate": "01/24/2025",
    "licenseExpirationDate": "01/23/2026",
    "dataDate": "10/18/2025",
    "capacity": 32,
    "address": "3810 KATELLA AVE",
    "city": "LOS ALAMITOS",
    "zip": "90720",
    "county": "ORANGE",
    "phone": "(562) 598-9527",
    "lat": 33.802641,
    "lng": -118.0665945
  },
  {
    "id": "630024106",
    "name": "U.S. RENAL CARE ORANGE COUNTY HOME DIALYSIS",
    "npi": null,
    "hcaiId": null,
    "businessName": null,
    "contactEmail": "LEGAL@USRENALCARE.COM",
    "categoryName": "CHRONIC DIALYSIS CLINIC",
    "categoryCode": "ESRD",
    "licenseStatus": null,
    "inService": null,
    "licenseNumber": null,
    "licenseEffectiveDate": null,
    "licenseExpirationDate": null,
    "dataDate": "10/18/2025",
    "capacity": 0,
    "address": "10941 BLOOMFIELD ST, SUITE C",
    "city": "LOS ALAMITOS",
    "zip": "90720",
    "county": "ORANGE",
    "phone": "(562) 228-1410",
    "lat": 33.804225,
    "lng": -118.063575
  },
  {
    "id": "060000025",
    "name": "UCI HEALTH-LOS ALAMITOS",
    "npi": "1568493922",
    "hcaiId": "106301248",
    "businessName": "UNIVERSITY OF CALIFORNIA IRVINE",
    "contactEmail": "CKLAUS1@HS.UCL.EDU",
    "categoryName": "GENERAL ACUTE CARE HOSPITAL",
    "categoryCode": "GACH",
    "licenseStatus": "ACTIVE",
    "inService": true,
    "licenseNumber": "060000148",
    "licenseEffectiveDate": "11/01/2025",
    "licenseExpirationDate": "10/31/2026",
    "dataDate": "10/18/2025",
    "capacity": 172,
    "address": "3751 KATELLA AVE",
    "city": "LOS ALAMITOS",
    "zip": "90720",
    "county": "ORANGE",
    "phone": "(562) 799-3248",
    "lat": 33.804387,
    "lng": -118.066455
  },
  {
    "id": "630016647",
    "name": "UNIFIED HOSPICE CARE, LLC",
    "npi": null,
    "hcaiId": "406301480",
    "businessName": "UNIFIED HOSPICE CARE, LLC",
    "contactEmail": "INFO@UNIFIEDHOSPICECARE.COM",
    "categoryName": "HOSPICE",
    "categoryCode": "HOSPICE",
    "licenseStatus": "ACTIVE",
    "inService": true,
    "licenseNumber": "550004343",
    "licenseEffectiveDate": "08/16/2024",
    "licenseExpirationDate": "08/15/2026",
    "dataDate": "10/18/2025",
    "capacity": 0,
    "address": "5122 KATELLA AVE, SUITE 102",
    "city": "LOS ALAMITOS",
    "zip": "90720",
    "county": "ORANGE",
    "phone": "(562) 279-1181",
    "lat": 33.80259801,
    "lng": -118.043337
  }
]