[
  {
    "id": "630026888",
    "name": "ALTAMED MEDICAL GROUP- PARAMOUNT",
    "npi": "1902267479",
    "hcaiId": null,
    "businessName": "ALTAMED HEALTH SERVICES CORPORATION",
    "contactEmail": null,
    "categoryName": "PRIMARY CARE CLINIC",
    "categoryCode": "COMTYC",
    "licenseStatus": "ACTIVE",
    "inService": true,
    "licenseNumber": "550003827",
    "licenseEffectiveDate": "03/29/2025",
    "licenseExpirationDate": "03/28/2026",
    "dataDate": "10/18/2025",
    "capacity": 0,
    "address": "14906 PARAMOUNT BLVD",
    "city": "PARAMOUNT",
    "zip": "90723",
    "county": "LOS ANGELES",
    "phone": null,
    "lat": 33.897969,
    "lng": -118.159812
  },
  {
    "id": "630027123",
    "name": "CALI CHOICE",
    "npi": null,
    "hcaiId": null,
    "businessName": "AVENUES GLENDALE CLINIC",
    "contactEmail": "LHCDIRECTOR@GMAIL.COM",
    "categoryName": "PRIMARY CARE CLINIC",
    "categoryCode": "COMTYC",
    "licenseStatus": "ACTIVE",
    "inService": true,
    "licenseNumber": "960000813",
    "licenseEffectiveDate": "05/04/2025",
    "licenseExpirationDate": "05/03/2026",
    "dataDate": "10/18/2025",
    "capacity": 0,
    "address": "16444 PARAMOUNT BLVD, SUITE 102",
    "city": "PARAMOUNT",
    "zip": "90723",
    "county": "LOS ANGELES",
    "phone": "(562) 388-8775",
    "lat": 33.88482301,
    "lng": -118.159742
  },
  {
    "id": "630016047",
    "name": "COMMUNITY MEDICINE INC",
    "npi": "1457744476",
    "hcaiId": "306198326",
    "businessName": "COMMUNITY MEDICINE INC.",
    "contactEmail": "HABIB@CMINC.ORG",
    "categoryName": "PRIMARY CARE CLINIC",
    "categoryCode": "COMTYC",
    "licenseStatus": "ACTIVE",
    "inService": true,
    "licenseNumber": "550003676",
    "licenseEffectiveDate": "09/01/2025",
    "licenseExpirationDate": "08/31/2026",
    "dataDate": "10/18/2025",
    "capacity": 0,
    "address": "8540 ALONDRA BLVD., SUITE B-2",
    "city": "PARAMOUNT",
    "zip": "90723",
    "county": "LOS ANGELES",
    "phone": "(562) 602-2508",
    "lat": 33.888474,
    "lng": -118.15011
  },
  {
    "id": "630028252",
    "name": "COMMUNITY MEDICINE INC.",
    "npi": null,
    "hcaiId": null,
    "businessName": "COMMUNITY MEDICINE INC.",
    "contactEmail": null,
    "categoryName": "PRIMARY CARE CLINIC",
    "categoryCode": "COMTYC",
    "licenseStatus": "ACTIVE",
    "inService": true,
    "licenseNumber": "550003676",
    "licenseEffectiveDate": "09/01/2025",
    "licenseExpirationDate": "08/31/2026",
    "dataDate": "10/18/2025",
    "capacity": 0,
    "address": "8540 ALONDRA BLVD, SUITE B4 & B5",
    "city": "PARAMOUNT",
    "zip": "90723",
    "county": "LOS ANGELES",
    "phone": null,
    "lat": 33.88844898,
    "lng": -118.150053
  },
  {
    "id": "980002336",
    "name": "EXCELL HOME CARE, INC.",
    "npi": "1588630081",
    "hcaiId": "406196352",
    "businessName": "EXCELL HOME CARE, INC.",
    "contactEmail": "JENNIFER@EXCELLHC.NET",
    "categoryName": "HOME HEALTH AGENCY",
    "categoryCode": "HHA",
    "licenseStatus": "ACTIVE",
    "inService": true,
    "licenseNumber": "980001446",
    "licenseEffectiveDate": "12/19/2024",
    "licenseExpirationDate": "12/18/2025",
    "dataDate": "10/18/2025",
    "capacity": 0,
    "address": "14023 PARAMOUNT BLVD",
    "city": "PARAMOUNT",
    "zip": "90723",
    "county": "LOS ANGELES",
    "phone": "(562) 988-3370",
    "lat": 33.90651,
    "lng": -118.1607345
  },
  {
    "id": "630019305",
    "name": "FAMILY FIRST HOME HEALTHCARE, INC.",
    "npi": null,
    "hcaiId": "406192815",
    "businessName": "FAMILY FIRST HOME HEALTHCARE, INC.",
    "contactEmail": "FFHHCINC@GMAIL.COM",
    "categoryName": "HOME HEALTH AGENCY",
    "categoryCode": "HHA",
    "licenseStatus": "ACTIVE",
    "inService": true,
    "licenseNumber": "550005683",
    "licenseEffectiveDate": "08/21/2025",
    "licenseExpirationDate": "08/20/2026",
    "dataDate": "10/18/2025",
    "capacity": 0,
    "address": "15317 PARAMOUNT BLVD, SUITE 201",
    "city": "PARAMOUNT",
    "zip": "90723",
    "county": "LOS ANGELES",
    "phone": "(562) 363-3014",
    "lat": 33.894234,
    "lng": -118.1604915
  },
  {
    "id": "630014918",
    "name": "FAMILY FIRST HOSPICE, INC",
    "npi": null,
    "hcaiId": "406198470",
    "businessName": "FAMILY FIRST HOSPICE, INC.",
    "contactEmail": "INFO@FAMILYFIRSTHOSPICE.NET",
    "categoryName": "HOSPICE",
    "categoryCode": "HOSPICE",
    "licenseStatus": "ACTIVE",
    "inService": true,
    "licenseNumber": "550003197",
    "licenseEffectiveDate": "08/25/2025",
    "licenseExpirationDate": "08/24/2027",
    "dataDate": "10/18/2025",
    "capacity": 0,
    "address": "15317 PARAMOUNT BLVD, SUITE 205",
    "city": "PARAMOUNT",
    "zip": "90723",
    "county": "LOS ANGELES",
    "phone": "(562) 630-5300",
    "lat": 33.894234,
    "lng": -118.1604915
  },
  {
    "id": "630018759",
    "name": "FRESENIUS KIDNEY CARE PARAMOUNT",
    "npi": null,
    "hcaiId": "306190483",
    "businessName": "PARAMOUNT HOPE DIALYSIS CENTER LLC",
    "contactEmail": "RUBY.BINUYA@FRESENIUSMEDICALCARE.COM",
    "categoryName": "CHRONIC DIALYSIS CLINIC",
    "categoryCode": "ESRD/CDC",
    "licenseStatus": "ACTIVE",
    "inService": true,
    "licenseNumber": "550005071",
    "licenseEffectiveDate": "11/07/2025",
    "licenseExpirationDate": "11/06/2026",
    "dataDate": "10/18/2025",
    "capacity": 24,
    "address": "8319 ALONDRA BLVD",
    "city": "PARAMOUNT",
    "zip": "90723",
    "county": "LOS ANGELES",
    "phone": "(657) 454-2726",
    "lat": 33.889473,
    "lng": -118.153935
  },
  {
    "id": "930000033",
    "name": "KINDRED HOSPITAL PARAMOUNT",
    "npi": null,
    "hcaiId": "106190599",
    "businessName": "KND REAL ESTATE 40, LLC",
    "contactEmail": "MARK.APODACA@KINDRED.COM",
    "categoryName": "GENERAL ACUTE CARE HOSPITAL",
    "categoryCode": "GACH",
    "licenseStatus": "ACTIVE",
    "inService": false,
    "licenseNumber": "930000088",
    "licenseEffectiveDate": "06/30/2025",
    "licenseExpirationDate": "06/29/2026",
    "dataDate": "10/18/2025",
    "capacity": 183,
    "address": "16453 COLORADO AVE",
    "city": "PARAMOUNT",
    "zip": "90723",
    "county": "LOS ANGELES",
    "phone": "(562) 531-3110",
    "lat": 33.884334,
    "lng": -118.1621475
  },
  {
    "id": "940000026",
    "name": "LA PAZ GEROPSYCHIATRIC CENTER",
    "npi": "1902994783",
    "hcaiId": "206190777",
    "businessName": "TELECARE CORPORATION",
    "contactEmail": "CUDEH@TELECARECORP.COM",
    "categoryName": "SKILLED NURSING FACILITY",
    "categoryCode": "SNF",
    "licenseStatus": "ACTIVE",
    "inService": true,
    "licenseNumber": "940000163",
    "licenseEffectiveDate": "11/07/2025",
    "licenseExpirationDate": "11/06/2026",
    "dataDate": "10/18/2025",
    "capacity": 173,
    "address": "8835 VANS ST",
    "city": "PARAMOUNT",
    "zip": "90723",
    "county": "LOS ANGELES",
    "phone": "(562) 633-5111",
    "lat": 33.892281,
    "lng": -118.1438955
  },
  {
    "id": "940000049",
    "name": "MEADOW CREEK POST-ACUTE",
    "npi": "1760172787",
    "hcaiId": "206190099",
    "businessName": "WAIMEA BAY HOLDINGS LLC",
    "contactEmail": "ETHAN.PARMLEY@LINKSHEALTH.COM",
    "categoryName": "SKILLED NURSING FACILITY",
    "categoryCode": "SNF",
    "licenseStatus": "ACTIVE",
    "inService": true,
    "licenseNumber": "940000022",
    "licenseEffectiveDate": "01/23/2025",
    "licenseExpirationDate": "01/22/2026",
    "dataDate": "10/18/2025",
    "capacity": 104,
    "address": "7039 ALONDRA BLVD",
    "city": "PARAMOUNT",
    "zip": "90723",
    "county": "LOS ANGELES",
    "phone": "(562) 531-0990",
    "lat": 33.889491,
    "lng": -118.175886
  },
  {
    "id": "940000091",
    "name": "PARAMOUNT CONVALESCENT HOSPITAL",
    "npi": "1346346277",
    "hcaiId": "206190598",
    "businessName": "PARAMOUNT CONVALESCENT GROUP, INC.",
    "contactEmail": "ADMIN@PARAMOUNTCONVALESCENT.COM",
    "categoryName": "SKILLED NURSING FACILITY",
    "categoryCode": "SNF",
    "licenseStatus": "ACTIVE",
    "inService": true,
    "licenseNumber": "940000131",
    "licenseEffectiveDate": "11/30/2024",
    "licenseExpirationDate": "11/29/2025",
    "dataDate": "10/18/2025",
    "capacity": 59,
    "address": "8558 ROSECRANS AVE",
    "city": "PARAMOUNT",
    "zip": "90723",
    "county": "LOS ANGELES",
    "phone": "(562) 634-6877",
    "lat": 33.903225,
    "lng": -118.1495205
  },
  {
    "id": "930000456",
    "name": "PARAMOUNT DIALYSIS CENTER",
    "npi": "1720041908",
    "hcaiId": "306190949",
    "businessName": "TOTAL RENAL CARE, INC.",
    "contactEmail": "CAL_C@DAVITA.COM",
    "categoryName": "CHRONIC DIALYSIS CLINIC",
    "categoryCode": "ESRD/CDC",
    "licenseStatus": "ACTIVE",
    "inService": true,
    "licenseNumber": "930000393",
    "licenseEffectiveDate": "02/05/2025",
    "licenseExpirationDate": "02/04/2026",
    "dataDate": "10/18/2025",
    "capacity": 37,
    "address": "15625 S LAKEWOOD BLVD",
    "city": "PARAMOUNT",
    "zip": "90723",
    "county": "LOS ANGELES",
    "phone": "(562) 790-2478",
    "lat": 33.89182557,
    "lng": -118.1428345
  },
  {
    "id": "630017211",
    "name": "PARAMOUNT SURGERY CENTER, LLC",
    "npi": "1538530324",
    "hcaiId": null,
    "businessName": null,
    "contactEmail": null,
    "categoryName": "SURGICAL CLINIC",
    "categoryCode": "ASC",
    "licenseStatus": null,
    "inService": null,
    "licenseNumber": null,
    "licenseEffectiveDate": null,
    "licenseExpirationDate": null,
    "dataDate": "10/18/2025",
    "capacity": 0,
    "address": "15942 COLORADO AVE",
    "city": "PARAMOUNT",
    "zip": "90723",
    "county": "LOS ANGELES",
    "phone": null,
    "lat": 33.88761,
    "lng": -118.161171
  },
  {
    "id": "980001349",
    "name": "RELIANCE HOME HEALTH SERVICES",
    "npi": "1932184561",
    "hcaiId": "406194564",
    "businessName": "NURSES ON WHEELS, INC.",
    "contactEmail": "RELIANCEHOMEHEALTHSERVICES@YAHOO.COM",
    "categoryName": "HOME HEALTH AGENCY",
    "categoryCode": "HHA",
    "licenseStatus": "ACTIVE",
    "inService": true,
    "licenseNumber": "980000752",
    "licenseEffectiveDate": "11/02/2024",
    "licenseExpirationDate": "11/01/2025",
    "dataDate": "10/18/2025",
    "capacity": 0,
    "address": "16660 PARAMOUNT BLVD, SUITE 304",
    "city": "PARAMOUNT",
    "zip": "90723",
    "county": "LOS ANGELES",
    "phone": "(562) 630-8783",
    "lat": 33.882723,
    "lng": -118.1596455
  },
  {
    "id": "630027850",
    "name": "ROADS COMMUNITY CLINIC - PARAMOUNT",
    "npi": null,
    "hcaiId": null,
    "businessName": "THE R.O.A.D.S. FOUNDATION, INC.",
    "contactEmail": null,
    "categoryName": "PRIMARY CARE CLINIC",
    "categoryCode": "FQHC/COMTYC",
    "licenseStatus": "ACTIVE",
    "inService": true,
    "licenseNumber": "550002986",
    "licenseEffectiveDate": "03/02/2025",
    "licenseExpirationDate": "03/01/2026",
    "dataDate": "10/18/2025",
    "capacity": 0,
    "address": "16415 COLORADO AVE, SUITE 308",
    "city": "PARAMOUNT",
    "zip": "90723",
    "county": "LOS ANGELES",
    "phone": null,
    "lat": 33.88531872,
    "lng": -118.1614971
  },
  {
    "id": "980001732",
    "name": "SALCARE HOME HEALTH SERVICES",
    "npi": "1336129493",
    "hcaiId": "406196822",
    "businessName": "SALCARE HOME HEALTH SERVICES, INC.",
    "contactEmail": "SALCARE1159@GMAIL.COM",
    "categoryName": "HOME HEALTH AGENCY",
    "categoryCode": "HHA",
    "licenseStatus": "ACTIVE",
    "inService": true,
    "licenseNumber": "980001003",
    "licenseEffectiveDate": "03/31/2025",
    "licenseExpirationDate": "03/30/2026",
    "dataDate": "10/18/2025",
    "capacity": 0,
    "address": "15607 LAKEWOOD BLVD, SUITE A",
    "city": "PARAMOUNT",
    "zip": "90723",
    "county": "LOS ANGELES",
    "phone": "(323) 777-9339",
    "lat": 33.892137,
    "lng": -118.143261
  },
  {
    "id": "630016208",
    "name": "STEAMAN HOME HEALTH INCORPORATED",
    "npi": "1689058281",
    "hcaiId": "406191315",
    "businessName": "STEAMAN HOME HEALTH INCORPORATED",
    "contactEmail": "PRESIDENT@PHSHEALTH.ORG",
    "categoryName": "HOME HEALTH AGENCY",
    "categoryCode": "HHA",
    "licenseStatus": "ACTIVE",
    "inService": true,
    "licenseNumber": "550004332",
    "licenseEffectiveDate": "07/28/2024",
    "licenseExpirationDate": "07/27/2025",
    "dataDate": "10/18/2025",
    "capacity": 0,
    "address": "14051 PARAMOUNT BLVD, SUITE C",
    "city": "PARAMOUNT",
    "zip": "90723",
    "county": "LOS ANGELES",
    "phone": "(562) 529-5393",
    "lat": 33.905862,
    "lng": -118.16082
  },
  {
    "id": "630019796",
    "name": "SUNRISE PREMIER HOMES",
    "npi": null,
    "hcaiId": null,
    "businessName": "SUNRISE PREMIER HOMES LLC",
    "contactEmail": "SUNRISEHOMESFAMILY@GMAIL.COM",
    "categoryName": "INTERMEDIATE CARE FACILITY-DD/H/N/CN/IID",
    "categoryCode": "ICFDDN",
    "licenseStatus": "ACTIVE",
    "inService": true,
    "licenseNumber": "550007968",
    "licenseEffectiveDate": "04/15/2025",
    "licenseExpirationDate": "04/14/2026",
    "dataDate": "10/18/2025",
    "capacity": 6,
    "address": "13831 RUTHER AVE",
    "city": "PARAMOUNT",
    "zip": "90723",
    "county": "LOS ANGELES",
    "phone": "(562) 390-2942",
    "lat": 33.90869,
    "lng": -118.158842
  }
]