[
  {
    "id": "630021224",
    "name": "AA CARE HOSPICE",
    "npi": null,
    "hcaiId": "406195882",
    "businessName": "AA CARE HOSPICE",
    "contactEmail": "GARYASHBURN@SBCGLOBAL.NET",
    "categoryName": "HOSPICE",
    "categoryCode": "HOSPICE",
    "licenseStatus": "ACTIVE",
    "inService": true,
    "licenseNumber": "550006169",
    "licenseEffectiveDate": "01/09/2024",
    "licenseExpirationDate": "03/28/2025",
    "dataDate": "10/18/2025",
    "capacity": 0,
    "address": "715 S AVERILL AVE",
    "city": "SAN PEDRO",
    "zip": "90732",
    "county": "LOS ANGELES",
    "phone": "(310) 319-0780",
    "lat": 33.7375073,
    "lng": -118.3078489
  },
  {
    "id": "630027675",
    "name": "CHOICE HEALTH NETWORK, SAN PEDRO",
    "npi": null,
    "hcaiId": null,
    "businessName": "CHOICE HEALTH NETWORK",
    "contactEmail": null,
    "categoryName": "PRIMARY CARE CLINIC",
    "categoryCode": "COMTYC",
    "licenseStatus": "ACTIVE",
    "inService": true,
    "licenseNumber": "550008693",
    "licenseEffectiveDate": "08/17/2025",
    "licenseExpirationDate": "08/16/2026",
    "dataDate": "10/18/2025",
    "capacity": 0,
    "address": "1350 W 6TH ST, SUITE 3",
    "city": "SAN PEDRO",
    "zip": "90732",
    "county": "LOS ANGELES",
    "phone": null,
    "lat": 33.73905899,
    "lng": -118.306603
  },
  {
    "id": "910000057",
    "name": "LOS PALOS POST-ACUTE CARE CENTER",
    "npi": "1306914775",
    "hcaiId": "206190492",
    "businessName": "SAN PEDRO CONVALESCENT HOME, INC.",
    "contactEmail": "OC@LPCONV.COM",
    "categoryName": "SKILLED NURSING FACILITY",
    "categoryCode": "SNF",
    "licenseStatus": "ACTIVE",
    "inService": true,
    "licenseNumber": "910000076",
    "licenseEffectiveDate": "11/01/2024",
    "licenseExpirationDate": "10/31/2025",
    "dataDate": "10/18/2025",
    "capacity": 99,
    "address": "1430 W 6TH ST",
    "city": "SAN PEDRO",
    "zip": "90732",
    "county": "LOS ANGELES",
    "phone": "(310) 832-6431",
    "lat": 33.73992,
    "lng": -118.308267
  },
  {
    "id": "930000157",
    "name": "PROVIDENCE LITTLE COMPANY OF MARY MEDICAL CENTER SAN PEDRO",
    "npi": "1942247291",
    "hcaiId": "106190680",
    "businessName": "PROVIDENCE HEALTH SYSTEM - SOUTHERN CALIFORNIA",
    "contactEmail": "MICHAEL.RICKS@PROVIDENCE.ORG",
    "categoryName": "GENERAL ACUTE CARE HOSPITAL",
    "categoryCode": "GACH",
    "licenseStatus": "ACTIVE",
    "inService": true,
    "licenseNumber": "930000142",
    "licenseEffectiveDate": "11/01/2025",
    "licenseExpirationDate": "10/31/2026",
    "dataDate": "10/18/2025",
    "capacity": 158,
    "address": "1300 W 7TH ST",
    "city": "SAN PEDRO",
    "zip": "90732",
    "county": "LOS ANGELES",
    "phone": "(310) 514-5494",
    "lat": 33.738201,
    "lng": -118.3036185
  },
  {
    "id": "930001163",
    "name": "PROVIDENCE LITTLE COMPANY OF MARY MEDICAL CENTER SAN PEDRO",
    "npi": "1942247291",
    "hcaiId": null,
    "businessName": "PROVIDENCE HEALTH SYSTEM - SOUTHERN CALIFORNIA",
    "contactEmail": "PLCMSP.REGULATORY@PROVIDENCE.ORG",
    "categoryName": "ACUTE PSYCHIATRIC HOSPITAL",
    "categoryCode": "APH",
    "licenseStatus": "ACTIVE",
    "inService": true,
    "licenseNumber": "930000142",
    "licenseEffectiveDate": "11/01/2025",
    "licenseExpirationDate": "10/31/2026",
    "dataDate": "10/18/2025",
    "capacity": 25,
    "address": "1300 W 7TH ST",
    "city": "SAN PEDRO",
    "zip": "90732",
    "county": "LOS ANGELES",
    "phone": "(213) 832-3311",
    "lat": 33.738201,
    "lng": -118.3036185
  },
  {
    "id": "930000751",
    "name": "PROVIDENCE LITTLE COMPANY OF MARY RECOVERY CENTER",
    "npi": "1942247291",
    "hcaiId": null,
    "businessName": "PROVIDENCE HEALTH SYSTEM - SOUTHERN CALIFORNIA",
    "contactEmail": "PLCMSP-SACC.REGULATORY@PROVIDENCE.ORG",
    "categoryName": "CHEMICAL DEPENDENCY RECOVERY HOSPITAL",
    "categoryCode": "CDRH",
    "licenseStatus": "ACTIVE",
    "inService": true,
    "licenseNumber": "930000142",
    "licenseEffectiveDate": "11/01/2025",
    "licenseExpirationDate": "10/31/2026",
    "dataDate": "10/18/2025",
    "capacity": 48,
    "address": "1386 W 7TH ST",
    "city": "SAN PEDRO",
    "zip": "90732",
    "county": "LOS ANGELES",
    "phone": "(310) 832-3311",
    "lat": 33.73799673,
    "lng": -118.3075153
  },
  {
    "id": "930000436",
    "name": "PROVIDENCE LITTLE COMPANY OF MARY SUBACUTE CARE CENTER",
    "npi": "1770639809",
    "hcaiId": "206190362",
    "businessName": "PROVIDENCE HEALTH SYSTEM - SOUTHERN CALIFORNIA",
    "contactEmail": "PLCMSP-SACC.REGULATORY@PROVIDENCE.ORG",
    "categoryName": "SKILLED NURSING FACILITY",
    "categoryCode": "SNF",
    "licenseStatus": "ACTIVE",
    "inService": true,
    "licenseNumber": "930000142",
    "licenseEffectiveDate": "11/01/2025",
    "licenseExpirationDate": "10/31/2026",
    "dataDate": "10/18/2025",
    "capacity": 125,
    "address": "1322 W 6TH ST",
    "city": "SAN PEDRO",
    "zip": "90732",
    "county": "LOS ANGELES",
    "phone": "(310) 832-3311",
    "lat": 33.738966,
    "lng": -118.306197
  },
  {
    "id": "980001127",
    "name": "SAN PEDRO PENINSULA HOME CARE/HOSPICE",
    "npi": null,
    "hcaiId": null,
    "businessName": null,
    "contactEmail": null,
    "categoryName": "HOSPICE",
    "categoryCode": "HOSPICE",
    "licenseStatus": null,
    "inService": null,
    "licenseNumber": null,
    "licenseEffectiveDate": null,
    "licenseExpirationDate": null,
    "dataDate": "10/18/2025",
    "capacity": 0,
    "address": "1386-B WEST SEVENTH STREET",
    "city": "SAN PEDRO",
    "zip": "90732",
    "county": "LOS ANGELES",
    "phone": null,
    "lat": 33.737946,
    "lng": -118.307533
  },
  {
    "id": "630016707",
    "name": "SAN PEDRO SURGERY CENTER, INC.",
    "npi": "1457790339",
    "hcaiId": null,
    "businessName": null,
    "contactEmail": null,
    "categoryName": "SURGICAL CLINIC",
    "categoryCode": "ASC",
    "licenseStatus": null,
    "inService": null,
    "licenseNumber": null,
    "licenseEffectiveDate": null,
    "licenseExpirationDate": null,
    "dataDate": "10/18/2025",
    "capacity": 0,
    "address": "1360 W. 6TH STREET #D",
    "city": "SAN PEDRO",
    "zip": "90732",
    "county": "LOS ANGELES",
    "phone": null,
    "lat": 33.739263,
    "lng": -118.307448
  },
  {
    "id": "910000077",
    "name": "SEACREST POST-ACUTE CARE CENTER",
    "npi": "1629146097",
    "hcaiId": "206190693",
    "businessName": "SEACREST CONVALESCENT HOSPITAL, INC.",
    "contactEmail": "ADMIN@SCCONV.COM",
    "categoryName": "SKILLED NURSING FACILITY",
    "categoryCode": "SNF",
    "licenseStatus": "ACTIVE",
    "inService": true,
    "licenseNumber": "910000100",
    "licenseEffectiveDate": "06/01/2025",
    "licenseExpirationDate": "05/31/2026",
    "dataDate": "10/18/2025",
    "capacity": 80,
    "address": "1416 W 6TH ST",
    "city": "SAN PEDRO",
    "zip": "90732",
    "county": "LOS ANGELES",
    "phone": "(310) 290-5863",
    "lat": 33.739281,
    "lng": -118.3078935
  }
]