[
  {
    "id": "630027592",
    "name": "ABSOLUTE CARE HEALTH PROVIDERS INC",
    "npi": null,
    "hcaiId": null,
    "businessName": "ABSOLUTE CARE HEALTH PROVIDERS INC",
    "contactEmail": "ABSOLUTECAREHEALTHP@GMAIL.COM",
    "categoryName": "HOME HEALTH AGENCY",
    "categoryCode": "HHA",
    "licenseStatus": "ACTIVE",
    "inService": true,
    "licenseNumber": "550009517",
    "licenseEffectiveDate": "11/20/2025",
    "licenseExpirationDate": "11/19/2026",
    "dataDate": "10/18/2025",
    "capacity": 0,
    "address": "500 E CARSON PLAZA DR, SUITE 218",
    "city": "CARSON",
    "zip": "90746",
    "county": "LOS ANGELES",
    "phone": "(424) 266-9530",
    "lat": 33.84458502,
    "lng": -118.265677
  },
  {
    "id": "630018691",
    "name": "BHS CARSON HEALTH CENTER",
    "npi": null,
    "hcaiId": null,
    "businessName": "BEHAVIORAL HEALTH SERVICES, INC.",
    "contactEmail": "MVENABLE@BHS-INC.ORG",
    "categoryName": "PRIMARY CARE CLINIC",
    "categoryCode": "COMTYC",
    "licenseStatus": "ACTIVE",
    "inService": true,
    "licenseNumber": "550009091",
    "licenseEffectiveDate": "04/23/2025",
    "licenseExpirationDate": "04/22/2026",
    "dataDate": "10/18/2025",
    "capacity": 0,
    "address": "1000 E DOMINGUEZ ST, SUITE 110",
    "city": "CARSON",
    "zip": "90746",
    "county": "LOS ANGELES",
    "phone": "(310) 679-9126",
    "lat": 33.84017898,
    "lng": -118.257544
  },
  {
    "id": "930000829",
    "name": "BMA CARSON COMMUNITY DIALYSIS",
    "npi": null,
    "hcaiId": "306194101",
    "businessName": "FRESENIUS MEDICAL CARE LONG BEACH, LLC",
    "contactEmail": "CLINIC1485@FMC-NA.COM",
    "categoryName": "CHRONIC DIALYSIS CLINIC",
    "categoryCode": "ESRD/CDC",
    "licenseStatus": "ACTIVE",
    "inService": true,
    "licenseNumber": "930000442",
    "licenseEffectiveDate": "10/24/2025",
    "licenseExpirationDate": "10/23/2026",
    "dataDate": "10/18/2025",
    "capacity": 11,
    "address": "20710 LEAPWOOD AVE, SUITE E",
    "city": "CARSON",
    "zip": "90746",
    "county": "LOS ANGELES",
    "phone": "(310) 323-8997",
    "lat": 33.842799,
    "lng": -118.2581595
  },
  {
    "id": "060001823",
    "name": "C & C CARSON ADULT DAY HEALTH CARE CENTER",
    "npi": null,
    "hcaiId": null,
    "businessName": "CARSON ADULT DAY HEALTH CARE CENTER, INC.",
    "contactEmail": "CCADHC@YAHOO.COM",
    "categoryName": "ADULT DAY HEALTH CARE",
    "categoryCode": "ADHC",
    "licenseStatus": "ACTIVE",
    "inService": true,
    "licenseNumber": "060000640",
    "licenseEffectiveDate": "11/15/2025",
    "licenseExpirationDate": "11/14/2026",
    "dataDate": "10/18/2025",
    "capacity": 0,
    "address": "451 E CARSON PLAZA DR, SUITE 105",
    "city": "CARSON",
    "zip": "90746",
    "county": "LOS ANGELES",
    "phone": "(310) 354-0031",
    "lat": 33.847272,
    "lng": -118.266039
  },
  {
    "id": "630011252",
    "name": "CAREPOINTE HOME HEALTH SERVICES INC.",
    "npi": "1528287984",
    "hcaiId": "406197184",
    "businessName": "CAREPOINTE HOME HEALTH SERVICES, INC.",
    "contactEmail": "CAREPOINTEHHSINC@YAHOO.COM",
    "categoryName": "HOME HEALTH AGENCY",
    "categoryCode": "HHA",
    "licenseStatus": "ACTIVE",
    "inService": true,
    "licenseNumber": "550000777",
    "licenseEffectiveDate": "11/11/2024",
    "licenseExpirationDate": "11/10/2025",
    "dataDate": "10/18/2025",
    "capacity": 0,
    "address": "454 E CARSON PLAZA DR, SUITE 209",
    "city": "CARSON",
    "zip": "90746",
    "county": "LOS ANGELES",
    "phone": "(310) 965-6550",
    "lat": 33.846507,
    "lng": -118.267056
  },
  {
    "id": "630013267",
    "name": "CARINGMINDS SERVICES, INC.",
    "npi": null,
    "hcaiId": "406197902",
    "businessName": "CARINGMINDS SERVICES, INC.",
    "contactEmail": "CARINGMINDSINC@GMAIL.COM",
    "categoryName": "HOME HEALTH AGENCY",
    "categoryCode": "HHA",
    "licenseStatus": "ACTIVE",
    "inService": true,
    "licenseNumber": "550002169",
    "licenseEffectiveDate": "01/04/2025",
    "licenseExpirationDate": "01/03/2026",
    "dataDate": "10/18/2025",
    "capacity": 0,
    "address": "550 E CARSON PLAZA DR, SUITE 221",
    "city": "CARSON",
    "zip": "90746",
    "county": "LOS ANGELES",
    "phone": "(310) 324-5400",
    "lat": 33.84381799,
    "lng": -118.264941
  },
  {
    "id": "630016655",
    "name": "CARSON HEALTHCARE SERVICES, LLC",
    "npi": "1174992598",
    "hcaiId": "406190525",
    "businessName": "CARSON HEALTHCARE SERVICES, LLC",
    "contactEmail": "CARSONHEALTHCARESERVICES@GMAIL.COM",
    "categoryName": "HOME HEALTH AGENCY",
    "categoryCode": "HHA",
    "licenseStatus": "ACTIVE",
    "inService": true,
    "licenseNumber": "550004139",
    "licenseEffectiveDate": "02/08/2025",
    "licenseExpirationDate": "02/07/2026",
    "dataDate": "10/18/2025",
    "capacity": 0,
    "address": "500 E CARSON PLAZA DR, SUITE 222",
    "city": "CARSON",
    "zip": "90746",
    "county": "LOS ANGELES",
    "phone": "(310) 638-1068",
    "lat": 33.84458502,
    "lng": -118.265677
  },
  {
    "id": "630018057",
    "name": "CARSON PAVILION DIALYSIS",
    "npi": null,
    "hcaiId": "306190450",
    "businessName": "SENSIBA DIALYSIS LLC",
    "contactEmail": "CAL_C@DAVITA.COM",
    "categoryName": "CHRONIC DIALYSIS CLINIC",
    "categoryCode": "ESRD/CDC",
    "licenseStatus": "ACTIVE",
    "inService": true,
    "licenseNumber": "550004806",
    "licenseEffectiveDate": "07/26/2025",
    "licenseExpirationDate": "07/25/2026",
    "dataDate": "10/18/2025",
    "capacity": 25,
    "address": "20930 CHICO ST",
    "city": "CARSON",
    "zip": "90746",
    "county": "LOS ANGELES",
    "phone": "(310) 638-1345",
    "lat": 33.84003295,
    "lng": -118.2570684
  },
  {
    "id": "630016365",
    "name": "DYNAMIC CARE HOSPICE, INC",
    "npi": "1407226707",
    "hcaiId": "406195619",
    "businessName": "DYNAMIC CARE HOSPICE, INC.",
    "contactEmail": "DYNAMICCAREHOSPICE@GMAIL.COM",
    "categoryName": "HOSPICE",
    "categoryCode": "HOSPICE",
    "licenseStatus": "ACTIVE",
    "inService": false,
    "licenseNumber": "550003336",
    "licenseEffectiveDate": "09/10/2024",
    "licenseExpirationDate": "12/29/2025",
    "dataDate": "10/18/2025",
    "capacity": 0,
    "address": "500 E CARSON PLAZA DR, SUITE 119",
    "city": "CARSON",
    "zip": "90746",
    "county": "LOS ANGELES",
    "phone": "(747) 255-1710",
    "lat": 33.84458502,
    "lng": -118.265677
  },
  {
    "id": "630013796",
    "name": "HARMONY HOSPICE CARE, INC.",
    "npi": null,
    "hcaiId": "406198023",
    "businessName": "HARMONY HOSPICE CARE, INC.",
    "contactEmail": "INFO@HARMONYHOSPICECARE.COM",
    "categoryName": "HOSPICE",
    "categoryCode": "HOSPICE",
    "licenseStatus": "ACTIVE",
    "inService": true,
    "licenseNumber": "550002316",
    "licenseEffectiveDate": "06/06/2025",
    "licenseExpirationDate": "06/05/2027",
    "dataDate": "10/18/2025",
    "capacity": 0,
    "address": "550 E CARSON PLAZA DR, SUITE 126",
    "city": "CARSON",
    "zip": "90746",
    "county": "LOS ANGELES",
    "phone": "(818) 405-0103",
    "lat": 33.84381799,
    "lng": -118.264941
  },
  {
    "id": "630016762",
    "name": "J & T HOME CARE",
    "npi": "1235759580",
    "hcaiId": null,
    "businessName": null,
    "contactEmail": "JANDTHOMECARE@GMAIL.COM",
    "categoryName": "INTERMEDIATE CARE FACILITY-DD/H/N/CN/IID",
    "categoryCode": "ICFDDN",
    "licenseStatus": "ACTIVE",
    "inService": true,
    "licenseNumber": "550004419",
    "licenseEffectiveDate": "10/26/2025",
    "licenseExpirationDate": "10/25/2026",
    "dataDate": "10/18/2025",
    "capacity": 6,
    "address": "19213 NESTOR AVENUE",
    "city": "CARSON",
    "zip": "90746",
    "county": "LOS ANGELES",
    "phone": "(310) 871-7755",
    "lat": 33.856218,
    "lng": -118.2448395
  },
  {
    "id": "630020743",
    "name": "PLANNED PARENTHOOD LOS ANGELES- CARSON CENTER",
    "npi": "1497373641",
    "hcaiId": "306190656",
    "businessName": "PLANNED PARENTHOOD LOS ANGELES",
    "contactEmail": "BRENDA.GUERRERO@PP-LA.ORG",
    "categoryName": "PRIMARY CARE CLINIC",
    "categoryCode": "COMTYC",
    "licenseStatus": "ACTIVE",
    "inService": true,
    "licenseNumber": "550005945",
    "licenseEffectiveDate": "01/12/2025",
    "licenseExpirationDate": "01/11/2026",
    "dataDate": "10/18/2025",
    "capacity": 0,
    "address": "661 E UNIVERSITY DR",
    "city": "CARSON",
    "zip": "90746",
    "county": "LOS ANGELES",
    "phone": "(213) 284-3131",
    "lat": 33.85833757,
    "lng": -118.2640348
  },
  {
    "id": "630016677",
    "name": "PRIME CARE HEALTH SERVICES, INC.",
    "npi": "1346694346",
    "hcaiId": "406191417",
    "businessName": "PRIME CARE HEALTH SERVICES, INC.",
    "contactEmail": "PRIMEHSINC@GMAIL.COM",
    "categoryName": "HOME HEALTH AGENCY",
    "categoryCode": "HHA",
    "licenseStatus": "ACTIVE",
    "inService": true,
    "licenseNumber": "550004448",
    "licenseEffectiveDate": "10/04/2025",
    "licenseExpirationDate": "10/03/2026",
    "dataDate": "10/18/2025",
    "capacity": 0,
    "address": "451 E CARSON PLAZA DR, SUITE 101",
    "city": "CARSON",
    "zip": "90746",
    "county": "LOS ANGELES",
    "phone": "(310) 418-5391",
    "lat": 33.84715499,
    "lng": -118.26608
  },
  {
    "id": "630013048",
    "name": "ST. JOSEPH HOSPITIUM",
    "npi": null,
    "hcaiId": "406197620",
    "businessName": "SUNNYDAY HOSPICE",
    "contactEmail": "SUNNYDAYHOSPICE01@GMAIL.COM",
    "categoryName": "HOSPICE",
    "categoryCode": "HOSPICE",
    "licenseStatus": "ACTIVE",
    "inService": false,
    "licenseNumber": "550001772",
    "licenseEffectiveDate": "08/06/2025",
    "licenseExpirationDate": "12/29/2025",
    "dataDate": "10/18/2025",
    "capacity": 0,
    "address": "500 EAST CARSON PLAZA DRIVE, SUITE 104",
    "city": "CARSON",
    "zip": "90746",
    "county": "LOS ANGELES",
    "phone": "(714) 814-5119",
    "lat": 33.84441214,
    "lng": -118.2651389
  },
  {
    "id": "630013075",
    "name": "U.S. RENAL CARE CARSON DIALYSIS",
    "npi": null,
    "hcaiId": "306197612",
    "businessName": "CARSON-AVALON DIALYSIS, LLC",
    "contactEmail": "LICENSING@USRENALCARE.COM",
    "categoryName": "CHRONIC DIALYSIS CLINIC",
    "categoryCode": "ESRD/CDC",
    "licenseStatus": "ACTIVE",
    "inService": true,
    "licenseNumber": "550001777",
    "licenseEffectiveDate": "11/22/2025",
    "licenseExpirationDate": "11/21/2026",
    "dataDate": "10/18/2025",
    "capacity": 18,
    "address": "930 E DOMINGUEZ ST, SUITE A",
    "city": "CARSON",
    "zip": "90746",
    "county": "LOS ANGELES",
    "phone": "(310) 532-5100",
    "lat": 33.84018,
    "lng": -118.258776
  },
  {
    "id": "630027737",
    "name": "VALLEYCHOICE HOME HEALTH EXTENDERS LLC",
    "npi": null,
    "hcaiId": null,
    "businessName": "VALLEY CHOICE HOME HEALTH EXTENDERS LLC",
    "contactEmail": "VALLEYCHOICEHOMEHEALTH@GMAIL.COM",
    "categoryName": "HOME HEALTH AGENCY",
    "categoryCode": "HHA",
    "licenseStatus": "ACTIVE",
    "inService": true,
    "licenseNumber": "550009915",
    "licenseEffectiveDate": "08/01/2025",
    "licenseExpirationDate": "01/31/2026",
    "dataDate": "10/18/2025",
    "capacity": 0,
    "address": "17625 SOUTH CENTRAL AVENUE, SUITE D",
    "city": "CARSON",
    "zip": "90746",
    "county": "LOS ANGELES",
    "phone": "(310) 228-8682",
    "lat": 33.870698,
    "lng": -118.2491457
  }
]