[
  {
    "id": "060001810",
    "name": "CARSON ADULT DAY HEALTH CARE CENTER",
    "npi": null,
    "hcaiId": null,
    "businessName": "WESTIN ENTERPRISES INC.",
    "contactEmail": "WESTINENTERPRISES@GMAIL.COM",
    "categoryName": "ADULT DAY HEALTH CARE",
    "categoryCode": "ADHC",
    "licenseStatus": "ACTIVE",
    "inService": true,
    "licenseNumber": "060000627",
    "licenseEffectiveDate": "04/19/2025",
    "licenseExpirationDate": "04/18/2026",
    "dataDate": "10/18/2025",
    "capacity": 0,
    "address": "23517 MAIN ST, SUITE 110",
    "city": "CARSON",
    "zip": "90745",
    "county": "LOS ANGELES",
    "phone": "(310) 522-3860",
    "lat": 33.81141898,
    "lng": -118.2757193
  },
  {
    "id": "930001620",
    "name": "CARSON DIALYSIS",
    "npi": "1649541954",
    "hcaiId": "306195005",
    "businessName": "TOTAL RENAL CARE, INC.",
    "contactEmail": "CAL_C@DAVITA.COM",
    "categoryName": "CHRONIC DIALYSIS CLINIC",
    "categoryCode": "ESRD/CDC",
    "licenseStatus": "ACTIVE",
    "inService": true,
    "licenseNumber": "930000902",
    "licenseEffectiveDate": "05/05/2025",
    "licenseExpirationDate": "05/04/2026",
    "dataDate": "10/18/2025",
    "capacity": 16,
    "address": "1309 E CARSON ST",
    "city": "CARSON",
    "zip": "90745",
    "county": "LOS ANGELES",
    "phone": "(310) 513-1427",
    "lat": 33.831981,
    "lng": -118.2505005
  },
  {
    "id": "630017256",
    "name": "COMPASSIONATE PARTNERS IN CARE HOSPICE",
    "npi": null,
    "hcaiId": "406193147",
    "businessName": "ALTHEAZ, LLC",
    "contactEmail": "CPCHOSPICE@GMAIL.COM",
    "categoryName": "HOSPICE",
    "categoryCode": "HOSPICE",
    "licenseStatus": "ACTIVE",
    "inService": true,
    "licenseNumber": "550006054",
    "licenseEffectiveDate": "01/05/2025",
    "licenseExpirationDate": "01/04/2027",
    "dataDate": "10/18/2025",
    "capacity": 0,
    "address": "357 E CARSON ST, SUITE 212-214",
    "city": "CARSON",
    "zip": "90745",
    "county": "LOS ANGELES",
    "phone": "(424) 479-4440",
    "lat": 33.832179,
    "lng": -118.270368
  },
  {
    "id": "630016349",
    "name": "DIGNITY HOSPICE PROVIDER",
    "npi": "1427428788",
    "hcaiId": "406198506",
    "businessName": "DIGNITY HOSPICE PROVIDER",
    "contactEmail": "DIGNITYHCARE@GMAIL.COM",
    "categoryName": "HOSPICE",
    "categoryCode": "HOSPICE",
    "licenseStatus": "ACTIVE",
    "inService": true,
    "licenseNumber": "550003987",
    "licenseEffectiveDate": "09/29/2023",
    "licenseExpirationDate": "09/28/2025",
    "dataDate": "10/18/2025",
    "capacity": 0,
    "address": "22030 MAIN STREET, SUITE 204",
    "city": "CARSON, CA",
    "zip": "90745",
    "county": "LOS ANGELES",
    "phone": "(424) 536-3246",
    "lat": 33.827112,
    "lng": -118.2764565
  },
  {
    "id": "960001911",
    "name": "FELIZ HEALTH CARE CENTER II",
    "npi": "1033376561",
    "hcaiId": null,
    "businessName": null,
    "contactEmail": "FELIZHEALTHCARE@HOTMAIL.COM",
    "categoryName": "INTERMEDIATE CARE FACILITY-DD/H/N/CN/IID",
    "categoryCode": "ICFDDH",
    "licenseStatus": "ACTIVE",
    "inService": true,
    "licenseNumber": "960000921",
    "licenseEffectiveDate": "11/24/2024",
    "licenseExpirationDate": "11/23/2025",
    "dataDate": "10/18/2025",
    "capacity": 6,
    "address": "21310 RAVENNA AVE",
    "city": "CARSON",
    "zip": "90745",
    "county": "LOS ANGELES",
    "phone": "(310) 518-9502",
    "lat": 33.834906,
    "lng": -118.2686445
  },
  {
    "id": "960002158",
    "name": "MVM HOME, INC.",
    "npi": "1598892770",
    "hcaiId": null,
    "businessName": "MVM HOME, INC.",
    "contactEmail": "ROSECHAPMAN46@AOL.COM",
    "categoryName": "INTERMEDIATE CARE FACILITY-DD/H/N/CN/IID",
    "categoryCode": "ICFDDH",
    "licenseStatus": "ACTIVE",
    "inService": true,
    "licenseNumber": "960001035",
    "licenseEffectiveDate": "11/10/2024",
    "licenseExpirationDate": "11/09/2025",
    "dataDate": "10/18/2025",
    "capacity": 6,
    "address": "607 E 228TH ST",
    "city": "CARSON",
    "zip": "90745",
    "county": "LOS ANGELES",
    "phone": "(310) 522-0125",
    "lat": 33.819435,
    "lng": -118.2642615
  },
  {
    "id": "960002393",
    "name": "PACIFIC HOME CARE",
    "npi": "1164663746",
    "hcaiId": null,
    "businessName": null,
    "contactEmail": "PACIFIC.HOMECARE@YAHOO.COM",
    "categoryName": "INTERMEDIATE CARE FACILITY-DD/H/N/CN/IID",
    "categoryCode": "ICFDDN",
    "licenseStatus": "ACTIVE",
    "inService": true,
    "licenseNumber": "960001097",
    "licenseEffectiveDate": "05/27/2025",
    "licenseExpirationDate": "05/26/2026",
    "dataDate": "10/18/2025",
    "capacity": 6,
    "address": "254 E 228TH ST",
    "city": "CARSON",
    "zip": "90745",
    "county": "LOS ANGELES",
    "phone": "(310) 513-1684",
    "lat": 33.818733,
    "lng": -118.2720735
  },
  {
    "id": "960001679",
    "name": "PECK HOUSE",
    "npi": "1861618340",
    "hcaiId": null,
    "businessName": "FREDERICK I. HOSKINS, INC.",
    "contactEmail": "OVERTHISKALENIK@GMAIL.COM",
    "categoryName": "INTERMEDIATE CARE FACILITY-DD/H/N/CN/IID",
    "categoryCode": "ICFDDH",
    "licenseStatus": "ACTIVE",
    "inService": true,
    "licenseNumber": "960000839",
    "licenseEffectiveDate": "02/25/2025",
    "licenseExpirationDate": "02/24/2026",
    "dataDate": "10/18/2025",
    "capacity": 6,
    "address": "1616 E 218TH ST",
    "city": "CARSON",
    "zip": "90745",
    "county": "LOS ANGELES",
    "phone": "(310) 941-8036",
    "lat": 33.82984699,
    "lng": -118.243431
  },
  {
    "id": "630011582",
    "name": "TRANSITIONS HOME HEALTH, INC.",
    "npi": "1073810180",
    "hcaiId": "406197219",
    "businessName": "TRANSITIONS HOME HEALTH, INC.",
    "contactEmail": "TRANSITIONS1010@GMAIL.COM",
    "categoryName": "HOME HEALTH AGENCY",
    "categoryCode": "HHA",
    "licenseStatus": "ACTIVE",
    "inService": true,
    "licenseNumber": "550000948",
    "licenseEffectiveDate": "08/05/2025",
    "licenseExpirationDate": "08/04/2026",
    "dataDate": "10/18/2025",
    "capacity": 0,
    "address": "23601 AVALON BLVD, SUITE 207",
    "city": "CARSON",
    "zip": "90745",
    "county": "LOS ANGELES",
    "phone": "(310) 513-0687",
    "lat": 33.81113584,
    "lng": -118.2641277
  },
  {
    "id": "630014457",
    "name": "VENICE SOUTH BAY CARSON",
    "npi": null,
    "hcaiId": "306197826",
    "businessName": "VENICE FAMILY CLINIC",
    "contactEmail": "J.HICKS@SBCLINIC.ORG",
    "categoryName": "PRIMARY CARE CLINIC",
    "categoryCode": "COMTYC",
    "licenseStatus": "ACTIVE",
    "inService": true,
    "licenseNumber": "960000169",
    "licenseEffectiveDate": "11/01/2025",
    "licenseExpirationDate": "10/31/2026",
    "dataDate": "10/18/2025",
    "capacity": 0,
    "address": "270 E 223RD ST",
    "city": "CARSON",
    "zip": "90745",
    "county": "LOS ANGELES",
    "phone": "(310) 221-6800",
    "lat": 33.823998,
    "lng": -118.2729915
  }
]