[
  {
    "id": "630018596",
    "name": "BHS- EL PUERTO HEALTH CENTER",
    "npi": "1548659105",
    "hcaiId": null,
    "businessName": "BEHAVIORAL HEALTH SERVICES, INC.",
    "contactEmail": null,
    "categoryName": "PRIMARY CARE CLINIC",
    "categoryCode": "COMTYC",
    "licenseStatus": "ACTIVE",
    "inService": true,
    "licenseNumber": "550003493",
    "licenseEffectiveDate": "04/11/2025",
    "licenseExpirationDate": "04/10/2026",
    "dataDate": "10/18/2025",
    "capacity": 0,
    "address": "1334 N AVALON BLVD",
    "city": "WILMINGTON",
    "zip": "90744",
    "county": "LOS ANGELES",
    "phone": null,
    "lat": 33.78987,
    "lng": -118.26297
  },
  {
    "id": "630020021",
    "name": "BUDDHIST TZU CHI HEALTH CENTER, WILMINGTON",
    "npi": "1639398704",
    "hcaiId": null,
    "businessName": "BUDDHIST TZU CHI MEDICAL  FOUNDATION",
    "contactEmail": null,
    "categoryName": "PRIMARY CARE CLINIC",
    "categoryCode": "FREEC",
    "licenseStatus": "ACTIVE",
    "inService": true,
    "licenseNumber": "960000851",
    "licenseEffectiveDate": "12/07/2024",
    "licenseExpirationDate": "12/06/2025",
    "dataDate": "10/18/2025",
    "capacity": 0,
    "address": "1355 BROAD AVE",
    "city": "WILMINGTON",
    "zip": "90744",
    "county": "LOS ANGELES",
    "phone": null,
    "lat": 33.790266,
    "lng": -118.261827
  },
  {
    "id": "630027795",
    "name": "HEALING TO YOU WILMINGTON COMPREHENSIVE COMMUNITY CLINIC",
    "npi": null,
    "hcaiId": null,
    "businessName": "HEALING TO YOU",
    "contactEmail": "CARITERAN@HEALINGTOYOU.ORG",
    "categoryName": "PRIMARY CARE CLINIC",
    "categoryCode": "COMTYC",
    "licenseStatus": "ACTIVE",
    "inService": true,
    "licenseNumber": "550009940",
    "licenseEffectiveDate": "10/10/2025",
    "licenseExpirationDate": "04/09/2026",
    "dataDate": "10/18/2025",
    "capacity": 0,
    "address": "1703 NORTH AVALON BOULEVARD",
    "city": "WILMINGTON",
    "zip": "90744",
    "county": "LOS ANGELES",
    "phone": "(562) 715-5672",
    "lat": 33.7976249,
    "lng": -118.2640404
  },
  {
    "id": "630026750",
    "name": "MOBILE VAN UNIT FOR WILMINGTON COMMUNITY CLINIC",
    "npi": null,
    "hcaiId": null,
    "businessName": "WILMINGTON COMMUNITY CLINIC",
    "contactEmail": null,
    "categoryName": "PRIMARY CARE CLINIC",
    "categoryCode": "COMTYC",
    "licenseStatus": "ACTIVE",
    "inService": true,
    "licenseNumber": "960001021",
    "licenseEffectiveDate": "11/25/2024",
    "licenseExpirationDate": "11/24/2025",
    "dataDate": "10/18/2025",
    "capacity": 0,
    "address": "1700 GULF AVE",
    "city": "WILMINGTON",
    "zip": "90744",
    "county": "LOS ANGELES",
    "phone": null,
    "lat": 33.797547,
    "lng": -118.272789
  },
  {
    "id": "630005641",
    "name": "NORTHEAST COMMUNITY CLINIC",
    "npi": "1700097540",
    "hcaiId": "306197557",
    "businessName": "NORTHEAST COMMUNITY CLINIC",
    "contactEmail": "OPSSUPPORT@NECC.NET",
    "categoryName": "PRIMARY CARE CLINIC",
    "categoryCode": "COMTYC",
    "licenseStatus": "ACTIVE",
    "inService": true,
    "licenseNumber": "550000125",
    "licenseEffectiveDate": "02/01/2025",
    "licenseExpirationDate": "01/31/2026",
    "dataDate": "10/18/2025",
    "capacity": 0,
    "address": "200 E ANAHEIM ST",
    "city": "WILMINGTON",
    "zip": "90744",
    "county": "LOS ANGELES",
    "phone": "(310) 816-9700",
    "lat": 33.779943,
    "lng": -118.260801
  },
  {
    "id": "630020071",
    "name": "NORTHEAST COMMUNITY CLINIC - MOBILE DENTAL VAN",
    "npi": "1700097540",
    "hcaiId": null,
    "businessName": "NORTHEAST COMMUNITY CLINIC",
    "contactEmail": null,
    "categoryName": "PRIMARY CARE CLINIC",
    "categoryCode": "COMTYC",
    "licenseStatus": "ACTIVE",
    "inService": true,
    "licenseNumber": "550000125",
    "licenseEffectiveDate": "02/01/2025",
    "licenseExpirationDate": "01/31/2026",
    "dataDate": "10/18/2025",
    "capacity": 0,
    "address": "200 E ANAHEIM ST",
    "city": "WILMINGTON",
    "zip": "90744",
    "county": "LOS ANGELES",
    "phone": null,
    "lat": 33.779943,
    "lng": -118.260801
  },
  {
    "id": "630015942",
    "name": "SOUTH BAY SUNSET PAVILION",
    "npi": null,
    "hcaiId": "206191365",
    "businessName": "SOUTH BAY SUNSET PAVILION CORP.",
    "contactEmail": "SBS.PAVILION@GMAIL.COM",
    "categoryName": "CONGREGATE LIVING HEALTH FACILITY",
    "categoryCode": "CLHF",
    "licenseStatus": "ACTIVE",
    "inService": true,
    "licenseNumber": "550004123",
    "licenseEffectiveDate": "01/23/2025",
    "licenseExpirationDate": "01/22/2026",
    "dataDate": "10/18/2025",
    "capacity": 6,
    "address": "1565 GULF AVE",
    "city": "WILMINGTON",
    "zip": "90744",
    "county": "LOS ANGELES",
    "phone": "(424) 536-3124",
    "lat": 33.794667,
    "lng": -118.274454
  },
  {
    "id": "630014703",
    "name": "TOTAL CARE MEDICAL CLINIC",
    "npi": null,
    "hcaiId": "306197913",
    "businessName": "TOTAL CARE MEDICAL CLINIC, INC.",
    "contactEmail": "TOTALCAREMEDICALCLINIC@YAHOO.COM",
    "categoryName": "PRIMARY CARE CLINIC",
    "categoryCode": "COMTYC",
    "licenseStatus": "ACTIVE",
    "inService": true,
    "licenseNumber": "550002631",
    "licenseEffectiveDate": "03/27/2025",
    "licenseExpirationDate": "03/26/2026",
    "dataDate": "10/18/2025",
    "capacity": 0,
    "address": "1110 W ANAHEIM ST, SUITE 6",
    "city": "WILMINGTON",
    "zip": "90744",
    "county": "LOS ANGELES",
    "phone": "(310) 872-3560",
    "lat": 33.778962,
    "lng": -118.275948
  },
  {
    "id": "630027872",
    "name": "UNITED COMMUNITY CLINIC",
    "npi": null,
    "hcaiId": null,
    "businessName": "UNITED COMMUNITY CLINIC",
    "contactEmail": "JOHNKAHEN@GMAIL.COM",
    "categoryName": "PRIMARY CARE CLINIC",
    "categoryCode": "COMTYC",
    "licenseStatus": "ACTIVE",
    "inService": true,
    "licenseNumber": "550009742",
    "licenseEffectiveDate": "09/27/2025",
    "licenseExpirationDate": "03/26/2026",
    "dataDate": "10/18/2025",
    "capacity": 0,
    "address": "714 N AVALON BLVD",
    "city": "WILMINGTON",
    "zip": "90744",
    "county": "LOS ANGELES",
    "phone": "(310) 745-1343",
    "lat": 33.77898799,
    "lng": -118.262109
  },
  {
    "id": "960002141",
    "name": "WILMINGTON COMMUNITY CLINIC",
    "npi": null,
    "hcaiId": "306191038",
    "businessName": "WILMINGTON COMMUNITY CLINIC",
    "contactEmail": "DBONILLA@WILMINGTONCC.ORG",
    "categoryName": "PRIMARY CARE CLINIC",
    "categoryCode": "COMTYC",
    "licenseStatus": "ACTIVE",
    "inService": true,
    "licenseNumber": "960001021",
    "licenseEffectiveDate": "11/25/2024",
    "licenseExpirationDate": "11/24/2025",
    "dataDate": "10/18/2025",
    "capacity": 0,
    "address": "1009 N AVALON BLVD",
    "city": "WILMINGTON",
    "zip": "90744",
    "county": "LOS ANGELES",
    "phone": "(310) 549-5760",
    "lat": 33.783147,
    "lng": -118.262844
  },
  {
    "id": "630026224",
    "name": "WILMINGTON COMMUNITY CLINIC AT WILMINGTON MIDDLE SCHOOL",
    "npi": null,
    "hcaiId": null,
    "businessName": "WILMINGTON COMMUNITY CLINIC",
    "contactEmail": null,
    "categoryName": "PRIMARY CARE CLINIC",
    "categoryCode": "COMTYC",
    "licenseStatus": "ACTIVE",
    "inService": true,
    "licenseNumber": "960001021",
    "licenseEffectiveDate": "11/25/2024",
    "licenseExpirationDate": "11/24/2025",
    "dataDate": "10/18/2025",
    "capacity": 0,
    "address": "1700 GULF AVE",
    "city": "WILMINGTON",
    "zip": "90744",
    "county": "LOS ANGELES",
    "phone": null,
    "lat": 33.797547,
    "lng": -118.272789
  },
  {
    "id": "630026561",
    "name": "YMS HEALTH CENTER",
    "npi": null,
    "hcaiId": null,
    "businessName": "YEHOWA MEDICAL SERVICES",
    "contactEmail": "THOMAS@YMEDICAL.ORG",
    "categoryName": "PRIMARY CARE CLINIC",
    "categoryCode": "COMTYC",
    "licenseStatus": "ACTIVE",
    "inService": true,
    "licenseNumber": "550002162",
    "licenseEffectiveDate": "12/27/2024",
    "licenseExpirationDate": "12/26/2025",
    "dataDate": "10/18/2025",
    "capacity": 0,
    "address": "1037 E PACIFIC COAST HWY",
    "city": "WILMINGTON",
    "zip": "90744",
    "county": "LOS ANGELES",
    "phone": "(323) 776-1500",
    "lat": 33.79113,
    "lng": -118.2496185
  }
]