[
  {
    "id": "940000004",
    "name": "BAY VISTA HEALTHCARE & WELLNESS CENTRE, LP",
    "npi": "1659780096",
    "hcaiId": "206190056",
    "businessName": "BAY VISTA HEALTHCARE & WELLNESS CENTRE, LP",
    "contactEmail": "ADMINISTRATOR@CVBAYVISTA.COM",
    "categoryName": "SKILLED NURSING FACILITY",
    "categoryCode": "SNF",
    "licenseStatus": "ACTIVE",
    "inService": true,
    "licenseNumber": "940000011",
    "licenseEffectiveDate": "12/11/2024",
    "licenseExpirationDate": "12/10/2025",
    "dataDate": "10/18/2025",
    "capacity": 70,
    "address": "5901 DOWNEY AVE",
    "city": "LONG BEACH",
    "zip": "90805",
    "county": "LOS ANGELES",
    "phone": "(562) 634-4693",
    "lat": 33.86322,
    "lng": -118.151631
  },
  {
    "id": "960001713",
    "name": "BEST CARE HOME I, INC.",
    "npi": "1447325279",
    "hcaiId": null,
    "businessName": "BEST CARE HOME I, INC.",
    "contactEmail": "BESTCAREHOMEI@GMAIL.COM",
    "categoryName": "INTERMEDIATE CARE FACILITY-DD/H/N/CN/IID",
    "categoryCode": "ICFDDH",
    "licenseStatus": "ACTIVE",
    "inService": true,
    "licenseNumber": "960000824",
    "licenseEffectiveDate": "11/02/2025",
    "licenseExpirationDate": "11/01/2026",
    "dataDate": "10/18/2025",
    "capacity": 6,
    "address": "6555 CALIFORNIA AVENUE",
    "city": "LONG BEACH",
    "zip": "90805",
    "county": "LOS ANGELES",
    "phone": "(562) 804-0849",
    "lat": 33.873777,
    "lng": -118.181448
  },
  {
    "id": "960002058",
    "name": "BEST CARE HOME II",
    "npi": "1417132317",
    "hcaiId": null,
    "businessName": "MSM & ASSOCIATES, INC.",
    "contactEmail": "MR.ROLANDOMERCADO@YAHOO.COM",
    "categoryName": "INTERMEDIATE CARE FACILITY-DD/H/N/CN/IID",
    "categoryCode": "ICFDDH",
    "licenseStatus": "ACTIVE",
    "inService": true,
    "licenseNumber": "960000984",
    "licenseEffectiveDate": "11/04/2025",
    "licenseExpirationDate": "11/03/2026",
    "dataDate": "10/18/2025",
    "capacity": 6,
    "address": "6467 CALIFORNIA AVE",
    "city": "LONG BEACH",
    "zip": "90805",
    "county": "LOS ANGELES",
    "phone": "(562) 423-4273",
    "lat": 33.872346,
    "lng": -118.181439
  },
  {
    "id": "630028463",
    "name": "CENTRAL NEIGHBORHOOD HEALTH FOUNDATION - ATLANTIC CLINIC",
    "npi": null,
    "hcaiId": null,
    "businessName": "H STREET CLINIC, INC.",
    "contactEmail": null,
    "categoryName": "PRIMARY CARE CLINIC",
    "categoryCode": "COMTYC",
    "licenseStatus": "ACTIVE",
    "inService": true,
    "licenseNumber": "550000837",
    "licenseEffectiveDate": "12/09/2024",
    "licenseExpirationDate": "12/08/2025",
    "dataDate": "10/18/2025",
    "capacity": 0,
    "address": "5601 SOUTH ATLANTIC AVENUE",
    "city": "LONG BEACH",
    "zip": "90805",
    "county": "LOS ANGELES",
    "phone": null,
    "lat": 33.85851989,
    "lng": -118.1853339
  },
  {
    "id": "980002285",
    "name": "COMFORT HOME HEALTH CARE, INC.",
    "npi": "1912905316",
    "hcaiId": "406196390",
    "businessName": "COMFORT HOME HEALTH CARE, INC.",
    "contactEmail": "COMFORTHH@OUTLOOK.COM",
    "categoryName": "HOME HEALTH AGENCY",
    "categoryCode": "HHA",
    "licenseStatus": "ACTIVE",
    "inService": true,
    "licenseNumber": "980001400",
    "licenseEffectiveDate": "11/12/2025",
    "licenseExpirationDate": "11/11/2026",
    "dataDate": "10/18/2025",
    "capacity": 0,
    "address": "4647 LONG BEACH BLVD, SUITE D4",
    "city": "LONG BEACH",
    "zip": "90805",
    "county": "LOS ANGELES",
    "phone": "(562) 997-4150",
    "lat": 33.84156699,
    "lng": -118.192311
  },
  {
    "id": "980001030",
    "name": "EXTENDED HEALTH CARE",
    "npi": "1538237268",
    "hcaiId": "406194095",
    "businessName": "EXTENDED HEALTH CARE, INC.",
    "contactEmail": "EHCILONGBEACH@AOL.COM",
    "categoryName": "HOME HEALTH AGENCY",
    "categoryCode": "HHA",
    "licenseStatus": "ACTIVE",
    "inService": true,
    "licenseNumber": "980000544",
    "licenseEffectiveDate": "01/09/2025",
    "licenseExpirationDate": "01/08/2026",
    "dataDate": "10/18/2025",
    "capacity": 0,
    "address": "1718 E ARTESIA BLVD",
    "city": "LONG BEACH",
    "zip": "90805",
    "county": "LOS ANGELES",
    "phone": "(562) 423-2175",
    "lat": 33.874371,
    "lng": -118.1714715
  },
  {
    "id": "930001738",
    "name": "FMC DIALYSIS SERVICES OF NORTH LONG BEACH",
    "npi": "1699887497",
    "hcaiId": "306196335",
    "businessName": "BIO-MEDICAL APPLICATIONS OF CALIFORNIA, INC.",
    "contactEmail": "CLINIC2870@FMC-NA.COM",
    "categoryName": "CHRONIC DIALYSIS CLINIC",
    "categoryCode": "ESRD/CDC",
    "licenseStatus": "ACTIVE",
    "inService": true,
    "licenseNumber": "930000984",
    "licenseEffectiveDate": "05/14/2025",
    "licenseExpirationDate": "05/13/2026",
    "dataDate": "10/18/2025",
    "capacity": 13,
    "address": "145 W VICTORIA ST",
    "city": "LONG BEACH",
    "zip": "90805",
    "county": "LOS ANGELES",
    "phone": "(310) 639-3122",
    "lat": 33.865452,
    "lng": -118.202778
  },
  {
    "id": "930000408",
    "name": "LAKEWOOD EYE PHYSICIANS & SURGEONS SURGERY CENTER",
    "npi": "1164406021",
    "hcaiId": null,
    "businessName": null,
    "contactEmail": "NONE@DHS.CA.GOV",
    "categoryName": "SURGICAL CLINIC",
    "categoryCode": "ASC",
    "licenseStatus": null,
    "inService": null,
    "licenseNumber": null,
    "licenseEffectiveDate": null,
    "licenseExpirationDate": null,
    "dataDate": "10/18/2025",
    "capacity": 0,
    "address": "3300 E SOUTH ST",
    "city": "LAKEWOOD",
    "zip": "90805",
    "county": "LOS ANGELES",
    "phone": "(213) 531-2020",
    "lat": 33.859566,
    "lng": -118.153872
  },
  {
    "id": "630018835",
    "name": "LOS CARMELITOS HOUSING APARTMENTS",
    "npi": "1841437241",
    "hcaiId": null,
    "businessName": "H STREET CLINIC, INC.",
    "contactEmail": null,
    "categoryName": "PRIMARY CARE CLINIC",
    "categoryCode": "COMTYC",
    "licenseStatus": "ACTIVE",
    "inService": true,
    "licenseNumber": "550000837",
    "licenseEffectiveDate": "12/09/2024",
    "licenseExpirationDate": "12/08/2025",
    "dataDate": "10/18/2025",
    "capacity": 0,
    "address": "711 E VIA WANDA",
    "city": "LONG BEACH",
    "zip": "90805",
    "county": "LOS ANGELES",
    "phone": null,
    "lat": 33.849792,
    "lng": -118.181898
  },
  {
    "id": "930001584",
    "name": "NEPHRON DIALYSIS",
    "npi": "1508116377",
    "hcaiId": "306194959",
    "businessName": "TOTAL RENAL CARE, INC.",
    "contactEmail": "CAL_C@DAVITA.COM",
    "categoryName": "CHRONIC DIALYSIS CLINIC",
    "categoryCode": "ESRD/CDC",
    "licenseStatus": "ACTIVE",
    "inService": true,
    "licenseNumber": "930000886",
    "licenseEffectiveDate": "12/01/2024",
    "licenseExpirationDate": "11/30/2025",
    "dataDate": "10/18/2025",
    "capacity": 21,
    "address": "5820 DOWNEY AVE",
    "city": "LONG BEACH",
    "zip": "90805",
    "county": "LOS ANGELES",
    "phone": "(562) 663-0788",
    "lat": 33.861303,
    "lng": -118.1497725
  },
  {
    "id": "940000029",
    "name": "NORTH LONG BEACH POST ACUTE",
    "npi": "1942389531",
    "hcaiId": "206190334",
    "businessName": "S&F MARKET STREET HEALTHCARE, LLC",
    "contactEmail": "ADMINISTRATOR@WINDSORNORTHLONGBEACH.COM",
    "categoryName": "SKILLED NURSING FACILITY",
    "categoryCode": "SNF",
    "licenseStatus": "ACTIVE",
    "inService": true,
    "licenseNumber": "940000080",
    "licenseEffectiveDate": "09/11/2025",
    "licenseExpirationDate": "06/09/2026",
    "dataDate": "10/18/2025",
    "capacity": 120,
    "address": "260 E MARKET ST",
    "city": "LONG BEACH",
    "zip": "90805",
    "county": "LOS ANGELES",
    "phone": "(562) 428-4681",
    "lat": 33.854013,
    "lng": -118.1906415
  },
  {
    "id": "630020236",
    "name": "SALIDA DEL SOL CBAS",
    "npi": null,
    "hcaiId": null,
    "businessName": "SALIDA DEL SOL CBAS, LLC",
    "contactEmail": "LIU.BOYU@HOTMAIL.COM",
    "categoryName": "ADULT DAY HEALTH CARE",
    "categoryCode": "ADHC",
    "licenseStatus": "ACTIVE",
    "inService": true,
    "licenseNumber": "550005754",
    "licenseEffectiveDate": "09/24/2025",
    "licenseExpirationDate": "09/23/2026",
    "dataDate": "10/18/2025",
    "capacity": 0,
    "address": "5350 ATLANTIC AVE",
    "city": "LONG BEACH",
    "zip": "90805",
    "county": "LOS ANGELES",
    "phone": "(562) 269-4355",
    "lat": 33.85332,
    "lng": -118.1846115
  },
  {
    "id": "630013785",
    "name": "SOUTH MEDICAL CLINIC",
    "npi": null,
    "hcaiId": "306197832",
    "businessName": "SOUTH MEDICAL CLINIC",
    "contactEmail": "LGUMAH@BHCHEALTH.ORG",
    "categoryName": "PRIMARY CARE CLINIC",
    "categoryCode": "COMTYC",
    "licenseStatus": "ACTIVE",
    "inService": true,
    "licenseNumber": "550002333",
    "licenseEffectiveDate": "07/30/2025",
    "licenseExpirationDate": "07/29/2026",
    "dataDate": "10/18/2025",
    "capacity": 0,
    "address": "1126 E SOUTH ST",
    "city": "LONG BEACH",
    "zip": "90805",
    "county": "LOS ANGELES",
    "phone": "(562) 984-9200",
    "lat": 33.859845,
    "lng": -118.1785005
  },
  {
    "id": "940000099",
    "name": "SUNSET VILLA POST ACUTE",
    "npi": "1134835820",
    "hcaiId": "206190287",
    "businessName": "LONG BEACH HEALTHCARE, LLC",
    "contactEmail": "RYAN.MCALEENAN@SUNSETVILLAPA.COM",
    "categoryName": "SKILLED NURSING FACILITY",
    "categoryCode": "SNF",
    "licenseStatus": "ACTIVE",
    "inService": true,
    "licenseNumber": "940000067",
    "licenseEffectiveDate": "11/19/2024",
    "licenseExpirationDate": "11/18/2025",
    "dataDate": "10/18/2025",
    "capacity": 199,
    "address": "3232 E ARTESIA BLVD",
    "city": "LONG BEACH",
    "zip": "90805",
    "county": "LOS ANGELES",
    "phone": "(626) 993-7104",
    "lat": 33.874191,
    "lng": -118.1549655
  },
  {
    "id": "630018529",
    "name": "TARZANA TREATMENT CENTERS, INC",
    "npi": null,
    "hcaiId": "306190555",
    "businessName": "TARZANA TREATMENT CENTERS, INC.",
    "contactEmail": "ASENELLA@TARZANATC.ORG",
    "categoryName": "PRIMARY CARE CLINIC",
    "categoryCode": "COMTYC",
    "licenseStatus": "ACTIVE",
    "inService": true,
    "licenseNumber": "960001115",
    "licenseEffectiveDate": "07/01/2025",
    "licenseExpirationDate": "03/09/2026",
    "dataDate": "10/18/2025",
    "capacity": 0,
    "address": "5190 ATLANTIC AVE",
    "city": "LONG BEACH",
    "zip": "90805",
    "county": "LOS ANGELES",
    "phone": "(818) 654-3815",
    "lat": 33.850809,
    "lng": -118.1839365
  },
  {
    "id": "630018771",
    "name": "TCC FAMILY HEALTH",
    "npi": null,
    "hcaiId": null,
    "businessName": "THE CHILDREN'S CLINIC \"SERVING CHILDREN AND THEIR FAMILIES\"",
    "contactEmail": "LLVASA@TCCFAMILYHEALTH.ORG",
    "categoryName": "PRIMARY CARE CLINIC",
    "categoryCode": "COMTYC",
    "licenseStatus": "ACTIVE",
    "inService": true,
    "licenseNumber": "550009644",
    "licenseEffectiveDate": "05/22/2025",
    "licenseExpirationDate": "11/21/2025",
    "dataDate": "10/18/2025",
    "capacity": 0,
    "address": "540 E ARTESIA BLVD",
    "city": "LONG BEACH",
    "zip": "90805",
    "county": "LOS ANGELES",
    "phone": "(562) 264-3114",
    "lat": 33.873813,
    "lng": -118.186893
  },
  {
    "id": "960002776",
    "name": "THE CHILDREN'S CLINIC FAMILY HLTH CTR./N.LONGBEACH",
    "npi": "1699839993",
    "hcaiId": "306196497",
    "businessName": "THE CHILDREN'S CLINIC \"SERVING CHILDREN AND THEIR FAMILIES\"",
    "contactEmail": "CVAZQUEZ@TCCFAMILYHEALTH.ORG",
    "categoryName": "PRIMARY CARE CLINIC",
    "categoryCode": "COMTYC",
    "licenseStatus": "ACTIVE",
    "inService": true,
    "licenseNumber": "960001378",
    "licenseEffectiveDate": "03/18/2025",
    "licenseExpirationDate": "03/17/2026",
    "dataDate": "10/18/2025",
    "capacity": 0,
    "address": "1060 E 70TH ST",
    "city": "LONG BEACH",
    "zip": "90805",
    "county": "LOS ANGELES",
    "phone": "(562) 264-4676",
    "lat": 33.880986,
    "lng": -118.179999
  },
  {
    "id": "960002230",
    "name": "WEST COUNTY MEDICAL CORPORATION",
    "npi": null,
    "hcaiId": "306195036",
    "businessName": "WEST COUNTY MEDICAL CORPORATION",
    "contactEmail": "PSHARMA@AMERICANHEALTHSERVICES.ORG",
    "categoryName": "PRIMARY CARE CLINIC",
    "categoryCode": "COMTYC",
    "licenseStatus": "ACTIVE",
    "inService": true,
    "licenseNumber": "960001048",
    "licenseEffectiveDate": "12/03/2024",
    "licenseExpirationDate": "12/02/2025",
    "dataDate": "10/18/2025",
    "capacity": 0,
    "address": "100 E MARKET ST",
    "city": "LONG BEACH",
    "zip": "90805",
    "county": "LOS ANGELES",
    "phone": "(562) 428-4222",
    "lat": 33.85423216,
    "lng": -118.1936507
  }
]