[
  {
    "id": "980001513",
    "name": "ALEXUS HOME HEALTHCARE, INC.",
    "npi": "1932147378",
    "hcaiId": "406194671",
    "businessName": "ALEXUS HOME HEALTHCARE, INC.",
    "contactEmail": "ALEXUSHHC@YAHOO.COM",
    "categoryName": "HOME HEALTH AGENCY",
    "categoryCode": "HHA",
    "licenseStatus": "ACTIVE",
    "inService": true,
    "licenseNumber": "980000871",
    "licenseEffectiveDate": "11/01/2025",
    "licenseExpirationDate": "10/31/2026",
    "dataDate": "10/18/2025",
    "capacity": 0,
    "address": "4000 LONG BEACH BLVD, SUITE 221",
    "city": "LONG BEACH",
    "zip": "90807",
    "county": "LOS ANGELES",
    "phone": "(562) 637-3113",
    "lat": 33.830919,
    "lng": -118.188891
  },
  {
    "id": "630021915",
    "name": "AMBASSADORE HOSPICE CARE, INC.",
    "npi": null,
    "hcaiId": "406196087",
    "businessName": "AMBASSADORE HOSPICE CARE, INC.",
    "contactEmail": "AMBASSADOREHC@GMAIL.COM",
    "categoryName": "HOSPICE",
    "categoryCode": "HOSPICE",
    "licenseStatus": "ACTIVE",
    "inService": true,
    "licenseNumber": "550007649",
    "licenseEffectiveDate": "08/06/2025",
    "licenseExpirationDate": "12/20/2025",
    "dataDate": "10/18/2025",
    "capacity": 0,
    "address": "3939 ATLANTIC AVENUE, SUITE 223 A",
    "city": "LONG BEACH",
    "zip": "90807",
    "county": "LOS ANGELES",
    "phone": "(562) 991-3213",
    "lat": 33.83046842,
    "lng": -118.1855033
  },
  {
    "id": "960001702",
    "name": "BIXBY KNOLL PLACE",
    "npi": "1427265800",
    "hcaiId": null,
    "businessName": "ST. MARY INVESTMENTS, INC.",
    "contactEmail": "ERIKAUSA2000@YAHOO.COM",
    "categoryName": "INTERMEDIATE CARE FACILITY-DD/H/N/CN/IID",
    "categoryCode": "ICFDDN",
    "licenseStatus": "ACTIVE",
    "inService": true,
    "licenseNumber": "960000823",
    "licenseEffectiveDate": "11/04/2024",
    "licenseExpirationDate": "11/03/2025",
    "dataDate": "10/18/2025",
    "capacity": 6,
    "address": "3706 PINE AVE",
    "city": "LONG BEACH",
    "zip": "90807",
    "county": "LOS ANGELES",
    "phone": "(714) 269-2319",
    "lat": 33.824466,
    "lng": -118.192554
  },
  {
    "id": "630011319",
    "name": "BIXBY KNOLLS DIALYSIS",
    "npi": "1003024647",
    "hcaiId": "306196787",
    "businessName": "LONG BEACH DIALYSIS CENTER, LLC",
    "contactEmail": "CAL_C@DAVITA.COM",
    "categoryName": "CHRONIC DIALYSIS CLINIC",
    "categoryCode": "ESRD/CDC",
    "licenseStatus": "ACTIVE",
    "inService": true,
    "licenseNumber": "550000754",
    "licenseEffectiveDate": "06/13/2025",
    "licenseExpirationDate": "06/12/2026",
    "dataDate": "10/18/2025",
    "capacity": 24,
    "address": "3744 LONG BEACH BLVD",
    "city": "LONG BEACH",
    "zip": "90807",
    "county": "LOS ANGELES",
    "phone": "(562) 424-1403",
    "lat": 33.82569,
    "lng": -118.188909
  },
  {
    "id": "940000016",
    "name": "BIXBY TOWERS POST-ACUTE REHAB",
    "npi": "1932104213",
    "hcaiId": "206190101",
    "businessName": "ASLB, LLC",
    "contactEmail": "AWARD@ASPENHEALTH.COM",
    "categoryName": "SKILLED NURSING FACILITY",
    "categoryCode": "SNF",
    "licenseStatus": "ACTIVE",
    "inService": true,
    "licenseNumber": "940000023",
    "licenseEffectiveDate": "02/22/2025",
    "licenseExpirationDate": "01/31/2026",
    "dataDate": "10/18/2025",
    "capacity": 99,
    "address": "3747 ATLANTIC AVE",
    "city": "LONG BEACH",
    "zip": "90807",
    "county": "LOS ANGELES",
    "phone": "(562) 426-6123",
    "lat": 33.826023,
    "lng": -118.18557
  },
  {
    "id": "940000031",
    "name": "CATERED MANOR CARE CENTER",
    "npi": "1780672428",
    "hcaiId": "206190212",
    "businessName": "CATERED MANOR CARE CENTER LLC",
    "contactEmail": "ADMINISTRATOR@CATEREDMANORCC.COM",
    "categoryName": "SKILLED NURSING FACILITY",
    "categoryCode": "SNF",
    "licenseStatus": "ACTIVE",
    "inService": true,
    "licenseNumber": "940000049",
    "licenseEffectiveDate": "08/01/2025",
    "licenseExpirationDate": "11/14/2025",
    "dataDate": "10/18/2025",
    "capacity": 83,
    "address": "4010 N VIRGINIA RD",
    "city": "LONG BEACH",
    "zip": "90807",
    "county": "LOS ANGELES",
    "phone": "(480) 436-3600",
    "lat": 33.831081,
    "lng": -118.1902545
  },
  {
    "id": "630015130",
    "name": "COMPLETE CARE SURGICAL CENTER LLC",
    "npi": "1639419104",
    "hcaiId": null,
    "businessName": null,
    "contactEmail": null,
    "categoryName": "SURGICAL CLINIC",
    "categoryCode": "ASC",
    "licenseStatus": null,
    "inService": null,
    "licenseNumber": null,
    "licenseEffectiveDate": null,
    "licenseExpirationDate": null,
    "dataDate": "10/18/2025",
    "capacity": 0,
    "address": "3711 LONG BEACH BLVD, SUITE 101",
    "city": "LONG BEACH",
    "zip": "90807",
    "county": "LOS ANGELES",
    "phone": "(562) 424-8422",
    "lat": 33.824664,
    "lng": -118.189989
  },
  {
    "id": "630013662",
    "name": "LB SURGERY CENTER LLC",
    "npi": null,
    "hcaiId": null,
    "businessName": null,
    "contactEmail": null,
    "categoryName": "SURGICAL CLINIC",
    "categoryCode": "ASC",
    "licenseStatus": null,
    "inService": null,
    "licenseNumber": null,
    "licenseEffectiveDate": null,
    "licenseExpirationDate": null,
    "dataDate": "10/18/2025",
    "capacity": 0,
    "address": "4300 LONG BEACH BLVD, SUITE 150",
    "city": "LONG BEACH",
    "zip": "90807",
    "county": "LOS ANGELES",
    "phone": "(831) 588-7296",
    "lat": 33.836526,
    "lng": -118.1892105
  },
  {
    "id": "980001111",
    "name": "LONG BEACH HEALTH CARE",
    "npi": "1730145491",
    "hcaiId": "406197035",
    "businessName": "HOME CARE NETWORK, INC.",
    "contactEmail": "HCNLBHC@AOL.COM",
    "categoryName": "HOME HEALTH AGENCY",
    "categoryCode": "HHA",
    "licenseStatus": "ACTIVE",
    "inService": true,
    "licenseNumber": "980000625",
    "licenseEffectiveDate": "03/02/2025",
    "licenseExpirationDate": "03/01/2026",
    "dataDate": "10/18/2025",
    "capacity": 0,
    "address": "3505 LONG BEACH BLVD, SUITE 2-B",
    "city": "LONG BEACH",
    "zip": "90807",
    "county": "LOS ANGELES",
    "phone": "(562) 290-8181",
    "lat": 33.82056,
    "lng": -118.1897505
  },
  {
    "id": "940000056",
    "name": "LONG BEACH HEALTHCARE CENTER",
    "npi": "1740724350",
    "hcaiId": "206190371",
    "businessName": "LONG BEACH HEALTHCARE CENTER, LLC",
    "contactEmail": "CEO@LBHEALTHCENTER.COM",
    "categoryName": "SKILLED NURSING FACILITY",
    "categoryCode": "SNF",
    "licenseStatus": "ACTIVE",
    "inService": true,
    "licenseNumber": "940000086",
    "licenseEffectiveDate": "06/29/2025",
    "licenseExpirationDate": "06/28/2026",
    "dataDate": "10/18/2025",
    "capacity": 154,
    "address": "3401 CEDAR AVE",
    "city": "LONG BEACH",
    "zip": "90807",
    "county": "LOS ANGELES",
    "phone": "(562) 426-4461",
    "lat": 33.819921,
    "lng": -118.195605
  },
  {
    "id": "930001206",
    "name": "LONG BEACH SURGERY CENTER",
    "npi": "1346531522",
    "hcaiId": null,
    "businessName": null,
    "contactEmail": "LBOLTON@DRBOLTON.COM",
    "categoryName": "SURGICAL CLINIC",
    "categoryCode": "ASC",
    "licenseStatus": null,
    "inService": null,
    "licenseNumber": null,
    "licenseEffectiveDate": null,
    "licenseExpirationDate": null,
    "dataDate": "10/18/2025",
    "capacity": 0,
    "address": "4300 LONG BEACH BLVD, SUITE 150",
    "city": "LONG BEACH",
    "zip": "90807",
    "county": "LOS ANGELES",
    "phone": "(562) 423-4070",
    "lat": 33.836526,
    "lng": -118.1892105
  },
  {
    "id": "980002339",
    "name": "LORIAN HEALTH",
    "npi": "1821043332",
    "hcaiId": "406196369",
    "businessName": "CRYSTAL HOME HEALTH CARE SERVICES, INC.",
    "contactEmail": "AGUSTIN@LORIANHEALTH.COM",
    "categoryName": "HOME HEALTH AGENCY",
    "categoryCode": "HHA",
    "licenseStatus": "ACTIVE",
    "inService": true,
    "licenseNumber": "980001450",
    "licenseEffectiveDate": "06/26/2025",
    "licenseExpirationDate": "06/25/2026",
    "dataDate": "10/18/2025",
    "capacity": 0,
    "address": "3939 ATLANTIC AVE, SUITE 202",
    "city": "LONG BEACH",
    "zip": "90807",
    "county": "LOS ANGELES",
    "phone": "(562) 427-3690",
    "lat": 33.8301,
    "lng": -118.185435
  },
  {
    "id": "630026030",
    "name": "ONE VISION HOME HEALTH LLC",
    "npi": null,
    "hcaiId": null,
    "businessName": "ONE VISION HOME HEALTH LLC",
    "contactEmail": "ONEVISIONHOMEHEALTH@GMAIL.COM",
    "categoryName": "HOME HEALTH AGENCY",
    "categoryCode": "HHA",
    "licenseStatus": "ACTIVE",
    "inService": true,
    "licenseNumber": "550009258",
    "licenseEffectiveDate": "01/25/2025",
    "licenseExpirationDate": "07/24/2025",
    "dataDate": "10/18/2025",
    "capacity": 0,
    "address": "4201 LONG BEACH BLVD, SUITE 408",
    "city": "LONG BEACH",
    "zip": "90807",
    "county": "LOS ANGELES",
    "phone": "(562) 283-3208",
    "lat": 33.834852,
    "lng": -118.1898
  },
  {
    "id": "630028113",
    "name": "OPS SURGERY CENTER, LLC",
    "npi": null,
    "hcaiId": null,
    "businessName": null,
    "contactEmail": "KEVIN@CALISHER.COM",
    "categoryName": "SURGICAL CLINIC",
    "categoryCode": "ASC",
    "licenseStatus": null,
    "inService": null,
    "licenseNumber": null,
    "licenseEffectiveDate": null,
    "licenseExpirationDate": null,
    "dataDate": "10/18/2025",
    "capacity": 0,
    "address": "4100 LONG BEACH BLVD, SUITE 108",
    "city": "LONG BEACH",
    "zip": "90807",
    "county": "LOS ANGELES",
    "phone": "(714) 914-7945",
    "lat": 33.8323334,
    "lng": -118.189011
  },
  {
    "id": "940000090",
    "name": "PACIFIC VILLA, INC.",
    "npi": "1447656566",
    "hcaiId": "206190594",
    "businessName": "PACIFIC VILLA, INC.",
    "contactEmail": "TREVOR.ANDERSON@PACIFICVIL.COM",
    "categoryName": "SKILLED NURSING FACILITY",
    "categoryCode": "SNF",
    "licenseStatus": "ACTIVE",
    "inService": true,
    "licenseNumber": "940000130",
    "licenseEffectiveDate": "06/10/2025",
    "licenseExpirationDate": "06/09/2026",
    "dataDate": "10/18/2025",
    "capacity": 99,
    "address": "3501 CEDAR AVE",
    "city": "LONG BEACH",
    "zip": "90807",
    "county": "LOS ANGELES",
    "phone": "(562) 595-1731",
    "lat": 33.821028,
    "lng": -118.1960145
  },
  {
    "id": "630013440",
    "name": "QUEST DIALYSIS",
    "npi": "1316511397",
    "hcaiId": "306197722",
    "businessName": "SPARKS DIALYSIS, LLC",
    "contactEmail": "CAL_C@DAVITA.COM",
    "categoryName": "CHRONIC DIALYSIS CLINIC",
    "categoryCode": "ESRD/CDC",
    "licenseStatus": "ACTIVE",
    "inService": true,
    "licenseNumber": "550002025",
    "licenseEffectiveDate": "08/16/2025",
    "licenseExpirationDate": "08/15/2026",
    "dataDate": "10/18/2025",
    "capacity": 25,
    "address": "3140 LONG BEACH BLVD",
    "city": "LONG BEACH",
    "zip": "90807",
    "county": "LOS ANGELES",
    "phone": "(562) 988-8866",
    "lat": 33.814107,
    "lng": -118.1889765
  },
  {
    "id": "630016653",
    "name": "RADIANCE HOSPICE AND PALLIATIVE CARE",
    "npi": "1457712333",
    "hcaiId": "406191323",
    "businessName": "RADIANCE HOSPICE, INC.",
    "contactEmail": "INFO@HOSPICERADIANCE.COM",
    "categoryName": "HOSPICE",
    "categoryCode": "HOSPICE",
    "licenseStatus": "ACTIVE",
    "inService": true,
    "licenseNumber": "550004317",
    "licenseEffectiveDate": "07/09/2022",
    "licenseExpirationDate": "07/08/2024",
    "dataDate": "10/18/2025",
    "capacity": 0,
    "address": "4201 LONG BEACH BLVD, SUITE 412A",
    "city": "LONG BEACH",
    "zip": "90807",
    "county": "LOS ANGELES",
    "phone": "(818) 588-4826",
    "lat": 33.834852,
    "lng": -118.1898
  },
  {
    "id": "980002296",
    "name": "ROYAL MAJESTY HOME CARE, INC.",
    "npi": "1669478020",
    "hcaiId": "406196357",
    "businessName": "ROYAL MAJESTY HOME CARE, INC.",
    "contactEmail": "ROYALMAJESTY2003@YAHOO.COM",
    "categoryName": "HOME HEALTH AGENCY",
    "categoryCode": "HHA",
    "licenseStatus": "ACTIVE",
    "inService": true,
    "licenseNumber": "980001411",
    "licenseEffectiveDate": "11/24/2025",
    "licenseExpirationDate": "11/23/2026",
    "dataDate": "10/18/2025",
    "capacity": 0,
    "address": "3939 ATLANTIC AVE, SUITE 212",
    "city": "LONG BEACH",
    "zip": "90807",
    "county": "LOS ANGELES",
    "phone": "(562) 492-9600",
    "lat": 33.8301,
    "lng": -118.185435
  },
  {
    "id": "630013462",
    "name": "ROYAL MAJESTY HOSPICE, INC.",
    "npi": "1457636466",
    "hcaiId": "406197901",
    "businessName": "ROYAL MAJESTY HOSPICE, INC.",
    "contactEmail": "RMHOSPICE2011@YAHOO.COM",
    "categoryName": "HOSPICE",
    "categoryCode": "HOSPICE",
    "licenseStatus": "ACTIVE",
    "inService": true,
    "licenseNumber": "550002214",
    "licenseEffectiveDate": "02/27/2024",
    "licenseExpirationDate": "02/26/2026",
    "dataDate": "10/18/2025",
    "capacity": 0,
    "address": "3939 ATLANTIC AVE, SUITE 216",
    "city": "LONG BEACH",
    "zip": "90807",
    "county": "LOS ANGELES",
    "phone": "(562) 424-8886",
    "lat": 33.8301,
    "lng": -118.185435
  },
  {
    "id": "630018477",
    "name": "SHORELINE SURGERY CENTER LLC",
    "npi": null,
    "hcaiId": null,
    "businessName": null,
    "contactEmail": null,
    "categoryName": "SURGICAL CLINIC",
    "categoryCode": "ASC",
    "licenseStatus": null,
    "inService": null,
    "licenseNumber": null,
    "licenseEffectiveDate": null,
    "licenseExpirationDate": null,
    "dataDate": "10/18/2025",
    "capacity": 0,
    "address": "4300 LONG BEACH BLVD, SUITE 150",
    "city": "LONG BEACH",
    "zip": "90807",
    "county": "LOS ANGELES",
    "phone": "(562) 222-8764",
    "lat": 33.836526,
    "lng": -118.1892105
  },
  {
    "id": "980002498",
    "name": "SUNSHINE HOME HEALTH SERVICES, INC.",
    "npi": "1528086485",
    "hcaiId": "406196753",
    "businessName": "SUNSHINE HOME HEALTH SERVICES, INC.",
    "contactEmail": "KCHESLEY@MAC.COM",
    "categoryName": "HOME HEALTH AGENCY",
    "categoryCode": "HHA",
    "licenseStatus": "ACTIVE",
    "inService": true,
    "licenseNumber": "980001597",
    "licenseEffectiveDate": "11/15/2023",
    "licenseExpirationDate": "11/14/2024",
    "dataDate": "10/18/2025",
    "capacity": 0,
    "address": "4201 LONG BEACH BLVD, SUITE 412B",
    "city": "LONG BEACH",
    "zip": "90807",
    "county": "LOS ANGELES",
    "phone": "(310) 558-7061",
    "lat": 33.83485501,
    "lng": -118.189807
  },
  {
    "id": "630011114",
    "name": "TOTAL CARE HOME HEALTH SERVICES",
    "npi": "1851602189",
    "hcaiId": "406197116",
    "businessName": null,
    "contactEmail": "STATREGS@AOL.COM",
    "categoryName": "HOME HEALTH AGENCY",
    "categoryCode": "HHA",
    "licenseStatus": "ACTIVE",
    "inService": true,
    "licenseNumber": "550000737",
    "licenseEffectiveDate": "03/24/2025",
    "licenseExpirationDate": "03/23/2026",
    "dataDate": "10/18/2025",
    "capacity": 0,
    "address": "4201 LONG BEACH BLVD, SUITE 308",
    "city": "LONG BEACH",
    "zip": "90807",
    "county": "LOS ANGELES",
    "phone": "(562) 285-0432",
    "lat": 33.834852,
    "lng": -118.1898
  },
  {
    "id": "980001776",
    "name": "ULTIMATE HOME HEALTH CARE OF BEVERLY HILLS",
    "npi": "1155352755",
    "hcaiId": "406196827",
    "businessName": "AMD HEALTH CARE SERVICES INC",
    "contactEmail": "UHHCBEVHILLS@YAHOO.COM",
    "categoryName": "HOME HEALTH AGENCY",
    "categoryCode": "HHA",
    "licenseStatus": "ACTIVE",
    "inService": true,
    "licenseNumber": "980001051",
    "licenseEffectiveDate": "04/11/2022",
    "licenseExpirationDate": "04/10/2023",
    "dataDate": "10/18/2025",
    "capacity": 0,
    "address": "3911 LONG BEACH BLVD, SUITE B",
    "city": "LONG BEACH",
    "zip": "90807",
    "county": "LOS ANGELES",
    "phone": "(562) 612-4725",
    "lat": 33.829533,
    "lng": -118.18962
  },
  {
    "id": "930000844",
    "name": "UNITED DIALYSIS CENTER",
    "npi": "1154384121",
    "hcaiId": "306194098",
    "businessName": "TOTAL RENAL CARE, INC.",
    "contactEmail": "CAL_C@DAVITA.COM",
    "categoryName": "CHRONIC DIALYSIS CLINIC",
    "categoryCode": "ESRD/CDC",
    "licenseStatus": "ACTIVE",
    "inService": true,
    "licenseNumber": "930000440",
    "licenseEffectiveDate": "02/27/2025",
    "licenseExpirationDate": "02/26/2026",
    "dataDate": "10/18/2025",
    "capacity": 28,
    "address": "3111 LONG BEACH BLVD",
    "city": "LONG BEACH",
    "zip": "90807",
    "county": "LOS ANGELES",
    "phone": "(562) 426-5155",
    "lat": 33.813855,
    "lng": -118.1897145
  },
  {
    "id": "630028023",
    "name": "UNITY ADULT DAY HEALTHCARE, INC.",
    "npi": null,
    "hcaiId": null,
    "businessName": "UNITY ADULT DAY HEALTHCARE, INC.",
    "contactEmail": "UNITYADHC@YAHOO.COM",
    "categoryName": "ADULT DAY HEALTH CARE",
    "categoryCode": "ADHC",
    "licenseStatus": "ACTIVE",
    "inService": true,
    "licenseNumber": "550009731",
    "licenseEffectiveDate": "06/03/2025",
    "licenseExpirationDate": "03/27/2026",
    "dataDate": "10/18/2025",
    "capacity": 0,
    "address": "3833 ATLANTIC AVE",
    "city": "LONG BEACH",
    "zip": "90807",
    "county": "LOS ANGELES",
    "phone": "(562) 252-0607",
    "lat": 33.82796198,
    "lng": -118.185482
  },
  {
    "id": "630018291",
    "name": "VALLEY COMMUNITY HOSPICE, INC.",
    "npi": null,
    "hcaiId": "406192034",
    "businessName": "VALLEY COMMUNITY HOSPICE, INC.",
    "contactEmail": "VALLEYCOMMUNITYHOSPICECARE@GMAIL.COM",
    "categoryName": "HOSPICE",
    "categoryCode": "HOSPICE",
    "licenseStatus": "ACTIVE",
    "inService": true,
    "licenseNumber": "550005081",
    "licenseEffectiveDate": "08/13/2024",
    "licenseExpirationDate": "11/08/2025",
    "dataDate": "10/18/2025",
    "capacity": 0,
    "address": "911 E SAN ANTONIO DR, SUITE 8",
    "city": "LONG BEACH",
    "zip": "90807",
    "county": "LOS ANGELES",
    "phone": "(562) 283-3880",
    "lat": 33.838737,
    "lng": -118.182841
  },
  {
    "id": "930000879",
    "name": "WARDLOW SURGERY CENTER",
    "npi": null,
    "hcaiId": "306194268",
    "businessName": null,
    "contactEmail": "ABUCK4590@AOL.COM",
    "categoryName": "SURGICAL CLINIC",
    "categoryCode": "ASC",
    "licenseStatus": "INACTIVE - CAPEN DECISION",
    "inService": false,
    "licenseNumber": "930000466",
    "licenseEffectiveDate": "11/20/2008",
    "licenseExpirationDate": "11/19/2009",
    "dataDate": "10/18/2025",
    "capacity": 0,
    "address": "200 W WARDLOW RD",
    "city": "LONG BEACH",
    "zip": "90807",
    "county": "LOS ANGELES",
    "phone": "(562) 424-8815",
    "lat": 33.818616,
    "lng": -118.1941515
  }
]