[
  {
    "id": "630026099",
    "name": "COMMUNITY MEDICAL WELLNESS CENTERS, USA",
    "npi": "1235500513",
    "hcaiId": null,
    "businessName": "COMMUNITY MEDICAL WELLNESS CENTERS, USA.",
    "contactEmail": null,
    "categoryName": "PRIMARY CARE CLINIC",
    "categoryCode": "COMTYC",
    "licenseStatus": "ACTIVE",
    "inService": true,
    "licenseNumber": "550003456",
    "licenseEffectiveDate": "02/26/2025",
    "licenseExpirationDate": "02/25/2026",
    "dataDate": "10/18/2025",
    "capacity": 0,
    "address": "3325 PALO VERDE AVE, SUITE 203",
    "city": "LONG BEACH",
    "zip": "90808",
    "county": "LOS ANGELES",
    "phone": null,
    "lat": 33.817014,
    "lng": -118.1083905
  },
  {
    "id": "630027669",
    "name": "COMMUNITY MEDICAL WELLNESS CENTERS, USA",
    "npi": "1235500513",
    "hcaiId": null,
    "businessName": "COMMUNITY MEDICAL WELLNESS CENTERS, USA.",
    "contactEmail": null,
    "categoryName": "PRIMARY CARE CLINIC",
    "categoryCode": "COMTYC",
    "licenseStatus": "ACTIVE",
    "inService": true,
    "licenseNumber": "550003456",
    "licenseEffectiveDate": "02/26/2025",
    "licenseExpirationDate": "02/25/2026",
    "dataDate": "10/18/2025",
    "capacity": 0,
    "address": "3325 PALO VERDE AVE, SUITE 208",
    "city": "LONG BEACH",
    "zip": "90808",
    "county": "LOS ANGELES",
    "phone": null,
    "lat": 33.81701501,
    "lng": -118.108386
  },
  {
    "id": "630021916",
    "name": "J U I HOME HEALTHCARE LLC",
    "npi": null,
    "hcaiId": "406195371",
    "businessName": "J U I HOME HEALTHCARE LLC",
    "contactEmail": "JUIHOMEHEALTHCARE@GMAIL.COM",
    "categoryName": "HOME HEALTH AGENCY",
    "categoryCode": "HHA",
    "licenseStatus": "ACTIVE",
    "inService": true,
    "licenseNumber": "550007945",
    "licenseEffectiveDate": "04/05/2023",
    "licenseExpirationDate": "04/04/2024",
    "dataDate": "10/18/2025",
    "capacity": 0,
    "address": "3840 WOODRUFF AVE, SUITE 204",
    "city": "LONG BEACH",
    "zip": "90808",
    "county": "LOS ANGELES",
    "phone": "(562) 410-1136",
    "lat": 33.828795,
    "lng": -118.11627
  },
  {
    "id": "630017765",
    "name": "MEMORIALCARE OUTPATIENT SURGICAL CENTER LONG BEACH",
    "npi": "1609253392",
    "hcaiId": null,
    "businessName": null,
    "contactEmail": "JAMES.HOGAN@SCASURGERY.COM",
    "categoryName": "SURGICAL CLINIC",
    "categoryCode": "ASC",
    "licenseStatus": null,
    "inService": null,
    "licenseNumber": null,
    "licenseEffectiveDate": null,
    "licenseExpirationDate": null,
    "dataDate": "10/18/2025",
    "capacity": 0,
    "address": "3833 WORSHAM AVE, SUITE 200",
    "city": "LONG BEACH",
    "zip": "90808",
    "county": "LOS ANGELES",
    "phone": "(562) 426-2606",
    "lat": 33.828471,
    "lng": -118.1468385
  },
  {
    "id": "630017930",
    "name": "THE HEALING SANCTUM - GREENMEADOW, LLC",
    "npi": null,
    "hcaiId": "206190271",
    "businessName": "THE HEALING SANCTUM - GREENMEADOW, LLC",
    "contactEmail": "ADMIN@SANCTUMCLHF.COM",
    "categoryName": "CONGREGATE LIVING HEALTH FACILITY",
    "categoryCode": "CLHF",
    "licenseStatus": "ACTIVE",
    "inService": true,
    "licenseNumber": "550005794",
    "licenseEffectiveDate": "09/15/2025",
    "licenseExpirationDate": "09/14/2026",
    "dataDate": "10/18/2025",
    "capacity": 6,
    "address": "5302 E GREENMEADOW RD",
    "city": "LONG BEACH",
    "zip": "90808",
    "county": "LOS ANGELES",
    "phone": "(562) 354-6211",
    "lat": 33.833043,
    "lng": -118.1292075
  },
  {
    "id": "630013004",
    "name": "WISTERIA HOSPICE, INC.",
    "npi": null,
    "hcaiId": "406197640",
    "businessName": "WISTERIA HOSPICE, INC.",
    "contactEmail": "WISTERIAHOSPICE@GMAIL.COM",
    "categoryName": "HOSPICE",
    "categoryCode": "HOSPICE",
    "licenseStatus": "ACTIVE",
    "inService": true,
    "licenseNumber": "550001762",
    "licenseEffectiveDate": "11/27/2023",
    "licenseExpirationDate": "11/26/2025",
    "dataDate": "10/18/2025",
    "capacity": 0,
    "address": "4195 VIKING WAY, SUITE 140",
    "city": "LONG BEACH",
    "zip": "90808",
    "county": "LOS ANGELES",
    "phone": "(562) 425-1203",
    "lat": 33.833772,
    "lng": -118.1257695
  }
]