[
  {
    "id": "940000007",
    "name": "ATLANTIC MEMORIAL HEALTHCARE CENTER",
    "npi": "1811997570",
    "hcaiId": "206190010",
    "businessName": "ATLANTIC MEMORIAL HEALTHCARE ASSOCIATES, INC.A NEV",
    "contactEmail": "WWILLIAMS@ENSIGNSERVICES.NET",
    "categoryName": "SKILLED NURSING FACILITY",
    "categoryCode": "SNF",
    "licenseStatus": "ACTIVE",
    "inService": true,
    "licenseNumber": "940000005",
    "licenseEffectiveDate": "01/01/2025",
    "licenseExpirationDate": "12/31/2025",
    "dataDate": "10/18/2025",
    "capacity": 100,
    "address": "2750 ATLANTIC AVE",
    "city": "LONG BEACH",
    "zip": "90806",
    "county": "LOS ANGELES",
    "phone": "(562) 424-8101",
    "lat": 33.806745,
    "lng": -118.184328
  },
  {
    "id": "630024736",
    "name": "BANJ HEALTH CENTERS",
    "npi": "1679083182",
    "hcaiId": null,
    "businessName": "QUICLINICS MEDICAL PARTNERS",
    "contactEmail": null,
    "categoryName": "PRIMARY CARE CLINIC",
    "categoryCode": "COMTYC",
    "licenseStatus": "ACTIVE",
    "inService": true,
    "licenseNumber": "550003189",
    "licenseEffectiveDate": "08/20/2025",
    "licenseExpirationDate": "08/19/2026",
    "dataDate": "10/18/2025",
    "capacity": 0,
    "address": "1075 PACIFIC COAST HIGHWAY",
    "city": "LONG BEACH",
    "zip": "90806",
    "county": "LOS ANGELES",
    "phone": null,
    "lat": 33.790284,
    "lng": -118.179
  },
  {
    "id": "630015748",
    "name": "BIXBY KNOLLS HOME HEALTH LLC",
    "npi": "1154724037",
    "hcaiId": "406198231",
    "businessName": "BIXBY KNOLLS HOME HEALTH LLC",
    "contactEmail": "BIXBYKNOLLSLLC@YAHOO.COM",
    "categoryName": "HOME HEALTH AGENCY",
    "categoryCode": "HHA",
    "licenseStatus": "ACTIVE",
    "inService": true,
    "licenseNumber": "550003291",
    "licenseEffectiveDate": "11/09/2024",
    "licenseExpirationDate": "11/08/2025",
    "dataDate": "10/18/2025",
    "capacity": 0,
    "address": "3450 E. SPRING STREET, SUITE 105",
    "city": "LONG BEACH",
    "zip": "90806",
    "county": "LOS ANGELES",
    "phone": "(855) 800-0670",
    "lat": 33.810084,
    "lng": -118.152873
  },
  {
    "id": "980001836",
    "name": "CAMBRIAN HOMECARE",
    "npi": null,
    "hcaiId": "406196677",
    "businessName": "CAMBRIAN HOMECARE",
    "contactEmail": "RHIANNONA@CAMBRIANHOMECARE.COM",
    "categoryName": "HOME HEALTH AGENCY",
    "categoryCode": "HHA",
    "licenseStatus": "ACTIVE",
    "inService": true,
    "licenseNumber": "980001079",
    "licenseEffectiveDate": "06/09/2025",
    "licenseExpirationDate": "06/08/2026",
    "dataDate": "10/18/2025",
    "capacity": 0,
    "address": "2883 E SPRING ST, SUITE 260",
    "city": "LONG BEACH",
    "zip": "90806",
    "county": "LOS ANGELES",
    "phone": "(562) 498-1800",
    "lat": 33.811692,
    "lng": -118.157428
  },
  {
    "id": "960000144",
    "name": "CHILDRENS DENTAL HEALTH CLINIC",
    "npi": null,
    "hcaiId": "306196916",
    "businessName": "CHILDREN'S DENTAL FOUNDATION",
    "contactEmail": "MMARTIN@CDHC.ORG",
    "categoryName": "PRIMARY CARE CLINIC",
    "categoryCode": "COMTYC",
    "licenseStatus": "ACTIVE",
    "inService": true,
    "licenseNumber": "960000039",
    "licenseEffectiveDate": "03/01/2025",
    "licenseExpirationDate": "02/28/2026",
    "dataDate": "10/18/2025",
    "capacity": 0,
    "address": "455 E COLUMBIA ST",
    "city": "LONG BEACH",
    "zip": "90806",
    "county": "LOS ANGELES",
    "phone": "(562) 933-3141",
    "lat": 33.809373,
    "lng": -118.1873655
  },
  {
    "id": "630016462",
    "name": "COLLEGE MEDICAL CENTER",
    "npi": "1215373626",
    "hcaiId": null,
    "businessName": "CHLB, LLC",
    "contactEmail": null,
    "categoryName": "ACUTE PSYCHIATRIC HOSPITAL",
    "categoryCode": "APH",
    "licenseStatus": "ACTIVE",
    "inService": true,
    "licenseNumber": "930000117",
    "licenseEffectiveDate": "10/09/2025",
    "licenseExpirationDate": "10/08/2026",
    "dataDate": "10/18/2025",
    "capacity": 0,
    "address": "2776 PACIFIC AVE.",
    "city": "LONG BEACH",
    "zip": "90806",
    "county": "LOS ANGELES",
    "phone": null,
    "lat": 33.80733,
    "lng": -118.193049
  },
  {
    "id": "930000114",
    "name": "COLLEGE MEDICAL CENTER",
    "npi": "1215373626",
    "hcaiId": "106190587",
    "businessName": "CHLB, LLC",
    "contactEmail": "AQUINTERO@COLLEGEMEDICALCENTER.COM",
    "categoryName": "GENERAL ACUTE CARE HOSPITAL",
    "categoryCode": "GACH",
    "licenseStatus": "ACTIVE",
    "inService": true,
    "licenseNumber": "930000117",
    "licenseEffectiveDate": "10/09/2025",
    "licenseExpirationDate": "10/08/2026",
    "dataDate": "10/18/2025",
    "capacity": 121,
    "address": "2776 PACIFIC AVE",
    "city": "LONG BEACH",
    "zip": "90806",
    "county": "LOS ANGELES",
    "phone": "(562) 997-2073",
    "lat": 33.80733,
    "lng": -118.193049
  },
  {
    "id": "630015578",
    "name": "EL DORADO DIALYSIS",
    "npi": null,
    "hcaiId": "306198087",
    "businessName": "MAZONIA DIALYSIS LLC",
    "contactEmail": "CAL_C@DAVITA.COM",
    "categoryName": "CHRONIC DIALYSIS CLINIC",
    "categoryCode": "ESRD/CDC",
    "licenseStatus": "ACTIVE",
    "inService": true,
    "licenseNumber": "550003170",
    "licenseEffectiveDate": "06/30/2025",
    "licenseExpirationDate": "06/29/2026",
    "dataDate": "10/18/2025",
    "capacity": 27,
    "address": "2977 REDONDO AVE.",
    "city": "LONG BEACH",
    "zip": "90806",
    "county": "LOS ANGELES",
    "phone": "(562) 988-3418",
    "lat": 33.80976,
    "lng": -118.151973
  },
  {
    "id": "980001648",
    "name": "EMINENCE HOME HEALTH",
    "npi": "1225090681",
    "hcaiId": "406194767",
    "businessName": "EMINENCE HOME HEALTH CARE, INC.",
    "contactEmail": "OSCARPAREL@YAHOO.COM",
    "categoryName": "HOME HEALTH AGENCY",
    "categoryCode": "HHA",
    "licenseStatus": "ACTIVE",
    "inService": true,
    "licenseNumber": "980000929",
    "licenseEffectiveDate": "02/05/2025",
    "licenseExpirationDate": "02/04/2026",
    "dataDate": "10/18/2025",
    "capacity": 0,
    "address": "2443 ATLANTIC AVE",
    "city": "LONG BEACH",
    "zip": "90806",
    "county": "LOS ANGELES",
    "phone": "(818) 830-7113",
    "lat": 33.801588,
    "lng": -118.185345
  },
  {
    "id": "630016886",
    "name": "F & F ADULT DAY HEALTH CARE CENTER",
    "npi": null,
    "hcaiId": null,
    "businessName": "LONG BEACH FAMILY HEALTH CARE SERVICES, INC",
    "contactEmail": "FFADULTDAYCARE@GMAIL.COM",
    "categoryName": "ADULT DAY HEALTH CARE",
    "categoryCode": "ADHC",
    "licenseStatus": "ACTIVE",
    "inService": true,
    "licenseNumber": "550003823",
    "licenseEffectiveDate": "03/17/2025",
    "licenseExpirationDate": "03/16/2026",
    "dataDate": "10/18/2025",
    "capacity": 0,
    "address": "2385 PACIFIC AVE",
    "city": "LONG BEACH",
    "zip": "90806",
    "county": "LOS ANGELES",
    "phone": "(562) 336-1400",
    "lat": 33.800508,
    "lng": -118.194048
  },
  {
    "id": "630022686",
    "name": "FRESENIUS KIDNEY CARE LONG BEACH MEMORIAL DIALYSIS",
    "npi": null,
    "hcaiId": "306190631",
    "businessName": "FRESENIUS MEDICAL CARE LONG BEACH, LLC",
    "contactEmail": "CLINIC100428@FMC-NA.COM",
    "categoryName": "CHRONIC DIALYSIS CLINIC",
    "categoryCode": "ESRD/CDC",
    "licenseStatus": "ACTIVE",
    "inService": true,
    "licenseNumber": "550006977",
    "licenseEffectiveDate": "10/07/2025",
    "licenseExpirationDate": "10/06/2026",
    "dataDate": "10/18/2025",
    "capacity": 21,
    "address": "2789 LONG BEACH BLVD",
    "city": "LONG BEACH",
    "zip": "90806",
    "county": "LOS ANGELES",
    "phone": "(562) 512-8100",
    "lat": 33.807816,
    "lng": -118.189845
  },
  {
    "id": "930001415",
    "name": "GREATER LONG BEACH ENDOSCOPY CENTER",
    "npi": "1407813066",
    "hcaiId": "306194595",
    "businessName": "GREATER LONG BEACH ENDOSCOPY CENTER, A PARTNERSHIP",
    "contactEmail": "COLLEEN.DAVIS@SEASURGERY.COM",
    "categoryName": "SURGICAL CLINIC",
    "categoryCode": "ASC",
    "licenseStatus": "INACTIVE - CAPEN DECISION",
    "inService": false,
    "licenseNumber": "930000806",
    "licenseEffectiveDate": "11/01/2007",
    "licenseExpirationDate": "10/31/2008",
    "dataDate": "10/18/2025",
    "capacity": 0,
    "address": "2880 ATLANTIC AVE, SUITE 180",
    "city": "LONG BEACH",
    "zip": "90806",
    "county": "LOS ANGELES",
    "phone": "(562) 426-2606",
    "lat": 33.809301,
    "lng": -118.183824
  },
  {
    "id": "930000899",
    "name": "HEALTHCARE PARTNERS ASC-LB, LLC",
    "npi": "1144590332",
    "hcaiId": null,
    "businessName": null,
    "contactEmail": "SWWILLIAMS@HEALTHCAREPARTNERS.COM",
    "categoryName": "SURGICAL CLINIC",
    "categoryCode": "ASC",
    "licenseStatus": null,
    "inService": null,
    "licenseNumber": null,
    "licenseEffectiveDate": null,
    "licenseExpirationDate": null,
    "dataDate": "10/18/2025",
    "capacity": 0,
    "address": "2600 REDONDO AVE",
    "city": "LONG BEACH",
    "zip": "90806",
    "county": "LOS ANGELES",
    "phone": "(562) 988-7147",
    "lat": 33.806097,
    "lng": -118.1519595
  },
  {
    "id": "630027142",
    "name": "HIA MOBILE CLINIC",
    "npi": null,
    "hcaiId": null,
    "businessName": "HEATLHCARE IN ACTION, INC.",
    "contactEmail": "INFO@HEALTHCAREINACTION.ORG",
    "categoryName": "PRIMARY CARE CLINIC",
    "categoryCode": "COMTYC",
    "licenseStatus": "ACTIVE",
    "inService": true,
    "licenseNumber": "550009908",
    "licenseEffectiveDate": "07/21/2025",
    "licenseExpirationDate": "01/20/2026",
    "dataDate": "10/18/2025",
    "capacity": 0,
    "address": "3800 KILROY AIRPORT WAY, SUITE 100",
    "city": "LONG BEACH",
    "zip": "90806",
    "county": "LOS ANGELES",
    "phone": "(213) 669-6453",
    "lat": 33.80742699,
    "lng": -118.145751
  },
  {
    "id": "630025165",
    "name": "HORIZON PREGNANCY CLINIC",
    "npi": "1801879093",
    "hcaiId": null,
    "businessName": "HORIZON PREGNANCY CENTER",
    "contactEmail": null,
    "categoryName": "PRIMARY CARE CLINIC",
    "categoryCode": "COMTYC",
    "licenseStatus": "ACTIVE",
    "inService": true,
    "licenseNumber": "550001902",
    "licenseEffectiveDate": "02/09/2025",
    "licenseExpirationDate": "02/08/2026",
    "dataDate": "10/18/2025",
    "capacity": 0,
    "address": "261 E WILLOW ST, #C",
    "city": "LONG BEACH",
    "zip": "90806",
    "county": "LOS ANGELES",
    "phone": null,
    "lat": 33.806484,
    "lng": -118.1899395
  },
  {
    "id": "630015306",
    "name": "INTERVENTIONAL SPINE CENTER, INC.",
    "npi": "1639498579",
    "hcaiId": null,
    "businessName": null,
    "contactEmail": null,
    "categoryName": "SURGICAL CLINIC",
    "categoryCode": "ASC",
    "licenseStatus": null,
    "inService": null,
    "licenseNumber": null,
    "licenseEffectiveDate": null,
    "licenseExpirationDate": null,
    "dataDate": "10/18/2025",
    "capacity": 0,
    "address": "2888 LONG BEACH BOULEVARD, SUITE 210",
    "city": "LONG BEACH",
    "zip": "90806",
    "county": "LOS ANGELES",
    "phone": null,
    "lat": 33.809688,
    "lng": -118.1889675
  },
  {
    "id": "630018509",
    "name": "IVORY HOME HEALTH CARE, INC.",
    "npi": null,
    "hcaiId": "406192457",
    "businessName": "IVORY HOME HEALTH CARE, INC.",
    "contactEmail": "OFFICE@IVORYHH.COM",
    "categoryName": "HOME HEALTH AGENCY",
    "categoryCode": "HHA",
    "licenseStatus": "ACTIVE",
    "inService": true,
    "licenseNumber": "550005404",
    "licenseEffectiveDate": "04/03/2025",
    "licenseExpirationDate": "04/02/2026",
    "dataDate": "10/18/2025",
    "capacity": 0,
    "address": "2777 PACIFIC AVE, SUITE K2",
    "city": "LONG BEACH",
    "zip": "90806",
    "county": "LOS ANGELES",
    "phone": "(562) 349-0860",
    "lat": 33.807519,
    "lng": -118.1940705
  },
  {
    "id": "630017258",
    "name": "LB SURGICAL CENTER, LLC",
    "npi": "1669869111",
    "hcaiId": null,
    "businessName": null,
    "contactEmail": null,
    "categoryName": "SURGICAL CLINIC",
    "categoryCode": "ASC",
    "licenseStatus": null,
    "inService": null,
    "licenseNumber": null,
    "licenseEffectiveDate": null,
    "licenseExpirationDate": null,
    "dataDate": "10/18/2025",
    "capacity": 0,
    "address": "2880 ATLANTIC AVE, SUITE 180",
    "city": "LONG BEACH",
    "zip": "90806",
    "county": "LOS ANGELES",
    "phone": "(562) 330-2800",
    "lat": 33.809301,
    "lng": -118.183824
  },
  {
    "id": "630010993",
    "name": "LONG BEACH HARBOR (UCLA)",
    "npi": "1215032404",
    "hcaiId": "306196945",
    "businessName": "RENAL TREATMENT CENTERS - CALIFORNIA, INC.",
    "contactEmail": "CAL_C@DAVITA.COM",
    "categoryName": "CHRONIC DIALYSIS CLINIC",
    "categoryCode": "ESRD/CDC",
    "licenseStatus": "ACTIVE",
    "inService": true,
    "licenseNumber": "550000444",
    "licenseEffectiveDate": "03/19/2025",
    "licenseExpirationDate": "03/18/2026",
    "dataDate": "10/18/2025",
    "capacity": 12,
    "address": "1075 E PACIFIC COAST HWY",
    "city": "LONG BEACH",
    "zip": "90806",
    "county": "LOS ANGELES",
    "phone": "(562) 599-1511",
    "lat": 33.790284,
    "lng": -118.179
  },
  {
    "id": "930000547",
    "name": "LONG BEACH MEMORIAL MEDICAL CENTER D/P SNF",
    "npi": "1962442012",
    "hcaiId": null,
    "businessName": "LONG BEACH MEMORIAL MEDICAL CENTER",
    "contactEmail": "LSNEED@MEMORIALCARE.ORG",
    "categoryName": "SKILLED NURSING FACILITY",
    "categoryCode": "SNF",
    "licenseStatus": "ACTIVE",
    "inService": true,
    "licenseNumber": "930000102",
    "licenseEffectiveDate": "03/01/2025",
    "licenseExpirationDate": "02/28/2026",
    "dataDate": "10/18/2025",
    "capacity": 42,
    "address": "2801 ATLANTIC AVE",
    "city": "LONG BEACH",
    "zip": "90806",
    "county": "LOS ANGELES",
    "phone": "(562) 933-1123",
    "lat": 33.808293,
    "lng": -118.186632
  },
  {
    "id": "930000095",
    "name": "MEMORIALCARE LONG BEACH MEDICAL CENTER",
    "npi": "1962442012",
    "hcaiId": "106190525",
    "businessName": "LONG BEACH MEMORIAL MEDICAL CENTER",
    "contactEmail": "CLEROY@MEMORIALCARE.ORG",
    "categoryName": "GENERAL ACUTE CARE HOSPITAL",
    "categoryCode": "GACH",
    "licenseStatus": "ACTIVE",
    "inService": true,
    "licenseNumber": "930000102",
    "licenseEffectiveDate": "03/01/2025",
    "licenseExpirationDate": "02/28/2026",
    "dataDate": "10/18/2025",
    "capacity": 411,
    "address": "2801 ATLANTIC AVE",
    "city": "LONG BEACH",
    "zip": "90806",
    "county": "LOS ANGELES",
    "phone": "(562) 933-1902",
    "lat": 33.808293,
    "lng": -118.186632
  },
  {
    "id": "930001709",
    "name": "MEMORIALCARE MILLER CHILDREN'S & WOMEN'S HOSPITAL LONG BEACH",
    "npi": "1477596583",
    "hcaiId": "106196168",
    "businessName": "LONG BEACH MEMORIAL MEDICAL CENTER",
    "contactEmail": "CLEROY@MEMORIALCARE.ORG",
    "categoryName": "GENERAL ACUTE CARE HOSPITAL",
    "categoryCode": "GACH",
    "licenseStatus": "ACTIVE",
    "inService": true,
    "licenseNumber": "930000949",
    "licenseEffectiveDate": "06/30/2025",
    "licenseExpirationDate": "06/29/2026",
    "dataDate": "10/18/2025",
    "capacity": 357,
    "address": "2801 ATLANTIC AVE",
    "city": "LONG BEACH",
    "zip": "90806",
    "county": "LOS ANGELES",
    "phone": "(562) 933-1902",
    "lat": 33.808293,
    "lng": -118.186632
  },
  {
    "id": "630015539",
    "name": "OCEAN VIEW PSYCHIATRIC HEALTH FACILITY",
    "npi": "1174950851",
    "hcaiId": null,
    "businessName": null,
    "contactEmail": null,
    "categoryName": "ACUTE PSYCHIATRIC HOSPITAL",
    "categoryCode": "PHF",
    "licenseStatus": null,
    "inService": null,
    "licenseNumber": null,
    "licenseEffectiveDate": null,
    "licenseExpirationDate": null,
    "dataDate": "10/18/2025",
    "capacity": 0,
    "address": "2600 REDONDO AVENUE, SUITE #500",
    "city": "LONG BEACH",
    "zip": "90806",
    "county": "LOS ANGELES",
    "phone": null,
    "lat": 33.806097,
    "lng": -118.1519595
  },
  {
    "id": "630012517",
    "name": "OCEANVIEW PAIN TREATMENT MEDICAL CENTER, INC.",
    "npi": "1669475570",
    "hcaiId": null,
    "businessName": null,
    "contactEmail": null,
    "categoryName": "SURGICAL CLINIC",
    "categoryCode": "ASC",
    "licenseStatus": null,
    "inService": null,
    "licenseNumber": null,
    "licenseEffectiveDate": null,
    "licenseExpirationDate": null,
    "dataDate": "10/18/2025",
    "capacity": 0,
    "address": "2650 ELM AVE, SUITE 216",
    "city": "LONG BEACH",
    "zip": "90806",
    "county": "LOS ANGELES",
    "phone": "(562) 426-8500",
    "lat": 33.805422,
    "lng": -118.1880405
  },
  {
    "id": "940000089",
    "name": "PACIFIC CARE NURSING CENTER",
    "npi": "1518954122",
    "hcaiId": "206190593",
    "businessName": "PACIFIC CARE NURSING CENTER",
    "contactEmail": "ADMINISTRATOR@PACIFICCARENC.NET",
    "categoryName": "SKILLED NURSING FACILITY",
    "categoryCode": "SNF",
    "licenseStatus": "ACTIVE",
    "inService": true,
    "licenseNumber": "940000129",
    "licenseEffectiveDate": "04/15/2025",
    "licenseExpirationDate": "04/14/2026",
    "dataDate": "10/18/2025",
    "capacity": 99,
    "address": "3355 PACIFIC PL",
    "city": "LONG BEACH",
    "zip": "90806",
    "county": "LOS ANGELES",
    "phone": "(562) 595-4336",
    "lat": 33.818301,
    "lng": -118.1963025
  },
  {
    "id": "630027488",
    "name": "PLANNED PARENTHOOD LOS ANGELES - LONG BEACH CENTRAL",
    "npi": "1205684099",
    "hcaiId": null,
    "businessName": "PLANNED PARENTHOOD LOS ANGELES",
    "contactEmail": "BRENDA.GUERRERO@PP-LA.ORG",
    "categoryName": "PRIMARY CARE CLINIC",
    "categoryCode": "COMTYC",
    "licenseStatus": "ACTIVE",
    "inService": true,
    "licenseNumber": "550009432",
    "licenseEffectiveDate": "10/10/2025",
    "licenseExpirationDate": "10/09/2026",
    "dataDate": "10/18/2025",
    "capacity": 0,
    "address": "2690 PACIFIC AVE, SUITE 260",
    "city": "LONG BEACH",
    "zip": "90806",
    "county": "LOS ANGELES",
    "phone": "(213) 284-3200",
    "lat": 33.80585702,
    "lng": -118.193402
  },
  {
    "id": "960002883",
    "name": "PLANNED PARENTHOOD LOS ANGELES-LONG BEACH CENTER",
    "npi": "1669561890",
    "hcaiId": "306197589",
    "businessName": "PLANNED PARENTHOOD LOS ANGELES",
    "contactEmail": "BRENDA.GUERRERO@PP-LA.ORG",
    "categoryName": "PRIMARY CARE CLINIC",
    "categoryCode": "COMTYC",
    "licenseStatus": "ACTIVE",
    "inService": true,
    "licenseNumber": "960001447",
    "licenseEffectiveDate": "02/26/2025",
    "licenseExpirationDate": "02/25/2026",
    "dataDate": "10/18/2025",
    "capacity": 0,
    "address": "2690 PACIFIC AVE, SUITE 370",
    "city": "LONG BEACH",
    "zip": "90806",
    "county": "LOS ANGELES",
    "phone": "(213) 284-3200",
    "lat": 33.805836,
    "lng": -118.1933235
  },
  {
    "id": "630020886",
    "name": "PRIORITY CARE MEDICAL GROUP-LONG BEACH 1",
    "npi": null,
    "hcaiId": "306190774",
    "businessName": "CENTER FOR FAMILY HEALTH & EDUCATION, INC.",
    "contactEmail": "MRAMIREZ@CFFHAE.ORG",
    "categoryName": "PRIMARY CARE CLINIC",
    "categoryCode": "COMTYC",
    "licenseStatus": "ACTIVE",
    "inService": true,
    "licenseNumber": "550005891",
    "licenseEffectiveDate": "04/23/2025",
    "licenseExpirationDate": "12/15/2025",
    "dataDate": "10/18/2025",
    "capacity": 0,
    "address": "455 W WILLOW ST",
    "city": "LONG BEACH",
    "zip": "90806",
    "county": "LOS ANGELES",
    "phone": "(562) 471-7373",
    "lat": 33.80463,
    "lng": -118.197279
  },
  {
    "id": "630024494",
    "name": "PRIORITY CARE MEDICAL GROUP-LONG BEACH 2",
    "npi": null,
    "hcaiId": null,
    "businessName": "CENTER FOR FAMILY HEALTH & EDUCATION, INC.",
    "contactEmail": null,
    "categoryName": "PRIMARY CARE CLINIC",
    "categoryCode": "COMTYC",
    "licenseStatus": "ACTIVE",
    "inService": true,
    "licenseNumber": "550004817",
    "licenseEffectiveDate": "08/12/2025",
    "licenseExpirationDate": "08/08/2026",
    "dataDate": "10/18/2025",
    "capacity": 0,
    "address": "306 E PACIFIC COAST HWY, SUITE 101",
    "city": "LONG BEACH",
    "zip": "90806",
    "county": "LOS ANGELES",
    "phone": null,
    "lat": 33.789573,
    "lng": -118.188585
  },
  {
    "id": "630021295",
    "name": "PROACTIVE HOSPICE INC",
    "npi": null,
    "hcaiId": "406193389",
    "businessName": "PROACTIVE HOSPICE INC",
    "contactEmail": "PROCATIVEHOSPICE@GMAIL.COM",
    "categoryName": "HOSPICE",
    "categoryCode": "HOSPICE",
    "licenseStatus": "ACTIVE",
    "inService": true,
    "licenseNumber": "550007005",
    "licenseEffectiveDate": "09/29/2025",
    "licenseExpirationDate": "09/28/2027",
    "dataDate": "10/18/2025",
    "capacity": 0,
    "address": "2777 PACIFIC AVE, SUITE L1",
    "city": "LONG BEACH",
    "zip": "90806",
    "county": "LOS ANGELES",
    "phone": "(562) 317-8797",
    "lat": 33.807519,
    "lng": -118.1940705
  },
  {
    "id": "960000181",
    "name": "S. MARK TAPER FOUNDATION CHILDREN'S CLINIC FAMILY HEALTH CENTER",
    "npi": null,
    "hcaiId": "306196887",
    "businessName": "THE CHILDREN'S CLINIC \"SERVING CHILDREN AND THEIR FAMILIES\"",
    "contactEmail": "CVAZQUEZ@TCCFAMILYHEALTH.ORG",
    "categoryName": "PRIMARY CARE CLINIC",
    "categoryCode": "COMTYC",
    "licenseStatus": "ACTIVE",
    "inService": true,
    "licenseNumber": "960000104",
    "licenseEffectiveDate": "05/31/2025",
    "licenseExpirationDate": "05/30/2026",
    "dataDate": "10/18/2025",
    "capacity": 0,
    "address": "455 E COLUMBIA ST, SUITE 201",
    "city": "LONG BEACH",
    "zip": "90806",
    "county": "LOS ANGELES",
    "phone": "(562) 264-4676",
    "lat": 33.809373,
    "lng": -118.1873655
  },
  {
    "id": "630025320",
    "name": "SPARKS FAMILY CLINIC OF LONG BEACH",
    "npi": null,
    "hcaiId": null,
    "businessName": "DIGNITY HEALTH",
    "contactEmail": null,
    "categoryName": "PRIMARY CARE CLINIC",
    "categoryCode": "COMTYC",
    "licenseStatus": "ACTIVE",
    "inService": true,
    "licenseNumber": "960001055",
    "licenseEffectiveDate": "03/23/2025",
    "licenseExpirationDate": "03/22/2026",
    "dataDate": "10/18/2025",
    "capacity": 0,
    "address": "1900 LONG BEACH BLVD, SUITE 102",
    "city": "LONG BEACH",
    "zip": "90806",
    "county": "LOS ANGELES",
    "phone": null,
    "lat": 33.791823,
    "lng": -118.188909
  },
  {
    "id": "930001716",
    "name": "SURGERY CENTER OF LONG BEACH",
    "npi": "1043217615",
    "hcaiId": "306196216",
    "businessName": "LONG BEACH SURGERY CENTER, L.P.",
    "contactEmail": "DSHART@LBASC.COM",
    "categoryName": "SURGICAL CLINIC",
    "categoryCode": "ASC",
    "licenseStatus": "INACTIVE - CAPEN DECISION",
    "inService": false,
    "licenseNumber": "930000963",
    "licenseEffectiveDate": "05/09/2007",
    "licenseExpirationDate": "05/08/2008",
    "dataDate": "10/18/2025",
    "capacity": 0,
    "address": "2880 ATLANTIC AVE, SUITE 160",
    "city": "LONG BEACH",
    "zip": "90806",
    "county": "LOS ANGELES",
    "phone": "(562) 989-7862",
    "lat": 33.809301,
    "lng": -118.183824
  },
  {
    "id": "930001814",
    "name": "SURGICAL INSTITUTE OF LONG BEACH",
    "npi": null,
    "hcaiId": null,
    "businessName": null,
    "contactEmail": "NONE@DHS.CA.GOV",
    "categoryName": "SURGICAL CLINIC",
    "categoryCode": "ASC",
    "licenseStatus": null,
    "inService": null,
    "licenseNumber": null,
    "licenseEffectiveDate": null,
    "licenseExpirationDate": null,
    "dataDate": "10/18/2025",
    "capacity": 0,
    "address": "701 E 28TH ST, SUITE 300",
    "city": "LONG BEACH",
    "zip": "90806",
    "county": "LOS ANGELES",
    "phone": "(562) 426-7111",
    "lat": 33.808473,
    "lng": -118.1845935
  },
  {
    "id": "630018770",
    "name": "TCC FAMILY HEALTH",
    "npi": null,
    "hcaiId": null,
    "businessName": "THE CHILDREN'S CLINIC \"SERVING CHILDREN AND THEIR FAMILIES\"",
    "contactEmail": null,
    "categoryName": "PRIMARY CARE CLINIC",
    "categoryCode": "COMTYC",
    "licenseStatus": "ACTIVE",
    "inService": true,
    "licenseNumber": "960001379",
    "licenseEffectiveDate": "03/17/2025",
    "licenseExpirationDate": "03/16/2026",
    "dataDate": "10/18/2025",
    "capacity": 0,
    "address": "1900 ATLANTIC AVE",
    "city": "LONG BEACH",
    "zip": "90806",
    "county": "LOS ANGELES",
    "phone": "(844) 822-4646",
    "lat": 33.79174467,
    "lng": -118.1849808
  },
  {
    "id": "940000096",
    "name": "THE BEACH POST-ACUTE",
    "npi": "1053453902",
    "hcaiId": "206190663",
    "businessName": "PARADISE BAY HOLDINGS, LLC",
    "contactEmail": "TOBY@LINKSHEALTH.COM",
    "categoryName": "SKILLED NURSING FACILITY",
    "categoryCode": "SNF",
    "licenseStatus": "ACTIVE",
    "inService": true,
    "licenseNumber": "940000145",
    "licenseEffectiveDate": "08/01/2025",
    "licenseExpirationDate": "10/31/2025",
    "dataDate": "10/18/2025",
    "capacity": 98,
    "address": "2725 PACIFIC AVE",
    "city": "LONG BEACH",
    "zip": "90806",
    "county": "LOS ANGELES",
    "phone": "(562) 427-7493",
    "lat": 33.806628,
    "lng": -118.194048
  },
  {
    "id": "630016286",
    "name": "THE CENTER FOR DISCOVERY AND ADOLESCENT CENTER",
    "npi": null,
    "hcaiId": null,
    "businessName": null,
    "contactEmail": null,
    "categoryName": "OTHER",
    "categoryCode": "UNLICEN",
    "licenseStatus": null,
    "inService": null,
    "licenseNumber": null,
    "licenseEffectiveDate": null,
    "licenseExpirationDate": null,
    "dataDate": "10/18/2025",
    "capacity": 0,
    "address": "350 WEST WARDLOW RD.",
    "city": "LONG BEACH",
    "zip": "90806",
    "county": "LOS ANGELES",
    "phone": "(562) 981-8400",
    "lat": 33.818661,
    "lng": -118.196334
  },
  {
    "id": "630013016",
    "name": "THE CHILDREN'S CLINIC FAMILY HEALTH CENTER IN CENTRAL LONG BEACH",
    "npi": null,
    "hcaiId": "306197624",
    "businessName": "THE CHILDREN'S CLINIC \"SERVING CHILDREN AND THEIR FAMILIES\"",
    "contactEmail": "JLAWLER@THECHILDRENSCLINIC.ORG",
    "categoryName": "PRIMARY CARE CLINIC",
    "categoryCode": "COMTYC",
    "licenseStatus": "ACTIVE",
    "inService": true,
    "licenseNumber": "960000195",
    "licenseEffectiveDate": "03/03/2025",
    "licenseExpirationDate": "03/02/2026",
    "dataDate": "10/18/2025",
    "capacity": 0,
    "address": "2360 PACIFIC AVENUE",
    "city": "LONG BEACH",
    "zip": "90806",
    "county": "LOS ANGELES",
    "phone": "(562) 933-0471",
    "lat": 33.800049,
    "lng": -118.193364
  },
  {
    "id": "930001400",
    "name": "U.S. RENAL CARE WEST COAST DIALYSIS",
    "npi": "1619152147",
    "hcaiId": "306194610",
    "businessName": "WEST COAST DIALYSIS CENTER, LLC",
    "contactEmail": "LICENSING@USRENALCARE.COM",
    "categoryName": "CHRONIC DIALYSIS CLINIC",
    "categoryCode": "ESRD/CDC",
    "licenseStatus": "ACTIVE",
    "inService": true,
    "licenseNumber": "930000822",
    "licenseEffectiveDate": "05/07/2025",
    "licenseExpirationDate": "05/06/2026",
    "dataDate": "10/18/2025",
    "capacity": 23,
    "address": "3780 KILROY AIRPORT WAY, SUITE 110",
    "city": "LONG BEACH",
    "zip": "90806",
    "county": "LOS ANGELES",
    "phone": "(562) 989-3010",
    "lat": 33.80742,
    "lng": -118.1457495
  }
]