[
  {
    "id": "940000062",
    "name": "ALAMITOS BELMONT HEALTH AND REHABILITATION",
    "npi": "1851004477",
    "hcaiId": "206190011",
    "businessName": "MIDNIGHT HEALTHCARE, INC.",
    "contactEmail": "SDAHL@ENSIGNSERVICES.NET",
    "categoryName": "SKILLED NURSING FACILITY",
    "categoryCode": "SNF",
    "licenseStatus": "ACTIVE",
    "inService": true,
    "licenseNumber": "940000006",
    "licenseEffectiveDate": "06/30/2025",
    "licenseExpirationDate": "06/29/2026",
    "dataDate": "10/18/2025",
    "capacity": 94,
    "address": "3901 E 4TH ST",
    "city": "LONG BEACH",
    "zip": "90814",
    "county": "LOS ANGELES",
    "phone": "(562) 434-8421",
    "lat": 33.771942,
    "lng": -118.146843
  },
  {
    "id": "940000043",
    "name": "EDGEWATER SKILLED NURSING CENTER",
    "npi": "1861105488",
    "hcaiId": "206190261",
    "businessName": "MOONRISE HEALTHCARE, INC.",
    "contactEmail": "DWIRTHLIN@ENSIGNSERVICES.NET",
    "categoryName": "SKILLED NURSING FACILITY",
    "categoryCode": "SNF",
    "licenseStatus": "ACTIVE",
    "inService": true,
    "licenseNumber": "940000058",
    "licenseEffectiveDate": "11/01/2025",
    "licenseExpirationDate": "10/31/2026",
    "dataDate": "10/18/2025",
    "capacity": 81,
    "address": "2625 E 4TH ST",
    "city": "LONG BEACH",
    "zip": "90814",
    "county": "LOS ANGELES",
    "phone": "(562) 434-0974",
    "lat": 33.771969,
    "lng": -118.160415
  },
  {
    "id": "630015305",
    "name": "THE LGBTQ CENTER OF LONG BEACH",
    "npi": null,
    "hcaiId": "306190664",
    "businessName": "ONE IN LONG BEACH, INC.",
    "contactEmail": "RRUIZ@CENTERLB.ORG",
    "categoryName": "PRIMARY CARE CLINIC",
    "categoryCode": "COMTYC",
    "licenseStatus": "ACTIVE",
    "inService": true,
    "licenseNumber": "550005841",
    "licenseEffectiveDate": "10/27/2024",
    "licenseExpirationDate": "10/26/2025",
    "dataDate": "10/18/2025",
    "capacity": 0,
    "address": "2017 EAST 4TH STREET",
    "city": "LONG BEACH",
    "zip": "90814",
    "county": "LOS ANGELES",
    "phone": "(562) 434-4455",
    "lat": 33.771978,
    "lng": -118.167129
  }
]