[
  {
    "id": "630020235",
    "name": "AMERICAN VETERANS HOSPICE",
    "npi": "1720601354",
    "hcaiId": "406193986",
    "businessName": "GET HOSPICE",
    "contactEmail": "NOAH@AMVETSHOSPICE.COM",
    "categoryName": "HOSPICE",
    "categoryCode": "HOSPICE",
    "licenseStatus": "ACTIVE",
    "inService": true,
    "licenseNumber": "550006068",
    "licenseEffectiveDate": "02/04/2025",
    "licenseExpirationDate": "02/03/2027",
    "dataDate": "10/18/2025",
    "capacity": 0,
    "address": "2750 N BELLFLOWER BLVD, SUITE 206",
    "city": "LONG BEACH",
    "zip": "90815",
    "county": "LOS ANGELES",
    "phone": "(866) 855-8387",
    "lat": 33.806304,
    "lng": -118.124739
  },
  {
    "id": "940000065",
    "name": "INTERCOMMUNITY CARE CENTER",
    "npi": "1659424745",
    "hcaiId": "206190420",
    "businessName": "INTERCOMMUNITY CARE CENTERS, INC.",
    "contactEmail": "MJORDAN@ICCLONGBEACH.COM",
    "categoryName": "SKILLED NURSING FACILITY",
    "categoryCode": "SNF",
    "licenseStatus": "ACTIVE",
    "inService": true,
    "licenseNumber": "940000098",
    "licenseEffectiveDate": "11/04/2024",
    "licenseExpirationDate": "11/03/2025",
    "dataDate": "10/18/2025",
    "capacity": 147,
    "address": "2626 GRAND AVE",
    "city": "LONG BEACH",
    "zip": "90815",
    "county": "LOS ANGELES",
    "phone": "(562) 426-1368",
    "lat": 33.804828,
    "lng": -118.14534
  },
  {
    "id": "940000107",
    "name": "LONG BEACH CARE CENTER",
    "npi": "1043305782",
    "hcaiId": "206190884",
    "businessName": "LONG BEACH CARE CENTER, INC.",
    "contactEmail": "DONOVAN.MAUGA@LBCCENTER.COM",
    "categoryName": "SKILLED NURSING FACILITY",
    "categoryCode": "SNF",
    "licenseStatus": "ACTIVE",
    "inService": true,
    "licenseNumber": "940000177",
    "licenseEffectiveDate": "11/17/2024",
    "licenseExpirationDate": "11/16/2025",
    "dataDate": "10/18/2025",
    "capacity": 163,
    "address": "2615 GRAND AVE",
    "city": "LONG BEACH",
    "zip": "90815",
    "county": "LOS ANGELES",
    "phone": "(562) 426-6141",
    "lat": 33.805692,
    "lng": -118.147284
  },
  {
    "id": "630027600",
    "name": "OLIVE HOME HEALTH, LLC",
    "npi": null,
    "hcaiId": null,
    "businessName": "OLIVE HOME HEALTH, LLC",
    "contactEmail": "OLIVEHOMEHEALTHLLC@GMAIL.COM",
    "categoryName": "HOME HEALTH AGENCY",
    "categoryCode": "HHA",
    "licenseStatus": "ACTIVE",
    "inService": true,
    "licenseNumber": "550010007",
    "licenseEffectiveDate": "09/17/2025",
    "licenseExpirationDate": "03/16/2026",
    "dataDate": "10/18/2025",
    "capacity": 0,
    "address": "5100 E ANAHEIM RD, SUITE A-104",
    "city": "LONG BEACH",
    "zip": "90815",
    "county": "LOS ANGELES",
    "phone": "(562) 552-8048",
    "lat": 33.78431402,
    "lng": -118.133714
  },
  {
    "id": "630026690",
    "name": "ROADS - MCA BEHAVIORAL HEALTH CENTER",
    "npi": "1508278359",
    "hcaiId": null,
    "businessName": "THE R.O.A.D.S. FOUNDATION, INC.",
    "contactEmail": null,
    "categoryName": "PRIMARY CARE CLINIC",
    "categoryCode": "COMTYC",
    "licenseStatus": "ACTIVE",
    "inService": true,
    "licenseNumber": "550002986",
    "licenseEffectiveDate": "03/02/2025",
    "licenseExpirationDate": "03/01/2026",
    "dataDate": "10/18/2025",
    "capacity": 0,
    "address": "4525 E ATHERTON ST, FLOOR 2",
    "city": "LONG BEACH",
    "zip": "90815",
    "county": "LOS ANGELES",
    "phone": null,
    "lat": 33.790851,
    "lng": -118.139886
  },
  {
    "id": "630019755",
    "name": "ROADS COMMUNITY CLINIC - EAST LONG BEACH",
    "npi": null,
    "hcaiId": null,
    "businessName": "THE R.O.A.D.S. FOUNDATION, INC.",
    "contactEmail": "SORIANO.ROSEMICHELL@GMAIL.COM",
    "categoryName": "PRIMARY CARE CLINIC",
    "categoryCode": "COMTYC",
    "licenseStatus": "ACTIVE",
    "inService": true,
    "licenseNumber": "550009569",
    "licenseEffectiveDate": "12/27/2024",
    "licenseExpirationDate": "12/26/2025",
    "dataDate": "10/18/2025",
    "capacity": 0,
    "address": "4800 E LOS COYOTES DIAGONAL",
    "city": "LONG BEACH",
    "zip": "90815",
    "county": "LOS ANGELES",
    "phone": "(310) 627-5860",
    "lat": 33.792894,
    "lng": -118.137645
  },
  {
    "id": "630025702",
    "name": "THE EDEN CLHF",
    "npi": null,
    "hcaiId": "206190382",
    "businessName": "AROPAGA INCORPORATED",
    "contactEmail": "ADMIN@THEEDEN.US",
    "categoryName": "CONGREGATE LIVING HEALTH FACILITY",
    "categoryCode": "CLHF",
    "licenseStatus": "ACTIVE",
    "inService": true,
    "licenseNumber": "550008291",
    "licenseEffectiveDate": "12/20/2024",
    "licenseExpirationDate": "12/19/2025",
    "dataDate": "10/18/2025",
    "capacity": 6,
    "address": "5809 E MARITA ST",
    "city": "LONG BEACH",
    "zip": "90815",
    "county": "LOS ANGELES",
    "phone": "(562) 270-9735",
    "lat": 33.791265,
    "lng": -118.119159
  }
]