[
  {
    "id": "630017351",
    "name": "APLA HEALTH & WELLNESS - LONG BEACH CENTER",
    "npi": null,
    "hcaiId": "306190893",
    "businessName": "APLA HEALTH & WELLNESS",
    "contactEmail": "VWAGNER@APLAHEALTH.ORG",
    "categoryName": "PRIMARY CARE CLINIC",
    "categoryCode": "COMTYC",
    "licenseStatus": "ACTIVE",
    "inService": true,
    "licenseNumber": "550004066",
    "licenseEffectiveDate": "12/12/2024",
    "licenseExpirationDate": "12/11/2025",
    "dataDate": "10/18/2025",
    "capacity": 0,
    "address": "1043 ELM AVE, SUITE 302",
    "city": "LONG BEACH",
    "zip": "90813",
    "county": "LOS ANGELES",
    "phone": "(323) 329-9920",
    "lat": 33.780123,
    "lng": -118.1883645
  },
  {
    "id": "630019350",
    "name": "ATLANTIC PCH DIALYSIS",
    "npi": null,
    "hcaiId": "306190524",
    "businessName": "TOTAL RENAL CARE, INC.",
    "contactEmail": "CAL_C@DAVITA.COM",
    "categoryName": "CHRONIC DIALYSIS CLINIC",
    "categoryCode": "ESRD/CDC",
    "licenseStatus": "ACTIVE",
    "inService": true,
    "licenseNumber": "550005367",
    "licenseEffectiveDate": "03/24/2025",
    "licenseExpirationDate": "03/23/2026",
    "dataDate": "10/18/2025",
    "capacity": 20,
    "address": "1090 ATLANTIC AVE",
    "city": "LONG BEACH",
    "zip": "90813",
    "county": "LOS ANGELES",
    "phone": "(562) 432-8262",
    "lat": 33.78069,
    "lng": -118.1847555
  },
  {
    "id": "630027424",
    "name": "BEACH CITY WELLNESS",
    "npi": null,
    "hcaiId": null,
    "businessName": "BEACH CITY WELLNESS, INC",
    "contactEmail": "BEACHCITYWELLNESS@YAHOO.COM",
    "categoryName": "ADULT DAY HEALTH CARE",
    "categoryCode": "ADHC",
    "licenseStatus": "ACTIVE",
    "inService": true,
    "licenseNumber": "550009353",
    "licenseEffectiveDate": "08/27/2025",
    "licenseExpirationDate": "08/26/2026",
    "dataDate": "10/18/2025",
    "capacity": 0,
    "address": "1633 LONG BEACH BLVD",
    "city": "LONG BEACH",
    "zip": "90813",
    "county": "LOS ANGELES",
    "phone": "(562) 800-5520",
    "lat": 33.7877156,
    "lng": -118.1898746
  },
  {
    "id": "630016370",
    "name": "BENEVOLENCE HEALTH CENTER",
    "npi": null,
    "hcaiId": "306198284",
    "businessName": "BENEVOLENCE INDUSTRIES INCORPORATED",
    "contactEmail": "GDANQUAH@BHCHEALTH.ORG",
    "categoryName": "PRIMARY CARE CLINIC",
    "categoryCode": "COMTYC",
    "licenseStatus": "ACTIVE",
    "inService": true,
    "licenseNumber": "550003668",
    "licenseEffectiveDate": "10/03/2025",
    "licenseExpirationDate": "10/02/2026",
    "dataDate": "10/18/2025",
    "capacity": 0,
    "address": "934 ATLANTIC AVENUE",
    "city": "LONG BEACH",
    "zip": "90813",
    "county": "LOS ANGELES",
    "phone": "(562) 437-1888",
    "lat": 33.778377,
    "lng": -118.184607
  },
  {
    "id": "930000198",
    "name": "BIO-MEDICAL LONG BEACH COMMUNITY HEMODIALYSIS UNIT",
    "npi": "1497120182",
    "hcaiId": "306190613",
    "businessName": "FRESENIUS MEDICAL CARE LONG BEACH, LLC",
    "contactEmail": "CLINIC1141@FMC-NA.COM",
    "categoryName": "CHRONIC DIALYSIS CLINIC",
    "categoryCode": "ESRD/CDC",
    "licenseStatus": "ACTIVE",
    "inService": true,
    "licenseNumber": "930000020",
    "licenseEffectiveDate": "12/12/2024",
    "licenseExpirationDate": "12/11/2025",
    "dataDate": "10/18/2025",
    "capacity": 25,
    "address": "1525 LONG BEACH BLVD",
    "city": "LONG BEACH",
    "zip": "90813",
    "county": "LOS ANGELES",
    "phone": "(562) 432-4444",
    "lat": 33.785946,
    "lng": -118.1899845
  },
  {
    "id": "630027676",
    "name": "CHOICE HEALTH NETWORK, LONG BEACH",
    "npi": null,
    "hcaiId": null,
    "businessName": "CHOICE HEALTH NETWORK",
    "contactEmail": null,
    "categoryName": "PRIMARY CARE CLINIC",
    "categoryCode": "COMTYC",
    "licenseStatus": "ACTIVE",
    "inService": true,
    "licenseNumber": "550008693",
    "licenseEffectiveDate": "08/17/2025",
    "licenseExpirationDate": "08/16/2026",
    "dataDate": "10/18/2025",
    "capacity": 0,
    "address": "722 ALAMITOS AVE",
    "city": "LONG BEACH",
    "zip": "90813",
    "county": "LOS ANGELES",
    "phone": null,
    "lat": 33.77573502,
    "lng": -118.179878
  },
  {
    "id": "930000083",
    "name": "COLLEGE MEDICAL CENTER SOUTH CAMPUS D/P APH",
    "npi": "1215373626",
    "hcaiId": "106190477",
    "businessName": "CHLB, LLC",
    "contactEmail": null,
    "categoryName": "ACUTE PSYCHIATRIC HOSPITAL",
    "categoryCode": "APH",
    "licenseStatus": "ACTIVE",
    "inService": true,
    "licenseNumber": "930000117",
    "licenseEffectiveDate": "10/09/2025",
    "licenseExpirationDate": "10/08/2026",
    "dataDate": "10/18/2025",
    "capacity": 36,
    "address": "1725 PACIFIC AVE",
    "city": "LONG BEACH",
    "zip": "90813",
    "county": "LOS ANGELES",
    "phone": "(562) 599-3551",
    "lat": 33.788475,
    "lng": -118.194129
  },
  {
    "id": "630014278",
    "name": "COMMUNITY MEDICAL WELLNESS CENTERS, USA",
    "npi": "1235500513",
    "hcaiId": "306198346",
    "businessName": "COMMUNITY MEDICAL WELLNESS CENTERS, USA.",
    "contactEmail": "SOMPIAPAIGNE@CMWCUSA.ORG",
    "categoryName": "PRIMARY CARE CLINIC",
    "categoryCode": "COMTYC",
    "licenseStatus": "ACTIVE",
    "inService": true,
    "licenseNumber": "550003456",
    "licenseEffectiveDate": "02/26/2025",
    "licenseExpirationDate": "02/25/2026",
    "dataDate": "10/18/2025",
    "capacity": 0,
    "address": "1360 EAST ANAHEIM ST, SUITE 101",
    "city": "LONG BEACH",
    "zip": "90813",
    "county": "LOS ANGELES",
    "phone": "(562) 270-0324",
    "lat": 33.782274,
    "lng": -118.174311
  },
  {
    "id": "630027012",
    "name": "COMMUNITY MEDICAL WELLNESS CENTERS, USA",
    "npi": "1235500513",
    "hcaiId": null,
    "businessName": "COMMUNITY MEDICAL WELLNESS CENTERS, USA.",
    "contactEmail": null,
    "categoryName": "PRIMARY CARE CLINIC",
    "categoryCode": "COMTYC",
    "licenseStatus": "ACTIVE",
    "inService": true,
    "licenseNumber": "550003456",
    "licenseEffectiveDate": "02/26/2025",
    "licenseExpirationDate": "02/25/2026",
    "dataDate": "10/18/2025",
    "capacity": 0,
    "address": "1350 E ANAHEIM ST",
    "city": "LONG BEACH",
    "zip": "90813",
    "county": "LOS ANGELES",
    "phone": null,
    "lat": 33.782364,
    "lng": -118.175076
  },
  {
    "id": "630020261",
    "name": "COMMUNITY MEDICAL WELLNESS USA - KHEMARA",
    "npi": "1235500513",
    "hcaiId": null,
    "businessName": "COMMUNITY MEDICAL WELLNESS CENTERS, USA.",
    "contactEmail": null,
    "categoryName": "PRIMARY CARE CLINIC",
    "categoryCode": "COMTYC",
    "licenseStatus": "ACTIVE",
    "inService": true,
    "licenseNumber": "550003456",
    "licenseEffectiveDate": "02/26/2025",
    "licenseExpirationDate": "02/25/2026",
    "dataDate": "10/18/2025",
    "capacity": 0,
    "address": "1533 ALAMITOS AVE",
    "city": "LONG BEACH",
    "zip": "90813",
    "county": "LOS ANGELES",
    "phone": "(323) 997-2710",
    "lat": 33.786981,
    "lng": -118.176831
  },
  {
    "id": "630020517",
    "name": "COMMUNITY MEDICAL WELLNESS USA MOBILE UNIT",
    "npi": "1235500513",
    "hcaiId": null,
    "businessName": "COMMUNITY MEDICAL WELLNESS CENTERS, USA.",
    "contactEmail": null,
    "categoryName": "PRIMARY CARE CLINIC",
    "categoryCode": "COMTYC",
    "licenseStatus": "ACTIVE",
    "inService": true,
    "licenseNumber": "550003456",
    "licenseEffectiveDate": "02/26/2025",
    "licenseExpirationDate": "02/25/2026",
    "dataDate": "10/18/2025",
    "capacity": 0,
    "address": "1360 E ANAHEIM ST, SUITE 101",
    "city": "LONG BEACH",
    "zip": "90813",
    "county": "LOS ANGELES",
    "phone": null,
    "lat": 33.782274,
    "lng": -118.174311
  },
  {
    "id": "940000101",
    "name": "LONG BEACH POST ACUTE",
    "npi": "1811390693",
    "hcaiId": "206190845",
    "businessName": "LONG BEACH POST ACUTE, LLC",
    "contactEmail": "ADMINISTRATOR@LBPOSTACUTE.COM",
    "categoryName": "SKILLED NURSING FACILITY",
    "categoryCode": "SNF",
    "licenseStatus": "ACTIVE",
    "inService": true,
    "licenseNumber": "940000173",
    "licenseEffectiveDate": "04/23/2025",
    "licenseExpirationDate": "04/22/2026",
    "dataDate": "10/18/2025",
    "capacity": 78,
    "address": "1201 WALNUT AVE",
    "city": "LONG BEACH",
    "zip": "90813",
    "county": "LOS ANGELES",
    "phone": "(562) 591-7621",
    "lat": 33.781752,
    "lng": -118.172718
  },
  {
    "id": "630016218",
    "name": "SERENITY CARE HEALTH GROUP",
    "npi": "1245623156",
    "hcaiId": "306198476",
    "businessName": "SERENITY CARE HEALTH GROUP",
    "contactEmail": "ARLENEM@SERENITYCAREHEALTHGROUP.ORG",
    "categoryName": "PRIMARY CARE CLINIC",
    "categoryCode": "COMTYC",
    "licenseStatus": "ACTIVE",
    "inService": true,
    "licenseNumber": "550003904",
    "licenseEffectiveDate": "06/28/2025",
    "licenseExpirationDate": "06/27/2026",
    "dataDate": "10/18/2025",
    "capacity": 0,
    "address": "1930 E ANAHEIM ST",
    "city": "LONG BEACH",
    "zip": "90813",
    "county": "LOS ANGELES",
    "phone": "(562) 478-4107",
    "lat": 33.78237948,
    "lng": -118.1681218
  },
  {
    "id": "630027727",
    "name": "SERENITY CARE HEALTH GROUP- ATLANTIC",
    "npi": null,
    "hcaiId": null,
    "businessName": "SERENITY CARE HEALTH GROUP",
    "contactEmail": null,
    "categoryName": "PRIMARY CARE CLINIC",
    "categoryCode": "COMTYC",
    "licenseStatus": "ACTIVE",
    "inService": true,
    "licenseNumber": "550003904",
    "licenseEffectiveDate": "06/28/2025",
    "licenseExpirationDate": "06/27/2026",
    "dataDate": "10/18/2025",
    "capacity": 0,
    "address": "780 ATLANTIC AVE, FLOOR 2",
    "city": "LONG BEACH",
    "zip": "90813",
    "county": "LOS ANGELES",
    "phone": null,
    "lat": 33.7763243,
    "lng": -118.1873587
  },
  {
    "id": "630020703",
    "name": "SOUTHERN CALIFORNIA MEDICAL CENTER - LONG BEACH",
    "npi": null,
    "hcaiId": null,
    "businessName": "SOUTHERN CALIFORNIA MEDICAL CENTER, INC.",
    "contactEmail": null,
    "categoryName": "PRIMARY CARE CLINIC",
    "categoryCode": "COMTYC",
    "licenseStatus": "ACTIVE",
    "inService": true,
    "licenseNumber": "550001363",
    "licenseEffectiveDate": "11/20/2025",
    "licenseExpirationDate": "11/19/2026",
    "dataDate": "10/18/2025",
    "capacity": 0,
    "address": "1627 E ANAHEIM ST",
    "city": "LONG BEACH",
    "zip": "90813",
    "county": "LOS ANGELES",
    "phone": "(562) 218-8181",
    "lat": 33.782913,
    "lng": -118.171287
  },
  {
    "id": "930000103",
    "name": "ST. MARY MEDICAL CENTER",
    "npi": "1194840421",
    "hcaiId": "106190053",
    "businessName": "DIGNITY HEALTH",
    "contactEmail": "CAROLYN.CALDWELL@COMMONSPIRIT.ORG",
    "categoryName": "GENERAL ACUTE CARE HOSPITAL",
    "categoryCode": "GACH",
    "licenseStatus": "ACTIVE",
    "inService": true,
    "licenseNumber": "930000012",
    "licenseEffectiveDate": "01/01/2025",
    "licenseExpirationDate": "12/31/2025",
    "dataDate": "10/18/2025",
    "capacity": 360,
    "address": "1050 LINDEN AVE",
    "city": "LONG BEACH",
    "zip": "90813",
    "county": "LOS ANGELES",
    "phone": "(562) 491-9000",
    "lat": 33.77997,
    "lng": -118.1858535
  },
  {
    "id": "630017924",
    "name": "STONEWALL WELLNESS CENTER",
    "npi": null,
    "hcaiId": null,
    "businessName": "UNISON WELLNESS, INC.",
    "contactEmail": "STONEWALLADHC@GMAIL.COM",
    "categoryName": "ADULT DAY HEALTH CARE",
    "categoryCode": "ADHC",
    "licenseStatus": "ACTIVE",
    "inService": true,
    "licenseNumber": "550005200",
    "licenseEffectiveDate": "12/24/2024",
    "licenseExpirationDate": "12/23/2025",
    "dataDate": "10/18/2025",
    "capacity": 0,
    "address": "440 W ANAHEIM ST",
    "city": "LONG BEACH",
    "zip": "90813",
    "county": "LOS ANGELES",
    "phone": "(562) 247-0607",
    "lat": 33.78231,
    "lng": -118.196847
  },
  {
    "id": "630028426",
    "name": "TCC FAMILY HEALTH & WELLNESS",
    "npi": null,
    "hcaiId": null,
    "businessName": "THE CHILDREN'S CLINIC \"SERVING CHILDREN AND THEIR FAMILIES\"",
    "contactEmail": null,
    "categoryName": "PRIMARY CARE CLINIC",
    "categoryCode": "COMTYC",
    "licenseStatus": "ACTIVE",
    "inService": true,
    "licenseNumber": "960000104",
    "licenseEffectiveDate": "05/31/2025",
    "licenseExpirationDate": "05/30/2026",
    "dataDate": "10/18/2025",
    "capacity": 0,
    "address": "1500 EAST ANAHEIM STREET, SUITE 100",
    "city": "LONG BEACH",
    "zip": "90813",
    "county": "LOS ANGELES",
    "phone": null,
    "lat": 33.78213,
    "lng": -118.1753719
  },
  {
    "id": "630011773",
    "name": "THE CHILDREN'S CLINIC AT THE LONG BEACH MULTI-SERVICE CENTER FOR THE HOMELESS",
    "npi": null,
    "hcaiId": "306197171",
    "businessName": "THE CHILDREN'S CLINIC \"SERVING CHILDREN AND THEIR FAMILIES\"",
    "contactEmail": "JLAWLER@TCCFAMILYHEALTH.ORG",
    "categoryName": "PRIMARY CARE CLINIC",
    "categoryCode": "COMTYC",
    "licenseStatus": "ACTIVE",
    "inService": true,
    "licenseNumber": "550000848",
    "licenseEffectiveDate": "11/18/2024",
    "licenseExpirationDate": "11/17/2025",
    "dataDate": "10/18/2025",
    "capacity": 0,
    "address": "1301 W 12TH ST",
    "city": "LONG BEACH",
    "zip": "90813",
    "county": "LOS ANGELES",
    "phone": "(562) 264-3985",
    "lat": 33.782004,
    "lng": -118.2090195
  },
  {
    "id": "630016190",
    "name": "THE CHILDREN'S CLINIC FAMILY HEALTH CENTER ROOSEVELT",
    "npi": "1851775795",
    "hcaiId": "306198097",
    "businessName": "THE CHILDREN'S CLINIC \"SERVING CHILDREN AND THEIR FAMILIES\"",
    "contactEmail": "CVAZQUEZ@TCCFAMILYHEALTH.ORG",
    "categoryName": "PRIMARY CARE CLINIC",
    "categoryCode": "COMTYC",
    "licenseStatus": "ACTIVE",
    "inService": true,
    "licenseNumber": "550003283",
    "licenseEffectiveDate": "11/25/2024",
    "licenseExpirationDate": "11/24/2025",
    "dataDate": "10/18/2025",
    "capacity": 0,
    "address": "1574 LINDEN AVE",
    "city": "LONG BEACH",
    "zip": "90813",
    "county": "LOS ANGELES",
    "phone": "(562) 264-3985",
    "lat": 33.78645,
    "lng": -118.186119
  },
  {
    "id": "630016874",
    "name": "THE CHILDREN'S CLINIC, \"SERVING CHILDREN & THEIR FAMILIES\" MOBILE CLINIC",
    "npi": null,
    "hcaiId": null,
    "businessName": "THE CHILDREN'S CLINIC \"SERVING CHILDREN AND THEIR FAMILIES\"",
    "contactEmail": null,
    "categoryName": "PRIMARY CARE CLINIC",
    "categoryCode": "COMTYC",
    "licenseStatus": "ACTIVE",
    "inService": true,
    "licenseNumber": "550000848",
    "licenseEffectiveDate": "11/18/2024",
    "licenseExpirationDate": "11/17/2025",
    "dataDate": "10/18/2025",
    "capacity": 0,
    "address": "1301 W. 12TH STREET",
    "city": "LONG BEACH",
    "zip": "90813",
    "county": "LOS ANGELES",
    "phone": null,
    "lat": 33.782004,
    "lng": -118.2090195
  },
  {
    "id": "960002240",
    "name": "THE FAMILY CLINIC OF LONG BEACH",
    "npi": null,
    "hcaiId": "306197351",
    "businessName": "DIGNITY HEALTH",
    "contactEmail": "SMLBCONTRACTSMANAGEMENT@COMMONSPIRIT.ORG",
    "categoryName": "PRIMARY CARE CLINIC",
    "categoryCode": "COMTYC",
    "licenseStatus": "ACTIVE",
    "inService": true,
    "licenseNumber": "960001055",
    "licenseEffectiveDate": "03/23/2025",
    "licenseExpirationDate": "03/22/2026",
    "dataDate": "10/18/2025",
    "capacity": 0,
    "address": "1045 ATLANTIC AVE, SUITE 708",
    "city": "LONG BEACH",
    "zip": "90813",
    "county": "LOS ANGELES",
    "phone": "(562) 491-9045",
    "lat": 33.780258,
    "lng": -118.1853945
  },
  {
    "id": "960000206",
    "name": "THE GUIDANCE CENTER",
    "npi": null,
    "hcaiId": "306197868",
    "businessName": "THE GUIDANCE CENTER",
    "contactEmail": "MAMADOR@TGCLB.ORG",
    "categoryName": "PSYCHOLOGY CLINIC",
    "categoryCode": "PSYCHC",
    "licenseStatus": "ACTIVE",
    "inService": true,
    "licenseNumber": "960000140",
    "licenseEffectiveDate": "11/22/2024",
    "licenseExpirationDate": "11/21/2025",
    "dataDate": "10/18/2025",
    "capacity": 0,
    "address": "1301 PINE AVE",
    "city": "LONG BEACH",
    "zip": "90813",
    "county": "LOS ANGELES",
    "phone": "(562) 485-3228",
    "lat": 33.78323144,
    "lng": -118.1924494
  },
  {
    "id": "960002777",
    "name": "THE VASEK POLAK CHILDREN'S CLINIC FAM. HLTH. CENTER",
    "npi": null,
    "hcaiId": "306196500",
    "businessName": "THE CHILDREN'S CLINIC \"SERVING CHILDREN AND THEIR FAMILIES\"",
    "contactEmail": "CVAZQUEZ@TCCFAMILYHEALTH.ORG",
    "categoryName": "PRIMARY CARE CLINIC",
    "categoryCode": "COMTYC",
    "licenseStatus": "ACTIVE",
    "inService": true,
    "licenseNumber": "960001379",
    "licenseEffectiveDate": "03/17/2025",
    "licenseExpirationDate": "03/16/2026",
    "dataDate": "10/18/2025",
    "capacity": 0,
    "address": "1057 PINE AVE",
    "city": "LONG BEACH",
    "zip": "90813",
    "county": "LOS ANGELES",
    "phone": "(562) 264-3985",
    "lat": 33.780105,
    "lng": -118.1927565
  },
  {
    "id": "930000193",
    "name": "TOM REDGATE MEMORIAL RECOVERY CENTER",
    "npi": null,
    "hcaiId": "106191225",
    "businessName": "BEHAVIORAL HEALTH SERVICES, INC.",
    "contactEmail": "CARAGON@BHS-INC.ORG",
    "categoryName": "CHEMICAL DEPENDENCY RECOVERY HOSPITAL",
    "categoryCode": "CDRH",
    "licenseStatus": "ACTIVE",
    "inService": true,
    "licenseNumber": "930000272",
    "licenseEffectiveDate": "02/25/2025",
    "licenseExpirationDate": "02/24/2026",
    "dataDate": "10/18/2025",
    "capacity": 63,
    "address": "1775 CHESTNUT AVE",
    "city": "LONG BEACH",
    "zip": "90813",
    "county": "LOS ANGELES",
    "phone": "(562) 599-8444",
    "lat": 33.789357,
    "lng": -118.1967345
  },
  {
    "id": "930001659",
    "name": "U.S. RENAL CARE LONG BEACH DIALYSIS",
    "npi": "1487625190",
    "hcaiId": "306196050",
    "businessName": "LONG BEACH DIALYSIS CENTER, LLC",
    "contactEmail": "LICENSING@USRENALCARE.COM",
    "categoryName": "CHRONIC DIALYSIS CLINIC",
    "categoryCode": "ESRD/CDC",
    "licenseStatus": "ACTIVE",
    "inService": true,
    "licenseNumber": "930000923",
    "licenseEffectiveDate": "11/28/2024",
    "licenseExpirationDate": "11/27/2025",
    "dataDate": "10/18/2025",
    "capacity": 24,
    "address": "1045 ATLANTIC AVE, SUITE 108",
    "city": "LONG BEACH",
    "zip": "90813",
    "county": "LOS ANGELES",
    "phone": "(562) 435-3637",
    "lat": 33.780258,
    "lng": -118.1853945
  },
  {
    "id": "940000030",
    "name": "VILLA SERENA HEALTHCARE CENTER",
    "npi": "1750785572",
    "hcaiId": "206190139",
    "businessName": "VILLA CAMILLA, LLC",
    "contactEmail": "ADMINISTRATOR@VILLASERENAHC.COM",
    "categoryName": "SKILLED NURSING FACILITY",
    "categoryCode": "SNF",
    "licenseStatus": "ACTIVE",
    "inService": true,
    "licenseNumber": "940000032",
    "licenseEffectiveDate": "07/02/2025",
    "licenseExpirationDate": "07/01/2026",
    "dataDate": "10/18/2025",
    "capacity": 52,
    "address": "723 E 9TH ST",
    "city": "LONG BEACH",
    "zip": "90813",
    "county": "LOS ANGELES",
    "phone": "(562) 437-2797",
    "lat": 33.777999,
    "lng": -118.1832345
  }
]