[
  {
    "id": "940000097",
    "name": "BEACHSIDE POST ACUTE",
    "npi": "1225025836",
    "hcaiId": "206190683",
    "businessName": "SANTA FE CONVALESCENT HOSPITAL, INC.",
    "contactEmail": null,
    "categoryName": "SKILLED NURSING FACILITY",
    "categoryCode": "SNF",
    "licenseStatus": "ACTIVE",
    "inService": true,
    "licenseNumber": "940000147",
    "licenseEffectiveDate": "11/30/2024",
    "licenseExpirationDate": "11/29/2025",
    "dataDate": "10/18/2025",
    "capacity": 90,
    "address": "3294 SANTA FE AVE",
    "city": "LONG BEACH",
    "zip": "90810",
    "county": "LOS ANGELES",
    "phone": "(562) 424-0757",
    "lat": 33.8166,
    "lng": -118.215126
  },
  {
    "id": "630016088",
    "name": "THE CHILDREN'S CLINIC FAMILY HEALTH CENTER CABRILLO GATEWAY",
    "npi": null,
    "hcaiId": "306198095",
    "businessName": "THE CHILDREN'S CLINIC \"SERVING CHILDREN AND THEIR FAMILIES\"",
    "contactEmail": "CVAZQUEZ@THECHILDRENSCLINIC.ORG",
    "categoryName": "PRIMARY CARE CLINIC",
    "categoryCode": "COMTYC",
    "licenseStatus": "ACTIVE",
    "inService": true,
    "licenseNumber": "550003174",
    "licenseEffectiveDate": "08/05/2025",
    "licenseExpirationDate": "08/04/2026",
    "dataDate": "10/18/2025",
    "capacity": 0,
    "address": "2000 SAN GABRIEL AVENUE",
    "city": "LONG BEACH",
    "zip": "90810",
    "county": "LOS ANGELES",
    "phone": "(562) 264-3985",
    "lat": 33.7926378,
    "lng": -118.2239268
  },
  {
    "id": "960000235",
    "name": "THE CHILDREN'S CLINIC FAMILY HEALTH CENTER WESTSIDE",
    "npi": null,
    "hcaiId": "306195054",
    "businessName": "THE CHILDREN'S CLINIC \"SERVING CHILDREN AND THEIR FAMILIES\"",
    "contactEmail": "CVAZQUEZ@TCCFAMILYHEALTH.ORG",
    "categoryName": "PRIMARY CARE CLINIC",
    "categoryCode": "COMTYC",
    "licenseStatus": "ACTIVE",
    "inService": true,
    "licenseNumber": "960000195",
    "licenseEffectiveDate": "03/03/2025",
    "licenseExpirationDate": "03/02/2026",
    "dataDate": "10/18/2025",
    "capacity": 0,
    "address": "2125 SANTA FE AVE",
    "city": "LONG BEACH",
    "zip": "90810",
    "county": "LOS ANGELES",
    "phone": "(562) 264-4676",
    "lat": 33.79572,
    "lng": -118.216323
  }
]