[
  {
    "id": "950000045",
    "name": "ARCADIA CARE CENTER",
    "npi": "1053976266",
    "hcaiId": "206190036",
    "businessName": "ARCADIA CARE CENTER, LLC",
    "contactEmail": "KLEVINE@ARCADIAHCC.COM",
    "categoryName": "SKILLED NURSING FACILITY",
    "categoryCode": "SNF",
    "licenseStatus": "ACTIVE",
    "inService": true,
    "licenseNumber": "950000010",
    "licenseEffectiveDate": "11/29/2024",
    "licenseExpirationDate": "11/28/2025",
    "dataDate": "10/18/2025",
    "capacity": 164,
    "address": "1601 S BALDWIN AVE",
    "city": "ARCADIA",
    "zip": "91007",
    "county": "LOS ANGELES",
    "phone": "(818) 284-7780",
    "lat": 34.120908,
    "lng": -118.05579
  },
  {
    "id": "630028541",
    "name": "ARCADIA LIVE OAK SURGERY CENTER INC",
    "npi": null,
    "hcaiId": null,
    "businessName": null,
    "contactEmail": "KEVIN@CALISHER.COM",
    "categoryName": "SURGICAL CLINIC",
    "categoryCode": "ASC",
    "licenseStatus": null,
    "inService": null,
    "licenseNumber": null,
    "licenseEffectiveDate": null,
    "licenseExpirationDate": null,
    "dataDate": "10/18/2025",
    "capacity": 0,
    "address": "80 W LIVE OAK AVE",
    "city": "ARCADIA",
    "zip": "91007",
    "county": "LOS ANGELES",
    "phone": "(714) 914-7945",
    "lat": 34.106571,
    "lng": -118.0341045
  },
  {
    "id": "630015343",
    "name": "ARCADIA OAKS DIALYSIS",
    "npi": null,
    "hcaiId": "306198086",
    "businessName": "ELDRIST DIALYSIS LLC",
    "contactEmail": "CAL_C@DAVITA.COM",
    "categoryName": "CHRONIC DIALYSIS CLINIC",
    "categoryCode": "ESRD/CDC",
    "licenseStatus": "ACTIVE",
    "inService": true,
    "licenseNumber": "550002947",
    "licenseEffectiveDate": "12/19/2024",
    "licenseExpirationDate": "12/18/2025",
    "dataDate": "10/18/2025",
    "capacity": 0,
    "address": "721 W HUNTINGTON DR",
    "city": "ARCADIA",
    "zip": "91007",
    "county": "LOS ANGELES",
    "phone": "(626) 294-9682",
    "lat": 34.132122,
    "lng": -118.0555335
  },
  {
    "id": "930000168",
    "name": "ARCADIA OUTPATIENT SURGERY CENTER",
    "npi": "1700842507",
    "hcaiId": "306190969",
    "businessName": "ARCADIA OUTPATIENT SURGERY CENTER, L.P.",
    "contactEmail": "SARA.GAMM@HEALTHSOUTH.NET",
    "categoryName": "SURGICAL CLINIC",
    "categoryCode": "ASC",
    "licenseStatus": "INACTIVE - CAPEN DECISION",
    "inService": false,
    "licenseNumber": "930000212",
    "licenseEffectiveDate": "05/31/2007",
    "licenseExpirationDate": "05/30/2008",
    "dataDate": "10/18/2025",
    "capacity": 0,
    "address": "614 W DUARTE RD",
    "city": "ARCADIA",
    "zip": "91007",
    "county": "LOS ANGELES",
    "phone": "(626) 445-4714",
    "lat": 34.12643845,
    "lng": -118.0520061
  },
  {
    "id": "630012658",
    "name": "ARCADIA SURGICAL MEDICAL CENTER LLC",
    "npi": "1598903221",
    "hcaiId": null,
    "businessName": null,
    "contactEmail": null,
    "categoryName": "SURGICAL CLINIC",
    "categoryCode": "ASC",
    "licenseStatus": null,
    "inService": null,
    "licenseNumber": null,
    "licenseEffectiveDate": null,
    "licenseExpirationDate": null,
    "dataDate": "10/18/2025",
    "capacity": 0,
    "address": "638 W DUARTE RD, SUITE 18",
    "city": "ARCADIA",
    "zip": "91007",
    "county": "LOS ANGELES",
    "phone": "(626) 445-2371",
    "lat": 34.125606,
    "lng": -118.0530495
  },
  {
    "id": "630027576",
    "name": "EVOLUTION HOME HEALTH INC",
    "npi": null,
    "hcaiId": null,
    "businessName": "EVOLUTION HOME HEALTH INC",
    "contactEmail": "EVOLUTIONHHINC@GMAIL.COM",
    "categoryName": "HOME HEALTH AGENCY",
    "categoryCode": "HHA",
    "licenseStatus": "ACTIVE",
    "inService": true,
    "licenseNumber": "550009548",
    "licenseEffectiveDate": "06/10/2025",
    "licenseExpirationDate": "12/09/2025",
    "dataDate": "10/18/2025",
    "capacity": 0,
    "address": "1008 S BALDWIN AVE, SUITE A",
    "city": "ARCADIA",
    "zip": "91007",
    "county": "LOS ANGELES",
    "phone": "(747) 837-2007",
    "lat": 34.12854637,
    "lng": -118.0546207
  },
  {
    "id": "630022458",
    "name": "FORTUNA HOSPICE INC",
    "npi": null,
    "hcaiId": "406195748",
    "businessName": "FORTUNA HOSPICE INC",
    "contactEmail": "FORTUNAHOSPICE@GMAIL.COM",
    "categoryName": "HOSPICE",
    "categoryCode": "HOSPICE",
    "licenseStatus": "ACTIVE",
    "inService": true,
    "licenseNumber": "550007728",
    "licenseEffectiveDate": "12/08/2023",
    "licenseExpirationDate": "12/07/2025",
    "dataDate": "10/18/2025",
    "capacity": 0,
    "address": "735 W DUARTE RD, SUITE 203",
    "city": "ARCADIA",
    "zip": "91007",
    "county": "LOS ANGELES",
    "phone": "(747) 305-7119",
    "lat": 34.126281,
    "lng": -118.056357
  },
  {
    "id": "630024900",
    "name": "GREAT CHOICE HOME HEALTH",
    "npi": null,
    "hcaiId": "406195994",
    "businessName": "GREAT CHOICE HOME HEALTH",
    "contactEmail": "GREATCHOICEHH@GMAIL.COM",
    "categoryName": "HOME HEALTH AGENCY",
    "categoryCode": "HHA",
    "licenseStatus": "ACTIVE",
    "inService": true,
    "licenseNumber": "550008370",
    "licenseEffectiveDate": "02/07/2025",
    "licenseExpirationDate": "02/06/2026",
    "dataDate": "10/18/2025",
    "capacity": 0,
    "address": "805 WEST DUARTE ROAD, SUITE 111",
    "city": "ARCADIA",
    "zip": "91007",
    "county": "LOS ANGELES",
    "phone": "(626) 461-5202",
    "lat": 34.12627266,
    "lng": -118.0577642
  },
  {
    "id": "630011622",
    "name": "HAPPY HOME HEALTH SERVICES",
    "npi": "1184804825",
    "hcaiId": "406197250",
    "businessName": "HAPPY HHA, INC.",
    "contactEmail": "HAPPYHHAINC@YAHOO.COM",
    "categoryName": "HOME HEALTH AGENCY",
    "categoryCode": "HHA",
    "licenseStatus": "ACTIVE",
    "inService": true,
    "licenseNumber": "550001021",
    "licenseEffectiveDate": "04/06/2025",
    "licenseExpirationDate": "04/05/2026",
    "dataDate": "10/18/2025",
    "capacity": 0,
    "address": "650 W DUARTE RD, SUITE 402",
    "city": "ARCADIA",
    "zip": "91007",
    "county": "LOS ANGELES",
    "phone": "(626) 254-9999",
    "lat": 34.125633,
    "lng": -118.0535895
  },
  {
    "id": "950000062",
    "name": "HUNTINGTON DRIVE HEALTH AND REHABILITATION CENTER",
    "npi": "1649264292",
    "hcaiId": "206190399",
    "businessName": "AG ARCADIA, LLC",
    "contactEmail": "RAYMUND.VILLALUZ@HUNTINGTONDRIVEHCC.COM",
    "categoryName": "SKILLED NURSING FACILITY",
    "categoryCode": "SNF",
    "licenseStatus": "ACTIVE",
    "inService": true,
    "licenseNumber": "950000057",
    "licenseEffectiveDate": "11/01/2025",
    "licenseExpirationDate": "10/31/2026",
    "dataDate": "10/18/2025",
    "capacity": 99,
    "address": "400 W HUNTINGTON DR",
    "city": "ARCADIA",
    "zip": "91007",
    "county": "LOS ANGELES",
    "phone": "(626) 445-2421",
    "lat": 34.1311704,
    "lng": -118.0459977
  },
  {
    "id": "630023293",
    "name": "MEDCHOICE LA HOME HEALTH CARE, INC",
    "npi": null,
    "hcaiId": "406195404",
    "businessName": "MEDCHOICE LA HOME HEALTH CARE, INC",
    "contactEmail": "MEDCHOICELA@GMAIL.COM",
    "categoryName": "HOME HEALTH AGENCY",
    "categoryCode": "HHA",
    "licenseStatus": "ACTIVE",
    "inService": true,
    "licenseNumber": "550007864",
    "licenseEffectiveDate": "02/22/2025",
    "licenseExpirationDate": "02/21/2026",
    "dataDate": "10/18/2025",
    "capacity": 0,
    "address": "107 W HUNTINGTON DR, UNIT G",
    "city": "ARCADIA",
    "zip": "91007",
    "county": "LOS ANGELES",
    "phone": "(626) 603-5075",
    "lat": 34.1400686,
    "lng": -118.0354514
  },
  {
    "id": "630020161",
    "name": "REACHWELL HOSPICE CARE, INC.",
    "npi": null,
    "hcaiId": "406196245",
    "businessName": "REACHWELL HOSPICE CARE, INC.",
    "contactEmail": "REACHWELLHOSPICECARE@YAHOO.COM",
    "categoryName": "HOSPICE",
    "categoryCode": "HOSPICE",
    "licenseStatus": "ACTIVE",
    "inService": true,
    "licenseNumber": "550006357",
    "licenseEffectiveDate": "05/20/2025",
    "licenseExpirationDate": "05/19/2027",
    "dataDate": "10/18/2025",
    "capacity": 0,
    "address": "805 W DUARTE RD, SUITE 103C",
    "city": "ARCADIA",
    "zip": "91007",
    "county": "LOS ANGELES",
    "phone": "(626) 899-4765",
    "lat": 34.126083,
    "lng": -118.057599
  },
  {
    "id": "630013029",
    "name": "UNIQUE HOSPICE AND PALLIATIVE CARE, INC.",
    "npi": "1346543865",
    "hcaiId": "406197605",
    "businessName": "UNIQUE HOSPICE AND PALLIATIVE CARE, INC.",
    "contactEmail": "APANAHI@UNIQUEHOSPICE.COM",
    "categoryName": "HOSPICE",
    "categoryCode": "HOSPICE",
    "licenseStatus": "ACTIVE",
    "inService": true,
    "licenseNumber": "550001676",
    "licenseEffectiveDate": "11/25/2023",
    "licenseExpirationDate": "11/24/2025",
    "dataDate": "10/18/2025",
    "capacity": 0,
    "address": "711 W CAMINO REAL AVE, SUITE 205",
    "city": "ARCADIA",
    "zip": "91007",
    "county": "LOS ANGELES",
    "phone": "(626) 335-7077",
    "lat": 34.122438,
    "lng": -118.055781
  },
  {
    "id": "930000096",
    "name": "USC ARCADIA HOSPITAL",
    "npi": "1508851288",
    "hcaiId": "106190529",
    "businessName": "USC ARCADIA HOSPITAL",
    "contactEmail": "ROBERT.SHAPPLEY@MED.USC.EDU",
    "categoryName": "GENERAL ACUTE CARE HOSPITAL",
    "categoryCode": "GACH",
    "licenseStatus": "ACTIVE",
    "inService": true,
    "licenseNumber": "930000103",
    "licenseEffectiveDate": "06/19/2025",
    "licenseExpirationDate": "04/30/2026",
    "dataDate": "10/18/2025",
    "capacity": 348,
    "address": "300 W HUNTINGTON DR",
    "city": "ARCADIA",
    "zip": "91007",
    "county": "LOS ANGELES",
    "phone": "(626) 574-3600",
    "lat": 34.134021,
    "lng": -118.0421505
  }
]