[
  {
    "id": "630024113",
    "name": "ALL WAYS HOME HEALTH CARE, INC.",
    "npi": null,
    "hcaiId": "406195937",
    "businessName": "ALL WAYS HOME HEALTH CARE, INC.",
    "contactEmail": "ALLWAYSHOMEHEALTHCARE@GMAIL.COM",
    "categoryName": "HOME HEALTH AGENCY",
    "categoryCode": "HHA",
    "licenseStatus": "ACTIVE",
    "inService": true,
    "licenseNumber": "550008237",
    "licenseEffectiveDate": "11/29/2025",
    "licenseExpirationDate": "11/28/2026",
    "dataDate": "10/18/2025",
    "capacity": 0,
    "address": "4107 E LIVE OAK AVE, SUITE H",
    "city": "ARCADIA",
    "zip": "91006",
    "county": "LOS ANGELES",
    "phone": "(626) 348-2239",
    "lat": 34.10991,
    "lng": -118.0145475
  },
  {
    "id": "630016164",
    "name": "ANGEL CARE HOSPICE OF ARCADIA, INC.",
    "npi": null,
    "hcaiId": "406190892",
    "businessName": "ANGEL CARE HOSPICE OF ARCADIA, INC.",
    "contactEmail": "ACHARCADIA@GMAIL.COM",
    "categoryName": "HOSPICE",
    "categoryCode": "HOSPICE",
    "licenseStatus": "ACTIVE",
    "inService": true,
    "licenseNumber": "550003512",
    "licenseEffectiveDate": "05/17/2024",
    "licenseExpirationDate": "05/16/2026",
    "dataDate": "10/18/2025",
    "capacity": 0,
    "address": "4115 E. LIVE OAK AVE, SUITE 10",
    "city": "ARCADIA",
    "zip": "91006",
    "county": "LOS ANGELES",
    "phone": "(818) 630-5759",
    "lat": 34.109955,
    "lng": -118.0143135
  },
  {
    "id": "630020680",
    "name": "APPROVED HOME HEALTH CARE, INC.",
    "npi": null,
    "hcaiId": "406193046",
    "businessName": "APPROVED HOME HEALTH CARE, INC.",
    "contactEmail": "APPROVEDHHCINC@GMAIL.COM",
    "categoryName": "HOME HEALTH AGENCY",
    "categoryCode": "HHA",
    "licenseStatus": "ACTIVE",
    "inService": true,
    "licenseNumber": "550006139",
    "licenseEffectiveDate": "03/19/2025",
    "licenseExpirationDate": "03/18/2026",
    "dataDate": "10/18/2025",
    "capacity": 0,
    "address": "324 E FOOTHILL BLVD, UNIT 202",
    "city": "ARCADIA",
    "zip": "91006",
    "county": "LOS ANGELES",
    "phone": "(626) 200-9222",
    "lat": 34.15103392,
    "lng": -118.0220465
  },
  {
    "id": "980001429",
    "name": "ARCADIA HOME HEALTH SERVICES-BRANCH",
    "npi": "1649275868",
    "hcaiId": "406124022",
    "businessName": "PRESBYTERIAN INTERCOMMUNITY HOSPITAL",
    "contactEmail": "NONE@DHS.CA.GOV",
    "categoryName": "HOME HEALTH AGENCY",
    "categoryCode": "HHA",
    "licenseStatus": "ACTIVE",
    "inService": true,
    "licenseNumber": "980000525",
    "licenseEffectiveDate": "12/01/2024",
    "licenseExpirationDate": "11/30/2025",
    "dataDate": "10/18/2025",
    "capacity": 0,
    "address": "351 E FOOTHILL BLVD",
    "city": "ARCADIA",
    "zip": "91006",
    "county": "LOS ANGELES",
    "phone": "(626) 358-3061",
    "lat": 34.15117371,
    "lng": -118.0216179
  },
  {
    "id": "980002496",
    "name": "ASSURANCE HOSPICE, INC.",
    "npi": null,
    "hcaiId": "406196596",
    "businessName": "ASSURANCE HOSPICE, INC.",
    "contactEmail": "ADMINISTRATOR@ASSURANCEHOSPICE.COM",
    "categoryName": "HOSPICE",
    "categoryCode": "HOSPICE",
    "licenseStatus": "ACTIVE",
    "inService": true,
    "licenseNumber": "980001596",
    "licenseEffectiveDate": "11/10/2024",
    "licenseExpirationDate": "11/09/2026",
    "dataDate": "10/18/2025",
    "capacity": 0,
    "address": "444 E HUNTINGTON DR, SUITE 103",
    "city": "ARCADIA",
    "zip": "91006",
    "county": "LOS ANGELES",
    "phone": "(626) 793-3374",
    "lat": 34.139592,
    "lng": -118.021068
  },
  {
    "id": "630021060",
    "name": "AVA HOSPICE CORP",
    "npi": null,
    "hcaiId": "406190631",
    "businessName": "AVA HOSPICE CORP.",
    "contactEmail": "AVAHOSPICECORP@GMAIL.COM",
    "categoryName": "HOSPICE",
    "categoryCode": "HOSPICE",
    "licenseStatus": "ACTIVE",
    "inService": true,
    "licenseNumber": "550006462",
    "licenseEffectiveDate": "06/24/2025",
    "licenseExpirationDate": "06/23/2027",
    "dataDate": "10/18/2025",
    "capacity": 0,
    "address": "333 N SANTA ANITA AVE, SUITE 13",
    "city": "ARCADIA",
    "zip": "91006",
    "county": "LOS ANGELES",
    "phone": "(626) 741-0330",
    "lat": 34.144272,
    "lng": -118.03221
  },
  {
    "id": "630011941",
    "name": "BILLET HOME HEALTH INC ARCADIA",
    "npi": "1790112530",
    "hcaiId": "406197299",
    "businessName": "BILLET HOME HEALTH, INC - ARCADIA",
    "contactEmail": "INFO@BILLETHEALTH.COM",
    "categoryName": "HOME HEALTH AGENCY",
    "categoryCode": "HHA",
    "licenseStatus": "ACTIVE",
    "inService": true,
    "licenseNumber": "550001037",
    "licenseEffectiveDate": "11/07/2025",
    "licenseExpirationDate": "11/06/2026",
    "dataDate": "10/18/2025",
    "capacity": 0,
    "address": "159 E HUNTINGTON DR, UNIT 4",
    "city": "ARCADIA",
    "zip": "91006",
    "county": "LOS ANGELES",
    "phone": "(833) 224-5538",
    "lat": 34.14017596,
    "lng": -118.0262944
  },
  {
    "id": "630021750",
    "name": "CARE NET HOME HEALTH INC.",
    "npi": null,
    "hcaiId": "406193341",
    "businessName": "CARE NET HOME HEALTH INC.",
    "contactEmail": "CARENETHH@GMAIL.COM",
    "categoryName": "HOME HEALTH AGENCY",
    "categoryCode": "HHA",
    "licenseStatus": "ACTIVE",
    "inService": true,
    "licenseNumber": "550006947",
    "licenseEffectiveDate": "10/05/2024",
    "licenseExpirationDate": "10/04/2025",
    "dataDate": "10/18/2025",
    "capacity": 0,
    "address": "4115 E LIVE OAK AVE, SUITE 9",
    "city": "ARCADIA",
    "zip": "91006",
    "county": "LOS ANGELES",
    "phone": "(626) 788-3775",
    "lat": 34.109937,
    "lng": -118.0144035
  },
  {
    "id": "630015345",
    "name": "CARING HELP HOSPICE AGENCY, INC.",
    "npi": null,
    "hcaiId": "406190797",
    "businessName": "CARING HELP HOSPICE AGENCY, INC.",
    "contactEmail": "CARINGHELPHOSPICE1@GMAIL.COM",
    "categoryName": "HOSPICE",
    "categoryCode": "HOSPICE",
    "licenseStatus": "ACTIVE",
    "inService": true,
    "licenseNumber": "550003468",
    "licenseEffectiveDate": "04/12/2024",
    "licenseExpirationDate": "04/11/2026",
    "dataDate": "10/18/2025",
    "capacity": 0,
    "address": "60 ALTA ST, SUITE 201",
    "city": "ARCADIA",
    "zip": "91006",
    "county": "LOS ANGELES",
    "phone": "(626) 461-5004",
    "lat": 34.13889651,
    "lng": -118.0295343
  },
  {
    "id": "630026667",
    "name": "CEDAR HOME HEALTH, INC.",
    "npi": null,
    "hcaiId": null,
    "businessName": "CEDAR HOME HEALTH, INC.",
    "contactEmail": "CEDARHHC@GMAIL.COM",
    "categoryName": "HOME HEALTH AGENCY",
    "categoryCode": "HHA",
    "licenseStatus": "ACTIVE",
    "inService": true,
    "licenseNumber": "550009393",
    "licenseEffectiveDate": "09/13/2025",
    "licenseExpirationDate": "09/12/2026",
    "dataDate": "10/18/2025",
    "capacity": 0,
    "address": "125 E SANTA CLARA ST, SUITE 4",
    "city": "ARCADIA",
    "zip": "91006",
    "county": "LOS ANGELES",
    "phone": "(323) 553-5554",
    "lat": 34.142607,
    "lng": -118.026819
  },
  {
    "id": "630020905",
    "name": "COMPLETE HOME HEALTH, INC.",
    "npi": null,
    "hcaiId": "406193182",
    "businessName": "COMPLETE HOME HEALTH, INC.",
    "contactEmail": "COMPLETEHOMEHEALTHINC@GMAIL.COM",
    "categoryName": "HOME HEALTH AGENCY",
    "categoryCode": "HHA",
    "licenseStatus": "ACTIVE",
    "inService": true,
    "licenseNumber": "550006840",
    "licenseEffectiveDate": "09/23/2025",
    "licenseExpirationDate": "09/22/2026",
    "dataDate": "10/18/2025",
    "capacity": 0,
    "address": "159 E LIVE OAK AVE, SUITE 200",
    "city": "ARCADIA",
    "zip": "91006",
    "county": "LOS ANGELES",
    "phone": "(626) 380-2808",
    "lat": 34.108434,
    "lng": -118.025595
  },
  {
    "id": "630022414",
    "name": "DAILY LIFE HOME HEALTH CARE, INC",
    "npi": null,
    "hcaiId": "406195319",
    "businessName": "DAILY LIFE HOME HEALTH CARE, INC",
    "contactEmail": "DAILYLIFEHOMEHEALTHCARE@YAHOO.COM",
    "categoryName": "HOME HEALTH AGENCY",
    "categoryCode": "HHA",
    "licenseStatus": "ACTIVE",
    "inService": true,
    "licenseNumber": "550007753",
    "licenseEffectiveDate": "01/06/2025",
    "licenseExpirationDate": "01/05/2026",
    "dataDate": "10/18/2025",
    "capacity": 0,
    "address": "324 E FOOTHILL BLVD, SUITE 101",
    "city": "ARCADIA",
    "zip": "91006",
    "county": "LOS ANGELES",
    "phone": "(626) 800-0108",
    "lat": 34.15103392,
    "lng": -118.0220465
  },
  {
    "id": "630021597",
    "name": "DANS HOME HEALTH INC.",
    "npi": null,
    "hcaiId": "406193369",
    "businessName": "DANS HOME HEALTH INC.",
    "contactEmail": "AVAHOMEHEALTHCARE@GMAIL.COM",
    "categoryName": "HOME HEALTH AGENCY",
    "categoryCode": "HHA",
    "licenseStatus": "ACTIVE",
    "inService": true,
    "licenseNumber": "550007101",
    "licenseEffectiveDate": "10/20/2025",
    "licenseExpirationDate": "10/19/2026",
    "dataDate": "10/18/2025",
    "capacity": 0,
    "address": "333 N SANTA ANITA AVE, SUITE 13A",
    "city": "ARCADIA",
    "zip": "91006",
    "county": "LOS ANGELES",
    "phone": "(626) 348-8371",
    "lat": 34.144272,
    "lng": -118.03221
  },
  {
    "id": "630020633",
    "name": "DEPENDABLE HOSPICE SERVICES INC.",
    "npi": null,
    "hcaiId": "406193582",
    "businessName": "DEPENDABLE HOSPICE SERVICES INC.",
    "contactEmail": "DEPENDABLEHOSPICE@GMAIL.COM",
    "categoryName": "HOSPICE",
    "categoryCode": "HOSPICE",
    "licenseStatus": "ACTIVE",
    "inService": true,
    "licenseNumber": "550006481",
    "licenseEffectiveDate": "06/28/2023",
    "licenseExpirationDate": "06/27/2025",
    "dataDate": "10/18/2025",
    "capacity": 0,
    "address": "333 N SANTA ANITA AVE, SUITE 10",
    "city": "ARCADIA",
    "zip": "91006",
    "county": "LOS ANGELES",
    "phone": "(818) 731-7170",
    "lat": 34.144272,
    "lng": -118.03221
  },
  {
    "id": "630017948",
    "name": "DIGNITY HOME HEALTH CARE SERVICES, INC.",
    "npi": "1154824712",
    "hcaiId": "406191648",
    "businessName": "DIGNITY HOME HEALTH CARE SERVICES, INC.",
    "contactEmail": "DIGNITYHHCSERVICES@GMAIL.COM",
    "categoryName": "HOME HEALTH AGENCY",
    "categoryCode": "HHA",
    "licenseStatus": "ACTIVE",
    "inService": true,
    "licenseNumber": "550004651",
    "licenseEffectiveDate": "05/03/2025",
    "licenseExpirationDate": "05/02/2026",
    "dataDate": "10/18/2025",
    "capacity": 0,
    "address": "333 N SANTA ANITA AVE, UNIT 2",
    "city": "ARCADIA",
    "zip": "91006",
    "county": "LOS ANGELES",
    "phone": "(818) 459-3990",
    "lat": 34.144272,
    "lng": -118.03221
  },
  {
    "id": "980002247",
    "name": "EDEN HOME HEALTH CARE, INC.",
    "npi": "1295844256",
    "hcaiId": "406196715",
    "businessName": "EDEN HOME HEALTH CARE, INC.",
    "contactEmail": "EDENHHCA.INFO@GMAIL.COM",
    "categoryName": "HOME HEALTH AGENCY",
    "categoryCode": "HHA",
    "licenseStatus": "ACTIVE",
    "inService": true,
    "licenseNumber": "980001365",
    "licenseEffectiveDate": "03/02/2025",
    "licenseExpirationDate": "03/01/2026",
    "dataDate": "10/18/2025",
    "capacity": 0,
    "address": "159 E LIVE OAK AVE, SUITE 205",
    "city": "ARCADIA",
    "zip": "91006",
    "county": "LOS ANGELES",
    "phone": "(626) 573-1001",
    "lat": 34.108434,
    "lng": -118.025595
  },
  {
    "id": "630018349",
    "name": "ELATION HOME HEALTH INC.",
    "npi": "1821579681",
    "hcaiId": "406191765",
    "businessName": "ELATION HOME HEALTH INC",
    "contactEmail": "ELATIONHOMEHEALTH@GMAIL.COM",
    "categoryName": "HOME HEALTH AGENCY",
    "categoryCode": "HHA",
    "licenseStatus": "ACTIVE",
    "inService": true,
    "licenseNumber": "550004707",
    "licenseEffectiveDate": "05/21/2025",
    "licenseExpirationDate": "05/20/2026",
    "dataDate": "10/18/2025",
    "capacity": 0,
    "address": "333 N SANTA ANITA AVE, SUITE 15",
    "city": "ARCADIA",
    "zip": "91006",
    "county": "LOS ANGELES",
    "phone": "(626) 340-7259",
    "lat": 34.144272,
    "lng": -118.03221
  },
  {
    "id": "630020899",
    "name": "GALENUS HOSPICE CARE INC.",
    "npi": null,
    "hcaiId": "406195990",
    "businessName": "GALENUS HOSPICE CARE INC.",
    "contactEmail": "GALENUSHOSPICE@GMAIL.COM",
    "categoryName": "HOSPICE",
    "categoryCode": "HOSPICE",
    "licenseStatus": "ACTIVE",
    "inService": true,
    "licenseNumber": "550006295",
    "licenseEffectiveDate": "05/07/2025",
    "licenseExpirationDate": "05/06/2027",
    "dataDate": "10/18/2025",
    "capacity": 0,
    "address": "159 E HUNTINGTON DR, SUITE 6",
    "city": "ARCADIA",
    "zip": "91006",
    "county": "LOS ANGELES",
    "phone": "(626) 382-2272",
    "lat": 34.14017596,
    "lng": -118.0262944
  },
  {
    "id": "060001871",
    "name": "GOLDEN YEARS ADULT DAY HEALTH SERVICES",
    "npi": null,
    "hcaiId": null,
    "businessName": "GOLDEN YEARS SERVICES, INC.",
    "contactEmail": "GOLDENYEARS2011@YAHOO.COM",
    "categoryName": "ADULT DAY HEALTH CARE",
    "categoryCode": "ADHC",
    "licenseStatus": "ACTIVE",
    "inService": true,
    "licenseNumber": "060000688",
    "licenseEffectiveDate": "12/12/2024",
    "licenseExpirationDate": "12/11/2025",
    "dataDate": "10/18/2025",
    "capacity": 0,
    "address": "60 E LIVE OAK AVE",
    "city": "ARCADIA",
    "zip": "91006",
    "county": "LOS ANGELES",
    "phone": "(626) 447-0202",
    "lat": 34.107318,
    "lng": -118.028115
  },
  {
    "id": "630018737",
    "name": "GOOD HEART HOSPICE & PALLIATIVE CARE",
    "npi": "1013478916",
    "hcaiId": "406192210",
    "businessName": "IN TOUCH HOSPICE CARE INC",
    "contactEmail": "INTOUCHHOSPICE@GMAIL.COM",
    "categoryName": "HOSPICE",
    "categoryCode": "HOSPICE",
    "licenseStatus": "ACTIVE",
    "inService": true,
    "licenseNumber": "550005249",
    "licenseEffectiveDate": "11/23/2023",
    "licenseExpirationDate": "11/22/2025",
    "dataDate": "10/18/2025",
    "capacity": 0,
    "address": "34 E LIVE OAK AVE, SUITE B",
    "city": "ARCADIA",
    "zip": "91006",
    "county": "LOS ANGELES",
    "phone": "(626) 807-1210",
    "lat": 34.107264,
    "lng": -118.0290735
  },
  {
    "id": "630021347",
    "name": "GRACE HEALTH SERVICES INC.",
    "npi": null,
    "hcaiId": "406195449",
    "businessName": "GRACE HEALTH SERVICES INC.",
    "contactEmail": "GRACEHEALTHSERVICE@GMAIL.COM",
    "categoryName": "HOME HEALTH AGENCY",
    "categoryCode": "HHA",
    "licenseStatus": "ACTIVE",
    "inService": true,
    "licenseNumber": "550008059",
    "licenseEffectiveDate": "06/20/2023",
    "licenseExpirationDate": "06/19/2024",
    "dataDate": "10/18/2025",
    "capacity": 0,
    "address": "351 E FOOTHILL BLVD, 250A",
    "city": "ARCADIA",
    "zip": "91006",
    "county": "LOS ANGELES",
    "phone": "(626) 236-9678",
    "lat": 34.15117371,
    "lng": -118.0216179
  },
  {
    "id": "630012281",
    "name": "HOME HEALTH PLUS SERVICES, INC.",
    "npi": "1619129574",
    "hcaiId": "406197365",
    "businessName": "HOME HEALTH PLUS SERVICES, INC.",
    "contactEmail": "HOMEHEALTHPLUS@GMAIL.COM",
    "categoryName": "HOME HEALTH AGENCY",
    "categoryCode": "HHA",
    "licenseStatus": "ACTIVE",
    "inService": true,
    "licenseNumber": "550001223",
    "licenseEffectiveDate": "02/26/2025",
    "licenseExpirationDate": "02/25/2026",
    "dataDate": "10/18/2025",
    "capacity": 0,
    "address": "900 S FIRST AVENUE, SUITE H",
    "city": "ARCADIA",
    "zip": "91006",
    "county": "LOS ANGELES",
    "phone": "(626) 309-0154",
    "lat": 34.130313,
    "lng": -118.027818
  },
  {
    "id": "630022140",
    "name": "HOSPICE OF GRACE AND PALLIATIVE CARE INC",
    "npi": null,
    "hcaiId": "406195197",
    "businessName": "HOSPICE OF GRACE AND PALLIATIVE CARE INC",
    "contactEmail": "MARTINK@HOSPICEOFGRACE.COM",
    "categoryName": "HOSPICE",
    "categoryCode": "HOSPICE",
    "licenseStatus": "ACTIVE",
    "inService": true,
    "licenseNumber": "550007487",
    "licenseEffectiveDate": "12/08/2025",
    "licenseExpirationDate": "12/07/2027",
    "dataDate": "10/18/2025",
    "capacity": 0,
    "address": "351 E FOOTHILL BLVD, SUITE 250",
    "city": "ARCADIA",
    "zip": "91006",
    "county": "LOS ANGELES",
    "phone": "(818) 553-6646",
    "lat": 34.15116318,
    "lng": -118.0214634
  },
  {
    "id": "630024329",
    "name": "HOUSE OF HOPE HOME HEALTH, INC.",
    "npi": null,
    "hcaiId": null,
    "businessName": "HOUSE OF HOPE HOME HEALTH, INC.",
    "contactEmail": "HOUSEOFHOPEHH@GMAIL.COM",
    "categoryName": "HOME HEALTH AGENCY",
    "categoryCode": "HHA",
    "licenseStatus": "ACTIVE",
    "inService": true,
    "licenseNumber": "550009728",
    "licenseEffectiveDate": "09/28/2025",
    "licenseExpirationDate": "03/27/2026",
    "dataDate": "10/18/2025",
    "capacity": 0,
    "address": "324 E FOOTHILL BLVD, SUITE 204B",
    "city": "ARCADIA",
    "zip": "91006",
    "county": "LOS ANGELES",
    "phone": "(626) 692-6552",
    "lat": 34.15103392,
    "lng": -118.0220465
  },
  {
    "id": "630021412",
    "name": "LUCAS HOSPICE, INC.",
    "npi": null,
    "hcaiId": "406196073",
    "businessName": "LUCAS HOSPICE, INC",
    "contactEmail": "LUCASHOSPICE@YAHOO.COM",
    "categoryName": "HOSPICE",
    "categoryCode": "HOSPICE",
    "licenseStatus": "ACTIVE",
    "inService": true,
    "licenseNumber": "550006763",
    "licenseEffectiveDate": "09/02/2025",
    "licenseExpirationDate": "09/01/2027",
    "dataDate": "10/18/2025",
    "capacity": 0,
    "address": "440 E HUNTINGTON DR, SUITE 300",
    "city": "ARCADIA",
    "zip": "91006",
    "county": "LOS ANGELES",
    "phone": "(626) 538-1551",
    "lat": 34.13902602,
    "lng": -118.022026
  },
  {
    "id": "630011917",
    "name": "MAXIMUM CARE PROVIDERS, INC.",
    "npi": "1316114689",
    "hcaiId": "406197237",
    "businessName": "MAXIMUM CARE PROVIDERS, INC.",
    "contactEmail": "MAXCAREPROVIDER@AOL.COM",
    "categoryName": "HOME HEALTH AGENCY",
    "categoryCode": "HHA",
    "licenseStatus": "ACTIVE",
    "inService": true,
    "licenseNumber": "550001013",
    "licenseEffectiveDate": "04/03/2025",
    "licenseExpirationDate": "04/02/2026",
    "dataDate": "10/18/2025",
    "capacity": 0,
    "address": "55 E HUNTINGTON DR, SUITE 320",
    "city": "ARCADIA",
    "zip": "91006",
    "county": "LOS ANGELES",
    "phone": "(626) 447-2100",
    "lat": 34.140312,
    "lng": -118.02879
  },
  {
    "id": "630021830",
    "name": "NO PAIN HOSPICE CARE, INC.",
    "npi": null,
    "hcaiId": "406193984",
    "businessName": "NO PAIN HOSPICE CARE, INC.",
    "contactEmail": "NOPAINHOSPICECARE@YAHOO.COM",
    "categoryName": "HOSPICE",
    "categoryCode": "HOSPICE",
    "licenseStatus": "ACTIVE",
    "inService": true,
    "licenseNumber": "550007232",
    "licenseEffectiveDate": "03/04/2025",
    "licenseExpirationDate": "11/17/2025",
    "dataDate": "10/18/2025",
    "capacity": 0,
    "address": "333 N SANTA ANITA AVE, SUITE 3",
    "city": "ARCADIA",
    "zip": "91006",
    "county": "LOS ANGELES",
    "phone": "(818) 859-7115",
    "lat": 34.14427229,
    "lng": -118.0322314
  },
  {
    "id": "630021614",
    "name": "ONE FOR ALL HOSPICE INC.",
    "npi": null,
    "hcaiId": "406193821",
    "businessName": "ONE FOR ALL HOSPICE INC.",
    "contactEmail": "ONEFORALLHOSPICE@YAHOO.COM",
    "categoryName": "HOSPICE",
    "categoryCode": "HOSPICE",
    "licenseStatus": "ACTIVE",
    "inService": true,
    "licenseNumber": "550007242",
    "licenseEffectiveDate": "01/11/2024",
    "licenseExpirationDate": "11/18/2025",
    "dataDate": "10/18/2025",
    "capacity": 0,
    "address": "145 E LIVE OAK AVE, SUITE F",
    "city": "ARCADIA",
    "zip": "91006",
    "county": "LOS ANGELES",
    "phone": "(626) 829-1388",
    "lat": 34.10830999,
    "lng": -118.025939
  },
  {
    "id": "630017657",
    "name": "PACIFIC SUN HOSPICE",
    "npi": "1922526003",
    "hcaiId": "406191656",
    "businessName": "HANDMAIDS OF CHARITY HEALTHCARE, INC.",
    "contactEmail": "HCH.ARCADIA@GMAIL.COM",
    "categoryName": "HOSPICE",
    "categoryCode": "HOSPICE",
    "licenseStatus": "ACTIVE",
    "inService": true,
    "licenseNumber": "550004667",
    "licenseEffectiveDate": "04/10/2025",
    "licenseExpirationDate": "04/09/2027",
    "dataDate": "10/18/2025",
    "capacity": 0,
    "address": "8 N 1ST AVE",
    "city": "ARCADIA",
    "zip": "91006",
    "county": "LOS ANGELES",
    "phone": "(626) 247-0077",
    "lat": 34.14040602,
    "lng": -118.028096
  },
  {
    "id": "980001596",
    "name": "PRACTICARE HOME HEALTH AGENCY",
    "npi": "1639167208",
    "hcaiId": "406196647",
    "businessName": "PRACTICARE HOME HEALTH AGENCY",
    "contactEmail": "ERICH.CHAN@PRACTICAREHH.COM",
    "categoryName": "HOME HEALTH AGENCY",
    "categoryCode": "HHA",
    "licenseStatus": "ACTIVE",
    "inService": true,
    "licenseNumber": "980000910",
    "licenseEffectiveDate": "06/02/2025",
    "licenseExpirationDate": "06/01/2026",
    "dataDate": "10/18/2025",
    "capacity": 0,
    "address": "223 N 1ST AVE, SUITE 103",
    "city": "ARCADIA",
    "zip": "91006",
    "county": "LOS ANGELES",
    "phone": "(626) 821-4880",
    "lat": 34.143174,
    "lng": -118.028808
  },
  {
    "id": "630020118",
    "name": "QUALITY DIALYSIS CENTER FOOTHILL",
    "npi": null,
    "hcaiId": "306190730",
    "businessName": "QUALITY DIALYSIS CENTER FOOTHILL, LLC",
    "contactEmail": "CHARLEGANT@GMAIL.COM",
    "categoryName": "CHRONIC DIALYSIS CLINIC",
    "categoryCode": "ESRD/CDC",
    "licenseStatus": "ACTIVE",
    "inService": true,
    "licenseNumber": "550007976",
    "licenseEffectiveDate": "04/28/2025",
    "licenseExpirationDate": "04/27/2026",
    "dataDate": "10/18/2025",
    "capacity": 37,
    "address": "133 E FOOTHILL BLVD",
    "city": "ARCADIA",
    "zip": "91006",
    "county": "LOS ANGELES",
    "phone": "(626) 285-1830",
    "lat": 34.15111808,
    "lng": -118.0271068
  },
  {
    "id": "630016396",
    "name": "REASONS RESIDENTIAL ARCADIA",
    "npi": null,
    "hcaiId": "206190319",
    "businessName": "BHC ALHAMBRA HOSPITAL, INC.",
    "contactEmail": "PEGGY.MINNICK@UHSINC.COM",
    "categoryName": "CONGREGATE LIVING HEALTH FACILITY",
    "categoryCode": "CLHF",
    "licenseStatus": "ACTIVE",
    "inService": true,
    "licenseNumber": "550003674",
    "licenseEffectiveDate": "09/07/2025",
    "licenseExpirationDate": "09/06/2026",
    "dataDate": "10/18/2025",
    "capacity": 6,
    "address": "502 E CAMINO REAL AVE",
    "city": "ARCADIA",
    "zip": "91006",
    "county": "LOS ANGELES",
    "phone": "(323) 931-9010",
    "lat": 34.121646,
    "lng": -118.0200555
  },
  {
    "id": "630027188",
    "name": "REGAL ADULT DAY HEALTH CARE CENTER",
    "npi": null,
    "hcaiId": null,
    "businessName": "REGAL ADHC INC.",
    "contactEmail": "REGALADHC@GMAIL.COM",
    "categoryName": "ADULT DAY HEALTH CARE",
    "categoryCode": "ADHC",
    "licenseStatus": "ACTIVE",
    "inService": true,
    "licenseNumber": "550008797",
    "licenseEffectiveDate": "11/07/2025",
    "licenseExpirationDate": "11/06/2026",
    "dataDate": "10/18/2025",
    "capacity": 0,
    "address": "253 EAST FOOTHILL BLVD.",
    "city": "ARCADIA",
    "zip": "91006",
    "county": "LOS ANGELES",
    "phone": "(626) 599-1000",
    "lat": 34.1515728,
    "lng": -118.0233031
  },
  {
    "id": "930001840",
    "name": "SAN GABRIEL AMBULATORY SURGERY CENTER",
    "npi": "1336213099",
    "hcaiId": "306196623",
    "businessName": "SAN GABRIEL AMBULATORY SURGERY CENTER, L.P.",
    "contactEmail": "TYOUNG@UNITED.SURGICAL.COM",
    "categoryName": "SURGICAL CLINIC",
    "categoryCode": "ASC",
    "licenseStatus": "INACTIVE - CAPEN DECISION",
    "inService": false,
    "licenseNumber": "550000023",
    "licenseEffectiveDate": "03/28/2007",
    "licenseExpirationDate": "03/27/2008",
    "dataDate": "10/18/2025",
    "capacity": 0,
    "address": "288 N SANTA ANITA AVE, SUITE 404",
    "city": "ARCADIA",
    "zip": "91006",
    "county": "LOS ANGELES",
    "phone": "(626) 300-5300",
    "lat": 34.14323759,
    "lng": -118.0313741
  },
  {
    "id": "630020327",
    "name": "SENIOR SAFE HOME HEALTH, INC.",
    "npi": null,
    "hcaiId": "406365623",
    "businessName": "SENIOR SAFE HOME HEALTH, INC.",
    "contactEmail": "SENIORSAFEHOMEHEALTH@YAHOO.COM",
    "categoryName": "HOME HEALTH AGENCY",
    "categoryCode": "HHA",
    "licenseStatus": "ACTIVE",
    "inService": true,
    "licenseNumber": "550006216",
    "licenseEffectiveDate": "04/05/2025",
    "licenseExpirationDate": "04/04/2026",
    "dataDate": "10/18/2025",
    "capacity": 0,
    "address": "444 E HUNTINGTON DR, SUITE 211",
    "city": "ARCADIA",
    "zip": "91006",
    "county": "LOS ANGELES",
    "phone": "(909) 791-1010",
    "lat": 34.13966602,
    "lng": -118.021113
  },
  {
    "id": "630013568",
    "name": "SMART SURGERY CENTER LLC",
    "npi": "1306139894",
    "hcaiId": null,
    "businessName": null,
    "contactEmail": "DR.RICHARDSAYEGH@YAHOO.COM",
    "categoryName": "SURGICAL CLINIC",
    "categoryCode": "ASC",
    "licenseStatus": null,
    "inService": null,
    "licenseNumber": null,
    "licenseEffectiveDate": null,
    "licenseExpirationDate": null,
    "dataDate": "10/18/2025",
    "capacity": 0,
    "address": "131 E HUNTINGTON DR",
    "city": "ARCADIA",
    "zip": "91006",
    "county": "LOS ANGELES",
    "phone": "(626) 447-1133",
    "lat": 34.140429,
    "lng": -118.0269135
  },
  {
    "id": "930001834",
    "name": "SPECIALTY SURGICAL CENTER OF ARCADIA, L.P.",
    "npi": "1861408643",
    "hcaiId": "306196585",
    "businessName": "SPECIALTY SURGICAL CENTER OF ARCADIA, L.P.",
    "contactEmail": "MICHAEL.ROUB@SPECIALTYSURGICAL.COM",
    "categoryName": "SURGICAL CLINIC",
    "categoryCode": "ASC",
    "licenseStatus": "INACTIVE - CAPEN DECISION",
    "inService": false,
    "licenseNumber": "930001013",
    "licenseEffectiveDate": "11/16/2007",
    "licenseExpirationDate": "11/15/2008",
    "dataDate": "10/18/2025",
    "capacity": 0,
    "address": "51 N 5TH AVE, SUITE 101",
    "city": "ARCADIA",
    "zip": "91006",
    "county": "LOS ANGELES",
    "phone": "(310) 659-6333",
    "lat": 34.141221,
    "lng": -118.020987
  },
  {
    "id": "630014158",
    "name": "TRANSITIONS HOSPICE, INC.",
    "npi": "1972800084",
    "hcaiId": "406198029",
    "businessName": "TRANSITIONS HOSPICE, INC.",
    "contactEmail": "TRANSITIONSHOSPICE333@GMAIL.COM",
    "categoryName": "HOSPICE",
    "categoryCode": "HOSPICE",
    "licenseStatus": "ACTIVE",
    "inService": true,
    "licenseNumber": "550002683",
    "licenseEffectiveDate": "05/02/2024",
    "licenseExpirationDate": "05/01/2026",
    "dataDate": "10/18/2025",
    "capacity": 0,
    "address": "333 N SANTA ANITA AVE, UNIT 4",
    "city": "ARCADIA",
    "zip": "91006",
    "county": "LOS ANGELES",
    "phone": "(626) 265-8111",
    "lat": 34.144272,
    "lng": -118.03221
  },
  {
    "id": "630021575",
    "name": "TRIUMPH HOME HEALTH CARE SERVICES",
    "npi": null,
    "hcaiId": "406193265",
    "businessName": "TRIUMPH HOME HEALTH CARE SERVICES",
    "contactEmail": "TRIUMPHCARE@HOTMAIL.COM",
    "categoryName": "HOME HEALTH AGENCY",
    "categoryCode": "HHA",
    "licenseStatus": "ACTIVE",
    "inService": true,
    "licenseNumber": "550007049",
    "licenseEffectiveDate": "10/19/2024",
    "licenseExpirationDate": "10/18/2025",
    "dataDate": "10/18/2025",
    "capacity": 0,
    "address": "333 N SANTA ANITA AVE, SUITE 14",
    "city": "ARCADIA",
    "zip": "91006",
    "county": "LOS ANGELES",
    "phone": "(747) 444-4047",
    "lat": 34.14446701,
    "lng": -118.032223
  },
  {
    "id": "630024649",
    "name": "VALIANT HOME HEALTH CARE INC",
    "npi": null,
    "hcaiId": "406197625",
    "businessName": "VALIANT HOME HEALTH CARE INC",
    "contactEmail": "VALIANTHHC@GMAIL.COM",
    "categoryName": "HOME HEALTH AGENCY",
    "categoryCode": "HHA",
    "licenseStatus": "ACTIVE",
    "inService": true,
    "licenseNumber": "550008283",
    "licenseEffectiveDate": "12/16/2024",
    "licenseExpirationDate": "12/15/2025",
    "dataDate": "10/18/2025",
    "capacity": 0,
    "address": "4115 E LIVE OAK AVE, SUITE 5",
    "city": "ARCADIA",
    "zip": "91006",
    "county": "LOS ANGELES",
    "phone": "(626) 348-2207",
    "lat": 34.109937,
    "lng": -118.0144035
  },
  {
    "id": "930001804",
    "name": "VALLEY DIGESTIVE HEALTH CENTER",
    "npi": "1932145109",
    "hcaiId": "306196504",
    "businessName": "THE ARCADIA CA ENDOSCOPY ASC, L.P.",
    "contactEmail": "JMOSER@VALLEYGASTRO.COM",
    "categoryName": "SURGICAL CLINIC",
    "categoryCode": "ASC",
    "licenseStatus": "INACTIVE - CAPEN DECISION",
    "inService": false,
    "licenseNumber": "930000996",
    "licenseEffectiveDate": "11/28/2007",
    "licenseExpirationDate": "11/27/2008",
    "dataDate": "10/18/2025",
    "capacity": 0,
    "address": "488 E SANTA CLARA ST, SUITE 102",
    "city": "ARCADIA",
    "zip": "91006",
    "county": "LOS ANGELES",
    "phone": "(626) 359-9555",
    "lat": 34.141914,
    "lng": -118.021131
  },
  {
    "id": "630021537",
    "name": "VITAL HOSPICE INC.",
    "npi": null,
    "hcaiId": "406193792",
    "businessName": "VITAL HOSPICE INC.",
    "contactEmail": "VITALHOSPICEINC@YAHOO.COM",
    "categoryName": "HOSPICE",
    "categoryCode": "HOSPICE",
    "licenseStatus": "ACTIVE",
    "inService": true,
    "licenseNumber": "550006788",
    "licenseEffectiveDate": "08/11/2025",
    "licenseExpirationDate": "09/09/2025",
    "dataDate": "10/18/2025",
    "capacity": 0,
    "address": "25 WHEELER AVENUE, SUITE N",
    "city": "ARCADIA",
    "zip": "91006",
    "county": "LOS ANGELES",
    "phone": "(626) 829-1411",
    "lat": 34.14147689,
    "lng": -118.030227
  },
  {
    "id": "630026764",
    "name": "VITAL TOUCH SKILLED NURSING, INC.",
    "npi": null,
    "hcaiId": null,
    "businessName": "VITAL TOUCH SKILLED NURSING, INC.",
    "contactEmail": "VITALTOUCHSKILLEDNURSING@GMAIL.COM",
    "categoryName": "HOME HEALTH AGENCY",
    "categoryCode": "HHA",
    "licenseStatus": "ACTIVE",
    "inService": true,
    "licenseNumber": "550009582",
    "licenseEffectiveDate": "06/09/2025",
    "licenseExpirationDate": "12/08/2025",
    "dataDate": "10/18/2025",
    "capacity": 0,
    "address": "324 E FOOTHILL BLVD, SUITE 204A",
    "city": "ARCADIA",
    "zip": "91006",
    "county": "LOS ANGELES",
    "phone": "(626) 263-8553",
    "lat": 34.15103392,
    "lng": -118.0220465
  }
]