[
  {
    "id": "930001742",
    "name": "FOOTHILL FACIAL ENHANCEMENT & PLASTIC SURGERY CTR",
    "npi": null,
    "hcaiId": null,
    "businessName": null,
    "contactEmail": "NONE@DHS.CA.GOV",
    "categoryName": "SURGICAL CLINIC",
    "categoryCode": "ASC",
    "licenseStatus": null,
    "inService": null,
    "licenseNumber": null,
    "licenseEffectiveDate": null,
    "licenseExpirationDate": null,
    "dataDate": "10/18/2025",
    "capacity": 0,
    "address": "1370 FOOTHILL BLVD",
    "city": "LA CANADA FLINTRIDGE",
    "zip": "91011",
    "county": "LOS ANGELES",
    "phone": "(818) 952-1155",
    "lat": 34.207767,
    "lng": -118.2081735
  },
  {
    "id": "630011283",
    "name": "OPTIMA HEALTH CARE, INC.",
    "npi": "1841415585",
    "hcaiId": "406197137",
    "businessName": "OPTIMA HEALTH CARE, INC.",
    "contactEmail": "OPTIMAHC@YAHOO.COM",
    "categoryName": "HOME HEALTH AGENCY",
    "categoryCode": "HHA",
    "licenseStatus": "ACTIVE",
    "inService": true,
    "licenseNumber": "550000739",
    "licenseEffectiveDate": "04/29/2025",
    "licenseExpirationDate": "04/28/2026",
    "dataDate": "10/18/2025",
    "capacity": 0,
    "address": "4532 RINETTI LN",
    "city": "LA CANADA FLINTRIDGE",
    "zip": "91011",
    "county": "LOS ANGELES",
    "phone": "(818) 507-6957",
    "lat": 34.20189,
    "lng": -118.191753
  },
  {
    "id": "630019385",
    "name": "SAVING LIVES HEALTHCARE SERVICES, INC.",
    "npi": null,
    "hcaiId": "406193472",
    "businessName": "SAVING LIVES HEALTHCARE SERVICES, INC.",
    "contactEmail": "SAVINGLIVESHHC@GMAIL.COM",
    "categoryName": "HOME HEALTH AGENCY",
    "categoryCode": "HHA",
    "licenseStatus": "ACTIVE",
    "inService": true,
    "licenseNumber": "550005718",
    "licenseEffectiveDate": "08/28/2025",
    "licenseExpirationDate": "08/27/2026",
    "dataDate": "10/18/2025",
    "capacity": 0,
    "address": "1433 FOOTHILL BLVD., SUITE 204",
    "city": "LA CANADA",
    "zip": "91011",
    "county": "LOS ANGELES",
    "phone": "(888) 605-0626",
    "lat": 34.185816,
    "lng": -118.4503365
  },
  {
    "id": "630021144",
    "name": "TENERA HOME HEALTH CARE, INC",
    "npi": null,
    "hcaiId": "406195393",
    "businessName": "TENERA HOME HEALTH CARE, INC",
    "contactEmail": "TENERACARE@GMAIL.COM",
    "categoryName": "HOME HEALTH AGENCY",
    "categoryCode": "HHA",
    "licenseStatus": "ACTIVE",
    "inService": true,
    "licenseNumber": "550007772",
    "licenseEffectiveDate": "01/04/2025",
    "licenseExpirationDate": "01/03/2026",
    "dataDate": "10/18/2025",
    "capacity": 0,
    "address": "1363 FOOTHILL BLVD, SUITE A AND B",
    "city": "LA CANADA FLINTRIDGE",
    "zip": "91011",
    "county": "LOS ANGELES",
    "phone": "(818) 928-1651",
    "lat": 34.208253,
    "lng": -118.2079665
  },
  {
    "id": "630020914",
    "name": "VINETA HOME HEALTH CARE, INC.",
    "npi": null,
    "hcaiId": "406193849",
    "businessName": "VINETA HOME HEALTH CARE, INC.",
    "contactEmail": "FIONA@ACHIEVEHCA.COM",
    "categoryName": "HOME HEALTH AGENCY",
    "categoryCode": "HHA",
    "licenseStatus": "ACTIVE",
    "inService": true,
    "licenseNumber": "550006657",
    "licenseEffectiveDate": "07/29/2023",
    "licenseExpirationDate": "07/28/2024",
    "dataDate": "10/18/2025",
    "capacity": 0,
    "address": "430 FOOTHILL BLVD, SUITE H",
    "city": "LA CANADA",
    "zip": "91011",
    "county": "LOS ANGELES",
    "phone": "(310) 913-3165",
    "lat": 34.19829,
    "lng": -118.187568
  },
  {
    "id": "630020910",
    "name": "VINETA HOSPICE CARE, INC",
    "npi": null,
    "hcaiId": "406193847",
    "businessName": "VINETA HOSPICE CARE, INC",
    "contactEmail": "VINETAHOSPICE@GMAIL.COM",
    "categoryName": "HOSPICE",
    "categoryCode": "HOSPICE",
    "licenseStatus": "ACTIVE",
    "inService": true,
    "licenseNumber": "550006468",
    "licenseEffectiveDate": "04/24/2025",
    "licenseExpirationDate": "04/23/2027",
    "dataDate": "10/18/2025",
    "capacity": 0,
    "address": "430 FOOTHILL BLVD, SUITE D",
    "city": "LA CANADA FLINTRIDGE",
    "zip": "91011",
    "county": "LOS ANGELES",
    "phone": "(818) 434-3421",
    "lat": 34.19829,
    "lng": -118.187568
  }
]