[
  {
    "id": "630027542",
    "name": "ALTAMED MEDICAL GROUP - MONROVIA, LIME",
    "npi": "1790177582",
    "hcaiId": null,
    "businessName": "ALTAMED HEALTH SERVICES CORPORATION",
    "contactEmail": "LENGUYEN@ALTAMED.ORG",
    "categoryName": "PRIMARY CARE CLINIC",
    "categoryCode": "COMTYC",
    "licenseStatus": "ACTIVE",
    "inService": true,
    "licenseNumber": "550003268",
    "licenseEffectiveDate": "10/29/2025",
    "licenseExpirationDate": "10/28/2026",
    "dataDate": "10/18/2025",
    "capacity": 0,
    "address": "513 E LIME AVE, SUITE 102",
    "city": "MONROVIA",
    "zip": "91016",
    "county": "LOS ANGELES",
    "phone": "(626) 788-0290",
    "lat": 34.14841098,
    "lng": -117.993103
  },
  {
    "id": "060001909",
    "name": "ARCADIA ADULT DAY HEALTH CARE",
    "npi": null,
    "hcaiId": null,
    "businessName": "ARCADIA ADHC INC.",
    "contactEmail": "ARCADIACBAS@YAHOO.COM",
    "categoryName": "ADULT DAY HEALTH CARE",
    "categoryCode": "ADHC",
    "licenseStatus": "ACTIVE",
    "inService": true,
    "licenseNumber": "060000726",
    "licenseEffectiveDate": "04/03/2025",
    "licenseExpirationDate": "04/02/2026",
    "dataDate": "10/18/2025",
    "capacity": 0,
    "address": "288 E HUNTINGTON DR",
    "city": "MONROVIA",
    "zip": "91016",
    "county": "LOS ANGELES",
    "phone": "(626) 447-9700",
    "lat": 34.140204,
    "lng": -117.995301
  },
  {
    "id": "630020852",
    "name": "BRIGHTLANE OF CALIFORNIA",
    "npi": null,
    "hcaiId": "406193416",
    "businessName": "BRIGHTLANE OF CALIFORNIA",
    "contactEmail": "INFO@BRIGHTLANEOFCA.COM",
    "categoryName": "HOME HEALTH AGENCY",
    "categoryCode": "HHA",
    "licenseStatus": "ACTIVE",
    "inService": true,
    "licenseNumber": "550006905",
    "licenseEffectiveDate": "09/11/2025",
    "licenseExpirationDate": "09/10/2026",
    "dataDate": "10/18/2025",
    "capacity": 0,
    "address": "503 1/2 S MYRTLE AVE, SUITE 3",
    "city": "MONROVIA",
    "zip": "91016",
    "county": "LOS ANGELES",
    "phone": "(800) 780-2907",
    "lat": 34.14685276,
    "lng": -118.0010162
  },
  {
    "id": "930001578",
    "name": "DUARTE MONROVIA DIALYSIS",
    "npi": "1588675110",
    "hcaiId": "306194857",
    "businessName": "MOUNTAIN VIEW DIALYSIS CENTER INC.",
    "contactEmail": "STABASSUM@CDMSRENAL.COM",
    "categoryName": "CHRONIC DIALYSIS CLINIC",
    "categoryCode": "ESRD/CDC",
    "licenseStatus": "ACTIVE",
    "inService": true,
    "licenseNumber": "930000881",
    "licenseEffectiveDate": "04/25/2025",
    "licenseExpirationDate": "04/24/2026",
    "dataDate": "10/18/2025",
    "capacity": 26,
    "address": "900 S MOUNTAIN AVE",
    "city": "MONROVIA",
    "zip": "91016",
    "county": "LOS ANGELES",
    "phone": "(626) 932-1810",
    "lat": 34.142913,
    "lng": -117.985896
  },
  {
    "id": "630020621",
    "name": "FIRST LIGHT HOME HEALTH SERVICES, INC.",
    "npi": null,
    "hcaiId": "406195360",
    "businessName": "FIRST LIGHT HOME HEALTH SERVICES, INC.",
    "contactEmail": "FIRSTLIGHTHH@GMAIL.COM",
    "categoryName": "HOME HEALTH AGENCY",
    "categoryCode": "HHA",
    "licenseStatus": "ACTIVE",
    "inService": true,
    "licenseNumber": "550007952",
    "licenseEffectiveDate": "04/08/2025",
    "licenseExpirationDate": "04/07/2026",
    "dataDate": "10/18/2025",
    "capacity": 0,
    "address": "507 W FOOTHILL BLVD, UNIT A",
    "city": "MONROVIA",
    "zip": "91016",
    "county": "LOS ANGELES",
    "phone": "(818) 850-6147",
    "lat": 34.15130708,
    "lng": -118.0102316
  },
  {
    "id": "630015384",
    "name": "HELPFUL HANDS HOSPICE CARE INC",
    "npi": "1588071112",
    "hcaiId": "406198510",
    "businessName": "HELPFUL HANDS HOSPICE CARE INC",
    "contactEmail": "HELPFULHANDSHOSPICECARE@GMAIL.COM",
    "categoryName": "HOSPICE",
    "categoryCode": "HOSPICE",
    "licenseStatus": "ACTIVE",
    "inService": true,
    "licenseNumber": "550003979",
    "licenseEffectiveDate": "09/28/2025",
    "licenseExpirationDate": "09/27/2027",
    "dataDate": "10/18/2025",
    "capacity": 0,
    "address": "2670 S MYRTLE AVE, SUITE D-203",
    "city": "MONROVIA",
    "zip": "91016",
    "county": "LOS ANGELES",
    "phone": "(626) 318-2327",
    "lat": 34.116966,
    "lng": -118.000692
  },
  {
    "id": "630013425",
    "name": "MISSION CITY COMMUNITY NETWORK, INC. - MONROVIA",
    "npi": "1063795250",
    "hcaiId": "306197647",
    "businessName": "MISSION CITY COMMUNITY NETWORK, INC.",
    "contactEmail": "NIKG@MCCN.ORG",
    "categoryName": "PRIMARY CARE CLINIC",
    "categoryCode": "COMTYC",
    "licenseStatus": "ACTIVE",
    "inService": true,
    "licenseNumber": "550001801",
    "licenseEffectiveDate": "01/06/2025",
    "licenseExpirationDate": "01/05/2026",
    "dataDate": "10/18/2025",
    "capacity": 0,
    "address": "513 E LIME AVE, SUITE 103",
    "city": "MONROVIA",
    "zip": "91016",
    "county": "LOS ANGELES",
    "phone": "(626) 303-3471",
    "lat": 34.148412,
    "lng": -117.993069
  },
  {
    "id": "630017540",
    "name": "MONROVIA DIALYSIS FACILITY, INC.",
    "npi": "1114460359",
    "hcaiId": "306190464",
    "businessName": "MONROVIA DIALYSIS FACILITY, INC.",
    "contactEmail": "CSALVADOR@CDMSRENAL.COM",
    "categoryName": "CHRONIC DIALYSIS CLINIC",
    "categoryCode": "ESRD/CDC",
    "licenseStatus": "ACTIVE",
    "inService": true,
    "licenseNumber": "550004885",
    "licenseEffectiveDate": "07/29/2025",
    "licenseExpirationDate": "07/28/2026",
    "dataDate": "10/18/2025",
    "capacity": 25,
    "address": "1930 WALKER AVE",
    "city": "MONROVIA",
    "zip": "91016",
    "county": "LOS ANGELES",
    "phone": "(626) 256-1008",
    "lat": 34.129512,
    "lng": -117.9998145
  },
  {
    "id": "950000048",
    "name": "MONROVIA GARDENS HEALTHCARE CENTER",
    "npi": "1043204522",
    "hcaiId": "206190084",
    "businessName": "AG MONROVIA, LLC",
    "contactEmail": null,
    "categoryName": "SKILLED NURSING FACILITY",
    "categoryCode": "SNF",
    "licenseStatus": "ACTIVE",
    "inService": true,
    "licenseNumber": "950000013",
    "licenseEffectiveDate": "11/01/2025",
    "licenseExpirationDate": "10/31/2026",
    "dataDate": "10/18/2025",
    "capacity": 95,
    "address": "615 W DUARTE RD",
    "city": "MONROVIA",
    "zip": "91016",
    "county": "LOS ANGELES",
    "phone": "(626) 358-4547",
    "lat": 34.132608,
    "lng": -118.0120545
  },
  {
    "id": "930000107",
    "name": "MONROVIA MEMORIAL HOSPITAL",
    "npi": "1265601561",
    "hcaiId": "106190541",
    "businessName": "ALAKOR HEALTHCARE, LLC",
    "contactEmail": "RONK@MMHOSP.COM",
    "categoryName": "GENERAL ACUTE CARE HOSPITAL",
    "categoryCode": "GACH",
    "licenseStatus": "ACTIVE",
    "inService": true,
    "licenseNumber": "930000107",
    "licenseEffectiveDate": "11/03/2025",
    "licenseExpirationDate": "11/02/2026",
    "dataDate": "10/18/2025",
    "capacity": 49,
    "address": "323 S HELIOTROPE AVE",
    "city": "MONROVIA",
    "zip": "91016",
    "county": "LOS ANGELES",
    "phone": "(626) 408-9800",
    "lat": 34.14907548,
    "lng": -117.9922299
  }
]