[
  {
    "id": "930000036",
    "name": "CITY OF HOPE HELFORD CLINICAL RESEARCH HOSPITAL",
    "npi": "1114109337",
    "hcaiId": "106190176",
    "businessName": "CITY OF HOPE NATIONAL MEDICAL CENTER",
    "contactEmail": "JTABOR@COH.ORG",
    "categoryName": "GENERAL ACUTE CARE HOSPITAL",
    "categoryCode": "GACH",
    "licenseStatus": "ACTIVE",
    "inService": true,
    "licenseNumber": "930000033",
    "licenseEffectiveDate": "11/01/2025",
    "licenseExpirationDate": "10/31/2026",
    "dataDate": "10/18/2025",
    "capacity": 217,
    "address": "1500 DUARTE RD",
    "city": "DUARTE",
    "zip": "91010",
    "county": "LOS ANGELES",
    "phone": "(626) 218-3239",
    "lat": 34.13115,
    "lng": -117.97281
  },
  {
    "id": "950000022",
    "name": "COMMUNITY CARE CENTER",
    "npi": "1962728246",
    "hcaiId": "206190338",
    "businessName": "KF COMMUNITY CARE, LLC",
    "contactEmail": "SBLAND@CHMS.US",
    "categoryName": "SKILLED NURSING FACILITY",
    "categoryCode": "SNF",
    "licenseStatus": "ACTIVE",
    "inService": true,
    "licenseNumber": "950000051",
    "licenseEffectiveDate": "11/01/2024",
    "licenseExpirationDate": "10/31/2025",
    "dataDate": "10/18/2025",
    "capacity": 150,
    "address": "2335 MOUNTAIN AVE",
    "city": "DUARTE",
    "zip": "91010",
    "county": "LOS ANGELES",
    "phone": "(626) 357-3207",
    "lat": 34.122537,
    "lng": -117.9906075
  },
  {
    "id": "050001463",
    "name": "ENHANCEDCARE HOME HEALTH",
    "npi": "1831382829",
    "hcaiId": "406197128",
    "businessName": "BUENO & SONS INC.",
    "contactEmail": "ENHANCEDCAREHH@GMAIL.COM",
    "categoryName": "HOME HEALTH AGENCY",
    "categoryCode": "HHA",
    "licenseStatus": "ACTIVE",
    "inService": true,
    "licenseNumber": "050000589",
    "licenseEffectiveDate": "01/28/2025",
    "licenseExpirationDate": "01/27/2026",
    "dataDate": "10/18/2025",
    "capacity": 0,
    "address": "924 BUENA VISTA ST, SUITE 102",
    "city": "DUARTE",
    "zip": "91010",
    "county": "LOS ANGELES",
    "phone": "(626) 531-7591",
    "lat": 34.141752,
    "lng": -117.977229
  },
  {
    "id": "630002162",
    "name": "FOOTHILLS PREGNANCY RESOURCE CENTER",
    "npi": null,
    "hcaiId": "306196575",
    "businessName": "CRISIS PREGNANCY OF MONROVIA",
    "contactEmail": "RECEPTION@FOOTHILLSPRC.ORG",
    "categoryName": "PRIMARY CARE CLINIC",
    "categoryCode": "FREEC",
    "licenseStatus": "ACTIVE",
    "inService": true,
    "licenseNumber": "550000288",
    "licenseEffectiveDate": "11/07/2025",
    "licenseExpirationDate": "11/06/2026",
    "dataDate": "10/18/2025",
    "capacity": 0,
    "address": "924 BUENA VISTA ST, SUITE 202",
    "city": "DUARTE",
    "zip": "91010",
    "county": "LOS ANGELES",
    "phone": "(626) 358-2122",
    "lat": 34.141752,
    "lng": -117.977229
  },
  {
    "id": "950000073",
    "name": "MONROVIA POST ACUTE",
    "npi": "1073970620",
    "hcaiId": "206190542",
    "businessName": "MONROVIA POST ACUTE, LLC",
    "contactEmail": "SREYES@BEECANHEALTH.COM",
    "categoryName": "SKILLED NURSING FACILITY",
    "categoryCode": "SNF",
    "licenseStatus": "ACTIVE",
    "inService": true,
    "licenseNumber": "950000073",
    "licenseEffectiveDate": "12/22/2024",
    "licenseExpirationDate": "12/21/2025",
    "dataDate": "10/18/2025",
    "capacity": 82,
    "address": "1220 HUNTINGTON DR",
    "city": "DUARTE",
    "zip": "91010",
    "county": "LOS ANGELES",
    "phone": "(626) 359-6618",
    "lat": 34.138197,
    "lng": -117.9788175
  },
  {
    "id": "950000011",
    "name": "MONTE VISTA HEALTHCARE CENTER",
    "npi": "1376538256",
    "hcaiId": "206190112",
    "businessName": "BVCV OPERATING COMPANY, LLC",
    "contactEmail": "EMELYN.LAWLER@MONTEVISTAHCC.COM",
    "categoryName": "SKILLED NURSING FACILITY",
    "categoryCode": "SNF",
    "licenseStatus": "ACTIVE",
    "inService": true,
    "licenseNumber": "950000017",
    "licenseEffectiveDate": "11/01/2025",
    "licenseExpirationDate": "10/31/2026",
    "dataDate": "10/18/2025",
    "capacity": 69,
    "address": "802 BUENA VISTA ST",
    "city": "DUARTE",
    "zip": "91010",
    "county": "LOS ANGELES",
    "phone": "(626) 359-8141",
    "lat": 34.14318515,
    "lng": -117.9774911
  },
  {
    "id": "630004381",
    "name": "MOTHER MARGARITA SURGERY CENTER",
    "npi": null,
    "hcaiId": null,
    "businessName": null,
    "contactEmail": "NONE@DHS.CA.GOV",
    "categoryName": "SURGICAL CLINIC",
    "categoryCode": "ASC",
    "licenseStatus": null,
    "inService": null,
    "licenseNumber": null,
    "licenseEffectiveDate": null,
    "licenseExpirationDate": null,
    "dataDate": "10/18/2025",
    "capacity": 0,
    "address": "819 BUENA VISTA ST",
    "city": "DUARTE",
    "zip": "91010",
    "county": "LOS ANGELES",
    "phone": "(626) 932-3400",
    "lat": 34.14299138,
    "lng": -117.9776059
  },
  {
    "id": "630027418",
    "name": "PINNACLE HEALTH MAYDEE LLC",
    "npi": null,
    "hcaiId": null,
    "businessName": "PINNACLE HEALTH MAYDEE LLC",
    "contactEmail": "PINNACLEHEALTHSGV@GMAIL.COM",
    "categoryName": "CONGREGATE LIVING HEALTH FACILITY",
    "categoryCode": "CLHF",
    "licenseStatus": "ACTIVE",
    "inService": true,
    "licenseNumber": "550009270",
    "licenseEffectiveDate": "07/23/2025",
    "licenseExpirationDate": "07/22/2026",
    "dataDate": "10/18/2025",
    "capacity": 6,
    "address": "540 MAYDEE ST",
    "city": "DUARTE",
    "zip": "91010",
    "county": "LOS ANGELES",
    "phone": "(626) 531-6544",
    "lat": 34.124318,
    "lng": -117.995194
  },
  {
    "id": "630027781",
    "name": "PURELIFE HOME HEALTH, INC.",
    "npi": null,
    "hcaiId": null,
    "businessName": "PURELIFE HOME HEALTH INC",
    "contactEmail": "PURELIFEHOMEHEALTHINC@GMAIL.COM",
    "categoryName": "HOME HEALTH AGENCY",
    "categoryCode": "HHA",
    "licenseStatus": "ACTIVE",
    "inService": true,
    "licenseNumber": "550009563",
    "licenseEffectiveDate": "06/10/2025",
    "licenseExpirationDate": "12/09/2025",
    "dataDate": "10/18/2025",
    "capacity": 0,
    "address": "1851 HUNTINGTON DR, UNIT 111",
    "city": "DUARTE",
    "zip": "91010",
    "county": "LOS ANGELES",
    "phone": "(626) 610-6291",
    "lat": 34.13982508,
    "lng": -117.965243
  },
  {
    "id": "950000260",
    "name": "ROYAL OAKS MANOR - BRADBURY OAKS",
    "npi": "1083689848",
    "hcaiId": "206194284",
    "businessName": "HUMANGOOD SOCAL",
    "contactEmail": "TONY.AGONCILLO@HUMANGOOD.ORG",
    "categoryName": "SKILLED NURSING FACILITY",
    "categoryCode": "SNF",
    "licenseStatus": "ACTIVE",
    "inService": true,
    "licenseNumber": "950000121",
    "licenseEffectiveDate": "04/06/2025",
    "licenseExpirationDate": "04/05/2026",
    "dataDate": "10/18/2025",
    "capacity": 48,
    "address": "1763 ROYAL OAKS DR",
    "city": "DUARTE",
    "zip": "91010",
    "county": "LOS ANGELES",
    "phone": "(626) 305-2547",
    "lat": 34.144047,
    "lng": -117.967689
  },
  {
    "id": "950000060",
    "name": "ROYAL TERRACE HEALTH CARE",
    "npi": "1598122038",
    "hcaiId": "206190276",
    "businessName": "ROYAL TERRACE HEALTHCARE, LLC",
    "contactEmail": "SDISNEY@MONROVIAHEALTH.COM",
    "categoryName": "SKILLED NURSING FACILITY",
    "categoryCode": "SNF",
    "licenseStatus": "ACTIVE",
    "inService": true,
    "licenseNumber": "950000041",
    "licenseEffectiveDate": "12/22/2024",
    "licenseExpirationDate": "12/21/2025",
    "dataDate": "10/18/2025",
    "capacity": 58,
    "address": "1340 HIGHLAND AVE",
    "city": "DUARTE",
    "zip": "91010",
    "county": "LOS ANGELES",
    "phone": "(626) 256-4654",
    "lat": 34.137351,
    "lng": -117.9663525
  },
  {
    "id": "630015946",
    "name": "SKYE HEALTHCARE SERVICES, INC.",
    "npi": null,
    "hcaiId": "406195646",
    "businessName": "SKYE HEALTHCARE SERVICES, INC.",
    "contactEmail": "ADMIN@SKYHOSPICE.COM",
    "categoryName": "HOSPICE",
    "categoryCode": "HOSPICE",
    "licenseStatus": "ACTIVE",
    "inService": true,
    "licenseNumber": "550003253",
    "licenseEffectiveDate": "08/27/2023",
    "licenseExpirationDate": "08/26/2025",
    "dataDate": "10/18/2025",
    "capacity": 0,
    "address": "1217 BUENA VISTA ST, SUITE 103-C",
    "city": "DUARTE",
    "zip": "91010",
    "county": "LOS ANGELES",
    "phone": "(626) 522-8488",
    "lat": 34.069113,
    "lng": -118.0708335
  },
  {
    "id": "630020930",
    "name": "SKYE HOME HEALTH",
    "npi": null,
    "hcaiId": "406195943",
    "businessName": "VITAL HEALTH, INC.",
    "contactEmail": "VITALHEALTHINC@YAHOO.COM",
    "categoryName": "HOME HEALTH AGENCY",
    "categoryCode": "HHA",
    "licenseStatus": "ACTIVE",
    "inService": true,
    "licenseNumber": "550006731",
    "licenseEffectiveDate": "07/20/2024",
    "licenseExpirationDate": "07/19/2025",
    "dataDate": "10/18/2025",
    "capacity": 0,
    "address": "1217 BUENA VISTA ST, SUITE 103B",
    "city": "DUARTE",
    "zip": "91010",
    "county": "LOS ANGELES",
    "phone": "(626) 850-5060",
    "lat": 34.13904798,
    "lng": -117.977908
  },
  {
    "id": "980002443",
    "name": "TRUE CARE HOME HEALTH AGENCY, INC.",
    "npi": "1750456786",
    "hcaiId": "406196484",
    "businessName": "TRUE CARE HOME HEALTH AGENCY, INC.",
    "contactEmail": "TRUECAREHOMEHEALTH@YAHOO.COM",
    "categoryName": "HOME HEALTH AGENCY",
    "categoryCode": "HHA",
    "licenseStatus": "ACTIVE",
    "inService": true,
    "licenseNumber": "980001549",
    "licenseEffectiveDate": "06/14/2025",
    "licenseExpirationDate": "06/13/2026",
    "dataDate": "10/18/2025",
    "capacity": 0,
    "address": "1755 HUNTINGTON DR, SUITE 201",
    "city": "DUARTE",
    "zip": "91010",
    "county": "LOS ANGELES",
    "phone": "(626) 301-0710",
    "lat": 34.139925,
    "lng": -117.966933
  }
]