[
  {
    "id": "630021764",
    "name": "AA FAMILY HOSPICE INC.",
    "npi": null,
    "hcaiId": "406193299",
    "businessName": "AA FAMILY HOSPICE INC.",
    "contactEmail": "AAFAMILYHC@GMAIL.COM",
    "categoryName": "HOSPICE",
    "categoryCode": "HOSPICE",
    "licenseStatus": "ACTIVE",
    "inService": true,
    "licenseNumber": "550007186",
    "licenseEffectiveDate": "05/02/2025",
    "licenseExpirationDate": "11/10/2025",
    "dataDate": "10/18/2025",
    "capacity": 0,
    "address": "4105 OCEAN VIEW BLVD, SUITE D",
    "city": "MONTROSE",
    "zip": "91020",
    "county": "LOS ANGELES",
    "phone": "(818) 260-0096",
    "lat": 34.20984401,
    "lng": -118.22824
  },
  {
    "id": "630017722",
    "name": "ALL FOR HEALTH, HEALTH FOR ALL, INC.",
    "npi": null,
    "hcaiId": "306190381",
    "businessName": "ALL FOR HEALTH, HEALTH FOR ALL, INC.",
    "contactEmail": "HISRAELIAN@ALL4HEALTH.ORG",
    "categoryName": "PRIMARY CARE CLINIC",
    "categoryCode": "COMTYC",
    "licenseStatus": "ACTIVE",
    "inService": true,
    "licenseNumber": "550004255",
    "licenseEffectiveDate": "05/12/2025",
    "licenseExpirationDate": "05/11/2026",
    "dataDate": "10/18/2025",
    "capacity": 0,
    "address": "2048 MONTROSE AVE",
    "city": "MONTROSE",
    "zip": "91020",
    "county": "LOS ANGELES",
    "phone": "(818) 957-2224",
    "lat": 34.206003,
    "lng": -118.2250845
  },
  {
    "id": "630018996",
    "name": "AVME HOSPICE CARE",
    "npi": "1740849538",
    "hcaiId": "406191848",
    "businessName": "AVME HOSPICE CARE",
    "contactEmail": "AVMEHOSPICE@GMAIL.COM",
    "categoryName": "HOSPICE",
    "categoryCode": "HOSPICE",
    "licenseStatus": "ACTIVE",
    "inService": true,
    "licenseNumber": "550005056",
    "licenseEffectiveDate": "06/03/2021",
    "licenseExpirationDate": "10/31/2021",
    "dataDate": "10/18/2025",
    "capacity": 0,
    "address": "3718 CLIFTON PL",
    "city": "MONTROSE",
    "zip": "91020",
    "county": "LOS ANGELES",
    "phone": "(747) 267-7177",
    "lat": 34.203744,
    "lng": -118.22373
  },
  {
    "id": "630019532",
    "name": "CATALIA HOSPICE, INC",
    "npi": null,
    "hcaiId": "406192590",
    "businessName": "CATALIA HOSPICE, INC",
    "contactEmail": "CATALIAHOSPICE@YAHOO.COM",
    "categoryName": "HOSPICE",
    "categoryCode": "HOSPICE",
    "licenseStatus": "ACTIVE",
    "inService": true,
    "licenseNumber": "550005345",
    "licenseEffectiveDate": "02/11/2024",
    "licenseExpirationDate": "02/10/2026",
    "dataDate": "10/18/2025",
    "capacity": 0,
    "address": "2609 HONOLULU AVE, SUITE 203",
    "city": "MONTROSE",
    "zip": "91020",
    "county": "LOS ANGELES",
    "phone": "(818) 864-6533",
    "lat": 34.20892401,
    "lng": -118.235546
  },
  {
    "id": "630025981",
    "name": "DAHLIA HOME HEALTH CARE INC.",
    "npi": null,
    "hcaiId": "406190333",
    "businessName": "DAHLIA HOME HEALTH CARE INC.",
    "contactEmail": "DAHLIAHHCI@GMAIL.COM",
    "categoryName": "HOME HEALTH AGENCY",
    "categoryCode": "HHA",
    "licenseStatus": "ACTIVE",
    "inService": true,
    "licenseNumber": "550009079",
    "licenseEffectiveDate": "10/15/2024",
    "licenseExpirationDate": "04/14/2025",
    "dataDate": "10/18/2025",
    "capacity": 0,
    "address": "2550 HONOLULU AVE, SUITE 205",
    "city": "MONTROSE",
    "zip": "91020",
    "county": "LOS ANGELES",
    "phone": "(747) 255-1310",
    "lat": 34.207974,
    "lng": -118.2350565
  },
  {
    "id": "630015662",
    "name": "DAHLIA PALLIATIVE AND HOSPICE CARE",
    "npi": null,
    "hcaiId": "406198437",
    "businessName": "GODBLESS HOSPICE CARE, INC.",
    "contactEmail": "DAHLIACARE@YAHOO.COM",
    "categoryName": "HOSPICE",
    "categoryCode": "HOSPICE",
    "licenseStatus": "ACTIVE",
    "inService": true,
    "licenseNumber": "550003839",
    "licenseEffectiveDate": "03/01/2025",
    "licenseExpirationDate": "02/28/2027",
    "dataDate": "10/18/2025",
    "capacity": 0,
    "address": "2609 HONOLULU AVE, SUITE 201",
    "city": "MONTROSE",
    "zip": "91020",
    "county": "LOS ANGELES",
    "phone": "(818) 452-4486",
    "lat": 34.20897799,
    "lng": -118.235506
  },
  {
    "id": "630022463",
    "name": "FORTUNE HOME HEALTH CARE",
    "npi": null,
    "hcaiId": "406193812",
    "businessName": "FORTUNE HOME HEALTH CARE",
    "contactEmail": "FORTUNEHHCARE@GMAIL.COM",
    "categoryName": "HOME HEALTH AGENCY",
    "categoryCode": "HHA",
    "licenseStatus": "ACTIVE",
    "inService": true,
    "licenseNumber": "550007253",
    "licenseEffectiveDate": "02/01/2025",
    "licenseExpirationDate": "11/28/2025",
    "dataDate": "10/18/2025",
    "capacity": 0,
    "address": "2331 HONOLULU AVE, SUITE E",
    "city": "MONTROSE",
    "zip": "91020",
    "county": "LOS ANGELES",
    "phone": "(310) 948-9141",
    "lat": 34.20621502,
    "lng": -118.229291
  },
  {
    "id": "630019718",
    "name": "HEPIUS HOME HEALTH CARE GROUP",
    "npi": null,
    "hcaiId": "406193043",
    "businessName": "HEPIUS HOME HEALTH CARE GROUP",
    "contactEmail": "HEPIUSHOMEHEALTHCARE@GMAIL.COM",
    "categoryName": "HOME HEALTH AGENCY",
    "categoryCode": "HHA",
    "licenseStatus": "ACTIVE",
    "inService": true,
    "licenseNumber": "550006149",
    "licenseEffectiveDate": "03/20/2025",
    "licenseExpirationDate": "03/19/2026",
    "dataDate": "10/18/2025",
    "capacity": 0,
    "address": "2652 HONOLULU AVE, 1/2",
    "city": "MONTROSE",
    "zip": "91020",
    "county": "LOS ANGELES",
    "phone": "(818) 302-0816",
    "lat": 34.209495,
    "lng": -118.237473
  },
  {
    "id": "630025982",
    "name": "KAMILLIA HOME HEALTH INC.",
    "npi": null,
    "hcaiId": null,
    "businessName": "KAMILLIA HOME HEALTH INC.",
    "contactEmail": "KAMILLIAHHI@GMAIL.COM",
    "categoryName": "HOME HEALTH AGENCY",
    "categoryCode": "HHA",
    "licenseStatus": "ACTIVE",
    "inService": true,
    "licenseNumber": "550009268",
    "licenseEffectiveDate": "01/29/2025",
    "licenseExpirationDate": "07/28/2025",
    "dataDate": "10/18/2025",
    "capacity": 0,
    "address": "2550 HONOLULU AVE, SUITE 204A",
    "city": "MONTROSE",
    "zip": "91020",
    "county": "LOS ANGELES",
    "phone": "(747) 399-5818",
    "lat": 34.207974,
    "lng": -118.2350565
  },
  {
    "id": "630021002",
    "name": "LA CRESCENTA HOSPICE, INC.",
    "npi": null,
    "hcaiId": "406193630",
    "businessName": "LA CRESCENTA HOSPICE, INC.",
    "contactEmail": "LACRESCENTAHOSP@GMAIL.COM",
    "categoryName": "HOSPICE",
    "categoryCode": "HOSPICE",
    "licenseStatus": "ACTIVE",
    "inService": true,
    "licenseNumber": "550006454",
    "licenseEffectiveDate": "06/21/2023",
    "licenseExpirationDate": "06/20/2025",
    "dataDate": "10/18/2025",
    "capacity": 0,
    "address": "2233 HONOLULU AVE, UNIT 206",
    "city": "MONTROSE",
    "zip": "91020",
    "county": "LOS ANGELES",
    "phone": "(818) 232-7108",
    "lat": 34.205499,
    "lng": -118.22616
  },
  {
    "id": "630020863",
    "name": "LIFESPRING HOME HEALTH INC",
    "npi": null,
    "hcaiId": "406193457",
    "businessName": "LIFESPRING HOME HEALTH INC.",
    "contactEmail": "LIFESPRINGHHC@GMAIL.COM",
    "categoryName": "HOME HEALTH AGENCY",
    "categoryCode": "HHA",
    "licenseStatus": "ACTIVE",
    "inService": true,
    "licenseNumber": "550006435",
    "licenseEffectiveDate": "06/21/2025",
    "licenseExpirationDate": "06/20/2026",
    "dataDate": "10/18/2025",
    "capacity": 0,
    "address": "2233 HONOLULU AVE, UNIT 304",
    "city": "MONTROSE",
    "zip": "91020",
    "county": "LOS ANGELES",
    "phone": "(818) 855-9613",
    "lat": 34.205499,
    "lng": -118.22616
  },
  {
    "id": "630016378",
    "name": "MILLENNIUM HEALTHCARE SERVICES, INC.",
    "npi": null,
    "hcaiId": "406192989",
    "businessName": "MILLENNIUM HEALTHCARE SERVICES, INC.",
    "contactEmail": "OFFICE@MILLENNIUMHEALTH.US",
    "categoryName": "HOME HEALTH AGENCY",
    "categoryCode": "HHA",
    "licenseStatus": "ACTIVE",
    "inService": true,
    "licenseNumber": "550005858",
    "licenseEffectiveDate": "11/07/2025",
    "licenseExpirationDate": "11/06/2026",
    "dataDate": "10/18/2025",
    "capacity": 0,
    "address": "2349 HONOLULU AVE, UNIT B",
    "city": "MONTROSE",
    "zip": "91020",
    "county": "LOS ANGELES",
    "phone": "(818) 493-9999",
    "lat": 34.20648,
    "lng": -118.22985
  },
  {
    "id": "630014730",
    "name": "MONTROSE COMFORT LIVING AND CARE, INC.",
    "npi": null,
    "hcaiId": "206190020",
    "businessName": "MONTROSE COMFORT LIVING AND CARE, INC.",
    "contactEmail": "MONTROSECOMFORTLIVING@GMAIL.COM",
    "categoryName": "CONGREGATE LIVING HEALTH FACILITY",
    "categoryCode": "CLHF",
    "licenseStatus": "ACTIVE",
    "inService": true,
    "licenseNumber": "550004057",
    "licenseEffectiveDate": "11/14/2025",
    "licenseExpirationDate": "11/13/2026",
    "dataDate": "10/18/2025",
    "capacity": 6,
    "address": "4339 BRIGGS AVE.",
    "city": "MONTROSE",
    "zip": "91020",
    "county": "LOS ANGELES",
    "phone": "(818) 275-3217",
    "lat": 34.215399,
    "lng": -118.231056
  },
  {
    "id": "920000028",
    "name": "MONTROSE HEALTHCARE CENTER",
    "npi": "1194897363",
    "hcaiId": "206190549",
    "businessName": "MONTROSE HEALTHCARE, INC.",
    "contactEmail": "FAC54ADMIN@LONGWOODMGMT.COM",
    "categoryName": "SKILLED NURSING FACILITY",
    "categoryCode": "SNF",
    "licenseStatus": "ACTIVE",
    "inService": true,
    "licenseNumber": "920000049",
    "licenseEffectiveDate": "11/01/2025",
    "licenseExpirationDate": "10/31/2026",
    "dataDate": "10/18/2025",
    "capacity": 59,
    "address": "2123 VERDUGO BLVD",
    "city": "MONTROSE",
    "zip": "91020",
    "county": "LOS ANGELES",
    "phone": "(818) 249-3925",
    "lat": 34.205265,
    "lng": -118.2240495
  },
  {
    "id": "920000027",
    "name": "MONTROSE SPRINGS SKILLED NURSING & WELLNESS CENTER",
    "npi": "1447444856",
    "hcaiId": "206190448",
    "businessName": "VERDUGO VALLEY SKILLED NURSING & WELLNESS CENTRE, LLC",
    "contactEmail": "FACILITYLICENSING@ROCKPORTHC.COM",
    "categoryName": "SKILLED NURSING FACILITY",
    "categoryCode": "SNF",
    "licenseStatus": "ACTIVE",
    "inService": true,
    "licenseNumber": "920000044",
    "licenseEffectiveDate": "11/16/2024",
    "licenseExpirationDate": "11/15/2025",
    "dataDate": "10/18/2025",
    "capacity": 138,
    "address": "2635 HONOLULU AVE",
    "city": "MONTROSE",
    "zip": "91020",
    "county": "LOS ANGELES",
    "phone": "(818) 248-6856",
    "lat": 34.209792,
    "lng": -118.236609
  },
  {
    "id": "980001747",
    "name": "NEW DIMENSION HOME CARE, INC.",
    "npi": "1568404879",
    "hcaiId": "406196587",
    "businessName": "NEW DIMENSION HOME CARE, INC.",
    "contactEmail": "ANI@DIMENSIONHH.COM",
    "categoryName": "HOME HEALTH AGENCY",
    "categoryCode": "HHA",
    "licenseStatus": "ACTIVE",
    "inService": true,
    "licenseNumber": "980001025",
    "licenseEffectiveDate": "03/13/2025",
    "licenseExpirationDate": "03/12/2026",
    "dataDate": "10/18/2025",
    "capacity": 0,
    "address": "2490 HONOLULU AVE, SUITE 120",
    "city": "MONTROSE",
    "zip": "91020",
    "county": "LOS ANGELES",
    "phone": "(626) 281-6400",
    "lat": 34.20719329,
    "lng": -118.2329843
  },
  {
    "id": "630025736",
    "name": "NOAH HOME HEALTH, INC",
    "npi": null,
    "hcaiId": null,
    "businessName": "NOAH HOME HEALTH, INC",
    "contactEmail": "4NOAHHOMEHEALTH@GMAIL.COM",
    "categoryName": "HOME HEALTH AGENCY",
    "categoryCode": "HHA",
    "licenseStatus": "ACTIVE",
    "inService": true,
    "licenseNumber": "550009235",
    "licenseEffectiveDate": "05/24/2025",
    "licenseExpirationDate": "05/23/2026",
    "dataDate": "10/18/2025",
    "capacity": 0,
    "address": "2233 HONOLULU AVE, SUITE 209",
    "city": "MONTROSE",
    "zip": "91020",
    "county": "LOS ANGELES",
    "phone": "(818) 369-7434",
    "lat": 34.205499,
    "lng": -118.22616
  },
  {
    "id": "630020539",
    "name": "NOVA MED HOME HEALTH",
    "npi": null,
    "hcaiId": "406194737",
    "businessName": "NOVA MED HOME HEALTH",
    "contactEmail": "NOVAMEDHHC@GMAIL.COM",
    "categoryName": "HOME HEALTH AGENCY",
    "categoryCode": "HHA",
    "licenseStatus": "ACTIVE",
    "inService": true,
    "licenseNumber": "550005959",
    "licenseEffectiveDate": "01/08/2025",
    "licenseExpirationDate": "01/07/2026",
    "dataDate": "10/18/2025",
    "capacity": 0,
    "address": "2550 HONOLULU AVE, SUITE 102",
    "city": "MONTROSE",
    "zip": "91020",
    "county": "LOS ANGELES",
    "phone": "(818) 383-8042",
    "lat": 34.207974,
    "lng": -118.2350565
  },
  {
    "id": "630022126",
    "name": "RAPID HOSPICE CARE, INC.",
    "npi": null,
    "hcaiId": "406195187",
    "businessName": "RAPID HOSPICE CARE, INC.",
    "contactEmail": "RAPIDHOSPICECARE@GMAIL.COM",
    "categoryName": "HOSPICE",
    "categoryCode": "HOSPICE",
    "licenseStatus": "ACTIVE",
    "inService": true,
    "licenseNumber": "550007554",
    "licenseEffectiveDate": "12/16/2023",
    "licenseExpirationDate": "12/15/2025",
    "dataDate": "10/18/2025",
    "capacity": 0,
    "address": "2654 HONOLULU AVE, SUITE A",
    "city": "MONTROSE",
    "zip": "91020",
    "county": "LOS ANGELES",
    "phone": "(323) 591-2675",
    "lat": 34.20960066,
    "lng": -118.2371633
  },
  {
    "id": "630021008",
    "name": "SERENITY HOSPICE LA LLC",
    "npi": null,
    "hcaiId": "406195269",
    "businessName": "SERENITY HOSPICE LA LLC",
    "contactEmail": "SNIELSEN@SUNCRESTCARE.COM",
    "categoryName": "HOSPICE",
    "categoryCode": "HOSPICE",
    "licenseStatus": "ACTIVE",
    "inService": true,
    "licenseNumber": "550006354",
    "licenseEffectiveDate": "10/11/2023",
    "licenseExpirationDate": "05/26/2025",
    "dataDate": "10/18/2025",
    "capacity": 0,
    "address": "2233 HONOLULU AVE, UNIT 303",
    "city": "MONTROSE",
    "zip": "91020",
    "county": "LOS ANGELES",
    "phone": "(801) 656-5800",
    "lat": 34.205499,
    "lng": -118.22616
  },
  {
    "id": "630013738",
    "name": "TARLANI HEALTHCARE",
    "npi": "1194099127",
    "hcaiId": "406197898",
    "businessName": "TARLANI CORP.",
    "contactEmail": "PR@TARLANI.COM",
    "categoryName": "HOME HEALTH AGENCY",
    "categoryCode": "HHA",
    "licenseStatus": "ACTIVE",
    "inService": true,
    "licenseNumber": "550002381",
    "licenseEffectiveDate": "08/15/2025",
    "licenseExpirationDate": "08/14/2026",
    "dataDate": "10/18/2025",
    "capacity": 0,
    "address": "2347 HONOLULU AVE",
    "city": "MONTROSE",
    "zip": "91020",
    "county": "LOS ANGELES",
    "phone": "(818) 241-4444",
    "lat": 34.20648,
    "lng": -118.22985
  },
  {
    "id": "630018449",
    "name": "TARLANI HEALTHCARE",
    "npi": null,
    "hcaiId": "406190251",
    "businessName": "TARLANI CORP.",
    "contactEmail": "OFFICE@TARIANI.COM",
    "categoryName": "HOSPICE",
    "categoryCode": "HOSPICE",
    "licenseStatus": "ACTIVE",
    "inService": true,
    "licenseNumber": "550005805",
    "licenseEffectiveDate": "09/30/2024",
    "licenseExpirationDate": "09/29/2026",
    "dataDate": "10/18/2025",
    "capacity": 0,
    "address": "2351 HONOLULU AVE",
    "city": "MONTROSE",
    "zip": "91020",
    "county": "LOS ANGELES",
    "phone": "(909) 777-9999",
    "lat": 34.206543,
    "lng": -118.2299985
  },
  {
    "id": "630025963",
    "name": "TRIANGLE HOME HEALTH",
    "npi": null,
    "hcaiId": null,
    "businessName": "TRIANGLE HOME HEALTH INC.",
    "contactEmail": "TRIANGLEHHI@GMAIL.COM",
    "categoryName": "HOME HEALTH AGENCY",
    "categoryCode": "HHA",
    "licenseStatus": "ACTIVE",
    "inService": true,
    "licenseNumber": "550009576",
    "licenseEffectiveDate": "05/04/2025",
    "licenseExpirationDate": "11/03/2025",
    "dataDate": "10/18/2025",
    "capacity": 0,
    "address": "2550 HONOLULU AVE, SUITE 205 A",
    "city": "MONTROSE",
    "zip": "91020",
    "county": "LOS ANGELES",
    "phone": "(747) 895-5239",
    "lat": 34.207974,
    "lng": -118.2350565
  },
  {
    "id": "630007725",
    "name": "WELLNESS HOME HEALTH CARE, INC.",
    "npi": "1689753170",
    "hcaiId": "406196926",
    "businessName": "WELLNESS HOME HEALTH CARE, INC.",
    "contactEmail": "WELLNESSHOMEHEALTHCARE@YAHOO.COM",
    "categoryName": "HOME HEALTH AGENCY",
    "categoryCode": "HHA",
    "licenseStatus": "ACTIVE",
    "inService": true,
    "licenseNumber": "550000345",
    "licenseEffectiveDate": "10/10/2025",
    "licenseExpirationDate": "10/09/2026",
    "dataDate": "10/18/2025",
    "capacity": 0,
    "address": "2550 HONOLULU AVE, SUITE 206",
    "city": "MONTROSE",
    "zip": "91020",
    "county": "LOS ANGELES",
    "phone": "(818) 638-8767",
    "lat": 34.207987,
    "lng": -118.235032
  }
]