[
  {
    "id": "630020822",
    "name": "ANGEL ANASTASIA HOSPICE",
    "npi": null,
    "hcaiId": "406196662",
    "businessName": "ANGEL ANASTASIA HOSPICE",
    "contactEmail": "ANGELANASTASIAHOSPICE@GMAIL.COM",
    "categoryName": "HOSPICE",
    "categoryCode": "HOSPICE",
    "licenseStatus": "ACTIVE",
    "inService": true,
    "licenseNumber": "550006288",
    "licenseEffectiveDate": "05/14/2025",
    "licenseExpirationDate": "05/13/2027",
    "dataDate": "10/18/2025",
    "capacity": 0,
    "address": "2130 HUNTINGTON DR, SUITE 201",
    "city": "SOUTH PASADENA",
    "zip": "91030",
    "county": "LOS ANGELES",
    "phone": "(818) 334-0303",
    "lat": 34.106382,
    "lng": -118.136007
  },
  {
    "id": "980002245",
    "name": "INNOVATIVE HOME HEALTH CARE",
    "npi": "1558381095",
    "hcaiId": "406196286",
    "businessName": "RAAS, INC",
    "contactEmail": "INFO@INNOVATIVEHHCARE.COM",
    "categoryName": "HOME HEALTH AGENCY",
    "categoryCode": "HHA",
    "licenseStatus": "ACTIVE",
    "inService": true,
    "licenseNumber": "980001363",
    "licenseEffectiveDate": "07/20/2025",
    "licenseExpirationDate": "07/19/2026",
    "dataDate": "10/18/2025",
    "capacity": 0,
    "address": "266 MONTEREY ROAD, SUITE E",
    "city": "SOUTH PASADENA",
    "zip": "91030",
    "county": "LOS ANGELES",
    "phone": "(323) 340-1415",
    "lat": 34.111737,
    "lng": -118.170198
  },
  {
    "id": "970000077",
    "name": "SOUTH PASADENA CARE CENTER",
    "npi": "1134505720",
    "hcaiId": "206190738",
    "businessName": "SOUTH PASADENA CARE CENTER, LLC",
    "contactEmail": "ADMINISTRATOR@SOUTHPASCARE.COM",
    "categoryName": "SKILLED NURSING FACILITY",
    "categoryCode": "SNF",
    "licenseStatus": "ACTIVE",
    "inService": true,
    "licenseNumber": "970000038",
    "licenseEffectiveDate": "11/23/2024",
    "licenseExpirationDate": "11/22/2025",
    "dataDate": "10/18/2025",
    "capacity": 156,
    "address": "904 MISSION ST",
    "city": "SOUTH PASADENA",
    "zip": "91030",
    "county": "LOS ANGELES",
    "phone": "(626) 399-0358",
    "lat": 34.116129,
    "lng": -118.1581065
  },
  {
    "id": "630013517",
    "name": "TRADITIONS HEALTH",
    "npi": "1093085102",
    "hcaiId": "406197749",
    "businessName": "PLACID PATH HOSPICE, LLC",
    "contactEmail": "ERIC.MCCLELLAN@TRADITIONSHEALTH.COM",
    "categoryName": "HOSPICE",
    "categoryCode": "HOSPICE",
    "licenseStatus": "ACTIVE",
    "inService": true,
    "licenseNumber": "550002105",
    "licenseEffectiveDate": "11/05/2024",
    "licenseExpirationDate": "11/04/2026",
    "dataDate": "10/18/2025",
    "capacity": 0,
    "address": "149 PASADENA AVE, SUITE C",
    "city": "SOUTH PASADENA",
    "zip": "91030",
    "county": "LOS ANGELES",
    "phone": "(818) 290-3063",
    "lat": 34.11187146,
    "lng": -118.1734404
  }
]