[
  {
    "id": "630016549",
    "name": "ACTIVE HEALTH CARE, INC.",
    "npi": "1225494370",
    "hcaiId": "406190920",
    "businessName": "ACTIVE HEALTH CARE, INC.",
    "contactEmail": "ACTIVEHEALTHCARE123@YAHOO.COM",
    "categoryName": "HOME HEALTH AGENCY",
    "categoryCode": "HHA",
    "licenseStatus": "ACTIVE",
    "inService": true,
    "licenseNumber": "550004276",
    "licenseEffectiveDate": "06/04/2025",
    "licenseExpirationDate": "06/03/2026",
    "dataDate": "10/18/2025",
    "capacity": 0,
    "address": "8337 FOOTHILL BLVD., SUITE C",
    "city": "SUNLAND",
    "zip": "91040",
    "county": "LOS ANGELES",
    "phone": "(818) 273-9812",
    "lat": 34.259859,
    "lng": -118.3146705
  },
  {
    "id": "630017788",
    "name": "ACUTE HOSPICE CARE, INC.",
    "npi": "1013415140",
    "hcaiId": "406192669",
    "businessName": "ACUTE HOSPICE CARE, INC.",
    "contactEmail": "ACUTEHOSPICECARE@GMAIL.COM",
    "categoryName": "HOSPICE",
    "categoryCode": "HOSPICE",
    "licenseStatus": "ACTIVE",
    "inService": true,
    "licenseNumber": "550005530",
    "licenseEffectiveDate": "06/10/2024",
    "licenseExpirationDate": "06/09/2026",
    "dataDate": "10/18/2025",
    "capacity": 0,
    "address": "8138 FOOTHILL BLVD, SUITE 320",
    "city": "SUNLAND",
    "zip": "91040",
    "county": "LOS ANGELES",
    "phone": "(818) 875-4215",
    "lat": 34.258941,
    "lng": -118.3106475
  },
  {
    "id": "630021071",
    "name": "ALESYA HOSPICE, INC.",
    "npi": null,
    "hcaiId": "406193625",
    "businessName": "ALESYA HOSPICE, INC.",
    "contactEmail": "ALESYAHOSPICE@GMAIL.COM",
    "categoryName": "HOSPICE",
    "categoryCode": "HOSPICE",
    "licenseStatus": "ACTIVE",
    "inService": true,
    "licenseNumber": "550006926",
    "licenseEffectiveDate": "09/29/2023",
    "licenseExpirationDate": "09/28/2025",
    "dataDate": "10/18/2025",
    "capacity": 0,
    "address": "8121 FOOTHILL BLVD",
    "city": "SUNLAND",
    "zip": "91040",
    "county": "LOS ANGELES",
    "phone": "(626) 741-1880",
    "lat": 34.259841,
    "lng": -118.3098285
  },
  {
    "id": "630014862",
    "name": "ALL FOR HEALTH, HEALTH FOR ALL, INC.",
    "npi": "1710318878",
    "hcaiId": "306197953",
    "businessName": "ALL FOR HEALTH, HEALTH FOR ALL, INC.",
    "contactEmail": "HISRAELIAN@ALL4HEALTH.ORG",
    "categoryName": "PRIMARY CARE CLINIC",
    "categoryCode": "COMTYC",
    "licenseStatus": "ACTIVE",
    "inService": true,
    "licenseNumber": "550002827",
    "licenseEffectiveDate": "09/30/2025",
    "licenseExpirationDate": "09/29/2026",
    "dataDate": "10/18/2025",
    "capacity": 0,
    "address": "8134 FOOTHILL BLVD",
    "city": "SUNLAND",
    "zip": "91040",
    "county": "LOS ANGELES",
    "phone": "(818) 409-3020",
    "lat": 34.259499,
    "lng": -118.310454
  },
  {
    "id": "630021446",
    "name": "ALLAY HOSPICE CARE, INC.",
    "npi": null,
    "hcaiId": "406193883",
    "businessName": "ALLAY HOSPICE CARE, INC.",
    "contactEmail": "ALLAYHOSPICECARE@GMAIL.COM",
    "categoryName": "HOSPICE",
    "categoryCode": "HOSPICE",
    "licenseStatus": "ACTIVE",
    "inService": true,
    "licenseNumber": "550007303",
    "licenseEffectiveDate": "11/24/2023",
    "licenseExpirationDate": "11/23/2025",
    "dataDate": "10/18/2025",
    "capacity": 0,
    "address": "7840 FOOTHILL BLVD, SUITE F",
    "city": "SUNLAND",
    "zip": "91040",
    "county": "LOS ANGELES",
    "phone": "(818) 212-2955",
    "lat": 34.259583,
    "lng": -118.304001
  },
  {
    "id": "630020521",
    "name": "ALLEVIATE HOSPICE, INC.",
    "npi": null,
    "hcaiId": "406196041",
    "businessName": "ALLEVIATE HOSPICE INC",
    "contactEmail": "ALLEVIATEHOSPICEINC@GMAIL.COM",
    "categoryName": "HOSPICE",
    "categoryCode": "HOSPICE",
    "licenseStatus": "ACTIVE",
    "inService": true,
    "licenseNumber": "550006041",
    "licenseEffectiveDate": "02/10/2025",
    "licenseExpirationDate": "02/09/2027",
    "dataDate": "10/18/2025",
    "capacity": 0,
    "address": "8138 FOOTHILL BLVD, SUITE 210",
    "city": "SUNLAND",
    "zip": "91040",
    "county": "LOS ANGELES",
    "phone": "(818) 875-4203",
    "lat": 34.258941,
    "lng": -118.3106475
  },
  {
    "id": "980002268",
    "name": "BILLET HOME HEALTH - LOS ANGELES",
    "npi": "1013916063",
    "hcaiId": "406196277",
    "businessName": "FOUNTAIN HOME HEALTH, INC.",
    "contactEmail": "INFO@BILLETHEALTH.COM",
    "categoryName": "HOME HEALTH AGENCY",
    "categoryCode": "HHA",
    "licenseStatus": "ACTIVE",
    "inService": true,
    "licenseNumber": "980001383",
    "licenseEffectiveDate": "11/12/2025",
    "licenseExpirationDate": "11/11/2026",
    "dataDate": "10/18/2025",
    "capacity": 0,
    "address": "8349 FOOTHILL BLVD, SUITE B",
    "city": "SUNLAND",
    "zip": "91040",
    "county": "LOS ANGELES",
    "phone": "(323) 663-8411",
    "lat": 34.25999599,
    "lng": -118.315253
  },
  {
    "id": "630027180",
    "name": "BRIGHT MOON HOME HEALTH CARE",
    "npi": null,
    "hcaiId": null,
    "businessName": "BRIGHT MOON HOME HEALTH CARE",
    "contactEmail": "CONTACT@BRIGHTMOONHHA.COM",
    "categoryName": "HOME HEALTH AGENCY",
    "categoryCode": "HHA",
    "licenseStatus": "ACTIVE",
    "inService": true,
    "licenseNumber": "550009737",
    "licenseEffectiveDate": "09/06/2025",
    "licenseExpirationDate": "03/05/2026",
    "dataDate": "10/18/2025",
    "capacity": 0,
    "address": "8315 FOOTHILL BLVD, SUITE B",
    "city": "SUNLAND",
    "zip": "91040",
    "county": "LOS ANGELES",
    "phone": "(818) 208-7979",
    "lat": 34.260206,
    "lng": -118.313872
  },
  {
    "id": "630021468",
    "name": "CALIFORNIA HOSPICE CARE CENTER",
    "npi": null,
    "hcaiId": "406193719",
    "businessName": "CALIFORNIA HOSPICE CARE CENTER",
    "contactEmail": "CALIFORNIAHOSPICECC@GMAIL.COM",
    "categoryName": "HOSPICE",
    "categoryCode": "HOSPICE",
    "licenseStatus": "ACTIVE",
    "inService": true,
    "licenseNumber": "550006696",
    "licenseEffectiveDate": "08/13/2025",
    "licenseExpirationDate": "08/12/2027",
    "dataDate": "10/18/2025",
    "capacity": 0,
    "address": "8138 FOOTHILL BLVD, SUITE 320B",
    "city": "SUNLAND",
    "zip": "91040",
    "county": "LOS ANGELES",
    "phone": "(818) 290-3403",
    "lat": 34.25894398,
    "lng": -118.310661
  },
  {
    "id": "960002096",
    "name": "CANYON HOME II",
    "npi": "1013063841",
    "hcaiId": null,
    "businessName": "CANYON HOMES, INC.",
    "contactEmail": "CYNHOMES@AOL.COM",
    "categoryName": "INTERMEDIATE CARE FACILITY-DD/H/N/CN/IID",
    "categoryCode": "ICFDDH",
    "licenseStatus": "ACTIVE",
    "inService": true,
    "licenseNumber": "960001001",
    "licenseEffectiveDate": "04/23/2025",
    "licenseExpirationDate": "04/22/2026",
    "dataDate": "10/18/2025",
    "capacity": 6,
    "address": "8611 WENTWORTH ST",
    "city": "SUNLAND",
    "zip": "91040",
    "county": "LOS ANGELES",
    "phone": "(818) 353-8214",
    "lat": 34.267212,
    "lng": -118.3205475
  },
  {
    "id": "960002291",
    "name": "CANYON HOME III",
    "npi": "1669527941",
    "hcaiId": null,
    "businessName": "CANYON HOMES, INC.",
    "contactEmail": "CYNHOMES@AOL.COM",
    "categoryName": "INTERMEDIATE CARE FACILITY-DD/H/N/CN/IID",
    "categoryCode": "ICFDDH",
    "licenseStatus": "ACTIVE",
    "inService": true,
    "licenseNumber": "960001061",
    "licenseEffectiveDate": "03/29/2025",
    "licenseExpirationDate": "03/28/2026",
    "dataDate": "10/18/2025",
    "capacity": 6,
    "address": "11110 LANGMUIR AVE",
    "city": "SUNLAND",
    "zip": "91040",
    "county": "LOS ANGELES",
    "phone": "(818) 321-6341",
    "lat": 34.27092,
    "lng": -118.3089645
  },
  {
    "id": "630015904",
    "name": "CARE FOR ALL HOME HEALTH CARE, INC.",
    "npi": "1881087013",
    "hcaiId": "406198387",
    "businessName": "CARE FOR ALL HOME HEALTH CARE, INC.",
    "contactEmail": "CAREFORALLHOMEHEALTH@YAHOO.COM",
    "categoryName": "HOME HEALTH AGENCY",
    "categoryCode": "HHA",
    "licenseStatus": "ACTIVE",
    "inService": true,
    "licenseNumber": "550003338",
    "licenseEffectiveDate": "12/22/2022",
    "licenseExpirationDate": "12/21/2023",
    "dataDate": "10/18/2025",
    "capacity": 0,
    "address": "7918 1/2 FOOTHILL BLVD",
    "city": "SUNLAND",
    "zip": "91040",
    "county": "LOS ANGELES",
    "phone": "(800) 687-3709",
    "lat": 34.259445,
    "lng": -118.3054455
  },
  {
    "id": "630027264",
    "name": "COMPREHENSIVE COMMUNITY HEALTH CENTERS, INC - MOBILE CLINIC",
    "npi": null,
    "hcaiId": null,
    "businessName": "COMPREHENSIVE COMMUNITY HEALTH CENTER, INC.",
    "contactEmail": null,
    "categoryName": "PRIMARY CARE CLINIC",
    "categoryCode": "COMTYC",
    "licenseStatus": "ACTIVE",
    "inService": true,
    "licenseNumber": "550004115",
    "licenseEffectiveDate": "12/12/2024",
    "licenseExpirationDate": "12/11/2025",
    "dataDate": "10/18/2025",
    "capacity": 0,
    "address": "8316 FOOTHILL BLVD",
    "city": "SUNLAND",
    "zip": "91040",
    "county": "LOS ANGELES",
    "phone": null,
    "lat": 34.259414,
    "lng": -118.314342
  },
  {
    "id": "630017165",
    "name": "COMPREHENSIVE COMMUNITY HEALTH CENTERS, INC.",
    "npi": null,
    "hcaiId": "306191327",
    "businessName": "COMPREHENSIVE COMMUNITY HEALTH CENTER, INC.",
    "contactEmail": "DAVIDLO@CCHCCENTERS.ORG",
    "categoryName": "PRIMARY CARE CLINIC",
    "categoryCode": "COMTYC",
    "licenseStatus": "ACTIVE",
    "inService": true,
    "licenseNumber": "550004115",
    "licenseEffectiveDate": "12/12/2024",
    "licenseExpirationDate": "12/11/2025",
    "dataDate": "10/18/2025",
    "capacity": 0,
    "address": "8316 FOOTHILL BLVD",
    "city": "SUNLAND",
    "zip": "91040",
    "county": "LOS ANGELES",
    "phone": "(818) 273-8800",
    "lat": 34.25949,
    "lng": -118.3141215
  },
  {
    "id": "630020789",
    "name": "ESMERALDA HOME HEALTH, INC.",
    "npi": null,
    "hcaiId": "406195386",
    "businessName": "ESMERALDA HOME HEALTH, INC.",
    "contactEmail": "ESMERALDAHOMEHEALTH@GMAIL.COM",
    "categoryName": "HOME HEALTH AGENCY",
    "categoryCode": "HHA",
    "licenseStatus": "ACTIVE",
    "inService": true,
    "licenseNumber": "550006417",
    "licenseEffectiveDate": "06/15/2025",
    "licenseExpirationDate": "06/14/2026",
    "dataDate": "10/18/2025",
    "capacity": 0,
    "address": "8123 FOOTHILL BLVD",
    "city": "SUNLAND",
    "zip": "91040",
    "county": "LOS ANGELES",
    "phone": "(626) 380-1919",
    "lat": 34.259841,
    "lng": -118.3099545
  },
  {
    "id": "630022473",
    "name": "FLINTRIDGE HOSPICE CARE, INC",
    "npi": null,
    "hcaiId": "406195036",
    "businessName": "FLINTRIDGE HOSPICE CARE, INC",
    "contactEmail": "FLINTRIDGEHOSPICECARE@GMAIL.COM",
    "categoryName": "HOSPICE",
    "categoryCode": "HOSPICE",
    "licenseStatus": "ACTIVE",
    "inService": true,
    "licenseNumber": "550007376",
    "licenseEffectiveDate": "10/30/2024",
    "licenseExpirationDate": "12/07/2025",
    "dataDate": "10/18/2025",
    "capacity": 0,
    "address": "7831 FOOTHILL BLVD, SUITE A",
    "city": "SUNLAND",
    "zip": "91040",
    "county": "LOS ANGELES",
    "phone": "(747) 677-8945",
    "lat": 34.259868,
    "lng": -118.303738
  },
  {
    "id": "630025886",
    "name": "FOOTHILL HOME HEALTH SERVICES, INC.",
    "npi": null,
    "hcaiId": null,
    "businessName": "FOOTHILL HOME HEALTH SERVICES, INC.",
    "contactEmail": "FOOTHILLHHS@GMAIL.COM",
    "categoryName": "HOME HEALTH AGENCY",
    "categoryCode": "HHA",
    "licenseStatus": "ACTIVE",
    "inService": true,
    "licenseNumber": "550009989",
    "licenseEffectiveDate": "09/11/2025",
    "licenseExpirationDate": "03/10/2026",
    "dataDate": "10/18/2025",
    "capacity": 0,
    "address": "7840 FOOTHILL BLVD, SUITE E",
    "city": "SUNLAND",
    "zip": "91040",
    "county": "LOS ANGELES",
    "phone": "(323) 410-2112",
    "lat": 34.259265,
    "lng": -118.304019
  },
  {
    "id": "630026382",
    "name": "FOREVER YOUNG CBAS",
    "npi": null,
    "hcaiId": null,
    "businessName": "FOREVER YOUNG CBAS",
    "contactEmail": "FOREVERYOUNGCBAS@GMAIL.COM",
    "categoryName": "ADULT DAY HEALTH CARE",
    "categoryCode": "ADHC",
    "licenseStatus": "ACTIVE",
    "inService": true,
    "licenseNumber": "550008681",
    "licenseEffectiveDate": "08/03/2025",
    "licenseExpirationDate": "08/02/2026",
    "dataDate": "10/18/2025",
    "capacity": 0,
    "address": "8265 FOOTHILL BLVD",
    "city": "SUNLAND",
    "zip": "91040",
    "county": "LOS ANGELES",
    "phone": "(747) 777-7780",
    "lat": 34.260156,
    "lng": -118.31346
  },
  {
    "id": "630020985",
    "name": "GAO HOSPICE CARE, INC.",
    "npi": null,
    "hcaiId": null,
    "businessName": "GAO HOSPICE CARE, INC.",
    "contactEmail": "GAOHOSPICECARE@GMAIL.COM",
    "categoryName": "HOSPICE",
    "categoryCode": "HOSPICE",
    "licenseStatus": "ACTIVE",
    "inService": true,
    "licenseNumber": "550006388",
    "licenseEffectiveDate": "06/02/2023",
    "licenseExpirationDate": "06/01/2025",
    "dataDate": "10/18/2025",
    "capacity": 0,
    "address": "8117 FOOTHILL BLVD",
    "city": "SUNLAND",
    "zip": "91040",
    "county": "LOS ANGELES",
    "phone": "(747) 666-0061",
    "lat": 34.259832,
    "lng": -118.309752
  },
  {
    "id": "630020298",
    "name": "GRACE PALLIATIVE AND HOSPICE CARE",
    "npi": null,
    "hcaiId": "406190268",
    "businessName": "GRACE PALLIATIVE AND HOSPICE CARE",
    "contactEmail": "GRACEHOSPICE2020@GMAIL.COM",
    "categoryName": "HOSPICE",
    "categoryCode": "HOSPICE",
    "licenseStatus": "ACTIVE",
    "inService": true,
    "licenseNumber": "550005939",
    "licenseEffectiveDate": "12/29/2024",
    "licenseExpirationDate": "12/28/2026",
    "dataDate": "10/18/2025",
    "capacity": 0,
    "address": "8119 FOOTHILL BLVD, SUITE 5",
    "city": "SUNLAND",
    "zip": "91040",
    "county": "LOS ANGELES",
    "phone": "(747) 282-1898",
    "lat": 34.259895,
    "lng": -118.309941
  },
  {
    "id": "630025869",
    "name": "GROVE HOME HEALTH, INC.",
    "npi": null,
    "hcaiId": null,
    "businessName": "GROVE HOME HEALTH, INC.",
    "contactEmail": "GROVEHOMEHEALTH@GMAIL.COM",
    "categoryName": "HOME HEALTH AGENCY",
    "categoryCode": "HHA",
    "licenseStatus": "ACTIVE",
    "inService": true,
    "licenseNumber": "550009574",
    "licenseEffectiveDate": "12/20/2024",
    "licenseExpirationDate": "06/19/2025",
    "dataDate": "10/18/2025",
    "capacity": 0,
    "address": "10623 SHERMAN GROVE AVE, UNIT 101",
    "city": "SUNLAND",
    "zip": "91040",
    "county": "LOS ANGELES",
    "phone": "(818) 588-4439",
    "lat": 34.262163,
    "lng": -118.320318
  },
  {
    "id": "920000026",
    "name": "HIGH VALLEY LODGE",
    "npi": "1366517393",
    "hcaiId": "206190370",
    "businessName": "PRN CONVALESCENT HOSPITAL INC.",
    "contactEmail": "ADMIN@HIGHVALLEYCH.COM",
    "categoryName": "SKILLED NURSING FACILITY",
    "categoryCode": "SNF",
    "licenseStatus": "ACTIVE",
    "inService": true,
    "licenseNumber": "920000040",
    "licenseEffectiveDate": "02/08/2025",
    "licenseExpirationDate": "02/07/2026",
    "dataDate": "10/18/2025",
    "capacity": 50,
    "address": "7912 TOPLEY LN",
    "city": "SUNLAND",
    "zip": "91040",
    "county": "LOS ANGELES",
    "phone": "(818) 352-3158",
    "lat": 34.255143,
    "lng": -118.305036
  },
  {
    "id": "630025868",
    "name": "HILLHAVEN HOME HEALTH, INC.",
    "npi": null,
    "hcaiId": null,
    "businessName": "HILLHAVEN HOME HEALTH, INC.",
    "contactEmail": "HILLHAVENHH@GMAIL.COM",
    "categoryName": "HOME HEALTH AGENCY",
    "categoryCode": "HHA",
    "licenseStatus": "ACTIVE",
    "inService": true,
    "licenseNumber": "550009990",
    "licenseEffectiveDate": "09/11/2025",
    "licenseExpirationDate": "03/10/2026",
    "dataDate": "10/18/2025",
    "capacity": 0,
    "address": "7840 FOOTHILL BLVD, SUITE K",
    "city": "SUNLAND",
    "zip": "91040",
    "county": "LOS ANGELES",
    "phone": "(818) 514-0290",
    "lat": 34.259265,
    "lng": -118.304019
  },
  {
    "id": "630027589",
    "name": "INSTANT CARE HOME HEALTH, INC",
    "npi": null,
    "hcaiId": null,
    "businessName": "INSTANT CARE HOME HEALTH, INC",
    "contactEmail": "INSTANTCAREHH@GMAIL.COM",
    "categoryName": "HOME HEALTH AGENCY",
    "categoryCode": "HHA",
    "licenseStatus": "ACTIVE",
    "inService": true,
    "licenseNumber": "550009830",
    "licenseEffectiveDate": "10/11/2025",
    "licenseExpirationDate": "04/10/2026",
    "dataDate": "10/18/2025",
    "capacity": 0,
    "address": "8522 FOOTHILL BLVD, SUITE 204",
    "city": "SUNLAND",
    "zip": "91040",
    "county": "LOS ANGELES",
    "phone": "(818) 813-8534",
    "lat": 34.25938701,
    "lng": -118.318925
  },
  {
    "id": "630020030",
    "name": "INTEGRAL HOSPICE INC.",
    "npi": null,
    "hcaiId": "406196680",
    "businessName": "INTEGRAL HOSPICE INC",
    "contactEmail": "INTEGRALHOSPICE@GMAIL.COM",
    "categoryName": "HOSPICE",
    "categoryCode": "HOSPICE",
    "licenseStatus": "ACTIVE",
    "inService": true,
    "licenseNumber": "550006223",
    "licenseEffectiveDate": "03/16/2025",
    "licenseExpirationDate": "03/15/2027",
    "dataDate": "10/18/2025",
    "capacity": 0,
    "address": "10623 SHERMAN GROVE AVE, UNIT C",
    "city": "SUNLAND",
    "zip": "91040",
    "county": "LOS ANGELES",
    "phone": "(747) 567-0005",
    "lat": 34.262163,
    "lng": -118.320318
  },
  {
    "id": "630026539",
    "name": "LG HEALTHCARE SERVICES",
    "npi": null,
    "hcaiId": null,
    "businessName": null,
    "contactEmail": null,
    "categoryName": "HOME HEALTH AGENCY",
    "categoryCode": "HHA",
    "licenseStatus": null,
    "inService": null,
    "licenseNumber": null,
    "licenseEffectiveDate": null,
    "licenseExpirationDate": null,
    "dataDate": "10/18/2025",
    "capacity": 0,
    "address": "8138 FOOTHILL BLVD, SUITE 250A",
    "city": "SUNLAND",
    "zip": "91040",
    "county": "LOS ANGELES",
    "phone": "(818) 239-2888",
    "lat": 34.258941,
    "lng": -118.3106475
  },
  {
    "id": "630025562",
    "name": "MAG HOME HEALTH, INC.",
    "npi": null,
    "hcaiId": "406190028",
    "businessName": "MAG HOME HEALTH, INC.",
    "contactEmail": "MAGHOMEHEALTH@YAHOO.COM",
    "categoryName": "HOME HEALTH AGENCY",
    "categoryCode": "HHA",
    "licenseStatus": "ACTIVE",
    "inService": true,
    "licenseNumber": "550008715",
    "licenseEffectiveDate": "07/28/2025",
    "licenseExpirationDate": "07/27/2026",
    "dataDate": "10/18/2025",
    "capacity": 0,
    "address": "8522 FOOTHILL BLVD, SUITE A",
    "city": "SUNLAND",
    "zip": "91040",
    "county": "LOS ANGELES",
    "phone": "(747) 356-4255",
    "lat": 34.259544,
    "lng": -118.3188195
  },
  {
    "id": "630018118",
    "name": "MOUNTAIN VIEW CONGREGATE LIVING, INC.",
    "npi": null,
    "hcaiId": "206190196",
    "businessName": "MOUNTAIN VIEW CONGREGATE LIVING, INC.",
    "contactEmail": "INFO@MOUNTAINVIEWCONGREGATE.COM",
    "categoryName": "CONGREGATE LIVING HEALTH FACILITY",
    "categoryCode": "CLHF",
    "licenseStatus": "ACTIVE",
    "inService": true,
    "licenseNumber": "550005051",
    "licenseEffectiveDate": "11/07/2024",
    "licenseExpirationDate": "11/06/2025",
    "dataDate": "10/18/2025",
    "capacity": 6,
    "address": "9001 RIDERWOOD DR",
    "city": "SUNLAND",
    "zip": "91040",
    "county": "LOS ANGELES",
    "phone": "(818) 644-5964",
    "lat": 34.264917,
    "lng": -118.328121
  },
  {
    "id": "630021974",
    "name": "MY COMFORT CARE HOSPICE, INC.",
    "npi": null,
    "hcaiId": "406190179",
    "businessName": "MY COMFORT CARE HOSPICE, INC.",
    "contactEmail": "INFO@MYCOMFORTCARE.ORG",
    "categoryName": "HOSPICE",
    "categoryCode": "HOSPICE",
    "licenseStatus": "ACTIVE",
    "inService": true,
    "licenseNumber": "550007656",
    "licenseEffectiveDate": "12/16/2023",
    "licenseExpirationDate": "12/15/2025",
    "dataDate": "10/18/2025",
    "capacity": 0,
    "address": "8522 FOOTHILL BLVD, SUITE 208",
    "city": "SUNLAND",
    "zip": "91040",
    "county": "LOS ANGELES",
    "phone": "(818) 776-1111",
    "lat": 34.259544,
    "lng": -118.3188195
  },
  {
    "id": "920000025",
    "name": "NEW VISTA NURSING AND REHABILITATION CENTER",
    "npi": "1154669794",
    "hcaiId": "206190236",
    "businessName": "NEW VISTA NURSING OPERATOR, LLC",
    "contactEmail": "MARK.DONOHOE@NEWVISTANURSINGREHAB.COM",
    "categoryName": "SKILLED NURSING FACILITY",
    "categoryCode": "SNF",
    "licenseStatus": "ACTIVE",
    "inService": true,
    "licenseNumber": "920000027",
    "licenseEffectiveDate": "02/26/2025",
    "licenseExpirationDate": "02/25/2026",
    "dataDate": "10/18/2025",
    "capacity": 121,
    "address": "8647 FENWICK ST",
    "city": "SUNLAND",
    "zip": "91040",
    "county": "LOS ANGELES",
    "phone": "(818) 352-1421",
    "lat": 34.261623,
    "lng": -118.321713
  },
  {
    "id": "630025020",
    "name": "NEWCARE HOME HEALTH, INC.",
    "npi": null,
    "hcaiId": "406196551",
    "businessName": "NEWCARE HOME HEALTH, INC.",
    "contactEmail": "NEWCAREHH2024@YAHOO.COM",
    "categoryName": "HOME HEALTH AGENCY",
    "categoryCode": "HHA",
    "licenseStatus": "ACTIVE",
    "inService": true,
    "licenseNumber": "550008482",
    "licenseEffectiveDate": "04/14/2025",
    "licenseExpirationDate": "04/13/2026",
    "dataDate": "10/18/2025",
    "capacity": 0,
    "address": "8119 FOOTHILL BLVD, SUITE 8",
    "city": "SUNLAND",
    "zip": "91040",
    "county": "LOS ANGELES",
    "phone": "(310) 715-8184",
    "lat": 34.25985,
    "lng": -118.309914
  },
  {
    "id": "630017814",
    "name": "PAX HOME HEALTH",
    "npi": "1417464389",
    "hcaiId": "406191650",
    "businessName": "PAX HOME HEALTH",
    "contactEmail": "PAXHH@YAHOO.COM",
    "categoryName": "HOME HEALTH AGENCY",
    "categoryCode": "HHA",
    "licenseStatus": "ACTIVE",
    "inService": true,
    "licenseNumber": "550004649",
    "licenseEffectiveDate": "04/23/2025",
    "licenseExpirationDate": "04/22/2026",
    "dataDate": "10/18/2025",
    "capacity": 0,
    "address": "9741 WHEATLAND AVE, SUITE 3",
    "city": "SUNLAND",
    "zip": "91040",
    "county": "LOS ANGELES",
    "phone": "(818) 518-1001",
    "lat": 34.246818,
    "lng": -118.357731
  },
  {
    "id": "630016003",
    "name": "PULSE HEALTH FACILITY, INC.",
    "npi": null,
    "hcaiId": "206191356",
    "businessName": "PULSE HEALTH FACILITY, INC.",
    "contactEmail": "ALEX@CONGREGATELIVING.NET",
    "categoryName": "CONGREGATE LIVING HEALTH FACILITY",
    "categoryCode": "CLHF",
    "licenseStatus": "ACTIVE",
    "inService": true,
    "licenseNumber": "550003930",
    "licenseEffectiveDate": "06/23/2024",
    "licenseExpirationDate": "06/22/2025",
    "dataDate": "10/18/2025",
    "capacity": 6,
    "address": "8410 GERNOBLE ST",
    "city": "SUNLAND",
    "zip": "91040",
    "county": "LOS ANGELES",
    "phone": "(818) 799-9999",
    "lat": 34.260219,
    "lng": -118.3162365
  },
  {
    "id": "630021505",
    "name": "PURE QUALITY HOSPICE",
    "npi": null,
    "hcaiId": "406195931",
    "businessName": "PURE QUALITY HOSPICE",
    "contactEmail": "PUREQUALITYHOSPICE@GMAIL.COM",
    "categoryName": "HOSPICE",
    "categoryCode": "HOSPICE",
    "licenseStatus": "ACTIVE",
    "inService": true,
    "licenseNumber": "550006550",
    "licenseEffectiveDate": "01/24/2024",
    "licenseExpirationDate": "07/15/2025",
    "dataDate": "10/18/2025",
    "capacity": 0,
    "address": "8349 FOOTHILL BLVD, SUITE D",
    "city": "SUNLAND",
    "zip": "91040",
    "county": "LOS ANGELES",
    "phone": "(626) 800-0106",
    "lat": 34.25999599,
    "lng": -118.315253
  },
  {
    "id": "630022780",
    "name": "SKYCARE HOSPICE, INC.",
    "npi": null,
    "hcaiId": "406196090",
    "businessName": "SKYCARE HOSPICE, INC.",
    "contactEmail": "SKYCAREHOSPICEINC@GMAIL.COM",
    "categoryName": "HOSPICE",
    "categoryCode": "HOSPICE",
    "licenseStatus": "ACTIVE",
    "inService": true,
    "licenseNumber": "550007536",
    "licenseEffectiveDate": "06/24/2025",
    "licenseExpirationDate": "12/09/2025",
    "dataDate": "10/18/2025",
    "capacity": 0,
    "address": "8138 FOOTHILL BLVD, SUITE 250",
    "city": "SUNLAND",
    "zip": "91040",
    "county": "LOS ANGELES",
    "phone": "(818) 423-3069",
    "lat": 34.25894398,
    "lng": -118.310661
  },
  {
    "id": "630021840",
    "name": "SOCAL DIRECT HOME HEALTH",
    "npi": null,
    "hcaiId": "406195799",
    "businessName": "SOCAL DIRECT HOME HEALTH",
    "contactEmail": "SOCALDIRECTHH@GMAIL.COM",
    "categoryName": "HOME HEALTH AGENCY",
    "categoryCode": "HHA",
    "licenseStatus": "ACTIVE",
    "inService": true,
    "licenseNumber": "550007827",
    "licenseEffectiveDate": "02/01/2025",
    "licenseExpirationDate": "01/31/2026",
    "dataDate": "10/18/2025",
    "capacity": 0,
    "address": "7831 FOOTHILL BLVD, SUITE B",
    "city": "SUNLAND",
    "zip": "91040",
    "county": "LOS ANGELES",
    "phone": "(818) 210-0185",
    "lat": 34.259868,
    "lng": -118.303738
  },
  {
    "id": "060002222",
    "name": "SONAFE CBAS",
    "npi": null,
    "hcaiId": null,
    "businessName": "ABRAMED CORPORATION",
    "contactEmail": "AYEGORYAN@ADHC.ALL4HEALTH.ORG",
    "categoryName": "ADULT DAY HEALTH CARE",
    "categoryCode": "ADHC",
    "licenseStatus": "ACTIVE",
    "inService": true,
    "licenseNumber": "060000904",
    "licenseEffectiveDate": "01/21/2025",
    "licenseExpirationDate": "01/20/2026",
    "dataDate": "10/18/2025",
    "capacity": 0,
    "address": "8134 FOOTHILL BLVD",
    "city": "SUNLAND",
    "zip": "91040",
    "county": "LOS ANGELES",
    "phone": "(818) 875-8366",
    "lat": 34.259499,
    "lng": -118.310454
  },
  {
    "id": "630022975",
    "name": "SUNLIGHT HOMECARE INC.",
    "npi": null,
    "hcaiId": "406195749",
    "businessName": "SUNLIGHT HOMECARE INC.",
    "contactEmail": "SUNLIGHTHH99@GMAIL.COM",
    "categoryName": "HOME HEALTH AGENCY",
    "categoryCode": "HHA",
    "licenseStatus": "ACTIVE",
    "inService": true,
    "licenseNumber": "550007729",
    "licenseEffectiveDate": "11/18/2025",
    "licenseExpirationDate": "11/17/2026",
    "dataDate": "10/18/2025",
    "capacity": 0,
    "address": "8522 FOOTHILL BLVD, SUITE #205",
    "city": "SUNLAND",
    "zip": "91040",
    "county": "LOS ANGELES",
    "phone": "(818) 474-4403",
    "lat": 34.25938701,
    "lng": -118.318925
  },
  {
    "id": "920000030",
    "name": "THE HILLS HEALTHCARE CENTER",
    "npi": "1356334197",
    "hcaiId": "206190698",
    "businessName": "SUNLAND SNF, LLC",
    "contactEmail": "ADMINISTRATOR@THEHILLSHC.COM",
    "categoryName": "SKILLED NURSING FACILITY",
    "categoryCode": "SNF",
    "licenseStatus": "ACTIVE",
    "inService": true,
    "licenseNumber": "920000063",
    "licenseEffectiveDate": "11/08/2025",
    "licenseExpirationDate": "11/07/2026",
    "dataDate": "10/18/2025",
    "capacity": 67,
    "address": "10158 SUNLAND BLVD",
    "city": "SUNLAND",
    "zip": "91040",
    "county": "LOS ANGELES",
    "phone": "(818) 353-7800",
    "lat": 34.259877,
    "lng": -118.3393305
  },
  {
    "id": "630020348",
    "name": "V & M HOSPICE CARE",
    "npi": null,
    "hcaiId": "406196005",
    "businessName": "V & M HOSPICE CARE",
    "contactEmail": "VMHOSPICECARE@GMAIL.COM",
    "categoryName": "HOSPICE",
    "categoryCode": "HOSPICE",
    "licenseStatus": "ACTIVE",
    "inService": true,
    "licenseNumber": "550006078",
    "licenseEffectiveDate": "02/22/2025",
    "licenseExpirationDate": "02/21/2027",
    "dataDate": "10/18/2025",
    "capacity": 0,
    "address": "9741 WHEATLAND AVE, SUITE 1",
    "city": "SUNLAND",
    "zip": "91040",
    "county": "LOS ANGELES",
    "phone": "(818) 638-7545",
    "lat": 34.246818,
    "lng": -118.357731
  },
  {
    "id": "060001975",
    "name": "VALLEY VILLAGE ADULT DAY HEALTH CARE CTR. - SUNLAND",
    "npi": null,
    "hcaiId": null,
    "businessName": "VALLEY VILLAGE",
    "contactEmail": "SOUSAN@VVC.ORG",
    "categoryName": "ADULT DAY HEALTH CARE",
    "categoryCode": "ADHC",
    "licenseStatus": "ACTIVE",
    "inService": true,
    "licenseNumber": "060000812",
    "licenseEffectiveDate": "06/20/2025",
    "licenseExpirationDate": "06/19/2026",
    "dataDate": "10/18/2025",
    "capacity": 0,
    "address": "8727 FENWICK ST",
    "city": "SUNLAND",
    "zip": "91040",
    "county": "LOS ANGELES",
    "phone": "(818) 266-2159",
    "lat": 34.261605,
    "lng": -118.323396
  },
  {
    "id": "630022016",
    "name": "VERMEL HOSPICE, INC",
    "npi": null,
    "hcaiId": "406193955",
    "businessName": "VERMEL HOSPICE, INC",
    "contactEmail": "VERMELHOSPICECARE@GMAIL.COM",
    "categoryName": "HOSPICE",
    "categoryCode": "HOSPICE",
    "licenseStatus": "ACTIVE",
    "inService": true,
    "licenseNumber": "550007319",
    "licenseEffectiveDate": "11/30/2023",
    "licenseExpirationDate": "11/29/2025",
    "dataDate": "10/18/2025",
    "capacity": 0,
    "address": "8119 FOOTHILL BLVD, SUITE 6",
    "city": "SUNLAND",
    "zip": "91040",
    "county": "LOS ANGELES",
    "phone": "(818) 674-4600",
    "lat": 34.25973017,
    "lng": -118.3098912
  },
  {
    "id": "630018914",
    "name": "WHEATLAND HOME HEALTH CARE INC.",
    "npi": "1134784382",
    "hcaiId": "406192426",
    "businessName": "WHEATLAND HOME HEALTH CARE INC.",
    "contactEmail": "WHEATLHHC@YAHOO.COM",
    "categoryName": "HOME HEALTH AGENCY",
    "categoryCode": "HHA",
    "licenseStatus": "ACTIVE",
    "inService": true,
    "licenseNumber": "550005320",
    "licenseEffectiveDate": "03/01/2025",
    "licenseExpirationDate": "02/28/2026",
    "dataDate": "10/18/2025",
    "capacity": 0,
    "address": "9741 WHEATLAND AVE, SUITE 2",
    "city": "SUNLAND",
    "zip": "91040",
    "county": "LOS ANGELES",
    "phone": "(747) 200-9011",
    "lat": 34.246816,
    "lng": -118.357746
  }
]