[
  {
    "id": "630013136",
    "name": "ADVANCED HEALTH CARE PROVIDERS, INC.",
    "npi": "1104227222",
    "hcaiId": "406197703",
    "businessName": "ADVANCED HEALTH CARE PROVIDERS, INC.",
    "contactEmail": "ADVANCEDHCP@YAHOO.COM",
    "categoryName": "HOME HEALTH AGENCY",
    "categoryCode": "HHA",
    "licenseStatus": "ACTIVE",
    "inService": true,
    "licenseNumber": "550001944",
    "licenseEffectiveDate": "02/19/2025",
    "licenseExpirationDate": "02/18/2026",
    "dataDate": "10/18/2025",
    "capacity": 0,
    "address": "6470 FOOTHILL BLVD, UNIT H",
    "city": "TUJUNGA",
    "zip": "91042",
    "county": "LOS ANGELES",
    "phone": "(818) 220-6969",
    "lat": 34.24436802,
    "lng": -118.272957
  },
  {
    "id": "630018960",
    "name": "AMERICANO HOME HEALTH CARE, INC.",
    "npi": null,
    "hcaiId": "406192697",
    "businessName": "AMERICANO HOME HEALTH CARE, INC.",
    "contactEmail": "AMERICANOHHC@YAHOO.COM",
    "categoryName": "HOME HEALTH AGENCY",
    "categoryCode": "HHA",
    "licenseStatus": "ACTIVE",
    "inService": true,
    "licenseNumber": "550005592",
    "licenseEffectiveDate": "07/18/2025",
    "licenseExpirationDate": "07/17/2026",
    "dataDate": "10/18/2025",
    "capacity": 0,
    "address": "10012 COMMERCE AVE, SUITE D",
    "city": "TUJUNGA",
    "zip": "91042",
    "county": "LOS ANGELES",
    "phone": "(818) 453-0801",
    "lat": 34.250652,
    "lng": -118.2883185
  },
  {
    "id": "630018241",
    "name": "ANGEL'S ARMS HOME HEALTH SERVICES INC.",
    "npi": null,
    "hcaiId": "406192124",
    "businessName": "ANGEL'S ARMS HOME HEALTH SERVICES INC.",
    "contactEmail": "ANGELSARMSHH@YAHOO.COM",
    "categoryName": "HOME HEALTH AGENCY",
    "categoryCode": "HHA",
    "licenseStatus": "ACTIVE",
    "inService": true,
    "licenseNumber": "550005125",
    "licenseEffectiveDate": "11/27/2025",
    "licenseExpirationDate": "11/26/2026",
    "dataDate": "10/18/2025",
    "capacity": 0,
    "address": "7414 FOOTHILL BLVD",
    "city": "TUJUNGA",
    "zip": "91042",
    "county": "LOS ANGELES",
    "phone": "(818) 638-9450",
    "lat": 34.25155626,
    "lng": -118.2936646
  },
  {
    "id": "630020221",
    "name": "AT EASE HOSPICE AND PALLIATIVE CARE INC",
    "npi": "1306460555",
    "hcaiId": "406192863",
    "businessName": "AT EASE HOSPICE AND PALLIATIVE CARE, INC.",
    "contactEmail": "ATEASEHOSPICE@GMAIL.COM",
    "categoryName": "HOSPICE",
    "categoryCode": "HOSPICE",
    "licenseStatus": "ACTIVE",
    "inService": true,
    "licenseNumber": "550005695",
    "licenseEffectiveDate": "08/26/2024",
    "licenseExpirationDate": "08/25/2026",
    "dataDate": "10/18/2025",
    "capacity": 0,
    "address": "7502 FOOTHILL BLVD, SUITE 104",
    "city": "TUJUNGA",
    "zip": "91042",
    "county": "LOS ANGELES",
    "phone": "(747) 322-7770",
    "lat": 34.252686,
    "lng": -118.295955
  },
  {
    "id": "060001845",
    "name": "BEST COMMUNITY BASED ADULT SERVICES - TUJUNGA",
    "npi": null,
    "hcaiId": null,
    "businessName": "POBEDA SERVICES, INC",
    "contactEmail": "BESTCBAS1@YAHOO.COM",
    "categoryName": "ADULT DAY HEALTH CARE",
    "categoryCode": "ADHC",
    "licenseStatus": "ACTIVE",
    "inService": true,
    "licenseNumber": "060000662",
    "licenseEffectiveDate": "07/07/2025",
    "licenseExpirationDate": "07/06/2026",
    "dataDate": "10/18/2025",
    "capacity": 0,
    "address": "7235 FOOTHILL BLVD",
    "city": "TUJUNGA",
    "zip": "91042",
    "county": "LOS ANGELES",
    "phone": "(818) 353-3224",
    "lat": 34.249176,
    "lng": -118.289502
  },
  {
    "id": "630020572",
    "name": "BRIGHT ANGEL HOSPICE, INC.",
    "npi": null,
    "hcaiId": "406193620",
    "businessName": "BRIGHT ANGEL HOSPICE, INC",
    "contactEmail": "BRIGHTANGELHOSPICE@GMAIL.COM",
    "categoryName": "HOSPICE",
    "categoryCode": "HOSPICE",
    "licenseStatus": "ACTIVE",
    "inService": true,
    "licenseNumber": "550006924",
    "licenseEffectiveDate": "08/21/2023",
    "licenseExpirationDate": "08/20/2025",
    "dataDate": "10/18/2025",
    "capacity": 0,
    "address": "7427 FOOTHILL BLVD",
    "city": "TUJUNGA",
    "zip": "91042",
    "county": "LOS ANGELES",
    "phone": "(818) 966-7776",
    "lat": 34.251894,
    "lng": -118.293696
  },
  {
    "id": "630016034",
    "name": "CARE PACIFIC HOSPICE, INC.",
    "npi": null,
    "hcaiId": "406191471",
    "businessName": "CARE PACIFIC HOSPICE, INC.",
    "contactEmail": "INFO@EPICHOMECARE.COM",
    "categoryName": "HOSPICE",
    "categoryCode": "HOSPICE",
    "licenseStatus": "ACTIVE",
    "inService": true,
    "licenseNumber": "550004482",
    "licenseEffectiveDate": "12/10/2024",
    "licenseExpirationDate": "12/09/2026",
    "dataDate": "10/18/2025",
    "capacity": 0,
    "address": "7352 FOOTHILL BLVD., SUITE 202",
    "city": "TUJUNGA",
    "zip": "91042",
    "county": "LOS ANGELES",
    "phone": "(323) 360-4760",
    "lat": 34.250661,
    "lng": -118.2924855
  },
  {
    "id": "630020537",
    "name": "COMFORT CHOICE HOSPICE CARE, INC.",
    "npi": null,
    "hcaiId": "406196207",
    "businessName": "COMFORT CHOICE HOSPICE CARE, INC.",
    "contactEmail": "COMFORTCHOICEHOSPICECARE@YAHOO.COM",
    "categoryName": "HOSPICE",
    "categoryCode": "HOSPICE",
    "licenseStatus": "ACTIVE",
    "inService": true,
    "licenseNumber": "550006359",
    "licenseEffectiveDate": "05/04/2025",
    "licenseExpirationDate": "05/03/2027",
    "dataDate": "10/18/2025",
    "capacity": 0,
    "address": "6257 FOOTHILL BLVD, SUITE B",
    "city": "TUJUNGA",
    "zip": "91042",
    "county": "LOS ANGELES",
    "phone": "(818) 405-1030",
    "lat": 34.241517,
    "lng": -118.267119
  },
  {
    "id": "630021088",
    "name": "COZY COMFORT CARE HOSPICE, INC.",
    "npi": null,
    "hcaiId": "406190175",
    "businessName": "COZY COMFORT CARE HOSPICE, INC.",
    "contactEmail": "CCCHOSPICEINC@YAHOO.COM",
    "categoryName": "HOSPICE",
    "categoryCode": "HOSPICE",
    "licenseStatus": "ACTIVE",
    "inService": true,
    "licenseNumber": "550007669",
    "licenseEffectiveDate": "07/09/2025",
    "licenseExpirationDate": "12/16/2025",
    "dataDate": "10/18/2025",
    "capacity": 0,
    "address": "9917 COMMERCE AVE",
    "city": "TUJUNGA",
    "zip": "91042",
    "county": "LOS ANGELES",
    "phone": "(818) 922-2413",
    "lat": 34.24904801,
    "lng": -118.28896
  },
  {
    "id": "630025458",
    "name": "EDMAR HOME HEALTH CARE INC",
    "npi": null,
    "hcaiId": null,
    "businessName": "EDMAR HOME HEALTH CARE INC",
    "contactEmail": "EDMARHHC@GMAIL.COM",
    "categoryName": "HOME HEALTH AGENCY",
    "categoryCode": "HHA",
    "licenseStatus": "ACTIVE",
    "inService": true,
    "licenseNumber": "550008623",
    "licenseEffectiveDate": "09/05/2025",
    "licenseExpirationDate": "07/11/2026",
    "dataDate": "10/18/2025",
    "capacity": 0,
    "address": "6708 FOOTHILL BLVD, SUITE 102",
    "city": "TUJUNGA",
    "zip": "91042",
    "county": "LOS ANGELES",
    "phone": "(747) 877-2770",
    "lat": 34.24719775,
    "lng": -118.2784717
  },
  {
    "id": "630023443",
    "name": "ESPERANZA HOME HEALTH INC",
    "npi": null,
    "hcaiId": "406195312",
    "businessName": "ESPERANZA HOME HEALTH INC",
    "contactEmail": "HILDATSATURYAN@GMAIL.COM",
    "categoryName": "HOME HEALTH AGENCY",
    "categoryCode": "HHA",
    "licenseStatus": "ACTIVE",
    "inService": true,
    "licenseNumber": "550008006",
    "licenseEffectiveDate": "09/17/2025",
    "licenseExpirationDate": "04/13/2026",
    "dataDate": "10/18/2025",
    "capacity": 0,
    "address": "6924 FOOTHILL BLVD",
    "city": "TUJUNGA",
    "zip": "91042",
    "county": "LOS ANGELES",
    "phone": "(818) 922-5502",
    "lat": 34.24777265,
    "lng": -118.2825655
  },
  {
    "id": "630020249",
    "name": "ETERNAL HOPE HOSPICE INC",
    "npi": null,
    "hcaiId": "406193588",
    "businessName": "ETERNAL HOPE HOSPICE INC",
    "contactEmail": "INFO@ETERNALHOPEHOSPICEINC.COM",
    "categoryName": "HOSPICE",
    "categoryCode": "HOSPICE",
    "licenseStatus": "ACTIVE",
    "inService": true,
    "licenseNumber": "550006500",
    "licenseEffectiveDate": "10/09/2025",
    "licenseExpirationDate": "07/06/2027",
    "dataDate": "10/18/2025",
    "capacity": 0,
    "address": "7416 FOOTHILL BLVD",
    "city": "TUJUNGA",
    "zip": "91042",
    "county": "LOS ANGELES",
    "phone": "(818) 875-4090",
    "lat": 34.25156114,
    "lng": -118.2936721
  },
  {
    "id": "630018694",
    "name": "EXCELLENCY HOME HEALTH CARE, INC",
    "npi": "1245703958",
    "hcaiId": "406192198",
    "businessName": "EXCELLENCY HOME HEALTH CARE, INC",
    "contactEmail": "EXCELLENCYHOMECARE@GMAIL.COM",
    "categoryName": "HOME HEALTH AGENCY",
    "categoryCode": "HHA",
    "licenseStatus": "ACTIVE",
    "inService": true,
    "licenseNumber": "550005201",
    "licenseEffectiveDate": "02/21/2025",
    "licenseExpirationDate": "12/18/2025",
    "dataDate": "10/18/2025",
    "capacity": 0,
    "address": "7502 FOOTHILL BLVD, SUITE 201",
    "city": "TUJUNGA",
    "zip": "91042",
    "county": "LOS ANGELES",
    "phone": "(818) 387-6152",
    "lat": 34.252686,
    "lng": -118.295955
  },
  {
    "id": "630017711",
    "name": "FACE 2 FACE HOME HEALTH, INC.",
    "npi": null,
    "hcaiId": "406192052",
    "businessName": "FACE 2 FACE HOME HEALTH, INC.",
    "contactEmail": "FACE2FACEHH@GMAIL.COM",
    "categoryName": "HOME HEALTH AGENCY",
    "categoryCode": "HHA",
    "licenseStatus": "ACTIVE",
    "inService": true,
    "licenseNumber": "550005102",
    "licenseEffectiveDate": "11/15/2024",
    "licenseExpirationDate": "11/14/2025",
    "dataDate": "10/18/2025",
    "capacity": 0,
    "address": "6501 FOOTHILL BLVD, SUITE 203A",
    "city": "TUJUNGA",
    "zip": "91042",
    "county": "LOS ANGELES",
    "phone": "(747) 207-1515",
    "lat": 34.245243,
    "lng": -118.273203
  },
  {
    "id": "630019517",
    "name": "FAMILY COMFORT HOSPICE, INC.",
    "npi": "1932745676",
    "hcaiId": "406192587",
    "businessName": "FAMILY COMFORT HOSPICE, INC.",
    "contactEmail": "KAREGHIAN@GMAIL.COM",
    "categoryName": "HOSPICE",
    "categoryCode": "HOSPICE",
    "licenseStatus": "ACTIVE",
    "inService": true,
    "licenseNumber": "550005441",
    "licenseEffectiveDate": "02/20/2022",
    "licenseExpirationDate": "02/19/2024",
    "dataDate": "10/18/2025",
    "capacity": 0,
    "address": "7502 FOOTHILL BLVD, SUITE 203",
    "city": "TUJUNGA",
    "zip": "91042",
    "county": "LOS ANGELES",
    "phone": "(747) 282-0858",
    "lat": 34.252686,
    "lng": -118.295955
  },
  {
    "id": "630020500",
    "name": "GENERAL MEDICAL HOME HEALTH",
    "npi": null,
    "hcaiId": "406195275",
    "businessName": "GENERAL MEDICAL HOME HEALTH",
    "contactEmail": "HOMEHEALTH@MYGENERALMED.COM",
    "categoryName": "HOME HEALTH AGENCY",
    "categoryCode": "HHA",
    "licenseStatus": "ACTIVE",
    "inService": true,
    "licenseNumber": "550006073",
    "licenseEffectiveDate": "02/12/2025",
    "licenseExpirationDate": "02/11/2026",
    "dataDate": "10/18/2025",
    "capacity": 0,
    "address": "6470 FOOTHILL BLVD, SUITE D",
    "city": "TUJUNGA",
    "zip": "91042",
    "county": "LOS ANGELES",
    "phone": "(818) 731-3565",
    "lat": 34.244352,
    "lng": -118.272789
  },
  {
    "id": "630018435",
    "name": "GOOD LIFE HOME HEALTH GROUP INC",
    "npi": "1396214128",
    "hcaiId": "406191583",
    "businessName": "GOOD LIFE HOME HEALTH GROUP INC",
    "contactEmail": "GOODLIFEHHCINC@GMAIL.COM",
    "categoryName": "HOME HEALTH AGENCY",
    "categoryCode": "HHA",
    "licenseStatus": "ACTIVE",
    "inService": true,
    "licenseNumber": "550004627",
    "licenseEffectiveDate": "03/22/2025",
    "licenseExpirationDate": "03/21/2026",
    "dataDate": "10/18/2025",
    "capacity": 0,
    "address": "6906 FOOTHILL BLVD, SUITE B",
    "city": "TUJUNGA",
    "zip": "91042",
    "county": "LOS ANGELES",
    "phone": "(818) 960-7377",
    "lat": 34.247655,
    "lng": -118.282095
  },
  {
    "id": "630026137",
    "name": "HANDS OF HOPE HOME HEALTH CARE, INC",
    "npi": null,
    "hcaiId": null,
    "businessName": "HANDS OF HOPE HOME HEALTH CARE, INC",
    "contactEmail": "HANDSOFHOPEHH@GMAIL.COM",
    "categoryName": "HOME HEALTH AGENCY",
    "categoryCode": "HHA",
    "licenseStatus": "ACTIVE",
    "inService": true,
    "licenseNumber": "550009854",
    "licenseEffectiveDate": "06/16/2025",
    "licenseExpirationDate": "12/15/2025",
    "dataDate": "10/18/2025",
    "capacity": 0,
    "address": "6501 FOOTHILL BLVD, SUITE 104",
    "city": "TUJUNGA",
    "zip": "91042",
    "county": "LOS ANGELES",
    "phone": "(424) 222-2151",
    "lat": 34.245135,
    "lng": -118.273392
  },
  {
    "id": "630026761",
    "name": "HEALING SOULS HOME HEALTH CARE",
    "npi": null,
    "hcaiId": null,
    "businessName": "HEALING SOULS HOME HEALTH CARE",
    "contactEmail": "HEALINGSOULSHOMEHEALTHCARE@GMAIL.COM",
    "categoryName": "HOME HEALTH AGENCY",
    "categoryCode": "HHA",
    "licenseStatus": "ACTIVE",
    "inService": true,
    "licenseNumber": "550009347",
    "licenseEffectiveDate": "07/31/2025",
    "licenseExpirationDate": "07/30/2026",
    "dataDate": "10/18/2025",
    "capacity": 0,
    "address": "6501 FOOTHILL BLVD, SUITE 204A",
    "city": "TUJUNGA",
    "zip": "91042",
    "county": "LOS ANGELES",
    "phone": "(323) 854-5560",
    "lat": 34.245135,
    "lng": -118.273392
  },
  {
    "id": "630016109",
    "name": "HEALTH QUEST HOMECARE, INC.",
    "npi": "1912387572",
    "hcaiId": "406198489",
    "businessName": "HEALTH QUEST HOMECARE, INC.",
    "contactEmail": "HEALTHQUESTHOMECARE@YAHOO.COM",
    "categoryName": "HOME HEALTH AGENCY",
    "categoryCode": "HHA",
    "licenseStatus": "ACTIVE",
    "inService": true,
    "licenseNumber": "550003849",
    "licenseEffectiveDate": "03/07/2025",
    "licenseExpirationDate": "03/06/2026",
    "dataDate": "10/18/2025",
    "capacity": 0,
    "address": "6257 FOOTHILL BLVD, SUITE C",
    "city": "TUJUNGA",
    "zip": "91042",
    "county": "LOS ANGELES",
    "phone": "(818) 275-3684",
    "lat": 34.241532,
    "lng": -118.267177
  },
  {
    "id": "630026301",
    "name": "ICONIC HOME HEALTH CARE INC.",
    "npi": null,
    "hcaiId": null,
    "businessName": "ICONIC HOME HEALTH CARE INC.",
    "contactEmail": "ICONICHOMEHEALTH@GMAIL.COM",
    "categoryName": "HOME HEALTH AGENCY",
    "categoryCode": "HHA",
    "licenseStatus": "ACTIVE",
    "inService": true,
    "licenseNumber": "550009232",
    "licenseEffectiveDate": "06/28/2025",
    "licenseExpirationDate": "06/27/2026",
    "dataDate": "10/18/2025",
    "capacity": 0,
    "address": "10012 COMMERCE AVE, SUITE B",
    "city": "TUJUNGA",
    "zip": "91042",
    "county": "LOS ANGELES",
    "phone": "(747) 212-4551",
    "lat": 34.250652,
    "lng": -118.2883185
  },
  {
    "id": "630011937",
    "name": "INDEPENDENCE HOME HEALTH INC.",
    "npi": "1437311610",
    "hcaiId": "406197384",
    "businessName": "INDEPENDENCE HOME HEALTH INC.",
    "contactEmail": "INDEPENDENCEHOME@ATT.NET",
    "categoryName": "HOME HEALTH AGENCY",
    "categoryCode": "HHA",
    "licenseStatus": "ACTIVE",
    "inService": true,
    "licenseNumber": "550001244",
    "licenseEffectiveDate": "10/25/2025",
    "licenseExpirationDate": "10/24/2026",
    "dataDate": "10/18/2025",
    "capacity": 0,
    "address": "6501 FOOTHILL BLVD, SUITE 201C",
    "city": "TUJUNGA",
    "zip": "91042",
    "county": "LOS ANGELES",
    "phone": "(818) 764-0997",
    "lat": 34.245135,
    "lng": -118.273392
  },
  {
    "id": "630013652",
    "name": "LA GUARDIAN HEALTH CARE INC",
    "npi": "1487929162",
    "hcaiId": "406197936",
    "businessName": "LA GUARDIAN HEALTH CARE, INC.",
    "contactEmail": "LAGUARDIANHEALTHCARE@GMAIL.COM",
    "categoryName": "HOME HEALTH AGENCY",
    "categoryCode": "HHA",
    "licenseStatus": "ACTIVE",
    "inService": true,
    "licenseNumber": "550002368",
    "licenseEffectiveDate": "06/18/2025",
    "licenseExpirationDate": "06/17/2026",
    "dataDate": "10/18/2025",
    "capacity": 0,
    "address": "6501 FOOTHILL BLVD, SUITE 203B",
    "city": "TUJUNGA",
    "zip": "91042",
    "county": "LOS ANGELES",
    "phone": "(818) 273-4254",
    "lat": 34.245243,
    "lng": -118.273203
  },
  {
    "id": "630018963",
    "name": "LUXURY HOME HEALTH, INC.",
    "npi": "1962060269",
    "hcaiId": "406192492",
    "businessName": "LUXURY HOME HEALTH, INC.",
    "contactEmail": "LUXURYHOMEHEALTH@YAHOO.COM",
    "categoryName": "HOME HEALTH AGENCY",
    "categoryCode": "HHA",
    "licenseStatus": "ACTIVE",
    "inService": true,
    "licenseNumber": "550005237",
    "licenseEffectiveDate": "01/08/2023",
    "licenseExpirationDate": "01/07/2024",
    "dataDate": "10/18/2025",
    "capacity": 0,
    "address": "10012 COMMERCE AVE, SUITE C",
    "city": "TUJUNGA",
    "zip": "91042",
    "county": "LOS ANGELES",
    "phone": "(818) 875-4083",
    "lat": 34.250652,
    "lng": -118.2883185
  },
  {
    "id": "630018049",
    "name": "MELROSE HEALTHCARE GROUP",
    "npi": "1912495631",
    "hcaiId": "406192004",
    "businessName": "MELROSE HEALTHCARE GROUP",
    "contactEmail": "CORPORATE@MELROSEHEALTH.COM",
    "categoryName": "HOSPICE",
    "categoryCode": "HOSPICE",
    "licenseStatus": "ACTIVE",
    "inService": true,
    "licenseNumber": "550005049",
    "licenseEffectiveDate": "10/25/2021",
    "licenseExpirationDate": "10/24/2023",
    "dataDate": "10/18/2025",
    "capacity": 0,
    "address": "7730 FOOTHILL BLVD",
    "city": "TUJUNGA",
    "zip": "91042",
    "county": "LOS ANGELES",
    "phone": "(818) 847-7002",
    "lat": 34.25723189,
    "lng": -118.3008911
  },
  {
    "id": "630020416",
    "name": "MIDAS TOUCH HOSPICE SERVICES, INC.",
    "npi": null,
    "hcaiId": "406193818",
    "businessName": "MIDAS TOUCH HOSPICE SERVICES, INC.",
    "contactEmail": "MIDASTOUCHHOSPICE@GMAIL.COM",
    "categoryName": "HOSPICE",
    "categoryCode": "HOSPICE",
    "licenseStatus": "ACTIVE",
    "inService": true,
    "licenseNumber": "550007192",
    "licenseEffectiveDate": "10/21/2023",
    "licenseExpirationDate": "10/20/2025",
    "dataDate": "10/18/2025",
    "capacity": 0,
    "address": "6708 FOOTHILL BLVD, SUITE 206-A",
    "city": "TUJUNGA",
    "zip": "91042",
    "county": "LOS ANGELES",
    "phone": "(818) 245-6444",
    "lat": 34.246917,
    "lng": -118.278612
  },
  {
    "id": "630014790",
    "name": "MORENO HOME HEALTH SERVICES",
    "npi": "1477984375",
    "hcaiId": "406334721",
    "businessName": "FIRST PRIORITY HOME HEALTH, INC.",
    "contactEmail": "MORENOHHS@GMAIL.COM",
    "categoryName": "HOME HEALTH AGENCY",
    "categoryCode": "HHA",
    "licenseStatus": "ACTIVE",
    "inService": true,
    "licenseNumber": "550003071",
    "licenseEffectiveDate": "04/24/2025",
    "licenseExpirationDate": "04/23/2026",
    "dataDate": "10/18/2025",
    "capacity": 0,
    "address": "6851 FOOTHILL BLVD",
    "city": "TUJUNGA",
    "zip": "91042",
    "county": "LOS ANGELES",
    "phone": "(951) 251-5010",
    "lat": 34.24793301,
    "lng": -118.28107
  },
  {
    "id": "630021920",
    "name": "NEW CENTURY HOSPICE INC",
    "npi": null,
    "hcaiId": "406194972",
    "businessName": "NEW CENTURY HOSPICE INC.",
    "contactEmail": "NEWCENTURYHOSPICE10@GMAIL.COM",
    "categoryName": "HOSPICE",
    "categoryCode": "HOSPICE",
    "licenseStatus": "ACTIVE",
    "inService": true,
    "licenseNumber": "550007091",
    "licenseEffectiveDate": "11/04/2023",
    "licenseExpirationDate": "11/03/2025",
    "dataDate": "10/18/2025",
    "capacity": 0,
    "address": "7036 FOOTHILL BLVD, SUITE A",
    "city": "TUJUNGA",
    "zip": "91042",
    "county": "LOS ANGELES",
    "phone": "(818) 293-3371",
    "lat": 34.247637,
    "lng": -118.284669
  },
  {
    "id": "630017529",
    "name": "NO PAIN HOME HEALTH CARE, INC.",
    "npi": null,
    "hcaiId": "406192608",
    "businessName": "NO PAIN HOME HEALTH CARE, INC.",
    "contactEmail": "NOPAINHHC@GMAIL.COM",
    "categoryName": "HOME HEALTH AGENCY",
    "categoryCode": "HHA",
    "licenseStatus": "ACTIVE",
    "inService": true,
    "licenseNumber": "550005339",
    "licenseEffectiveDate": "11/14/2025",
    "licenseExpirationDate": "11/13/2026",
    "dataDate": "10/18/2025",
    "capacity": 0,
    "address": "7214 FOOTHILL BLVD",
    "city": "TUJUNGA",
    "zip": "91042",
    "county": "LOS ANGELES",
    "phone": "(818) 698-1744",
    "lat": 34.24851098,
    "lng": -118.28902
  },
  {
    "id": "920000024",
    "name": "NORTH VALLEY NURSING CENTER",
    "npi": "1770689697",
    "hcaiId": "206190192",
    "businessName": "WYNGATE NURSING CENTER",
    "contactEmail": "ADMIN@NORTHVALLEYNURSINGCENTER.COM",
    "categoryName": "SKILLED NURSING FACILITY",
    "categoryCode": "SNF",
    "licenseStatus": "ACTIVE",
    "inService": true,
    "licenseNumber": "920000023",
    "licenseEffectiveDate": "05/12/2025",
    "licenseExpirationDate": "05/11/2026",
    "dataDate": "10/18/2025",
    "capacity": 92,
    "address": "7660 WYNGATE ST",
    "city": "TUJUNGA",
    "zip": "91042",
    "county": "LOS ANGELES",
    "phone": "(805) 906-1322",
    "lat": 34.25715,
    "lng": -118.2998295
  },
  {
    "id": "920000029",
    "name": "OAKPARK HEALTHCARE CENTER",
    "npi": "1518220615",
    "hcaiId": "206190572",
    "businessName": "OPHC, LLC",
    "contactEmail": "ADMINISTRATOR@OAKPARKHC.COM",
    "categoryName": "SKILLED NURSING FACILITY",
    "categoryCode": "SNF",
    "licenseStatus": "ACTIVE",
    "inService": true,
    "licenseNumber": "920000052",
    "licenseEffectiveDate": "09/12/2025",
    "licenseExpirationDate": "09/11/2026",
    "dataDate": "10/18/2025",
    "capacity": 49,
    "address": "9166 TUJUNGA CANYON BLVD",
    "city": "TUJUNGA",
    "zip": "91042",
    "county": "LOS ANGELES",
    "phone": "(818) 352-4426",
    "lat": 34.235973,
    "lng": -118.2701115
  },
  {
    "id": "630016517",
    "name": "OASIS HOME HEALTH CARE, INC.",
    "npi": "1659736858",
    "hcaiId": "406190818",
    "businessName": "OASIS HOME HEALTH CARE, INC.",
    "contactEmail": "OASISHOMEHEALTHCARE@YAHOO.COM",
    "categoryName": "HOME HEALTH AGENCY",
    "categoryCode": "HHA",
    "licenseStatus": "ACTIVE",
    "inService": true,
    "licenseNumber": "550004037",
    "licenseEffectiveDate": "11/08/2025",
    "licenseExpirationDate": "11/07/2026",
    "dataDate": "10/18/2025",
    "capacity": 0,
    "address": "7502 FOOTHILL BLVD., SUITE 101",
    "city": "TUJUNGA",
    "zip": "91042",
    "county": "LOS ANGELES",
    "phone": "(818) 353-0100",
    "lat": 34.252686,
    "lng": -118.295955
  },
  {
    "id": "630017705",
    "name": "PENTA HOME HEALTH AGENCY, INC.",
    "npi": "1457879561",
    "hcaiId": "406192107",
    "businessName": "PENTA HOME HEALTH AGENCY, INC.",
    "contactEmail": "PENTAHHI@GMAIL.COM",
    "categoryName": "HOME HEALTH AGENCY",
    "categoryCode": "HHA",
    "licenseStatus": "ACTIVE",
    "inService": true,
    "licenseNumber": "550005185",
    "licenseEffectiveDate": "11/05/2024",
    "licenseExpirationDate": "11/04/2025",
    "dataDate": "10/18/2025",
    "capacity": 0,
    "address": "7036 FOOTHILL BLVD, UNIT C",
    "city": "TUJUNGA",
    "zip": "91042",
    "county": "LOS ANGELES",
    "phone": "(424) 777-6303",
    "lat": 34.247637,
    "lng": -118.284669
  },
  {
    "id": "630020973",
    "name": "PRAYER HOSPICE CARE, INC.",
    "npi": null,
    "hcaiId": "406193745",
    "businessName": "PRAYER HOSPICE CARE, INC.",
    "contactEmail": "PRAYERHOSPICE@GMAIL.COM",
    "categoryName": "HOSPICE",
    "categoryCode": "HOSPICE",
    "licenseStatus": "ACTIVE",
    "inService": true,
    "licenseNumber": "550006716",
    "licenseEffectiveDate": "02/02/2024",
    "licenseExpirationDate": "08/12/2025",
    "dataDate": "10/18/2025",
    "capacity": 0,
    "address": "7502 FOOTHILL BLVD, SUITE 102",
    "city": "TUJUNGA",
    "zip": "91042",
    "county": "LOS ANGELES",
    "phone": "(747) 247-1205",
    "lat": 34.25274598,
    "lng": -118.295886
  },
  {
    "id": "630020584",
    "name": "PROMINENT HOME CARE SERVICES, INC.",
    "npi": null,
    "hcaiId": "406195215",
    "businessName": "PROMINENT HOME CARE SERVICES, INC.",
    "contactEmail": "PROMINENTHHCARE@GMAIL.COM",
    "categoryName": "HOME HEALTH AGENCY",
    "categoryCode": "HHA",
    "licenseStatus": "ACTIVE",
    "inService": true,
    "licenseNumber": "550007915",
    "licenseEffectiveDate": "03/23/2025",
    "licenseExpirationDate": "03/22/2026",
    "dataDate": "10/18/2025",
    "capacity": 0,
    "address": "7148 1/2 FOOTHILL BLVD, SUITE A",
    "city": "TUJUNGA",
    "zip": "91042",
    "county": "LOS ANGELES",
    "phone": "(747) 282-1618",
    "lat": 34.248003,
    "lng": -118.287695
  },
  {
    "id": "630018700",
    "name": "PROMPT HOME CARE, INC.",
    "npi": null,
    "hcaiId": "406193140",
    "businessName": "PROMPT HOME CARE, INC.",
    "contactEmail": "PROMPTHOMECARE@YAHOO.COM",
    "categoryName": "HOME HEALTH AGENCY",
    "categoryCode": "HHA",
    "licenseStatus": "ACTIVE",
    "inService": true,
    "licenseNumber": "550006307",
    "licenseEffectiveDate": "04/09/2025",
    "licenseExpirationDate": "04/08/2026",
    "dataDate": "10/18/2025",
    "capacity": 0,
    "address": "7341 FOOTHILL BLVD, SUITE 201",
    "city": "TUJUNGA",
    "zip": "91042",
    "county": "LOS ANGELES",
    "phone": "(818) 967-7413",
    "lat": 34.250868,
    "lng": -118.2917835
  },
  {
    "id": "630015674",
    "name": "ROYAL OAK RESIDENCE INC.",
    "npi": null,
    "hcaiId": "206198460",
    "businessName": "ROYAL OAK RESIDENCE INC.",
    "contactEmail": "SUSANGLOVER789@YAHOO.COM",
    "categoryName": "CONGREGATE LIVING HEALTH FACILITY",
    "categoryCode": "CLHF",
    "licenseStatus": "ACTIVE",
    "inService": true,
    "licenseNumber": "550003734",
    "licenseEffectiveDate": "12/12/2025",
    "licenseExpirationDate": "12/11/2026",
    "dataDate": "10/18/2025",
    "capacity": 6,
    "address": "10458 PLAINVIEW AVE",
    "city": "TUJUNGA",
    "zip": "91042",
    "county": "LOS ANGELES",
    "phone": "(323) 332-7657",
    "lat": 34.259049,
    "lng": -118.2976515
  },
  {
    "id": "630017591",
    "name": "RUSH HOME HEALTH, INC.",
    "npi": "1215453113",
    "hcaiId": "406191997",
    "businessName": "RUSH HOME HEALTH, INC.",
    "contactEmail": "RUSHHOMEHEALTH@GMAIL.COM",
    "categoryName": "HOME HEALTH AGENCY",
    "categoryCode": "HHA",
    "licenseStatus": "ACTIVE",
    "inService": true,
    "licenseNumber": "550004894",
    "licenseEffectiveDate": "08/26/2025",
    "licenseExpirationDate": "08/25/2026",
    "dataDate": "10/18/2025",
    "capacity": 0,
    "address": "7560 FOOTHILL BLVD",
    "city": "TUJUNGA",
    "zip": "91042",
    "county": "LOS ANGELES",
    "phone": "(818) 280-4225",
    "lat": 34.253793,
    "lng": -118.2972825
  },
  {
    "id": "630011071",
    "name": "SUPERIOR HOME HEALTH SERVICES, INC.",
    "npi": "1245432905",
    "hcaiId": "406196870",
    "businessName": "SUPERIOR HOME HEALTH SERVICES, INC.",
    "contactEmail": "SHHS@SUPERIORHHS.COM",
    "categoryName": "HOME HEALTH AGENCY",
    "categoryCode": "HHA",
    "licenseStatus": "ACTIVE",
    "inService": true,
    "licenseNumber": "550000324",
    "licenseEffectiveDate": "11/17/2024",
    "licenseExpirationDate": "11/16/2025",
    "dataDate": "10/18/2025",
    "capacity": 0,
    "address": "7352 FOOTHILL BLVD, SUITE 102",
    "city": "TUJUNGA",
    "zip": "91042",
    "county": "LOS ANGELES",
    "phone": "(818) 957-9991",
    "lat": 34.250841,
    "lng": -118.293021
  },
  {
    "id": "630019130",
    "name": "V&G HOSPICE, INC",
    "npi": null,
    "hcaiId": "406192195",
    "businessName": "V & G HOSPICE, INC",
    "contactEmail": "VGHOSPICEINC@GMAIL.COM",
    "categoryName": "HOSPICE",
    "categoryCode": "HOSPICE",
    "licenseStatus": "ACTIVE",
    "inService": true,
    "licenseNumber": "550005214",
    "licenseEffectiveDate": "12/19/2023",
    "licenseExpirationDate": "12/18/2025",
    "dataDate": "10/18/2025",
    "capacity": 0,
    "address": "7233 1/2 FOOTHILL BLVD",
    "city": "TUJUNGA",
    "zip": "91042",
    "county": "LOS ANGELES",
    "phone": "(747) 788-2777",
    "lat": 34.24907085,
    "lng": -118.2894962
  },
  {
    "id": "630018377",
    "name": "VALMONT CARE CENTER",
    "npi": null,
    "hcaiId": "206190202",
    "businessName": "VALMONT CARE CENTER",
    "contactEmail": "VALMONTCARECENTER@GMAIL.COM",
    "categoryName": "CONGREGATE LIVING HEALTH FACILITY",
    "categoryCode": "CLHF",
    "licenseStatus": "ACTIVE",
    "inService": true,
    "licenseNumber": "550004816",
    "licenseEffectiveDate": "07/03/2025",
    "licenseExpirationDate": "07/02/2026",
    "dataDate": "10/18/2025",
    "capacity": 6,
    "address": "7331 VALMONT ST",
    "city": "TUJUNGA",
    "zip": "91042",
    "county": "LOS ANGELES",
    "phone": "(818) 203-7779",
    "lat": 34.252632,
    "lng": -118.2922065
  },
  {
    "id": "630018575",
    "name": "VIDA CARE HOME HEALTH, INC.",
    "npi": "1063986081",
    "hcaiId": "406192092",
    "businessName": "VIDA CARE HOME HEALTH, INC.",
    "contactEmail": "VIDACAREHH@GMAIL.COM",
    "categoryName": "HOME HEALTH AGENCY",
    "categoryCode": "HHA",
    "licenseStatus": "ACTIVE",
    "inService": true,
    "licenseNumber": "550005165",
    "licenseEffectiveDate": "12/09/2024",
    "licenseExpirationDate": "12/08/2025",
    "dataDate": "10/18/2025",
    "capacity": 0,
    "address": "7502 FOOTHILL BLVD, SUITE 204",
    "city": "TUJUNGA",
    "zip": "91042",
    "county": "LOS ANGELES",
    "phone": "(747) 210-0141",
    "lat": 34.252686,
    "lng": -118.295955
  },
  {
    "id": "630021370",
    "name": "VIDA CARE HOSPICE, INC",
    "npi": null,
    "hcaiId": "406193514",
    "businessName": "VIDA CARE HOSPICE, INC",
    "contactEmail": "VIDACAREHOSPICE@GMAIL.COM",
    "categoryName": "HOSPICE",
    "categoryCode": "HOSPICE",
    "licenseStatus": "ACTIVE",
    "inService": true,
    "licenseNumber": "550006708",
    "licenseEffectiveDate": "08/12/2023",
    "licenseExpirationDate": "08/11/2025",
    "dataDate": "10/18/2025",
    "capacity": 0,
    "address": "7502 FOOTHILL BLVD, SUITE 204A",
    "city": "TUJUNGA",
    "zip": "91042",
    "county": "LOS ANGELES",
    "phone": "(747) 271-5858",
    "lat": 34.252686,
    "lng": -118.295955
  },
  {
    "id": "630016984",
    "name": "WISH U WELL HOME HEALTHCARE",
    "npi": "1346794872",
    "hcaiId": "406190919",
    "businessName": "WISH U WELL HOME HEALTHCARE",
    "contactEmail": "WISHUWELLHHC@YAHOO.COM",
    "categoryName": "HOME HEALTH AGENCY",
    "categoryCode": "HHA",
    "licenseStatus": "ACTIVE",
    "inService": true,
    "licenseNumber": "550004275",
    "licenseEffectiveDate": "06/20/2025",
    "licenseExpirationDate": "06/19/2026",
    "dataDate": "10/18/2025",
    "capacity": 0,
    "address": "6501 FOOTHILL BLVD, SUITE 202A",
    "city": "TUJUNGA",
    "zip": "91042",
    "county": "LOS ANGELES",
    "phone": "(818) 517-8743",
    "lat": 34.245135,
    "lng": -118.273392
  }
]