[
  {
    "id": "630027538",
    "name": "ALTAMED MEDICAL GROUP - PASADENA, LAKE",
    "npi": "1790177582",
    "hcaiId": null,
    "businessName": "ALTAMED HEALTH SERVICES CORPORATION",
    "contactEmail": null,
    "categoryName": "PRIMARY CARE CLINIC",
    "categoryCode": "COMTYC",
    "licenseStatus": "ACTIVE",
    "inService": true,
    "licenseNumber": "550003268",
    "licenseEffectiveDate": "10/29/2025",
    "licenseExpirationDate": "10/28/2026",
    "dataDate": "10/18/2025",
    "capacity": 0,
    "address": "1595 N LAKE AVE",
    "city": "PASADENA",
    "zip": "91104",
    "county": "LOS ANGELES",
    "phone": "(626) 993-1262",
    "lat": 34.17335201,
    "lng": -118.132417
  },
  {
    "id": "630014108",
    "name": "CHESTER HOUSE",
    "npi": "1396188397",
    "hcaiId": null,
    "businessName": "VILLA ESPERANZA SERVICES",
    "contactEmail": "KWHITE@VILLAESPERANZASERVICES.ORG",
    "categoryName": "INTERMEDIATE CARE FACILITY-DD/H/N/CN/IID",
    "categoryCode": "ICFDDH",
    "licenseStatus": "ACTIVE",
    "inService": true,
    "licenseNumber": "550002894",
    "licenseEffectiveDate": "12/01/2024",
    "licenseExpirationDate": "11/30/2025",
    "dataDate": "10/18/2025",
    "capacity": 6,
    "address": "1115 N CHESTER AVE",
    "city": "PASADENA",
    "zip": "91104",
    "county": "LOS ANGELES",
    "phone": "(626) 791-1823",
    "lat": 34.165242,
    "lng": -118.1247795
  },
  {
    "id": "630011486",
    "name": "FAITH & HOPE HOSPICE CARE INC.",
    "npi": null,
    "hcaiId": "406197413",
    "businessName": "FAITH & HOPE HOSPICE CARE, INC.",
    "contactEmail": "INFO@FAITHANDHOPEHOSPICE.COM",
    "categoryName": "HOSPICE",
    "categoryCode": "HOSPICE",
    "licenseStatus": "ACTIVE",
    "inService": true,
    "licenseNumber": "550000951",
    "licenseEffectiveDate": "03/18/2025",
    "licenseExpirationDate": "03/17/2027",
    "dataDate": "10/18/2025",
    "capacity": 0,
    "address": "1575 N LAKE AVE, SUITE 208",
    "city": "PASADENA",
    "zip": "91104",
    "county": "LOS ANGELES",
    "phone": "(818) 559-1460",
    "lat": 34.172991,
    "lng": -118.1324745
  },
  {
    "id": "630011151",
    "name": "FIVE STAR HOME HOSPICE",
    "npi": null,
    "hcaiId": "406197059",
    "businessName": "FIVE STAR HOME HOSPICE, INC.",
    "contactEmail": "5STARHOSPICE@GMAIL.COM",
    "categoryName": "HOSPICE",
    "categoryCode": "HOSPICE",
    "licenseStatus": "ACTIVE",
    "inService": true,
    "licenseNumber": "550000632",
    "licenseEffectiveDate": "11/22/2024",
    "licenseExpirationDate": "11/21/2026",
    "dataDate": "10/18/2025",
    "capacity": 0,
    "address": "1028 N LAKE AVE, SUITE 106",
    "city": "PASADENA",
    "zip": "91104",
    "county": "LOS ANGELES",
    "phone": "(626) 791-1764",
    "lat": 34.163766,
    "lng": -118.132074
  },
  {
    "id": "630020520",
    "name": "GOODNESS HOSPICE INC",
    "npi": null,
    "hcaiId": null,
    "businessName": "GOODNESS HOSPICE INC",
    "contactEmail": "GOODNESSHOSPICE@GMAIL.COM",
    "categoryName": "HOSPICE",
    "categoryCode": "HOSPICE",
    "licenseStatus": "ACTIVE",
    "inService": true,
    "licenseNumber": "550006656",
    "licenseEffectiveDate": "07/24/2023",
    "licenseExpirationDate": "07/23/2025",
    "dataDate": "10/18/2025",
    "capacity": 0,
    "address": "2377 E WASHINGTON BLVD",
    "city": "PASADENA",
    "zip": "91104",
    "county": "LOS ANGELES",
    "phone": "(626) 509-5570",
    "lat": 34.16931,
    "lng": -118.101483
  },
  {
    "id": "630017281",
    "name": "HEARTSAVER HOME HEALTH CARE SERVICES, INC.",
    "npi": "1275074155",
    "hcaiId": "406191451",
    "businessName": "HEARTSAVER HOME HEALTH CARE SERVICES, INC.",
    "contactEmail": "HEARTSAVERHHC@GMAIL.COM",
    "categoryName": "HOME HEALTH AGENCY",
    "categoryCode": "HHA",
    "licenseStatus": "ACTIVE",
    "inService": true,
    "licenseNumber": "550004392",
    "licenseEffectiveDate": "09/13/2023",
    "licenseExpirationDate": "09/12/2024",
    "dataDate": "10/18/2025",
    "capacity": 0,
    "address": "1737 E WASHINGTON BLVD, UNIT 4",
    "city": "PASADENA",
    "zip": "91104",
    "county": "LOS ANGELES",
    "phone": "(626) 714-7700",
    "lat": 34.169364,
    "lng": -118.114596
  },
  {
    "id": "060002096",
    "name": "HMS ADHCC",
    "npi": null,
    "hcaiId": null,
    "businessName": "HZOR MEDICAL SERVICES",
    "contactEmail": "DRG@HZOR.COM",
    "categoryName": "ADULT DAY HEALTH CARE",
    "categoryCode": "ADHC",
    "licenseStatus": "ACTIVE",
    "inService": true,
    "licenseNumber": "060000863",
    "licenseEffectiveDate": "02/14/2025",
    "licenseExpirationDate": "02/13/2026",
    "dataDate": "10/18/2025",
    "capacity": 0,
    "address": "740 E WASHINGTON BLVD",
    "city": "PASADENA",
    "zip": "91104",
    "county": "LOS ANGELES",
    "phone": "(626) 345-1240",
    "lat": 34.168653,
    "lng": -118.135188
  },
  {
    "id": "630020112",
    "name": "HOSPICE AND PALLIATIVE CARE OF CALIFORNIA, INC",
    "npi": null,
    "hcaiId": "406192862",
    "businessName": "HOSPICE AND PALLIATIVE CARE OF CALIFORNIA, INC",
    "contactEmail": "INFO@CALIFORNIA-HOSPICE.COM",
    "categoryName": "HOSPICE",
    "categoryCode": "HOSPICE",
    "licenseStatus": "ACTIVE",
    "inService": true,
    "licenseNumber": "550005696",
    "licenseEffectiveDate": "08/27/2024",
    "licenseExpirationDate": "08/26/2026",
    "dataDate": "10/18/2025",
    "capacity": 0,
    "address": "1007 N LAKE AVE, SUITE A",
    "city": "PASADENA",
    "zip": "91104",
    "county": "LOS ANGELES",
    "phone": "(626) 616-4288",
    "lat": 34.163235,
    "lng": -118.13283
  },
  {
    "id": "630021328",
    "name": "IMPERIAL HEALTHCARE SERVICES,INC.",
    "npi": null,
    "hcaiId": "406195398",
    "businessName": "IMPERIAL HEALTHCARE SERVICES, INC.",
    "contactEmail": "IMPERIALHEALTHCARESERVICESINC1@GMAIL.COM",
    "categoryName": "HOME HEALTH AGENCY",
    "categoryCode": "HHA",
    "licenseStatus": "ACTIVE",
    "inService": true,
    "licenseNumber": "550007769",
    "licenseEffectiveDate": "01/13/2023",
    "licenseExpirationDate": "01/12/2024",
    "dataDate": "10/18/2025",
    "capacity": 0,
    "address": "1175 N LAKE AVE, UNIT 111A",
    "city": "PASADENA",
    "zip": "91104",
    "county": "LOS ANGELES",
    "phone": "(626) 509-5565",
    "lat": 34.16616,
    "lng": -118.132992
  },
  {
    "id": "630018155",
    "name": "LA COMFORT HOME CARE, INC.",
    "npi": "1043738156",
    "hcaiId": "406192030",
    "businessName": "LA COMFORT HOME CARE, INC.",
    "contactEmail": "LACOMFORTHOMECARE@MAIL.COM",
    "categoryName": "HOME HEALTH AGENCY",
    "categoryCode": "HHA",
    "licenseStatus": "ACTIVE",
    "inService": true,
    "licenseNumber": "550005084",
    "licenseEffectiveDate": "11/09/2024",
    "licenseExpirationDate": "11/08/2025",
    "dataDate": "10/18/2025",
    "capacity": 0,
    "address": "1864 E WASHINGTON BLVD, SUITE 212",
    "city": "PASADENA",
    "zip": "91104",
    "county": "LOS ANGELES",
    "phone": "(626) 314-3527",
    "lat": 34.168896,
    "lng": -118.1120175
  },
  {
    "id": "630015497",
    "name": "MAXIMUM HOSPICE AND PALLIATIVE CARE, INC.",
    "npi": null,
    "hcaiId": "406191306",
    "businessName": "MAXIMUM HOSPICE AND PALLIATIVE CARE, INC.",
    "contactEmail": "MAXIMUMHOSPICE@YAHOO.COM",
    "categoryName": "HOSPICE",
    "categoryCode": "HOSPICE",
    "licenseStatus": "ACTIVE",
    "inService": true,
    "licenseNumber": "550003610",
    "licenseEffectiveDate": "08/05/2024",
    "licenseExpirationDate": "08/04/2026",
    "dataDate": "10/18/2025",
    "capacity": 0,
    "address": "1429 N LAKE AVE",
    "city": "PASADENA",
    "zip": "91104",
    "county": "LOS ANGELES",
    "phone": "(626) 469-0319",
    "lat": 34.170498,
    "lng": -118.132551
  },
  {
    "id": "630026877",
    "name": "MEDWAVE HOME HEALTH INC",
    "npi": null,
    "hcaiId": null,
    "businessName": "MEDWAVE HOME HEALTH INC",
    "contactEmail": "MEDWAVEHH@GMAIL.COM",
    "categoryName": "HOME HEALTH AGENCY",
    "categoryCode": "HHA",
    "licenseStatus": "ACTIVE",
    "inService": true,
    "licenseNumber": "550009417",
    "licenseEffectiveDate": "08/22/2025",
    "licenseExpirationDate": "08/21/2026",
    "dataDate": "10/18/2025",
    "capacity": 0,
    "address": "1864 E WASHINGTON BLVD, SUITE 205",
    "city": "PASADENA",
    "zip": "91104",
    "county": "LOS ANGELES",
    "phone": "(626) 776-2001",
    "lat": 34.168896,
    "lng": -118.1120175
  },
  {
    "id": "630026515",
    "name": "NEX-GEN HOME HEALTH CARE, INC.",
    "npi": null,
    "hcaiId": null,
    "businessName": "NEX-GEN HOME HEALTH CARE, INC.",
    "contactEmail": "NEXGENHHC@GMAIL.COM",
    "categoryName": "HOME HEALTH AGENCY",
    "categoryCode": "HHA",
    "licenseStatus": "ACTIVE",
    "inService": true,
    "licenseNumber": "550009129",
    "licenseEffectiveDate": "05/10/2025",
    "licenseExpirationDate": "05/09/2026",
    "dataDate": "10/18/2025",
    "capacity": 0,
    "address": "1737 E WASHINGTON BLVD, SUITE 4",
    "city": "PASADENA",
    "zip": "91104",
    "county": "LOS ANGELES",
    "phone": "(818) 495-5562",
    "lat": 34.169418,
    "lng": -118.114647
  },
  {
    "id": "630012106",
    "name": "OPTIMUM HOME HEALTH, INC.",
    "npi": "1801047394",
    "hcaiId": "406197348",
    "businessName": "OPTIMUM HOME HEALTH, INC.",
    "contactEmail": "OPTIMUMHHCARE@GMAIL.COM",
    "categoryName": "HOME HEALTH AGENCY",
    "categoryCode": "HHA",
    "licenseStatus": "ACTIVE",
    "inService": true,
    "licenseNumber": "550000973",
    "licenseEffectiveDate": "09/18/2025",
    "licenseExpirationDate": "03/12/2026",
    "dataDate": "10/18/2025",
    "capacity": 0,
    "address": "1722 E WASHINGTON BLVD",
    "city": "PASADENA",
    "zip": "91104",
    "county": "LOS ANGELES",
    "phone": "(626) 486-2265",
    "lat": 34.168932,
    "lng": -118.1150955
  },
  {
    "id": "630027056",
    "name": "ORIENT HOME HEALTH INC",
    "npi": null,
    "hcaiId": null,
    "businessName": "ORIENT HOME HEALTH INC",
    "contactEmail": "ORIENTHHINC@GMAIL.COM",
    "categoryName": "HOME HEALTH AGENCY",
    "categoryCode": "HHA",
    "licenseStatus": "ACTIVE",
    "inService": true,
    "licenseNumber": "550009413",
    "licenseEffectiveDate": "02/23/2025",
    "licenseExpirationDate": "08/22/2025",
    "dataDate": "10/18/2025",
    "capacity": 0,
    "address": "1720 E WASHINGTON BLVD, SUITE 224",
    "city": "PASADENA",
    "zip": "91104",
    "county": "LOS ANGELES",
    "phone": "(626) 776-2006",
    "lat": 34.16921073,
    "lng": -118.1118694
  },
  {
    "id": "630011763",
    "name": "PARADISE HOSPICE, INC.",
    "npi": null,
    "hcaiId": "406197480",
    "businessName": "PARADISE HOSPICE, INC.",
    "contactEmail": "PARADISEHOSPICE@GMAIL.COM",
    "categoryName": "HOSPICE",
    "categoryCode": "HOSPICE",
    "licenseStatus": "ACTIVE",
    "inService": true,
    "licenseNumber": "550001243",
    "licenseEffectiveDate": "03/26/2024",
    "licenseExpirationDate": "03/25/2026",
    "dataDate": "10/18/2025",
    "capacity": 0,
    "address": "1864 E WASHINGTON BLVD, SUITE 207",
    "city": "PASADENA",
    "zip": "91104",
    "county": "LOS ANGELES",
    "phone": "(626) 794-1050",
    "lat": 34.168896,
    "lng": -118.1120175
  },
  {
    "id": "960000195",
    "name": "PLANNED PARENTHOOD OF PASADENA",
    "npi": null,
    "hcaiId": "306190611",
    "businessName": "PLANNED PARENTHOOD PASADENA AND SAN GABRIEL VALLEY, INC.",
    "contactEmail": "GLIN@PPPSGV.ORG",
    "categoryName": "PRIMARY CARE CLINIC",
    "categoryCode": "COMTYC",
    "licenseStatus": "ACTIVE",
    "inService": true,
    "licenseNumber": "960000134",
    "licenseEffectiveDate": "11/01/2025",
    "licenseExpirationDate": "10/31/2026",
    "dataDate": "10/18/2025",
    "capacity": 0,
    "address": "1045 N LAKE AVE",
    "city": "PASADENA",
    "zip": "91104",
    "county": "LOS ANGELES",
    "phone": "(626) 794-5737",
    "lat": 34.163964,
    "lng": -118.1329335
  },
  {
    "id": "630019363",
    "name": "PRESPECTIVE HOME HEALTH, INC.",
    "npi": "1740830850",
    "hcaiId": "406192820",
    "businessName": "PRESPECTIVE HOME HEALTH, INC.",
    "contactEmail": "MAXXHOMELENDING@GMAIL.COM",
    "categoryName": "HOME HEALTH AGENCY",
    "categoryCode": "HHA",
    "licenseStatus": "ACTIVE",
    "inService": true,
    "licenseNumber": "550005708",
    "licenseEffectiveDate": "09/05/2023",
    "licenseExpirationDate": "09/04/2024",
    "dataDate": "10/18/2025",
    "capacity": 0,
    "address": "1864 E WASHINGTON BLVD, SUITE 205",
    "city": "PASADENA",
    "zip": "91104",
    "county": "LOS ANGELES",
    "phone": "(714) 676-3772",
    "lat": 34.168896,
    "lng": -118.1120175
  },
  {
    "id": "630027591",
    "name": "PURE HOME HEALTH CARE INC",
    "npi": null,
    "hcaiId": null,
    "businessName": "PURE HOME HEALTH CARE, INC.",
    "contactEmail": "SELETER@HOTMAIL.COM",
    "categoryName": "HOME HEALTH AGENCY",
    "categoryCode": "HHA",
    "licenseStatus": "ACTIVE",
    "inService": true,
    "licenseNumber": "550009604",
    "licenseEffectiveDate": "07/06/2025",
    "licenseExpirationDate": "01/05/2026",
    "dataDate": "10/18/2025",
    "capacity": 0,
    "address": "1007 N LAKE AVE, SUITE C",
    "city": "PASADENA",
    "zip": "91104",
    "county": "LOS ANGELES",
    "phone": "(626) 399-3981",
    "lat": 34.163241,
    "lng": -118.132844
  },
  {
    "id": "630026061",
    "name": "RELIEVE HOME HEALTH INC.",
    "npi": null,
    "hcaiId": null,
    "businessName": "RELIEVE HOME HEALTH INC.",
    "contactEmail": "RELIVEHOMEHEALTH@GMAIL.COM",
    "categoryName": "HOME HEALTH AGENCY",
    "categoryCode": "HHA",
    "licenseStatus": "ACTIVE",
    "inService": true,
    "licenseNumber": "550009667",
    "licenseEffectiveDate": "07/25/2025",
    "licenseExpirationDate": "01/24/2026",
    "dataDate": "10/18/2025",
    "capacity": 0,
    "address": "1864 E WASHINGTON BLVD, SUITE 201",
    "city": "PASADENA",
    "zip": "91104",
    "county": "LOS ANGELES",
    "phone": "(626) 349-6055",
    "lat": 34.168896,
    "lng": -118.1120175
  },
  {
    "id": "630019018",
    "name": "SDA HOME HEALTH CARE SERVICES",
    "npi": "1215592639",
    "hcaiId": "406192436",
    "businessName": "SDA HOME HEALTH CARE SERVICES",
    "contactEmail": "SDAHOMEHEALTHCARE@GMAIL.COM",
    "categoryName": "HOME HEALTH AGENCY",
    "categoryCode": "HHA",
    "licenseStatus": "ACTIVE",
    "inService": true,
    "licenseNumber": "550005328",
    "licenseEffectiveDate": "02/11/2025",
    "licenseExpirationDate": "02/10/2026",
    "dataDate": "10/18/2025",
    "capacity": 0,
    "address": "1864 E WASHINGTON BLVD, SUITE 202",
    "city": "PASADENA",
    "zip": "91104",
    "county": "LOS ANGELES",
    "phone": "(626) 817-9990",
    "lat": 34.168896,
    "lng": -118.1120175
  },
  {
    "id": "960001445",
    "name": "STAHL HOUSE",
    "npi": "1467667154",
    "hcaiId": null,
    "businessName": "VILLA ESPERANZA SERVICES",
    "contactEmail": "KWHITE@VILLAESPERANZASERVICES.ORG",
    "categoryName": "INTERMEDIATE CARE FACILITY-DD/H/N/CN/IID",
    "categoryCode": "ICFDDH",
    "licenseStatus": "ACTIVE",
    "inService": true,
    "licenseNumber": "960000742",
    "licenseEffectiveDate": "05/01/2025",
    "licenseExpirationDate": "04/30/2026",
    "dataDate": "10/18/2025",
    "capacity": 6,
    "address": "1370 N DOMINION AVE",
    "city": "PASADENA",
    "zip": "91104",
    "county": "LOS ANGELES",
    "phone": "(626) 585-8528",
    "lat": 34.169652,
    "lng": -118.113903
  },
  {
    "id": "630019245",
    "name": "YOUR HOMECARE SERVICE, INC.",
    "npi": null,
    "hcaiId": "406192516",
    "businessName": "YOUR HOMECARE SERVICE, INC.",
    "contactEmail": "YOURHOMECARESERVICE@YAHOO.COM",
    "categoryName": "HOME HEALTH AGENCY",
    "categoryCode": "HHA",
    "licenseStatus": "ACTIVE",
    "inService": true,
    "licenseNumber": "550005427",
    "licenseEffectiveDate": "04/24/2025",
    "licenseExpirationDate": "04/23/2026",
    "dataDate": "10/18/2025",
    "capacity": 0,
    "address": "1575 N LAKE AVE, SUITE 203",
    "city": "PASADENA",
    "zip": "91104",
    "county": "LOS ANGELES",
    "phone": "(626) 389-3515",
    "lat": 34.172991,
    "lng": -118.1324745
  }
]