[
  {
    "id": "630027501",
    "name": "ALTAMED GENERAL PEDIATRICS AND DENTAL GROUP - PASADENA, LINCOLN",
    "npi": null,
    "hcaiId": null,
    "businessName": "ALTAMED HEALTH SERVICES CORPORATION",
    "contactEmail": null,
    "categoryName": "PRIMARY CARE CLINIC",
    "categoryCode": "COMTYC",
    "licenseStatus": "ACTIVE",
    "inService": true,
    "licenseNumber": "550003827",
    "licenseEffectiveDate": "03/29/2025",
    "licenseExpirationDate": "03/28/2026",
    "dataDate": "10/18/2025",
    "capacity": 0,
    "address": "2055 LINCOLN AVE",
    "city": "PASADENA",
    "zip": "91103",
    "county": "LOS ANGELES",
    "phone": "(626) 398-6300",
    "lat": 34.18112501,
    "lng": -118.160056
  },
  {
    "id": "630027541",
    "name": "ALTAMED MEDICAL AND DENTAL GROUP - PASADENA, FAIR OAKS",
    "npi": "1902267479",
    "hcaiId": null,
    "businessName": "ALTAMED HEALTH SERVICES CORPORATION",
    "contactEmail": null,
    "categoryName": "PRIMARY CARE CLINIC",
    "categoryCode": "COMTYC",
    "licenseStatus": "ACTIVE",
    "inService": true,
    "licenseNumber": "550003827",
    "licenseEffectiveDate": "03/29/2025",
    "licenseExpirationDate": "03/28/2026",
    "dataDate": "10/18/2025",
    "capacity": 0,
    "address": "1855 N FAIR OAKS AVE, SUITE 200",
    "city": "PASADENA",
    "zip": "91103",
    "county": "LOS ANGELES",
    "phone": null,
    "lat": 34.17780502,
    "lng": -118.151234
  },
  {
    "id": "970000194",
    "name": "BRIGHTON CARE CENTER",
    "npi": "1912248972",
    "hcaiId": "206190713",
    "businessName": "BRIGHTON CONVALESCENT, LLC",
    "contactEmail": "ADMINISTRATOR@1836BRIGHTONCARE.COM",
    "categoryName": "SKILLED NURSING FACILITY",
    "categoryCode": "SNF",
    "licenseStatus": "ACTIVE",
    "inService": true,
    "licenseNumber": "970000092",
    "licenseEffectiveDate": "08/22/2025",
    "licenseExpirationDate": "08/21/2026",
    "dataDate": "10/18/2025",
    "capacity": 99,
    "address": "1836 N FAIR OAKS AVE",
    "city": "PASADENA",
    "zip": "91103",
    "county": "LOS ANGELES",
    "phone": "(626) 798-9124",
    "lat": 34.177437,
    "lng": -118.150182
  },
  {
    "id": "970000163",
    "name": "CAMELLIA GARDENS CARE CENTER",
    "npi": "1891337234",
    "hcaiId": "206190265",
    "businessName": "HIGHLAND HEALTHCARE CAMELLIA GARDENS, LLC",
    "contactEmail": "ADMINISTRATOR@CAMELLIAGARDENSCC.COM",
    "categoryName": "SKILLED NURSING FACILITY",
    "categoryCode": "SNF",
    "licenseStatus": "ACTIVE",
    "inService": true,
    "licenseNumber": "970000078",
    "licenseEffectiveDate": "05/05/2025",
    "licenseExpirationDate": "05/04/2026",
    "dataDate": "10/18/2025",
    "capacity": 80,
    "address": "1920 N FAIR OAKS AVE",
    "city": "PASADENA",
    "zip": "91103",
    "county": "LOS ANGELES",
    "phone": "(626) 798-6777",
    "lat": 34.179102,
    "lng": -118.150164
  },
  {
    "id": "970000188",
    "name": "CEDAR PINE POST ACUTE",
    "npi": "1952786931",
    "hcaiId": "206190645",
    "businessName": "PASADENA CARE CENTER, LLC",
    "contactEmail": "ADMIN@PASADENACARECENTER.COM",
    "categoryName": "SKILLED NURSING FACILITY",
    "categoryCode": "SNF",
    "licenseStatus": "ACTIVE",
    "inService": true,
    "licenseNumber": "970000090",
    "licenseEffectiveDate": "09/16/2025",
    "licenseExpirationDate": "09/15/2026",
    "dataDate": "10/18/2025",
    "capacity": 99,
    "address": "1640 N FAIR OAKS AVE",
    "city": "PASADENA",
    "zip": "91103",
    "county": "LOS ANGELES",
    "phone": "(626) 773-7969",
    "lat": 34.173729,
    "lng": -118.150236
  },
  {
    "id": "970000174",
    "name": "FOOTHILL HEIGHTS CARE CENTER",
    "npi": "1457719783",
    "hcaiId": "206190389",
    "businessName": "FOOTHILL HEIGHTS CARE CENTER, LLC",
    "contactEmail": "ADMINISTRATOR@FOOTHILLOPS.COM",
    "categoryName": "SKILLED NURSING FACILITY",
    "categoryCode": "SNF",
    "licenseStatus": "ACTIVE",
    "inService": true,
    "licenseNumber": "970000083",
    "licenseEffectiveDate": "03/23/2025",
    "licenseExpirationDate": "03/22/2026",
    "dataDate": "10/18/2025",
    "capacity": 49,
    "address": "1515 N FAIR OAKS AVE",
    "city": "PASADENA",
    "zip": "91103",
    "county": "LOS ANGELES",
    "phone": "(626) 798-1111",
    "lat": 34.172064,
    "lng": -118.151145
  },
  {
    "id": "970000165",
    "name": "GOLDEN ROSE CARE CENTER",
    "npi": "1851987234",
    "hcaiId": "206190270",
    "businessName": "RG LEGACY I, LLC",
    "contactEmail": "RAGINIKAUR01@GMAIL.COM",
    "categoryName": "SKILLED NURSING FACILITY",
    "categoryCode": "SNF",
    "licenseStatus": "ACTIVE",
    "inService": true,
    "licenseNumber": "970000079",
    "licenseEffectiveDate": "12/28/2024",
    "licenseExpirationDate": "12/27/2025",
    "dataDate": "10/18/2025",
    "capacity": 95,
    "address": "1899 N RAYMOND AVE",
    "city": "PASADENA",
    "zip": "91103",
    "county": "LOS ANGELES",
    "phone": "(626) 797-2120",
    "lat": 34.178427,
    "lng": -118.1496555
  },
  {
    "id": "630023090",
    "name": "HELIOS HOME HEALTH, INC.",
    "npi": null,
    "hcaiId": "406195218",
    "businessName": "HELIOS HOME HEALTH, INC.",
    "contactEmail": "HELIOSHOMEHEALTHCARE@GMAIL.COM",
    "categoryName": "HOME HEALTH AGENCY",
    "categoryCode": "HHA",
    "licenseStatus": "ACTIVE",
    "inService": true,
    "licenseNumber": "550007908",
    "licenseEffectiveDate": "03/22/2025",
    "licenseExpirationDate": "03/21/2026",
    "dataDate": "10/18/2025",
    "capacity": 0,
    "address": "4 E HOLLY ST, SUITE 207",
    "city": "PASADENA",
    "zip": "91103",
    "county": "LOS ANGELES",
    "phone": "(626) 421-6133",
    "lat": 34.147476,
    "lng": -118.150029
  },
  {
    "id": "980000992",
    "name": "KAISER FOUNDATION HOSPITAL LOS ANGELES HHA",
    "npi": "1124173059",
    "hcaiId": "406190723",
    "businessName": "KAISER FOUNDATION HOSPITALS",
    "contactEmail": "SHERILL.A.AGDEPPA@KP.ORG",
    "categoryName": "HOME HEALTH AGENCY",
    "categoryCode": "HHA",
    "licenseStatus": "ACTIVE",
    "inService": true,
    "licenseNumber": "980000510",
    "licenseEffectiveDate": "11/27/2025",
    "licenseExpirationDate": "11/26/2026",
    "dataDate": "10/18/2025",
    "capacity": 0,
    "address": "74 N PASADENA AVE, FLOOR 6",
    "city": "PASADENA",
    "zip": "91103",
    "county": "LOS ANGELES",
    "phone": "(323) 251-6504",
    "lat": 34.14726501,
    "lng": -118.152361
  },
  {
    "id": "980001140",
    "name": "KAISER FOUNDATION HOSPITAL LOS ANGELES- HOSPICE",
    "npi": null,
    "hcaiId": null,
    "businessName": "KAISER FOUNDATION HOSPITALS",
    "contactEmail": "SHEETAL.X.PENDHARKAR@KP.ORG",
    "categoryName": "HOSPICE",
    "categoryCode": "HOSPICE",
    "licenseStatus": "ACTIVE",
    "inService": true,
    "licenseNumber": "980000510",
    "licenseEffectiveDate": "11/27/2025",
    "licenseExpirationDate": "11/26/2026",
    "dataDate": "10/18/2025",
    "capacity": 0,
    "address": "74 N PASADENA AVE, FLOOR 6",
    "city": "PASADENA",
    "zip": "91103",
    "county": "LOS ANGELES",
    "phone": "(323) 783-7256",
    "lat": 34.14726501,
    "lng": -118.152361
  },
  {
    "id": "630024765",
    "name": "OMEGA CARE HOME HEALTH",
    "npi": null,
    "hcaiId": "406195568",
    "businessName": "OMEGA CARE HOME HEALTH",
    "contactEmail": "OMEGACAREHH@GMAIL.COM",
    "categoryName": "HOME HEALTH AGENCY",
    "categoryCode": "HHA",
    "licenseStatus": "ACTIVE",
    "inService": true,
    "licenseNumber": "550008179",
    "licenseEffectiveDate": "09/30/2025",
    "licenseExpirationDate": "09/29/2026",
    "dataDate": "10/18/2025",
    "capacity": 0,
    "address": "842 N FAIR OAKS AVE, UNIT 150",
    "city": "PASADENA",
    "zip": "91103",
    "county": "LOS ANGELES",
    "phone": "(888) 663-4280",
    "lat": 34.160202,
    "lng": -118.1501505
  },
  {
    "id": "970000161",
    "name": "PASADENA GROVE HEALTH CENTER",
    "npi": "1235669482",
    "hcaiId": "206190263",
    "businessName": "EISENHOWER HEALTHCARE, LLC",
    "contactEmail": "ADMINISTRATOR@PASGROVE.COM",
    "categoryName": "SKILLED NURSING FACILITY",
    "categoryCode": "SNF",
    "licenseStatus": "ACTIVE",
    "inService": true,
    "licenseNumber": "970000077",
    "licenseEffectiveDate": "10/09/2025",
    "licenseExpirationDate": "10/08/2026",
    "dataDate": "10/18/2025",
    "capacity": 71,
    "address": "1470 N FAIR OAKS AVE",
    "city": "PASADENA",
    "zip": "91103",
    "county": "LOS ANGELES",
    "phone": "(626) 798-9133",
    "lat": 34.17111,
    "lng": -118.1503845
  },
  {
    "id": "970000186",
    "name": "PASADENA NURSING CENTER",
    "npi": "1225637994",
    "hcaiId": "206190612",
    "businessName": "RG LEGACY II, LLC",
    "contactEmail": "SHAHRZAD.JANNAT@GMAIL.COM",
    "categoryName": "SKILLED NURSING FACILITY",
    "categoryCode": "SNF",
    "licenseStatus": "ACTIVE",
    "inService": true,
    "licenseNumber": "970000089",
    "licenseEffectiveDate": "12/28/2024",
    "licenseExpirationDate": "12/27/2025",
    "dataDate": "10/18/2025",
    "capacity": 54,
    "address": "1570 N FAIR OAKS AVE",
    "city": "PASADENA",
    "zip": "91103",
    "county": "LOS ANGELES",
    "phone": "(760) 586-7827",
    "lat": 34.172991,
    "lng": -118.150155
  },
  {
    "id": "970000167",
    "name": "SAINT VINCENT HEALTHCARE",
    "npi": "1316264567",
    "hcaiId": "206190290",
    "businessName": "ST. VINCENT HEALTHCARE LLC",
    "contactEmail": "ADMINISTRATOR@STVINCENT1810.COM",
    "categoryName": "SKILLED NURSING FACILITY",
    "categoryCode": "SNF",
    "licenseStatus": "ACTIVE",
    "inService": true,
    "licenseNumber": "970000080",
    "licenseEffectiveDate": "11/16/2025",
    "licenseExpirationDate": "11/15/2026",
    "dataDate": "10/18/2025",
    "capacity": 78,
    "address": "1810 N FAIR OAKS AVE",
    "city": "PASADENA",
    "zip": "91103",
    "county": "LOS ANGELES",
    "phone": "(626) 398-8182",
    "lat": 34.176861,
    "lng": -118.1502765
  },
  {
    "id": "630019847",
    "name": "WESLEY HEALTH CENTERS - ANDREW ESCAJEDA CLINIC",
    "npi": null,
    "hcaiId": null,
    "businessName": "JWCH INSTITUTE, INC.",
    "contactEmail": null,
    "categoryName": "PRIMARY CARE CLINIC",
    "categoryCode": "COMTYC",
    "licenseStatus": "ACTIVE",
    "inService": true,
    "licenseNumber": "960001280",
    "licenseEffectiveDate": "11/30/2024",
    "licenseExpirationDate": "11/29/2025",
    "dataDate": "10/18/2025",
    "capacity": 0,
    "address": "1845 N FAIR OAKS AVE, SUITE G151",
    "city": "PASADENA",
    "zip": "91103",
    "county": "LOS ANGELES",
    "phone": "(562) 867-7999",
    "lat": 34.177806,
    "lng": -118.151217
  },
  {
    "id": "630019850",
    "name": "WESLEY HEALTH CENTERS - MICHAEL ANTONOVICH DENTAL CLINIC",
    "npi": "1407808058",
    "hcaiId": null,
    "businessName": "JWCH INSTITUTE, INC.",
    "contactEmail": null,
    "categoryName": "PRIMARY CARE CLINIC",
    "categoryCode": "COMTYC",
    "licenseStatus": "ACTIVE",
    "inService": true,
    "licenseNumber": "960001280",
    "licenseEffectiveDate": "11/30/2024",
    "licenseExpirationDate": "11/29/2025",
    "dataDate": "10/18/2025",
    "capacity": 0,
    "address": "1845 N FAIR OAKS AVE, SUITE 1101",
    "city": "PASADENA",
    "zip": "91103",
    "county": "LOS ANGELES",
    "phone": null,
    "lat": 34.177806,
    "lng": -118.151217
  }
]