[
  {
    "id": "630020647",
    "name": "A1 QUALITY HEALTH CARE, INC.",
    "npi": null,
    "hcaiId": "406193132",
    "businessName": "A1 QUALITY HEALTH CARE, INC.",
    "contactEmail": "A1QUALITYHH@GMAIL.COM",
    "categoryName": "HOME HEALTH AGENCY",
    "categoryCode": "HHA",
    "licenseStatus": "ACTIVE",
    "inService": true,
    "licenseNumber": "550006231",
    "licenseEffectiveDate": "04/23/2025",
    "licenseExpirationDate": "04/22/2026",
    "dataDate": "10/18/2025",
    "capacity": 0,
    "address": "2525 E COLORADO BLVD, SUITE 102",
    "city": "PASADENA",
    "zip": "91107",
    "county": "LOS ANGELES",
    "phone": "(626) 602-0274",
    "lat": 34.146432,
    "lng": -118.097946
  },
  {
    "id": "980002201",
    "name": "AGB HOME HEALTH, INC.",
    "npi": "1033241773",
    "hcaiId": "406197064",
    "businessName": "AGB HOME HEALTH, INC.",
    "contactEmail": "AGBHOMEHEALTH@GMAIL.COM",
    "categoryName": "HOME HEALTH AGENCY",
    "categoryCode": "HHA",
    "licenseStatus": "ACTIVE",
    "inService": true,
    "licenseNumber": "980001322",
    "licenseEffectiveDate": "11/16/2024",
    "licenseExpirationDate": "11/15/2025",
    "dataDate": "10/18/2025",
    "capacity": 0,
    "address": "40 N ALTADENA DR, SUITE 200G",
    "city": "PASADENA",
    "zip": "91107",
    "county": "LOS ANGELES",
    "phone": "(310) 516-9255",
    "lat": 34.146616,
    "lng": -118.097983
  },
  {
    "id": "630017991",
    "name": "ALAUNUS HOME HEALTH, INC.",
    "npi": null,
    "hcaiId": "406191994",
    "businessName": "ALAUNUS HOME HEALTH, INC.",
    "contactEmail": "ALAUNUSHH@YAHOO.COM",
    "categoryName": "HOME HEALTH AGENCY",
    "categoryCode": "HHA",
    "licenseStatus": "ACTIVE",
    "inService": true,
    "licenseNumber": "550004920",
    "licenseEffectiveDate": "08/29/2025",
    "licenseExpirationDate": "08/28/2026",
    "dataDate": "10/18/2025",
    "capacity": 0,
    "address": "110 S ROSEMEAD BLVD, SUITE R4",
    "city": "PASADENA",
    "zip": "91107",
    "county": "LOS ANGELES",
    "phone": "(626) 427-0801",
    "lat": 34.144497,
    "lng": -118.073097
  },
  {
    "id": "630024745",
    "name": "ALL FOR YOU HOME HEALTH CARE",
    "npi": null,
    "hcaiId": "406190295",
    "businessName": "ALL FOR YOU HOME HEALTH CARE",
    "contactEmail": "ALLFORYOUHHC@GMAIL.COM",
    "categoryName": "HOME HEALTH AGENCY",
    "categoryCode": "HHA",
    "licenseStatus": "ACTIVE",
    "inService": true,
    "licenseNumber": "550008412",
    "licenseEffectiveDate": "03/02/2025",
    "licenseExpirationDate": "03/01/2026",
    "dataDate": "10/18/2025",
    "capacity": 0,
    "address": "40 N ALTADENA DR, SUITE 200J",
    "city": "PASADENA",
    "zip": "91107",
    "county": "LOS ANGELES",
    "phone": "(818) 949-1031",
    "lat": 34.14654,
    "lng": -118.0981035
  },
  {
    "id": "630020156",
    "name": "ALL HEART HOSPICE, INC.",
    "npi": null,
    "hcaiId": "406190314",
    "businessName": "ALL HEART HOSPICE, INC.",
    "contactEmail": "ALLHEARTHOSPICE@GMAIL.COM",
    "categoryName": "HOSPICE",
    "categoryCode": "HOSPICE",
    "licenseStatus": "ACTIVE",
    "inService": true,
    "licenseNumber": "550006323",
    "licenseEffectiveDate": "04/27/2025",
    "licenseExpirationDate": "04/26/2027",
    "dataDate": "10/18/2025",
    "capacity": 0,
    "address": "133 N ALTADENA DR, SUITE 307",
    "city": "PASADENA",
    "zip": "91107",
    "county": "LOS ANGELES",
    "phone": "(747) 251-4010",
    "lat": 34.14843102,
    "lng": -118.099025
  },
  {
    "id": "630020970",
    "name": "ALTADENA HOSPICE CARE, INC.",
    "npi": null,
    "hcaiId": "406193193",
    "businessName": "ALTADENA HOSPICE CARE, INC.",
    "contactEmail": "ALTADENAHOSPICECARE@YAHOO.COM",
    "categoryName": "HOSPICE",
    "categoryCode": "HOSPICE",
    "licenseStatus": "ACTIVE",
    "inService": true,
    "licenseNumber": "550006241",
    "licenseEffectiveDate": "05/03/2025",
    "licenseExpirationDate": "05/02/2027",
    "dataDate": "10/18/2025",
    "capacity": 0,
    "address": "133 N ALTADENA DR, SUITE 385",
    "city": "PASADENA",
    "zip": "91107",
    "county": "LOS ANGELES",
    "phone": "(626) 380-2903",
    "lat": 34.148529,
    "lng": -118.0992195
  },
  {
    "id": "630018109",
    "name": "ALTADENA SURGERY CENTER",
    "npi": null,
    "hcaiId": null,
    "businessName": null,
    "contactEmail": null,
    "categoryName": "SURGICAL CLINIC",
    "categoryCode": "ASC",
    "licenseStatus": null,
    "inService": null,
    "licenseNumber": null,
    "licenseEffectiveDate": null,
    "licenseExpirationDate": null,
    "dataDate": "10/18/2025",
    "capacity": 0,
    "address": "2615 E WASHINGTON BLVD, SUITE 100",
    "city": "PASADENA",
    "zip": "91107",
    "county": "LOS ANGELES",
    "phone": "(626) 269-2608",
    "lat": 34.1692171,
    "lng": -118.0964657
  },
  {
    "id": "630027502",
    "name": "ALTAMED MEDICAL GROUP - PASADENA, DEL MAR",
    "npi": "1790177582",
    "hcaiId": "306190020",
    "businessName": "ALTAMED HEALTH SERVICES CORPORATION",
    "contactEmail": null,
    "categoryName": "PRIMARY CARE CLINIC",
    "categoryCode": "COMTYC",
    "licenseStatus": "ACTIVE",
    "inService": true,
    "licenseNumber": "550003268",
    "licenseEffectiveDate": "10/29/2025",
    "licenseExpirationDate": "10/28/2026",
    "dataDate": "10/18/2025",
    "capacity": 0,
    "address": "3160 E DEL MAR BLVD, SUITE 100",
    "city": "PASADENA",
    "zip": "91107",
    "county": "LOS ANGELES",
    "phone": "(626) 389-8715",
    "lat": 34.141812,
    "lng": -118.085291
  },
  {
    "id": "630022465",
    "name": "AMERICAN EAGLE HOME HEALTH CARE, INC.",
    "npi": null,
    "hcaiId": "406195109",
    "businessName": "AMERICAN EAGLE HOME HEALTH CARE, INC.",
    "contactEmail": "AMERICANEAGLEHOMEHEALTH@GMAIL.COM",
    "categoryName": "HOME HEALTH AGENCY",
    "categoryCode": "HHA",
    "licenseStatus": "ACTIVE",
    "inService": true,
    "licenseNumber": "550007757",
    "licenseEffectiveDate": "01/06/2025",
    "licenseExpirationDate": "01/05/2026",
    "dataDate": "10/18/2025",
    "capacity": 0,
    "address": "490 S ROSEMEAD BLVD, SUITE 4",
    "city": "PASADENA",
    "zip": "91107",
    "county": "LOS ANGELES",
    "phone": "(626) 550-0605",
    "lat": 34.138035,
    "lng": -118.073034
  },
  {
    "id": "630021595",
    "name": "ANGEL OF MERCY HOSPICE",
    "npi": null,
    "hcaiId": "406193303",
    "businessName": "ANGEL OF MERCY HOSPICE",
    "contactEmail": "ANGELOFMERCYHOSPICE@GMAIL.COM",
    "categoryName": "HOSPICE",
    "categoryCode": "HOSPICE",
    "licenseStatus": "ACTIVE",
    "inService": true,
    "licenseNumber": "550007116",
    "licenseEffectiveDate": "10/29/2023",
    "licenseExpirationDate": "10/28/2025",
    "dataDate": "10/18/2025",
    "capacity": 0,
    "address": "133 N ALTADENA DR, UNIT 260",
    "city": "PASADENA",
    "zip": "91107",
    "county": "LOS ANGELES",
    "phone": "(626) 926-4303",
    "lat": 34.14843102,
    "lng": -118.099025
  },
  {
    "id": "630022476",
    "name": "ATLANTIC HOME HEALTH CARE, INC.",
    "npi": null,
    "hcaiId": "406195468",
    "businessName": "ATLANTIC HOME HEALTH CARE, INC.",
    "contactEmail": "ATLANTICAHOMEHEALTHCAREINC@GMAIL.COM",
    "categoryName": "HOME HEALTH AGENCY",
    "categoryCode": "HHA",
    "licenseStatus": "ACTIVE",
    "inService": true,
    "licenseNumber": "550007880",
    "licenseEffectiveDate": "03/10/2025",
    "licenseExpirationDate": "03/09/2026",
    "dataDate": "10/18/2025",
    "capacity": 0,
    "address": "490 S ROSEMEAD BLVD, SUITE 6",
    "city": "PASADENA",
    "zip": "91107",
    "county": "LOS ANGELES",
    "phone": "(626) 800-0137",
    "lat": 34.138035,
    "lng": -118.073034
  },
  {
    "id": "630020194",
    "name": "ATRIUM HOSPICE, INC.",
    "npi": null,
    "hcaiId": "406194809",
    "businessName": "ATRIUM HOSPICE, INC.",
    "contactEmail": "ATRIUMHOSPICEINC@GMAIL.COM",
    "categoryName": "HOSPICE",
    "categoryCode": "HOSPICE",
    "licenseStatus": "ACTIVE",
    "inService": true,
    "licenseNumber": "550006050",
    "licenseEffectiveDate": "02/06/2025",
    "licenseExpirationDate": "02/05/2027",
    "dataDate": "10/18/2025",
    "capacity": 0,
    "address": "133 N ALTADENA DR, SUITE 301",
    "city": "PASADENA",
    "zip": "91107",
    "county": "LOS ANGELES",
    "phone": "(626) 469-0020",
    "lat": 34.14843102,
    "lng": -118.099025
  },
  {
    "id": "930000137",
    "name": "AURORA LAS ENCINAS HOSPITAL",
    "npi": "1700843216",
    "hcaiId": "106190462",
    "businessName": "AURORA LAS ENCINAS, LLC",
    "contactEmail": "TREVOR.ASMUS@AURORABEHAVIORAL.COM",
    "categoryName": "ACUTE PSYCHIATRIC HOSPITAL",
    "categoryCode": "APH",
    "licenseStatus": "ACTIVE",
    "inService": true,
    "licenseNumber": "930000087",
    "licenseEffectiveDate": "03/11/2025",
    "licenseExpirationDate": "03/10/2026",
    "dataDate": "10/18/2025",
    "capacity": 118,
    "address": "2900 E DEL MAR BLVD",
    "city": "PASADENA",
    "zip": "91107",
    "county": "LOS ANGELES",
    "phone": "(626) 795-9901",
    "lat": 34.140915,
    "lng": -118.091511
  },
  {
    "id": "630021885",
    "name": "AUXILIUM HOME HEALTH INC",
    "npi": null,
    "hcaiId": "406195852",
    "businessName": "AUXILIUM HOME HEALTH INC.",
    "contactEmail": "AUXILIUMHH@GMAIL.COM",
    "categoryName": "HOME HEALTH AGENCY",
    "categoryCode": "HHA",
    "licenseStatus": "ACTIVE",
    "inService": true,
    "licenseNumber": "550008002",
    "licenseEffectiveDate": "05/27/2025",
    "licenseExpirationDate": "05/26/2026",
    "dataDate": "10/18/2025",
    "capacity": 0,
    "address": "2525 E COLORADO BLVD, SUITE 106",
    "city": "PASADENA",
    "zip": "91107",
    "county": "LOS ANGELES",
    "phone": "(626) 376-9271",
    "lat": 34.14654,
    "lng": -118.0981035
  },
  {
    "id": "630021997",
    "name": "BELOVED HOME HEALTH, INC.",
    "npi": null,
    "hcaiId": "406193387",
    "businessName": "BELOVED HOME HEALTH, INC.",
    "contactEmail": "4BELOVEDHH@GMAIL.COM",
    "categoryName": "HOME HEALTH AGENCY",
    "categoryCode": "HHA",
    "licenseStatus": "ACTIVE",
    "inService": true,
    "licenseNumber": "550007156",
    "licenseEffectiveDate": "10/13/2025",
    "licenseExpirationDate": "10/12/2026",
    "dataDate": "10/18/2025",
    "capacity": 0,
    "address": "2500 E FOOTHILL BLVD, SUITE 203",
    "city": "PASADENA",
    "zip": "91107",
    "county": "LOS ANGELES",
    "phone": "(800) 893-5003",
    "lat": 34.149384,
    "lng": -118.097973
  },
  {
    "id": "630025665",
    "name": "BLOSSOM HOME HEALTH CARE SERVICES INC",
    "npi": null,
    "hcaiId": "406197914",
    "businessName": "BLOSSOM HOME HEALTH CARE SERVICES INC",
    "contactEmail": "BLOSSOMHHC21@GMAIL.COM",
    "categoryName": "HOME HEALTH AGENCY",
    "categoryCode": "HHA",
    "licenseStatus": "ACTIVE",
    "inService": true,
    "licenseNumber": "550008828",
    "licenseEffectiveDate": "11/22/2024",
    "licenseExpirationDate": "11/21/2025",
    "dataDate": "10/18/2025",
    "capacity": 0,
    "address": "2525 E COLORADO BLVD, SUITE 105",
    "city": "PASADENA",
    "zip": "91107",
    "county": "LOS ANGELES",
    "phone": "(747) 377-1719",
    "lat": 34.14654,
    "lng": -118.0981035
  },
  {
    "id": "630020656",
    "name": "BLUE RIVER HOSPICE, INC.",
    "npi": null,
    "hcaiId": "406193914",
    "businessName": "BLUE RIVER HOSPICE, INC.",
    "contactEmail": "BLUERIVERHOSPICE@GMAIL.COM",
    "categoryName": "HOSPICE",
    "categoryCode": "HOSPICE",
    "licenseStatus": "ACTIVE",
    "inService": true,
    "licenseNumber": "550007339",
    "licenseEffectiveDate": "11/19/2025",
    "licenseExpirationDate": "11/18/2027",
    "dataDate": "10/18/2025",
    "capacity": 0,
    "address": "171 N ALTADENA DR, SUITE 235",
    "city": "PASADENA",
    "zip": "91107",
    "county": "LOS ANGELES",
    "phone": "(818) 921-3177",
    "lat": 34.149032,
    "lng": -118.098928
  },
  {
    "id": "960001548",
    "name": "BROWN HOUSE",
    "npi": "1831305564",
    "hcaiId": null,
    "businessName": "VILLA ESPERANZA SERVICES",
    "contactEmail": "KWHITE@VILLAESPERANZASERVICES.ORG",
    "categoryName": "INTERMEDIATE CARE FACILITY-DD/H/N/CN/IID",
    "categoryCode": "ICFDDH",
    "licenseStatus": "ACTIVE",
    "inService": true,
    "licenseNumber": "960000776",
    "licenseEffectiveDate": "11/05/2025",
    "licenseExpirationDate": "11/04/2026",
    "dataDate": "10/18/2025",
    "capacity": 6,
    "address": "427 N CRAIG AVE",
    "city": "PASADENA",
    "zip": "91107",
    "county": "LOS ANGELES",
    "phone": "(626) 795-4925",
    "lat": 34.153542,
    "lng": -118.106685
  },
  {
    "id": "630021474",
    "name": "CAREGENICS HOME HEALTH, INC.",
    "npi": null,
    "hcaiId": "406193149",
    "businessName": "CAREGENICS HOME HEALTH, INC.",
    "contactEmail": "INFO@CAREGENICSHEALTH.COM",
    "categoryName": "HOME HEALTH AGENCY",
    "categoryCode": "HHA",
    "licenseStatus": "ACTIVE",
    "inService": true,
    "licenseNumber": "550006507",
    "licenseEffectiveDate": "07/06/2025",
    "licenseExpirationDate": "07/05/2026",
    "dataDate": "10/18/2025",
    "capacity": 0,
    "address": "2058 E VILLA ST",
    "city": "PASADENA",
    "zip": "91107",
    "county": "LOS ANGELES",
    "phone": "(626) 314-5575",
    "lat": 34.154353,
    "lng": -118.107859
  },
  {
    "id": "630018936",
    "name": "COLORADO HOME HEALTH CARE, INC",
    "npi": "1417511049",
    "hcaiId": "406192487",
    "businessName": "COLORADO HOME HEALTH CARE, INC",
    "contactEmail": "COLORADOHOMEHEALTHCARE@YAHOO.COM",
    "categoryName": "HOME HEALTH AGENCY",
    "categoryCode": "HHA",
    "licenseStatus": "ACTIVE",
    "inService": true,
    "licenseNumber": "550005230",
    "licenseEffectiveDate": "01/09/2023",
    "licenseExpirationDate": "01/08/2024",
    "dataDate": "10/18/2025",
    "capacity": 0,
    "address": "2525 E COLORADO BLVD, SUITE 112",
    "city": "PASADENA",
    "zip": "91107",
    "county": "LOS ANGELES",
    "phone": "(626) 328-4446",
    "lat": 34.146432,
    "lng": -118.097946
  },
  {
    "id": "630017326",
    "name": "COMPLETE CARE COMMUNITY HEALTH CENTER - ALTADENA",
    "npi": null,
    "hcaiId": null,
    "businessName": "COMPLETE CARE COMMUNITY HEALTH CENTER, INC.",
    "contactEmail": null,
    "categoryName": "PRIMARY CARE CLINIC",
    "categoryCode": "COMTYC",
    "licenseStatus": "ACTIVE",
    "inService": true,
    "licenseNumber": "550000639",
    "licenseEffectiveDate": "12/10/2024",
    "licenseExpirationDate": "12/09/2025",
    "dataDate": "10/18/2025",
    "capacity": 0,
    "address": "2595 E WASHINGTON BLVD, SUITE 106",
    "city": "PASADENA",
    "zip": "91107",
    "county": "LOS ANGELES",
    "phone": "(626) 794-8133",
    "lat": 34.169553,
    "lng": -118.0968975
  },
  {
    "id": "630016567",
    "name": "CONTINUUM CARE HOSPICE, INC.",
    "npi": "1083072326",
    "hcaiId": "406191012",
    "businessName": "CONTINUUM CARE HOSPICE INC",
    "contactEmail": "CONTINUUM2500@GMAIL.COM",
    "categoryName": "HOSPICE",
    "categoryCode": "HOSPICE",
    "licenseStatus": "ACTIVE",
    "inService": true,
    "licenseNumber": "550004264",
    "licenseEffectiveDate": "04/19/2020",
    "licenseExpirationDate": "04/18/2022",
    "dataDate": "10/18/2025",
    "capacity": 0,
    "address": "133 N ALTADENA DR, SUITE 401",
    "city": "PASADENA",
    "zip": "91107",
    "county": "LOS ANGELES",
    "phone": "(626) 460-8239",
    "lat": 34.148457,
    "lng": -118.099215
  },
  {
    "id": "630021968",
    "name": "EARLY BIRD HOME HEALTH",
    "npi": null,
    "hcaiId": "406193186",
    "businessName": "EARLY BIRD HOME HEALTH",
    "contactEmail": "4EARLYBIRDHH@GMAIL.COM",
    "categoryName": "HOME HEALTH AGENCY",
    "categoryCode": "HHA",
    "licenseStatus": "ACTIVE",
    "inService": true,
    "licenseNumber": "550007018",
    "licenseEffectiveDate": "12/11/2024",
    "licenseExpirationDate": "10/20/2025",
    "dataDate": "10/18/2025",
    "capacity": 0,
    "address": "3827 E COLORADO BLVD",
    "city": "PASADENA",
    "zip": "91107",
    "county": "LOS ANGELES",
    "phone": "(818) 287-0066",
    "lat": 34.14701293,
    "lng": -118.0699174
  },
  {
    "id": "930000213",
    "name": "EATON CANYON DIALYSIS CENTER",
    "npi": "1023592763",
    "hcaiId": "306191387",
    "businessName": "TOTAL RENAL CARE, INC.",
    "contactEmail": "CAL_C@DAVITA.COM",
    "categoryName": "CHRONIC DIALYSIS CLINIC",
    "categoryCode": "ESRD/CDC",
    "licenseStatus": "ACTIVE",
    "inService": true,
    "licenseNumber": "930000337",
    "licenseEffectiveDate": "11/01/2025",
    "licenseExpirationDate": "10/31/2026",
    "dataDate": "10/18/2025",
    "capacity": 31,
    "address": "2551 E WASHINGTON BLVD",
    "city": "PASADENA",
    "zip": "91107",
    "county": "LOS ANGELES",
    "phone": "(626) 798-8896",
    "lat": 34.169571,
    "lng": -118.097541
  },
  {
    "id": "630021961",
    "name": "FINE CHOICE HOSPICE, INC.",
    "npi": null,
    "hcaiId": "406193898",
    "businessName": "FINE CHOICE HOSPICE, INC.",
    "contactEmail": "INFO.FINECHOICEHOSPICE@GMAIL.COM",
    "categoryName": "HOSPICE",
    "categoryCode": "HOSPICE",
    "licenseStatus": "ACTIVE",
    "inService": true,
    "licenseNumber": "550007213",
    "licenseEffectiveDate": "05/23/2024",
    "licenseExpirationDate": "11/17/2025",
    "dataDate": "10/18/2025",
    "capacity": 0,
    "address": "133 N ALTADENA DR, SUITE 250",
    "city": "PASADENA",
    "zip": "91107",
    "county": "LOS ANGELES",
    "phone": "(747) 291-0922",
    "lat": 34.14843102,
    "lng": -118.099025
  },
  {
    "id": "630013748",
    "name": "GENERATIONS HEALTHCARE AGENCY, INC.",
    "npi": "1457871287",
    "hcaiId": "406197984",
    "businessName": "GENERATIONS HEALTHCARE AGENCY, INC.",
    "contactEmail": "GENERATIONSHEALTH@YAHOO.COM",
    "categoryName": "HOME HEALTH AGENCY",
    "categoryCode": "HHA",
    "licenseStatus": "ACTIVE",
    "inService": true,
    "licenseNumber": "550002617",
    "licenseEffectiveDate": "03/19/2025",
    "licenseExpirationDate": "03/18/2026",
    "dataDate": "10/18/2025",
    "capacity": 0,
    "address": "110 SOUTH ROSEMEAD BOULEVARD, SUITE J",
    "city": "PASADENA",
    "zip": "91107",
    "county": "LOS ANGELES",
    "phone": "(818) 655-0500",
    "lat": 34.14450246,
    "lng": -118.0731064
  },
  {
    "id": "630021166",
    "name": "GENTLE CARE HOSPICE SERVICES CORP.",
    "npi": null,
    "hcaiId": "406193605",
    "businessName": "GENTLE CARE HOSPICE SERVICES CORP.",
    "contactEmail": "GCAREHOSPICE@GMAIL.COM",
    "categoryName": "HOSPICE",
    "categoryCode": "HOSPICE",
    "licenseStatus": "ACTIVE",
    "inService": true,
    "licenseNumber": "550006527",
    "licenseEffectiveDate": "07/07/2025",
    "licenseExpirationDate": "07/06/2027",
    "dataDate": "10/18/2025",
    "capacity": 0,
    "address": "490 S ROSEMEAD BLVD, SUITE 3",
    "city": "PASADENA",
    "zip": "91107",
    "county": "LOS ANGELES",
    "phone": "(818) 859-5666",
    "lat": 34.138035,
    "lng": -118.073034
  },
  {
    "id": "980002417",
    "name": "GRANDCARE HOME HEALTH SERVICES",
    "npi": "1326272766",
    "hcaiId": "406196465",
    "businessName": "MSJ HEALTHCARE, LLC",
    "contactEmail": "CREDENTIALING@GRANDCAREHEALTH.COM",
    "categoryName": "HOME HEALTH AGENCY",
    "categoryCode": "HHA",
    "licenseStatus": "ACTIVE",
    "inService": true,
    "licenseNumber": "980001527",
    "licenseEffectiveDate": "07/27/2025",
    "licenseExpirationDate": "07/26/2026",
    "dataDate": "10/18/2025",
    "capacity": 0,
    "address": "3452 E FOOTHILL BLVD, SUITE 130A",
    "city": "PASADENA",
    "zip": "91107",
    "county": "LOS ANGELES",
    "phone": "(866) 554-2447",
    "lat": 34.149159,
    "lng": -118.078389
  },
  {
    "id": "630021758",
    "name": "HEARTFUL HOSPICE CARE, INC.",
    "npi": null,
    "hcaiId": "406193668",
    "businessName": "HEARTFUL HOSPICE CARE, INC.",
    "contactEmail": "SAHAKYANSURO@GMAIL.COM",
    "categoryName": "HOSPICE",
    "categoryCode": "HOSPICE",
    "licenseStatus": "ACTIVE",
    "inService": true,
    "licenseNumber": "550006886",
    "licenseEffectiveDate": "10/01/2025",
    "licenseExpirationDate": "09/30/2027",
    "dataDate": "10/18/2025",
    "capacity": 0,
    "address": "2500 E FOOTHILL BLVD, SUITE 206",
    "city": "PASADENA",
    "zip": "91107",
    "county": "LOS ANGELES",
    "phone": "(818) 795-9269",
    "lat": 34.149384,
    "lng": -118.097973
  },
  {
    "id": "630013346",
    "name": "HOLY CROSS HOSPICE, INC.",
    "npi": null,
    "hcaiId": "406197769",
    "businessName": "HOLY CROSS HOSPICE, INC.",
    "contactEmail": "OFFICE@HCHOSPICE.ORG",
    "categoryName": "HOSPICE",
    "categoryCode": "HOSPICE",
    "licenseStatus": "ACTIVE",
    "inService": true,
    "licenseNumber": "550002036",
    "licenseEffectiveDate": "11/14/2024",
    "licenseExpirationDate": "11/13/2026",
    "dataDate": "10/18/2025",
    "capacity": 0,
    "address": "28 N OAK AVE, SUITE 201",
    "city": "PASADENA",
    "zip": "91107",
    "county": "LOS ANGELES",
    "phone": "(626) 283-6588",
    "lat": 34.146468,
    "lng": -118.1073195
  },
  {
    "id": "630027914",
    "name": "HOT DESERT HOME HEALTH CARE",
    "npi": null,
    "hcaiId": null,
    "businessName": "HOT DESERT HOME HEALTH CARE",
    "contactEmail": "HOTDESERTCARE@YAHOO.COM",
    "categoryName": "HOME HEALTH AGENCY",
    "categoryCode": "HHA",
    "licenseStatus": "ACTIVE",
    "inService": true,
    "licenseNumber": "550009988",
    "licenseEffectiveDate": "10/10/2025",
    "licenseExpirationDate": "04/09/2026",
    "dataDate": "10/18/2025",
    "capacity": 0,
    "address": "2500 E FOOTHILL BLVD, SUITE 401E",
    "city": "PASADENA",
    "zip": "91107",
    "county": "LOS ANGELES",
    "phone": "(707) 907-1007",
    "lat": 34.14964317,
    "lng": -118.0984168
  },
  {
    "id": "630018117",
    "name": "HUNTINGTON HOME HEALTH AGENCY",
    "npi": null,
    "hcaiId": "406191762",
    "businessName": "HUNTINGTON HOME HEALTH AGENCY",
    "contactEmail": "HUNTINGTONHH@GMAIL.COM",
    "categoryName": "HOME HEALTH AGENCY",
    "categoryCode": "HHA",
    "licenseStatus": "ACTIVE",
    "inService": true,
    "licenseNumber": "550004708",
    "licenseEffectiveDate": "05/21/2025",
    "licenseExpirationDate": "05/20/2026",
    "dataDate": "10/18/2025",
    "capacity": 0,
    "address": "171 N ALTADENA DR, UNIT #255",
    "city": "PASADENA",
    "zip": "91107",
    "county": "LOS ANGELES",
    "phone": "(626) 365-1423",
    "lat": 34.148934,
    "lng": -118.0988955
  },
  {
    "id": "630027634",
    "name": "IMPERIAL HEALTH ADHC",
    "npi": null,
    "hcaiId": null,
    "businessName": "AA BROTHERS, LLC",
    "contactEmail": "IMPERIALHEALTHADHC@GMAIL.COM",
    "categoryName": "ADULT DAY HEALTH CARE",
    "categoryCode": "ADHC",
    "licenseStatus": "ACTIVE",
    "inService": true,
    "licenseNumber": "550009391",
    "licenseEffectiveDate": "09/19/2025",
    "licenseExpirationDate": "09/18/2026",
    "dataDate": "10/18/2025",
    "capacity": 0,
    "address": "2180 E WALNUT ST",
    "city": "PASADENA",
    "zip": "91107",
    "county": "LOS ANGELES",
    "phone": "(626) 416-3335",
    "lat": 34.14840399,
    "lng": -118.105189
  },
  {
    "id": "630022372",
    "name": "IMPETUS HOME HEALTH CARE",
    "npi": null,
    "hcaiId": "406195515",
    "businessName": "IMPETUS HOME HEALTH CARE",
    "contactEmail": "IMPETUSHHA@GMAIL.COM",
    "categoryName": "HOME HEALTH AGENCY",
    "categoryCode": "HHA",
    "licenseStatus": "ACTIVE",
    "inService": true,
    "licenseNumber": "550007285",
    "licenseEffectiveDate": "10/26/2024",
    "licenseExpirationDate": "10/25/2025",
    "dataDate": "10/18/2025",
    "capacity": 0,
    "address": "133 N ALTADENA DR, SUITE 309",
    "city": "PASADENA",
    "zip": "91107",
    "county": "LOS ANGELES",
    "phone": "(626) 644-9186",
    "lat": 34.148529,
    "lng": -118.0992195
  },
  {
    "id": "630021361",
    "name": "LIBERTY HOSPICE SERVICES INC",
    "npi": null,
    "hcaiId": "406194879",
    "businessName": "LIBERTY HOSPICE SERVICES INC",
    "contactEmail": "LIBERTYHOSPICESERVICES@YAHOO.COM",
    "categoryName": "HOSPICE",
    "categoryCode": "HOSPICE",
    "licenseStatus": "ACTIVE",
    "inService": true,
    "licenseNumber": "550007335",
    "licenseEffectiveDate": "11/13/2023",
    "licenseExpirationDate": "11/12/2025",
    "dataDate": "10/18/2025",
    "capacity": 0,
    "address": "28 N OAK AVE, SUITE 203",
    "city": "PASADENA",
    "zip": "91107",
    "county": "LOS ANGELES",
    "phone": "(626) 469-0478",
    "lat": 34.146468,
    "lng": -118.1073195
  },
  {
    "id": "630020512",
    "name": "LIVERPOOL HOME CARE SERVICES",
    "npi": null,
    "hcaiId": "406193037",
    "businessName": "LIVERPOOL HOME CARE SERVICES",
    "contactEmail": "LIVERPOOLHCS@GMAIL.COM",
    "categoryName": "HOME HEALTH AGENCY",
    "categoryCode": "HHA",
    "licenseStatus": "ACTIVE",
    "inService": true,
    "licenseNumber": "550006249",
    "licenseEffectiveDate": "03/19/2025",
    "licenseExpirationDate": "03/18/2026",
    "dataDate": "10/18/2025",
    "capacity": 0,
    "address": "2828 E FOOTHILL BLVD, SUITE 202 B",
    "city": "PASADENA",
    "zip": "91107",
    "county": "LOS ANGELES",
    "phone": "(626) 710-3635",
    "lat": 34.14924,
    "lng": -118.092276
  },
  {
    "id": "630020591",
    "name": "MAXIMUM HOME CARE SERVICES",
    "npi": null,
    "hcaiId": "406195290",
    "businessName": "MAXIMUM HOME CARE SERVICES",
    "contactEmail": "MAXIMUMHCS@GMAIL.COM",
    "categoryName": "HOME HEALTH AGENCY",
    "categoryCode": "HHA",
    "licenseStatus": "ACTIVE",
    "inService": true,
    "licenseNumber": "550006616",
    "licenseEffectiveDate": "08/06/2025",
    "licenseExpirationDate": "08/05/2026",
    "dataDate": "10/18/2025",
    "capacity": 0,
    "address": "2828 E FOOTHILL BLVD, SUITE 202A",
    "city": "PASADENA",
    "zip": "91107",
    "county": "LOS ANGELES",
    "phone": "(626) 529-3248",
    "lat": 34.14924,
    "lng": -118.092276
  },
  {
    "id": "980002298",
    "name": "MED CARE PLUS HOME HEALTH, INC.",
    "npi": "1871963140",
    "hcaiId": "406196325",
    "businessName": "MED CARE PLUS HOME HEALTH, INC.",
    "contactEmail": "MCPHHINC@YAHOO.COM",
    "categoryName": "HOME HEALTH AGENCY",
    "categoryCode": "HHA",
    "licenseStatus": "ACTIVE",
    "inService": true,
    "licenseNumber": "980001413",
    "licenseEffectiveDate": "02/09/2025",
    "licenseExpirationDate": "02/08/2026",
    "dataDate": "10/18/2025",
    "capacity": 0,
    "address": "490 S ROSEMEAD BLVD, SUITE 9",
    "city": "PASADENA",
    "zip": "91107",
    "county": "LOS ANGELES",
    "phone": "(626) 796-0534",
    "lat": 34.138035,
    "lng": -118.073034
  },
  {
    "id": "980001495",
    "name": "MLH HEALTHCARE, INC.",
    "npi": "1598763468",
    "hcaiId": "406194724",
    "businessName": "MLH HEALTHCARE, INC.",
    "contactEmail": "MLHHEALTHCAREINC@GMAIL.COM",
    "categoryName": "HOME HEALTH AGENCY",
    "categoryCode": "HHA",
    "licenseStatus": "ACTIVE",
    "inService": true,
    "licenseNumber": "980000897",
    "licenseEffectiveDate": "08/28/2025",
    "licenseExpirationDate": "08/27/2026",
    "dataDate": "10/18/2025",
    "capacity": 0,
    "address": "2555 E COLORADO BLVD, SUITE 203",
    "city": "PASADENA",
    "zip": "91107",
    "county": "LOS ANGELES",
    "phone": "(626) 457-1874",
    "lat": 34.14654,
    "lng": -118.0981035
  },
  {
    "id": "980002396",
    "name": "N & D HEALTHCARE SERVICES, INC.",
    "npi": "1790870491",
    "hcaiId": "406191512",
    "businessName": "N & D HEALTHCARE SERVICES, INC.",
    "contactEmail": "INFO@GRANDCAREHEALTH.COM",
    "categoryName": "HOME HEALTH AGENCY",
    "categoryCode": "HHA",
    "licenseStatus": "ACTIVE",
    "inService": true,
    "licenseNumber": "980001506",
    "licenseEffectiveDate": "12/02/2024",
    "licenseExpirationDate": "12/01/2025",
    "dataDate": "10/18/2025",
    "capacity": 0,
    "address": "3452 E FOOTHILL BLVD, SUITE 700N",
    "city": "PASADENA",
    "zip": "91107",
    "county": "LOS ANGELES",
    "phone": "(866) 554-2447",
    "lat": 34.149159,
    "lng": -118.078389
  },
  {
    "id": "630028054",
    "name": "NOVEENA HOME HEALTH, INC.",
    "npi": null,
    "hcaiId": null,
    "businessName": "NOVEENA HOME HEALTH, INC",
    "contactEmail": "NOVEENAHEALTH@GMAIL.COM",
    "categoryName": "HOME HEALTH AGENCY",
    "categoryCode": "HHA",
    "licenseStatus": "ACTIVE",
    "inService": true,
    "licenseNumber": "550009902",
    "licenseEffectiveDate": "07/18/2025",
    "licenseExpirationDate": "01/17/2026",
    "dataDate": "10/18/2025",
    "capacity": 0,
    "address": "171 N ALTADENA DR, SUITE 220",
    "city": "PASADENA",
    "zip": "91107",
    "county": "LOS ANGELES",
    "phone": "(818) 660-5682",
    "lat": 34.149032,
    "lng": -118.098928
  },
  {
    "id": "630026117",
    "name": "PARTNERS IN CARE HOME HEALTH, INC",
    "npi": null,
    "hcaiId": null,
    "businessName": "PARTNERS IN CARE HOME HEALTH, INC",
    "contactEmail": "PARTNERSICHH@GMAIL.COM",
    "categoryName": "HOME HEALTH AGENCY",
    "categoryCode": "HHA",
    "licenseStatus": "ACTIVE",
    "inService": true,
    "licenseNumber": "550009410",
    "licenseEffectiveDate": "10/02/2025",
    "licenseExpirationDate": "10/01/2026",
    "dataDate": "10/18/2025",
    "capacity": 0,
    "address": "2525 E COLORADO BLVD, SUITE 104",
    "city": "PASADENA",
    "zip": "91107",
    "county": "LOS ANGELES",
    "phone": "(818) 659-9334",
    "lat": 34.14654,
    "lng": -118.0981035
  },
  {
    "id": "630012323",
    "name": "PASADENA FOOTHILLS DIALYSIS",
    "npi": "1760624092",
    "hcaiId": "306197428",
    "businessName": "ARCADIA GARDENS DIALYSIS, LLC",
    "contactEmail": "CAL_C@DAVITA.COM",
    "categoryName": "CHRONIC DIALYSIS CLINIC",
    "categoryCode": "ESRD/CDC",
    "licenseStatus": "ACTIVE",
    "inService": true,
    "licenseNumber": "550001321",
    "licenseEffectiveDate": "11/26/2024",
    "licenseExpirationDate": "11/25/2025",
    "dataDate": "10/18/2025",
    "capacity": 21,
    "address": "3722 E COLORADO BLVD",
    "city": "PASADENA",
    "zip": "91107",
    "county": "LOS ANGELES",
    "phone": "(626) 432-4331",
    "lat": 34.146018,
    "lng": -118.07253
  },
  {
    "id": "970000184",
    "name": "PASADENA PARK HEALTHCARE AND WELLNESS CENTER",
    "npi": "1528348828",
    "hcaiId": "206190602",
    "businessName": "SAN MARINO GARDENS WELLNESS CENTER, LP",
    "contactEmail": "ADMINISTRATOR@PASADENAPARKHC.COM",
    "categoryName": "SKILLED NURSING FACILITY",
    "categoryCode": "SNF",
    "licenseStatus": "ACTIVE",
    "inService": true,
    "licenseNumber": "970000088",
    "licenseEffectiveDate": "11/08/2024",
    "licenseExpirationDate": "11/07/2025",
    "dataDate": "10/18/2025",
    "capacity": 99,
    "address": "2585 E WASHINGTON BLVD",
    "city": "PASADENA",
    "zip": "91107",
    "county": "LOS ANGELES",
    "phone": "(626) 463-4105",
    "lat": 34.1692081,
    "lng": -118.0972599
  },
  {
    "id": "630012663",
    "name": "PASADENA PLASTIC SURGERY CENTER",
    "npi": "1295978401",
    "hcaiId": null,
    "businessName": null,
    "contactEmail": null,
    "categoryName": "SURGICAL CLINIC",
    "categoryCode": "ASC",
    "licenseStatus": null,
    "inService": null,
    "licenseNumber": null,
    "licenseEffectiveDate": null,
    "licenseExpirationDate": null,
    "dataDate": "10/18/2025",
    "capacity": 0,
    "address": "452 N ALTADENA DR, SUITE 210",
    "city": "PASADENA",
    "zip": "91107",
    "county": "LOS ANGELES",
    "phone": null,
    "lat": 34.153929,
    "lng": -118.09818
  },
  {
    "id": "630024028",
    "name": "PRIMA CARE HOME HEALTH INC",
    "npi": null,
    "hcaiId": "406195484",
    "businessName": "PRIMA CARE HOME HEALTH INC",
    "contactEmail": "PRIMACAREHOME@GMAIL.COM",
    "categoryName": "HOME HEALTH AGENCY",
    "categoryCode": "HHA",
    "licenseStatus": "ACTIVE",
    "inService": true,
    "licenseNumber": "550008123",
    "licenseEffectiveDate": "08/16/2025",
    "licenseExpirationDate": "08/15/2026",
    "dataDate": "10/18/2025",
    "capacity": 0,
    "address": "2500 E FOOTHILL BLVD, SUITE 508",
    "city": "PASADENA",
    "zip": "91107",
    "county": "LOS ANGELES",
    "phone": "(626) 262-4402",
    "lat": 34.149384,
    "lng": -118.097973
  },
  {
    "id": "630014689",
    "name": "RISSER SURGERY CENTER LLC",
    "npi": "1124395876",
    "hcaiId": null,
    "businessName": null,
    "contactEmail": null,
    "categoryName": "SURGICAL CLINIC",
    "categoryCode": "ASC",
    "licenseStatus": null,
    "inService": null,
    "licenseNumber": null,
    "licenseEffectiveDate": null,
    "licenseExpirationDate": null,
    "dataDate": "10/18/2025",
    "capacity": 0,
    "address": "2615 E WASHINGTON BLVD",
    "city": "PASADENA",
    "zip": "91107",
    "county": "LOS ANGELES",
    "phone": "(626) 269-2601",
    "lat": 34.1692171,
    "lng": -118.0964657
  },
  {
    "id": "630013088",
    "name": "ROZE ROOM HOSPICE OF SAN GABRIEL VALLEY",
    "npi": null,
    "hcaiId": "406197601",
    "businessName": "ROYZ, INC.",
    "contactEmail": "LBORDEN@ROZEROOMHOSPICE.ORG",
    "categoryName": "HOSPICE",
    "categoryCode": "HOSPICE",
    "licenseStatus": "ACTIVE",
    "inService": true,
    "licenseNumber": "550001739",
    "licenseEffectiveDate": "11/29/2025",
    "licenseExpirationDate": "11/28/2027",
    "dataDate": "10/18/2025",
    "capacity": 0,
    "address": "2700 E FOOTHILL BLVD, SUITE 200",
    "city": "PASADENA",
    "zip": "91107",
    "county": "LOS ANGELES",
    "phone": "(626) 446-7673",
    "lat": 34.149357,
    "lng": -118.0947465
  },
  {
    "id": "630021408",
    "name": "S AND N HOSPICE INC",
    "npi": null,
    "hcaiId": null,
    "businessName": "S AND N HOSPICE INC",
    "contactEmail": "SANDNHOSPICE@GMAIL.COM",
    "categoryName": "HOSPICE",
    "categoryCode": "HOSPICE",
    "licenseStatus": "ACTIVE",
    "inService": true,
    "licenseNumber": "550007588",
    "licenseEffectiveDate": "12/14/2023",
    "licenseExpirationDate": "12/13/2025",
    "dataDate": "10/18/2025",
    "capacity": 0,
    "address": "2500 E FOOTHILL BLVD, SUITE 512",
    "city": "PASADENA",
    "zip": "91107",
    "county": "LOS ANGELES",
    "phone": "(626) 486-2034",
    "lat": 34.149793,
    "lng": -118.098429
  },
  {
    "id": "630027171",
    "name": "SAFETY LIFE HOME HEALTH CARE",
    "npi": null,
    "hcaiId": null,
    "businessName": "SAFETY LIFE HOME HEALTH CARE",
    "contactEmail": "SAFETYLIFEHH@GMAIL.COM",
    "categoryName": "HOME HEALTH AGENCY",
    "categoryCode": "HHA",
    "licenseStatus": "ACTIVE",
    "inService": true,
    "licenseNumber": "550009515",
    "licenseEffectiveDate": "05/20/2025",
    "licenseExpirationDate": "11/19/2025",
    "dataDate": "10/18/2025",
    "capacity": 0,
    "address": "2500 E FOOTHILL BLVD, SUITE 415",
    "city": "PASADENA",
    "zip": "91107",
    "county": "LOS ANGELES",
    "phone": "(310) 980-2966",
    "lat": 34.14938098,
    "lng": -118.097983
  },
  {
    "id": "630016791",
    "name": "SAINT RITA HOME HEALTH CARE, INC.",
    "npi": "1851742308",
    "hcaiId": "406190637",
    "businessName": "SAINT RITA HOME HEALTH CARE, INC.",
    "contactEmail": "SAINTRITAHHC@GMAIL.COM",
    "categoryName": "HOME HEALTH AGENCY",
    "categoryCode": "HHA",
    "licenseStatus": "ACTIVE",
    "inService": true,
    "licenseNumber": "550004143",
    "licenseEffectiveDate": "02/09/2025",
    "licenseExpirationDate": "02/08/2026",
    "dataDate": "10/18/2025",
    "capacity": 0,
    "address": "171 N ALTADENA DR, SUITE 225",
    "city": "PASADENA",
    "zip": "91107",
    "county": "LOS ANGELES",
    "phone": "(626) 714-7364",
    "lat": 34.148934,
    "lng": -118.0988955
  },
  {
    "id": "630022283",
    "name": "SANITY HOSPICE INC",
    "npi": null,
    "hcaiId": "406195116",
    "businessName": "SANITY HOSPICE INC",
    "contactEmail": "SANITYHOSPICE@GMAIL.COM",
    "categoryName": "HOSPICE",
    "categoryCode": "HOSPICE",
    "licenseStatus": "ACTIVE",
    "inService": true,
    "licenseNumber": "550007592",
    "licenseEffectiveDate": "12/21/2023",
    "licenseExpirationDate": "12/20/2025",
    "dataDate": "10/18/2025",
    "capacity": 0,
    "address": "133 N ALTADENA DR, UNIT 225",
    "city": "PASADENA",
    "zip": "91107",
    "county": "LOS ANGELES",
    "phone": "(818) 514-6835",
    "lat": 34.14843102,
    "lng": -118.099025
  },
  {
    "id": "630020148",
    "name": "SOLID CARE HOSPICE AND PALLIATIVE SERVICES INC",
    "npi": null,
    "hcaiId": "406190328",
    "businessName": "SOLID CARE HOSPICE AND PALLIATIVE SERVICES INC",
    "contactEmail": "SOLIDCAREHOSPICE@GMAIL.COM",
    "categoryName": "HOSPICE",
    "categoryCode": "HOSPICE",
    "licenseStatus": "ACTIVE",
    "inService": true,
    "licenseNumber": "550005928",
    "licenseEffectiveDate": "12/10/2024",
    "licenseExpirationDate": "12/09/2026",
    "dataDate": "10/18/2025",
    "capacity": 0,
    "address": "171 N ALTADENA DR, SUITE 210",
    "city": "PASADENA",
    "zip": "91107",
    "county": "LOS ANGELES",
    "phone": "(626) 603-0707",
    "lat": 34.148934,
    "lng": -118.0988955
  },
  {
    "id": "630014213",
    "name": "ST. ELIZABETH HOSPICE CARE, INC.",
    "npi": "1750769980",
    "hcaiId": "406198396",
    "businessName": "ST. ELIZABETH HOSPICE CARE, INC.",
    "contactEmail": null,
    "categoryName": "HOSPICE",
    "categoryCode": "HOSPICE",
    "licenseStatus": "ACTIVE",
    "inService": true,
    "licenseNumber": "550002609",
    "licenseEffectiveDate": "07/27/2023",
    "licenseExpirationDate": "07/26/2025",
    "dataDate": "10/18/2025",
    "capacity": 0,
    "address": "3829 E SIERRA MADRE BLVD",
    "city": "PASADENA",
    "zip": "91107",
    "county": "LOS ANGELES",
    "phone": "(626) 510-6770",
    "lat": 34.162587,
    "lng": -118.069047
  },
  {
    "id": "630017556",
    "name": "ST. GREGORY ADHC",
    "npi": null,
    "hcaiId": null,
    "businessName": "TIL SERVICES, INC.",
    "contactEmail": "PASADENAADHC@GMAIL.COM",
    "categoryName": "ADULT DAY HEALTH CARE",
    "categoryCode": "ADHC",
    "licenseStatus": "ACTIVE",
    "inService": true,
    "licenseNumber": "550004351",
    "licenseEffectiveDate": "07/24/2025",
    "licenseExpirationDate": "07/23/2026",
    "dataDate": "10/18/2025",
    "capacity": 0,
    "address": "2215 E COLORADO BLVD",
    "city": "PASADENA",
    "zip": "91107",
    "county": "LOS ANGELES",
    "phone": "(626) 817-9553",
    "lat": 34.146657,
    "lng": -118.104507
  },
  {
    "id": "630015419",
    "name": "ST. VINCENT HOSPICE SERVICES, INC",
    "npi": "1447666995",
    "hcaiId": "406198220",
    "businessName": "ST. VINCENT HOSPICE SERVICES, INC",
    "contactEmail": "STVINCENT3777@GMAIL.COM",
    "categoryName": "HOSPICE",
    "categoryCode": "HOSPICE",
    "licenseStatus": "ACTIVE",
    "inService": true,
    "licenseNumber": "550003211",
    "licenseEffectiveDate": "08/25/2025",
    "licenseExpirationDate": "08/24/2027",
    "dataDate": "10/18/2025",
    "capacity": 0,
    "address": "420 S ROSEMEAD BLVD, SUITE D & E",
    "city": "PASADENA",
    "zip": "91107",
    "county": "LOS ANGELES",
    "phone": "(626) 796-1922",
    "lat": 34.139277,
    "lng": -118.073061
  },
  {
    "id": "630025842",
    "name": "STARLIGHT HOME HEALTH INC",
    "npi": null,
    "hcaiId": "406190266",
    "businessName": "STARLIGHT HOME HEALTH INC",
    "contactEmail": "STARLIGHTHHC@GMAIL.COM",
    "categoryName": "HOME HEALTH AGENCY",
    "categoryCode": "HHA",
    "licenseStatus": "ACTIVE",
    "inService": true,
    "licenseNumber": "550008954",
    "licenseEffectiveDate": "12/20/2024",
    "licenseExpirationDate": "12/19/2025",
    "dataDate": "10/18/2025",
    "capacity": 0,
    "address": "133 N ALTADENA DR, SUITE 302",
    "city": "PASADENA",
    "zip": "91107",
    "county": "LOS ANGELES",
    "phone": "(626) 313-3411",
    "lat": 34.148529,
    "lng": -118.0992195
  },
  {
    "id": "630024058",
    "name": "SUMMA HOME HEALTH CARE, INC.",
    "npi": null,
    "hcaiId": "406195482",
    "businessName": "SUMMA HOME HEALTH CARE, INC.",
    "contactEmail": "SUMMAHHC@GMAIL.COM",
    "categoryName": "HOME HEALTH AGENCY",
    "categoryCode": "HHA",
    "licenseStatus": "ACTIVE",
    "inService": true,
    "licenseNumber": "550008057",
    "licenseEffectiveDate": "07/01/2025",
    "licenseExpirationDate": "06/30/2026",
    "dataDate": "10/18/2025",
    "capacity": 0,
    "address": "2500 E FOOTHILL BLVD, UNIT 417",
    "city": "PASADENA",
    "zip": "91107",
    "county": "LOS ANGELES",
    "phone": "(888) 228-9590",
    "lat": 34.149384,
    "lng": -118.097973
  },
  {
    "id": "060001890",
    "name": "SUNFLOWER DAY HEALTH CARE CENTER",
    "npi": null,
    "hcaiId": null,
    "businessName": "MILLENNIUM ADULT HEALTH CARE, INC.",
    "contactEmail": "SUNFLOWERDAYHEALTHCARECENTER@YAHOO.COM",
    "categoryName": "ADULT DAY HEALTH CARE",
    "categoryCode": "ADHC",
    "licenseStatus": "ACTIVE",
    "inService": true,
    "licenseNumber": "060000707",
    "licenseEffectiveDate": "05/26/2025",
    "licenseExpirationDate": "05/25/2026",
    "dataDate": "10/18/2025",
    "capacity": 0,
    "address": "136 COOK AVE",
    "city": "PASADENA",
    "zip": "91107",
    "county": "LOS ANGELES",
    "phone": "(626) 356-3838",
    "lat": 34.148529,
    "lng": -118.0992195
  },
  {
    "id": "630025488",
    "name": "SUNLIGHT HOME HEALTH, INC.",
    "npi": null,
    "hcaiId": "406198947",
    "businessName": "SUNLIGHT HOME HEALTH, INC.",
    "contactEmail": "SUNLIGHTHOMEHEALTHINC@GMAIL.COM",
    "categoryName": "HOME HEALTH AGENCY",
    "categoryCode": "HHA",
    "licenseStatus": "ACTIVE",
    "inService": true,
    "licenseNumber": "550008559",
    "licenseEffectiveDate": "05/30/2025",
    "licenseExpirationDate": "05/29/2026",
    "dataDate": "10/18/2025",
    "capacity": 0,
    "address": "171 N ALTADENA DR, SUITE 280",
    "city": "PASADENA",
    "zip": "91107",
    "county": "LOS ANGELES",
    "phone": "(626) 663-2727",
    "lat": 34.148934,
    "lng": -118.0988955
  },
  {
    "id": "630017718",
    "name": "TENDER LOVING HOSPICE CARE, INC.",
    "npi": null,
    "hcaiId": "406192212",
    "businessName": "TENDER LOVING HOSPICE CARE, INC.",
    "contactEmail": "TLHOSPICE@YAHOO.COM",
    "categoryName": "HOSPICE",
    "categoryCode": "HOSPICE",
    "licenseStatus": "ACTIVE",
    "inService": true,
    "licenseNumber": "550005171",
    "licenseEffectiveDate": "06/10/2024",
    "licenseExpirationDate": "12/13/2025",
    "dataDate": "10/18/2025",
    "capacity": 0,
    "address": "2500 E FOOTHILL BLVD, SUITE 204",
    "city": "PASADENA",
    "zip": "91107",
    "county": "LOS ANGELES",
    "phone": "(323) 721-1164",
    "lat": 34.14938098,
    "lng": -118.097983
  },
  {
    "id": "630024342",
    "name": "TRANQUIL HOME HEALTH, INC",
    "npi": null,
    "hcaiId": "406195980",
    "businessName": "TRANQUIL HOME HEALTH, INC",
    "contactEmail": "TRANQUILHH@GMAIL.COM",
    "categoryName": "HOME HEALTH AGENCY",
    "categoryCode": "HHA",
    "licenseStatus": "ACTIVE",
    "inService": true,
    "licenseNumber": "550008316",
    "licenseEffectiveDate": "01/09/2025",
    "licenseExpirationDate": "01/08/2026",
    "dataDate": "10/18/2025",
    "capacity": 0,
    "address": "40 N ALTADENA DR, SUITE 220",
    "city": "PASADENA",
    "zip": "91107",
    "county": "LOS ANGELES",
    "phone": "(800) 718-9877",
    "lat": 34.14654,
    "lng": -118.0981035
  },
  {
    "id": "970000176",
    "name": "TWO PALMS CARE CENTER",
    "npi": "1902493232",
    "hcaiId": "206190501",
    "businessName": "TWO PALMS SKILLED CARE, LLC",
    "contactEmail": "JRODRIGUEZ@TWOPALMSCC.COM",
    "categoryName": "SKILLED NURSING FACILITY",
    "categoryCode": "SNF",
    "licenseStatus": "ACTIVE",
    "inService": true,
    "licenseNumber": "970000084",
    "licenseEffectiveDate": "04/07/2025",
    "licenseExpirationDate": "04/06/2026",
    "dataDate": "10/18/2025",
    "capacity": 50,
    "address": "2637 E WASHINGTON BLVD",
    "city": "PASADENA",
    "zip": "91107",
    "county": "LOS ANGELES",
    "phone": "(951) 295-1784",
    "lat": 34.169589,
    "lng": -118.0959615
  },
  {
    "id": "630025231",
    "name": "UNITED HOME HEALTH CARE AGENCY",
    "npi": null,
    "hcaiId": "406190040",
    "businessName": "UNITED HOME HEALTH CARE AGENCY",
    "contactEmail": "UNITEDHOME.HCA@GMAIL.COM",
    "categoryName": "HOME HEALTH AGENCY",
    "categoryCode": "HHA",
    "licenseStatus": "ACTIVE",
    "inService": true,
    "licenseNumber": "550008699",
    "licenseEffectiveDate": "07/28/2025",
    "licenseExpirationDate": "07/27/2026",
    "dataDate": "10/18/2025",
    "capacity": 0,
    "address": "171 N ALTADENA DR, SUITE 222",
    "city": "PASADENA",
    "zip": "91107",
    "county": "LOS ANGELES",
    "phone": "(818) 888-1114",
    "lat": 34.148934,
    "lng": -118.0988955
  },
  {
    "id": "630018601",
    "name": "VILLA ESPERANZA WYNN HOUSE",
    "npi": "1780166207",
    "hcaiId": null,
    "businessName": "VILLA ESPERANZA SERVICES",
    "contactEmail": "KWHITE@VILLAESPERANZASERVICES.ORG",
    "categoryName": "INTERMEDIATE CARE FACILITY-DD/H/N/CN/IID",
    "categoryCode": "ICFDDH",
    "licenseStatus": "ACTIVE",
    "inService": true,
    "licenseNumber": "550008050",
    "licenseEffectiveDate": "08/24/2025",
    "licenseExpirationDate": "08/23/2026",
    "dataDate": "10/18/2025",
    "capacity": 6,
    "address": "1920 E VILLA ST",
    "city": "PASADENA",
    "zip": "91107",
    "county": "LOS ANGELES",
    "phone": "(626) 796-9842",
    "lat": 34.154091,
    "lng": -118.110807
  },
  {
    "id": "630021443",
    "name": "VIRTUE HOSPICE CARE",
    "npi": null,
    "hcaiId": "406193791",
    "businessName": "VIRTUE HOSPICE CARE",
    "contactEmail": "VIRTUEHOSPICECARE1@GMAIL.COM",
    "categoryName": "HOSPICE",
    "categoryCode": "HOSPICE",
    "licenseStatus": "ACTIVE",
    "inService": true,
    "licenseNumber": "550006849",
    "licenseEffectiveDate": "09/20/2025",
    "licenseExpirationDate": "09/19/2027",
    "dataDate": "10/18/2025",
    "capacity": 0,
    "address": "416 S ROSEMEAD BLVD, SUITE D",
    "city": "PASADENA",
    "zip": "91107",
    "county": "LOS ANGELES",
    "phone": "(626) 631-6096",
    "lat": 34.13987,
    "lng": -118.073197
  }
]