[
  {
    "id": "630020697",
    "name": "ANGELS ON EARTH HEALTHCARE SERVICES, INC.",
    "npi": null,
    "hcaiId": "406195598",
    "businessName": "ANGELS ON EARTH HEALTHCARE SERVICES, INC.",
    "contactEmail": "SONYA@SAVOY.HEALTH",
    "categoryName": "HOME HEALTH AGENCY",
    "categoryCode": "HHA",
    "licenseStatus": "ACTIVE",
    "inService": true,
    "licenseNumber": "550005998",
    "licenseEffectiveDate": "02/01/2025",
    "licenseExpirationDate": "01/31/2026",
    "dataDate": "10/18/2025",
    "capacity": 0,
    "address": "1386 E WALNUT ST, SUITE 201",
    "city": "PASADENA",
    "zip": "91106",
    "county": "LOS ANGELES",
    "phone": "(626) 662-7017",
    "lat": 34.14933,
    "lng": -118.121706
  },
  {
    "id": "630015263",
    "name": "ARBOR HOSPICE, INC.",
    "npi": "1952711467",
    "hcaiId": "406191520",
    "businessName": "ARBOR HOSPICE, INC.",
    "contactEmail": "ARBORHOSPICEINC@YAHOO.COM",
    "categoryName": "HOSPICE",
    "categoryCode": "HOSPICE",
    "licenseStatus": "ACTIVE",
    "inService": true,
    "licenseNumber": "550003699",
    "licenseEffectiveDate": "10/27/2024",
    "licenseExpirationDate": "10/26/2026",
    "dataDate": "10/18/2025",
    "capacity": 0,
    "address": "1250 E WALNUT ST, SUITE 240",
    "city": "PASADENA",
    "zip": "91106",
    "county": "LOS ANGELES",
    "phone": "(888) 425-3330",
    "lat": 34.149303,
    "lng": -118.124919
  },
  {
    "id": "630021271",
    "name": "BEST MED HOME HEALTH, INC.",
    "npi": null,
    "hcaiId": "406195439",
    "businessName": "BEST MED HOME HEALTH, INC.",
    "contactEmail": "BESTMEDHOMEHEALTH@YAHOO.COM",
    "categoryName": "HOME HEALTH AGENCY",
    "categoryCode": "HHA",
    "licenseStatus": "ACTIVE",
    "inService": true,
    "licenseNumber": "550008122",
    "licenseEffectiveDate": "08/06/2024",
    "licenseExpirationDate": "08/05/2025",
    "dataDate": "10/18/2025",
    "capacity": 0,
    "address": "1242 E COLORADO BLVD, SUITE C",
    "city": "PASADENA",
    "zip": "91106",
    "county": "LOS ANGELES",
    "phone": "(626) 486-2225",
    "lat": 34.145703,
    "lng": -118.124748
  },
  {
    "id": "630021353",
    "name": "BEST MED HOSPICE, INC.",
    "npi": null,
    "hcaiId": "406195204",
    "businessName": "BEST MED HOSPICE, INC.",
    "contactEmail": "BESTMEDHOSPICE@YAHOO.COM",
    "categoryName": "HOSPICE",
    "categoryCode": "HOSPICE",
    "licenseStatus": "ACTIVE",
    "inService": true,
    "licenseNumber": "550007462",
    "licenseEffectiveDate": "12/11/2023",
    "licenseExpirationDate": "12/10/2025",
    "dataDate": "10/18/2025",
    "capacity": 0,
    "address": "1242 E COLORADO BLVD, SUITE E",
    "city": "PASADENA",
    "zip": "91106",
    "county": "LOS ANGELES",
    "phone": "(626) 714-0805",
    "lat": 34.145703,
    "lng": -118.124748
  },
  {
    "id": "630021790",
    "name": "COMMUNICARE HOSPICE, INC.",
    "npi": null,
    "hcaiId": "406194838",
    "businessName": "COMMUNICARE HOSPICE, INC.",
    "contactEmail": "INFO@COMMUNICAREHOSPICE.COM",
    "categoryName": "HOSPICE",
    "categoryCode": "HOSPICE",
    "licenseStatus": "ACTIVE",
    "inService": true,
    "licenseNumber": "550006799",
    "licenseEffectiveDate": "09/16/2025",
    "licenseExpirationDate": "09/15/2027",
    "dataDate": "10/18/2025",
    "capacity": 0,
    "address": "936 E GREEN ST, SUITE 108",
    "city": "PASADENA",
    "zip": "91106",
    "county": "LOS ANGELES",
    "phone": "(626) 788-8093",
    "lat": 34.144236,
    "lng": -118.1310345
  },
  {
    "id": "630018782",
    "name": "DILIGENT HOME HEALTH CARE AGENCY",
    "npi": null,
    "hcaiId": "406192798",
    "businessName": "DILIGENT HOME HEALTH CARE AGENCY",
    "contactEmail": "DILIGENTHOMEHEALTH@GMAIL.COM",
    "categoryName": "HOME HEALTH AGENCY",
    "categoryCode": "HHA",
    "licenseStatus": "ACTIVE",
    "inService": true,
    "licenseNumber": "550005692",
    "licenseEffectiveDate": "08/29/2025",
    "licenseExpirationDate": "08/28/2026",
    "dataDate": "10/18/2025",
    "capacity": 0,
    "address": "960 E GREEN ST, SUITE 302",
    "city": "PASADENA",
    "zip": "91106",
    "county": "LOS ANGELES",
    "phone": "(661) 263-4414",
    "lat": 34.14434601,
    "lng": -118.130167
  },
  {
    "id": "630024007",
    "name": "FOREVER YOUNG HOME HEALTH",
    "npi": null,
    "hcaiId": "406195422",
    "businessName": "FOREVER YOUNG HOME HEALTH",
    "contactEmail": "4EVERYOUNGHH@GMAIL.COM",
    "categoryName": "HOME HEALTH AGENCY",
    "categoryCode": "HHA",
    "licenseStatus": "ACTIVE",
    "inService": true,
    "licenseNumber": "550008036",
    "licenseEffectiveDate": "06/17/2025",
    "licenseExpirationDate": "06/16/2026",
    "dataDate": "10/18/2025",
    "capacity": 0,
    "address": "1055 E COLORADO BLVD, SUITE 5120",
    "city": "PASADENA",
    "zip": "91106",
    "county": "LOS ANGELES",
    "phone": "(626) 360-2004",
    "lat": 34.146378,
    "lng": -118.128744
  },
  {
    "id": "630020388",
    "name": "HEAVENLY LOVE HOSPICE, INC.",
    "npi": null,
    "hcaiId": "406193645",
    "businessName": "HEAVENLY LOVE HOSPICE, INC.",
    "contactEmail": "ZELDAANN1111@GMAIL.COM",
    "categoryName": "HOSPICE",
    "categoryCode": "HOSPICE",
    "licenseStatus": "ACTIVE",
    "inService": true,
    "licenseNumber": "550006929",
    "licenseEffectiveDate": "09/17/2023",
    "licenseExpirationDate": "09/16/2025",
    "dataDate": "10/18/2025",
    "capacity": 0,
    "address": "183 N HILL AVE, SUITE 202",
    "city": "PASADENA",
    "zip": "91106",
    "county": "LOS ANGELES",
    "phone": "(626) 469-0962",
    "lat": 34.14933,
    "lng": -118.121706
  },
  {
    "id": "630022319",
    "name": "HELPFUL HOSPICE SERVICES, INC.",
    "npi": null,
    "hcaiId": "406196035",
    "businessName": "HELPFUL HOSPICE SERVICES, INC.",
    "contactEmail": "HELPFULHOSPICES@GMAIL.COM",
    "categoryName": "HOSPICE",
    "categoryCode": "HOSPICE",
    "licenseStatus": "ACTIVE",
    "inService": true,
    "licenseNumber": "550007639",
    "licenseEffectiveDate": "10/01/2024",
    "licenseExpirationDate": "12/20/2025",
    "dataDate": "10/18/2025",
    "capacity": 0,
    "address": "50 N HILL AVE, SUITE 305",
    "city": "PASADENA",
    "zip": "91106",
    "county": "LOS ANGELES",
    "phone": "(818) 394-0439",
    "lat": 34.14696301,
    "lng": -118.121025
  },
  {
    "id": "630022041",
    "name": "HOPE & CARE HOSPICE",
    "npi": null,
    "hcaiId": "406190281",
    "businessName": "HOPE & CARE HOSPICE",
    "contactEmail": "HOPECAREHOSPICE@GMAIL.COM",
    "categoryName": "HOSPICE",
    "categoryCode": "HOSPICE",
    "licenseStatus": "ACTIVE",
    "inService": true,
    "licenseNumber": "550007402",
    "licenseEffectiveDate": "11/30/2023",
    "licenseExpirationDate": "11/29/2025",
    "dataDate": "10/18/2025",
    "capacity": 0,
    "address": "183 N HILL AVE, SUITE 204",
    "city": "PASADENA",
    "zip": "91106",
    "county": "LOS ANGELES",
    "phone": "(626) 314-3318",
    "lat": 34.14933,
    "lng": -118.121706
  },
  {
    "id": "630022474",
    "name": "HOSPICE NUMBER 11 INC",
    "npi": null,
    "hcaiId": null,
    "businessName": "HOSPICE NUMBER 11 INC",
    "contactEmail": "HOSPICENUMBER11@GMAIL.COM",
    "categoryName": "HOSPICE",
    "categoryCode": "HOSPICE",
    "licenseStatus": "ACTIVE",
    "inService": true,
    "licenseNumber": "550007632",
    "licenseEffectiveDate": "04/28/2025",
    "licenseExpirationDate": "12/17/2025",
    "dataDate": "10/18/2025",
    "capacity": 0,
    "address": "1276 E COLORADO BLVD, SUITE 211",
    "city": "PASADENA",
    "zip": "91106",
    "county": "LOS ANGELES",
    "phone": "(669) 300-0003",
    "lat": 34.14563,
    "lng": -118.12424
  },
  {
    "id": "630023745",
    "name": "IMMENSE HOME HEALTH INC",
    "npi": null,
    "hcaiId": "406195373",
    "businessName": "IMMENSE HOME HEALTH INC",
    "contactEmail": "SANA@IMMENSEHOMEHEALTH.COM",
    "categoryName": "HOME HEALTH AGENCY",
    "categoryCode": "HHA",
    "licenseStatus": "ACTIVE",
    "inService": true,
    "licenseNumber": "550007951",
    "licenseEffectiveDate": "09/29/2025",
    "licenseExpirationDate": "04/13/2026",
    "dataDate": "10/18/2025",
    "capacity": 0,
    "address": "1276 E COLORADO BLVD, SUITE 201",
    "city": "PASADENA",
    "zip": "91106",
    "county": "LOS ANGELES",
    "phone": "(747) 895-5063",
    "lat": 34.145631,
    "lng": -118.1242395
  },
  {
    "id": "630025613",
    "name": "KEYS HOME HEALTH, INC.",
    "npi": null,
    "hcaiId": "406190188",
    "businessName": "KEYS HOME HEALTH, INC.",
    "contactEmail": "KEYSHOMEHEALTH@GMAIL.COM",
    "categoryName": "HOME HEALTH AGENCY",
    "categoryCode": "HHA",
    "licenseStatus": "ACTIVE",
    "inService": true,
    "licenseNumber": "550008942",
    "licenseEffectiveDate": "02/05/2025",
    "licenseExpirationDate": "02/04/2026",
    "dataDate": "10/18/2025",
    "capacity": 0,
    "address": "222 E GLENARM ST, SUITE B3",
    "city": "PASADENA",
    "zip": "91106",
    "county": "LOS ANGELES",
    "phone": "(818) 641-9944",
    "lat": 34.127334,
    "lng": -118.1454885
  },
  {
    "id": "930001610",
    "name": "PASADENA LASER AND SURGERY CENTER",
    "npi": "1013993252",
    "hcaiId": "306196054",
    "businessName": "PASADENA LASER AND SURGERY CENTER, A MEDICAL CORP.",
    "contactEmail": "SDPMMC@AOL.COM",
    "categoryName": "SURGICAL CLINIC",
    "categoryCode": "ASC",
    "licenseStatus": "INACTIVE - CAPEN DECISION",
    "inService": false,
    "licenseNumber": "930000924",
    "licenseEffectiveDate": "11/19/2007",
    "licenseExpirationDate": "11/18/2008",
    "dataDate": "10/18/2025",
    "capacity": 0,
    "address": "960 E GREEN ST, SUITE 110",
    "city": "PASADENA",
    "zip": "91106",
    "county": "LOS ANGELES",
    "phone": "(626) 428-1536",
    "lat": 34.144335,
    "lng": -118.1301075
  },
  {
    "id": "630021988",
    "name": "POWER HOME HEALTH INC.",
    "npi": null,
    "hcaiId": "406195487",
    "businessName": "POWER HOME HEALTH INC",
    "contactEmail": "POWERHHINC@GMAIL.COM",
    "categoryName": "HOME HEALTH AGENCY",
    "categoryCode": "HHA",
    "licenseStatus": "ACTIVE",
    "inService": true,
    "licenseNumber": "550007763",
    "licenseEffectiveDate": "12/04/2023",
    "licenseExpirationDate": "12/03/2024",
    "dataDate": "10/18/2025",
    "capacity": 0,
    "address": "183 N HILL AVE, SUITE 201",
    "city": "PASADENA",
    "zip": "91106",
    "county": "LOS ANGELES",
    "phone": "(626) 800-0133",
    "lat": 34.14933,
    "lng": -118.121706
  },
  {
    "id": "630021684",
    "name": "QUALICARE HOSPICE, INC.",
    "npi": null,
    "hcaiId": null,
    "businessName": "QUALICARE HOSPICE, INC.",
    "contactEmail": "INFO@QUALICAREHOSPICE.COM",
    "categoryName": "HOSPICE",
    "categoryCode": "HOSPICE",
    "licenseStatus": "ACTIVE",
    "inService": true,
    "licenseNumber": "550007451",
    "licenseEffectiveDate": "09/29/2025",
    "licenseExpirationDate": "12/13/2025",
    "dataDate": "10/18/2025",
    "capacity": 0,
    "address": "924 E GREEN ST, SUITE 220B",
    "city": "PASADENA",
    "zip": "91106",
    "county": "LOS ANGELES",
    "phone": "(818) 433-4577",
    "lat": 34.144254,
    "lng": -118.131201
  },
  {
    "id": "630018056",
    "name": "ROSE CITY DIALYSIS",
    "npi": null,
    "hcaiId": "306190449",
    "businessName": "KINNICK DIALYSIS LLC",
    "contactEmail": "CAL_C@DAVITA.COM",
    "categoryName": "CHRONIC DIALYSIS CLINIC",
    "categoryCode": "ESRD/CDC",
    "licenseStatus": "ACTIVE",
    "inService": true,
    "licenseNumber": "550004805",
    "licenseEffectiveDate": "07/27/2025",
    "licenseExpirationDate": "07/26/2026",
    "dataDate": "10/18/2025",
    "capacity": 25,
    "address": "1382 LOCUST ST",
    "city": "PASADENA",
    "zip": "91106",
    "county": "LOS ANGELES",
    "phone": "(626) 395-7769",
    "lat": 34.150347,
    "lng": -118.1218455
  },
  {
    "id": "630023506",
    "name": "SUNNYLAND CBAS",
    "npi": null,
    "hcaiId": null,
    "businessName": "SUNNYLAND CBAS",
    "contactEmail": "NARINENAZARI@YAHOO.COM",
    "categoryName": "ADULT DAY HEALTH CARE",
    "categoryCode": "ADHC",
    "licenseStatus": "ACTIVE",
    "inService": true,
    "licenseNumber": "550007247",
    "licenseEffectiveDate": "11/16/2024",
    "licenseExpirationDate": "11/15/2025",
    "dataDate": "10/18/2025",
    "capacity": 0,
    "address": "1253 E COLORADO BLVD",
    "city": "PASADENA",
    "zip": "91106",
    "county": "LOS ANGELES",
    "phone": "(818) 219-1294",
    "lat": 34.146351,
    "lng": -118.124487
  },
  {
    "id": "630026921",
    "name": "WE CARE 4 YOU HOME HEALTH, INC.",
    "npi": null,
    "hcaiId": null,
    "businessName": "WE CARE 4 YOU HOME HEALTH, INC.",
    "contactEmail": "WECARE4YOURA@GMAIL.COM",
    "categoryName": "HOME HEALTH AGENCY",
    "categoryCode": "HHA",
    "licenseStatus": "ACTIVE",
    "inService": true,
    "licenseNumber": "550009256",
    "licenseEffectiveDate": "07/15/2025",
    "licenseExpirationDate": "07/14/2026",
    "dataDate": "10/18/2025",
    "capacity": 0,
    "address": "1276 E COLORADO BLVD, SUITE 204",
    "city": "PASADENA",
    "zip": "91106",
    "county": "LOS ANGELES",
    "phone": "(818) 630-9996",
    "lat": 34.145559,
    "lng": -118.124127
  }
]