[
  {
    "id": "630023736",
    "name": "ALWAYS HERE HOME HEALTH CARE, INC.",
    "npi": null,
    "hcaiId": "406195441",
    "businessName": "ALWAYS HERE HOME HEALTH CARE, INC",
    "contactEmail": "ALWAYSHEREHOMEHEALTHINC@GMAIL.COM",
    "categoryName": "HOME HEALTH AGENCY",
    "categoryCode": "HHA",
    "licenseStatus": "ACTIVE",
    "inService": true,
    "licenseNumber": "550008114",
    "licenseEffectiveDate": "07/07/2025",
    "licenseExpirationDate": "07/06/2026",
    "dataDate": "10/18/2025",
    "capacity": 0,
    "address": "1450 W COLORADO BLVD, SUITE 102",
    "city": "PASADENA",
    "zip": "91105",
    "county": "LOS ANGELES",
    "phone": "(626) 672-0151",
    "lat": 34.140726,
    "lng": -118.179098
  },
  {
    "id": "930001805",
    "name": "ARROYO DIALYSIS",
    "npi": "1972544765",
    "hcaiId": "306196512",
    "businessName": "PASADENA DIALYSIS, LLC",
    "contactEmail": "CLINIC7403@FMC-NA.COM",
    "categoryName": "CHRONIC DIALYSIS CLINIC",
    "categoryCode": "ESRD/CDC",
    "licenseStatus": "ACTIVE",
    "inService": true,
    "licenseNumber": "930000998",
    "licenseEffectiveDate": "11/20/2024",
    "licenseExpirationDate": "11/19/2025",
    "dataDate": "10/18/2025",
    "capacity": 25,
    "address": "1111 S ARROYO PKWY, SUITE 150",
    "city": "PASADENA",
    "zip": "91105",
    "county": "LOS ANGELES",
    "phone": "(626) 441-9500",
    "lat": 34.128189,
    "lng": -118.147716
  },
  {
    "id": "630012353",
    "name": "CONGRESS MEDICAL SURGERY CENTER, LLC",
    "npi": "1104087089",
    "hcaiId": null,
    "businessName": null,
    "contactEmail": null,
    "categoryName": "SURGICAL CLINIC",
    "categoryCode": "ASC",
    "licenseStatus": null,
    "inService": null,
    "licenseNumber": null,
    "licenseEffectiveDate": null,
    "licenseExpirationDate": null,
    "dataDate": "10/18/2025",
    "capacity": 0,
    "address": "800 S RAYMOND AVE",
    "city": "PASADENA",
    "zip": "91105",
    "county": "LOS ANGELES",
    "phone": "(626) 396-8121",
    "lat": 34.131852,
    "lng": -118.1483775
  },
  {
    "id": "630022273",
    "name": "DA VINCI HOSPICE CARE INC",
    "npi": null,
    "hcaiId": "406193925",
    "businessName": "DA VINCI HOSPICE CARE INC",
    "contactEmail": "DAVINCIHOSPICECARE@GMAIL.COM",
    "categoryName": "HOSPICE",
    "categoryCode": "HOSPICE",
    "licenseStatus": "ACTIVE",
    "inService": true,
    "licenseNumber": "550007318",
    "licenseEffectiveDate": "11/30/2025",
    "licenseExpirationDate": "11/29/2027",
    "dataDate": "10/18/2025",
    "capacity": 0,
    "address": "107 S FAIR OAKS AVE, SUITE 215",
    "city": "PASADENA",
    "zip": "91105",
    "county": "LOS ANGELES",
    "phone": "(626) 313-3540",
    "lat": 34.143831,
    "lng": -118.1507625
  },
  {
    "id": "630016405",
    "name": "DAVITA HUNTINGTON DIALYSIS",
    "npi": null,
    "hcaiId": "306197948",
    "businessName": "SHETEK DIALYSIS LLC",
    "contactEmail": "CAL_C@DAVITA.COM",
    "categoryName": "CHRONIC DIALYSIS CLINIC",
    "categoryCode": "ESRD/CDC",
    "licenseStatus": "ACTIVE",
    "inService": true,
    "licenseNumber": "550003739",
    "licenseEffectiveDate": "09/20/2025",
    "licenseExpirationDate": "09/19/2026",
    "dataDate": "10/18/2025",
    "capacity": 25,
    "address": "390 S. FAIR OAKS AVENUE, SUITE 120",
    "city": "PASADENA",
    "zip": "91105",
    "county": "LOS ANGELES",
    "phone": "(626) 564-2818",
    "lat": 34.139061,
    "lng": -118.149939
  },
  {
    "id": "630012666",
    "name": "EXECUTIVE HOME HEALTH, INC.",
    "npi": "1629354808",
    "hcaiId": "406197519",
    "businessName": "EXECUTIVE HOME HEALTH, INC.",
    "contactEmail": "ELENA@EXECUTIVEHOMEHEALTH.COM",
    "categoryName": "HOME HEALTH AGENCY",
    "categoryCode": "HHA",
    "licenseStatus": "ACTIVE",
    "inService": true,
    "licenseNumber": "550001481",
    "licenseEffectiveDate": "04/19/2025",
    "licenseExpirationDate": "04/18/2026",
    "dataDate": "10/18/2025",
    "capacity": 0,
    "address": "777 S ARROYO PKWY, SUITE 103",
    "city": "PASADENA",
    "zip": "91105",
    "county": "LOS ANGELES",
    "phone": "(626) 765-9202",
    "lat": 34.132356,
    "lng": -118.147752
  },
  {
    "id": "630020178",
    "name": "HH AND LL HOSPICE CARE, INC.",
    "npi": null,
    "hcaiId": "406192923",
    "businessName": "HH AND LL HOSPICE CARE, INC.",
    "contactEmail": "HHLLHOSPICE@GMAIL.COM",
    "categoryName": "HOSPICE",
    "categoryCode": "HOSPICE",
    "licenseStatus": "ACTIVE",
    "inService": true,
    "licenseNumber": "550005761",
    "licenseEffectiveDate": "09/24/2024",
    "licenseExpirationDate": "09/23/2026",
    "dataDate": "10/18/2025",
    "capacity": 0,
    "address": "1492 W COLORADO BLVD, SUITE 220",
    "city": "PASADENA",
    "zip": "91105",
    "county": "LOS ANGELES",
    "phone": "(818) 743-2424",
    "lat": 34.140663,
    "lng": -118.1796345
  },
  {
    "id": "630013444",
    "name": "HUNTINGTON AMBULATORY SURGERY CENTER",
    "npi": "1801199039",
    "hcaiId": null,
    "businessName": null,
    "contactEmail": null,
    "categoryName": "SURGICAL CLINIC",
    "categoryCode": "ASC",
    "licenseStatus": null,
    "inService": null,
    "licenseNumber": null,
    "licenseEffectiveDate": null,
    "licenseExpirationDate": null,
    "dataDate": "10/18/2025",
    "capacity": 0,
    "address": "625 S FAIR OAKS AVE",
    "city": "PASADENA",
    "zip": "91105",
    "county": "LOS ANGELES",
    "phone": "(626) 229-8992",
    "lat": 34.135461,
    "lng": -118.150767
  },
  {
    "id": "930000026",
    "name": "HUNTINGTON HOSPITAL",
    "npi": "1407828429",
    "hcaiId": "106190400",
    "businessName": "PASADENA HOSPITAL ASSOCIATION, LTD",
    "contactEmail": "JINHEE.NGUYEN@HUNTINGTONHEALTH.ORG",
    "categoryName": "GENERAL ACUTE CARE HOSPITAL",
    "categoryCode": "GACH",
    "licenseStatus": "ACTIVE",
    "inService": true,
    "licenseNumber": "930000372",
    "licenseEffectiveDate": "07/03/2025",
    "licenseExpirationDate": "02/28/2026",
    "dataDate": "10/18/2025",
    "capacity": 493,
    "address": "100 W CALIFORNIA BLVD",
    "city": "PASADENA",
    "zip": "91105",
    "county": "LOS ANGELES",
    "phone": "(626) 397-3019",
    "lat": 34.133418,
    "lng": -118.152207
  },
  {
    "id": "930001207",
    "name": "HUNTINGTON MEMORIAL HOSPITAL D/P APH",
    "npi": "1407828429",
    "hcaiId": null,
    "businessName": "PASADENA HOSPITAL ASSOCIATION, LTD",
    "contactEmail": null,
    "categoryName": "ACUTE PSYCHIATRIC HOSPITAL",
    "categoryCode": "APH",
    "licenseStatus": "ACTIVE",
    "inService": true,
    "licenseNumber": "930000372",
    "licenseEffectiveDate": "07/03/2025",
    "licenseExpirationDate": "02/28/2026",
    "dataDate": "10/18/2025",
    "capacity": 41,
    "address": "100 W CALIFORNIA BLVD",
    "city": "PASADENA",
    "zip": "91105",
    "county": "LOS ANGELES",
    "phone": "(626) 397-5000",
    "lat": 34.133418,
    "lng": -118.152207
  },
  {
    "id": "930000399",
    "name": "HUNTINGTON OUTPATIENT SURGERY CENTER",
    "npi": "1316922040",
    "hcaiId": "306194069",
    "businessName": "HUNTINGTON OUTPATIENT SURGERY CENTER",
    "contactEmail": "SUSAN.LOMPE@HUNTINGTON.COM",
    "categoryName": "SURGICAL CLINIC",
    "categoryCode": "ASC",
    "licenseStatus": "INACTIVE - CAPEN DECISION",
    "inService": false,
    "licenseNumber": "930000433",
    "licenseEffectiveDate": "11/22/2007",
    "licenseExpirationDate": "11/21/2008",
    "dataDate": "10/18/2025",
    "capacity": 0,
    "address": "797 S FAIR OAKS AVE",
    "city": "PASADENA",
    "zip": "91105",
    "county": "LOS ANGELES",
    "phone": "(626) 535-2434",
    "lat": 34.131969,
    "lng": -118.151091
  },
  {
    "id": "630018475",
    "name": "HUNTINGTON SPECIALTY SURGERY LLC",
    "npi": "1295204113",
    "hcaiId": null,
    "businessName": null,
    "contactEmail": null,
    "categoryName": "SURGICAL CLINIC",
    "categoryCode": "ASC",
    "licenseStatus": null,
    "inService": null,
    "licenseNumber": null,
    "licenseEffectiveDate": null,
    "licenseExpirationDate": null,
    "dataDate": "10/18/2025",
    "capacity": 0,
    "address": "39 CONGRESS ST, SUITE 310",
    "city": "PASADENA",
    "zip": "91105",
    "county": "LOS ANGELES",
    "phone": "(626) 795-0282",
    "lat": 34.13439,
    "lng": -118.151199
  },
  {
    "id": "630013725",
    "name": "LIBERTY DIALYSIS - PASADENA, LLC",
    "npi": "1740554773",
    "hcaiId": "306197843",
    "businessName": "LIBERTY DIALYSIS - PASADENA, LLC",
    "contactEmail": "CLINIC7481@FMC-NA.COM",
    "categoryName": "CHRONIC DIALYSIS CLINIC",
    "categoryCode": "ESRD/CDC",
    "licenseStatus": "ACTIVE",
    "inService": true,
    "licenseNumber": "550002298",
    "licenseEffectiveDate": "06/10/2025",
    "licenseExpirationDate": "06/09/2026",
    "dataDate": "10/18/2025",
    "capacity": 23,
    "address": "757 S RAYMOND AVE, SUITE 100",
    "city": "PASADENA",
    "zip": "91105",
    "county": "LOS ANGELES",
    "phone": "(626) 396-6957",
    "lat": 34.132563,
    "lng": -118.149219
  },
  {
    "id": "630020329",
    "name": "LL AND HH HOME HEALTH CARE, INC.",
    "npi": null,
    "hcaiId": "406193048",
    "businessName": "LL AND HH HOME HEALTH CARE, INC.",
    "contactEmail": "HOMEHEALTH21@YAHOO.COM",
    "categoryName": "HOME HEALTH AGENCY",
    "categoryCode": "HHA",
    "licenseStatus": "ACTIVE",
    "inService": true,
    "licenseNumber": "550006122",
    "licenseEffectiveDate": "03/04/2025",
    "licenseExpirationDate": "03/03/2026",
    "dataDate": "10/18/2025",
    "capacity": 0,
    "address": "1492 W COLORADO BLVD, SUITE 210",
    "city": "PASADENA",
    "zip": "91105",
    "county": "LOS ANGELES",
    "phone": "(626) 365-1126",
    "lat": 34.140663,
    "lng": -118.1796345
  },
  {
    "id": "630024167",
    "name": "ONLY CARE HOME HEALTH",
    "npi": null,
    "hcaiId": "406196151",
    "businessName": "ONLY CARE HOME HEALTH",
    "contactEmail": "ONLYCAREHH@GMAIL.COM",
    "categoryName": "HOME HEALTH AGENCY",
    "categoryCode": "HHA",
    "licenseStatus": "ACTIVE",
    "inService": true,
    "licenseNumber": "550008203",
    "licenseEffectiveDate": "10/21/2025",
    "licenseExpirationDate": "10/20/2026",
    "dataDate": "10/18/2025",
    "capacity": 0,
    "address": "86 ORANGE PL",
    "city": "PASADENA",
    "zip": "91105",
    "county": "LOS ANGELES",
    "phone": "(818) 674-4442",
    "lat": 34.14136801,
    "lng": -118.152031
  },
  {
    "id": "630011591",
    "name": "PASADENA ADVANCED SURGERY INSTITUTE",
    "npi": "1629231782",
    "hcaiId": null,
    "businessName": null,
    "contactEmail": null,
    "categoryName": "SURGICAL CLINIC",
    "categoryCode": "ASC",
    "licenseStatus": null,
    "inService": null,
    "licenseNumber": null,
    "licenseEffectiveDate": null,
    "licenseExpirationDate": null,
    "dataDate": "10/18/2025",
    "capacity": 0,
    "address": "1044 S FAIR OAKS AVE, SUITE 110",
    "city": "PASADENA",
    "zip": "91105",
    "county": "LOS ANGELES",
    "phone": "(626) 768-4422",
    "lat": 34.128279,
    "lng": -118.149831
  },
  {
    "id": "930001755",
    "name": "PASADENA ENDOSCOPY CENTER",
    "npi": "1336247642",
    "hcaiId": "306196320",
    "businessName": "PASADENA ENDOSCOPY CENTER, INC.",
    "contactEmail": "EMDOIRON@HOTMAIL.COM",
    "categoryName": "SURGICAL CLINIC",
    "categoryCode": "ASC",
    "licenseStatus": "INACTIVE - CAPEN DECISION",
    "inService": false,
    "licenseNumber": "930000974",
    "licenseEffectiveDate": "01/29/2008",
    "licenseExpirationDate": "01/28/2009",
    "dataDate": "10/18/2025",
    "capacity": 0,
    "address": "55 VALLEY ST",
    "city": "PASADENA",
    "zip": "91105",
    "county": "LOS ANGELES",
    "phone": "(626) 793-7114",
    "lat": 34.142688,
    "lng": -118.151676
  },
  {
    "id": "980002281",
    "name": "PASADENA HOME HEALTH CARE",
    "npi": "1295870228",
    "hcaiId": "406196306",
    "businessName": "PASADENA HOME HEALTH CARE",
    "contactEmail": "PASADENAHHC@EARTHLINK.NET",
    "categoryName": "HOME HEALTH AGENCY",
    "categoryCode": "HHA",
    "licenseStatus": "ACTIVE",
    "inService": true,
    "licenseNumber": "980001395",
    "licenseEffectiveDate": "05/02/2025",
    "licenseExpirationDate": "05/01/2026",
    "dataDate": "10/18/2025",
    "capacity": 0,
    "address": "183 E GLENARM ST, UNIT 103",
    "city": "PASADENA",
    "zip": "91105",
    "county": "LOS ANGELES",
    "phone": "(626) 351-1300",
    "lat": 34.12781501,
    "lng": -118.146033
  },
  {
    "id": "970000068",
    "name": "PASADENA PALACE TCU",
    "npi": "1760592190",
    "hcaiId": "206190207",
    "businessName": "PASADENA PALACE TCU, LLC",
    "contactEmail": "JAY@IEPCORP.COM",
    "categoryName": "SKILLED NURSING FACILITY",
    "categoryCode": "SNF",
    "licenseStatus": "ACTIVE",
    "inService": true,
    "licenseNumber": "970000034",
    "licenseEffectiveDate": "08/01/2025",
    "licenseExpirationDate": "12/31/2025",
    "dataDate": "10/18/2025",
    "capacity": 75,
    "address": "716 S FAIR OAKS AVE",
    "city": "PASADENA",
    "zip": "91105",
    "county": "LOS ANGELES",
    "phone": "(818) 853-5760",
    "lat": 34.133508,
    "lng": -118.1499165
  },
  {
    "id": "930001727",
    "name": "PASADENA SURGERY CENTER",
    "npi": "1255436028",
    "hcaiId": "306196204",
    "businessName": "PASADENA SURGERY CENTER, INC.",
    "contactEmail": "PCS@PRIHEALTHCARE.COM",
    "categoryName": "SURGICAL CLINIC",
    "categoryCode": "ASC",
    "licenseStatus": "INACTIVE - CAPEN DECISION",
    "inService": false,
    "licenseNumber": "930000957",
    "licenseEffectiveDate": "04/02/2008",
    "licenseExpirationDate": "04/01/2009",
    "dataDate": "10/18/2025",
    "capacity": 0,
    "address": "1035 S FAIR OAKS AVE, SUITE 101",
    "city": "PASADENA",
    "zip": "91105",
    "county": "LOS ANGELES",
    "phone": "(626) 403-6488",
    "lat": 34.128,
    "lng": -118.1506095
  },
  {
    "id": "630011430",
    "name": "PASADENA SURGERY CENTER, LLC",
    "npi": "1609963925",
    "hcaiId": null,
    "businessName": null,
    "contactEmail": null,
    "categoryName": "SURGICAL CLINIC",
    "categoryCode": "ASC",
    "licenseStatus": null,
    "inService": null,
    "licenseNumber": null,
    "licenseEffectiveDate": null,
    "licenseExpirationDate": null,
    "dataDate": "10/18/2025",
    "capacity": 0,
    "address": "800 FAIRMOUNT AVE, SUITE 419",
    "city": "PASADENA",
    "zip": "91105",
    "county": "LOS ANGELES",
    "phone": "(626) 584-6116",
    "lat": 34.131969,
    "lng": -118.151091
  },
  {
    "id": "630021649",
    "name": "PCS SURGERY CENTER",
    "npi": null,
    "hcaiId": null,
    "businessName": null,
    "contactEmail": null,
    "categoryName": "SURGICAL CLINIC",
    "categoryCode": "ASC",
    "licenseStatus": null,
    "inService": null,
    "licenseNumber": null,
    "licenseEffectiveDate": null,
    "licenseExpirationDate": null,
    "dataDate": "10/18/2025",
    "capacity": 0,
    "address": "542 S FAIR OAKS AVE",
    "city": "PASADENA",
    "zip": "91105",
    "county": "LOS ANGELES",
    "phone": "(626) 449-8910",
    "lat": 34.136451,
    "lng": -118.150128
  },
  {
    "id": "630015685",
    "name": "RAYMOND RENAISSANCE SURGERY CENTER",
    "npi": "1871939082",
    "hcaiId": null,
    "businessName": null,
    "contactEmail": null,
    "categoryName": "SURGICAL CLINIC",
    "categoryCode": "ASC",
    "licenseStatus": null,
    "inService": null,
    "licenseNumber": null,
    "licenseEffectiveDate": null,
    "licenseExpirationDate": null,
    "dataDate": "10/18/2025",
    "capacity": 0,
    "address": "125 N. RAYMOND AVENUE, SUITE #212",
    "city": "PASADENA",
    "zip": "91105",
    "county": "LOS ANGELES",
    "phone": null,
    "lat": 34.147998,
    "lng": -118.1493315
  },
  {
    "id": "630012617",
    "name": "REASONS RESIDENCE",
    "npi": null,
    "hcaiId": "206197429",
    "businessName": "BHC ALHAMBRA HOSPITAL, INC.",
    "contactEmail": "PEGGY.MINNICK@UHSINC.COM",
    "categoryName": "CONGREGATE LIVING HEALTH FACILITY",
    "categoryCode": "CLHF",
    "licenseStatus": "ACTIVE",
    "inService": true,
    "licenseNumber": "550001326",
    "licenseEffectiveDate": "11/02/2025",
    "licenseExpirationDate": "11/01/2026",
    "dataDate": "10/18/2025",
    "capacity": 6,
    "address": "453 S GRAND AVE",
    "city": "PASADENA",
    "zip": "91105",
    "county": "LOS ANGELES",
    "phone": "(626) 405-9889",
    "lat": 34.138017,
    "lng": -118.1624175
  },
  {
    "id": "630013111",
    "name": "REPRODUCTIVE SURGICAL ASSOCIATES",
    "npi": "1033394598",
    "hcaiId": null,
    "businessName": null,
    "contactEmail": "ROGERTGOOD@HAVINGBABIES.COM",
    "categoryName": "SURGICAL CLINIC",
    "categoryCode": "ASC",
    "licenseStatus": null,
    "inService": null,
    "licenseNumber": null,
    "licenseEffectiveDate": null,
    "licenseExpirationDate": null,
    "dataDate": "10/18/2025",
    "capacity": 0,
    "address": "333 S ARROYO PKWY, FLOOR 3",
    "city": "PASADENA",
    "zip": "91105",
    "county": "LOS ANGELES",
    "phone": "(626) 440-9161",
    "lat": 34.139358,
    "lng": -118.147797
  },
  {
    "id": "630016942",
    "name": "SHRINERS FOR CHILDREN AMBULATORY SURGICAL CENTER",
    "npi": null,
    "hcaiId": "306197915",
    "businessName": "SHRINERS HOSPITALS FOR CHILDREN",
    "contactEmail": "KANAYO.KERI@SHRINENET.ORG",
    "categoryName": "SURGICAL CLINIC",
    "categoryCode": "ASC/SURGC",
    "licenseStatus": "ACTIVE",
    "inService": true,
    "licenseNumber": "550003965",
    "licenseEffectiveDate": "10/06/2025",
    "licenseExpirationDate": "10/05/2026",
    "dataDate": "10/18/2025",
    "capacity": 0,
    "address": "909 S FAIR OAKS AVE, SUITE 200",
    "city": "PASADENA",
    "zip": "91105",
    "county": "LOS ANGELES",
    "phone": "(813) 281-0300",
    "lat": 34.130475,
    "lng": -118.150857
  },
  {
    "id": "630016939",
    "name": "SHRINERS FOR CHILDREN PRIMARY CARE CLINIC",
    "npi": null,
    "hcaiId": "306197917",
    "businessName": "SHRINERS HOSPITALS FOR CHILDREN",
    "contactEmail": "KANAYO.KERI@SHRINENET.ORG",
    "categoryName": "PRIMARY CARE CLINIC",
    "categoryCode": "COMTYC",
    "licenseStatus": "ACTIVE",
    "inService": true,
    "licenseNumber": "550003963",
    "licenseEffectiveDate": "09/29/2025",
    "licenseExpirationDate": "09/28/2026",
    "dataDate": "10/18/2025",
    "capacity": 0,
    "address": "909 S FAIR OAKS AVE, SUITE 100",
    "city": "PASADENA",
    "zip": "91105",
    "county": "LOS ANGELES",
    "phone": "(626) 389-9558",
    "lat": 34.130475,
    "lng": -118.150857
  },
  {
    "id": "630016941",
    "name": "SHRINERS FOR CHILDREN REHAB CLINIC",
    "npi": null,
    "hcaiId": "306197916",
    "businessName": "SHRINERS HOSPITALS FOR CHILDREN",
    "contactEmail": "KANAYO.KERI@SHRINENET.ORG",
    "categoryName": "PRIMARY CARE CLINIC",
    "categoryCode": "COMTYC",
    "licenseStatus": "ACTIVE",
    "inService": true,
    "licenseNumber": "550003964",
    "licenseEffectiveDate": "09/19/2024",
    "licenseExpirationDate": "09/18/2025",
    "dataDate": "10/18/2025",
    "capacity": 0,
    "address": "909 S FAIR OAKS AVE, SUITE 201",
    "city": "PASADENA",
    "zip": "91105",
    "county": "LOS ANGELES",
    "phone": "(813) 281-0300",
    "lat": 34.130475,
    "lng": -118.150857
  },
  {
    "id": "630017768",
    "name": "TELEOS OUTPATIENT SURGERY CENTER, LLC",
    "npi": "1962929778",
    "hcaiId": null,
    "businessName": null,
    "contactEmail": "MLEHFELDT@GMAIL.COM",
    "categoryName": "SURGICAL CLINIC",
    "categoryCode": "ASC",
    "licenseStatus": null,
    "inService": null,
    "licenseNumber": null,
    "licenseEffectiveDate": null,
    "licenseExpirationDate": null,
    "dataDate": "10/18/2025",
    "capacity": 0,
    "address": "836 S ARROYO PARKWAY, SUITE A",
    "city": "PASADENA",
    "zip": "91105",
    "county": "LOS ANGELES",
    "phone": "(626) 375-1561",
    "lat": 34.131348,
    "lng": -118.146843
  },
  {
    "id": "970000075",
    "name": "THE BELLEFONTAINE HEALTHCARE CENTER",
    "npi": "1245920263",
    "hcaiId": "206190505",
    "businessName": "XINGU RIVER HOLDINGS LLC",
    "contactEmail": "BRAUN.EHMAN@LINKSHEALTH.COM",
    "categoryName": "SKILLED NURSING FACILITY",
    "categoryCode": "SNF",
    "licenseStatus": "ACTIVE",
    "inService": true,
    "licenseNumber": "970000037",
    "licenseEffectiveDate": "04/30/2025",
    "licenseExpirationDate": "04/29/2026",
    "dataDate": "10/18/2025",
    "capacity": 130,
    "address": "150 BELLEFONTAINE ST",
    "city": "PASADENA",
    "zip": "91105",
    "county": "LOS ANGELES",
    "phone": "(626) 796-1103",
    "lat": 34.131195,
    "lng": -118.153593
  },
  {
    "id": "970000066",
    "name": "THE CALIFORNIAN PASADENA HEALTHCARE",
    "npi": "1962180265",
    "hcaiId": "206190121",
    "businessName": "BELLEFONTAINE HEALTH CENTER, LLC",
    "contactEmail": "JAY@IEPCORP.COM",
    "categoryName": "SKILLED NURSING FACILITY",
    "categoryCode": "SNF",
    "licenseStatus": "ACTIVE",
    "inService": true,
    "licenseNumber": "970000033",
    "licenseEffectiveDate": "11/01/2024",
    "licenseExpirationDate": "10/31/2025",
    "dataDate": "10/18/2025",
    "capacity": 82,
    "address": "120 BELLEFONTAINE ST",
    "city": "PASADENA",
    "zip": "91105",
    "county": "LOS ANGELES",
    "phone": "(626) 793-5114",
    "lat": 34.131159,
    "lng": -118.153215
  },
  {
    "id": "630019372",
    "name": "TOWER OUTPATIENT SURGERY CENTER OF PASADENA",
    "npi": null,
    "hcaiId": null,
    "businessName": null,
    "contactEmail": "DRA@ARONOWITZMD.COM",
    "categoryName": "SURGICAL CLINIC",
    "categoryCode": "ASC",
    "licenseStatus": null,
    "inService": null,
    "licenseNumber": null,
    "licenseEffectiveDate": null,
    "licenseExpirationDate": null,
    "dataDate": "10/18/2025",
    "capacity": 0,
    "address": "800 FAIRMOUNT AVE, SUITE 419",
    "city": "PASADENA",
    "zip": "91105",
    "county": "LOS ANGELES",
    "phone": "(310) 659-0705",
    "lat": 34.131969,
    "lng": -118.151091
  },
  {
    "id": "980002282",
    "name": "VIRGINIA HOME CARE AGENCY",
    "npi": "1194882530",
    "hcaiId": "406197029",
    "businessName": "VIRGINIA HOME CARE, INC.",
    "contactEmail": "VIRGINIAHOMECAREINC@YAHOO.COM",
    "categoryName": "HOME HEALTH AGENCY",
    "categoryCode": "HHA",
    "licenseStatus": "ACTIVE",
    "inService": true,
    "licenseNumber": "980001396",
    "licenseEffectiveDate": "10/08/2025",
    "licenseExpirationDate": "10/07/2026",
    "dataDate": "10/18/2025",
    "capacity": 0,
    "address": "1 WEST CALIFORNIA BLVD., SUITE 226",
    "city": "PASADENA",
    "zip": "91105",
    "county": "LOS ANGELES",
    "phone": "(626) 796-5296",
    "lat": 34.136172,
    "lng": -118.151055
  }
]