[
  {
    "id": "630025192",
    "name": "AG HOME HEALTH SERVICES",
    "npi": null,
    "hcaiId": null,
    "businessName": "AG HOME HEALTH SERVICE",
    "contactEmail": "AGHHSERVICES@GMAIL.COM",
    "categoryName": "HOME HEALTH AGENCY",
    "categoryCode": "HHA",
    "licenseStatus": "ACTIVE",
    "inService": true,
    "licenseNumber": "550008905",
    "licenseEffectiveDate": "03/12/2025",
    "licenseExpirationDate": "01/18/2026",
    "dataDate": "10/18/2025",
    "capacity": 0,
    "address": "260 S LOS ROBLES AVE, SUITE 309",
    "city": "PASADENA",
    "zip": "91101",
    "county": "LOS ANGELES",
    "phone": "(747) 977-5959",
    "lat": 34.14144864,
    "lng": -118.1409754
  },
  {
    "id": "630018959",
    "name": "AMMA HEALTHCARE MANAGEMENT",
    "npi": null,
    "hcaiId": "406192491",
    "businessName": "AMMA HEALTHCARE MANAGEMENT",
    "contactEmail": "AMMAHHCM@GMAIL.COM",
    "categoryName": "HOME HEALTH AGENCY",
    "categoryCode": "HHA",
    "licenseStatus": "ACTIVE",
    "inService": true,
    "licenseNumber": "550005480",
    "licenseEffectiveDate": "06/02/2025",
    "licenseExpirationDate": "06/01/2026",
    "dataDate": "10/18/2025",
    "capacity": 0,
    "address": "232 N LAKE AVE, SUITE 225",
    "city": "PASADENA",
    "zip": "91101",
    "county": "LOS ANGELES",
    "phone": "(626) 653-3335",
    "lat": 34.15000899,
    "lng": -118.132067
  },
  {
    "id": "630023464",
    "name": "ARAVA HOME HEALTH CARE, INC",
    "npi": null,
    "hcaiId": "406195232",
    "businessName": "ARAVA HOME HEALTH CARE, INC",
    "contactEmail": "ARAVAHOMECARE@YAHOO.COM",
    "categoryName": "HOME HEALTH AGENCY",
    "categoryCode": "HHA",
    "licenseStatus": "ACTIVE",
    "inService": true,
    "licenseNumber": "550007939",
    "licenseEffectiveDate": "04/06/2025",
    "licenseExpirationDate": "04/05/2026",
    "dataDate": "10/18/2025",
    "capacity": 0,
    "address": "595 E COLORADO BLVD, SUITE 614A",
    "city": "PASADENA",
    "zip": "91101",
    "county": "LOS ANGELES",
    "phone": "(626) 684-4501",
    "lat": 34.146189,
    "lng": -118.138077
  },
  {
    "id": "630025825",
    "name": "ARMMED HEALTH CARE, INC.",
    "npi": null,
    "hcaiId": "406190046",
    "businessName": "ARMMED HEALTH CARE, INC.",
    "contactEmail": "ARMMEDHEALTHCARE@YAHOO.COM",
    "categoryName": "HOME HEALTH AGENCY",
    "categoryCode": "HHA",
    "licenseStatus": "ACTIVE",
    "inService": true,
    "licenseNumber": "550008875",
    "licenseEffectiveDate": "06/20/2024",
    "licenseExpirationDate": "12/19/2024",
    "dataDate": "10/18/2025",
    "capacity": 0,
    "address": "261 E COLORADO BLVD, UNIT 203A",
    "city": "PASADENA",
    "zip": "91101",
    "county": "LOS ANGELES",
    "phone": "(747) 300-0803",
    "lat": 34.14613002,
    "lng": -118.145044
  },
  {
    "id": "630023288",
    "name": "ARTMED HEALTH CARE, INC",
    "npi": null,
    "hcaiId": "406195759",
    "businessName": "ARTMED HEALTH CARE, INC",
    "contactEmail": "ARTMEDHEALTHCARE@YAHOO.COM",
    "categoryName": "HOME HEALTH AGENCY",
    "categoryCode": "HHA",
    "licenseStatus": "ACTIVE",
    "inService": true,
    "licenseNumber": "550007783",
    "licenseEffectiveDate": "01/18/2025",
    "licenseExpirationDate": "01/17/2026",
    "dataDate": "10/18/2025",
    "capacity": 0,
    "address": "261 E COLORADO BLVD, SUITE 203",
    "city": "PASADENA",
    "zip": "91101",
    "county": "LOS ANGELES",
    "phone": "(747) 666-1188",
    "lat": 34.146126,
    "lng": -118.1450295
  },
  {
    "id": "630024666",
    "name": "ATHENA HEALTH CARE SERVICES INC",
    "npi": null,
    "hcaiId": "406190077",
    "businessName": "ATHENA HEALTH CARE SERVICES INC",
    "contactEmail": "ATHENAHCSI@GMAIL.COM",
    "categoryName": "HOME HEALTH AGENCY",
    "categoryCode": "HHA",
    "licenseStatus": "ACTIVE",
    "inService": true,
    "licenseNumber": "550008818",
    "licenseEffectiveDate": "11/09/2025",
    "licenseExpirationDate": "11/08/2026",
    "dataDate": "10/18/2025",
    "capacity": 0,
    "address": "596 N LAKE AVE, SUITE 202",
    "city": "PASADENA",
    "zip": "91101",
    "county": "LOS ANGELES",
    "phone": "(747) 247-8790",
    "lat": 34.156305,
    "lng": -118.1321685
  },
  {
    "id": "630018777",
    "name": "BLUE MOON HOME HEALTH, INC.",
    "npi": null,
    "hcaiId": "406195235",
    "businessName": "BLUE MOON HOME HEALTH, INC.",
    "contactEmail": "BLUEMOONHHINC@GMAIL.COM",
    "categoryName": "HOME HEALTH AGENCY",
    "categoryCode": "HHA",
    "licenseStatus": "ACTIVE",
    "inService": true,
    "licenseNumber": "550007760",
    "licenseEffectiveDate": "12/10/2024",
    "licenseExpirationDate": "12/09/2025",
    "dataDate": "10/18/2025",
    "capacity": 0,
    "address": "260 S LOS ROBLES AVE, SUITE 114",
    "city": "PASADENA",
    "zip": "91101",
    "county": "LOS ANGELES",
    "phone": "(626) 817-9040",
    "lat": 34.14144101,
    "lng": -118.140965
  },
  {
    "id": "630022191",
    "name": "CAREMARK HOME HEALTH",
    "npi": null,
    "hcaiId": "406195260",
    "businessName": "NEXTEP HOME HEALTH",
    "contactEmail": "NEXTEPHHC@GMAIL.COM",
    "categoryName": "HOME HEALTH AGENCY",
    "categoryCode": "HHA",
    "licenseStatus": "ACTIVE",
    "inService": true,
    "licenseNumber": "550007278",
    "licenseEffectiveDate": "10/09/2025",
    "licenseExpirationDate": "11/21/2025",
    "dataDate": "10/18/2025",
    "capacity": 0,
    "address": "150 S LOS ROBLES AVE, SUITE 930B",
    "city": "PASADENA",
    "zip": "91101",
    "county": "LOS ANGELES",
    "phone": "(818) 855-2183",
    "lat": 34.14313101,
    "lng": -118.140314
  },
  {
    "id": "980002388",
    "name": "CONCORD HOME HEALTH CARE",
    "npi": "1548393978",
    "hcaiId": "406196475",
    "businessName": "PROVIDENCE HOME HEALTH CARE, INC.",
    "contactEmail": "PHHCI-CONCORD@SBCGLOBAL.NET",
    "categoryName": "HOME HEALTH AGENCY",
    "categoryCode": "HHA",
    "licenseStatus": "ACTIVE",
    "inService": true,
    "licenseNumber": "980001498",
    "licenseEffectiveDate": "04/15/2025",
    "licenseExpirationDate": "04/14/2026",
    "dataDate": "10/18/2025",
    "capacity": 0,
    "address": "424 N LAKE AVE, SUITE 202",
    "city": "PASADENA",
    "zip": "91101",
    "county": "LOS ANGELES",
    "phone": "(626) 792-0911",
    "lat": 34.153317,
    "lng": -118.1319525
  },
  {
    "id": "060001828",
    "name": "CROWN CITY ADULT DAY HEALTH CARE CENTER",
    "npi": null,
    "hcaiId": null,
    "businessName": "CROWN CITY ADULT DAY HEALTH CARE CENTER, INC.",
    "contactEmail": "CROWNCITYINC@GMAIL.COM",
    "categoryName": "ADULT DAY HEALTH CARE",
    "categoryCode": "ADHC",
    "licenseStatus": "ACTIVE",
    "inService": true,
    "licenseNumber": "060000645",
    "licenseEffectiveDate": "11/14/2024",
    "licenseExpirationDate": "11/13/2025",
    "dataDate": "10/18/2025",
    "capacity": 0,
    "address": "122 N EL MOLINO AVE",
    "city": "PASADENA",
    "zip": "91101",
    "county": "LOS ANGELES",
    "phone": "(626) 583-8822",
    "lat": 34.148025,
    "lng": -118.136394
  },
  {
    "id": "630018793",
    "name": "DIRECT CARE HOME HEALTH, INC.",
    "npi": "1962964502",
    "hcaiId": "406192010",
    "businessName": "DIRECT CARE HOME HEALTH, INC.",
    "contactEmail": "DIRECTCAREHOMEHEALTHINC@GMAIL.COM",
    "categoryName": "HOME HEALTH AGENCY",
    "categoryCode": "HHA",
    "licenseStatus": "ACTIVE",
    "inService": true,
    "licenseNumber": "550005067",
    "licenseEffectiveDate": "10/31/2025",
    "licenseExpirationDate": "10/30/2026",
    "dataDate": "10/18/2025",
    "capacity": 0,
    "address": "232 N LAKE AVE, SUITE 212",
    "city": "PASADENA",
    "zip": "91101",
    "county": "LOS ANGELES",
    "phone": "(626) 495-0005",
    "lat": 34.150014,
    "lng": -118.1320605
  },
  {
    "id": "630027178",
    "name": "E&V HEALTH, INC",
    "npi": null,
    "hcaiId": null,
    "businessName": "E&V HEALTH, INC.",
    "contactEmail": "EANDVHEALTH@GMAIL.COM",
    "categoryName": "HOME HEALTH AGENCY",
    "categoryCode": "HHA",
    "licenseStatus": "ACTIVE",
    "inService": true,
    "licenseNumber": "550009547",
    "licenseEffectiveDate": "06/16/2025",
    "licenseExpirationDate": "12/15/2025",
    "dataDate": "10/18/2025",
    "capacity": 0,
    "address": "573 S LAKE AVE, SUITE 7",
    "city": "PASADENA",
    "zip": "91101",
    "county": "LOS ANGELES",
    "phone": "(626) 414-2683",
    "lat": 34.13628799,
    "lng": -118.132584
  },
  {
    "id": "630018543",
    "name": "E. D. A HOME HEALTH CARE, INC.",
    "npi": "1356815377",
    "hcaiId": "406192362",
    "businessName": "E. D. A HOME HEALTH CARE, INC.",
    "contactEmail": "EDAHOMEHEALTH@GMAIL.COM",
    "categoryName": "HOME HEALTH AGENCY",
    "categoryCode": "HHA",
    "licenseStatus": "ACTIVE",
    "inService": true,
    "licenseNumber": "550004933",
    "licenseEffectiveDate": "09/03/2025",
    "licenseExpirationDate": "09/02/2026",
    "dataDate": "10/18/2025",
    "capacity": 0,
    "address": "16 S OAKLAND AVE, SUITE 213",
    "city": "PASADENA",
    "zip": "91101",
    "county": "LOS ANGELES",
    "phone": "(818) 387-6167",
    "lat": 34.14549299,
    "lng": -118.139516
  },
  {
    "id": "630024729",
    "name": "EXACT HOME HEALTH CARE, INC.",
    "npi": null,
    "hcaiId": "406196158",
    "businessName": "EXACT HOME HEALTH CARE, INC.",
    "contactEmail": "EXACTHHC@GMAIL.COM",
    "categoryName": "HOME HEALTH AGENCY",
    "categoryCode": "HHA",
    "licenseStatus": "ACTIVE",
    "inService": true,
    "licenseNumber": "550008222",
    "licenseEffectiveDate": "11/10/2025",
    "licenseExpirationDate": "11/09/2026",
    "dataDate": "10/18/2025",
    "capacity": 0,
    "address": "740 E COLORADO BLVD, SUITE 201",
    "city": "PASADENA",
    "zip": "91101",
    "county": "LOS ANGELES",
    "phone": "(818) 452-0100",
    "lat": 34.145559,
    "lng": -118.1350395
  },
  {
    "id": "630025617",
    "name": "EXQUISITE HOME HEALTH CARE, INC.",
    "npi": null,
    "hcaiId": null,
    "businessName": "EXQUISITE HOME HEALTH CARE, INC.",
    "contactEmail": "EXQUISITEHHC@YAHOO.COM",
    "categoryName": "HOME HEALTH AGENCY",
    "categoryCode": "HHA",
    "licenseStatus": "ACTIVE",
    "inService": true,
    "licenseNumber": "550009713",
    "licenseEffectiveDate": "08/18/2025",
    "licenseExpirationDate": "02/17/2026",
    "dataDate": "10/18/2025",
    "capacity": 0,
    "address": "260 S LOS ROBLES AVE, SUITE 107",
    "city": "PASADENA",
    "zip": "91101",
    "county": "LOS ANGELES",
    "phone": "(626) 365-1004",
    "lat": 34.141374,
    "lng": -118.140921
  },
  {
    "id": "630018641",
    "name": "H & M HOME HEALTH CARE, INC.",
    "npi": "1285191213",
    "hcaiId": "406191987",
    "businessName": "H & M HOME HEALTH CARE, INC.",
    "contactEmail": "HANDMHOMEHEALTH@GMAIL.COM",
    "categoryName": "HOME HEALTH AGENCY",
    "categoryCode": "HHA",
    "licenseStatus": "ACTIVE",
    "inService": true,
    "licenseNumber": "550005010",
    "licenseEffectiveDate": "10/15/2025",
    "licenseExpirationDate": "10/14/2026",
    "dataDate": "10/18/2025",
    "capacity": 0,
    "address": "232 N LAKE AVE, SUITE 209",
    "city": "PASADENA",
    "zip": "91101",
    "county": "LOS ANGELES",
    "phone": "(626) 988-0778",
    "lat": 34.150005,
    "lng": -118.13193
  },
  {
    "id": "630015568",
    "name": "HAKIMI HOME HEALTH, INC.",
    "npi": "1265841936",
    "hcaiId": "406198365",
    "businessName": "HAKIMI HOME HEALTH, INC.",
    "contactEmail": "HAKIMIHOMEHEALTH@GMAIL.COM",
    "categoryName": "HOME HEALTH AGENCY",
    "categoryCode": "HHA",
    "licenseStatus": "ACTIVE",
    "inService": true,
    "licenseNumber": "550003569",
    "licenseEffectiveDate": "07/01/2025",
    "licenseExpirationDate": "06/30/2026",
    "dataDate": "10/18/2025",
    "capacity": 0,
    "address": "280 S LOS ROBLES AVE, SUITE A",
    "city": "PASADENA",
    "zip": "91101",
    "county": "LOS ANGELES",
    "phone": "(626) 683-4980",
    "lat": 34.140753,
    "lng": -118.1409165
  },
  {
    "id": "630025403",
    "name": "HEXA HOME HEALTH CARE",
    "npi": null,
    "hcaiId": null,
    "businessName": "HEXA HOME HEALTH CARE",
    "contactEmail": "HEXAHOMEHEALTH@GMAIL.COM",
    "categoryName": "HOME HEALTH AGENCY",
    "categoryCode": "HHA",
    "licenseStatus": "ACTIVE",
    "inService": true,
    "licenseNumber": "550009138",
    "licenseEffectiveDate": "05/10/2025",
    "licenseExpirationDate": "05/09/2026",
    "dataDate": "10/18/2025",
    "capacity": 0,
    "address": "761 E GREEN ST, UNIT 6",
    "city": "PASADENA",
    "zip": "91101",
    "county": "LOS ANGELES",
    "phone": "(818) 608-8803",
    "lat": 34.144803,
    "lng": -118.1346975
  },
  {
    "id": "630019430",
    "name": "HORIZON VIEW HOSPICE INC",
    "npi": null,
    "hcaiId": "406192575",
    "businessName": "HORIZON VIEW HOSPICE INC",
    "contactEmail": "HORIZONVIEWHOSPICEINC@GMAIL.COM",
    "categoryName": "HOSPICE",
    "categoryCode": "HOSPICE",
    "licenseStatus": "ACTIVE",
    "inService": true,
    "licenseNumber": "550005423",
    "licenseEffectiveDate": "04/24/2024",
    "licenseExpirationDate": "04/23/2026",
    "dataDate": "10/18/2025",
    "capacity": 0,
    "address": "232 N LAKE AVE, SUITE 225",
    "city": "PASADENA",
    "zip": "91101",
    "county": "LOS ANGELES",
    "phone": "(626) 313-0881",
    "lat": 34.150005,
    "lng": -118.13193
  },
  {
    "id": "630011830",
    "name": "LEVEL HOME HEALTH, INC.",
    "npi": "1053500652",
    "hcaiId": "406195630",
    "businessName": "LEVEL HOME HEALTH, INC.",
    "contactEmail": "LEVELHOMEHEALTH@GMAIL.COM",
    "categoryName": "HOME HEALTH AGENCY",
    "categoryCode": "HHA",
    "licenseStatus": "ACTIVE",
    "inService": true,
    "licenseNumber": "550001125",
    "licenseEffectiveDate": "11/03/2025",
    "licenseExpirationDate": "11/02/2026",
    "dataDate": "10/18/2025",
    "capacity": 0,
    "address": "260 S LOS ROBLES AVE, SUITE 101",
    "city": "PASADENA",
    "zip": "91101",
    "county": "LOS ANGELES",
    "phone": "(949) 206-0691",
    "lat": 34.141374,
    "lng": -118.140921
  },
  {
    "id": "630025840",
    "name": "LIMED HEALTH CARE, INC.",
    "npi": null,
    "hcaiId": "406190264",
    "businessName": "LIMED HEALTH CARE, INC.",
    "contactEmail": "LIMEDHEALTHCARE@YAHOO.COM",
    "categoryName": "HOME HEALTH AGENCY",
    "categoryCode": "HHA",
    "licenseStatus": "ACTIVE",
    "inService": true,
    "licenseNumber": "550008959",
    "licenseEffectiveDate": "06/20/2024",
    "licenseExpirationDate": "12/19/2024",
    "dataDate": "10/18/2025",
    "capacity": 0,
    "address": "261 E COLORADO BLVD, SUITE 204",
    "city": "PASADENA",
    "zip": "91101",
    "county": "LOS ANGELES",
    "phone": "(747) 444-4511",
    "lat": 34.146126,
    "lng": -118.1450295
  },
  {
    "id": "630026068",
    "name": "LIVING WATER HOME HEALTH CORPORATION",
    "npi": null,
    "hcaiId": null,
    "businessName": "LIVING WATER HOME HEALTH CORPORATION",
    "contactEmail": "LIVINGWHH@GMAIL.COM",
    "categoryName": "HOME HEALTH AGENCY",
    "categoryCode": "HHA",
    "licenseStatus": "ACTIVE",
    "inService": true,
    "licenseNumber": "550009147",
    "licenseEffectiveDate": "05/18/2025",
    "licenseExpirationDate": "05/17/2026",
    "dataDate": "10/18/2025",
    "capacity": 0,
    "address": "221 E WALNUT ST, SUITE 255B",
    "city": "PASADENA",
    "zip": "91101",
    "county": "LOS ANGELES",
    "phone": "(626) 421-5690",
    "lat": 34.15000401,
    "lng": -118.145566
  },
  {
    "id": "630021927",
    "name": "LZ HOSPICE CARE INC",
    "npi": null,
    "hcaiId": "406193896",
    "businessName": "LZ HOSPICE CARE INC",
    "contactEmail": "LZHOSPICECARE@GMAIL.COM",
    "categoryName": "HOSPICE",
    "categoryCode": "HOSPICE",
    "licenseStatus": "ACTIVE",
    "inService": true,
    "licenseNumber": "550007313",
    "licenseEffectiveDate": "11/29/2025",
    "licenseExpirationDate": "11/28/2027",
    "dataDate": "10/18/2025",
    "capacity": 0,
    "address": "221 E WALNUT ST, SUITE 120",
    "city": "PASADENA",
    "zip": "91101",
    "county": "LOS ANGELES",
    "phone": "(626) 298-6818",
    "lat": 34.15000401,
    "lng": -118.145566
  },
  {
    "id": "630027423",
    "name": "MAXIMAL HELP HOME HEALTH INC.",
    "npi": null,
    "hcaiId": null,
    "businessName": "MAXIMAL HELP HOME HEALTH INC.",
    "contactEmail": "MAXIMALHELP.HH@GMAIL.COM",
    "categoryName": "HOME HEALTH AGENCY",
    "categoryCode": "HHA",
    "licenseStatus": "ACTIVE",
    "inService": true,
    "licenseNumber": "550009566",
    "licenseEffectiveDate": "12/13/2025",
    "licenseExpirationDate": "12/12/2026",
    "dataDate": "10/18/2025",
    "capacity": 0,
    "address": "260 S LOS ROBLES AVE, SUITE 341",
    "city": "PASADENA",
    "zip": "91101",
    "county": "LOS ANGELES",
    "phone": "(805) 424-1755",
    "lat": 34.14144101,
    "lng": -118.140965
  },
  {
    "id": "630023532",
    "name": "MILAVA HOME HEALTH CARE, INC.",
    "npi": null,
    "hcaiId": "406195867",
    "businessName": "MILAVA HOME HEALTH CARE, INC.",
    "contactEmail": "MILAVAHOMECARE@YAHOO.COM",
    "categoryName": "HOME HEALTH AGENCY",
    "categoryCode": "HHA",
    "licenseStatus": "ACTIVE",
    "inService": true,
    "licenseNumber": "550008024",
    "licenseEffectiveDate": "06/03/2025",
    "licenseExpirationDate": "06/02/2026",
    "dataDate": "10/18/2025",
    "capacity": 0,
    "address": "595 E COLORADO BLVD, SUITE 614",
    "city": "PASADENA",
    "zip": "91101",
    "county": "LOS ANGELES",
    "phone": "(626) 631-2045",
    "lat": 34.146189,
    "lng": -118.138077
  },
  {
    "id": "980001700",
    "name": "MISSION HOSPICE",
    "npi": "1982635140",
    "hcaiId": "406194871",
    "businessName": "HOSPICE CHEER",
    "contactEmail": "CPAZ@MISSIONHOSPICE.NET",
    "categoryName": "HOSPICE",
    "categoryCode": "HOSPICE",
    "licenseStatus": "ACTIVE",
    "inService": true,
    "licenseNumber": "980001016",
    "licenseEffectiveDate": "01/05/2024",
    "licenseExpirationDate": "01/04/2026",
    "dataDate": "10/18/2025",
    "capacity": 0,
    "address": "2555 EAST COLORADO BLVD., SUITE 301",
    "city": "PASADENA",
    "zip": "91101",
    "county": "LOS ANGELES",
    "phone": "(626) 799-2727",
    "lat": 34.146432,
    "lng": -118.097946
  },
  {
    "id": "630023350",
    "name": "MOTHER NATURE HEALTHCARE INC.",
    "npi": null,
    "hcaiId": null,
    "businessName": "MOTHER NATURE HEALTHCARE INC.",
    "contactEmail": "MOTHERNATUREHOMECARE@GMAIL.COM",
    "categoryName": "HOME HEALTH AGENCY",
    "categoryCode": "HHA",
    "licenseStatus": "ACTIVE",
    "inService": true,
    "licenseNumber": "550009552",
    "licenseEffectiveDate": "06/16/2025",
    "licenseExpirationDate": "12/15/2025",
    "dataDate": "10/18/2025",
    "capacity": 0,
    "address": "260 S LOS ROBLES AVE, SUITE 337",
    "city": "PASADENA",
    "zip": "91101",
    "county": "LOS ANGELES",
    "phone": "(818) 441-6283",
    "lat": 34.14144864,
    "lng": -118.1409754
  },
  {
    "id": "630019733",
    "name": "NEW PATH HOSPICE CARE INC.",
    "npi": null,
    "hcaiId": "406193819",
    "businessName": "NEW PATH HOSPICE CARE INC.",
    "contactEmail": "NEWPATHHOSPICE@GMAIL.COM",
    "categoryName": "HOSPICE",
    "categoryCode": "HOSPICE",
    "licenseStatus": "ACTIVE",
    "inService": true,
    "licenseNumber": "550006135",
    "licenseEffectiveDate": "03/09/2025",
    "licenseExpirationDate": "03/08/2027",
    "dataDate": "10/18/2025",
    "capacity": 0,
    "address": "424 N LAKE AVE, SUITE 205",
    "city": "PASADENA",
    "zip": "91101",
    "county": "LOS ANGELES",
    "phone": "(626) 817-9145",
    "lat": 34.153317,
    "lng": -118.1319525
  },
  {
    "id": "930001685",
    "name": "OAK TREE ASC, LLC",
    "npi": "1417051533",
    "hcaiId": "306196120",
    "businessName": "OAK TREE ASC, LLC",
    "contactEmail": "WYCOFF@HOTMAIL.COM",
    "categoryName": "SURGICAL CLINIC",
    "categoryCode": "ASC",
    "licenseStatus": "INACTIVE - CAPEN DECISION",
    "inService": false,
    "licenseNumber": "930000938",
    "licenseEffectiveDate": "04/26/2008",
    "licenseExpirationDate": "04/25/2009",
    "dataDate": "10/18/2025",
    "capacity": 0,
    "address": "751 CORDOVA ST, SUITE 2",
    "city": "PASADENA",
    "zip": "91101",
    "county": "LOS ANGELES",
    "phone": "(626) 577-2525",
    "lat": 34.142823,
    "lng": -118.134837
  },
  {
    "id": "630024599",
    "name": "OBRIA LA PASADENA",
    "npi": null,
    "hcaiId": null,
    "businessName": "WHITTIER PREGNANCY CARE CLINIC, INC",
    "contactEmail": null,
    "categoryName": "PRIMARY CARE CLINIC",
    "categoryCode": "COMTYC",
    "licenseStatus": "ACTIVE",
    "inService": true,
    "licenseNumber": "960001056",
    "licenseEffectiveDate": "03/12/2025",
    "licenseExpirationDate": "03/11/2026",
    "dataDate": "10/18/2025",
    "capacity": 0,
    "address": "445 N LAKE AVE",
    "city": "PASADENA",
    "zip": "91101",
    "county": "LOS ANGELES",
    "phone": null,
    "lat": 34.153704,
    "lng": -118.13265
  },
  {
    "id": "630025219",
    "name": "OPTIMUS HOME HEALTH, INC",
    "npi": null,
    "hcaiId": "406196800",
    "businessName": "OPTIMUS HOME HEALTH, INC",
    "contactEmail": "OPTIMUSHH4@GMAIL.COM",
    "categoryName": "HOME HEALTH AGENCY",
    "categoryCode": "HHA",
    "licenseStatus": "ACTIVE",
    "inService": true,
    "licenseNumber": "550008341",
    "licenseEffectiveDate": "10/27/2025",
    "licenseExpirationDate": "01/19/2026",
    "dataDate": "10/18/2025",
    "capacity": 0,
    "address": "150 S LOS ROBLES AVE, SUITE 440",
    "city": "PASADENA",
    "zip": "91101",
    "county": "LOS ANGELES",
    "phone": "(818) 717-7211",
    "lat": 34.143129,
    "lng": -118.1403135
  },
  {
    "id": "630025492",
    "name": "OUR HOPE HOME HEALTH INC",
    "npi": null,
    "hcaiId": "406190086",
    "businessName": "OUR HOPE HOME HEALTH INC",
    "contactEmail": "OURHOPEHH@YAHOO.COM",
    "categoryName": "HOME HEALTH AGENCY",
    "categoryCode": "HHA",
    "licenseStatus": "ACTIVE",
    "inService": true,
    "licenseNumber": "550008817",
    "licenseEffectiveDate": "07/25/2025",
    "licenseExpirationDate": "07/24/2026",
    "dataDate": "10/18/2025",
    "capacity": 0,
    "address": "758 E COLORADO BLVD, SUITE 201",
    "city": "PASADENA",
    "zip": "91101",
    "county": "LOS ANGELES",
    "phone": "(747) 244-4673",
    "lat": 34.145568,
    "lng": -118.1347155
  },
  {
    "id": "630011176",
    "name": "ROSE CITY CENTER",
    "npi": null,
    "hcaiId": "306197162",
    "businessName": "ROSE CITY COUNSELING CENTER",
    "contactEmail": "ROSECITYCENTERSTAFF@GMAIL.COM",
    "categoryName": "PSYCHOLOGY CLINIC",
    "categoryCode": "PSYCHC",
    "licenseStatus": "ACTIVE",
    "inService": true,
    "licenseNumber": "550000788",
    "licenseEffectiveDate": "11/10/2024",
    "licenseExpirationDate": "11/09/2025",
    "dataDate": "10/18/2025",
    "capacity": 0,
    "address": "595 E COLORADO BLVD, SUITE 418",
    "city": "PASADENA",
    "zip": "91101",
    "county": "LOS ANGELES",
    "phone": "(626) 793-8609",
    "lat": 34.146207,
    "lng": -118.1380455
  },
  {
    "id": "630024760",
    "name": "ROSE CITY HEALTH, INC",
    "npi": null,
    "hcaiId": "406196514",
    "businessName": "ROSE CITY HEALTH, INC",
    "contactEmail": "ROSECITYHEALTH@GMAIL.COM",
    "categoryName": "HOME HEALTH AGENCY",
    "categoryCode": "HHA",
    "licenseStatus": "ACTIVE",
    "inService": true,
    "licenseNumber": "550008436",
    "licenseEffectiveDate": "03/13/2025",
    "licenseExpirationDate": "03/12/2026",
    "dataDate": "10/18/2025",
    "capacity": 0,
    "address": "573 S LAKE AVE, UNIT 6",
    "city": "PASADENA",
    "zip": "91101",
    "county": "LOS ANGELES",
    "phone": "(626) 655-8427",
    "lat": 34.13628,
    "lng": -118.132578
  },
  {
    "id": "630020065",
    "name": "S&A HOSPICE CARE INC",
    "npi": null,
    "hcaiId": "406192938",
    "businessName": "S&A HOSPICE CARE INC",
    "contactEmail": "SANDAHOSPICECAREINC@GMAIL.COM",
    "categoryName": "HOSPICE",
    "categoryCode": "HOSPICE",
    "licenseStatus": "ACTIVE",
    "inService": true,
    "licenseNumber": "550005787",
    "licenseEffectiveDate": "10/05/2024",
    "licenseExpirationDate": "10/04/2026",
    "dataDate": "10/18/2025",
    "capacity": 0,
    "address": "232 N LAKE AVE, SUITE 213-B",
    "city": "PASADENA",
    "zip": "91101",
    "county": "LOS ANGELES",
    "phone": "(625) 545-0310",
    "lat": 34.150005,
    "lng": -118.13193
  },
  {
    "id": "630020862",
    "name": "SIMPLE HOME HEALTH CARE, INC.",
    "npi": null,
    "hcaiId": "406193803",
    "businessName": "SIMPLE HOME HEALTH CARE, INC.",
    "contactEmail": "SIMPLEHHC@GMAIL.COM",
    "categoryName": "HOME HEALTH AGENCY",
    "categoryCode": "HHA",
    "licenseStatus": "ACTIVE",
    "inService": true,
    "licenseNumber": "550006418",
    "licenseEffectiveDate": "05/12/2025",
    "licenseExpirationDate": "05/11/2026",
    "dataDate": "10/18/2025",
    "capacity": 0,
    "address": "761 E GREEN ST, SUITE 7",
    "city": "PASADENA",
    "zip": "91101",
    "county": "LOS ANGELES",
    "phone": "(747) 322-7759",
    "lat": 34.144731,
    "lng": -118.134693
  },
  {
    "id": "630025470",
    "name": "SOCAL HOME HEALTH SERVICES, INC.",
    "npi": null,
    "hcaiId": null,
    "businessName": "SOCAL HOME HEALTH SERVICES, INC.",
    "contactEmail": "SOCALHHSI@GMAIL.COM",
    "categoryName": "HOME HEALTH AGENCY",
    "categoryCode": "HHA",
    "licenseStatus": "ACTIVE",
    "inService": true,
    "licenseNumber": "550009198",
    "licenseEffectiveDate": "06/17/2025",
    "licenseExpirationDate": "06/16/2026",
    "dataDate": "10/18/2025",
    "capacity": 0,
    "address": "758 E COLORADO BLVD, SUITE 205",
    "city": "PASADENA",
    "zip": "91101",
    "county": "LOS ANGELES",
    "phone": "(818) 452-0425",
    "lat": 34.145568,
    "lng": -118.1347155
  },
  {
    "id": "630014671",
    "name": "ST. ARSENIUS HOSPICE CARE, INC.",
    "npi": "1831524834",
    "hcaiId": "406198335",
    "businessName": "ST. ARSENIUS HOSPICE CARE, INC.",
    "contactEmail": "STARSENIUSHOSPICE@GMAIL.COM",
    "categoryName": "HOSPICE",
    "categoryCode": "HOSPICE",
    "licenseStatus": "ACTIVE",
    "inService": true,
    "licenseNumber": "550002886",
    "licenseEffectiveDate": "10/27/2024",
    "licenseExpirationDate": "10/26/2026",
    "dataDate": "10/18/2025",
    "capacity": 0,
    "address": "424 N LAKE AVE, SUITE 204",
    "city": "PASADENA",
    "zip": "91101",
    "county": "LOS ANGELES",
    "phone": "(626) 795-5705",
    "lat": 34.153317,
    "lng": -118.1319525
  },
  {
    "id": "980001500",
    "name": "UNIQUE HOME HEALTH SERVICES, INC.",
    "npi": "1750476180",
    "hcaiId": "406194653",
    "businessName": "UNIQUE HOME HEALTH SERVICES, INC.",
    "contactEmail": "JDELAWALLA@INTERIMHEALTHCARE.COM",
    "categoryName": "HOME HEALTH AGENCY",
    "categoryCode": "HHA",
    "licenseStatus": "ACTIVE",
    "inService": true,
    "licenseNumber": "980000855",
    "licenseEffectiveDate": "05/07/2025",
    "licenseExpirationDate": "05/06/2026",
    "dataDate": "10/18/2025",
    "capacity": 0,
    "address": "596 N LAKE AVE, SUITE 100",
    "city": "PASADENA",
    "zip": "91101",
    "county": "LOS ANGELES",
    "phone": "(626) 577-7596",
    "lat": 34.156296,
    "lng": -118.132155
  },
  {
    "id": "630024882",
    "name": "VAN DOC HOME CARE",
    "npi": null,
    "hcaiId": "406196887",
    "businessName": "VAN DOC HOME CARE",
    "contactEmail": "MONICA@COREPT.NET",
    "categoryName": "HOME HEALTH AGENCY",
    "categoryCode": "HHA",
    "licenseStatus": "ACTIVE",
    "inService": true,
    "licenseNumber": "550008417",
    "licenseEffectiveDate": "01/25/2025",
    "licenseExpirationDate": "01/24/2026",
    "dataDate": "10/18/2025",
    "capacity": 0,
    "address": "758 E COLORADO BLVD, SUITE 206",
    "city": "PASADENA",
    "zip": "91101",
    "county": "LOS ANGELES",
    "phone": "(714) 298-5496",
    "lat": 34.145568,
    "lng": -118.1347155
  },
  {
    "id": "630025446",
    "name": "VERTEX HOME HEALTH CARE, INC.",
    "npi": null,
    "hcaiId": "406190143",
    "businessName": "VERTEX HOME HEALTH CARE, INC.",
    "contactEmail": "VERTEXHH@YAHOO.COM",
    "categoryName": "HOME HEALTH AGENCY",
    "categoryCode": "HHA",
    "licenseStatus": "ACTIVE",
    "inService": true,
    "licenseNumber": "550008876",
    "licenseEffectiveDate": "12/29/2024",
    "licenseExpirationDate": "12/28/2025",
    "dataDate": "10/18/2025",
    "capacity": 0,
    "address": "758 E COLORADO BLVD, SUITE 202",
    "city": "PASADENA",
    "zip": "91101",
    "county": "LOS ANGELES",
    "phone": "(626) 248-7161",
    "lat": 34.145568,
    "lng": -118.1347155
  },
  {
    "id": "970000178",
    "name": "VILLA GARDENS HEALTH CARE UNIT",
    "npi": "1104902725",
    "hcaiId": "206190515",
    "businessName": "FRONT PORCH COMMUNITIES AND SERVICES",
    "contactEmail": "SRUSHFORTH@FRONTPORCH.NET",
    "categoryName": "SKILLED NURSING FACILITY",
    "categoryCode": "SNF",
    "licenseStatus": "ACTIVE",
    "inService": true,
    "licenseNumber": "970000085",
    "licenseEffectiveDate": "11/30/2024",
    "licenseExpirationDate": "11/29/2025",
    "dataDate": "10/18/2025",
    "capacity": 54,
    "address": "842 E VILLA ST",
    "city": "PASADENA",
    "zip": "91101",
    "county": "LOS ANGELES",
    "phone": "(626) 463-5300",
    "lat": 34.153704,
    "lng": -118.133838
  },
  {
    "id": "980001412",
    "name": "VITAL HOME HEALTH CARE",
    "npi": "1528050846",
    "hcaiId": "406194585",
    "businessName": "VITAL HOME HEALTH CARE",
    "contactEmail": "ELIM@VITALHHC.COM",
    "categoryName": "HOME HEALTH AGENCY",
    "categoryCode": "HHA",
    "licenseStatus": "ACTIVE",
    "inService": true,
    "licenseNumber": "980000803",
    "licenseEffectiveDate": "06/13/2025",
    "licenseExpirationDate": "06/12/2026",
    "dataDate": "10/18/2025",
    "capacity": 0,
    "address": "221 E WALNUT ST, SUITE 248",
    "city": "PASADENA",
    "zip": "91101",
    "county": "LOS ANGELES",
    "phone": "(626) 432-6650",
    "lat": 34.149996,
    "lng": -118.1455515
  }
]