[
  {
    "id": "630015431",
    "name": "COMFORT HOSPICE, INC.",
    "npi": null,
    "hcaiId": "406198186",
    "businessName": "COMFORT HOSPICE, INC.",
    "contactEmail": "INFO@COMFORTHOSPICEINC.COM",
    "categoryName": "HOSPICE",
    "categoryCode": "HOSPICE",
    "licenseStatus": "ACTIVE",
    "inService": true,
    "licenseNumber": "550003350",
    "licenseEffectiveDate": "12/28/2023",
    "licenseExpirationDate": "12/27/2025",
    "dataDate": "10/18/2025",
    "capacity": 0,
    "address": "1635 CHELSEA RD",
    "city": "SAN MARINO",
    "zip": "91108",
    "county": "LOS ANGELES",
    "phone": "(626) 234-2390",
    "lat": 34.111863,
    "lng": -118.125324
  },
  {
    "id": "630021553",
    "name": "PEACEFUL JOURNEY HOSPICE CARE, INC.",
    "npi": null,
    "hcaiId": "406197325",
    "businessName": "PEACEFUL JOURNEY HOSPICE CARE, INC.",
    "contactEmail": "PEACEFULJOURNEYHOSPICE@GMAIL.COM",
    "categoryName": "HOSPICE",
    "categoryCode": "HOSPICE",
    "licenseStatus": "ACTIVE",
    "inService": true,
    "licenseNumber": "550006769",
    "licenseEffectiveDate": "09/02/2023",
    "licenseExpirationDate": "09/01/2025",
    "dataDate": "10/18/2025",
    "capacity": 0,
    "address": "2060 HUNTINGTON DR, SUITE 9B",
    "city": "SAN MARINO",
    "zip": "91108",
    "county": "LOS ANGELES",
    "phone": "(626) 313-3131",
    "lat": 34.12050801,
    "lng": -118.108818
  },
  {
    "id": "630020869",
    "name": "SAN MARINO HOME TRAINING",
    "npi": null,
    "hcaiId": null,
    "businessName": null,
    "contactEmail": "CAL_C@DAVITA.COM",
    "categoryName": "CHRONIC DIALYSIS CLINIC",
    "categoryCode": "ESRD",
    "licenseStatus": null,
    "inService": null,
    "licenseNumber": null,
    "licenseEffectiveDate": null,
    "licenseExpirationDate": null,
    "dataDate": "10/18/2025",
    "capacity": 0,
    "address": "900 HUNTINGTON DR, SUITE B",
    "city": "SAN MARINO",
    "zip": "91108",
    "county": "LOS ANGELES",
    "phone": "(626) 741-1824",
    "lat": 34.111719,
    "lng": -118.126278
  }
]