[
  {
    "id": "630022145",
    "name": "24 CARE HOSPICE",
    "npi": null,
    "hcaiId": null,
    "businessName": "24 CARE HOSPICE",
    "contactEmail": "HOSPICE24CARE@YAHOO.COM",
    "categoryName": "HOSPICE",
    "categoryCode": "HOSPICE",
    "licenseStatus": "ACTIVE",
    "inService": true,
    "licenseNumber": "550007538",
    "licenseEffectiveDate": "12/08/2021",
    "licenseExpirationDate": "12/07/2023",
    "dataDate": "10/18/2025",
    "capacity": 0,
    "address": "1800 BROADVIEW DR, SUITE 261-M",
    "city": "GLENDALE",
    "zip": "91208",
    "county": "LOS ANGELES",
    "phone": "(747) 297-2194",
    "lat": 34.20417046,
    "lng": -118.2276593
  },
  {
    "id": "630025587",
    "name": "A&T HEALTH SERVICES INC",
    "npi": null,
    "hcaiId": "406197557",
    "businessName": "A&T HEALTH SERVICES INC",
    "contactEmail": "ATHEALTHSERVICESINC@GMAIL.COM",
    "categoryName": "HOME HEALTH AGENCY",
    "categoryCode": "HHA",
    "licenseStatus": "ACTIVE",
    "inService": true,
    "licenseNumber": "550008713",
    "licenseEffectiveDate": "08/19/2025",
    "licenseExpirationDate": "08/18/2026",
    "dataDate": "10/18/2025",
    "capacity": 0,
    "address": "1800 BROADVIEW DR, SUITE 270-1",
    "city": "GLENDALE",
    "zip": "91208",
    "county": "LOS ANGELES",
    "phone": "(888) 226-6189",
    "lat": 34.20417046,
    "lng": -118.2276593
  },
  {
    "id": "630020507",
    "name": "ADVANCED GLOBAL HEALTHCARE INC.",
    "npi": null,
    "hcaiId": "406195531",
    "businessName": "ADVANCED GLOBAL HEALTHCARE INC.",
    "contactEmail": "ADVHEALTH2020@GMAIL.COM",
    "categoryName": "HOME HEALTH AGENCY",
    "categoryCode": "HHA",
    "licenseStatus": "ACTIVE",
    "inService": true,
    "licenseNumber": "550006032",
    "licenseEffectiveDate": "02/13/2025",
    "licenseExpirationDate": "02/12/2026",
    "dataDate": "10/18/2025",
    "capacity": 0,
    "address": "1800 BROADVIEW DR, SUITE 250",
    "city": "GLENDALE",
    "zip": "91208",
    "county": "LOS ANGELES",
    "phone": "(818) 839-4360",
    "lat": 34.20417046,
    "lng": -118.2276593
  },
  {
    "id": "630025330",
    "name": "AMICI CARE",
    "npi": null,
    "hcaiId": "406190118",
    "businessName": "AMICI CARE MANAGEMENT, LLC",
    "contactEmail": "AMICICARE@AOL.COM",
    "categoryName": "HOME HEALTH AGENCY",
    "categoryCode": "HHA",
    "licenseStatus": "ACTIVE",
    "inService": true,
    "licenseNumber": "550008589",
    "licenseEffectiveDate": "06/20/2025",
    "licenseExpirationDate": "06/19/2026",
    "dataDate": "10/18/2025",
    "capacity": 0,
    "address": "1545 N VERDUGO RD, SUITE 108",
    "city": "GLENDALE",
    "zip": "91208",
    "county": "LOS ANGELES",
    "phone": "(747) 215-6714",
    "lat": 34.169346,
    "lng": -118.228194
  },
  {
    "id": "630020498",
    "name": "BETTER CHOICE HOSPICE CARE, INC.",
    "npi": null,
    "hcaiId": "406190223",
    "businessName": "BETTER CHOICE HOSPICE CARE, INC",
    "contactEmail": "BETTERCHOICEHOSPICECARE@GMAIL.COM",
    "categoryName": "HOSPICE",
    "categoryCode": "HOSPICE",
    "licenseStatus": "ACTIVE",
    "inService": true,
    "licenseNumber": "550005918",
    "licenseEffectiveDate": "12/16/2024",
    "licenseExpirationDate": "12/15/2026",
    "dataDate": "10/18/2025",
    "capacity": 0,
    "address": "3436 N VERDUGO RD, SUITE 107",
    "city": "GLENDALE",
    "zip": "91208",
    "county": "LOS ANGELES",
    "phone": "(818) 275-3331",
    "lat": 34.200963,
    "lng": -118.2273345
  },
  {
    "id": "630022156",
    "name": "COMFORTZONE HOME HEALTH INC",
    "npi": null,
    "hcaiId": "406193437",
    "businessName": "COMFORTZONE HOME HEALTH INC",
    "contactEmail": "COMFORTZONEHOMEHEALTH@GMAIL.COM",
    "categoryName": "HOME HEALTH AGENCY",
    "categoryCode": "HHA",
    "licenseStatus": "ACTIVE",
    "inService": true,
    "licenseNumber": "550007076",
    "licenseEffectiveDate": "11/01/2025",
    "licenseExpirationDate": "10/31/2026",
    "dataDate": "10/18/2025",
    "capacity": 0,
    "address": "3429 OCEAN VIEW BLVD, SUITE G",
    "city": "GLENDALE",
    "zip": "91208",
    "county": "LOS ANGELES",
    "phone": "(818) 473-9121",
    "lat": 34.201143,
    "lng": -118.2287655
  },
  {
    "id": "630017691",
    "name": "ELLA HOME HEALTH CARE INC",
    "npi": null,
    "hcaiId": "406191676",
    "businessName": "ELLA HOME HEALTH CARE INC",
    "contactEmail": "ELLAHHC2020@GMAIL.COM",
    "categoryName": "HOME HEALTH AGENCY",
    "categoryCode": "HHA",
    "licenseStatus": "ACTIVE",
    "inService": true,
    "licenseNumber": "550004676",
    "licenseEffectiveDate": "05/06/2025",
    "licenseExpirationDate": "05/05/2026",
    "dataDate": "10/18/2025",
    "capacity": 0,
    "address": "1809 VERDUGO BLVD, SUITE 210",
    "city": "GLENDALE",
    "zip": "91208",
    "county": "LOS ANGELES",
    "phone": "(818) 495-7021",
    "lat": 34.205931,
    "lng": -118.215451
  },
  {
    "id": "630024730",
    "name": "EVERLAST HOME HEALTH CARE",
    "npi": null,
    "hcaiId": "406197816",
    "businessName": "EVERLAST HOME HEALTH CARE",
    "contactEmail": "EVERLASTHOMEHEALTH@GMAIL.COM",
    "categoryName": "HOME HEALTH AGENCY",
    "categoryCode": "HHA",
    "licenseStatus": "ACTIVE",
    "inService": true,
    "licenseNumber": "550008408",
    "licenseEffectiveDate": "02/21/2025",
    "licenseExpirationDate": "02/20/2026",
    "dataDate": "10/18/2025",
    "capacity": 0,
    "address": "1545 N VERDUGO RD, UNIT 219",
    "city": "GLENDALE",
    "zip": "91208",
    "county": "LOS ANGELES",
    "phone": "(818) 396-9605",
    "lat": 34.169346,
    "lng": -118.228194
  },
  {
    "id": "930000372",
    "name": "EYE SURGICAL CENTER",
    "npi": "1447285382",
    "hcaiId": null,
    "businessName": null,
    "contactEmail": "NONE@DHS.CA.GOV",
    "categoryName": "SURGICAL CLINIC",
    "categoryCode": "ASC",
    "licenseStatus": null,
    "inService": null,
    "licenseNumber": null,
    "licenseEffectiveDate": null,
    "licenseExpirationDate": null,
    "dataDate": "10/18/2025",
    "capacity": 0,
    "address": "1809 VERDUGO BLVD",
    "city": "GLENDALE",
    "zip": "91208",
    "county": "LOS ANGELES",
    "phone": "(818) 790-8001",
    "lat": 34.20571774,
    "lng": -118.2156344
  },
  {
    "id": "630016697",
    "name": "FIRST HAND HOME HEALTH, INC.",
    "npi": "1770938839",
    "hcaiId": "406190681",
    "businessName": "FIRST HAND HOME HEALTH, INC.",
    "contactEmail": "FIRSTHANDHOMEHEALTHINC@YAHOO.COM",
    "categoryName": "HOME HEALTH AGENCY",
    "categoryCode": "HHA",
    "licenseStatus": "ACTIVE",
    "inService": true,
    "licenseNumber": "550004180",
    "licenseEffectiveDate": "02/27/2025",
    "licenseExpirationDate": "02/26/2026",
    "dataDate": "10/18/2025",
    "capacity": 0,
    "address": "3455 OCEAN VIEW BLVD, SUITE 101A",
    "city": "GLENDALE",
    "zip": "91208",
    "county": "LOS ANGELES",
    "phone": "(818) 330-7775",
    "lat": 34.20198601,
    "lng": -118.228524
  },
  {
    "id": "630024728",
    "name": "GLENDALE HOME INC.",
    "npi": null,
    "hcaiId": "406197819",
    "businessName": "GLENDALE HOME INC.",
    "contactEmail": "GLENDALEHOMEINC@GMAIL.COM",
    "categoryName": "HOME HEALTH AGENCY",
    "categoryCode": "HHA",
    "licenseStatus": "ACTIVE",
    "inService": true,
    "licenseNumber": "550008396",
    "licenseEffectiveDate": "02/21/2025",
    "licenseExpirationDate": "02/20/2026",
    "dataDate": "10/18/2025",
    "capacity": 0,
    "address": "1545 N VERDUGO RD, UNIT 206",
    "city": "GLENDALE",
    "zip": "91208",
    "county": "LOS ANGELES",
    "phone": "(818) 396-9749",
    "lat": 34.169346,
    "lng": -118.228194
  },
  {
    "id": "630021181",
    "name": "GMG HOSPICE AND PALLIATIVE CARE, INC.",
    "npi": null,
    "hcaiId": "406193595",
    "businessName": "GMG HOSPICE AND PALLIATIVE CARE, INC.",
    "contactEmail": "GMGHOSPICE@YAHOO.COM",
    "categoryName": "HOSPICE",
    "categoryCode": "HOSPICE",
    "licenseStatus": "ACTIVE",
    "inService": true,
    "licenseNumber": "550006482",
    "licenseEffectiveDate": "06/25/2023",
    "licenseExpirationDate": "06/24/2025",
    "dataDate": "10/18/2025",
    "capacity": 0,
    "address": "3429 OCEAN VIEW BLVD, SUITE F",
    "city": "GLENDALE",
    "zip": "91208",
    "county": "LOS ANGELES",
    "phone": "(818) 369-7951",
    "lat": 34.201143,
    "lng": -118.2287655
  },
  {
    "id": "630020304",
    "name": "GOOD FELLOWS HOSPICE SERVICES, INC.",
    "npi": null,
    "hcaiId": "406195977",
    "businessName": "GOOD FELLOWS HOSPICE SERVICES, INC.",
    "contactEmail": "GOODFELLOWSHOSPICE@GMAIL.COM",
    "categoryName": "HOSPICE",
    "categoryCode": "HOSPICE",
    "licenseStatus": "ACTIVE",
    "inService": true,
    "licenseNumber": "550006395",
    "licenseEffectiveDate": "05/19/2025",
    "licenseExpirationDate": "05/18/2027",
    "dataDate": "10/18/2025",
    "capacity": 0,
    "address": "1555 N VERDUGO RD, SUITE 202",
    "city": "GLENDALE",
    "zip": "91208",
    "county": "LOS ANGELES",
    "phone": "(818) 484-8722",
    "lat": 34.169805,
    "lng": -118.227915
  },
  {
    "id": "630025501",
    "name": "H2H HOME HEALTH INC",
    "npi": null,
    "hcaiId": "406197561",
    "businessName": "H2H HOME HEALTH INC",
    "contactEmail": "H2HHHINC@GMAIL.COM",
    "categoryName": "HOME HEALTH AGENCY",
    "categoryCode": "HHA",
    "licenseStatus": "ACTIVE",
    "inService": true,
    "licenseNumber": "550008723",
    "licenseEffectiveDate": "07/15/2024",
    "licenseExpirationDate": "07/14/2025",
    "dataDate": "10/18/2025",
    "capacity": 0,
    "address": "1800 BROADVIEW DR, SUITE 260-B",
    "city": "GLENDALE",
    "zip": "91208",
    "county": "LOS ANGELES",
    "phone": "(747) 313-7458",
    "lat": 34.20417046,
    "lng": -118.2276593
  },
  {
    "id": "630024772",
    "name": "HEALING ASSISTANCE HOME HEALTH CARE",
    "npi": null,
    "hcaiId": "406196225",
    "businessName": "HEALING ASSISTANCE HOME HEALTH CARE",
    "contactEmail": "HEALINGASSISTANCEHHC@GMAIL.COM",
    "categoryName": "HOME HEALTH AGENCY",
    "categoryCode": "HHA",
    "licenseStatus": "ACTIVE",
    "inService": true,
    "licenseNumber": "550008405",
    "licenseEffectiveDate": "08/06/2025",
    "licenseExpirationDate": "02/20/2026",
    "dataDate": "10/18/2025",
    "capacity": 0,
    "address": "1545 N VERDUGO RD, UNIT 103",
    "city": "GLENDALE",
    "zip": "91208",
    "county": "LOS ANGELES",
    "phone": "(818) 396-9176",
    "lat": 34.169346,
    "lng": -118.228194
  },
  {
    "id": "630024644",
    "name": "HEALING DAYS HOME HEALTH INC",
    "npi": null,
    "hcaiId": "406197670",
    "businessName": "HEALING DAYS HOME HEALTH INC",
    "contactEmail": "HEALINGDAYSHH@GMAIL.COM",
    "categoryName": "HOME HEALTH AGENCY",
    "categoryCode": "HHA",
    "licenseStatus": "ACTIVE",
    "inService": true,
    "licenseNumber": "550008245",
    "licenseEffectiveDate": "11/17/2024",
    "licenseExpirationDate": "11/16/2025",
    "dataDate": "10/18/2025",
    "capacity": 0,
    "address": "1545 N VERDUGO RD, SUITE 218",
    "city": "GLENDALE",
    "zip": "91208",
    "county": "LOS ANGELES",
    "phone": "(323) 448-3616",
    "lat": 34.169346,
    "lng": -118.228194
  },
  {
    "id": "630024652",
    "name": "HOPE HAVEN HOME HEALTH INC",
    "npi": null,
    "hcaiId": "406190078",
    "businessName": "HOPE HAVEN HOME HEALTH INC",
    "contactEmail": "HOPEHAVENHHINC@GMAIL.COM",
    "categoryName": "HOME HEALTH AGENCY",
    "categoryCode": "HHA",
    "licenseStatus": "ACTIVE",
    "inService": true,
    "licenseNumber": "550008825",
    "licenseEffectiveDate": "11/10/2025",
    "licenseExpirationDate": "11/09/2026",
    "dataDate": "10/18/2025",
    "capacity": 0,
    "address": "1800 BROADVIEW DR, SUITE 261-Q",
    "city": "GLENDALE",
    "zip": "91208",
    "county": "LOS ANGELES",
    "phone": "(747) 297-2696",
    "lat": 34.20417046,
    "lng": -118.2276593
  },
  {
    "id": "630025539",
    "name": "HT HOME HEALTH INC",
    "npi": null,
    "hcaiId": "406197564",
    "businessName": "HT HOME HEALTH INC",
    "contactEmail": "HTHOMEHINC@GMAIL.COM",
    "categoryName": "HOME HEALTH AGENCY",
    "categoryCode": "HHA",
    "licenseStatus": "ACTIVE",
    "inService": true,
    "licenseNumber": "550008725",
    "licenseEffectiveDate": "08/12/2024",
    "licenseExpirationDate": "08/11/2025",
    "dataDate": "10/18/2025",
    "capacity": 0,
    "address": "1800 BROADVIEW DR, SUITE 260-A",
    "city": "GLENDALE",
    "zip": "91208",
    "county": "LOS ANGELES",
    "phone": "(747) 307-5570",
    "lat": 34.20417046,
    "lng": -118.2276593
  },
  {
    "id": "630027211",
    "name": "INM HOME HEALTH INC",
    "npi": null,
    "hcaiId": null,
    "businessName": "INM HOME HEALTH INC",
    "contactEmail": "INMHOMEHEALTH@GMAIL.COM",
    "categoryName": "HOME HEALTH AGENCY",
    "categoryCode": "HHA",
    "licenseStatus": "ACTIVE",
    "inService": true,
    "licenseNumber": "550009507",
    "licenseEffectiveDate": "10/08/2025",
    "licenseExpirationDate": "10/07/2026",
    "dataDate": "10/18/2025",
    "capacity": 0,
    "address": "1545 N VERDUGO RD, SUITE 214",
    "city": "GLENDALE",
    "zip": "91208",
    "county": "LOS ANGELES",
    "phone": "(818) 640-2055",
    "lat": 34.16936499,
    "lng": -118.228223
  },
  {
    "id": "630024618",
    "name": "INTENSE HOME HEALTH INC",
    "npi": null,
    "hcaiId": null,
    "businessName": "INTENSE HOME HEALTH INC",
    "contactEmail": "INTENSEHOMEHEALTH@GMAIL.COM",
    "categoryName": "HOME HEALTH AGENCY",
    "categoryCode": "HHA",
    "licenseStatus": "ACTIVE",
    "inService": true,
    "licenseNumber": "550008305",
    "licenseEffectiveDate": "03/24/2025",
    "licenseExpirationDate": "11/28/2025",
    "dataDate": "10/18/2025",
    "capacity": 0,
    "address": "3786 LA CRESCENTA AVE, SUITE 104",
    "city": "GLENDALE",
    "zip": "91208",
    "county": "LOS ANGELES",
    "phone": "(818) 330-7011",
    "lat": 34.21096676,
    "lng": -118.2396668
  },
  {
    "id": "630015391",
    "name": "KRISTORAF HOME HEALTH, INC.",
    "npi": "1457767444",
    "hcaiId": "406198205",
    "businessName": "KRISTORAF HOME HEALTH, INC.",
    "contactEmail": "KRISTORAFHH@GMAIL.COM",
    "categoryName": "HOME HEALTH AGENCY",
    "categoryCode": "HHA",
    "licenseStatus": "ACTIVE",
    "inService": true,
    "licenseNumber": "550003388",
    "licenseEffectiveDate": "01/05/2025",
    "licenseExpirationDate": "01/04/2026",
    "dataDate": "10/18/2025",
    "capacity": 0,
    "address": "2505 CANADA BLVD, SUITE 4",
    "city": "GLENDALE",
    "zip": "91208",
    "county": "LOS ANGELES",
    "phone": "(818) 945-5211",
    "lat": 34.18319999,
    "lng": -118.229359
  },
  {
    "id": "630024659",
    "name": "LA CANADA HOME INC.",
    "npi": null,
    "hcaiId": "406190248",
    "businessName": "LA CANADA HOME INC.",
    "contactEmail": "LACANADAHHC@GMAIL.COM",
    "categoryName": "HOME HEALTH AGENCY",
    "categoryCode": "HHA",
    "licenseStatus": "ACTIVE",
    "inService": true,
    "licenseNumber": "550008252",
    "licenseEffectiveDate": "04/29/2025",
    "licenseExpirationDate": "12/06/2025",
    "dataDate": "10/18/2025",
    "capacity": 0,
    "address": "1545 N VERDUGO RD, UNIT 200",
    "city": "GLENDALE",
    "zip": "91208",
    "county": "LOS ANGELES",
    "phone": "(818) 722-8181",
    "lat": 34.169346,
    "lng": -118.228194
  },
  {
    "id": "630024684",
    "name": "LA CRESCENTA HOME, INC.",
    "npi": null,
    "hcaiId": "406197780",
    "businessName": "LA CRESCENTA HOME, INC.",
    "contactEmail": "LACRESCENTAHHC@GMAIL.COM",
    "categoryName": "HOME HEALTH AGENCY",
    "categoryCode": "HHA",
    "licenseStatus": "ACTIVE",
    "inService": true,
    "licenseNumber": "550008271",
    "licenseEffectiveDate": "12/07/2024",
    "licenseExpirationDate": "12/06/2025",
    "dataDate": "10/18/2025",
    "capacity": 0,
    "address": "1545 N VERDUGO RD, UNIT 201",
    "city": "GLENDALE",
    "zip": "91208",
    "county": "LOS ANGELES",
    "phone": "(818) 396-9776",
    "lat": 34.169346,
    "lng": -118.228194
  },
  {
    "id": "630022733",
    "name": "LA HEALTH NET",
    "npi": null,
    "hcaiId": "406193817",
    "businessName": "LA HEALTH NET",
    "contactEmail": "LAHEALTHNETS@GMAIL.COM",
    "categoryName": "HOME HEALTH AGENCY",
    "categoryCode": "HHA",
    "licenseStatus": "ACTIVE",
    "inService": true,
    "licenseNumber": "550007691",
    "licenseEffectiveDate": "12/21/2024",
    "licenseExpirationDate": "12/20/2025",
    "dataDate": "10/18/2025",
    "capacity": 0,
    "address": "3527 OCEAN VIEW BLVD, SUITE 103",
    "city": "GLENDALE",
    "zip": "91208",
    "county": "LOS ANGELES",
    "phone": "(657) 229-3656",
    "lat": 34.203663,
    "lng": -118.228428
  },
  {
    "id": "630025511",
    "name": "LUX HEALTH CARE SERVICES INC",
    "npi": null,
    "hcaiId": null,
    "businessName": "LUX HEALTH CARE SERVICES INC",
    "contactEmail": "LUXHCSI@GMAIL.COM",
    "categoryName": "HOME HEALTH AGENCY",
    "categoryCode": "HHA",
    "licenseStatus": "ACTIVE",
    "inService": true,
    "licenseNumber": "550009575",
    "licenseEffectiveDate": "06/06/2025",
    "licenseExpirationDate": "12/05/2025",
    "dataDate": "10/18/2025",
    "capacity": 0,
    "address": "1800 BROADVIEW DR, SUITE 261-R",
    "city": "GLENDALE",
    "zip": "91208",
    "county": "LOS ANGELES",
    "phone": "(747) 297-2450",
    "lat": 34.20417046,
    "lng": -118.2276593
  },
  {
    "id": "630022285",
    "name": "MANNA HOSPICE INC",
    "npi": null,
    "hcaiId": null,
    "businessName": "MANNA HOSPICE INC",
    "contactEmail": "MANNAHOSPICE@GMAIL.COM",
    "categoryName": "HOSPICE",
    "categoryCode": "HOSPICE",
    "licenseStatus": "ACTIVE",
    "inService": true,
    "licenseNumber": "550007570",
    "licenseEffectiveDate": "12/18/2023",
    "licenseExpirationDate": "12/17/2025",
    "dataDate": "10/18/2025",
    "capacity": 0,
    "address": "1800 BROADVIEW DR, SUITE 266",
    "city": "GLENDALE",
    "zip": "91208",
    "county": "LOS ANGELES",
    "phone": "(747) 264-9809",
    "lat": 34.20417046,
    "lng": -118.2276593
  },
  {
    "id": "630020750",
    "name": "MEDICAL ALLIANCE GROUP",
    "npi": null,
    "hcaiId": "406196202",
    "businessName": "MEDICAL ALLIANCE GROUP",
    "contactEmail": "MEDICALALLIANCEGROUPINC@GMAIL.COM",
    "categoryName": "HOSPICE",
    "categoryCode": "HOSPICE",
    "licenseStatus": "ACTIVE",
    "inService": true,
    "licenseNumber": "550006778",
    "licenseEffectiveDate": "08/03/2023",
    "licenseExpirationDate": "08/02/2025",
    "dataDate": "10/18/2025",
    "capacity": 0,
    "address": "1528 CANADA BLVD, SUITE 203",
    "city": "GLENDALE",
    "zip": "91208",
    "county": "LOS ANGELES",
    "phone": "(747) 274-2450",
    "lat": 34.16931,
    "lng": -118.2288285
  },
  {
    "id": "630020763",
    "name": "MEDICAL PLANET CENTER",
    "npi": null,
    "hcaiId": "406193486",
    "businessName": "MEDICAL PLANET CENTER",
    "contactEmail": "MEDICALPLANETCENTER@GMAIL.COM",
    "categoryName": "HOSPICE",
    "categoryCode": "HOSPICE",
    "licenseStatus": "ACTIVE",
    "inService": true,
    "licenseNumber": "550006688",
    "licenseEffectiveDate": "08/23/2023",
    "licenseExpirationDate": "08/22/2025",
    "dataDate": "10/18/2025",
    "capacity": 0,
    "address": "1528 CANADA BLVD, SUITE 204",
    "city": "GLENDALE",
    "zip": "91208",
    "county": "LOS ANGELES",
    "phone": "(818) 664-6993",
    "lat": 34.16931,
    "lng": -118.2288285
  },
  {
    "id": "630020441",
    "name": "MEDLINE PARADISE HOSPICE, INC.",
    "npi": null,
    "hcaiId": "406196238",
    "businessName": "MEDLINE PARADISE HOSPICE, INC.",
    "contactEmail": "MEDLINEPARADISEHOSPICE@GMAIL.COM",
    "categoryName": "HOSPICE",
    "categoryCode": "HOSPICE",
    "licenseStatus": "ACTIVE",
    "inService": true,
    "licenseNumber": "550006180",
    "licenseEffectiveDate": "04/01/2025",
    "licenseExpirationDate": "03/31/2027",
    "dataDate": "10/18/2025",
    "capacity": 0,
    "address": "3429 OCEAN VIEW BLVD, SUITE B",
    "city": "GLENDALE",
    "zip": "91208",
    "county": "LOS ANGELES",
    "phone": "(818) 725-1012",
    "lat": 34.20114099,
    "lng": -118.228624
  },
  {
    "id": "630017586",
    "name": "MEGA HOME HEALTH CARE INC.",
    "npi": null,
    "hcaiId": "406192140",
    "businessName": "MEGA HOME HEALTH CARE INC.",
    "contactEmail": "MEGAHOMEHEALTH@GMAIL.COM",
    "categoryName": "HOME HEALTH AGENCY",
    "categoryCode": "HHA",
    "licenseStatus": "ACTIVE",
    "inService": true,
    "licenseNumber": "550004664",
    "licenseEffectiveDate": "04/15/2025",
    "licenseExpirationDate": "04/14/2026",
    "dataDate": "10/18/2025",
    "capacity": 0,
    "address": "3715 MARKET STREET, SUITE 110",
    "city": "GLENDALE",
    "zip": "91208",
    "county": "LOS ANGELES",
    "phone": "(323) 522-7993",
    "lat": 34.20474856,
    "lng": -118.2268313
  },
  {
    "id": "630024713",
    "name": "MONGLEN HOME CARE",
    "npi": null,
    "hcaiId": null,
    "businessName": "MONGLEN HOME CARE",
    "contactEmail": "MONGLENHOMECARE@GMAIL.COM",
    "categoryName": "HOME HEALTH AGENCY",
    "categoryCode": "HHA",
    "licenseStatus": "ACTIVE",
    "inService": true,
    "licenseNumber": "550008251",
    "licenseEffectiveDate": "12/07/2024",
    "licenseExpirationDate": "12/06/2025",
    "dataDate": "10/18/2025",
    "capacity": 0,
    "address": "1545 N VERDUGO RD, UNIT 105",
    "city": "GLENDALE",
    "zip": "91208",
    "county": "LOS ANGELES",
    "phone": "(818) 396-9321",
    "lat": 34.169346,
    "lng": -118.228194
  },
  {
    "id": "630024687",
    "name": "MONTE VISTA HOME INC.",
    "npi": null,
    "hcaiId": "406190048",
    "businessName": "MONTE VISTA HOME INC.",
    "contactEmail": "MONTEVISTAHHC@GMAIL.COM",
    "categoryName": "HOME HEALTH AGENCY",
    "categoryCode": "HHA",
    "licenseStatus": "ACTIVE",
    "inService": true,
    "licenseNumber": "550008884",
    "licenseEffectiveDate": "10/16/2025",
    "licenseExpirationDate": "10/15/2026",
    "dataDate": "10/18/2025",
    "capacity": 0,
    "address": "1545 N VERDUGO RD, SUITE 216",
    "city": "GLENDALE",
    "zip": "91208",
    "county": "LOS ANGELES",
    "phone": "(818) 396-9232",
    "lat": 34.169346,
    "lng": -118.228194
  },
  {
    "id": "630021018",
    "name": "MONTROSE HOSPICE CARE INC",
    "npi": null,
    "hcaiId": "406193569",
    "businessName": "MONTROSE HOSPICE CARE INC",
    "contactEmail": "SONALISHARMAA44@GMAIL.COM",
    "categoryName": "HOSPICE",
    "categoryCode": "HOSPICE",
    "licenseStatus": "ACTIVE",
    "inService": true,
    "licenseNumber": "550006589",
    "licenseEffectiveDate": "06/25/2025",
    "licenseExpirationDate": "06/24/2027",
    "dataDate": "10/18/2025",
    "capacity": 0,
    "address": "3467 OCEAN VIEW BLVD, SUITE F",
    "city": "GLENDALE",
    "zip": "91208",
    "county": "LOS ANGELES",
    "phone": "(805) 791-6012",
    "lat": 34.20243,
    "lng": -118.2285
  },
  {
    "id": "630024711",
    "name": "MURZIK HOME HEALTH CARE, INC.",
    "npi": null,
    "hcaiId": "406198021",
    "businessName": "MURZIK HOME HEALTH CARE, INC.",
    "contactEmail": "MURZIKHHC@GMAIL.COM",
    "categoryName": "HOME HEALTH AGENCY",
    "categoryCode": "HHA",
    "licenseStatus": "ACTIVE",
    "inService": true,
    "licenseNumber": "550008815",
    "licenseEffectiveDate": "11/08/2024",
    "licenseExpirationDate": "11/07/2025",
    "dataDate": "10/18/2025",
    "capacity": 0,
    "address": "1800 BROADVIEW DR, SUITE 261-O",
    "city": "GLENDALE",
    "zip": "91208",
    "county": "LOS ANGELES",
    "phone": "(747) 286-5295",
    "lat": 34.20417046,
    "lng": -118.2276593
  },
  {
    "id": "630025475",
    "name": "OCEAN VIEW HOME HEALTH",
    "npi": null,
    "hcaiId": "406190303",
    "businessName": "OCEAN VIEW HOME HEALTH",
    "contactEmail": "OCEANVIEWHOMEHEALTH@GMAIL.COM",
    "categoryName": "HOME HEALTH AGENCY",
    "categoryCode": "HHA",
    "licenseStatus": "ACTIVE",
    "inService": true,
    "licenseNumber": "550009022",
    "licenseEffectiveDate": "01/15/2025",
    "licenseExpirationDate": "01/14/2026",
    "dataDate": "10/18/2025",
    "capacity": 0,
    "address": "3527 OCEAN VIEW BLVD, SUITE 102",
    "city": "GLENDALE",
    "zip": "91208",
    "county": "LOS ANGELES",
    "phone": "(747) 302-0977",
    "lat": 34.203663,
    "lng": -118.228428
  },
  {
    "id": "630017922",
    "name": "OXNARD HOME HEALTH CARE, INC.",
    "npi": "1245733005",
    "hcaiId": "406191773",
    "businessName": "OXNARD HOME HEALTH CARE, INC.",
    "contactEmail": "OXNARDHOMECARE@YAHOO.COM",
    "categoryName": "HOME HEALTH AGENCY",
    "categoryCode": "HHA",
    "licenseStatus": "ACTIVE",
    "inService": true,
    "licenseNumber": "550004778",
    "licenseEffectiveDate": "06/26/2025",
    "licenseExpirationDate": "06/25/2026",
    "dataDate": "10/18/2025",
    "capacity": 0,
    "address": "3539 OCEAN VIEW BLVD, SUITE 1",
    "city": "GLENDALE",
    "zip": "91208",
    "county": "LOS ANGELES",
    "phone": "(747) 255-1505",
    "lat": 34.204077,
    "lng": -118.2284055
  },
  {
    "id": "630012714",
    "name": "PANACEA GROUP, INC.",
    "npi": "1669791646",
    "hcaiId": "406197637",
    "businessName": "PANACEA GROUP, INC.",
    "contactEmail": "PANACEAGROUP@AOL.COM",
    "categoryName": "HOME HEALTH AGENCY",
    "categoryCode": "HHA",
    "licenseStatus": "ACTIVE",
    "inService": true,
    "licenseNumber": "550001602",
    "licenseEffectiveDate": "06/06/2025",
    "licenseExpirationDate": "06/05/2026",
    "dataDate": "10/18/2025",
    "capacity": 0,
    "address": "3786 LA CRESCENTA AVE, SUITE 105",
    "city": "GLENDALE",
    "zip": "91208",
    "county": "LOS ANGELES",
    "phone": "(818) 243-0010",
    "lat": 34.210899,
    "lng": -118.239633
  },
  {
    "id": "630020782",
    "name": "PERMANENT HOSPICE, INC.",
    "npi": null,
    "hcaiId": null,
    "businessName": "PERMANENT HOSPICE, INC.",
    "contactEmail": "PERMANENTHOSPICE@GMAIL.COM",
    "categoryName": "HOSPICE",
    "categoryCode": "HOSPICE",
    "licenseStatus": "ACTIVE",
    "inService": true,
    "licenseNumber": "550006439",
    "licenseEffectiveDate": "06/16/2023",
    "licenseExpirationDate": "06/15/2025",
    "dataDate": "10/18/2025",
    "capacity": 0,
    "address": "3715 MARKET ST, SUITE 116",
    "city": "GLENDALE",
    "zip": "91208",
    "county": "LOS ANGELES",
    "phone": "(818) 330-7975",
    "lat": 34.20474856,
    "lng": -118.2268313
  },
  {
    "id": "630026059",
    "name": "REIGN HOME HEALTH CARE, INC.",
    "npi": null,
    "hcaiId": "406190346",
    "businessName": "REIGN HOME HEALTH CARE, INC.",
    "contactEmail": "REIGHHCINC@GMAIL.COM",
    "categoryName": "HOME HEALTH AGENCY",
    "categoryCode": "HHA",
    "licenseStatus": "ACTIVE",
    "inService": true,
    "licenseNumber": "550009107",
    "licenseEffectiveDate": "05/03/2025",
    "licenseExpirationDate": "05/02/2026",
    "dataDate": "10/18/2025",
    "capacity": 0,
    "address": "1528 CANADA BLVD, SUITE 205",
    "city": "GLENDALE",
    "zip": "91208",
    "county": "LOS ANGELES",
    "phone": "(323) 395-1177",
    "lat": 34.16931,
    "lng": -118.2288285
  },
  {
    "id": "630014675",
    "name": "REVIVE HOSPICE CARE GROUP, INC.",
    "npi": "1700216694",
    "hcaiId": "406198364",
    "businessName": "REVIVE HOSPICE CARE GROUP, INC.",
    "contactEmail": "REVIVEHOSPICE@GMAIL.COM",
    "categoryName": "HOSPICE",
    "categoryCode": "HOSPICE",
    "licenseStatus": "ACTIVE",
    "inService": true,
    "licenseNumber": "550002885",
    "licenseEffectiveDate": "10/24/2024",
    "licenseExpirationDate": "10/23/2026",
    "dataDate": "10/18/2025",
    "capacity": 0,
    "address": "3430 OCEAN VIEW BLVD, UNIT F",
    "city": "GLENDALE",
    "zip": "91208",
    "county": "LOS ANGELES",
    "phone": "(818) 909-3444",
    "lat": 34.201296,
    "lng": -118.2280365
  },
  {
    "id": "630025430",
    "name": "SAFE HEALTH CARE INC",
    "npi": null,
    "hcaiId": null,
    "businessName": "SAFE HEALTH CARE INC",
    "contactEmail": "SAFEHCI22@GMAIL.COM",
    "categoryName": "HOME HEALTH AGENCY",
    "categoryCode": "HHA",
    "licenseStatus": "ACTIVE",
    "inService": true,
    "licenseNumber": "550009581",
    "licenseEffectiveDate": "06/07/2025",
    "licenseExpirationDate": "12/06/2025",
    "dataDate": "10/18/2025",
    "capacity": 0,
    "address": "1800 BROADVIEW DR, SUITE 261-P",
    "city": "GLENDALE",
    "zip": "91208",
    "county": "LOS ANGELES",
    "phone": "(747) 297-2701",
    "lat": 34.20417046,
    "lng": -118.2276593
  },
  {
    "id": "630024718",
    "name": "SHAHEN HEALTH SERVICES, INC.",
    "npi": null,
    "hcaiId": "406190305",
    "businessName": "SHAHEN HEALTH SERVICES, INC.",
    "contactEmail": "SHAHENHSINC@GMAIL.COM",
    "categoryName": "HOME HEALTH AGENCY",
    "categoryCode": "HHA",
    "licenseStatus": "ACTIVE",
    "inService": true,
    "licenseNumber": "550009038",
    "licenseEffectiveDate": "03/08/2025",
    "licenseExpirationDate": "03/07/2026",
    "dataDate": "10/18/2025",
    "capacity": 0,
    "address": "1800 BROADVIEW DR, SUITE 262-C",
    "city": "GLENDALE",
    "zip": "91208",
    "county": "LOS ANGELES",
    "phone": "(747) 316-2247",
    "lat": 34.20417046,
    "lng": -118.2276593
  },
  {
    "id": "630024705",
    "name": "SOLICITUDE HOME, INC.,",
    "npi": null,
    "hcaiId": "406190049",
    "businessName": "SOLICITUDE HOME, INC.",
    "contactEmail": "SOLICITUDEHHC@GMAIL.COM",
    "categoryName": "HOME HEALTH AGENCY",
    "categoryCode": "HHA",
    "licenseStatus": "ACTIVE",
    "inService": true,
    "licenseNumber": "550008885",
    "licenseEffectiveDate": "04/16/2024",
    "licenseExpirationDate": "10/15/2024",
    "dataDate": "10/18/2025",
    "capacity": 0,
    "address": "1545 N VERDUGO RD, UNIT 208",
    "city": "GLENDALE",
    "zip": "91208",
    "county": "LOS ANGELES",
    "phone": "(818) 396-9715",
    "lat": 34.169346,
    "lng": -118.228194
  },
  {
    "id": "630024775",
    "name": "SOLUTIONS HOME HEALTH CARE",
    "npi": null,
    "hcaiId": "406197781",
    "businessName": "SOLUTIONS HOME HEALTH CARE",
    "contactEmail": "SOLUTIONSHOMEH@GMAIL.COM",
    "categoryName": "HOME HEALTH AGENCY",
    "categoryCode": "HHA",
    "licenseStatus": "ACTIVE",
    "inService": true,
    "licenseNumber": "550008317",
    "licenseEffectiveDate": "12/07/2024",
    "licenseExpirationDate": "12/06/2025",
    "dataDate": "10/18/2025",
    "capacity": 0,
    "address": "1545 N VERDUGO RD, UNIT 223",
    "city": "GLENDALE",
    "zip": "91208",
    "county": "LOS ANGELES",
    "phone": "(818) 200-8387",
    "lat": 34.169346,
    "lng": -118.228194
  },
  {
    "id": "630025768",
    "name": "ST DAVID HOME HEALTH INC",
    "npi": null,
    "hcaiId": null,
    "businessName": "ST DAVID HOME HEALTH INC",
    "contactEmail": "STDAVIDHOMEHEALTH@GMAIL.COM",
    "categoryName": "HOME HEALTH AGENCY",
    "categoryCode": "HHA",
    "licenseStatus": "ACTIVE",
    "inService": true,
    "licenseNumber": "550009014",
    "licenseEffectiveDate": "03/10/2025",
    "licenseExpirationDate": "03/09/2026",
    "dataDate": "10/18/2025",
    "capacity": 0,
    "address": "1800 BROADVIEW DR, SUITE 262",
    "city": "GLENDALE",
    "zip": "91208",
    "county": "LOS ANGELES",
    "phone": "(747) 264-9470",
    "lat": 34.20417046,
    "lng": -118.2276593
  },
  {
    "id": "630017689",
    "name": "ST. MARY HOME HEALTH CARE, INC.",
    "npi": "1922511153",
    "hcaiId": "406191880",
    "businessName": "ST. MARY HOME HEALTH CARE, INC.",
    "contactEmail": "STMARYHH18@GMAIL.COM",
    "categoryName": "HOME HEALTH AGENCY",
    "categoryCode": "HHA",
    "licenseStatus": "ACTIVE",
    "inService": true,
    "licenseNumber": "550004576",
    "licenseEffectiveDate": "08/14/2025",
    "licenseExpirationDate": "03/01/2026",
    "dataDate": "10/18/2025",
    "capacity": 0,
    "address": "3460 OCEAN VIEW BLVD, SUITE C",
    "city": "GLENDALE",
    "zip": "91208",
    "county": "LOS ANGELES",
    "phone": "(747) 204-5143",
    "lat": 34.202178,
    "lng": -118.2279285
  },
  {
    "id": "630020373",
    "name": "SUNRISE HOSPICE INC",
    "npi": null,
    "hcaiId": "406193779",
    "businessName": "SUNRISE HOSPICE INC",
    "contactEmail": "SUNRISEHINC@GMAIL.COM",
    "categoryName": "HOSPICE",
    "categoryCode": "HOSPICE",
    "licenseStatus": "ACTIVE",
    "inService": true,
    "licenseNumber": "550006675",
    "licenseEffectiveDate": "07/31/2025",
    "licenseExpirationDate": "07/30/2027",
    "dataDate": "10/18/2025",
    "capacity": 0,
    "address": "1545 N VERDUGO RD, SUITE 210",
    "city": "GLENDALE",
    "zip": "91208",
    "county": "LOS ANGELES",
    "phone": "(951) 444-8440",
    "lat": 34.169346,
    "lng": -118.228194
  },
  {
    "id": "630023908",
    "name": "SUPPORTING HANDS HOME HEALTH CARE, INC.",
    "npi": null,
    "hcaiId": "406195273",
    "businessName": "SUPPORTING HANDS HOME HEALTH CARE, INC.",
    "contactEmail": "SHANDSHOMEHEALTH@YAHOO.COM",
    "categoryName": "HOME HEALTH AGENCY",
    "categoryCode": "HHA",
    "licenseStatus": "ACTIVE",
    "inService": true,
    "licenseNumber": "550008034",
    "licenseEffectiveDate": "06/21/2025",
    "licenseExpirationDate": "06/20/2026",
    "dataDate": "10/18/2025",
    "capacity": 0,
    "address": "3455 OCEAN VIEW BLVD, SUITE 101",
    "city": "GLENDALE",
    "zip": "91208",
    "county": "LOS ANGELES",
    "phone": "(747) 283-1727",
    "lat": 34.20198601,
    "lng": -118.228524
  },
  {
    "id": "630018632",
    "name": "TELFAIR HOME HEALTH CARE",
    "npi": "1528524691",
    "hcaiId": "406191984",
    "businessName": "TELFAIR HOME HEALTH CARE",
    "contactEmail": "INFO@TELFAIR.CARE",
    "categoryName": "HOME HEALTH AGENCY",
    "categoryCode": "HHA",
    "licenseStatus": "ACTIVE",
    "inService": true,
    "licenseNumber": "550004987",
    "licenseEffectiveDate": "10/12/2024",
    "licenseExpirationDate": "10/11/2025",
    "dataDate": "10/18/2025",
    "capacity": 0,
    "address": "1545 N VERDUGO RD, SUITE 101B",
    "city": "GLENDALE",
    "zip": "91208",
    "county": "LOS ANGELES",
    "phone": "(818) 937-9160",
    "lat": 34.169346,
    "lng": -118.228194
  },
  {
    "id": "630018719",
    "name": "TRIPLET HOME HEALTH, INC",
    "npi": null,
    "hcaiId": "406192127",
    "businessName": "TRIPLET HOME HEALTH, INC",
    "contactEmail": "HHITRIPLET@GMAIL.COM",
    "categoryName": "HOME HEALTH AGENCY",
    "categoryCode": "HHA",
    "licenseStatus": "ACTIVE",
    "inService": true,
    "licenseNumber": "550005128",
    "licenseEffectiveDate": "12/11/2025",
    "licenseExpirationDate": "12/10/2026",
    "dataDate": "10/18/2025",
    "capacity": 0,
    "address": "1800 BROADVIEW DR, SUITE 270-1",
    "city": "GLENDALE",
    "zip": "91208",
    "county": "LOS ANGELES",
    "phone": "(747) 255-7100",
    "lat": 34.203915,
    "lng": -118.227483
  },
  {
    "id": "630012400",
    "name": "U.S. RENAL CARE VERDUGO HILLS DIALYSIS",
    "npi": "1558608380",
    "hcaiId": "306197401",
    "businessName": "INNOVATIVE DIALYSIS CENTER OF VERDUGO HILLS, LLC",
    "contactEmail": "LICENSING@USRENALCARE.COM",
    "categoryName": "CHRONIC DIALYSIS CLINIC",
    "categoryCode": "ESRD/CDC",
    "licenseStatus": "ACTIVE",
    "inService": true,
    "licenseNumber": "550001282",
    "licenseEffectiveDate": "04/23/2025",
    "licenseExpirationDate": "04/22/2026",
    "dataDate": "10/18/2025",
    "capacity": 26,
    "address": "1808 VERDUGO BLVD, SUITE 200",
    "city": "GLENDALE",
    "zip": "91208",
    "county": "LOS ANGELES",
    "phone": "(818) 790-0712",
    "lat": 34.205013,
    "lng": -118.215414
  },
  {
    "id": "930000187",
    "name": "USC VERDUGO HILLS HOSPITAL",
    "npi": "1487251401",
    "hcaiId": "106190818",
    "businessName": "USC VERDUGO HILLS HOSPITAL",
    "contactEmail": "KECKLICENSING@MED.USC.EDU",
    "categoryName": "GENERAL ACUTE CARE HOSPITAL",
    "categoryCode": "GACH",
    "licenseStatus": "ACTIVE",
    "inService": true,
    "licenseNumber": "930000173",
    "licenseEffectiveDate": "05/29/2025",
    "licenseExpirationDate": "05/28/2026",
    "dataDate": "10/18/2025",
    "capacity": 116,
    "address": "1812 VERDUGO BLVD",
    "city": "GLENDALE",
    "zip": "91208",
    "county": "LOS ANGELES",
    "phone": "(818) 952-2210",
    "lat": 34.205526,
    "lng": -118.2168
  },
  {
    "id": "630012278",
    "name": "VALLEY HOME HEALTH CARE, INC.",
    "npi": "1457582157",
    "hcaiId": "406197432",
    "businessName": "VALLEY HOME HEALTH CARE, INC.",
    "contactEmail": "VALLEYHOMEHEALTH@YMAIL.COM",
    "categoryName": "HOME HEALTH AGENCY",
    "categoryCode": "HHA",
    "licenseStatus": "ACTIVE",
    "inService": true,
    "licenseNumber": "550001384",
    "licenseEffectiveDate": "01/14/2025",
    "licenseExpirationDate": "01/13/2026",
    "dataDate": "10/18/2025",
    "capacity": 0,
    "address": "1545 N VERDUGO RD, SUITE 207",
    "city": "GLENDALE",
    "zip": "91208",
    "county": "LOS ANGELES",
    "phone": "(818) 409-0918",
    "lat": 34.169346,
    "lng": -118.228194
  },
  {
    "id": "930001555",
    "name": "VERDUGO HILLS HOSPITAL D/P APH",
    "npi": "1487251401",
    "hcaiId": null,
    "businessName": "USC VERDUGO HILLS HOSPITAL",
    "contactEmail": null,
    "categoryName": "ACUTE PSYCHIATRIC HOSPITAL",
    "categoryCode": "APH",
    "licenseStatus": "ACTIVE",
    "inService": true,
    "licenseNumber": "930000173",
    "licenseEffectiveDate": "05/29/2025",
    "licenseExpirationDate": "05/28/2026",
    "dataDate": "10/18/2025",
    "capacity": 24,
    "address": "1812 VERDUGO BLVD",
    "city": "GLENDALE",
    "zip": "91208",
    "county": "LOS ANGELES",
    "phone": "(818) 790-7100",
    "lat": 34.205526,
    "lng": -118.2168
  }
]