[
  {
    "id": "630021835",
    "name": "A TOUCH OF ANGEL HOSPICE INC",
    "npi": null,
    "hcaiId": "406193862",
    "businessName": "A TOUCH OF ANGEL HOSPICE INC",
    "contactEmail": "ATOUCHOFANGLEHOSPICEINC@GMAIL.COM",
    "categoryName": "HOSPICE",
    "categoryCode": "HOSPICE",
    "licenseStatus": "ACTIVE",
    "inService": true,
    "licenseNumber": "550007302",
    "licenseEffectiveDate": "10/02/2024",
    "licenseExpirationDate": "11/28/2025",
    "dataDate": "10/18/2025",
    "capacity": 0,
    "address": "664 W BROADWAY, SUITE I",
    "city": "GLENDALE",
    "zip": "91204",
    "county": "LOS ANGELES",
    "phone": "(747) 877-2037",
    "lat": 34.14659601,
    "lng": -118.269937
  },
  {
    "id": "630018608",
    "name": "A&K HOME HEALTH, INC.",
    "npi": "1154885671",
    "hcaiId": "406192131",
    "businessName": "A&K HOME HEALTH, INC.",
    "contactEmail": "AKHOMEHEALTHS@GMAIL.COM",
    "categoryName": "HOME HEALTH AGENCY",
    "categoryCode": "HHA",
    "licenseStatus": "ACTIVE",
    "inService": true,
    "licenseNumber": "550005131",
    "licenseEffectiveDate": "11/08/2025",
    "licenseExpirationDate": "11/07/2026",
    "dataDate": "10/18/2025",
    "capacity": 0,
    "address": "225 W BROADWAY, SUITE 115",
    "city": "GLENDALE",
    "zip": "91204",
    "county": "LOS ANGELES",
    "phone": "(818) 696-9010",
    "lat": 34.147116,
    "lng": -118.2571065
  },
  {
    "id": "630025604",
    "name": "AAY HOME HEALTH INC",
    "npi": null,
    "hcaiId": "406190045",
    "businessName": "AAY HOME HEALTH INC",
    "contactEmail": "AAYHOMEHEALTH@GMAIL.COM",
    "categoryName": "HOME HEALTH AGENCY",
    "categoryCode": "HHA",
    "licenseStatus": "ACTIVE",
    "inService": true,
    "licenseNumber": "550008671",
    "licenseEffectiveDate": "10/14/2025",
    "licenseExpirationDate": "07/14/2026",
    "dataDate": "10/18/2025",
    "capacity": 0,
    "address": "127 S BRAND BLVD, SUITE 327",
    "city": "GLENDALE",
    "zip": "91204",
    "county": "LOS ANGELES",
    "phone": "(747) 247-7117",
    "lat": 34.145289,
    "lng": -118.2554685
  },
  {
    "id": "630025226",
    "name": "ADONAI HOME HEALTH CARE INC",
    "npi": null,
    "hcaiId": "406196500",
    "businessName": "ADONAI HOME HEALTH CARE INC",
    "contactEmail": "ADONAIHHEALTHCARE@GMAIL.COM",
    "categoryName": "HOME HEALTH AGENCY",
    "categoryCode": "HHA",
    "licenseStatus": "ACTIVE",
    "inService": true,
    "licenseNumber": "550008508",
    "licenseEffectiveDate": "07/30/2025",
    "licenseExpirationDate": "05/04/2026",
    "dataDate": "10/18/2025",
    "capacity": 0,
    "address": "356 WEST COLORADO STREET, SUITE A",
    "city": "GLENDALE",
    "zip": "91204",
    "county": "LOS ANGELES",
    "phone": "(818) 480-6526",
    "lat": 34.14225423,
    "lng": -118.260417
  },
  {
    "id": "630013349",
    "name": "ADULT CARE HOME HEALTH AGENCY, INC.",
    "npi": "1437430790",
    "hcaiId": "406197733",
    "businessName": "ADULT CARE HOME HEALTH AGENCY, INC.",
    "contactEmail": "ADULTCAREHHA@GMAIL.COM",
    "categoryName": "HOME HEALTH AGENCY",
    "categoryCode": "HHA",
    "licenseStatus": "ACTIVE",
    "inService": true,
    "licenseNumber": "550002001",
    "licenseEffectiveDate": "06/01/2025",
    "licenseExpirationDate": "05/31/2026",
    "dataDate": "10/18/2025",
    "capacity": 0,
    "address": "1007 S. CENTRAL AVE., SUITE 103",
    "city": "GLENDALE",
    "zip": "91204",
    "county": "LOS ANGELES",
    "phone": "(213) 999-8752",
    "lat": 34.134471,
    "lng": -118.258227
  },
  {
    "id": "630012479",
    "name": "AID HOME HEALTH CARE, INC",
    "npi": "1013198506",
    "hcaiId": "406197414",
    "businessName": "AID HOME HEALTH CARE, INC.",
    "contactEmail": "AIDHHC@YAHOO.COM",
    "categoryName": "HOME HEALTH AGENCY",
    "categoryCode": "HHA",
    "licenseStatus": "ACTIVE",
    "inService": true,
    "licenseNumber": "550001323",
    "licenseEffectiveDate": "05/20/2024",
    "licenseExpirationDate": "05/19/2025",
    "dataDate": "10/18/2025",
    "capacity": 0,
    "address": "1007 S CENTRAL AVE, SUITE 208",
    "city": "GLENDALE",
    "zip": "91204",
    "county": "LOS ANGELES",
    "phone": "(818) 242-4979",
    "lat": 34.134471,
    "lng": -118.258227
  },
  {
    "id": "630018065",
    "name": "AIRMID HOME HEALTH CARE, INC.",
    "npi": "1568951903",
    "hcaiId": "406191681",
    "businessName": "AIRMID HOME HEALTH CARE, INC.",
    "contactEmail": "AIRMIDHHC@GMAIL.COM",
    "categoryName": "HOME HEALTH AGENCY",
    "categoryCode": "HHA",
    "licenseStatus": "ACTIVE",
    "inService": true,
    "licenseNumber": "550004719",
    "licenseEffectiveDate": "05/18/2025",
    "licenseExpirationDate": "05/17/2026",
    "dataDate": "10/18/2025",
    "capacity": 0,
    "address": "412 W BROADWAY, UNIT 208",
    "city": "GLENDALE",
    "zip": "91204",
    "county": "LOS ANGELES",
    "phone": "(818) 696-2800",
    "lat": 34.146522,
    "lng": -118.2615525
  },
  {
    "id": "630021488",
    "name": "AJD HOSPICE, INC.",
    "npi": null,
    "hcaiId": "406193708",
    "businessName": "AJD HOSPICE, INC.",
    "contactEmail": "AJDHOSPICE@GMAIL.COM",
    "categoryName": "HOSPICE",
    "categoryCode": "HOSPICE",
    "licenseStatus": "ACTIVE",
    "inService": true,
    "licenseNumber": "550006672",
    "licenseEffectiveDate": "08/12/2025",
    "licenseExpirationDate": "08/11/2027",
    "dataDate": "10/18/2025",
    "capacity": 0,
    "address": "600 W BROADWAY, SUITE 360",
    "city": "GLENDALE",
    "zip": "91204",
    "county": "LOS ANGELES",
    "phone": "(747) 239-3155",
    "lat": 34.14653801,
    "lng": -118.266651
  },
  {
    "id": "630015924",
    "name": "ALL FOR HEALTH, HEALTH FOR ALL, INC.",
    "npi": "1073907689",
    "hcaiId": "306198067",
    "businessName": "ALL FOR HEALTH, HEALTH FOR ALL, INC.",
    "contactEmail": "HISRAELIAN@ALL4HEALTH.ORG",
    "categoryName": "PRIMARY CARE CLINIC",
    "categoryCode": "COMTYC",
    "licenseStatus": "ACTIVE",
    "inService": true,
    "licenseNumber": "550003081",
    "licenseEffectiveDate": "05/20/2025",
    "licenseExpirationDate": "05/19/2026",
    "dataDate": "10/18/2025",
    "capacity": 0,
    "address": "800 S. CENTRAL AVENUE, SUITE 308",
    "city": "GLENDALE",
    "zip": "91204",
    "county": "LOS ANGELES",
    "phone": "(818) 549-8800",
    "lat": 34.136379,
    "lng": -118.257507
  },
  {
    "id": "630017908",
    "name": "ALL FOR HEALTH, HEALTH FOR ALL, INC.",
    "npi": null,
    "hcaiId": null,
    "businessName": "ALL FOR HEALTH, HEALTH FOR ALL, INC.",
    "contactEmail": "HISRAELIAN@ALL4HEALTH.ORG",
    "categoryName": "PRIMARY CARE CLINIC",
    "categoryCode": "COMTYC",
    "licenseStatus": "ACTIVE",
    "inService": true,
    "licenseNumber": "550003081",
    "licenseEffectiveDate": "05/20/2025",
    "licenseExpirationDate": "05/19/2026",
    "dataDate": "10/18/2025",
    "capacity": 0,
    "address": "710 S CENTRAL AVE, SUITE 350",
    "city": "GLENDALE",
    "zip": "91204",
    "county": "LOS ANGELES",
    "phone": "(818) 549-8800",
    "lat": 34.137189,
    "lng": -118.2572325
  },
  {
    "id": "630028352",
    "name": "ALL FOR HEALTH, HEALTH FOR ALL, INC.",
    "npi": null,
    "hcaiId": null,
    "businessName": "ALL FOR HEALTH, HEALTH FOR ALL, INC.",
    "contactEmail": "CECILIA.MURILLO@FACKTORHEALTH.COM",
    "categoryName": "PRIMARY CARE CLINIC",
    "categoryCode": "COMTYC",
    "licenseStatus": "ACTIVE",
    "inService": true,
    "licenseNumber": "550009910",
    "licenseEffectiveDate": "08/11/2025",
    "licenseExpirationDate": "08/10/2026",
    "dataDate": "10/18/2025",
    "capacity": 0,
    "address": "1300 S CENTRAL AVE",
    "city": "GLENDALE",
    "zip": "91204",
    "county": "LOS ANGELES",
    "phone": "(415) 309-9991",
    "lat": 34.12964399,
    "lng": -118.257479
  },
  {
    "id": "630020897",
    "name": "ALL GENTLE HOSPICE, INC.",
    "npi": null,
    "hcaiId": "406193753",
    "businessName": "ALL GENTLE HOSPICE, INC.",
    "contactEmail": "ALLGENTLEHOSPICEINC1@GMAIL.COM",
    "categoryName": "HOSPICE",
    "categoryCode": "HOSPICE",
    "licenseStatus": "ACTIVE",
    "inService": true,
    "licenseNumber": "550006512",
    "licenseEffectiveDate": "07/02/2025",
    "licenseExpirationDate": "07/01/2027",
    "dataDate": "10/18/2025",
    "capacity": 0,
    "address": "726 W BROADWAY, UNIT J",
    "city": "GLENDALE",
    "zip": "91204",
    "county": "LOS ANGELES",
    "phone": "(626) 380-2800",
    "lat": 34.14646601,
    "lng": -118.270892
  },
  {
    "id": "630021969",
    "name": "ALL SEASON HOME HEALTH, INC",
    "npi": null,
    "hcaiId": "406193174",
    "businessName": "ALL SEASON HOME HEALTH, INC",
    "contactEmail": "ALLSEASONHOMEHEALTH@GMAIL.COM",
    "categoryName": "HOME HEALTH AGENCY",
    "categoryCode": "HHA",
    "licenseStatus": "ACTIVE",
    "inService": true,
    "licenseNumber": "550007030",
    "licenseEffectiveDate": "10/21/2025",
    "licenseExpirationDate": "10/20/2026",
    "dataDate": "10/18/2025",
    "capacity": 0,
    "address": "436 W COLORADO ST, SUITE 225",
    "city": "GLENDALE",
    "zip": "91204",
    "county": "LOS ANGELES",
    "phone": "(818) 649-1149",
    "lat": 34.14230699,
    "lng": -118.262472
  },
  {
    "id": "630011604",
    "name": "AMERICAN CARE HOME HEALTH, INC.",
    "npi": "1467640417",
    "hcaiId": "406197236",
    "businessName": "AMERICAN CARE HOME HEALTH, INC.",
    "contactEmail": "AMERICANCAREHHI@YAHOO.COM",
    "categoryName": "HOME HEALTH AGENCY",
    "categoryCode": "HHA",
    "licenseStatus": "ACTIVE",
    "inService": true,
    "licenseNumber": "550001012",
    "licenseEffectiveDate": "04/01/2025",
    "licenseExpirationDate": "03/31/2026",
    "dataDate": "10/18/2025",
    "capacity": 0,
    "address": "434 W COLORADO ST, SUITE 100",
    "city": "GLENDALE",
    "zip": "91204",
    "county": "LOS ANGELES",
    "phone": "(818) 551-5571",
    "lat": 34.142238,
    "lng": -118.2624705
  },
  {
    "id": "630020564",
    "name": "ANGEL'S CARING HANDS HOSPICE CARE",
    "npi": null,
    "hcaiId": "406193304",
    "businessName": "ANGEL'S CARING HANDS HOSPICE CARE",
    "contactEmail": "RUZAN_VAHE@YAHOO.COM",
    "categoryName": "HOSPICE",
    "categoryCode": "HOSPICE",
    "licenseStatus": "ACTIVE",
    "inService": true,
    "licenseNumber": "550007178",
    "licenseEffectiveDate": "06/30/2025",
    "licenseExpirationDate": "11/01/2025",
    "dataDate": "10/18/2025",
    "capacity": 0,
    "address": "600 W BROADWAY, SUITE 240",
    "city": "GLENDALE",
    "zip": "91204",
    "county": "LOS ANGELES",
    "phone": "(818) 813-4101",
    "lat": 34.14653801,
    "lng": -118.266651
  },
  {
    "id": "630028045",
    "name": "ARGANIA HOME HEALTH INC",
    "npi": null,
    "hcaiId": null,
    "businessName": "ARGANIA HOME HEALTH INC",
    "contactEmail": "ARGANIAHH65@GMAIL.COM",
    "categoryName": "HOME HEALTH AGENCY",
    "categoryCode": "HHA",
    "licenseStatus": "ACTIVE",
    "inService": true,
    "licenseNumber": "550009987",
    "licenseEffectiveDate": "10/10/2025",
    "licenseExpirationDate": "04/09/2026",
    "dataDate": "10/18/2025",
    "capacity": 0,
    "address": "127 S BRAND BLVD, SUITE 235B",
    "city": "GLENDALE",
    "zip": "91204",
    "county": "LOS ANGELES",
    "phone": "(818) 698-3124",
    "lat": 34.14528801,
    "lng": -118.255464
  },
  {
    "id": "630019183",
    "name": "ARTEMIS HOME HEALTH INC.",
    "npi": "1811549439",
    "hcaiId": "406192514",
    "businessName": "ARTEMIS HOME HEALTH, INC.",
    "contactEmail": "ARTEMISHOMEHEALTH@YAHOO.COM",
    "categoryName": "HOME HEALTH AGENCY",
    "categoryCode": "HHA",
    "licenseStatus": "ACTIVE",
    "inService": true,
    "licenseNumber": "550005465",
    "licenseEffectiveDate": "05/15/2025",
    "licenseExpirationDate": "05/14/2026",
    "dataDate": "10/18/2025",
    "capacity": 0,
    "address": "600 W BROADWAY, SUITE 225",
    "city": "GLENDALE",
    "zip": "91204",
    "county": "LOS ANGELES",
    "phone": "(818) 390-7734",
    "lat": 34.146513,
    "lng": -118.2666555
  },
  {
    "id": "630020179",
    "name": "ASSISTING HANDS HEALTH CARE",
    "npi": null,
    "hcaiId": "406193033",
    "businessName": "ASSISTING HANDS HEALTH CARE",
    "contactEmail": "ASSISTINGHANDSHC15@GMAIL.COM",
    "categoryName": "HOME HEALTH AGENCY",
    "categoryCode": "HHA",
    "licenseStatus": "ACTIVE",
    "inService": true,
    "licenseNumber": "550005774",
    "licenseEffectiveDate": "10/01/2025",
    "licenseExpirationDate": "09/30/2026",
    "dataDate": "10/18/2025",
    "capacity": 0,
    "address": "436 W COLORADO ST, SUITE 208",
    "city": "GLENDALE",
    "zip": "91204",
    "county": "LOS ANGELES",
    "phone": "(818) 245-6657",
    "lat": 34.142238,
    "lng": -118.2624705
  },
  {
    "id": "630022416",
    "name": "ATIVA HOME HEALTH CARE INC.",
    "npi": null,
    "hcaiId": "406195834",
    "businessName": "ATIVA HOME HEALTH CARE INC.",
    "contactEmail": "ATIVAHHC@GMAIL.COM",
    "categoryName": "HOME HEALTH AGENCY",
    "categoryCode": "HHA",
    "licenseStatus": "ACTIVE",
    "inService": true,
    "licenseNumber": "550007957",
    "licenseEffectiveDate": "10/29/2022",
    "licenseExpirationDate": "04/28/2023",
    "dataDate": "10/18/2025",
    "capacity": 0,
    "address": "127 S BRAND BLVD, SUITE 117",
    "city": "GLENDALE",
    "zip": "91204",
    "county": "LOS ANGELES",
    "phone": "(818) 435-3808",
    "lat": 34.145271,
    "lng": -118.2554505
  },
  {
    "id": "630018511",
    "name": "AURORA HOME CARE, INC.",
    "npi": "1114497989",
    "hcaiId": "406192237",
    "businessName": "AURORA HOME CARE, INC",
    "contactEmail": "AURORAHOMECARE@YAHOO.COM",
    "categoryName": "HOME HEALTH AGENCY",
    "categoryCode": "HHA",
    "licenseStatus": "ACTIVE",
    "inService": true,
    "licenseNumber": "550004822",
    "licenseEffectiveDate": "07/29/2025",
    "licenseExpirationDate": "07/28/2026",
    "dataDate": "10/18/2025",
    "capacity": 0,
    "address": "730 S CENTRAL AVE, SUITE 215",
    "city": "GLENDALE",
    "zip": "91204",
    "county": "LOS ANGELES",
    "phone": "(818) 696-2066",
    "lat": 34.137189,
    "lng": -118.2572325
  },
  {
    "id": "630024603",
    "name": "BEST CARE HH",
    "npi": null,
    "hcaiId": null,
    "businessName": "BEST CARE HH",
    "contactEmail": "HHBESTCARE@GMAIL.COM",
    "categoryName": "HOME HEALTH AGENCY",
    "categoryCode": "HHA",
    "licenseStatus": "ACTIVE",
    "inService": true,
    "licenseNumber": "550008232",
    "licenseEffectiveDate": "11/23/2024",
    "licenseExpirationDate": "11/22/2025",
    "dataDate": "10/18/2025",
    "capacity": 0,
    "address": "671 W BROADWAY, SUITE 102",
    "city": "GLENDALE",
    "zip": "91204",
    "county": "LOS ANGELES",
    "phone": "(747) 241-5757",
    "lat": 34.147107,
    "lng": -118.269486
  },
  {
    "id": "630022154",
    "name": "BEST CHOICE HOME HEALTH AGENCY, INC.",
    "npi": null,
    "hcaiId": "406195337",
    "businessName": "BEST CHOICE HOME HEALTH AGENCY, INC.",
    "contactEmail": "HOMEHEALTHBESTCHOICE@GMAIL.COM",
    "categoryName": "HOME HEALTH AGENCY",
    "categoryCode": "HHA",
    "licenseStatus": "ACTIVE",
    "inService": true,
    "licenseNumber": "550007895",
    "licenseEffectiveDate": "05/23/2025",
    "licenseExpirationDate": "03/09/2026",
    "dataDate": "10/18/2025",
    "capacity": 0,
    "address": "1007 S CENTRAL AVE, SUITE 206",
    "city": "GLENDALE",
    "zip": "91204",
    "county": "LOS ANGELES",
    "phone": "(323) 810-0318",
    "lat": 34.13451601,
    "lng": -118.258146
  },
  {
    "id": "630017651",
    "name": "BETTER LIFE HOME HEALTH CARE, INC.",
    "npi": null,
    "hcaiId": "406195622",
    "businessName": "BETTER LIFE HOME HEALTH CARE, INC.",
    "contactEmail": "BETTERLIFEHEALTH@HOTMAIL.COM",
    "categoryName": "HOME HEALTH AGENCY",
    "categoryCode": "HHA",
    "licenseStatus": "ACTIVE",
    "inService": true,
    "licenseNumber": "550006168",
    "licenseEffectiveDate": "04/03/2025",
    "licenseExpirationDate": "04/02/2026",
    "dataDate": "10/18/2025",
    "capacity": 0,
    "address": "600 W BROADWAY, SUITE 260",
    "city": "GLENDALE",
    "zip": "91204",
    "county": "LOS ANGELES",
    "phone": "(818) 358-3728",
    "lat": 34.146537,
    "lng": -118.266645
  },
  {
    "id": "630022290",
    "name": "BLESS CARE HOSPICE INC",
    "npi": null,
    "hcaiId": "406197668",
    "businessName": "BLESS CARE HOSPICE INC",
    "contactEmail": "BLESSCAREHOSPICE@GMAIL.COM",
    "categoryName": "HOSPICE",
    "categoryCode": "HOSPICE",
    "licenseStatus": "ACTIVE",
    "inService": true,
    "licenseNumber": "550007637",
    "licenseEffectiveDate": "12/22/2023",
    "licenseExpirationDate": "12/21/2025",
    "dataDate": "10/18/2025",
    "capacity": 0,
    "address": "726 W BROADWAY, UNIT B",
    "city": "GLENDALE",
    "zip": "91204",
    "county": "LOS ANGELES",
    "phone": "(747) 264-9804",
    "lat": 34.14646601,
    "lng": -118.270892
  },
  {
    "id": "630020981",
    "name": "BLOOMING LIFE HOSPICE",
    "npi": null,
    "hcaiId": "406193913",
    "businessName": "BLOOMING LIFE HOSPICE",
    "contactEmail": "BLOOMINGLIFEHOSPICE@GMAIL.COM",
    "categoryName": "HOSPICE",
    "categoryCode": "HOSPICE",
    "licenseStatus": "ACTIVE",
    "inService": true,
    "licenseNumber": "550007344",
    "licenseEffectiveDate": "03/04/2025",
    "licenseExpirationDate": "11/28/2025",
    "dataDate": "10/18/2025",
    "capacity": 0,
    "address": "600 W BROADWAY, SUITE 300",
    "city": "GLENDALE",
    "zip": "91204",
    "county": "LOS ANGELES",
    "phone": "(818) 935-1677",
    "lat": 34.14660598,
    "lng": -118.26664
  },
  {
    "id": "630025708",
    "name": "BRAND ROYAL HOMECARE",
    "npi": null,
    "hcaiId": "406190259",
    "businessName": "BRAND ROYAL HOMECARE",
    "contactEmail": "BRANDROYALHOSPICE@GMAIL.COM",
    "categoryName": "HOME HEALTH AGENCY",
    "categoryCode": "HHA",
    "licenseStatus": "ACTIVE",
    "inService": true,
    "licenseNumber": "550008966",
    "licenseEffectiveDate": "01/25/2025",
    "licenseExpirationDate": "01/24/2026",
    "dataDate": "10/18/2025",
    "capacity": 0,
    "address": "1725 S BRAND BLVD, UNIT A",
    "city": "GLENDALE",
    "zip": "91204",
    "county": "LOS ANGELES",
    "phone": "(818) 900-9606",
    "lat": 34.124517,
    "lng": -118.255338
  },
  {
    "id": "630019084",
    "name": "BRILLIANT HEALTH HOME CARE, INC.",
    "npi": null,
    "hcaiId": "406192511",
    "businessName": "BRILLIANT HEALTH HOME CARE, INC.",
    "contactEmail": "BRILLIANTHHC@GMAIL.COM",
    "categoryName": "HOME HEALTH AGENCY",
    "categoryCode": "HHA",
    "licenseStatus": "ACTIVE",
    "inService": true,
    "licenseNumber": "550005435",
    "licenseEffectiveDate": "04/21/2025",
    "licenseExpirationDate": "04/20/2026",
    "dataDate": "10/18/2025",
    "capacity": 0,
    "address": "730 S CENTRAL AVE, UNIT 205",
    "city": "GLENDALE",
    "zip": "91204",
    "county": "LOS ANGELES",
    "phone": "(747) 240-6028",
    "lat": 34.13699198,
    "lng": -118.257038
  },
  {
    "id": "630025137",
    "name": "BROAD HORIZON HOME HEALTH, INC.",
    "npi": null,
    "hcaiId": "406196945",
    "businessName": "BROAD HORIZON HOME HEALTH, INC.",
    "contactEmail": "INFO@BROADHORIZONHH.COM",
    "categoryName": "HOME HEALTH AGENCY",
    "categoryCode": "HHA",
    "licenseStatus": "ACTIVE",
    "inService": true,
    "licenseNumber": "550008689",
    "licenseEffectiveDate": "08/05/2025",
    "licenseExpirationDate": "08/04/2026",
    "dataDate": "10/18/2025",
    "capacity": 0,
    "address": "127 S BRAND BLVD, SUITE 108",
    "city": "GLENDALE",
    "zip": "91204",
    "county": "LOS ANGELES",
    "phone": "(818) 638-3210",
    "lat": 34.145271,
    "lng": -118.2554505
  },
  {
    "id": "630011382",
    "name": "BROADWAY HOME HEALTH SERVICES, INC.",
    "npi": "1154522928",
    "hcaiId": "406197211",
    "businessName": "BROADWAY HOME HEALTH SERVICES, INC.",
    "contactEmail": "BROADWAYHOMEHEALTHSERVICES@YAHOO.COM",
    "categoryName": "HOME HEALTH AGENCY",
    "categoryCode": "HHA",
    "licenseStatus": "ACTIVE",
    "inService": true,
    "licenseNumber": "550000938",
    "licenseEffectiveDate": "03/13/2025",
    "licenseExpirationDate": "03/12/2026",
    "dataDate": "10/18/2025",
    "capacity": 0,
    "address": "644 W BROADWAY, SUITE 100",
    "city": "GLENDALE",
    "zip": "91204",
    "county": "LOS ANGELES",
    "phone": "(818) 500-0041",
    "lat": 34.146477,
    "lng": -118.268613
  },
  {
    "id": "920000021",
    "name": "BROADWAY MANOR CARE CENTER",
    "npi": "1053480418",
    "hcaiId": "206190704",
    "businessName": "BROADWAY MANOR CARE CENTER LLC",
    "contactEmail": "FAC26ADMIN@LONGWOODMGMT.COM",
    "categoryName": "SKILLED NURSING FACILITY",
    "categoryCode": "SNF",
    "licenseStatus": "ACTIVE",
    "inService": true,
    "licenseNumber": "920000064",
    "licenseEffectiveDate": "11/12/2024",
    "licenseExpirationDate": "11/11/2025",
    "dataDate": "10/18/2025",
    "capacity": 78,
    "address": "605 W BROADWAY",
    "city": "GLENDALE",
    "zip": "91204",
    "county": "LOS ANGELES",
    "phone": "(818) 246-7174",
    "lat": 34.147206,
    "lng": -118.2670515
  },
  {
    "id": "630027022",
    "name": "CALIFORNIA COVER HOME HEALTH",
    "npi": null,
    "hcaiId": null,
    "businessName": "CALIFORNIA COVER HOME HEALTH",
    "contactEmail": "CALIFORNIACOVERHOMEHEALTH@GMAIL.COM",
    "categoryName": "HOME HEALTH AGENCY",
    "categoryCode": "HHA",
    "licenseStatus": "ACTIVE",
    "inService": true,
    "licenseNumber": "550009544",
    "licenseEffectiveDate": "06/09/2025",
    "licenseExpirationDate": "12/08/2025",
    "dataDate": "10/18/2025",
    "capacity": 0,
    "address": "360 W COLORADO ST, SUITE C",
    "city": "GLENDALE",
    "zip": "91204",
    "county": "LOS ANGELES",
    "phone": "(818) 645-0055",
    "lat": 34.14222099,
    "lng": -118.260604
  },
  {
    "id": "630017838",
    "name": "CALIMED HEALTH CARE INC",
    "npi": null,
    "hcaiId": "406190279",
    "businessName": "CALIMED HEALTH CARE INC",
    "contactEmail": "INFO@CALIMEDHEALTHCARE.COM",
    "categoryName": "HOME HEALTH AGENCY",
    "categoryCode": "HHA",
    "licenseStatus": "ACTIVE",
    "inService": true,
    "licenseNumber": "550004547",
    "licenseEffectiveDate": "02/06/2025",
    "licenseExpirationDate": "02/05/2026",
    "dataDate": "10/18/2025",
    "capacity": 0,
    "address": "664 W BROADWAY, UNIT F",
    "city": "GLENDALE",
    "zip": "91204",
    "county": "LOS ANGELES",
    "phone": "(909) 552-6535",
    "lat": 34.14659601,
    "lng": -118.269937
  },
  {
    "id": "630026212",
    "name": "CALPRIME HOME HEALTH CARE",
    "npi": null,
    "hcaiId": null,
    "businessName": "CALPRIME HOME HEALTH CARE",
    "contactEmail": "CALPRIMEHOMEHEALTH@GMAIL.COM",
    "categoryName": "HOME HEALTH AGENCY",
    "categoryCode": "HHA",
    "licenseStatus": "ACTIVE",
    "inService": true,
    "licenseNumber": "550009797",
    "licenseEffectiveDate": "11/05/2025",
    "licenseExpirationDate": "05/04/2026",
    "dataDate": "10/18/2025",
    "capacity": 0,
    "address": "434 W COLORADO ST, SUITE 200A",
    "city": "GLENDALE",
    "zip": "91204",
    "county": "LOS ANGELES",
    "phone": "(747) 666-0623",
    "lat": 34.142238,
    "lng": -118.2624705
  },
  {
    "id": "630026258",
    "name": "CARE AND KINDNESS HOME HEALTH SERVICES INC",
    "npi": null,
    "hcaiId": null,
    "businessName": "CARE AND KINDNESS HOME HEALTH SERVICES INC",
    "contactEmail": "CKHOMEHEALTH@GMAIL.COM",
    "categoryName": "HOME HEALTH AGENCY",
    "categoryCode": "HHA",
    "licenseStatus": "ACTIVE",
    "inService": true,
    "licenseNumber": "550009082",
    "licenseEffectiveDate": "03/28/2025",
    "licenseExpirationDate": "03/27/2026",
    "dataDate": "10/18/2025",
    "capacity": 0,
    "address": "644 W BROADWAY, SUITE 114",
    "city": "GLENDALE",
    "zip": "91204",
    "county": "LOS ANGELES",
    "phone": "(818) 937-9140",
    "lat": 34.146477,
    "lng": -118.268613
  },
  {
    "id": "630023132",
    "name": "CARE DIALYSIS CENTER",
    "npi": null,
    "hcaiId": "306190693",
    "businessName": "AVY, LLC",
    "contactEmail": "AVY.DIALYSIS@GMAIL.COM",
    "categoryName": "CHRONIC DIALYSIS CLINIC",
    "categoryCode": "ESRD/CDC",
    "licenseStatus": "ACTIVE",
    "inService": true,
    "licenseNumber": "550007758",
    "licenseEffectiveDate": "12/21/2024",
    "licenseExpirationDate": "12/20/2025",
    "dataDate": "10/18/2025",
    "capacity": 11,
    "address": "1510 S CENTRAL AVE, SUITE 140",
    "city": "GLENDALE",
    "zip": "91204",
    "county": "LOS ANGELES",
    "phone": "(310) 467-5197",
    "lat": 34.12750884,
    "lng": -118.2577441
  },
  {
    "id": "630024127",
    "name": "CARE NEST HOME HEALTH CARE, INC.",
    "npi": null,
    "hcaiId": null,
    "businessName": "CARE NEST HOME HEALTH CARE, INC.",
    "contactEmail": "CARENESTHOMEHEALTHCAREINC@GMAIL.COM",
    "categoryName": "HOME HEALTH AGENCY",
    "categoryCode": "HHA",
    "licenseStatus": "ACTIVE",
    "inService": true,
    "licenseNumber": "550008488",
    "licenseEffectiveDate": "09/02/2023",
    "licenseExpirationDate": "03/01/2024",
    "dataDate": "10/18/2025",
    "capacity": 0,
    "address": "730 S CENTRAL AVE, SUITE 201",
    "city": "GLENDALE",
    "zip": "91204",
    "county": "LOS ANGELES",
    "phone": "(747) 444-4173",
    "lat": 34.137189,
    "lng": -118.2572325
  },
  {
    "id": "630019199",
    "name": "CARE.AM LLC",
    "npi": null,
    "hcaiId": "406195941",
    "businessName": "CARE.AM LLC",
    "contactEmail": "INFO@HCAREAM.COM",
    "categoryName": "HOME HEALTH AGENCY",
    "categoryCode": "HHA",
    "licenseStatus": "ACTIVE",
    "inService": true,
    "licenseNumber": "550005780",
    "licenseEffectiveDate": "09/30/2025",
    "licenseExpirationDate": "09/29/2026",
    "dataDate": "10/18/2025",
    "capacity": 0,
    "address": "600 W BROADWAY, SUITE 310",
    "city": "GLENDALE",
    "zip": "91204",
    "county": "LOS ANGELES",
    "phone": "(800) 616-0083",
    "lat": 34.146513,
    "lng": -118.2666555
  },
  {
    "id": "630021981",
    "name": "CARNATION HOME HEALTH CARE, INC.",
    "npi": null,
    "hcaiId": "406193257",
    "businessName": "CARNATION HOME HEALTH CARE, INC.",
    "contactEmail": "CARNATIONHHC@GMAIL.COM",
    "categoryName": "HOME HEALTH AGENCY",
    "categoryCode": "HHA",
    "licenseStatus": "ACTIVE",
    "inService": true,
    "licenseNumber": "550006785",
    "licenseEffectiveDate": "09/10/2025",
    "licenseExpirationDate": "09/09/2026",
    "dataDate": "10/18/2025",
    "capacity": 0,
    "address": "600 W BROADWAY, SUITE 335",
    "city": "GLENDALE",
    "zip": "91204",
    "county": "LOS ANGELES",
    "phone": "(310) 774-0247",
    "lat": 34.146513,
    "lng": -118.2666555
  },
  {
    "id": "630017470",
    "name": "CASA BONITA ADULT DAY HEALTHCARE CENTER",
    "npi": null,
    "hcaiId": null,
    "businessName": "AM HEALTHCARE, INC.",
    "contactEmail": "CASABONITAADHC@YAHOO.COM",
    "categoryName": "ADULT DAY HEALTH CARE",
    "categoryCode": "ADHC",
    "licenseStatus": "ACTIVE",
    "inService": true,
    "licenseNumber": "550004325",
    "licenseEffectiveDate": "06/11/2025",
    "licenseExpirationDate": "06/10/2026",
    "dataDate": "10/18/2025",
    "capacity": 0,
    "address": "700 S CENTRAL AVE, FLOOR 1",
    "city": "GLENDALE",
    "zip": "91204",
    "county": "LOS ANGELES",
    "phone": "(818) 900-1878",
    "lat": 34.13781,
    "lng": -118.257471
  },
  {
    "id": "630027425",
    "name": "CENTRAL SURGERY CENTER LLC",
    "npi": null,
    "hcaiId": null,
    "businessName": null,
    "contactEmail": "CENTRALSURGERYCENTERLLC@GMAIL.COM",
    "categoryName": "SURGICAL CLINIC",
    "categoryCode": "ASC",
    "licenseStatus": null,
    "inService": null,
    "licenseNumber": null,
    "licenseEffectiveDate": null,
    "licenseExpirationDate": null,
    "dataDate": "10/18/2025",
    "capacity": 0,
    "address": "800 S CENTRAL AVE, SUITE 102",
    "city": "GLENDALE",
    "zip": "91204",
    "county": "LOS ANGELES",
    "phone": "(818) 649-1433",
    "lat": 34.13653999,
    "lng": -118.257504
  },
  {
    "id": "920000014",
    "name": "CHESTNUT RIDGE POST ACUTE LLC",
    "npi": "1649857301",
    "hcaiId": "206190160",
    "businessName": "CHESTNUT RIDGE POST ACUTE LLC",
    "contactEmail": "LEGAL@CHESTNUTPA.COM",
    "categoryName": "SKILLED NURSING FACILITY",
    "categoryCode": "SNF",
    "licenseStatus": "ACTIVE",
    "inService": true,
    "licenseNumber": "920000017",
    "licenseEffectiveDate": "03/01/2025",
    "licenseExpirationDate": "02/28/2026",
    "dataDate": "10/18/2025",
    "capacity": 106,
    "address": "525 S CENTRAL AVE",
    "city": "GLENDALE",
    "zip": "91204",
    "county": "LOS ANGELES",
    "phone": "(818) 240-1610",
    "lat": 34.139061,
    "lng": -118.258344
  },
  {
    "id": "630015977",
    "name": "CONSTANT HOSPICE CARE, INC.",
    "npi": null,
    "hcaiId": "406191621",
    "businessName": "CONSTANT HOSPICE CARE, INC.",
    "contactEmail": "CONSTANTHOSPICECARE@GMAIL.COM",
    "categoryName": "HOSPICE",
    "categoryCode": "HOSPICE",
    "licenseStatus": "ACTIVE",
    "inService": true,
    "licenseNumber": "550003726",
    "licenseEffectiveDate": "09/25/2024",
    "licenseExpirationDate": "11/22/2024",
    "dataDate": "10/18/2025",
    "capacity": 0,
    "address": "600 W BROADWAY, UNIT 325",
    "city": "GLENDALE",
    "zip": "91204",
    "county": "LOS ANGELES",
    "phone": "(818) 405-0109",
    "lat": 34.14653801,
    "lng": -118.266651
  },
  {
    "id": "630022221",
    "name": "CRISTAL HOME HEALTH",
    "npi": null,
    "hcaiId": "406195793",
    "businessName": "CRISTAL HOME HEALTH",
    "contactEmail": "CRISTALHOME@YAHOO.COM",
    "categoryName": "HOME HEALTH AGENCY",
    "categoryCode": "HHA",
    "licenseStatus": "ACTIVE",
    "inService": true,
    "licenseNumber": "550007822",
    "licenseEffectiveDate": "02/03/2025",
    "licenseExpirationDate": "02/02/2026",
    "dataDate": "10/18/2025",
    "capacity": 0,
    "address": "4634 SAN FERNANDO RD, SUITE A",
    "city": "GLENDALE",
    "zip": "91204",
    "county": "LOS ANGELES",
    "phone": "(818) 484-7845",
    "lat": 34.13658329,
    "lng": -118.2640631
  },
  {
    "id": "630012371",
    "name": "CRYSTALCARE HOME HEALTH, INC.",
    "npi": "1497985576",
    "hcaiId": "406197443",
    "businessName": "CRYSTALCARE HOME HEALTH, INC.",
    "contactEmail": "CRYSTALCARE_INC@YAHOO.COM",
    "categoryName": "HOME HEALTH AGENCY",
    "categoryCode": "HHA",
    "licenseStatus": "ACTIVE",
    "inService": true,
    "licenseNumber": "550001383",
    "licenseEffectiveDate": "02/28/2023",
    "licenseExpirationDate": "02/27/2024",
    "dataDate": "10/18/2025",
    "capacity": 0,
    "address": "442 W BROADWAY",
    "city": "GLENDALE",
    "zip": "91204",
    "county": "LOS ANGELES",
    "phone": "(818) 956-8761",
    "lat": 34.14675097,
    "lng": -118.2628176
  },
  {
    "id": "630011908",
    "name": "DIAMOND HOSPICE CARE ORGANIZATION INC.",
    "npi": "1093972853",
    "hcaiId": "406197378",
    "businessName": "DIAMOND HOSPICE CARE ORGANIZATION INC.",
    "contactEmail": "DIAMONDHOSPICECAREORG@GMAIL.COM",
    "categoryName": "HOSPICE",
    "categoryCode": "HOSPICE",
    "licenseStatus": "ACTIVE",
    "inService": false,
    "licenseNumber": "550001251",
    "licenseEffectiveDate": "03/16/2024",
    "licenseExpirationDate": "03/15/2026",
    "dataDate": "10/18/2025",
    "capacity": 0,
    "address": "644 W BROADWAY, SUITE 106",
    "city": "GLENDALE",
    "zip": "91204",
    "county": "LOS ANGELES",
    "phone": "(818) 696-9011",
    "lat": 34.146477,
    "lng": -118.268613
  },
  {
    "id": "630022100",
    "name": "EAGLE EYE HOSPICE, INC.",
    "npi": null,
    "hcaiId": "406195729",
    "businessName": "EAGLE EYE HOSPICE, INC.",
    "contactEmail": "EAGLEEYEHOSPICE@GMAIL.COM",
    "categoryName": "HOSPICE",
    "categoryCode": "HOSPICE",
    "licenseStatus": "ACTIVE",
    "inService": true,
    "licenseNumber": "550007700",
    "licenseEffectiveDate": "12/18/2023",
    "licenseExpirationDate": "12/17/2025",
    "dataDate": "10/18/2025",
    "capacity": 0,
    "address": "127 S BRAND BLVD, SUITE 223",
    "city": "GLENDALE",
    "zip": "91204",
    "county": "LOS ANGELES",
    "phone": "(213) 709-8880",
    "lat": 34.145271,
    "lng": -118.2554505
  },
  {
    "id": "630019349",
    "name": "ECLIPSE HOSPICE CARE, INC.",
    "npi": null,
    "hcaiId": "406196593",
    "businessName": "ECLIPSE HOSPICE CARE, INC.",
    "contactEmail": "ECLIPSEHOSPICECARE@GMAIL.COM",
    "categoryName": "HOSPICE",
    "categoryCode": "HOSPICE",
    "licenseStatus": "ACTIVE",
    "inService": true,
    "licenseNumber": "550006155",
    "licenseEffectiveDate": "04/05/2025",
    "licenseExpirationDate": "04/04/2027",
    "dataDate": "10/18/2025",
    "capacity": 0,
    "address": "127 S BRAND BLVD, UNIT 305",
    "city": "GLENDALE",
    "zip": "91204",
    "county": "LOS ANGELES",
    "phone": "(818) 858-0431",
    "lat": 34.145289,
    "lng": -118.255455
  },
  {
    "id": "630012215",
    "name": "EDISON PACIFIC",
    "npi": "1306128822",
    "hcaiId": "306196548",
    "businessName": "ALL FOR HEALTH, HEALTH FOR ALL, INC.",
    "contactEmail": "HISRAELIAN@ALL4HEALTH.ORG",
    "categoryName": "PRIMARY CARE CLINIC",
    "categoryCode": "COMTYC",
    "licenseStatus": "ACTIVE",
    "inService": true,
    "licenseNumber": "550001168",
    "licenseEffectiveDate": "11/20/2025",
    "licenseExpirationDate": "11/19/2026",
    "dataDate": "10/18/2025",
    "capacity": 0,
    "address": "437 S PACIFIC AVE",
    "city": "GLENDALE",
    "zip": "91204",
    "county": "LOS ANGELES",
    "phone": "(818) 409-3020",
    "lat": 34.140123,
    "lng": -118.265202
  },
  {
    "id": "630025964",
    "name": "EMPATHY CARE HOME HEALTH LLC",
    "npi": null,
    "hcaiId": null,
    "businessName": "EMPATHY CARE HOME HEALTH LLC",
    "contactEmail": "EMPATHYCAREHOMEHEALTH@GMAIL.COM",
    "categoryName": "HOME HEALTH AGENCY",
    "categoryCode": "HHA",
    "licenseStatus": "ACTIVE",
    "inService": true,
    "licenseNumber": "550009282",
    "licenseEffectiveDate": "01/26/2025",
    "licenseExpirationDate": "07/25/2025",
    "dataDate": "10/18/2025",
    "capacity": 0,
    "address": "333 S CENTRAL AVE, SUITE 101B",
    "city": "GLENDALE",
    "zip": "91204",
    "county": "LOS ANGELES",
    "phone": "(818) 730-7771",
    "lat": 34.14197409,
    "lng": -118.2579126
  },
  {
    "id": "630026871",
    "name": "EMPYREAN HOME HEALTH, INC.",
    "npi": null,
    "hcaiId": null,
    "businessName": "EMPYREAN HOME HEALTH, INC.",
    "contactEmail": "EMPYREANHHINC@GMAIL.COM",
    "categoryName": "HOME HEALTH AGENCY",
    "categoryCode": "HHA",
    "licenseStatus": "ACTIVE",
    "inService": true,
    "licenseNumber": "550009321",
    "licenseEffectiveDate": "08/16/2025",
    "licenseExpirationDate": "08/15/2026",
    "dataDate": "10/18/2025",
    "capacity": 0,
    "address": "815 S CENTRAL AVE, SUITE 18",
    "city": "GLENDALE",
    "zip": "91204",
    "county": "LOS ANGELES",
    "phone": "(747) 240-6232",
    "lat": 34.136055,
    "lng": -118.2582675
  },
  {
    "id": "630025947",
    "name": "ENDLESS HELP HOME HEALTH",
    "npi": null,
    "hcaiId": null,
    "businessName": "ENDLESS HELP HOME HEALTH",
    "contactEmail": "ENDLESS.HELP2021@GMAIL.COM",
    "categoryName": "HOME HEALTH AGENCY",
    "categoryCode": "HHA",
    "licenseStatus": "ACTIVE",
    "inService": true,
    "licenseNumber": "550009279",
    "licenseEffectiveDate": "01/12/2025",
    "licenseExpirationDate": "07/11/2025",
    "dataDate": "10/18/2025",
    "capacity": 0,
    "address": "440 S CENTRAL AVE, SUITE A",
    "city": "GLENDALE",
    "zip": "91204",
    "county": "LOS ANGELES",
    "phone": "(747) 228-3448",
    "lat": 34.14063394,
    "lng": -118.2577916
  },
  {
    "id": "630022118",
    "name": "EZ LIFE HOSPICE INC",
    "npi": null,
    "hcaiId": "406195719",
    "businessName": "EZ LIFE HOSPICE INC",
    "contactEmail": "EZLIFEHOSPICE@GMAIL.COM",
    "categoryName": "HOSPICE",
    "categoryCode": "HOSPICE",
    "licenseStatus": "ACTIVE",
    "inService": true,
    "licenseNumber": "550007690",
    "licenseEffectiveDate": "12/23/2023",
    "licenseExpirationDate": "12/22/2025",
    "dataDate": "10/18/2025",
    "capacity": 0,
    "address": "127 S BRAND BLVD, SUITE 222",
    "city": "GLENDALE",
    "zip": "91204",
    "county": "LOS ANGELES",
    "phone": "(213) 709-8882",
    "lat": 34.145271,
    "lng": -118.2554505
  },
  {
    "id": "630017500",
    "name": "FAITH & LIFE HOSPICE INC.",
    "npi": null,
    "hcaiId": "406192197",
    "businessName": "FAITH & LIFE HOSPICE INC.",
    "contactEmail": "FAITHANDLIFEHOSPICE@YAHOO.COM",
    "categoryName": "HOSPICE",
    "categoryCode": "HOSPICE",
    "licenseStatus": "ACTIVE",
    "inService": true,
    "licenseNumber": "550005212",
    "licenseEffectiveDate": "11/13/2025",
    "licenseExpirationDate": "11/12/2027",
    "dataDate": "10/18/2025",
    "capacity": 0,
    "address": "356 W COLORADO ST, SUITE C",
    "city": "GLENDALE",
    "zip": "91204",
    "county": "LOS ANGELES",
    "phone": "(818) 918-1589",
    "lat": 34.142247,
    "lng": -118.260405
  },
  {
    "id": "630019166",
    "name": "FIRST AMERICAN HOME HEALTH INC.",
    "npi": "1093360976",
    "hcaiId": "406192720",
    "businessName": "FIRST AMERICAN HOME HEALTH INC",
    "contactEmail": "ALLA@FIRSTAMERICANHOMEHEALTH.COM",
    "categoryName": "HOME HEALTH AGENCY",
    "categoryCode": "HHA",
    "licenseStatus": "ACTIVE",
    "inService": true,
    "licenseNumber": "550005504",
    "licenseEffectiveDate": "05/18/2025",
    "licenseExpirationDate": "05/17/2026",
    "dataDate": "10/18/2025",
    "capacity": 0,
    "address": "436 W COLORADO ST, SUITE 213",
    "city": "GLENDALE",
    "zip": "91204",
    "county": "LOS ANGELES",
    "phone": "(323) 648-8626",
    "lat": 34.142238,
    "lng": -118.2624705
  },
  {
    "id": "630019165",
    "name": "FIRST AMERICAN HOSPICE, INC",
    "npi": "1629623509",
    "hcaiId": "406192003",
    "businessName": "FIRST AMERICAN HOSPICE, INC",
    "contactEmail": "ALLA@FIRSTAMERICANHOSPICE.COM",
    "categoryName": "HOSPICE",
    "categoryCode": "HOSPICE",
    "licenseStatus": "ACTIVE",
    "inService": true,
    "licenseNumber": "550005060",
    "licenseEffectiveDate": "11/01/2025",
    "licenseExpirationDate": "10/31/2027",
    "dataDate": "10/18/2025",
    "capacity": 0,
    "address": "436 W COLORADO ST, SUITE 209",
    "city": "GLENDALE",
    "zip": "91204",
    "county": "LOS ANGELES",
    "phone": "(323) 648-8580",
    "lat": 34.142238,
    "lng": -118.2624705
  },
  {
    "id": "630012982",
    "name": "FIRST RESPONSE HOME CARE, INC.",
    "npi": "1194029413",
    "hcaiId": "406197506",
    "businessName": "FIRST RESPONSE HOME CARE, INC.",
    "contactEmail": "FIRSTRESPONSEHC@GMAIL.COM",
    "categoryName": "HOME HEALTH AGENCY",
    "categoryCode": "HHA",
    "licenseStatus": "ACTIVE",
    "inService": true,
    "licenseNumber": "550001571",
    "licenseEffectiveDate": "04/22/2025",
    "licenseExpirationDate": "04/21/2026",
    "dataDate": "10/18/2025",
    "capacity": 0,
    "address": "459 W BROADWAY, SUITE 8",
    "city": "GLENDALE",
    "zip": "91204",
    "county": "LOS ANGELES",
    "phone": "(818) 566-1605",
    "lat": 34.147152,
    "lng": -118.263996
  },
  {
    "id": "630020445",
    "name": "FIRST WAY HOME HEALTH CARE, INC.",
    "npi": null,
    "hcaiId": "406198496",
    "businessName": "FIRST WAY HOME HEALTH CARE, INC.",
    "contactEmail": "FIRSTWAYHOMEHEALTH@YAHOO.COM",
    "categoryName": "HOME HEALTH AGENCY",
    "categoryCode": "HHA",
    "licenseStatus": "ACTIVE",
    "inService": true,
    "licenseNumber": "550005956",
    "licenseEffectiveDate": "12/16/2024",
    "licenseExpirationDate": "12/15/2025",
    "dataDate": "10/18/2025",
    "capacity": 0,
    "address": "436 W COLORADO ST, SUITE 112",
    "city": "GLENDALE",
    "zip": "91204",
    "county": "LOS ANGELES",
    "phone": "(818) 751-0505",
    "lat": 34.142238,
    "lng": -118.2624705
  },
  {
    "id": "630018053",
    "name": "FORMEN & FORMEN HOME HEALTH, INC.",
    "npi": null,
    "hcaiId": "406191627",
    "businessName": "FORMEN & FORMEN HOME HEALTH, INC.",
    "contactEmail": "FORMENHOMEHEALTH@GMAIL.COM",
    "categoryName": "HOME HEALTH AGENCY",
    "categoryCode": "HHA",
    "licenseStatus": "ACTIVE",
    "inService": true,
    "licenseNumber": "550004546",
    "licenseEffectiveDate": "02/06/2025",
    "licenseExpirationDate": "02/05/2026",
    "dataDate": "10/18/2025",
    "capacity": 0,
    "address": "664 W BROADWAY, UNIT H",
    "city": "GLENDALE",
    "zip": "91204",
    "county": "LOS ANGELES",
    "phone": "(626) 345-5239",
    "lat": 34.146495,
    "lng": -118.2700125
  },
  {
    "id": "630016649",
    "name": "FRESENIUS MEDICAL CARE OF WEST GLENDALE, LLC",
    "npi": null,
    "hcaiId": "306197645",
    "businessName": "FRESENIUS MEDICAL CARE OF GLENDALE, LLC",
    "contactEmail": "CLINIC9262@FMC-NA.COM",
    "categoryName": "CHRONIC DIALYSIS CLINIC",
    "categoryCode": "ESRD/CDC",
    "licenseStatus": "ACTIVE",
    "inService": true,
    "licenseNumber": "550003917",
    "licenseEffectiveDate": "05/11/2025",
    "licenseExpirationDate": "05/10/2026",
    "dataDate": "10/18/2025",
    "capacity": 0,
    "address": "623 S. CENTRAL AVENUE",
    "city": "GLENDALE",
    "zip": "91204",
    "county": "LOS ANGELES",
    "phone": "(818) 240-1065",
    "lat": 34.137855,
    "lng": -118.258344
  },
  {
    "id": "970000085",
    "name": "GLENDALE HEALTHCARE CENTER",
    "npi": "1558356436",
    "hcaiId": "206190142",
    "businessName": "GLENDALE CV OPERATING COMPANY, LLC",
    "contactEmail": "TIFFANY.AUSTIN@GLENDALEHCC.COM",
    "categoryName": "SKILLED NURSING FACILITY",
    "categoryCode": "SNF",
    "licenseStatus": "ACTIVE",
    "inService": true,
    "licenseNumber": "970000042",
    "licenseEffectiveDate": "11/01/2025",
    "licenseExpirationDate": "10/31/2026",
    "dataDate": "10/18/2025",
    "capacity": 48,
    "address": "1208 S CENTRAL AVE",
    "city": "GLENDALE",
    "zip": "91204",
    "county": "LOS ANGELES",
    "phone": "(818) 246-5516",
    "lat": 34.131744,
    "lng": -118.2574305
  },
  {
    "id": "930000093",
    "name": "GLENDALE MEMORIAL HOSPITAL AND HEALTH CENTER",
    "npi": "1477610640",
    "hcaiId": "106190522",
    "businessName": "DIGNITY COMMUNITY CARE",
    "contactEmail": "JIM.ZOLNOWSKI@COMMONSPIRIT.ORG",
    "categoryName": "GENERAL ACUTE CARE HOSPITAL",
    "categoryCode": "GACH",
    "licenseStatus": "ACTIVE",
    "inService": true,
    "licenseNumber": "930000099",
    "licenseEffectiveDate": "01/01/2025",
    "licenseExpirationDate": "12/31/2025",
    "dataDate": "10/18/2025",
    "capacity": 255,
    "address": "1420 S CENTRAL AVE",
    "city": "GLENDALE",
    "zip": "91204",
    "county": "LOS ANGELES",
    "phone": "(818) 502-2201",
    "lat": 34.12840144,
    "lng": -118.2577489
  },
  {
    "id": "930000854",
    "name": "GLENDALE MEMORIAL HOSPITAL AND HEALTH CTR. D/P APH",
    "npi": "1477610640",
    "hcaiId": null,
    "businessName": "DIGNITY COMMUNITY CARE",
    "contactEmail": null,
    "categoryName": "ACUTE PSYCHIATRIC HOSPITAL",
    "categoryCode": "APH",
    "licenseStatus": "ACTIVE",
    "inService": true,
    "licenseNumber": "930000099",
    "licenseEffectiveDate": "01/01/2025",
    "licenseExpirationDate": "12/31/2025",
    "dataDate": "10/18/2025",
    "capacity": 49,
    "address": "1420 S CENTRAL AVE",
    "city": "GLENDALE",
    "zip": "91204",
    "county": "LOS ANGELES",
    "phone": "(818) 502-1900",
    "lat": 34.12840144,
    "lng": -118.2577489
  },
  {
    "id": "930000722",
    "name": "GLENDALE MEMORIAL HOSPITAL AND HEALTH CTR. D/P SNF",
    "npi": "1477610640",
    "hcaiId": null,
    "businessName": "DIGNITY COMMUNITY CARE",
    "contactEmail": "JASON.BLACK@DIGNITYHEALTH.ORG",
    "categoryName": "SKILLED NURSING FACILITY",
    "categoryCode": "SNF",
    "licenseStatus": "ACTIVE",
    "inService": true,
    "licenseNumber": "930000099",
    "licenseEffectiveDate": "01/01/2025",
    "licenseExpirationDate": "12/31/2025",
    "dataDate": "10/18/2025",
    "capacity": 30,
    "address": "1420 S CENTRAL AVE",
    "city": "GLENDALE",
    "zip": "91204",
    "county": "LOS ANGELES",
    "phone": "(818) 502-2218",
    "lat": 34.12840144,
    "lng": -118.2577489
  },
  {
    "id": "630010954",
    "name": "GLENDALE MULTI-SPECIALTY SURGERY CENTER",
    "npi": "1558407254",
    "hcaiId": null,
    "businessName": null,
    "contactEmail": null,
    "categoryName": "SURGICAL CLINIC",
    "categoryCode": "ASC",
    "licenseStatus": null,
    "inService": null,
    "licenseNumber": null,
    "licenseEffectiveDate": null,
    "licenseExpirationDate": null,
    "dataDate": "10/18/2025",
    "capacity": 0,
    "address": "716 W BROADWAY",
    "city": "GLENDALE",
    "zip": "91204",
    "county": "LOS ANGELES",
    "phone": "(818) 244-8200",
    "lat": 34.146495,
    "lng": -118.2700125
  },
  {
    "id": "920000304",
    "name": "GLENHAVEN HEALTHCARE",
    "npi": "1831574243",
    "hcaiId": "206190277",
    "businessName": "GLENHAVEN HEALTHCARE, LLC",
    "contactEmail": "MARYDES@CARAVANOPERATIONS.COM",
    "categoryName": "SKILLED NURSING FACILITY",
    "categoryCode": "SNF",
    "licenseStatus": "ACTIVE",
    "inService": true,
    "licenseNumber": "920000126",
    "licenseEffectiveDate": "02/03/2025",
    "licenseExpirationDate": "02/02/2026",
    "dataDate": "10/18/2025",
    "capacity": 52,
    "address": "212 W CHEVY CHASE DR",
    "city": "GLENDALE",
    "zip": "91204",
    "county": "LOS ANGELES",
    "phone": "(818) 240-6720",
    "lat": 34.133148,
    "lng": -118.256976
  },
  {
    "id": "960000949",
    "name": "GLENRIDGE CENTER, #140",
    "npi": "1477688810",
    "hcaiId": "206190652",
    "businessName": "RSCR CALIFORNIA, INC.",
    "contactEmail": "DSOTO@RESCARE.COM",
    "categoryName": "INTERMEDIATE CARE FACILITY-DD/H/N/CN/IID",
    "categoryCode": "ICFDD",
    "licenseStatus": "ACTIVE",
    "inService": true,
    "licenseNumber": "960000516",
    "licenseEffectiveDate": "11/01/2025",
    "licenseExpirationDate": "10/31/2026",
    "dataDate": "10/18/2025",
    "capacity": 59,
    "address": "611 S CENTRAL AVE",
    "city": "GLENDALE",
    "zip": "91204",
    "county": "LOS ANGELES",
    "phone": "(818) 637-7727",
    "lat": 34.138296,
    "lng": -118.258344
  },
  {
    "id": "630016587",
    "name": "GLENVIEW HOME HEALTH, INC.",
    "npi": "1760841597",
    "hcaiId": "406190914",
    "businessName": "GLENVIEW HOME HEALTH, INC.",
    "contactEmail": "GLENVIEWHOMEHEALTHINC@MAIL.COM",
    "categoryName": "HOME HEALTH AGENCY",
    "categoryCode": "HHA",
    "licenseStatus": "ACTIVE",
    "inService": true,
    "licenseNumber": "550004297",
    "licenseEffectiveDate": "06/07/2025",
    "licenseExpirationDate": "06/06/2026",
    "dataDate": "10/18/2025",
    "capacity": 0,
    "address": "412 W. BROADWAY, SUITE 210",
    "city": "GLENDALE",
    "zip": "91204",
    "county": "LOS ANGELES",
    "phone": "(818) 502-0166",
    "lat": 34.146522,
    "lng": -118.2615525
  },
  {
    "id": "630027210",
    "name": "GOANDA",
    "npi": null,
    "hcaiId": null,
    "businessName": "GOANDA",
    "contactEmail": "4GOANDA@GMAIL.COM",
    "categoryName": "HOME HEALTH AGENCY",
    "categoryCode": "HHA",
    "licenseStatus": "ACTIVE",
    "inService": true,
    "licenseNumber": "550009568",
    "licenseEffectiveDate": "05/22/2025",
    "licenseExpirationDate": "11/21/2025",
    "dataDate": "10/18/2025",
    "capacity": 0,
    "address": "671 W BROADWAY, SUITE 105",
    "city": "GLENDALE",
    "zip": "91204",
    "county": "LOS ANGELES",
    "phone": "(818) 452-5223",
    "lat": 34.14713199,
    "lng": -118.26957
  },
  {
    "id": "630020651",
    "name": "GOLDEN KEY HOME HEALTH CARE, INC.",
    "npi": null,
    "hcaiId": "406193547",
    "businessName": "GOLDEN KEY HOME HEALTH CARE, INC.",
    "contactEmail": "GOLDENKEYHHC@GMAIL.COM",
    "categoryName": "HOME HEALTH AGENCY",
    "categoryCode": "HHA",
    "licenseStatus": "ACTIVE",
    "inService": true,
    "licenseNumber": "550006474",
    "licenseEffectiveDate": "06/01/2023",
    "licenseExpirationDate": "05/31/2024",
    "dataDate": "10/18/2025",
    "capacity": 0,
    "address": "730 S CENTRAL AVE, SUITE 214",
    "city": "GLENDALE",
    "zip": "91204",
    "county": "LOS ANGELES",
    "phone": "(818) 696-2177",
    "lat": 34.137189,
    "lng": -118.2572325
  },
  {
    "id": "630016402",
    "name": "GOLDEN STAR HOME HEALTH CARE, INC.",
    "npi": "1003286873",
    "hcaiId": "406190644",
    "businessName": "GOLDEN STAR HOME HEALTH CARE, INC.",
    "contactEmail": "GOLDENSTARHHC@MAIL.COM",
    "categoryName": "HOME HEALTH AGENCY",
    "categoryCode": "HHA",
    "licenseStatus": "ACTIVE",
    "inService": true,
    "licenseNumber": "550004169",
    "licenseEffectiveDate": "01/29/2025",
    "licenseExpirationDate": "01/28/2026",
    "dataDate": "10/18/2025",
    "capacity": 0,
    "address": "440 W. COLORADO STREET, SUITE 103",
    "city": "GLENDALE",
    "zip": "91204",
    "county": "LOS ANGELES",
    "phone": "(818) 967-5500",
    "lat": 34.142238,
    "lng": -118.262799
  },
  {
    "id": "630025463",
    "name": "GOOD VIBE HEALTH SERVICES",
    "npi": null,
    "hcaiId": null,
    "businessName": "GOOD VIBE HEALTH SERVICES",
    "contactEmail": "GVHEALTHSERVICES@GMAIL.COM",
    "categoryName": "HOME HEALTH AGENCY",
    "categoryCode": "HHA",
    "licenseStatus": "ACTIVE",
    "inService": true,
    "licenseNumber": "550008661",
    "licenseEffectiveDate": "08/25/2025",
    "licenseExpirationDate": "07/12/2026",
    "dataDate": "10/18/2025",
    "capacity": 0,
    "address": "440 WEST COLORADO STREET, SUITE 214",
    "city": "GLENDALE",
    "zip": "91204",
    "county": "LOS ANGELES",
    "phone": "(747) 877-2739",
    "lat": 34.14234349,
    "lng": -118.2628476
  },
  {
    "id": "630024778",
    "name": "H & A HOME HEALTH AGENCY, INC.",
    "npi": null,
    "hcaiId": null,
    "businessName": "H & A HOME HEALTH AGENCY, INC.",
    "contactEmail": "HAHHINC@YAHOO.COM",
    "categoryName": "HOME HEALTH AGENCY",
    "categoryCode": "HHA",
    "licenseStatus": "ACTIVE",
    "inService": true,
    "licenseNumber": "550009703",
    "licenseEffectiveDate": "09/07/2025",
    "licenseExpirationDate": "03/06/2026",
    "dataDate": "10/18/2025",
    "capacity": 0,
    "address": "127 S BRAND BLVD, SUITE 236",
    "city": "GLENDALE",
    "zip": "91204",
    "county": "LOS ANGELES",
    "phone": "(818) 913-2024",
    "lat": 34.14528801,
    "lng": -118.255464
  },
  {
    "id": "630021529",
    "name": "HARMONY HOSPICE SERVICES, INC.",
    "npi": null,
    "hcaiId": "406197702",
    "businessName": "HARMONY HOSPICE SERVICES,INC.",
    "contactEmail": "HARMONYHOSPICE104@GMAIL.COM",
    "categoryName": "HOSPICE",
    "categoryCode": "HOSPICE",
    "licenseStatus": "ACTIVE",
    "inService": true,
    "licenseNumber": "550007282",
    "licenseEffectiveDate": "11/23/2023",
    "licenseExpirationDate": "11/22/2025",
    "dataDate": "10/18/2025",
    "capacity": 0,
    "address": "644 W BROADWAY, SUITE 104",
    "city": "GLENDALE",
    "zip": "91204",
    "county": "LOS ANGELES",
    "phone": "(818) 696-9277",
    "lat": 34.146477,
    "lng": -118.268613
  },
  {
    "id": "630026687",
    "name": "HEADWAY HOME HEALTH INC",
    "npi": null,
    "hcaiId": null,
    "businessName": "HEADWAY HOME HEALTH INC",
    "contactEmail": "HEADWAYHH@GMAIL.COM",
    "categoryName": "HOME HEALTH AGENCY",
    "categoryCode": "HHA",
    "licenseStatus": "ACTIVE",
    "inService": true,
    "licenseNumber": "550009677",
    "licenseEffectiveDate": "08/28/2025",
    "licenseExpirationDate": "02/27/2026",
    "dataDate": "10/18/2025",
    "capacity": 0,
    "address": "127 S BRAND BLVD, SUITE 308",
    "city": "GLENDALE",
    "zip": "91204",
    "county": "LOS ANGELES",
    "phone": "(818) 337-7843",
    "lat": 34.145271,
    "lng": -118.2554505
  },
  {
    "id": "630019974",
    "name": "HEALING HOME HEALTH",
    "npi": null,
    "hcaiId": "406193411",
    "businessName": "HEALING HOME HEALTH",
    "contactEmail": "HEALINGHOMEH@GMAIL.COM",
    "categoryName": "HOME HEALTH AGENCY",
    "categoryCode": "HHA",
    "licenseStatus": "ACTIVE",
    "inService": true,
    "licenseNumber": "550007125",
    "licenseEffectiveDate": "11/11/2024",
    "licenseExpirationDate": "11/10/2025",
    "dataDate": "10/18/2025",
    "capacity": 0,
    "address": "815 S CENTRAL AVE, SUITE 4",
    "city": "GLENDALE",
    "zip": "91204",
    "county": "LOS ANGELES",
    "phone": "(818) 207-7737",
    "lat": 34.136055,
    "lng": -118.2582675
  },
  {
    "id": "630025894",
    "name": "HEALTHLINE HOME HEALTH AGENCY, INC.",
    "npi": null,
    "hcaiId": null,
    "businessName": "HEALTHLINE HOME HEALTH AGENCY, INC.",
    "contactEmail": "HEALTHLINEHHA@GMAIL.COM",
    "categoryName": "HOME HEALTH AGENCY",
    "categoryCode": "HHA",
    "licenseStatus": "ACTIVE",
    "inService": true,
    "licenseNumber": "550008935",
    "licenseEffectiveDate": "02/05/2025",
    "licenseExpirationDate": "02/04/2026",
    "dataDate": "10/18/2025",
    "capacity": 0,
    "address": "127 S BRAND BLVD, SUITE 302",
    "city": "GLENDALE",
    "zip": "91204",
    "county": "LOS ANGELES",
    "phone": "(818) 305-5705",
    "lat": 34.14529099,
    "lng": -118.25547
  },
  {
    "id": "630019649",
    "name": "HOME HEALTH 101 INC.",
    "npi": null,
    "hcaiId": "406012770",
    "businessName": "HOME HEALTH 101 INC.",
    "contactEmail": "HOMEHEALTH101INC@GMAIL.COM",
    "categoryName": "HOME HEALTH AGENCY",
    "categoryCode": "HHA",
    "licenseStatus": "ACTIVE",
    "inService": true,
    "licenseNumber": "550005587",
    "licenseEffectiveDate": "06/12/2025",
    "licenseExpirationDate": "06/11/2026",
    "dataDate": "10/18/2025",
    "capacity": 0,
    "address": "424 W COLORADO ST, SUITE 104",
    "city": "GLENDALE",
    "zip": "91204",
    "county": "LOS ANGELES",
    "phone": "(323) 613-8088",
    "lat": 34.14233645,
    "lng": -118.262089
  },
  {
    "id": "630018537",
    "name": "HOME HEALTH CARE ORGANIZATION, INC.",
    "npi": null,
    "hcaiId": "406193015",
    "businessName": "HOME HEALTH CARE ORGANIZATION, INC.",
    "contactEmail": "HHCO2020@YAHOO.COM",
    "categoryName": "HOME HEALTH AGENCY",
    "categoryCode": "HHA",
    "licenseStatus": "ACTIVE",
    "inService": true,
    "licenseNumber": "550005719",
    "licenseEffectiveDate": "09/12/2025",
    "licenseExpirationDate": "09/11/2026",
    "dataDate": "10/18/2025",
    "capacity": 0,
    "address": "644 W BROADWAY, SUITE 102",
    "city": "GLENDALE",
    "zip": "91204",
    "county": "LOS ANGELES",
    "phone": "(818) 937-9919",
    "lat": 34.146477,
    "lng": -118.268613
  },
  {
    "id": "630021363",
    "name": "HOMEBRIDGE HOSPICE, INC.",
    "npi": null,
    "hcaiId": "406193318",
    "businessName": "HOMEBRIDGE HOSPICE, INC",
    "contactEmail": "HOMEBRIDGEHOSPICE@GMAIL.COM",
    "categoryName": "HOSPICE",
    "categoryCode": "HOSPICE",
    "licenseStatus": "ACTIVE",
    "inService": true,
    "licenseNumber": "550007161",
    "licenseEffectiveDate": "10/27/2023",
    "licenseExpirationDate": "10/26/2025",
    "dataDate": "10/18/2025",
    "capacity": 0,
    "address": "127 S BRAND BLVD, SUITE 226",
    "city": "GLENDALE",
    "zip": "91204",
    "county": "LOS ANGELES",
    "phone": "(747) 215-9083",
    "lat": 34.145289,
    "lng": -118.255455
  },
  {
    "id": "630021581",
    "name": "HP HOSPICE CARE, INC.",
    "npi": null,
    "hcaiId": "406193674",
    "businessName": "HP HOSPICE CARE INC",
    "contactEmail": "HPHOSPICECARE@GMAIL.COM",
    "categoryName": "HOSPICE",
    "categoryCode": "HOSPICE",
    "licenseStatus": "ACTIVE",
    "inService": true,
    "licenseNumber": "550006884",
    "licenseEffectiveDate": "09/30/2025",
    "licenseExpirationDate": "09/29/2027",
    "dataDate": "10/18/2025",
    "capacity": 0,
    "address": "427 W COLORADO ST, SUITE 207",
    "city": "GLENDALE",
    "zip": "91204",
    "county": "LOS ANGELES",
    "phone": "(818) 937-9245",
    "lat": 34.142787,
    "lng": -118.262142
  },
  {
    "id": "630024119",
    "name": "HR HOME CARE, INC.",
    "npi": null,
    "hcaiId": null,
    "businessName": "HR HOME CARE, INC.",
    "contactEmail": "HRHOMEINC@GMAIL.COM",
    "categoryName": "HOME HEALTH AGENCY",
    "categoryCode": "HHA",
    "licenseStatus": "ACTIVE",
    "inService": true,
    "licenseNumber": "550009719",
    "licenseEffectiveDate": "09/14/2025",
    "licenseExpirationDate": "03/13/2026",
    "dataDate": "10/18/2025",
    "capacity": 0,
    "address": "434 W COLORADO ST, SUITE #200",
    "city": "GLENDALE",
    "zip": "91204",
    "county": "LOS ANGELES",
    "phone": "(818) 649-1618",
    "lat": 34.142238,
    "lng": -118.2624705
  },
  {
    "id": "630028220",
    "name": "INTUITIVE SURGERY CENTER INC",
    "npi": null,
    "hcaiId": null,
    "businessName": null,
    "contactEmail": "JESSICA@ADVANTAGEHEALTHCARESYSTEMS.ORG",
    "categoryName": "SURGICAL CLINIC",
    "categoryCode": "ASC",
    "licenseStatus": null,
    "inService": null,
    "licenseNumber": null,
    "licenseEffectiveDate": null,
    "licenseExpirationDate": null,
    "dataDate": "10/18/2025",
    "capacity": 0,
    "address": "317 S BRAND BLVD, SUITE 101",
    "city": "GLENDALE",
    "zip": "91204",
    "county": "LOS ANGELES",
    "phone": "(714) 747-1253",
    "lat": 34.14187989,
    "lng": -118.2555292
  },
  {
    "id": "630022363",
    "name": "JANUS HOME HEALTH, INC.",
    "npi": null,
    "hcaiId": "406195409",
    "businessName": "JANUS HOME HEALTH, INC",
    "contactEmail": "JANUSHOMEHEALTH@GMAIL.COM",
    "categoryName": "HOME HEALTH AGENCY",
    "categoryCode": "HHA",
    "licenseStatus": "ACTIVE",
    "inService": true,
    "licenseNumber": "550007779",
    "licenseEffectiveDate": "01/14/2025",
    "licenseExpirationDate": "01/13/2026",
    "dataDate": "10/18/2025",
    "capacity": 0,
    "address": "427 W COLORADO ST, SUITE 102A",
    "city": "GLENDALE",
    "zip": "91204",
    "county": "LOS ANGELES",
    "phone": "(818) 660-6804",
    "lat": 34.142787,
    "lng": -118.262142
  },
  {
    "id": "980002546",
    "name": "KEY TO HEALTH HOMECARE, INC.",
    "npi": "1548703291",
    "hcaiId": "406197019",
    "businessName": "KEY TO HEALTH HOMECARE, INC.",
    "contactEmail": "KEYTOHEALTHHOMECARE@GMAIL.COM",
    "categoryName": "HOME HEALTH AGENCY",
    "categoryCode": "HHA",
    "licenseStatus": "ACTIVE",
    "inService": true,
    "licenseNumber": "980001635",
    "licenseEffectiveDate": "07/27/2025",
    "licenseExpirationDate": "07/26/2026",
    "dataDate": "10/18/2025",
    "capacity": 0,
    "address": "664 W BROADWAY, SUITE G",
    "city": "GLENDALE",
    "zip": "91204",
    "county": "LOS ANGELES",
    "phone": "(323) 844-2060",
    "lat": 34.14659601,
    "lng": -118.269937
  },
  {
    "id": "630021165",
    "name": "LEGACY OF TENDER CARE HOSPICE, INC.",
    "npi": null,
    "hcaiId": "406193368",
    "businessName": "LEGACY OF TENDER CARE HOSPICE, INC.",
    "contactEmail": "LEGACYOFTENDERCAREHOSPICE@GMAIL.COM",
    "categoryName": "HOSPICE",
    "categoryCode": "HOSPICE",
    "licenseStatus": "ACTIVE",
    "inService": true,
    "licenseNumber": "550007000",
    "licenseEffectiveDate": "10/15/2023",
    "licenseExpirationDate": "10/14/2025",
    "dataDate": "10/18/2025",
    "capacity": 0,
    "address": "3643 SAN FERNANDO RD, SUITE B",
    "city": "GLENDALE",
    "zip": "91204",
    "county": "LOS ANGELES",
    "phone": "(888) 551-4495",
    "lat": 34.121556,
    "lng": -118.253106
  },
  {
    "id": "630021740",
    "name": "LIFE LINE HOSPICE, INC.",
    "npi": null,
    "hcaiId": "406195752",
    "businessName": "LIFE LINE HOSPICE, INC.",
    "contactEmail": "LIFELINEHOSPICE2020@GMAIL.COM",
    "categoryName": "HOSPICE",
    "categoryCode": "HOSPICE",
    "licenseStatus": "ACTIVE",
    "inService": true,
    "licenseNumber": "550007740",
    "licenseEffectiveDate": "12/16/2023",
    "licenseExpirationDate": "12/15/2025",
    "dataDate": "10/18/2025",
    "capacity": 0,
    "address": "127 S BRAND BLVD, SUITE 227",
    "city": "GLENDALE",
    "zip": "91204",
    "county": "LOS ANGELES",
    "phone": null,
    "lat": 34.145271,
    "lng": -118.2554505
  },
  {
    "id": "630024601",
    "name": "LIFE OF HOPE HOME HEALTH",
    "npi": null,
    "hcaiId": "406195465",
    "businessName": "LIFE OF HOPE HOME HEALTH",
    "contactEmail": "LIFEOFHOPEHH@GMAIL.COM",
    "categoryName": "HOME HEALTH AGENCY",
    "categoryCode": "HHA",
    "licenseStatus": "ACTIVE",
    "inService": true,
    "licenseNumber": "550008106",
    "licenseEffectiveDate": "08/02/2025",
    "licenseExpirationDate": "08/01/2026",
    "dataDate": "10/18/2025",
    "capacity": 0,
    "address": "671 W BROADWAY, SUITE 101",
    "city": "GLENDALE",
    "zip": "91204",
    "county": "LOS ANGELES",
    "phone": "(747) 273-1233",
    "lat": 34.147107,
    "lng": -118.269486
  },
  {
    "id": "630018897",
    "name": "LIFETIME HOME HEALTH CARE, INC",
    "npi": "1649835174",
    "hcaiId": "406192244",
    "businessName": "LIFETIME HOME HEALTH CARE, INC",
    "contactEmail": "LIFETIMEHHCINC@GMAIL.COM",
    "categoryName": "HOME HEALTH AGENCY",
    "categoryCode": "HHA",
    "licenseStatus": "ACTIVE",
    "inService": true,
    "licenseNumber": "550005244",
    "licenseEffectiveDate": "01/09/2024",
    "licenseExpirationDate": "01/08/2025",
    "dataDate": "10/18/2025",
    "capacity": 0,
    "address": "600 W BROADWAY, SUITE 360",
    "city": "GLENDALE",
    "zip": "91204",
    "county": "LOS ANGELES",
    "phone": "(818) 649-1071",
    "lat": 34.146513,
    "lng": -118.2666555
  },
  {
    "id": "630025564",
    "name": "LILY GARDEN HEALTH SERVICES",
    "npi": null,
    "hcaiId": "406190030",
    "businessName": "LILY GARDEN HEALTH SERVICES",
    "contactEmail": "LILYGARDENHS@GMAIL.COM",
    "categoryName": "HOME HEALTH AGENCY",
    "categoryCode": "HHA",
    "licenseStatus": "ACTIVE",
    "inService": true,
    "licenseNumber": "550008665",
    "licenseEffectiveDate": "01/20/2024",
    "licenseExpirationDate": "07/19/2024",
    "dataDate": "10/18/2025",
    "capacity": 0,
    "address": "815 S CENTRAL AVE, SUITE 15",
    "city": "GLENDALE",
    "zip": "91204",
    "county": "LOS ANGELES",
    "phone": "(818) 484-5183",
    "lat": 34.136055,
    "lng": -118.2582675
  },
  {
    "id": "630022237",
    "name": "LOTUS BLOOM HOSPICE, INC",
    "npi": null,
    "hcaiId": "406197844",
    "businessName": "LOTUS BLOOM HOSPICE, INC",
    "contactEmail": "LOTUSBLOOMHOSPICE@GMAIL.COM",
    "categoryName": "HOSPICE",
    "categoryCode": "HOSPICE",
    "licenseStatus": "ACTIVE",
    "inService": true,
    "licenseNumber": "550007609",
    "licenseEffectiveDate": "12/18/2023",
    "licenseExpirationDate": "12/17/2025",
    "dataDate": "10/18/2025",
    "capacity": 0,
    "address": "127 S BRAND BLVD, SUITE 211",
    "city": "GLENDALE",
    "zip": "91204",
    "county": "LOS ANGELES",
    "phone": "(747) 737-3035",
    "lat": 34.145271,
    "lng": -118.2554505
  },
  {
    "id": "630022137",
    "name": "MADO HOSPICE INC",
    "npi": null,
    "hcaiId": "406195069",
    "businessName": "MADO HOSPICE INC",
    "contactEmail": "MADOHOSPCARE@GMAIL.COM",
    "categoryName": "HOSPICE",
    "categoryCode": "HOSPICE",
    "licenseStatus": "ACTIVE",
    "inService": true,
    "licenseNumber": "550007579",
    "licenseEffectiveDate": "12/18/2023",
    "licenseExpirationDate": "12/17/2025",
    "dataDate": "10/18/2025",
    "capacity": 0,
    "address": "127 S BRAND BLVD, SUITE 203",
    "city": "GLENDALE",
    "zip": "91204",
    "county": "LOS ANGELES",
    "phone": "(747) 237-9900",
    "lat": 34.145271,
    "lng": -118.2554505
  },
  {
    "id": "630017628",
    "name": "MEDEX HOME HEALTH SERVICES, INC.",
    "npi": null,
    "hcaiId": "406193274",
    "businessName": "MEDEX HOME HEALTH SERVICES, INC.",
    "contactEmail": "MEDEXHOMEHEALTH@YAHOO.COM",
    "categoryName": "HOME HEALTH AGENCY",
    "categoryCode": "HHA",
    "licenseStatus": "ACTIVE",
    "inService": true,
    "licenseNumber": "550006796",
    "licenseEffectiveDate": "09/14/2022",
    "licenseExpirationDate": "09/13/2023",
    "dataDate": "10/18/2025",
    "capacity": 0,
    "address": "436 W COLORADO ST, SUITE 113",
    "city": "GLENDALE",
    "zip": "91204",
    "county": "LOS ANGELES",
    "phone": "(818) 437-6667",
    "lat": 34.142238,
    "lng": -118.2624705
  },
  {
    "id": "630016475",
    "name": "MERAKI HOME HEALTH CARE, INC.",
    "npi": "1477928323",
    "hcaiId": "406190878",
    "businessName": "MERAKI HOME HEALTH CARE, INC.",
    "contactEmail": "MERAKIHOMEHEALTHCARE@GMAIL.COM",
    "categoryName": "HOME HEALTH AGENCY",
    "categoryCode": "HHA",
    "licenseStatus": "ACTIVE",
    "inService": true,
    "licenseNumber": "550004217",
    "licenseEffectiveDate": "03/22/2025",
    "licenseExpirationDate": "03/21/2026",
    "dataDate": "10/18/2025",
    "capacity": 0,
    "address": "600 W BROADWAY, SUITE 355",
    "city": "GLENDALE",
    "zip": "91204",
    "county": "LOS ANGELES",
    "phone": "(818) 506-3158",
    "lat": 34.146513,
    "lng": -118.2666555
  },
  {
    "id": "630011666",
    "name": "METROPOLITAN HEALTHCARE, INC.",
    "npi": "1942484381",
    "hcaiId": "406197225",
    "businessName": "METROPOLITAN HEALTHCARE, INC.",
    "contactEmail": "METROPOLITANHC1@YAHOO.COM",
    "categoryName": "HOME HEALTH AGENCY",
    "categoryCode": "HHA",
    "licenseStatus": "ACTIVE",
    "inService": true,
    "licenseNumber": "550000957",
    "licenseEffectiveDate": "01/02/2025",
    "licenseExpirationDate": "01/01/2026",
    "dataDate": "10/18/2025",
    "capacity": 0,
    "address": "1007 S CENTRAL AVE, SUITE 200",
    "city": "GLENDALE",
    "zip": "91204",
    "county": "LOS ANGELES",
    "phone": "(323) 960-2533",
    "lat": 34.134471,
    "lng": -118.258227
  },
  {
    "id": "630027740",
    "name": "MISSION CITY COMMUNITY NETWORK, INC.",
    "npi": null,
    "hcaiId": null,
    "businessName": null,
    "contactEmail": null,
    "categoryName": "PRIMARY CARE CLINIC",
    "categoryCode": "FQHC",
    "licenseStatus": null,
    "inService": null,
    "licenseNumber": null,
    "licenseEffectiveDate": null,
    "licenseExpirationDate": null,
    "dataDate": "10/18/2025",
    "capacity": 0,
    "address": "1204 S CENTRAL AVE",
    "city": "GLENDALE",
    "zip": "91204",
    "county": "LOS ANGELES",
    "phone": null,
    "lat": 34.13205898,
    "lng": -118.257558
  },
  {
    "id": "630019563",
    "name": "MISSION CITY COMMUNITY NETWORK, INC. - GLENDALE",
    "npi": "1346525912",
    "hcaiId": null,
    "businessName": "MISSION CITY COMMUNITY NETWORK, INC.",
    "contactEmail": null,
    "categoryName": "PRIMARY CARE CLINIC",
    "categoryCode": "COMTYC",
    "licenseStatus": "ACTIVE",
    "inService": true,
    "licenseNumber": "550001797",
    "licenseEffectiveDate": "12/30/2024",
    "licenseExpirationDate": "12/29/2025",
    "dataDate": "10/18/2025",
    "capacity": 0,
    "address": "1204 S CENTRAL AVE",
    "city": "GLENDALE",
    "zip": "91204",
    "county": "LOS ANGELES",
    "phone": "(818) 895-3100",
    "lat": 34.13205898,
    "lng": -118.257558
  },
  {
    "id": "630026894",
    "name": "MOTION HOME HEALTH CARE",
    "npi": null,
    "hcaiId": null,
    "businessName": "MOTION HOME HEALTH CARE",
    "contactEmail": "MOTIONHHC@GMAIL.COM",
    "categoryName": "HOME HEALTH AGENCY",
    "categoryCode": "HHA",
    "licenseStatus": "ACTIVE",
    "inService": true,
    "licenseNumber": "550009625",
    "licenseEffectiveDate": "08/17/2025",
    "licenseExpirationDate": "02/16/2026",
    "dataDate": "10/18/2025",
    "capacity": 0,
    "address": "127 S BRAND BLVD, SUITE 212",
    "city": "GLENDALE",
    "zip": "91204",
    "county": "LOS ANGELES",
    "phone": "(323) 767-7547",
    "lat": 34.145271,
    "lng": -118.2554505
  },
  {
    "id": "630027068",
    "name": "MULTIMED HOME CARE",
    "npi": null,
    "hcaiId": null,
    "businessName": "MULTIMED HOME HEALTH CARE",
    "contactEmail": "MANE@HOSPICEHHA.COM",
    "categoryName": "HOME HEALTH AGENCY",
    "categoryCode": "HHA",
    "licenseStatus": "ACTIVE",
    "inService": true,
    "licenseNumber": "550009549",
    "licenseEffectiveDate": "06/16/2025",
    "licenseExpirationDate": "12/15/2025",
    "dataDate": "10/18/2025",
    "capacity": 0,
    "address": "434 W COLORADO ST, SUITE 103",
    "city": "GLENDALE",
    "zip": "91204",
    "county": "LOS ANGELES",
    "phone": "(818) 649-1855",
    "lat": 34.14230699,
    "lng": -118.262484
  },
  {
    "id": "630020247",
    "name": "N&I HOSPICE, INC.",
    "npi": null,
    "hcaiId": "406193231",
    "businessName": "N&I HOSPICE, INC.",
    "contactEmail": "NANDIHOSPICE@GMAIL.COM",
    "categoryName": "HOSPICE",
    "categoryCode": "HOSPICE",
    "licenseStatus": "ACTIVE",
    "inService": true,
    "licenseNumber": "550006304",
    "licenseEffectiveDate": "08/12/2025",
    "licenseExpirationDate": "03/31/2027",
    "dataDate": "10/18/2025",
    "capacity": 0,
    "address": "726 WEST BROADWAY, SUITE G",
    "city": "GLENDALE",
    "zip": "91204",
    "county": "LOS ANGELES",
    "phone": "(747) 264-1282",
    "lat": 34.14644585,
    "lng": -118.2710573
  },
  {
    "id": "630026084",
    "name": "NEW CENTRAL HOME HEALTH, INC.",
    "npi": null,
    "hcaiId": null,
    "businessName": "NEW CENTRAL HOME HEALTH, INC.",
    "contactEmail": "NEWCENTRALMEDHH@YAHOO.COM",
    "categoryName": "HOME HEALTH AGENCY",
    "categoryCode": "HHA",
    "licenseStatus": "ACTIVE",
    "inService": true,
    "licenseNumber": "550009157",
    "licenseEffectiveDate": "05/24/2025",
    "licenseExpirationDate": "05/23/2026",
    "dataDate": "10/18/2025",
    "capacity": 0,
    "address": "815 S CENTRAL AVE, SUITE 16",
    "city": "GLENDALE",
    "zip": "91204",
    "county": "LOS ANGELES",
    "phone": "(818) 791-6630",
    "lat": 34.136055,
    "lng": -118.2582675
  },
  {
    "id": "630011565",
    "name": "NURSE CARE HEALTH GROUP, LLC",
    "npi": "1326389164",
    "hcaiId": "406198286",
    "businessName": "NURSE CARE HEALTH GROUP, LLC",
    "contactEmail": "PARISA@NURSECAREHEALTHGROUP.COM",
    "categoryName": "HOME HEALTH AGENCY",
    "categoryCode": "HHA",
    "licenseStatus": "ACTIVE",
    "inService": true,
    "licenseNumber": "550000801",
    "licenseEffectiveDate": "09/24/2025",
    "licenseExpirationDate": "09/23/2026",
    "dataDate": "10/18/2025",
    "capacity": 0,
    "address": "425 W BROADWAY, SUITE 213",
    "city": "GLENDALE",
    "zip": "91204",
    "county": "LOS ANGELES",
    "phone": "(213) 380-4444",
    "lat": 34.14710999,
    "lng": -118.262671
  },
  {
    "id": "630021982",
    "name": "NURTURE CARE HOSPICE, INC.",
    "npi": null,
    "hcaiId": "406193889",
    "businessName": "NURTURE CARE HOSPICE, INC.",
    "contactEmail": "NURTURECAREHOSPICE@YAHOO.COM",
    "categoryName": "HOSPICE",
    "categoryCode": "HOSPICE",
    "licenseStatus": "ACTIVE",
    "inService": true,
    "licenseNumber": "550007390",
    "licenseEffectiveDate": "12/03/2023",
    "licenseExpirationDate": "12/02/2025",
    "dataDate": "10/18/2025",
    "capacity": 0,
    "address": "600 W BROADWAY, SUITE 340",
    "city": "GLENDALE",
    "zip": "91204",
    "county": "LOS ANGELES",
    "phone": "(818) 312-8820",
    "lat": 34.146513,
    "lng": -118.2666555
  },
  {
    "id": "630012555",
    "name": "OLYMPIA HOSPICE AND PALLIATIVE CARE",
    "npi": null,
    "hcaiId": "406197470",
    "businessName": "SAN ANTONIO HOSPICE, INC.",
    "contactEmail": "OLYMPIAHOSPICE@GMAIL.COM",
    "categoryName": "HOSPICE",
    "categoryCode": "HOSPICE",
    "licenseStatus": "ACTIVE",
    "inService": true,
    "licenseNumber": "550001418",
    "licenseEffectiveDate": "11/08/2024",
    "licenseExpirationDate": "11/07/2026",
    "dataDate": "10/18/2025",
    "capacity": 0,
    "address": "419 W COLORADO ST, SUITE B",
    "city": "GLENDALE",
    "zip": "91204",
    "county": "LOS ANGELES",
    "phone": "(818) 238-9999",
    "lat": 34.142796,
    "lng": -118.261728
  },
  {
    "id": "630023742",
    "name": "PALMY HOME HEALTH, INC.",
    "npi": null,
    "hcaiId": "406195446",
    "businessName": "BABAYAN CORP.",
    "contactEmail": "PALMYHOMEHEALTH@YAHOO.COM",
    "categoryName": "HOME HEALTH AGENCY",
    "categoryCode": "HHA",
    "licenseStatus": "ACTIVE",
    "inService": true,
    "licenseNumber": "550008101",
    "licenseEffectiveDate": "07/12/2025",
    "licenseExpirationDate": "07/11/2026",
    "dataDate": "10/18/2025",
    "capacity": 0,
    "address": "600 W BROADWAY, SUITE 365",
    "city": "GLENDALE",
    "zip": "91204",
    "county": "LOS ANGELES",
    "phone": "(747) 271-3222",
    "lat": 34.14660598,
    "lng": -118.26664
  },
  {
    "id": "630024152",
    "name": "PAROS HOME HEALTH CARE, INC.",
    "npi": null,
    "hcaiId": null,
    "businessName": "PAROS HOME HEALTH CARE, INC.",
    "contactEmail": "PAROSHHC@GMAIL.COM",
    "categoryName": "HOME HEALTH AGENCY",
    "categoryCode": "HHA",
    "licenseStatus": "ACTIVE",
    "inService": true,
    "licenseNumber": "550008326",
    "licenseEffectiveDate": "07/04/2023",
    "licenseExpirationDate": "01/03/2024",
    "dataDate": "10/18/2025",
    "capacity": 0,
    "address": "434 W COLORADO ST, SUITE 204",
    "city": "GLENDALE",
    "zip": "91204",
    "county": "LOS ANGELES",
    "phone": "(818) 590-9990",
    "lat": 34.142238,
    "lng": -118.2624705
  },
  {
    "id": "630017839",
    "name": "PARTNERS FOR CARE, INC.",
    "npi": "1679071088",
    "hcaiId": "406192355",
    "businessName": "PARTNERS FOR CARE, INC.",
    "contactEmail": "MAGGIE@PFCHOMEHEALH.COM",
    "categoryName": "HOME HEALTH AGENCY",
    "categoryCode": "HHA",
    "licenseStatus": "ACTIVE",
    "inService": true,
    "licenseNumber": "550005245",
    "licenseEffectiveDate": "01/13/2025",
    "licenseExpirationDate": "01/12/2026",
    "dataDate": "10/18/2025",
    "capacity": 0,
    "address": "1007 S CENTRAL AVE, SUITE 103",
    "city": "GLENDALE",
    "zip": "91204",
    "county": "LOS ANGELES",
    "phone": "(424) 532-5522",
    "lat": 34.13451601,
    "lng": -118.258146
  },
  {
    "id": "630020596",
    "name": "PATHWAY HOME HEALTH SERVICES, INC.",
    "npi": null,
    "hcaiId": "406193209",
    "businessName": "PATHWAY HOME HEALTH SERVICES, INC.",
    "contactEmail": "PATHWAYHH@GMAIL.COM",
    "categoryName": "HOME HEALTH AGENCY",
    "categoryCode": "HHA",
    "licenseStatus": "ACTIVE",
    "inService": true,
    "licenseNumber": "550006893",
    "licenseEffectiveDate": "09/28/2025",
    "licenseExpirationDate": "09/27/2026",
    "dataDate": "10/18/2025",
    "capacity": 0,
    "address": "127 S BRAND BLVD, SUITE 208A",
    "city": "GLENDALE",
    "zip": "91204",
    "county": "LOS ANGELES",
    "phone": "(818) 732-1501",
    "lat": 34.14531232,
    "lng": -118.2555756
  },
  {
    "id": "630012279",
    "name": "PATRIOT HOME HEALTH CARE, INC.",
    "npi": "1528200425",
    "hcaiId": "406197438",
    "businessName": "PATRIOT HOME HEALTH CARE, INC.",
    "contactEmail": "PATRIOTHHC@YAHOO.COM",
    "categoryName": "HOME HEALTH AGENCY",
    "categoryCode": "HHA",
    "licenseStatus": "ACTIVE",
    "inService": true,
    "licenseNumber": "550001381",
    "licenseEffectiveDate": "05/26/2025",
    "licenseExpirationDate": "05/25/2026",
    "dataDate": "10/18/2025",
    "capacity": 0,
    "address": "440 W COLORADO ST, SUITE 215",
    "city": "GLENDALE",
    "zip": "91204",
    "county": "LOS ANGELES",
    "phone": "(818) 551-0757",
    "lat": 34.142238,
    "lng": -118.262799
  },
  {
    "id": "630025464",
    "name": "PEACEFUL HOME HEALTH CARE, INC.",
    "npi": null,
    "hcaiId": "406190067",
    "businessName": "PEACEFUL HOME HEALTH CARE, INC.",
    "contactEmail": "PEACEFULHOMEHC@GMAIL.COM",
    "categoryName": "HOME HEALTH AGENCY",
    "categoryCode": "HHA",
    "licenseStatus": "ACTIVE",
    "inService": true,
    "licenseNumber": "550008873",
    "licenseEffectiveDate": "11/30/2024",
    "licenseExpirationDate": "11/29/2025",
    "dataDate": "10/18/2025",
    "capacity": 0,
    "address": "457 W COLORADO ST, SUITE 202A",
    "city": "GLENDALE",
    "zip": "91204",
    "county": "LOS ANGELES",
    "phone": "(747) 297-2868",
    "lat": 34.142553,
    "lng": -118.262871
  },
  {
    "id": "630026096",
    "name": "POST CARE HOME HEALTH INC",
    "npi": null,
    "hcaiId": null,
    "businessName": "POST CARE HOME HEALTH INC",
    "contactEmail": "POSTCAREHHI@GMAIL.COM",
    "categoryName": "HOME HEALTH AGENCY",
    "categoryCode": "HHA",
    "licenseStatus": "ACTIVE",
    "inService": true,
    "licenseNumber": "550009320",
    "licenseEffectiveDate": "08/16/2025",
    "licenseExpirationDate": "08/15/2026",
    "dataDate": "10/18/2025",
    "capacity": 0,
    "address": "356 W COLORADO ST, SUITE D",
    "city": "GLENDALE",
    "zip": "91204",
    "county": "LOS ANGELES",
    "phone": "(818) 245-6331",
    "lat": 34.142247,
    "lng": -118.260405
  },
  {
    "id": "630021212",
    "name": "PRIMAL CARE HOSPICE, INC",
    "npi": null,
    "hcaiId": "406196071",
    "businessName": "PRIMAL CARE HOSPICE, INC",
    "contactEmail": "PRIMALCAREHOSPICE@GMAIL.COM",
    "categoryName": "HOSPICE",
    "categoryCode": "HOSPICE",
    "licenseStatus": "ACTIVE",
    "inService": true,
    "licenseNumber": "550006552",
    "licenseEffectiveDate": "07/14/2025",
    "licenseExpirationDate": "07/13/2027",
    "dataDate": "10/18/2025",
    "capacity": 0,
    "address": "815 S CENTRAL AVE, SUITE 26",
    "city": "GLENDALE",
    "zip": "91204",
    "county": "LOS ANGELES",
    "phone": "(818) 396-4769",
    "lat": 34.136055,
    "lng": -118.2582675
  },
  {
    "id": "630022148",
    "name": "PRIME PRO HOME HEALTH",
    "npi": null,
    "hcaiId": "406195583",
    "businessName": "PRIME PRO HOME HEALTH",
    "contactEmail": "PRIMEPROHHC@GMAIL.COM",
    "categoryName": "HOME HEALTH AGENCY",
    "categoryCode": "HHA",
    "licenseStatus": "ACTIVE",
    "inService": true,
    "licenseNumber": "550007486",
    "licenseEffectiveDate": "12/20/2022",
    "licenseExpirationDate": "12/19/2023",
    "dataDate": "10/18/2025",
    "capacity": 0,
    "address": "127 S BRAND BLVD, SUITE 209",
    "city": "GLENDALE",
    "zip": "91204",
    "county": "LOS ANGELES",
    "phone": "(818) 369-1181",
    "lat": 34.145271,
    "lng": -118.2554505
  },
  {
    "id": "630023462",
    "name": "PRINCIPAL HOME HEALTH CARE INC",
    "npi": null,
    "hcaiId": "406195243",
    "businessName": "PRINCIPAL HOME HEALTH CARE INC",
    "contactEmail": "PRINCIPALHOMEHEALTHCARE@OUTLOOK.COM",
    "categoryName": "HOME HEALTH AGENCY",
    "categoryCode": "HHA",
    "licenseStatus": "ACTIVE",
    "inService": true,
    "licenseNumber": "550007926",
    "licenseEffectiveDate": "03/31/2025",
    "licenseExpirationDate": "03/30/2026",
    "dataDate": "10/18/2025",
    "capacity": 0,
    "address": "457 W COLORADO ST, SUITE 202B",
    "city": "GLENDALE",
    "zip": "91204",
    "county": "LOS ANGELES",
    "phone": "(747) 292-5030",
    "lat": 34.142553,
    "lng": -118.262871
  },
  {
    "id": "630022212",
    "name": "PRO AM HOME HEALTH",
    "npi": null,
    "hcaiId": "406195705",
    "businessName": "PRO AM HOME HEALTH",
    "contactEmail": "INFO@PROAMHOMEHEALTH.COM",
    "categoryName": "HOME HEALTH AGENCY",
    "categoryCode": "HHA",
    "licenseStatus": "ACTIVE",
    "inService": true,
    "licenseNumber": "550007438",
    "licenseEffectiveDate": "11/22/2024",
    "licenseExpirationDate": "11/21/2025",
    "dataDate": "10/18/2025",
    "capacity": 0,
    "address": "127 S BRAND BLVD, SUITE 206",
    "city": "GLENDALE",
    "zip": "91204",
    "county": "LOS ANGELES",
    "phone": "(818) 572-0646",
    "lat": 34.145271,
    "lng": -118.2554505
  },
  {
    "id": "980001885",
    "name": "PROMPTCARE HEALTH SERVICES, INC.",
    "npi": "1285637603",
    "hcaiId": "406194973",
    "businessName": "PROMPTCARE HEALTH SERVICES, INC.",
    "contactEmail": "454PCARE@GMAIL.COM",
    "categoryName": "HOME HEALTH AGENCY",
    "categoryCode": "HHA",
    "licenseStatus": "ACTIVE",
    "inService": true,
    "licenseNumber": "980001082",
    "licenseEffectiveDate": "03/18/2025",
    "licenseExpirationDate": "03/17/2026",
    "dataDate": "10/18/2025",
    "capacity": 0,
    "address": "454 S CENTRAL AVE",
    "city": "GLENDALE",
    "zip": "91204",
    "county": "LOS ANGELES",
    "phone": "(818) 500-1902",
    "lat": 34.140978,
    "lng": -118.2574935
  },
  {
    "id": "630026719",
    "name": "PURE BALANCE HOME HEALTH CARE, INC.",
    "npi": null,
    "hcaiId": null,
    "businessName": "PURE BALANCE HOME HEALTH CARE, INC.",
    "contactEmail": "NBBCGLENDALE@YAHOO.COM",
    "categoryName": "HOME HEALTH AGENCY",
    "categoryCode": "HHA",
    "licenseStatus": "ACTIVE",
    "inService": true,
    "licenseNumber": "550009692",
    "licenseEffectiveDate": "09/06/2025",
    "licenseExpirationDate": "03/05/2026",
    "dataDate": "10/18/2025",
    "capacity": 0,
    "address": "427 W COLORADO ST, SUITE 103",
    "city": "GLENDALE",
    "zip": "91204",
    "county": "LOS ANGELES",
    "phone": "(818) 454-8789",
    "lat": 34.142787,
    "lng": -118.262142
  },
  {
    "id": "630025025",
    "name": "PURE SUNRISE HOME HEALTH INC",
    "npi": null,
    "hcaiId": "406196865",
    "businessName": "PURE SUNRISE HOME HEALTH INC",
    "contactEmail": "PURESUNHH@GMAIL.COM",
    "categoryName": "HOME HEALTH AGENCY",
    "categoryCode": "HHA",
    "licenseStatus": "ACTIVE",
    "inService": true,
    "licenseNumber": "550008388",
    "licenseEffectiveDate": "01/25/2025",
    "licenseExpirationDate": "01/24/2026",
    "dataDate": "10/18/2025",
    "capacity": 0,
    "address": "600 W BROADWAY, SUITE 250",
    "city": "GLENDALE",
    "zip": "91204",
    "county": "LOS ANGELES",
    "phone": "(800) 484-3554",
    "lat": 34.14660598,
    "lng": -118.26664
  },
  {
    "id": "630007621",
    "name": "R & A HOME HEALTH SERVICES, INC.",
    "npi": "1992831176",
    "hcaiId": "406196840",
    "businessName": "R & A HOME HEALTH SERVICES, INC.",
    "contactEmail": "INFO@RANDAHOMEHEALTH.COM",
    "categoryName": "HOME HEALTH AGENCY",
    "categoryCode": "HHA",
    "licenseStatus": "ACTIVE",
    "inService": true,
    "licenseNumber": "550000285",
    "licenseEffectiveDate": "11/30/2024",
    "licenseExpirationDate": "11/29/2025",
    "dataDate": "10/18/2025",
    "capacity": 0,
    "address": "600 W BROADWAY, SUITE 210",
    "city": "GLENDALE",
    "zip": "91204",
    "county": "LOS ANGELES",
    "phone": "(818) 956-8888",
    "lat": 34.146513,
    "lng": -118.2666555
  },
  {
    "id": "630018547",
    "name": "RADIUM HOME HEALTH CARE, INC.",
    "npi": null,
    "hcaiId": "406192101",
    "businessName": "RADIUM HOME HEALTH CARE, INC.",
    "contactEmail": "RADIUMHHC@GMAIL.COM",
    "categoryName": "HOME HEALTH AGENCY",
    "categoryCode": "HHA",
    "licenseStatus": "ACTIVE",
    "inService": true,
    "licenseNumber": "550005179",
    "licenseEffectiveDate": "12/14/2024",
    "licenseExpirationDate": "12/13/2025",
    "dataDate": "10/18/2025",
    "capacity": 0,
    "address": "127 S BRAND BLVD, SUITE 326",
    "city": "GLENDALE",
    "zip": "91204",
    "county": "LOS ANGELES",
    "phone": "(818) 900-9096",
    "lat": 34.145289,
    "lng": -118.255455
  },
  {
    "id": "630015116",
    "name": "REIGN HOSPICE",
    "npi": null,
    "hcaiId": "406198412",
    "businessName": "ROYAL HOSPICE CARE INC.",
    "contactEmail": "ROYALHOSPICECARE@GMAIL.COM",
    "categoryName": "HOSPICE",
    "categoryCode": "HOSPICE",
    "licenseStatus": "ACTIVE",
    "inService": true,
    "licenseNumber": "550003809",
    "licenseEffectiveDate": "10/11/2022",
    "licenseExpirationDate": "02/05/2023",
    "dataDate": "10/18/2025",
    "capacity": 0,
    "address": "412 W BROADWAY, SUITE 305",
    "city": "GLENDALE",
    "zip": "91204",
    "county": "LOS ANGELES",
    "phone": "(818) 905-7394",
    "lat": 34.146522,
    "lng": -118.2615525
  },
  {
    "id": "920000019",
    "name": "ROYAL PALMS POST ACUTE",
    "npi": "1396102943",
    "hcaiId": "206190639",
    "businessName": "ROYAL PALMS POST ACUTE, LLC",
    "contactEmail": "SHENRY@ROYALPALMSHEALTH.COM",
    "categoryName": "SKILLED NURSING FACILITY",
    "categoryCode": "SNF",
    "licenseStatus": "ACTIVE",
    "inService": true,
    "licenseNumber": "920000054",
    "licenseEffectiveDate": "06/16/2025",
    "licenseExpirationDate": "12/21/2025",
    "dataDate": "10/18/2025",
    "capacity": 140,
    "address": "630 W BROADWAY",
    "city": "GLENDALE",
    "zip": "91204",
    "county": "LOS ANGELES",
    "phone": "(818) 247-3395",
    "lat": 34.146495,
    "lng": -118.2676275
  },
  {
    "id": "630026299",
    "name": "RUBY HOME HEALTH, INC.",
    "npi": null,
    "hcaiId": null,
    "businessName": "RUBY HOME HEALTH, INC.",
    "contactEmail": "RUBYHHCINC@GMAIL.COM",
    "categoryName": "HOME HEALTH AGENCY",
    "categoryCode": "HHA",
    "licenseStatus": "ACTIVE",
    "inService": true,
    "licenseNumber": "550009110",
    "licenseEffectiveDate": "05/01/2025",
    "licenseExpirationDate": "04/30/2026",
    "dataDate": "10/18/2025",
    "capacity": 0,
    "address": "600 W BROADWAY, SUITE 337",
    "city": "GLENDALE",
    "zip": "91204",
    "county": "LOS ANGELES",
    "phone": "(213) 349-3818",
    "lat": 34.146513,
    "lng": -118.2666555
  },
  {
    "id": "630024838",
    "name": "SAFE AND SOUND HOME HEALTH CARE INC",
    "npi": null,
    "hcaiId": null,
    "businessName": "SAFE AND SOUND HOME HEALTH CARE INC",
    "contactEmail": "NUNEMART@HOTMAIL.COM",
    "categoryName": "HOME HEALTH AGENCY",
    "categoryCode": "HHA",
    "licenseStatus": "ACTIVE",
    "inService": true,
    "licenseNumber": "550009307",
    "licenseEffectiveDate": "08/16/2025",
    "licenseExpirationDate": "08/15/2026",
    "dataDate": "10/18/2025",
    "capacity": 0,
    "address": "127 S BRAND BLVD, SUITE 324",
    "city": "GLENDALE",
    "zip": "91204",
    "county": "LOS ANGELES",
    "phone": "(747) 215-9082",
    "lat": 34.145271,
    "lng": -118.2554505
  },
  {
    "id": "630018073",
    "name": "SAFE CARE HOME HEALTH INC",
    "npi": null,
    "hcaiId": "406191986",
    "businessName": "SAFE CARE HOME HEALTH INC",
    "contactEmail": "INFO@SAFECAREHOMEHEALTH.COM",
    "categoryName": "HOME HEALTH AGENCY",
    "categoryCode": "HHA",
    "licenseStatus": "ACTIVE",
    "inService": true,
    "licenseNumber": "550005025",
    "licenseEffectiveDate": "10/16/2025",
    "licenseExpirationDate": "10/15/2026",
    "dataDate": "10/18/2025",
    "capacity": 0,
    "address": "815 S CENTRAL AVE, SUITE 1A",
    "city": "GLENDALE",
    "zip": "91204",
    "county": "LOS ANGELES",
    "phone": "(818) 666-3011",
    "lat": 34.136055,
    "lng": -118.2582675
  },
  {
    "id": "630022214",
    "name": "SAINT GEORGE HOME HEALTH",
    "npi": null,
    "hcaiId": "406193471",
    "businessName": "SAINT GEORGE HOME HEALTH",
    "contactEmail": "STGEORGEHHC@GMAIL.COM",
    "categoryName": "HOME HEALTH AGENCY",
    "categoryCode": "HHA",
    "licenseStatus": "ACTIVE",
    "inService": true,
    "licenseNumber": "550007103",
    "licenseEffectiveDate": "11/01/2024",
    "licenseExpirationDate": "10/31/2025",
    "dataDate": "10/18/2025",
    "capacity": 0,
    "address": "127 S BRAND BLVD, SUITE 218",
    "city": "GLENDALE",
    "zip": "91204",
    "county": "LOS ANGELES",
    "phone": "(818) 369-1167",
    "lat": 34.145271,
    "lng": -118.2554505
  },
  {
    "id": "630026102",
    "name": "SOLO HOME HEALTH CARE INC",
    "npi": null,
    "hcaiId": null,
    "businessName": "SOLO HOME HEALTH CARE INC",
    "contactEmail": "SOLOHOMEHEALTH@GMAIL.COM",
    "categoryName": "HOME HEALTH AGENCY",
    "categoryCode": "HHA",
    "licenseStatus": "ACTIVE",
    "inService": true,
    "licenseNumber": "550009796",
    "licenseEffectiveDate": "09/29/2025",
    "licenseExpirationDate": "03/28/2026",
    "dataDate": "10/18/2025",
    "capacity": 0,
    "address": "1512 GARDENA AVE",
    "city": "GLENDALE",
    "zip": "91204",
    "county": "LOS ANGELES",
    "phone": "(747) 737-2142",
    "lat": 34.12656175,
    "lng": -118.2595281
  },
  {
    "id": "630026572",
    "name": "ST. GREGORY HOME HEALTH CARE",
    "npi": null,
    "hcaiId": "406190261",
    "businessName": "ST. GREGORY HOME HEALTH CARE",
    "contactEmail": "ST.GREGORYHHC@GMAIL.COM",
    "categoryName": "HOME HEALTH AGENCY",
    "categoryCode": "HHA",
    "licenseStatus": "ACTIVE",
    "inService": true,
    "licenseNumber": "550008968",
    "licenseEffectiveDate": "02/28/2025",
    "licenseExpirationDate": "02/27/2026",
    "dataDate": "10/18/2025",
    "capacity": 0,
    "address": "664 W BROADWAY, UNIT E",
    "city": "GLENDALE",
    "zip": "91204",
    "county": "LOS ANGELES",
    "phone": "(628) 561-4136",
    "lat": 34.146495,
    "lng": -118.2700125
  },
  {
    "id": "630000761",
    "name": "ST. LUKE HOME HEALTH CARE, INC.",
    "npi": "1255543211",
    "hcaiId": "406197023",
    "businessName": "GEMSONS CORPORATION DBA ST. LUKE HOME HEALTH CARE, INC.",
    "contactEmail": "STLUKEGINN@GMAIL.COM",
    "categoryName": "HOME HEALTH AGENCY",
    "categoryCode": "HHA",
    "licenseStatus": "ACTIVE",
    "inService": true,
    "licenseNumber": "550000438",
    "licenseEffectiveDate": "03/06/2025",
    "licenseExpirationDate": "03/05/2026",
    "dataDate": "10/18/2025",
    "capacity": 0,
    "address": "412 W BROADWAY, SUITE 216",
    "city": "GLENDALE",
    "zip": "91204",
    "county": "LOS ANGELES",
    "phone": "(818) 956-9878",
    "lat": 34.146522,
    "lng": -118.2615525
  },
  {
    "id": "060001879",
    "name": "ST. MARY'S ADULT DAY HEALTH CARE CENTER",
    "npi": null,
    "hcaiId": null,
    "businessName": "MONTEBELLO ADULT DAY HEALTH CARE, INC.",
    "contactEmail": "JACKIECHILINGARYAN@GMAIL.COM",
    "categoryName": "ADULT DAY HEALTH CARE",
    "categoryCode": "ADHC",
    "licenseStatus": "ACTIVE",
    "inService": true,
    "licenseNumber": "060000696",
    "licenseEffectiveDate": "05/15/2025",
    "licenseExpirationDate": "05/14/2026",
    "dataDate": "10/18/2025",
    "capacity": 0,
    "address": "1827 S BRAND BLVD",
    "city": "GLENDALE",
    "zip": "91204",
    "county": "LOS ANGELES",
    "phone": "(818) 543-5900",
    "lat": 34.123059,
    "lng": -118.255563
  },
  {
    "id": "630016030",
    "name": "STAR HOME HEALTH CARE INC.",
    "npi": "1174902894",
    "hcaiId": "406198354",
    "businessName": "STAR HOME HEALTH CARE INC.",
    "contactEmail": "STARHHCA@GMAIL.COM",
    "categoryName": "HOME HEALTH AGENCY",
    "categoryCode": "HHA",
    "licenseStatus": "ACTIVE",
    "inService": true,
    "licenseNumber": "550003529",
    "licenseEffectiveDate": "05/24/2025",
    "licenseExpirationDate": "05/23/2026",
    "dataDate": "10/18/2025",
    "capacity": 0,
    "address": "434 W COLORADO ST, SUITE 202",
    "city": "GLENDALE",
    "zip": "91204",
    "county": "LOS ANGELES",
    "phone": "(818) 588-3395",
    "lat": 34.142238,
    "lng": -118.2624705
  },
  {
    "id": "630023944",
    "name": "SUNNY DAY HOME HEALTH CARE INC.",
    "npi": null,
    "hcaiId": "406195357",
    "businessName": "SUNNY DAY HOME HEALTH CARE INC.",
    "contactEmail": "SUNNYDAYHOMEHEALTH@GMAIL.COM",
    "categoryName": "HOME HEALTH AGENCY",
    "categoryCode": "HHA",
    "licenseStatus": "ACTIVE",
    "inService": true,
    "licenseNumber": "550007986",
    "licenseEffectiveDate": "05/12/2025",
    "licenseExpirationDate": "05/11/2026",
    "dataDate": "10/18/2025",
    "capacity": 0,
    "address": "671 W BROADWAY, UNIT 106",
    "city": "GLENDALE",
    "zip": "91204",
    "county": "LOS ANGELES",
    "phone": "(818) 334-3331",
    "lat": 34.147107,
    "lng": -118.269486
  },
  {
    "id": "630014599",
    "name": "SUNNY DAYS HOSPICE CARE INC.",
    "npi": "1033544218",
    "hcaiId": "406198361",
    "businessName": "SUNNY DAYS HOSPICE CARE, INC.",
    "contactEmail": "CARE@SUNNYHOSPICE.COM",
    "categoryName": "HOSPICE",
    "categoryCode": "HOSPICE",
    "licenseStatus": "ACTIVE",
    "inService": true,
    "licenseNumber": "550002992",
    "licenseEffectiveDate": "01/30/2023",
    "licenseExpirationDate": "01/29/2025",
    "dataDate": "10/18/2025",
    "capacity": 0,
    "address": "600 W BROADWAY, SUITE 260",
    "city": "GLENDALE",
    "zip": "91204",
    "county": "LOS ANGELES",
    "phone": "(818) 646-1100",
    "lat": 34.146513,
    "lng": -118.2666555
  },
  {
    "id": "630022390",
    "name": "SUNNY LIFE HOME HEALTH CARE INC",
    "npi": null,
    "hcaiId": "406195324",
    "businessName": "SUNNY LIFE HOME HEALTH CARE INC",
    "contactEmail": "SUNNYLIFEHOMEHEALTHCARE@GMAIL.COM",
    "categoryName": "HOME HEALTH AGENCY",
    "categoryCode": "HHA",
    "licenseStatus": "ACTIVE",
    "inService": true,
    "licenseNumber": "550007756",
    "licenseEffectiveDate": "01/06/2025",
    "licenseExpirationDate": "01/05/2026",
    "dataDate": "10/18/2025",
    "capacity": 0,
    "address": "464 S CENTRAL AVE",
    "city": "GLENDALE",
    "zip": "91204",
    "county": "LOS ANGELES",
    "phone": "(626) 800-0135",
    "lat": 34.14082402,
    "lng": -118.257543
  },
  {
    "id": "630017570",
    "name": "SUNRISE HOME HEALTH SERVICES, INC.",
    "npi": "1043733421",
    "hcaiId": "406191877",
    "businessName": "SUNRISE HOME HEALTH SERVICES, INC.",
    "contactEmail": "SUNRISEHOMEHS@HOTMAIL.COM",
    "categoryName": "HOME HEALTH AGENCY",
    "categoryCode": "HHA",
    "licenseStatus": "ACTIVE",
    "inService": true,
    "licenseNumber": "550004575",
    "licenseEffectiveDate": "03/09/2025",
    "licenseExpirationDate": "03/08/2026",
    "dataDate": "10/18/2025",
    "capacity": 0,
    "address": "412 W BROADWAY, UNIT 201",
    "city": "GLENDALE",
    "zip": "91204",
    "county": "LOS ANGELES",
    "phone": "(323) 707-4005",
    "lat": 34.146522,
    "lng": -118.2615525
  },
  {
    "id": "630027286",
    "name": "SUNSET ADVANCED HOME HEALTH CARE INC",
    "npi": null,
    "hcaiId": null,
    "businessName": "SUNSET ADVANCED HOME HEALTH CARE INC.",
    "contactEmail": "SUNSETADVANCEDHOMEHEALTH@GMAIL.COM",
    "categoryName": "HOME HEALTH AGENCY",
    "categoryCode": "HHA",
    "licenseStatus": "ACTIVE",
    "inService": true,
    "licenseNumber": "550009718",
    "licenseEffectiveDate": "09/14/2025",
    "licenseExpirationDate": "03/13/2026",
    "dataDate": "10/18/2025",
    "capacity": 0,
    "address": "730 S CENTRAL AVE, SUITE 218",
    "city": "GLENDALE",
    "zip": "91204",
    "county": "LOS ANGELES",
    "phone": "(747) 777-4892",
    "lat": 34.13699198,
    "lng": -118.257038
  },
  {
    "id": "630022370",
    "name": "SVS HOSPICE CARE, INC",
    "npi": null,
    "hcaiId": "406195140",
    "businessName": "SVS HOSPICE CARE, INC",
    "contactEmail": "SVSHOSPICECARE@GMAIL.COM",
    "categoryName": "HOSPICE",
    "categoryCode": "HOSPICE",
    "licenseStatus": "ACTIVE",
    "inService": true,
    "licenseNumber": "550007594",
    "licenseEffectiveDate": "01/11/2024",
    "licenseExpirationDate": "12/20/2025",
    "dataDate": "10/18/2025",
    "capacity": 0,
    "address": "127 S BRAND BLVD, SUITE 118",
    "city": "GLENDALE",
    "zip": "91204",
    "county": "LOS ANGELES",
    "phone": "(747) 272-9582",
    "lat": 34.14529099,
    "lng": -118.25547
  },
  {
    "id": "630024916",
    "name": "THEMIS HOME HEALTH, INC.",
    "npi": null,
    "hcaiId": "406196546",
    "businessName": "THEMIS HOME HEALTH, INC.",
    "contactEmail": "THEMISHOMEHEALTH@GMAIL.COM",
    "categoryName": "HOME HEALTH AGENCY",
    "categoryCode": "HHA",
    "licenseStatus": "ACTIVE",
    "inService": true,
    "licenseNumber": "550008490",
    "licenseEffectiveDate": "03/09/2025",
    "licenseExpirationDate": "03/08/2026",
    "dataDate": "10/18/2025",
    "capacity": 0,
    "address": "427 W COLORADO ST, SUITE 102C",
    "city": "GLENDALE",
    "zip": "91204",
    "county": "LOS ANGELES",
    "phone": "(747) 444-1893",
    "lat": 34.142787,
    "lng": -118.262142
  },
  {
    "id": "630025409",
    "name": "TOP PRIORITY HOME HEALTH CARE, INC.",
    "npi": null,
    "hcaiId": "406198098",
    "businessName": "TOP PRIORITY HOME HEALTH CARE, INC.",
    "contactEmail": "TOPPRIORITYHH@GMAIL.COM",
    "categoryName": "HOME HEALTH AGENCY",
    "categoryCode": "HHA",
    "licenseStatus": "ACTIVE",
    "inService": true,
    "licenseNumber": "550008803",
    "licenseEffectiveDate": "09/11/2024",
    "licenseExpirationDate": "09/10/2025",
    "dataDate": "10/18/2025",
    "capacity": 0,
    "address": "127 S BRAND BLVD, SUITE 313",
    "city": "GLENDALE",
    "zip": "91204",
    "county": "LOS ANGELES",
    "phone": "(818) 939-6258",
    "lat": 34.145289,
    "lng": -118.2554685
  },
  {
    "id": "630026168",
    "name": "TOP TIER HOME HEALTH AGENCY LLC",
    "npi": null,
    "hcaiId": null,
    "businessName": "TOP TIER HOME HEALTH AGENCY LLC",
    "contactEmail": "TOPTIERHHHA@GMAIL.COM",
    "categoryName": "HOME HEALTH AGENCY",
    "categoryCode": "HHA",
    "licenseStatus": "ACTIVE",
    "inService": true,
    "licenseNumber": "550009047",
    "licenseEffectiveDate": "01/24/2025",
    "licenseExpirationDate": "01/23/2026",
    "dataDate": "10/18/2025",
    "capacity": 0,
    "address": "626 W COLORADO ST",
    "city": "GLENDALE",
    "zip": "91204",
    "county": "LOS ANGELES",
    "phone": "(818) 606-5313",
    "lat": 34.142157,
    "lng": -118.2684195
  },
  {
    "id": "980001419",
    "name": "TOTAL HOME HEALTH",
    "npi": "1699766212",
    "hcaiId": "406196950",
    "businessName": "TOTAL HOME HEALTH",
    "contactEmail": "TOTALDTLA@GMAIL.COM",
    "categoryName": "HOME HEALTH AGENCY",
    "categoryCode": "HHA",
    "licenseStatus": "ACTIVE",
    "inService": true,
    "licenseNumber": "980000830",
    "licenseEffectiveDate": "02/25/2025",
    "licenseExpirationDate": "02/24/2026",
    "dataDate": "10/18/2025",
    "capacity": 0,
    "address": "440 W COLORADO ST, SUITE 208A",
    "city": "GLENDALE",
    "zip": "91204",
    "county": "LOS ANGELES",
    "phone": "(213) 250-2022",
    "lat": 34.14230699,
    "lng": -118.262802
  },
  {
    "id": "630013806",
    "name": "TRADITIONAL HOSPICE SERVICES, INC.",
    "npi": null,
    "hcaiId": "406198232",
    "businessName": "TRADITIONAL HOSPICE SERVICES, INC",
    "contactEmail": "TRADITIONALHOSPICESERVICES@YAHOO.COM",
    "categoryName": "HOSPICE",
    "categoryCode": "HOSPICE",
    "licenseStatus": "ACTIVE",
    "inService": true,
    "licenseNumber": "550002335",
    "licenseEffectiveDate": "06/21/2025",
    "licenseExpirationDate": "06/20/2027",
    "dataDate": "10/18/2025",
    "capacity": 0,
    "address": "427 W COLORADO ST, SUITE 204",
    "city": "GLENDALE",
    "zip": "91204",
    "county": "LOS ANGELES",
    "phone": "(818) 396-5488",
    "lat": 34.142787,
    "lng": -118.262142
  },
  {
    "id": "630021354",
    "name": "UNI HOSPICE, INC,.",
    "npi": null,
    "hcaiId": "406193512",
    "businessName": "UNI HOSPICE, INC.",
    "contactEmail": "UNIHOSPICEINC@GMAIL.COM",
    "categoryName": "HOSPICE",
    "categoryCode": "HOSPICE",
    "licenseStatus": "ACTIVE",
    "inService": true,
    "licenseNumber": "550006707",
    "licenseEffectiveDate": "08/23/2025",
    "licenseExpirationDate": "08/22/2027",
    "dataDate": "10/18/2025",
    "capacity": 0,
    "address": "434 W COLORADO ST, SUITE 203",
    "city": "GLENDALE",
    "zip": "91204",
    "county": "LOS ANGELES",
    "phone": "(747) 307-3195",
    "lat": 34.142238,
    "lng": -118.2624705
  },
  {
    "id": "630025945",
    "name": "US CENTRAL HOME HEALTH CARE INC",
    "npi": null,
    "hcaiId": null,
    "businessName": "US CENTRAL HOME HEALTH CARE INC",
    "contactEmail": "USCENTRALHH@YAHOO.COM",
    "categoryName": "HOME HEALTH AGENCY",
    "categoryCode": "HHA",
    "licenseStatus": "ACTIVE",
    "inService": true,
    "licenseNumber": "550009066",
    "licenseEffectiveDate": "04/05/2025",
    "licenseExpirationDate": "04/04/2026",
    "dataDate": "10/18/2025",
    "capacity": 0,
    "address": "815 S CENTRAL AVE, SUITE 27",
    "city": "GLENDALE",
    "zip": "91204",
    "county": "LOS ANGELES",
    "phone": "(818) 538-7326",
    "lat": 34.136055,
    "lng": -118.2582675
  },
  {
    "id": "630025319",
    "name": "USSMART HOME HEALTH CARE",
    "npi": null,
    "hcaiId": "406197306",
    "businessName": "USSMART HOME HEALTH CARE",
    "contactEmail": "USSMARTHHC@GMAIL.COM",
    "categoryName": "HOME HEALTH AGENCY",
    "categoryCode": "HHA",
    "licenseStatus": "ACTIVE",
    "inService": true,
    "licenseNumber": "550008478",
    "licenseEffectiveDate": "08/14/2025",
    "licenseExpirationDate": "03/26/2026",
    "dataDate": "10/18/2025",
    "capacity": 0,
    "address": "434 WEST COLORADO STREET, UNIT 102",
    "city": "GLENDALE",
    "zip": "91204",
    "county": "LOS ANGELES",
    "phone": "(747) 977-5956",
    "lat": 34.14224169,
    "lng": -118.262594
  },
  {
    "id": "630017468",
    "name": "V & V HOME HEALTH INC.",
    "npi": "1497276034",
    "hcaiId": "406191613",
    "businessName": "V & V HOME HEALTH INC.",
    "contactEmail": "VANDVHOMEHEALTH@YAHOO.COM",
    "categoryName": "HOME HEALTH AGENCY",
    "categoryCode": "HHA",
    "licenseStatus": "ACTIVE",
    "inService": true,
    "licenseNumber": "550004636",
    "licenseEffectiveDate": "10/14/2025",
    "licenseExpirationDate": "04/12/2026",
    "dataDate": "10/18/2025",
    "capacity": 0,
    "address": "360 W COLORADO ST, SUITE A",
    "city": "GLENDALE",
    "zip": "91204",
    "county": "LOS ANGELES",
    "phone": "(818) 918-1592",
    "lat": 34.14222,
    "lng": -118.260603
  },
  {
    "id": "630022371",
    "name": "VALLEY GLEN HOSPICE INC",
    "npi": null,
    "hcaiId": "406190239",
    "businessName": "VALLEY GLEN HOSPICE INC",
    "contactEmail": "VALLEYGLENHOSPICE@GMAIL.COM",
    "categoryName": "HOSPICE",
    "categoryCode": "HOSPICE",
    "licenseStatus": "ACTIVE",
    "inService": true,
    "licenseNumber": "550007603",
    "licenseEffectiveDate": "12/18/2023",
    "licenseExpirationDate": "12/17/2025",
    "dataDate": "10/18/2025",
    "capacity": 0,
    "address": "127 S BRAND BLVD, SUITE 215",
    "city": "GLENDALE",
    "zip": "91204",
    "county": "LOS ANGELES",
    "phone": "(818) 398-4343",
    "lat": 34.145271,
    "lng": -118.2554505
  },
  {
    "id": "630011536",
    "name": "VALLEY UNITED HOME HEALTH, INC",
    "npi": "1952506032",
    "hcaiId": "406197399",
    "businessName": "VALLEY UNITED HOME HEALTH, INC",
    "contactEmail": "VALLEYUNITEDHOMEHEALTH@GMAIL.COM",
    "categoryName": "HOME HEALTH AGENCY",
    "categoryCode": "HHA",
    "licenseStatus": "ACTIVE",
    "inService": true,
    "licenseNumber": "550000822",
    "licenseEffectiveDate": "12/27/2024",
    "licenseExpirationDate": "12/26/2025",
    "dataDate": "10/18/2025",
    "capacity": 0,
    "address": "427 W COLORADO ST, SUITE 205",
    "city": "GLENDALE",
    "zip": "91204",
    "county": "LOS ANGELES",
    "phone": "(818) 247-2673",
    "lat": 34.142787,
    "lng": -118.262142
  },
  {
    "id": "630024125",
    "name": "VIRTUE HOME HEALTH CARE, INC.",
    "npi": null,
    "hcaiId": null,
    "businessName": "VIRTUE HOME HEALTH CARE, INC.",
    "contactEmail": "VIRTUEHOMEHEALTHCAREINC@GMAIL.COM",
    "categoryName": "HOME HEALTH AGENCY",
    "categoryCode": "HHA",
    "licenseStatus": "ACTIVE",
    "inService": true,
    "licenseNumber": "550008259",
    "licenseEffectiveDate": "06/01/2023",
    "licenseExpirationDate": "11/30/2023",
    "dataDate": "10/18/2025",
    "capacity": 0,
    "address": "730 S CENTRAL AVE, SUITE 202",
    "city": "GLENDALE",
    "zip": "91204",
    "county": "LOS ANGELES",
    "phone": "(747) 444-4307",
    "lat": 34.137189,
    "lng": -118.2572325
  },
  {
    "id": "630018749",
    "name": "VITALITY HOME HEALTH CARE, INC.",
    "npi": "1154882850",
    "hcaiId": "406192473",
    "businessName": "VITALITY HOME HEALTH CARE, INC.",
    "contactEmail": "VITALITYHHC@YAHOO.COM",
    "categoryName": "HOME HEALTH AGENCY",
    "categoryCode": "HHA",
    "licenseStatus": "ACTIVE",
    "inService": true,
    "licenseNumber": "550005356",
    "licenseEffectiveDate": "03/09/2025",
    "licenseExpirationDate": "03/08/2026",
    "dataDate": "10/18/2025",
    "capacity": 0,
    "address": "427 W COLORADO ST, SUITE 105",
    "city": "GLENDALE",
    "zip": "91204",
    "county": "LOS ANGELES",
    "phone": "(747) 240-6949",
    "lat": 34.142787,
    "lng": -118.262142
  },
  {
    "id": "630017584",
    "name": "VRT HOME HEALTH CARE",
    "npi": null,
    "hcaiId": "406192115",
    "businessName": "VRT HOME HEALTH CARE",
    "contactEmail": "VRTCARE@GMAIL.COM",
    "categoryName": "HOME HEALTH AGENCY",
    "categoryCode": "HHA",
    "licenseStatus": "ACTIVE",
    "inService": true,
    "licenseNumber": "550005140",
    "licenseEffectiveDate": "12/10/2024",
    "licenseExpirationDate": "12/09/2025",
    "dataDate": "10/18/2025",
    "capacity": 0,
    "address": "600 W BROADWAY, SUITE 240B",
    "city": "GLENDALE",
    "zip": "91204",
    "county": "LOS ANGELES",
    "phone": "(818) 484-7508",
    "lat": 34.146537,
    "lng": -118.266645
  },
  {
    "id": "630024164",
    "name": "WELL CENTRE HOME HEALTH CARE, INC",
    "npi": null,
    "hcaiId": "406196529",
    "businessName": "WELL CENTRE HOME HEALTH CARE, INC",
    "contactEmail": "WELLCENTREHOMEHEALTH@GMAIL.COM",
    "categoryName": "HOME HEALTH AGENCY",
    "categoryCode": "HHA",
    "licenseStatus": "ACTIVE",
    "inService": true,
    "licenseNumber": "550008202",
    "licenseEffectiveDate": "10/06/2024",
    "licenseExpirationDate": "10/05/2025",
    "dataDate": "10/18/2025",
    "capacity": 0,
    "address": "815 S CENTRAL AVE, SUITE 24",
    "city": "GLENDALE",
    "zip": "91204",
    "county": "LOS ANGELES",
    "phone": "(747) 215-6498",
    "lat": 34.136055,
    "lng": -118.2582675
  },
  {
    "id": "630026378",
    "name": "WELLNET HOME HEALTH",
    "npi": null,
    "hcaiId": null,
    "businessName": "WELLNET HOME HEALTH",
    "contactEmail": "WELLNET365@GMAIL.COM",
    "categoryName": "HOME HEALTH AGENCY",
    "categoryCode": "HHA",
    "licenseStatus": "ACTIVE",
    "inService": true,
    "licenseNumber": "550009121",
    "licenseEffectiveDate": "03/28/2025",
    "licenseExpirationDate": "03/27/2026",
    "dataDate": "10/18/2025",
    "capacity": 0,
    "address": "664 W BROADWAY, UNIT J",
    "city": "GLENDALE",
    "zip": "91204",
    "county": "LOS ANGELES",
    "phone": "(626) 726-2006",
    "lat": 34.146495,
    "lng": -118.2700125
  },
  {
    "id": "630024366",
    "name": "WESTPOINT HOME HEALTH, INC.",
    "npi": null,
    "hcaiId": "406197838",
    "businessName": "WESTPOINT HOME HEALTH, INC.",
    "contactEmail": "WESTPOINTHEALTH@GMAIL.COM",
    "categoryName": "HOME HEALTH AGENCY",
    "categoryCode": "HHA",
    "licenseStatus": "ACTIVE",
    "inService": true,
    "licenseNumber": "550008322",
    "licenseEffectiveDate": "01/09/2025",
    "licenseExpirationDate": "01/08/2026",
    "dataDate": "10/18/2025",
    "capacity": 0,
    "address": "127 S BRAND BLVD, SUITE 309",
    "city": "GLENDALE",
    "zip": "91204",
    "county": "LOS ANGELES",
    "phone": "(818) 626-3699",
    "lat": 34.145271,
    "lng": -118.2554505
  },
  {
    "id": "630026081",
    "name": "YOUR BEST CARE HOME HEALTH",
    "npi": null,
    "hcaiId": null,
    "businessName": "YOUR BEST CARE HOME HEALTH",
    "contactEmail": "YOURBESTCAREHOMEHEALTH@GMAIL.COM",
    "categoryName": "HOME HEALTH AGENCY",
    "categoryCode": "HHA",
    "licenseStatus": "ACTIVE",
    "inService": true,
    "licenseNumber": "550009598",
    "licenseEffectiveDate": "07/07/2025",
    "licenseExpirationDate": "01/06/2026",
    "dataDate": "10/18/2025",
    "capacity": 0,
    "address": "419 W PALMER AVE, SUITE A",
    "city": "GLENDALE",
    "zip": "91204",
    "county": "LOS ANGELES",
    "phone": "(818) 588-4526",
    "lat": 34.1316,
    "lng": -118.2625245
  }
]