[
  {
    "id": "630019648",
    "name": "1ST RESPONSE HOSPICE, INC.",
    "npi": "1689211658",
    "hcaiId": "406192833",
    "businessName": "1ST RESPONSE HOSPICE, INC.",
    "contactEmail": "1STRESPONSEHOSPICE@GMAIL.COM",
    "categoryName": "HOSPICE",
    "categoryCode": "HOSPICE",
    "licenseStatus": "ACTIVE",
    "inService": true,
    "licenseNumber": "550005700",
    "licenseEffectiveDate": "08/27/2024",
    "licenseExpirationDate": "08/26/2026",
    "dataDate": "10/18/2025",
    "capacity": 0,
    "address": "421 ARDEN AVE",
    "city": "GLENDALE",
    "zip": "91203",
    "county": "LOS ANGELES",
    "phone": "(818) 850-4060",
    "lat": 34.158762,
    "lng": -118.262367
  },
  {
    "id": "630021320",
    "name": "A & T HOSPICE",
    "npi": null,
    "hcaiId": "406193647",
    "businessName": "A & T HOSPICE",
    "contactEmail": "ANTHOSPICE@GMAIL.COM",
    "categoryName": "HOSPICE",
    "categoryCode": "HOSPICE",
    "licenseStatus": "ACTIVE",
    "inService": true,
    "licenseNumber": "550006930",
    "licenseEffectiveDate": "09/23/2025",
    "licenseExpirationDate": "09/22/2027",
    "dataDate": "10/18/2025",
    "capacity": 0,
    "address": "401 N BRAND BLVD, SUITE 240",
    "city": "GLENDALE",
    "zip": "91203",
    "county": "LOS ANGELES",
    "phone": "(424) 234-2121",
    "lat": 34.15178144,
    "lng": -118.2551794
  },
  {
    "id": "630020397",
    "name": "A&E HOME HEALTH CARE INC",
    "npi": null,
    "hcaiId": "406195252",
    "businessName": "A&E HOME HEALTH CARE INC",
    "contactEmail": "AEHOMEHEALTHCARE@GMAIL.COM",
    "categoryName": "HOME HEALTH AGENCY",
    "categoryCode": "HHA",
    "licenseStatus": "ACTIVE",
    "inService": true,
    "licenseNumber": "550007283",
    "licenseEffectiveDate": "09/28/2025",
    "licenseExpirationDate": "09/27/2026",
    "dataDate": "10/18/2025",
    "capacity": 0,
    "address": "535 N BRAND BLVD, SUITE 240",
    "city": "GLENDALE",
    "zip": "91203",
    "county": "LOS ANGELES",
    "phone": "(800) 688-0704",
    "lat": 34.15429801,
    "lng": -118.255498
  },
  {
    "id": "630021401",
    "name": "AAA HOSPICE CARE & NURSING, INC.",
    "npi": null,
    "hcaiId": "406193525",
    "businessName": "AAA HOSPICE CARE & NURSING, INC.",
    "contactEmail": "AAAHOSPICECARE@GMAIL.COM",
    "categoryName": "HOSPICE",
    "categoryCode": "HOSPICE",
    "licenseStatus": "ACTIVE",
    "inService": true,
    "licenseNumber": "550006540",
    "licenseEffectiveDate": "07/16/2025",
    "licenseExpirationDate": "07/15/2027",
    "dataDate": "10/18/2025",
    "capacity": 0,
    "address": "229 N CENTRAL AVE, SUITE 507",
    "city": "GLENDALE",
    "zip": "91203",
    "county": "LOS ANGELES",
    "phone": "(818) 779-0405",
    "lat": 34.149121,
    "lng": -118.257953
  },
  {
    "id": "630025582",
    "name": "AARH HEALTHCARE INC",
    "npi": null,
    "hcaiId": "406198174",
    "businessName": "AARH HEALTHCARE INC",
    "contactEmail": "AARHHEALTHCAREINC@YAHOO.COM",
    "categoryName": "HOME HEALTH AGENCY",
    "categoryCode": "HHA",
    "licenseStatus": "ACTIVE",
    "inService": true,
    "licenseNumber": "550008769",
    "licenseEffectiveDate": "07/19/2025",
    "licenseExpirationDate": "07/18/2026",
    "dataDate": "10/18/2025",
    "capacity": 0,
    "address": "318 1/2 N BRAND BLVD, SUITE D2",
    "city": "GLENDALE",
    "zip": "91203",
    "county": "LOS ANGELES",
    "phone": "(818) 921-3339",
    "lat": 34.15069401,
    "lng": -118.2549102
  },
  {
    "id": "630017232",
    "name": "ABOVE CARE HOME HEALTH, INC",
    "npi": "1881139210",
    "hcaiId": "406191636",
    "businessName": "ABOVE CARE HOME HEALTH, INC",
    "contactEmail": "ABOVECAREHHA17@GMAIL.COM",
    "categoryName": "HOME HEALTH AGENCY",
    "categoryCode": "HHA",
    "licenseStatus": "ACTIVE",
    "inService": true,
    "licenseNumber": "550004668",
    "licenseEffectiveDate": "05/04/2025",
    "licenseExpirationDate": "05/03/2026",
    "dataDate": "10/18/2025",
    "capacity": 0,
    "address": "201 N BRAND BLVD, SUITE 200",
    "city": "GLENDALE",
    "zip": "91203",
    "county": "LOS ANGELES",
    "phone": "(323) 533-6413",
    "lat": 34.148295,
    "lng": -118.2554685
  },
  {
    "id": "980002440",
    "name": "ACCENTCARE HOSPICE & PALLIATIVE CARE OF CALIFORNIA - LOS ANGELES",
    "npi": null,
    "hcaiId": "406197152",
    "businessName": "SEASONS HOSPICE & PALLIATIVE CARE OF CALIFORNIA, LLC",
    "contactEmail": "SHASSAN@SEASONS.ORG",
    "categoryName": "HOSPICE",
    "categoryCode": "HOSPICE",
    "licenseStatus": "ACTIVE",
    "inService": true,
    "licenseNumber": "980001546",
    "licenseEffectiveDate": "06/03/2024",
    "licenseExpirationDate": "06/02/2026",
    "dataDate": "10/18/2025",
    "capacity": 0,
    "address": "320 W. ARDEN AVE, SUITE 100",
    "city": "GLENDALE",
    "zip": "91203",
    "county": "LOS ANGELES",
    "phone": "(866) 278-7500",
    "lat": 34.158168,
    "lng": -118.25892
  },
  {
    "id": "630026721",
    "name": "ACCEPTUS HOME HEALTH INC",
    "npi": null,
    "hcaiId": null,
    "businessName": "ACCEPTUS HOME HEALTH INC",
    "contactEmail": "ACCEPTUSHOMEHEALTH@GMAIL.COM",
    "categoryName": "HOME HEALTH AGENCY",
    "categoryCode": "HHA",
    "licenseStatus": "ACTIVE",
    "inService": true,
    "licenseNumber": "550009693",
    "licenseEffectiveDate": "09/06/2025",
    "licenseExpirationDate": "03/05/2026",
    "dataDate": "10/18/2025",
    "capacity": 0,
    "address": "417 ARDEN AVE, SUITE 111",
    "city": "GLENDALE",
    "zip": "91203",
    "county": "LOS ANGELES",
    "phone": "(818) 334-3994",
    "lat": 34.158816,
    "lng": -118.2621735
  },
  {
    "id": "630016270",
    "name": "ADVANCE CARE HOME HEALTH AGENCY INC",
    "npi": "1497131650",
    "hcaiId": "406190987",
    "businessName": "ADVANCE CARE HOME HEALTH AGENCY INC",
    "contactEmail": "ADVANCECAREHHA@YAHOO.COM",
    "categoryName": "HOME HEALTH AGENCY",
    "categoryCode": "HHA",
    "licenseStatus": "ACTIVE",
    "inService": true,
    "licenseNumber": "550004245",
    "licenseEffectiveDate": "04/21/2025",
    "licenseExpirationDate": "04/20/2026",
    "dataDate": "10/18/2025",
    "capacity": 0,
    "address": "805 N CENTRAL AVE",
    "city": "GLENDALE",
    "zip": "91203",
    "county": "LOS ANGELES",
    "phone": "(818) 937-9257",
    "lat": 34.157718,
    "lng": -118.258344
  },
  {
    "id": "630021355",
    "name": "AHG HOME HEALTH, INC.",
    "npi": null,
    "hcaiId": "406193806",
    "businessName": "AHG HOME HEALTH, INC.",
    "contactEmail": "AHGHOMEHEALTH@GMAIL.COM",
    "categoryName": "HOME HEALTH AGENCY",
    "categoryCode": "HHA",
    "licenseStatus": "ACTIVE",
    "inService": true,
    "licenseNumber": "550007743",
    "licenseEffectiveDate": "12/16/2024",
    "licenseExpirationDate": "12/15/2025",
    "dataDate": "10/18/2025",
    "capacity": 0,
    "address": "229 N CENTRAL AVE, SUITE 505",
    "city": "GLENDALE",
    "zip": "91203",
    "county": "LOS ANGELES",
    "phone": "(818) 271-1656",
    "lat": 34.149132,
    "lng": -118.2582675
  },
  {
    "id": "630025532",
    "name": "AJC HEALTHCARE INC",
    "npi": null,
    "hcaiId": "406198175",
    "businessName": "AJC HEALTHCARE INC",
    "contactEmail": "AJCHEALTHCAREINC@YAHOO.COM",
    "categoryName": "HOME HEALTH AGENCY",
    "categoryCode": "HHA",
    "licenseStatus": "ACTIVE",
    "inService": true,
    "licenseNumber": "550008785",
    "licenseEffectiveDate": "10/19/2024",
    "licenseExpirationDate": "10/18/2025",
    "dataDate": "10/18/2025",
    "capacity": 0,
    "address": "318 1/2 N BRAND BLVD, SUITE D1",
    "city": "GLENDALE",
    "zip": "91203",
    "county": "LOS ANGELES",
    "phone": "(747) 297-6209",
    "lat": 34.15069401,
    "lng": -118.2549102
  },
  {
    "id": "630023898",
    "name": "ALIGNED HOME HEALTH CARE, INC",
    "npi": null,
    "hcaiId": "406195356",
    "businessName": "ALIGNED HOME HEALTH CARE, INC",
    "contactEmail": "ALIGNEDHOMEHEALTH@GMAIL.COM",
    "categoryName": "HOME HEALTH AGENCY",
    "categoryCode": "HHA",
    "licenseStatus": "ACTIVE",
    "inService": true,
    "licenseNumber": "550007978",
    "licenseEffectiveDate": "05/09/2025",
    "licenseExpirationDate": "05/08/2026",
    "dataDate": "10/18/2025",
    "capacity": 0,
    "address": "401 N BRAND BLVD, SUITE 230",
    "city": "GLENDALE",
    "zip": "91203",
    "county": "LOS ANGELES",
    "phone": "(818) 474-6901",
    "lat": 34.15196298,
    "lng": -118.255487
  },
  {
    "id": "630022084",
    "name": "ALIGNED HOSPICE CARE, INC",
    "npi": null,
    "hcaiId": "406196560",
    "businessName": "ALIGNED HOSPICE CARE, INC",
    "contactEmail": "ALIGNEDHOSPICE@GMAIL.COM",
    "categoryName": "HOSPICE",
    "categoryCode": "HOSPICE",
    "licenseStatus": "ACTIVE",
    "inService": true,
    "licenseNumber": "550007702",
    "licenseEffectiveDate": "12/28/2023",
    "licenseExpirationDate": "12/27/2025",
    "dataDate": "10/18/2025",
    "capacity": 0,
    "address": "121 W LEXINGTON DR, SUITE L106K",
    "city": "GLENDALE",
    "zip": "91203",
    "county": "LOS ANGELES",
    "phone": "(818) 900-6573",
    "lat": 34.151958,
    "lng": -118.255491
  },
  {
    "id": "630014860",
    "name": "ALL FOR HEALTH, HEALTH FOR ALL, INC.",
    "npi": "1518398031",
    "hcaiId": "306197954",
    "businessName": "ALL FOR HEALTH, HEALTH FOR ALL, INC.",
    "contactEmail": "HISRAELIAN@ALL4HEALTH.ORG",
    "categoryName": "PRIMARY CARE CLINIC",
    "categoryCode": "COMTYC",
    "licenseStatus": "ACTIVE",
    "inService": true,
    "licenseNumber": "550002828",
    "licenseEffectiveDate": "09/30/2025",
    "licenseExpirationDate": "09/29/2026",
    "dataDate": "10/18/2025",
    "capacity": 0,
    "address": "500 N CENTRAL AVE, SUITE 440",
    "city": "GLENDALE",
    "zip": "91203",
    "county": "LOS ANGELES",
    "phone": "(818) 409-3020",
    "lat": 34.15322601,
    "lng": -118.257198
  },
  {
    "id": "630021772",
    "name": "ALL SEASON HOME CARE, INC.",
    "npi": null,
    "hcaiId": "406195264",
    "businessName": "ALL SEASON HOME CARE, INC.",
    "contactEmail": "ALLSEASONHOMECARE@YAHOO.COM",
    "categoryName": "HOME HEALTH AGENCY",
    "categoryCode": "HHA",
    "licenseStatus": "ACTIVE",
    "inService": true,
    "licenseNumber": "550007679",
    "licenseEffectiveDate": "12/16/2023",
    "licenseExpirationDate": "12/15/2024",
    "dataDate": "10/18/2025",
    "capacity": 0,
    "address": "715 N CENTRAL AVE, SUITE 201",
    "city": "GLENDALE",
    "zip": "91203",
    "county": "LOS ANGELES",
    "phone": "(747) 447-7047",
    "lat": 34.156935,
    "lng": -118.258362
  },
  {
    "id": "630021105",
    "name": "ALLURE HEALTH CARE SERVICES, INC.",
    "npi": null,
    "hcaiId": "406195299",
    "businessName": "ALLURE HEALTH CARE SERVICES, INC.",
    "contactEmail": "ALLUREHEALTHCAREINC@GMAIL.COM",
    "categoryName": "HOME HEALTH AGENCY",
    "categoryCode": "HHA",
    "licenseStatus": "ACTIVE",
    "inService": true,
    "licenseNumber": "550006676",
    "licenseEffectiveDate": "07/08/2025",
    "licenseExpirationDate": "08/17/2025",
    "dataDate": "10/18/2025",
    "capacity": 0,
    "address": "100 N BRAND BLVD, SUITE 423",
    "city": "GLENDALE",
    "zip": "91203",
    "county": "LOS ANGELES",
    "phone": "(747) 247-2673",
    "lat": 34.14652401,
    "lng": -118.254737
  },
  {
    "id": "630017846",
    "name": "ALLURE HOMECARE INC.",
    "npi": "1790283273",
    "hcaiId": "406191735",
    "businessName": "ALLURE HOMECARE INC.",
    "contactEmail": "ALLUREHHC@GMAIL.COM",
    "categoryName": "HOME HEALTH AGENCY",
    "categoryCode": "HHA",
    "licenseStatus": "ACTIVE",
    "inService": true,
    "licenseNumber": "550004754",
    "licenseEffectiveDate": "06/19/2025",
    "licenseExpirationDate": "06/18/2026",
    "dataDate": "10/18/2025",
    "capacity": 0,
    "address": "315 ARDEN AVENUE, SUITE 12",
    "city": "GLENDALE",
    "zip": "91203",
    "county": "LOS ANGELES",
    "phone": "(323) 739-6680",
    "lat": 34.15884604,
    "lng": -118.2589483
  },
  {
    "id": "980002228",
    "name": "AMERICAN HOMECARE HEALTH SERVICES",
    "npi": "1093259749",
    "hcaiId": "406196273",
    "businessName": "S&F HOME HEALTH OPCO I, LLC",
    "contactEmail": "WILDELANGE@AMERICANHOMECARES.ORG",
    "categoryName": "HOME HEALTH AGENCY",
    "categoryCode": "HHA",
    "licenseStatus": "ACTIVE",
    "inService": true,
    "licenseNumber": "980001346",
    "licenseEffectiveDate": "11/13/2024",
    "licenseExpirationDate": "11/12/2025",
    "dataDate": "10/18/2025",
    "capacity": 0,
    "address": "700 N CENTRAL AVE, SUITE 260",
    "city": "GLENDALE",
    "zip": "91203",
    "county": "LOS ANGELES",
    "phone": "(818) 566-1020",
    "lat": 34.157088,
    "lng": -118.2574215
  },
  {
    "id": "630020776",
    "name": "ANGEL'S GUIDE HOSPICE, INC.",
    "npi": null,
    "hcaiId": "406193517",
    "businessName": "ANGEL'S GUIDE HOSPICE, INC.",
    "contactEmail": "ANGELSGUIDEHOSPICE@GMAIL.COM",
    "categoryName": "HOSPICE",
    "categoryCode": "HOSPICE",
    "licenseStatus": "ACTIVE",
    "inService": true,
    "licenseNumber": "550006460",
    "licenseEffectiveDate": "09/12/2023",
    "licenseExpirationDate": "06/29/2025",
    "dataDate": "10/18/2025",
    "capacity": 0,
    "address": "655 N CENTRAL AVE, SUITE 1706",
    "city": "GLENDALE",
    "zip": "91203",
    "county": "LOS ANGELES",
    "phone": "(424) 430-0333",
    "lat": 34.15561502,
    "lng": -118.259324
  },
  {
    "id": "630016432",
    "name": "ARDEN HOME HEALTH",
    "npi": "1750755732",
    "hcaiId": "406190640",
    "businessName": "FAVORITE CARE HOME HEALTH, INC.",
    "contactEmail": "ARDENHOMEHEALTH@GMAIL.COM",
    "categoryName": "HOME HEALTH AGENCY",
    "categoryCode": "HHA",
    "licenseStatus": "ACTIVE",
    "inService": true,
    "licenseNumber": "550004125",
    "licenseEffectiveDate": "03/24/2025",
    "licenseExpirationDate": "01/22/2026",
    "dataDate": "10/18/2025",
    "capacity": 0,
    "address": "213 N ORANGE ST, SUITE G",
    "city": "GLENDALE",
    "zip": "91203",
    "county": "LOS ANGELES",
    "phone": "(818) 855-1573",
    "lat": 34.14836698,
    "lng": -118.256799
  },
  {
    "id": "630017727",
    "name": "ARMAR HOSPICE AND PALLIATIVE CARE, INC.",
    "npi": null,
    "hcaiId": "406196239",
    "businessName": "ARMAR HOSPICE AND PALLIATIVE CARE, INC.",
    "contactEmail": "ARMAR.CA@MAIL.COM",
    "categoryName": "HOSPICE",
    "categoryCode": "HOSPICE",
    "licenseStatus": "ACTIVE",
    "inService": true,
    "licenseNumber": "550005991",
    "licenseEffectiveDate": "12/01/2024",
    "licenseExpirationDate": "11/30/2026",
    "dataDate": "10/18/2025",
    "capacity": 0,
    "address": "229 N CENTRAL AVE, SUITE 202",
    "city": "GLENDALE",
    "zip": "91203",
    "county": "LOS ANGELES",
    "phone": "(818) 396-9867",
    "lat": 34.14923,
    "lng": -118.257951
  },
  {
    "id": "630018592",
    "name": "ASAP HOME HEALTH CARE, INC.",
    "npi": "1659835163",
    "hcaiId": "406191909",
    "businessName": "ASAP HOME HEALTH CARE, INC",
    "contactEmail": "HOMEHEALTHASAP@GMAIL.COM",
    "categoryName": "HOME HEALTH AGENCY",
    "categoryCode": "HHA",
    "licenseStatus": "ACTIVE",
    "inService": true,
    "licenseNumber": "550005006",
    "licenseEffectiveDate": "09/12/2025",
    "licenseExpirationDate": "08/11/2026",
    "dataDate": "10/18/2025",
    "capacity": 0,
    "address": "229 NORTH CENTRAL AVENUE, SUITE 506",
    "city": "GLENDALE",
    "zip": "91203",
    "county": "LOS ANGELES",
    "phone": "(818) 531-3151",
    "lat": 34.1491001,
    "lng": -118.2582565
  },
  {
    "id": "630025070",
    "name": "ASCENSION HOME HEALTH",
    "npi": null,
    "hcaiId": "406197596",
    "businessName": "ASCENSION HOME HEALTH",
    "contactEmail": "4ASCENSIONHH@GMAIL.COM",
    "categoryName": "HOME HEALTH AGENCY",
    "categoryCode": "HHA",
    "licenseStatus": "ACTIVE",
    "inService": true,
    "licenseNumber": "550008297",
    "licenseEffectiveDate": "11/30/2024",
    "licenseExpirationDate": "11/29/2025",
    "dataDate": "10/18/2025",
    "capacity": 0,
    "address": "401 N BRAND BLVD, SUITE 730C",
    "city": "GLENDALE",
    "zip": "91203",
    "county": "LOS ANGELES",
    "phone": "(818) 626-5905",
    "lat": 34.15196298,
    "lng": -118.255487
  },
  {
    "id": "630016973",
    "name": "AVALON SURGERY AND ROBOTIC CENTER,LLC",
    "npi": "1194185637",
    "hcaiId": null,
    "businessName": null,
    "contactEmail": "SOPHIA@AVALONSURGERY.COM",
    "categoryName": "SURGICAL CLINIC",
    "categoryCode": "ASC",
    "licenseStatus": null,
    "inService": null,
    "licenseNumber": null,
    "licenseEffectiveDate": null,
    "licenseExpirationDate": null,
    "dataDate": "10/18/2025",
    "capacity": 0,
    "address": "435 ARDEN AVE, SUITE 520",
    "city": "GLENDALE",
    "zip": "91203",
    "county": "LOS ANGELES",
    "phone": "(818) 400-8300",
    "lat": 34.15874,
    "lng": -118.262886
  },
  {
    "id": "630025143",
    "name": "AVEON HOME HEALTH, INC.",
    "npi": null,
    "hcaiId": "406196821",
    "businessName": "AVEON HOME HEALTH, INC.",
    "contactEmail": "INFO@AVEONHOMEHEALTH.COM",
    "categoryName": "HOME HEALTH AGENCY",
    "categoryCode": "HHA",
    "licenseStatus": "ACTIVE",
    "inService": true,
    "licenseNumber": "550008361",
    "licenseEffectiveDate": "01/20/2025",
    "licenseExpirationDate": "01/19/2026",
    "dataDate": "10/18/2025",
    "capacity": 0,
    "address": "655 N CENTRAL AVE, SUITE 1723",
    "city": "GLENDALE",
    "zip": "91203",
    "county": "LOS ANGELES",
    "phone": "(818) 688-4655",
    "lat": 34.155585,
    "lng": -118.2592485
  },
  {
    "id": "630026498",
    "name": "AYRA HOME HEALTH CARE INC",
    "npi": null,
    "hcaiId": null,
    "businessName": "AYRA HOME HEALTH CARE INC",
    "contactEmail": "AYRAHOMEHEALTH@GMAIL.COM",
    "categoryName": "HOME HEALTH AGENCY",
    "categoryCode": "HHA",
    "licenseStatus": "ACTIVE",
    "inService": true,
    "licenseNumber": "550009395",
    "licenseEffectiveDate": "03/30/2025",
    "licenseExpirationDate": "09/29/2025",
    "dataDate": "10/18/2025",
    "capacity": 0,
    "address": "229 N CENTRAL AVE, SUITE 207",
    "city": "GLENDALE",
    "zip": "91203",
    "county": "LOS ANGELES",
    "phone": "(818) 568-5827",
    "lat": 34.14910601,
    "lng": -118.258215
  },
  {
    "id": "630025695",
    "name": "BELOVED CARE HEALTH SERVICES CORP",
    "npi": null,
    "hcaiId": null,
    "businessName": "BELOVED CARE HEALTH SERVICES CORP",
    "contactEmail": "BELOVEDCAREHSP@GMAIL.COM",
    "categoryName": "HOME HEALTH AGENCY",
    "categoryCode": "HHA",
    "licenseStatus": "ACTIVE",
    "inService": true,
    "licenseNumber": "550009363",
    "licenseEffectiveDate": "09/01/2025",
    "licenseExpirationDate": "08/31/2026",
    "dataDate": "10/18/2025",
    "capacity": 0,
    "address": "121 W LEXINGTON DR, SUITE 309C",
    "city": "GLENDALE",
    "zip": "91203",
    "county": "LOS ANGELES",
    "phone": "(818) 578-8854",
    "lat": 34.15224998,
    "lng": -118.25606
  },
  {
    "id": "630024842",
    "name": "BIA HOME HEALTH CARE, INC.",
    "npi": null,
    "hcaiId": null,
    "businessName": "BIA HOME HEALTH CARE, INC",
    "contactEmail": "BIAHHCARE@GMAIL.COM",
    "categoryName": "HOME HEALTH AGENCY",
    "categoryCode": "HHA",
    "licenseStatus": "ACTIVE",
    "inService": true,
    "licenseNumber": "550008229",
    "licenseEffectiveDate": "11/15/2024",
    "licenseExpirationDate": "11/14/2025",
    "dataDate": "10/18/2025",
    "capacity": 0,
    "address": "401 N BRAND BLVD, UNIT L 106 C",
    "city": "GLENDALE",
    "zip": "91203",
    "county": "LOS ANGELES",
    "phone": "(818) 480-3228",
    "lat": 34.15178144,
    "lng": -118.2551794
  },
  {
    "id": "630021282",
    "name": "BRIGHT HOME HEALTH CARE",
    "npi": null,
    "hcaiId": "406195234",
    "businessName": "BRIGHT HOME HEALTH CARE",
    "contactEmail": "BRIGHTHOMEHC@GMAIL.COM",
    "categoryName": "HOME HEALTH AGENCY",
    "categoryCode": "HHA",
    "licenseStatus": "ACTIVE",
    "inService": true,
    "licenseNumber": "550007713",
    "licenseEffectiveDate": "11/23/2025",
    "licenseExpirationDate": "11/22/2026",
    "dataDate": "10/18/2025",
    "capacity": 0,
    "address": "315 ARDEN AVE, SUITE 29",
    "city": "GLENDALE",
    "zip": "91203",
    "county": "LOS ANGELES",
    "phone": "(818) 330-5599",
    "lat": 34.15879499,
    "lng": -118.258783
  },
  {
    "id": "630022324",
    "name": "BRIGHT LIFE HOSPICE, INC",
    "npi": null,
    "hcaiId": "406190024",
    "businessName": "BRIGHT LIFE HOSPICE, INC",
    "contactEmail": "BRIGHTLIFEHOSPICE@GMAIL.COM",
    "categoryName": "HOSPICE",
    "categoryCode": "HOSPICE",
    "licenseStatus": "ACTIVE",
    "inService": true,
    "licenseNumber": "550007627",
    "licenseEffectiveDate": "12/21/2023",
    "licenseExpirationDate": "12/20/2025",
    "dataDate": "10/18/2025",
    "capacity": 0,
    "address": "401 N BRAND BLVD, SUITE 626",
    "city": "GLENDALE",
    "zip": "91203",
    "county": "LOS ANGELES",
    "phone": "(818) 480-4814",
    "lat": 34.15178144,
    "lng": -118.2551794
  },
  {
    "id": "630011026",
    "name": "BRISTOL HOSPICE - NORTHERN LOS ANGELES",
    "npi": "1043449291",
    "hcaiId": "406197354",
    "businessName": "GERINET PHYSICIAN SERVICES, INC",
    "contactEmail": "JENNIFER.URTZ@BRISTOLHOSPICE.COM",
    "categoryName": "HOSPICE",
    "categoryCode": "HOSPICE",
    "licenseStatus": "ACTIVE",
    "inService": true,
    "licenseNumber": "550000400",
    "licenseEffectiveDate": "02/07/2025",
    "licenseExpirationDate": "01/29/2027",
    "dataDate": "10/18/2025",
    "capacity": 0,
    "address": "700 N CENTRAL AVE, SUITE 550",
    "city": "GLENDALE",
    "zip": "91203",
    "county": "LOS ANGELES",
    "phone": "(801) 325-0175",
    "lat": 34.157088,
    "lng": -118.2574215
  },
  {
    "id": "630014563",
    "name": "BVA HOSPICE CARE, INC.",
    "npi": null,
    "hcaiId": "406197961",
    "businessName": "BVA HOSPICE CARE, INC.",
    "contactEmail": "BVAHOSPICE@GMAIL.COM",
    "categoryName": "HOSPICE",
    "categoryCode": "HOSPICE",
    "licenseStatus": "ACTIVE",
    "inService": true,
    "licenseNumber": "550002836",
    "licenseEffectiveDate": "09/29/2022",
    "licenseExpirationDate": "09/28/2024",
    "dataDate": "10/18/2025",
    "capacity": 0,
    "address": "315 ARDEN AVE, SUITE 25",
    "city": "GLENDALE",
    "zip": "91203",
    "county": "LOS ANGELES",
    "phone": "(818) 550-9950",
    "lat": 34.158834,
    "lng": -118.2587715
  },
  {
    "id": "630021316",
    "name": "CAPRI HOSPICE, INC.",
    "npi": null,
    "hcaiId": "406196006",
    "businessName": "CAPRI HOSPICE, INC.",
    "contactEmail": "CAPRIHOPSICE@GMAIL.COM",
    "categoryName": "HOSPICE",
    "categoryCode": "HOSPICE",
    "licenseStatus": "ACTIVE",
    "inService": true,
    "licenseNumber": "550006761",
    "licenseEffectiveDate": "09/02/2025",
    "licenseExpirationDate": "09/01/2027",
    "dataDate": "10/18/2025",
    "capacity": 0,
    "address": "401 N BRAND BLVD, SUITE L103B,C",
    "city": "GLENDALE",
    "zip": "91203",
    "county": "LOS ANGELES",
    "phone": "(818) 415-0617",
    "lat": 34.15178144,
    "lng": -118.2551794
  },
  {
    "id": "630025260",
    "name": "CARE AGENCY HOME HEALTH",
    "npi": null,
    "hcaiId": "406190085",
    "businessName": "CARE AGENCY HOME HEALTH",
    "contactEmail": "CAGENCYHHA@GMAIL.COM",
    "categoryName": "HOME HEALTH AGENCY",
    "categoryCode": "HHA",
    "licenseStatus": "ACTIVE",
    "inService": true,
    "licenseNumber": "550008820",
    "licenseEffectiveDate": "09/22/2025",
    "licenseExpirationDate": "09/21/2026",
    "dataDate": "10/18/2025",
    "capacity": 0,
    "address": "5406 SAN FERNANDO RD, SUITE 203",
    "city": "GLENDALE",
    "zip": "91203",
    "county": "LOS ANGELES",
    "phone": "(818) 484-5655",
    "lat": 34.150347,
    "lng": -118.273302
  },
  {
    "id": "630015540",
    "name": "CAREMARK HEALTHCARE",
    "npi": "1841692381",
    "hcaiId": "406198541",
    "businessName": "HEP ENTERPRISES, INC",
    "contactEmail": "CAREMARKHEALTH@GMAIL.COM",
    "categoryName": "HOSPICE",
    "categoryCode": "HOSPICE",
    "licenseStatus": "ACTIVE",
    "inService": true,
    "licenseNumber": "550003376",
    "licenseEffectiveDate": "01/15/2024",
    "licenseExpirationDate": "01/14/2026",
    "dataDate": "10/18/2025",
    "capacity": 0,
    "address": "700 N BRAND BLVD, SUITE 860-B",
    "city": "GLENDALE",
    "zip": "91203",
    "county": "LOS ANGELES",
    "phone": "(818) 360-2273",
    "lat": 34.15711199,
    "lng": -118.254142
  },
  {
    "id": "630017247",
    "name": "CARING PARTNERS HOSPICE CORP",
    "npi": null,
    "hcaiId": "406192045",
    "businessName": "CARING PARTNERS HOSPICE CORP",
    "contactEmail": "ADMINISTRATOR@CARINGPARTNERSHOSPICE.COM",
    "categoryName": "HOSPICE",
    "categoryCode": "HOSPICE",
    "licenseStatus": "ACTIVE",
    "inService": true,
    "licenseNumber": "550004355",
    "licenseEffectiveDate": "09/05/2024",
    "licenseExpirationDate": "09/04/2026",
    "dataDate": "10/18/2025",
    "capacity": 0,
    "address": "331 ARDEN AVE, SUITE 102",
    "city": "GLENDALE",
    "zip": "91203",
    "county": "LOS ANGELES",
    "phone": "(818) 293-1883",
    "lat": 34.158663,
    "lng": -118.25937
  },
  {
    "id": "630022333",
    "name": "CLEAR SOUL HOSPICE INC",
    "npi": null,
    "hcaiId": "406197724",
    "businessName": "CLEAR SOUL HOSPICE INC",
    "contactEmail": "CLEARSOULHOSPICE@GMAIL.COM",
    "categoryName": "HOSPICE",
    "categoryCode": "HOSPICE",
    "licenseStatus": "ACTIVE",
    "inService": true,
    "licenseNumber": "550007664",
    "licenseEffectiveDate": "10/17/2024",
    "licenseExpirationDate": "12/19/2025",
    "dataDate": "10/18/2025",
    "capacity": 0,
    "address": "229 N CENTRAL AVE, SUITE 409",
    "city": "GLENDALE",
    "zip": "91203",
    "county": "LOS ANGELES",
    "phone": "(747) 334-9995",
    "lat": 34.14910601,
    "lng": -118.258215
  },
  {
    "id": "630025713",
    "name": "CNS HOME HEALTH CARE INC.",
    "npi": null,
    "hcaiId": "406197993",
    "businessName": "CNS HOME HEALTH CARE INC.",
    "contactEmail": "CNSHOMEHEALTH1@GMAIL.COM",
    "categoryName": "HOME HEALTH AGENCY",
    "categoryCode": "HHA",
    "licenseStatus": "ACTIVE",
    "inService": true,
    "licenseNumber": "550008775",
    "licenseEffectiveDate": "10/16/2025",
    "licenseExpirationDate": "10/15/2026",
    "dataDate": "10/18/2025",
    "capacity": 0,
    "address": "401 N BRAND BLVD, SUITE L102B",
    "city": "GLENDALE",
    "zip": "91203",
    "county": "LOS ANGELES",
    "phone": "(818) 480-3114",
    "lat": 34.15178144,
    "lng": -118.2551794
  },
  {
    "id": "630022657",
    "name": "COMCARE HOME HEALTH AGENCY, INC.",
    "npi": null,
    "hcaiId": "406195375",
    "businessName": "COMCARE HOME HEALTH AGENCY, INC.",
    "contactEmail": "COMCAREHOMEHEALTH@GMAIL.COM",
    "categoryName": "HOME HEALTH AGENCY",
    "categoryCode": "HHA",
    "licenseStatus": "ACTIVE",
    "inService": true,
    "licenseNumber": "550007898",
    "licenseEffectiveDate": "03/16/2025",
    "licenseExpirationDate": "03/15/2026",
    "dataDate": "10/18/2025",
    "capacity": 0,
    "address": "372 ARDEN AVE, SUITE 201A",
    "city": "GLENDALE",
    "zip": "91203",
    "county": "LOS ANGELES",
    "phone": "(818) 457-9737",
    "lat": 34.15815,
    "lng": -118.261152
  },
  {
    "id": "630022207",
    "name": "COMFOR CARE HOSPICE INC",
    "npi": null,
    "hcaiId": "406190163",
    "businessName": "COMFOR CARE HOSPICE INC",
    "contactEmail": "COMFORCAREHOSPICE@YAHOO.COM",
    "categoryName": "HOSPICE",
    "categoryCode": "HOSPICE",
    "licenseStatus": "ACTIVE",
    "inService": true,
    "licenseNumber": "550007635",
    "licenseEffectiveDate": "03/07/2024",
    "licenseExpirationDate": "12/21/2025",
    "dataDate": "10/18/2025",
    "capacity": 0,
    "address": "417 ARDEN AVE, SUITE 121D",
    "city": "GLENDALE",
    "zip": "91203",
    "county": "LOS ANGELES",
    "phone": "(747) 307-5568",
    "lat": 34.15875501,
    "lng": -118.262185
  },
  {
    "id": "630024211",
    "name": "COMFORT HOME HEALTH CARE SERVICES, INC.",
    "npi": null,
    "hcaiId": "406195491",
    "businessName": "COMFORT HOME HEALTH CARE SERVICES, INC.",
    "contactEmail": "COMFORTHOMEHEALTH7013@GMAIL.COM",
    "categoryName": "HOME HEALTH AGENCY",
    "categoryCode": "HHA",
    "licenseStatus": "ACTIVE",
    "inService": true,
    "licenseNumber": "550008131",
    "licenseEffectiveDate": "08/02/2025",
    "licenseExpirationDate": "08/01/2026",
    "dataDate": "10/18/2025",
    "capacity": 0,
    "address": "121 W LEXINGTON DR, SUITE L400B",
    "city": "GLENDALE",
    "zip": "91203",
    "county": "LOS ANGELES",
    "phone": "(626) 655-0656",
    "lat": 34.15196001,
    "lng": -118.255485
  },
  {
    "id": "630021851",
    "name": "COMFORTCARE HOSPICE INC",
    "npi": null,
    "hcaiId": "406193359",
    "businessName": "COMFORTCARE HOSPICE INC",
    "contactEmail": "COMFORTCAREHOSPICEINC@GMAIL.COM",
    "categoryName": "HOSPICE",
    "categoryCode": "HOSPICE",
    "licenseStatus": "ACTIVE",
    "inService": true,
    "licenseNumber": "550006995",
    "licenseEffectiveDate": "10/15/2023",
    "licenseExpirationDate": "10/14/2025",
    "dataDate": "10/18/2025",
    "capacity": 0,
    "address": "401 N BRAND BLVD, UNIT 822",
    "city": "GLENDALE",
    "zip": "91203",
    "county": "LOS ANGELES",
    "phone": "(310) 935-2751",
    "lat": 34.15178144,
    "lng": -118.2551794
  },
  {
    "id": "630023891",
    "name": "COR MEUM HOME HEALTH CARE, INC.",
    "npi": null,
    "hcaiId": "406190127",
    "businessName": "COR MEUM HOME HEALTH CARE, INC.",
    "contactEmail": "CORMEUMHH@GMAIL.COM",
    "categoryName": "HOME HEALTH AGENCY",
    "categoryCode": "HHA",
    "licenseStatus": "ACTIVE",
    "inService": true,
    "licenseNumber": "550008585",
    "licenseEffectiveDate": "06/19/2025",
    "licenseExpirationDate": "06/18/2026",
    "dataDate": "10/18/2025",
    "capacity": 0,
    "address": "401 N BRAND BLVD, SUITE 627",
    "city": "GLENDALE",
    "zip": "91203",
    "county": "LOS ANGELES",
    "phone": "(424) 404-4244",
    "lat": 34.15196001,
    "lng": -118.255485
  },
  {
    "id": "630022262",
    "name": "COZY CARE HOSPICE, INC.",
    "npi": null,
    "hcaiId": "406195730",
    "businessName": "COZY CARE HOSPICE, INC.",
    "contactEmail": "COZYCAREINC2@GMAIL.COM",
    "categoryName": "HOSPICE",
    "categoryCode": "HOSPICE",
    "licenseStatus": "ACTIVE",
    "inService": true,
    "licenseNumber": "550007701",
    "licenseEffectiveDate": "12/17/2023",
    "licenseExpirationDate": "12/16/2025",
    "dataDate": "10/18/2025",
    "capacity": 0,
    "address": "121 W LEXINGTON DR, SUITE 303 A",
    "city": "GLENDALE",
    "zip": "91203",
    "county": "LOS ANGELES",
    "phone": "(818) 641-5324",
    "lat": 34.151958,
    "lng": -118.255491
  },
  {
    "id": "630018709",
    "name": "CREDO HOME HEALTH SERVICES, INC.",
    "npi": "1972067320",
    "hcaiId": "406192469",
    "businessName": "CREDO HOME HEALTH SERVICES, INC.",
    "contactEmail": "INFO@CREDOHHS.COM",
    "categoryName": "HOME HEALTH AGENCY",
    "categoryCode": "HHA",
    "licenseStatus": "ACTIVE",
    "inService": true,
    "licenseNumber": "550005429",
    "licenseEffectiveDate": "04/24/2025",
    "licenseExpirationDate": "04/23/2026",
    "dataDate": "10/18/2025",
    "capacity": 0,
    "address": "655 N CENTRAL AVE, SUITE 1712",
    "city": "GLENDALE",
    "zip": "91203",
    "county": "LOS ANGELES",
    "phone": "(818) 640-1426",
    "lat": 34.155585,
    "lng": -118.2592485
  },
  {
    "id": "630021274",
    "name": "CREST HOSPICE CARE, INC.",
    "npi": null,
    "hcaiId": "406193956",
    "businessName": "CREST HOSPICE CARE, INC.",
    "contactEmail": "HOSPICE.CREST@YAHOO.COM",
    "categoryName": "HOSPICE",
    "categoryCode": "HOSPICE",
    "licenseStatus": "ACTIVE",
    "inService": true,
    "licenseNumber": "550007306",
    "licenseEffectiveDate": "11/04/2024",
    "licenseExpirationDate": "11/24/2025",
    "dataDate": "10/18/2025",
    "capacity": 0,
    "address": "121 W LEXINGTON DR, SUITE 512",
    "city": "GLENDALE",
    "zip": "91203",
    "county": "LOS ANGELES",
    "phone": "(747) 279-6776",
    "lat": 34.15224998,
    "lng": -118.25606
  },
  {
    "id": "630018374",
    "name": "CYPRESS HOME HEALTH CARE, INC",
    "npi": null,
    "hcaiId": "406192126",
    "businessName": "CYPRESS HOME HEALTH CARE, INC",
    "contactEmail": "CYPRESSHOMEHC@GMAIL.COM",
    "categoryName": "HOME HEALTH AGENCY",
    "categoryCode": "HHA",
    "licenseStatus": "ACTIVE",
    "inService": true,
    "licenseNumber": "550005127",
    "licenseEffectiveDate": "12/04/2024",
    "licenseExpirationDate": "12/03/2025",
    "dataDate": "10/18/2025",
    "capacity": 0,
    "address": "372 ARDEN AVE, SUITE 200",
    "city": "GLENDALE",
    "zip": "91203",
    "county": "LOS ANGELES",
    "phone": "(818) 818-9121",
    "lat": 34.15821002,
    "lng": -118.261204
  },
  {
    "id": "630019459",
    "name": "DELICATE CARE HOSPICE, INC.",
    "npi": "1164063400",
    "hcaiId": "406192579",
    "businessName": "DELICATE CARE HOSPICE, INC.",
    "contactEmail": "DELICATECAREHOSPICE@GMAIL.COM",
    "categoryName": "HOSPICE",
    "categoryCode": "HOSPICE",
    "licenseStatus": "ACTIVE",
    "inService": true,
    "licenseNumber": "550005439",
    "licenseEffectiveDate": "03/16/2024",
    "licenseExpirationDate": "03/15/2026",
    "dataDate": "10/18/2025",
    "capacity": 0,
    "address": "417 ARDEN AVE, SUITE 115",
    "city": "GLENDALE",
    "zip": "91203",
    "county": "LOS ANGELES",
    "phone": "(818) 660-6342",
    "lat": 34.158816,
    "lng": -118.2621735
  },
  {
    "id": "630018269",
    "name": "DISTINGUISHED CARE HOME HEALTH, INC.",
    "npi": "1124505797",
    "hcaiId": "406191780",
    "businessName": "DISTINGUISHED CARE HOME HEALTH, INC.",
    "contactEmail": "DISTINGUISHED@DISTINGUISHED.CARE",
    "categoryName": "HOME HEALTH AGENCY",
    "categoryCode": "HHA",
    "licenseStatus": "ACTIVE",
    "inService": true,
    "licenseNumber": "550004881",
    "licenseEffectiveDate": "10/16/2024",
    "licenseExpirationDate": "08/18/2025",
    "dataDate": "10/18/2025",
    "capacity": 0,
    "address": "229 N CENTRAL AVE, SUITE 200",
    "city": "GLENDALE",
    "zip": "91203",
    "county": "LOS ANGELES",
    "phone": "(818) 484-7262",
    "lat": 34.149132,
    "lng": -118.2582675
  },
  {
    "id": "630023084",
    "name": "DIVERSITY HOME HEALTH INC",
    "npi": null,
    "hcaiId": "406195780",
    "businessName": "DIVERSITY HOME HEALTH, INC",
    "contactEmail": "DIVERSITYHOMEHEALTHINC@GMAIL.COM",
    "categoryName": "HOME HEALTH AGENCY",
    "categoryCode": "HHA",
    "licenseStatus": "ACTIVE",
    "inService": true,
    "licenseNumber": "550007807",
    "licenseEffectiveDate": "01/25/2025",
    "licenseExpirationDate": "01/24/2026",
    "dataDate": "10/18/2025",
    "capacity": 0,
    "address": "229 N CENTRAL AVE, SUITE 402",
    "city": "GLENDALE",
    "zip": "91203",
    "county": "LOS ANGELES",
    "phone": "(818) 396-5296",
    "lat": 34.149132,
    "lng": -118.2582675
  },
  {
    "id": "630026282",
    "name": "DM UNITED HOME HEALTH",
    "npi": null,
    "hcaiId": null,
    "businessName": "DM UNITED HOME HEALTH",
    "contactEmail": "DMUNITEDHHC@GMAIL.COM",
    "categoryName": "HOME HEALTH AGENCY",
    "categoryCode": "HHA",
    "licenseStatus": "ACTIVE",
    "inService": true,
    "licenseNumber": "550009257",
    "licenseEffectiveDate": "07/23/2025",
    "licenseExpirationDate": "07/22/2026",
    "dataDate": "10/18/2025",
    "capacity": 0,
    "address": "401 N BRAND BLVD, SUITE 527C",
    "city": "GLENDALE",
    "zip": "91203",
    "county": "LOS ANGELES",
    "phone": "(262) 222-0222",
    "lat": 34.15196298,
    "lng": -118.255487
  },
  {
    "id": "630025707",
    "name": "E & S HOME HEALTH CARE INC",
    "npi": null,
    "hcaiId": "406198005",
    "businessName": "E & S HOME HEALTH CARE INC",
    "contactEmail": "ESHOMEHEALTH@GMAIL.COM",
    "categoryName": "HOME HEALTH AGENCY",
    "categoryCode": "HHA",
    "licenseStatus": "ACTIVE",
    "inService": true,
    "licenseNumber": "550008730",
    "licenseEffectiveDate": "09/01/2025",
    "licenseExpirationDate": "08/31/2026",
    "dataDate": "10/18/2025",
    "capacity": 0,
    "address": "401 N BRAND BLVD, SUITE 828",
    "city": "GLENDALE",
    "zip": "91203",
    "county": "LOS ANGELES",
    "phone": "(818) 480-3287",
    "lat": 34.15178144,
    "lng": -118.2551794
  },
  {
    "id": "630021433",
    "name": "EASE IN HOSPICE CARE INC",
    "npi": null,
    "hcaiId": "406193930",
    "businessName": "EASE IN HOSPICE CARE INC",
    "contactEmail": "EASEINHOSPICECARE@YAHOO.COM",
    "categoryName": "HOSPICE",
    "categoryCode": "HOSPICE",
    "licenseStatus": "ACTIVE",
    "inService": true,
    "licenseNumber": "550007135",
    "licenseEffectiveDate": "11/04/2023",
    "licenseExpirationDate": "11/03/2025",
    "dataDate": "10/18/2025",
    "capacity": 0,
    "address": "715 N CENTRAL AVE, SUITE 214",
    "city": "GLENDALE",
    "zip": "91203",
    "county": "LOS ANGELES",
    "phone": "(747) 201-0736",
    "lat": 34.15693,
    "lng": -118.258013
  },
  {
    "id": "630019655",
    "name": "ELARA HOSPICE, INC.",
    "npi": null,
    "hcaiId": "406192895",
    "businessName": "ELARA HOSPICE, INC.",
    "contactEmail": "HOSPICEELARA@GMAIL.COM",
    "categoryName": "HOSPICE",
    "categoryCode": "HOSPICE",
    "licenseStatus": "ACTIVE",
    "inService": true,
    "licenseNumber": "550005711",
    "licenseEffectiveDate": "04/21/2025",
    "licenseExpirationDate": "08/24/2026",
    "dataDate": "10/18/2025",
    "capacity": 0,
    "address": "327 ARDEN AVE, SUITE 205",
    "city": "GLENDALE",
    "zip": "91203",
    "county": "LOS ANGELES",
    "phone": "(747) 247-0570",
    "lat": 34.15884201,
    "lng": -118.259255
  },
  {
    "id": "630026097",
    "name": "ENGEL HOME HEALTH INC",
    "npi": null,
    "hcaiId": null,
    "businessName": "ENGEL HOME HEALTH INC",
    "contactEmail": "ENGELHOMEHEALTH@GMAIL.COM",
    "categoryName": "HOME HEALTH AGENCY",
    "categoryCode": "HHA",
    "licenseStatus": "ACTIVE",
    "inService": true,
    "licenseNumber": "550009229",
    "licenseEffectiveDate": "12/20/2024",
    "licenseExpirationDate": "06/19/2025",
    "dataDate": "10/18/2025",
    "capacity": 0,
    "address": "121 W LEXINGTON DR, SUITE B168B",
    "city": "GLENDALE",
    "zip": "91203",
    "county": "LOS ANGELES",
    "phone": "(747) 221-4369",
    "lat": 34.151958,
    "lng": -118.255491
  },
  {
    "id": "630021042",
    "name": "FAITH HOUSE HOSPICE, INC",
    "npi": null,
    "hcaiId": "406193723",
    "businessName": "FAITH HOUSE HOSPICE, INC.",
    "contactEmail": "FAITHHOUSEHOSPICE2020@GMAIL.COM",
    "categoryName": "HOSPICE",
    "categoryCode": "HOSPICE",
    "licenseStatus": "ACTIVE",
    "inService": true,
    "licenseNumber": "550006942",
    "licenseEffectiveDate": "10/08/2025",
    "licenseExpirationDate": "10/07/2027",
    "dataDate": "10/18/2025",
    "capacity": 0,
    "address": "121 W LEXINGTON DR, SUITE 206A",
    "city": "GLENDALE",
    "zip": "91203",
    "county": "LOS ANGELES",
    "phone": "(747) 247-3240",
    "lat": 34.15204328,
    "lng": -118.2554654
  },
  {
    "id": "630018815",
    "name": "FAMILY & FRIENDS HOME HEALTH CARE INC",
    "npi": "1487115044",
    "hcaiId": "406192477",
    "businessName": "FAMILY & FRIENDS HOME HEALTH CARE INC",
    "contactEmail": "FAMILYANDFRIENDSHH@GMAIL.COM",
    "categoryName": "HOME HEALTH AGENCY",
    "categoryCode": "HHA",
    "licenseStatus": "ACTIVE",
    "inService": true,
    "licenseNumber": "550005236",
    "licenseEffectiveDate": "01/28/2025",
    "licenseExpirationDate": "01/27/2026",
    "dataDate": "10/18/2025",
    "capacity": 0,
    "address": "417 ARDEN AVE, SUITE 106A",
    "city": "GLENDALE",
    "zip": "91203",
    "county": "LOS ANGELES",
    "phone": "(818) 649-1457",
    "lat": 34.158816,
    "lng": -118.2621735
  },
  {
    "id": "630022109",
    "name": "FIRST CLASS HOSPICE, INC.",
    "npi": null,
    "hcaiId": "406196232",
    "businessName": "FIRST CLASS HOSPICE, INC.",
    "contactEmail": "FIRSTCLASSHOSPICE@GMAIL.COM",
    "categoryName": "HOSPICE",
    "categoryCode": "HOSPICE",
    "licenseStatus": "ACTIVE",
    "inService": true,
    "licenseNumber": "550007578",
    "licenseEffectiveDate": "04/01/2025",
    "licenseExpirationDate": "12/16/2025",
    "dataDate": "10/18/2025",
    "capacity": 0,
    "address": "417 ARDEN AVE, SUITE 112D",
    "city": "GLENDALE",
    "zip": "91203",
    "county": "LOS ANGELES",
    "phone": "(818) 457-5575",
    "lat": 34.15874893,
    "lng": -118.2621878
  },
  {
    "id": "630025755",
    "name": "G&E HOME HEALTH",
    "npi": null,
    "hcaiId": null,
    "businessName": "G&E HOME HEALTH",
    "contactEmail": "GEHOMEHEALTHCARE@GMAIL.COM",
    "categoryName": "HOME HEALTH AGENCY",
    "categoryCode": "HHA",
    "licenseStatus": "ACTIVE",
    "inService": true,
    "licenseNumber": "550008883",
    "licenseEffectiveDate": "12/29/2024",
    "licenseExpirationDate": "12/28/2025",
    "dataDate": "10/18/2025",
    "capacity": 0,
    "address": "401 N BRAND BLVD, SUITE 330",
    "city": "GLENDALE",
    "zip": "91203",
    "county": "LOS ANGELES",
    "phone": "(818) 480-3267",
    "lat": 34.15178144,
    "lng": -118.2551794
  },
  {
    "id": "630021263",
    "name": "GEMS HOSPICE AND PALLIATIVE CARE INC",
    "npi": null,
    "hcaiId": "406193592",
    "businessName": "GEMS HOSPICE AND PALLIATIVE CARE INC",
    "contactEmail": "ADMIN@GEMSHOSPICE.COM",
    "categoryName": "HOSPICE",
    "categoryCode": "HOSPICE",
    "licenseStatus": "ACTIVE",
    "inService": true,
    "licenseNumber": "550006457",
    "licenseEffectiveDate": "06/03/2025",
    "licenseExpirationDate": "06/02/2027",
    "dataDate": "10/18/2025",
    "capacity": 0,
    "address": "315 ARDEN AVE, SUITE 03",
    "city": "GLENDALE",
    "zip": "91203",
    "county": "LOS ANGELES",
    "phone": "(818) 918-9215",
    "lat": 34.15879499,
    "lng": -118.258783
  },
  {
    "id": "630016992",
    "name": "GLENDALE HOUSE CLHS, INC.",
    "npi": null,
    "hcaiId": "206190284",
    "businessName": "GLENDALE HOUSE CLHS, INC.",
    "contactEmail": "GLENDALEHOUSECLHS@GMAIL.COM",
    "categoryName": "CONGREGATE LIVING HEALTH FACILITY",
    "categoryCode": "CLHF",
    "licenseStatus": "ACTIVE",
    "inService": true,
    "licenseNumber": "550005883",
    "licenseEffectiveDate": "10/14/2025",
    "licenseExpirationDate": "10/13/2026",
    "dataDate": "10/18/2025",
    "capacity": 6,
    "address": "620 MYRTLE STREET",
    "city": "GLENDALE",
    "zip": "91203",
    "county": "LOS ANGELES",
    "phone": "(818) 484-7464",
    "lat": 34.150554,
    "lng": -118.2676905
  },
  {
    "id": "630022916",
    "name": "GOLDEN DAY HOME HEALTH, INC.",
    "npi": null,
    "hcaiId": "406195922",
    "businessName": "GOLDEN DAY HOME HEALTH, INC.",
    "contactEmail": "GOLDENDAYHH1@YAHOO.COM",
    "categoryName": "HOME HEALTH AGENCY",
    "categoryCode": "HHA",
    "licenseStatus": "ACTIVE",
    "inService": true,
    "licenseNumber": "550007768",
    "licenseEffectiveDate": "01/13/2025",
    "licenseExpirationDate": "01/12/2026",
    "dataDate": "10/18/2025",
    "capacity": 0,
    "address": "417 ARDEN AVE, SUITE 105",
    "city": "GLENDALE",
    "zip": "91203",
    "county": "LOS ANGELES",
    "phone": "(818) 495-6652",
    "lat": 34.15875501,
    "lng": -118.262185
  },
  {
    "id": "630025244",
    "name": "GREAT GRACE HOME INC",
    "npi": null,
    "hcaiId": "406196525",
    "businessName": "GREAT GRACE HOME INC",
    "contactEmail": "GREATGRACEHOMEE@GMAIL.COM",
    "categoryName": "HOME HEALTH AGENCY",
    "categoryCode": "HHA",
    "licenseStatus": "ACTIVE",
    "inService": true,
    "licenseNumber": "550008531",
    "licenseEffectiveDate": "05/05/2025",
    "licenseExpirationDate": "05/04/2026",
    "dataDate": "10/18/2025",
    "capacity": 0,
    "address": "401 N BRAND BLVD, SUITE 834",
    "city": "GLENDALE",
    "zip": "91203",
    "county": "LOS ANGELES",
    "phone": "(818) 480-4829",
    "lat": 34.15178144,
    "lng": -118.2551794
  },
  {
    "id": "630020834",
    "name": "GREEN HILLS HOSPICE, INC.",
    "npi": null,
    "hcaiId": "406193540",
    "businessName": "GREEN HILLS HOSPICE, INC.",
    "contactEmail": "HILLSHOSPICE@GMAIL.COM",
    "categoryName": "HOSPICE",
    "categoryCode": "HOSPICE",
    "licenseStatus": "ACTIVE",
    "inService": true,
    "licenseNumber": "550006612",
    "licenseEffectiveDate": "10/31/2024",
    "licenseExpirationDate": "07/01/2025",
    "dataDate": "10/18/2025",
    "capacity": 0,
    "address": "121 W LEXINGTON DR, SUITE 305A",
    "city": "GLENDALE",
    "zip": "91203",
    "county": "LOS ANGELES",
    "phone": "(818) 386-8622",
    "lat": 34.15196001,
    "lng": -118.255485
  },
  {
    "id": "630020095",
    "name": "GUARANTEED HOSPICE",
    "npi": null,
    "hcaiId": "406192604",
    "businessName": "URGENT HELP HOSPICE INC",
    "contactEmail": "ADMIN.CA@GUARANTEEDHOSPICE.COM",
    "categoryName": "HOSPICE",
    "categoryCode": "HOSPICE",
    "licenseStatus": "ACTIVE",
    "inService": true,
    "licenseNumber": "550005458",
    "licenseEffectiveDate": "05/13/2024",
    "licenseExpirationDate": "05/12/2026",
    "dataDate": "10/18/2025",
    "capacity": 0,
    "address": "500 N BRAND BLVD, SUITE 2000",
    "city": "GLENDALE",
    "zip": "91203",
    "county": "LOS ANGELES",
    "phone": "(323) 300-4407",
    "lat": 34.153979,
    "lng": -118.254289
  },
  {
    "id": "630020009",
    "name": "H & S HOSPICE CARE INC",
    "npi": null,
    "hcaiId": "406192857",
    "businessName": "H & S HOSPICE CARE INC",
    "contactEmail": "HSHOSPICECARE@GMAIL.COM",
    "categoryName": "HOSPICE",
    "categoryCode": "HOSPICE",
    "licenseStatus": "ACTIVE",
    "inService": true,
    "licenseNumber": "550005669",
    "licenseEffectiveDate": "08/24/2023",
    "licenseExpirationDate": "08/10/2024",
    "dataDate": "10/18/2025",
    "capacity": 0,
    "address": "435 ARDEN AVE, SUITE 560",
    "city": "GLENDALE",
    "zip": "91203",
    "county": "LOS ANGELES",
    "phone": "(818) 725-1025",
    "lat": 34.15874,
    "lng": -118.262886
  },
  {
    "id": "630027699",
    "name": "HAPPY AT HOME HEALTH SERVICES INC",
    "npi": null,
    "hcaiId": null,
    "businessName": "HAPPY AT HOME HEALTH SERVICES INC",
    "contactEmail": "HAPPYATHOMEHEALTHSERVICES@GMAIL.COM",
    "categoryName": "HOME HEALTH AGENCY",
    "categoryCode": "HHA",
    "licenseStatus": "ACTIVE",
    "inService": true,
    "licenseNumber": "550009770",
    "licenseEffectiveDate": "10/21/2025",
    "licenseExpirationDate": "04/20/2026",
    "dataDate": "10/18/2025",
    "capacity": 0,
    "address": "450 N BRAND BLVD, SUITE 670",
    "city": "GLENDALE",
    "zip": "91203",
    "county": "LOS ANGELES",
    "phone": "(818) 245-6009",
    "lat": 34.15262901,
    "lng": -118.254336
  },
  {
    "id": "630026669",
    "name": "HARVARD PRO HOME HEALTH, INC.",
    "npi": null,
    "hcaiId": "406190263",
    "businessName": "HARVARD PRO HOME HEALTH, INC.",
    "contactEmail": "HARVARDPROHH@GMAIL.COM",
    "categoryName": "HOME HEALTH AGENCY",
    "categoryCode": "HHA",
    "licenseStatus": "ACTIVE",
    "inService": true,
    "licenseNumber": "550008981",
    "licenseEffectiveDate": "03/01/2025",
    "licenseExpirationDate": "02/28/2026",
    "dataDate": "10/18/2025",
    "capacity": 0,
    "address": "121 W LEXINGTON DR, SUITE 503A",
    "city": "GLENDALE",
    "zip": "91203",
    "county": "LOS ANGELES",
    "phone": "(747) 799-0044",
    "lat": 34.15224998,
    "lng": -118.25606
  },
  {
    "id": "630026295",
    "name": "HEALTHY FUTURE HOME HEALTHCARE, INC.",
    "npi": null,
    "hcaiId": null,
    "businessName": "HEALTHY FUTURE HOME HEALTHCARE, INC.",
    "contactEmail": "HEALTHYFUTUREHOMEHEALTH@GMAIL.COM",
    "categoryName": "HOME HEALTH AGENCY",
    "categoryCode": "HHA",
    "licenseStatus": "ACTIVE",
    "inService": true,
    "licenseNumber": "550009199",
    "licenseEffectiveDate": "06/10/2025",
    "licenseExpirationDate": "06/09/2026",
    "dataDate": "10/18/2025",
    "capacity": 0,
    "address": "372W ARDEN AVE, UNIT 206",
    "city": "GLENDALE",
    "zip": "91203",
    "county": "LOS ANGELES",
    "phone": "(747) 227-4715",
    "lat": 34.15821002,
    "lng": -118.261204
  },
  {
    "id": "630022200",
    "name": "HELPING HANDS HOME SERVICES, INC.",
    "npi": null,
    "hcaiId": "406190081",
    "businessName": "HELPING HANDS HOME SERVICES, INC.",
    "contactEmail": "HELPINGHANDHSHH@GMAIL.COM",
    "categoryName": "HOME HEALTH AGENCY",
    "categoryCode": "HHA",
    "licenseStatus": "ACTIVE",
    "inService": true,
    "licenseNumber": "550008852",
    "licenseEffectiveDate": "04/26/2024",
    "licenseExpirationDate": "10/25/2024",
    "dataDate": "10/18/2025",
    "capacity": 0,
    "address": "121 W LEXINGTON DR, SUITE 622C",
    "city": "GLENDALE",
    "zip": "91203",
    "county": "LOS ANGELES",
    "phone": "(818) 285-8231",
    "lat": 34.15224998,
    "lng": -118.25606
  },
  {
    "id": "630026526",
    "name": "HIGHLAND HOME HEALTH CARE, INC.",
    "npi": null,
    "hcaiId": null,
    "businessName": "HIGHLAND HOME HEALTH CARE, INC.",
    "contactEmail": "HIGHLANDHOMEHEALTH1@YAHOO.COM",
    "categoryName": "HOME HEALTH AGENCY",
    "categoryCode": "HHA",
    "licenseStatus": "ACTIVE",
    "inService": true,
    "licenseNumber": "550009351",
    "licenseEffectiveDate": "08/21/2025",
    "licenseExpirationDate": "08/20/2026",
    "dataDate": "10/18/2025",
    "capacity": 0,
    "address": "334 N PACIFIC AVE",
    "city": "GLENDALE",
    "zip": "91203",
    "county": "LOS ANGELES",
    "phone": "(818) 609-4349",
    "lat": 34.151022,
    "lng": -118.264365
  },
  {
    "id": "630020375",
    "name": "HOMELINE HOSPICE, INC",
    "npi": null,
    "hcaiId": "406196060",
    "businessName": "HOMELINE HOSPICE, INC",
    "contactEmail": "HOMELINEHOSPICE@YAHOO.COM",
    "categoryName": "HOSPICE",
    "categoryCode": "HOSPICE",
    "licenseStatus": "ACTIVE",
    "inService": true,
    "licenseNumber": "550005981",
    "licenseEffectiveDate": "03/04/2025",
    "licenseExpirationDate": "01/12/2027",
    "dataDate": "10/18/2025",
    "capacity": 0,
    "address": "700 N BRAND BLVD, SUITE 240",
    "city": "GLENDALE",
    "zip": "91203",
    "county": "LOS ANGELES",
    "phone": "(747) 282-1884",
    "lat": 34.15711798,
    "lng": -118.2539
  },
  {
    "id": "630022188",
    "name": "HYASA HEALTH CENTER",
    "npi": null,
    "hcaiId": "406190299",
    "businessName": "HYASA CENTER",
    "contactEmail": "HEALTH@HYASA.ORG",
    "categoryName": "HOME HEALTH AGENCY",
    "categoryCode": "HHA",
    "licenseStatus": "ACTIVE",
    "inService": true,
    "licenseNumber": "550008542",
    "licenseEffectiveDate": "03/06/2025",
    "licenseExpirationDate": "03/05/2026",
    "dataDate": "10/18/2025",
    "capacity": 0,
    "address": "330 ARDEN AVE, SUITE 210",
    "city": "GLENDALE",
    "zip": "91203",
    "county": "LOS ANGELES",
    "phone": "(818) 396-4467",
    "lat": 34.158168,
    "lng": -118.259334
  },
  {
    "id": "630021536",
    "name": "IDT HOSPICE CARE, INC",
    "npi": null,
    "hcaiId": "406194852",
    "businessName": "IDT HOSPICE CARE, INC",
    "contactEmail": "IDTHOSPICE@GMAIL.COM",
    "categoryName": "HOSPICE",
    "categoryCode": "HOSPICE",
    "licenseStatus": "ACTIVE",
    "inService": true,
    "licenseNumber": "550006818",
    "licenseEffectiveDate": "09/21/2025",
    "licenseExpirationDate": "09/20/2027",
    "dataDate": "10/18/2025",
    "capacity": 0,
    "address": "336 NORTH CENTRAL AVENUE, SUITE 8",
    "city": "GLENDALE",
    "zip": "91203",
    "county": "LOS ANGELES",
    "phone": "(818) 235-6875",
    "lat": 34.15132156,
    "lng": -118.2575223
  },
  {
    "id": "630018410",
    "name": "IMPERIAL HOME HEALTH CARE, INC.",
    "npi": "1447737432",
    "hcaiId": "406191720",
    "businessName": "IMPERIAL HOME HEALTH CARE, INC.",
    "contactEmail": "HOMEHEALTHIMPERIAL@MAIL.COM",
    "categoryName": "HOME HEALTH AGENCY",
    "categoryCode": "HHA",
    "licenseStatus": "ACTIVE",
    "inService": true,
    "licenseNumber": "550004782",
    "licenseEffectiveDate": "05/25/2025",
    "licenseExpirationDate": "05/24/2026",
    "dataDate": "10/18/2025",
    "capacity": 0,
    "address": "229 N CENTRAL AVE, SUITE 500",
    "city": "GLENDALE",
    "zip": "91203",
    "county": "LOS ANGELES",
    "phone": "(818) 945-8314",
    "lat": 34.149132,
    "lng": -118.2582675
  },
  {
    "id": "960002890",
    "name": "INSTITUTE FOR MULTICULTURAL COUNSELING & EDUCATION",
    "npi": null,
    "hcaiId": "306196569",
    "businessName": "INSTITUTE FOR MULTICULTURAL COUNSELING & EDUCATION",
    "contactEmail": "MASHROUTEH@IMCES.ORG",
    "categoryName": "PRIMARY CARE CLINIC",
    "categoryCode": "COMTYC",
    "licenseStatus": "ACTIVE",
    "inService": true,
    "licenseNumber": "960001451",
    "licenseEffectiveDate": "04/18/2025",
    "licenseExpirationDate": "04/17/2026",
    "dataDate": "10/18/2025",
    "capacity": 0,
    "address": "121 W LEXINGTON DR, SUITE 300",
    "city": "GLENDALE",
    "zip": "91203",
    "county": "LOS ANGELES",
    "phone": "(213) 381-1250",
    "lat": 34.15196001,
    "lng": -118.255485
  },
  {
    "id": "960002146",
    "name": "JOSEPH S. LUK PHYSICAL THERAPY INC.",
    "npi": null,
    "hcaiId": null,
    "businessName": null,
    "contactEmail": null,
    "categoryName": "REHABILITATION CLINIC",
    "categoryCode": "OPT/SP",
    "licenseStatus": null,
    "inService": null,
    "licenseNumber": null,
    "licenseEffectiveDate": null,
    "licenseExpirationDate": null,
    "dataDate": "10/18/2025",
    "capacity": 0,
    "address": "500 N CENTRAL AVE, SUITE 350",
    "city": "GLENDALE",
    "zip": "91203",
    "county": "LOS ANGELES",
    "phone": "(818) 240-5012",
    "lat": 34.15293458,
    "lng": -118.2578647
  },
  {
    "id": "630016055",
    "name": "K & K HOME HEALTH CARE, INC.",
    "npi": "1972984227",
    "hcaiId": "406198353",
    "businessName": "K & K HOME HEALTH CARE, INC.",
    "contactEmail": "K.KHOMEHEALTH@GMAIL.COM",
    "categoryName": "HOME HEALTH AGENCY",
    "categoryCode": "HHA",
    "licenseStatus": "ACTIVE",
    "inService": true,
    "licenseNumber": "550003528",
    "licenseEffectiveDate": "09/09/2025",
    "licenseExpirationDate": "05/23/2026",
    "dataDate": "10/18/2025",
    "capacity": 0,
    "address": "411 NORTH CENTRAL AVENUE, SUITE 300",
    "city": "GLENDALE",
    "zip": "91203",
    "county": "LOS ANGELES",
    "phone": "(818) 352-4747",
    "lat": 34.15258002,
    "lng": -118.2584614
  },
  {
    "id": "630025188",
    "name": "KING CARE HOME HEALTH, INC.",
    "npi": null,
    "hcaiId": null,
    "businessName": "KING CARE HOME HEALTH, INC.",
    "contactEmail": "KINGCAREHH@GMAIL.COM",
    "categoryName": "HOME HEALTH AGENCY",
    "categoryCode": "HHA",
    "licenseStatus": "ACTIVE",
    "inService": true,
    "licenseNumber": "550008254",
    "licenseEffectiveDate": "12/01/2024",
    "licenseExpirationDate": "11/30/2025",
    "dataDate": "10/18/2025",
    "capacity": 0,
    "address": "525 N BRAND BLVD, SUITE 104",
    "city": "GLENDALE",
    "zip": "91203",
    "county": "LOS ANGELES",
    "phone": "(818) 928-2212",
    "lat": 34.15383,
    "lng": -118.255491
  },
  {
    "id": "630023918",
    "name": "L & N HOME HEALTH",
    "npi": null,
    "hcaiId": "406195837",
    "businessName": "L & N HOME HEALTH",
    "contactEmail": "LNHOMEHEALTHINC@GMAIL.COM",
    "categoryName": "HOME HEALTH AGENCY",
    "categoryCode": "HHA",
    "licenseStatus": "ACTIVE",
    "inService": true,
    "licenseNumber": "550007960",
    "licenseEffectiveDate": "04/27/2025",
    "licenseExpirationDate": "04/26/2026",
    "dataDate": "10/18/2025",
    "capacity": 0,
    "address": "121 W LEXINGTON DR, SUITE 307C",
    "city": "GLENDALE",
    "zip": "91203",
    "county": "LOS ANGELES",
    "phone": "(818) 480-6521",
    "lat": 34.151958,
    "lng": -118.255491
  },
  {
    "id": "630025453",
    "name": "LEA HOME HEALTH",
    "npi": null,
    "hcaiId": "406190109",
    "businessName": "LEA HOME HEALTH",
    "contactEmail": "LEAHEALTHCARE@GMAIL.COM",
    "categoryName": "HOME HEALTH AGENCY",
    "categoryCode": "HHA",
    "licenseStatus": "ACTIVE",
    "inService": true,
    "licenseNumber": "550008608",
    "licenseEffectiveDate": "06/06/2025",
    "licenseExpirationDate": "06/05/2026",
    "dataDate": "10/18/2025",
    "capacity": 0,
    "address": "121 W LEXINGTON DR, SUITE 616A",
    "city": "GLENDALE",
    "zip": "91203",
    "county": "LOS ANGELES",
    "phone": "(818) 483-6400",
    "lat": 34.185915,
    "lng": -118.448451
  },
  {
    "id": "630025243",
    "name": "LENUS HEALTH CARE INC.",
    "npi": null,
    "hcaiId": "406190117",
    "businessName": "LENUS HEALTH CARE INC.",
    "contactEmail": "LENUSHEALTH1@GMAIL.COM",
    "categoryName": "HOME HEALTH AGENCY",
    "categoryCode": "HHA",
    "licenseStatus": "ACTIVE",
    "inService": true,
    "licenseNumber": "550008612",
    "licenseEffectiveDate": "06/30/2025",
    "licenseExpirationDate": "06/29/2026",
    "dataDate": "10/18/2025",
    "capacity": 0,
    "address": "121 W LEXINGTON DR, UNIT B168C",
    "city": "GLENDALE",
    "zip": "91203",
    "county": "LOS ANGELES",
    "phone": "(747) 221-2245",
    "lat": 34.151958,
    "lng": -118.255491
  },
  {
    "id": "630022454",
    "name": "LIARA HOSPICE INC",
    "npi": null,
    "hcaiId": "406193897",
    "businessName": "LIARA HOSPICE INC",
    "contactEmail": "LIARAHOSPICEINC@GMAIL.COM",
    "categoryName": "HOSPICE",
    "categoryCode": "HOSPICE",
    "licenseStatus": "ACTIVE",
    "inService": true,
    "licenseNumber": "550007254",
    "licenseEffectiveDate": "07/25/2024",
    "licenseExpirationDate": "11/23/2025",
    "dataDate": "10/18/2025",
    "capacity": 0,
    "address": "121 W LEXINGTON DR, SUITE 305B",
    "city": "GLENDALE",
    "zip": "91203",
    "county": "LOS ANGELES",
    "phone": "(818) 937-0889",
    "lat": 34.15196298,
    "lng": -118.255487
  },
  {
    "id": "630020857",
    "name": "LIFE LINE HEALTH CARE SERVICES INC",
    "npi": null,
    "hcaiId": "406195295",
    "businessName": "LIFE LINE HEALTH CARE SERVICES INC",
    "contactEmail": "LIFELINEHOMEHEALTH123@GMAIL.COM",
    "categoryName": "HOME HEALTH AGENCY",
    "categoryCode": "HHA",
    "licenseStatus": "ACTIVE",
    "inService": true,
    "licenseNumber": "550006652",
    "licenseEffectiveDate": "08/13/2025",
    "licenseExpirationDate": "08/12/2026",
    "dataDate": "10/18/2025",
    "capacity": 0,
    "address": "121 W LEXINGTON DR, SUITE 218B",
    "city": "GLENDALE",
    "zip": "91203",
    "county": "LOS ANGELES",
    "phone": "(747) 441-1464",
    "lat": 34.151958,
    "lng": -118.255491
  },
  {
    "id": "630025639",
    "name": "LILY HOME HEALTH SERVICES",
    "npi": null,
    "hcaiId": "406190124",
    "businessName": "LILY HOME HEALTH SERVICES",
    "contactEmail": "LILYHOMEHEALTHSERVICES@GMAIL.COM",
    "categoryName": "HOME HEALTH AGENCY",
    "categoryCode": "HHA",
    "licenseStatus": "ACTIVE",
    "inService": true,
    "licenseNumber": "550008599",
    "licenseEffectiveDate": "06/20/2025",
    "licenseExpirationDate": "06/19/2026",
    "dataDate": "10/18/2025",
    "capacity": 0,
    "address": "121 W LEXINGTON DR, SUITE B180C",
    "city": "GLENDALE",
    "zip": "91203",
    "county": "LOS ANGELES",
    "phone": "(818) 531-8152",
    "lat": 34.151958,
    "lng": -118.255491
  },
  {
    "id": "630015724",
    "name": "LONGEVITY HOSPICE CARE SERVICES, INC.",
    "npi": null,
    "hcaiId": "406198331",
    "businessName": "LONGEVITY HOSPICE CARE SERVICES, INC.",
    "contactEmail": "LONGEVITYHOSPICE@YAHOO.COM",
    "categoryName": "HOSPICE",
    "categoryCode": "HOSPICE",
    "licenseStatus": "ACTIVE",
    "inService": true,
    "licenseNumber": "550003695",
    "licenseEffectiveDate": "10/19/2024",
    "licenseExpirationDate": "10/18/2026",
    "dataDate": "10/18/2025",
    "capacity": 0,
    "address": "229 N. CENTRAL AVENUE, SUITE 607",
    "city": "GLENDALE",
    "zip": "91203",
    "county": "LOS ANGELES",
    "phone": "(818) 334-6243",
    "lat": 34.149132,
    "lng": -118.2582675
  },
  {
    "id": "630017863",
    "name": "LOVING RAINBOW HOSPICE",
    "npi": null,
    "hcaiId": null,
    "businessName": "LOVING RAINBOW HOSPICE",
    "contactEmail": "MONTEBELLOHEALTH@YAHOO.COM",
    "categoryName": "HOSPICE",
    "categoryCode": "HOSPICE",
    "licenseStatus": "ACTIVE",
    "inService": true,
    "licenseNumber": "550006217",
    "licenseEffectiveDate": "04/19/2025",
    "licenseExpirationDate": "04/18/2027",
    "dataDate": "10/18/2025",
    "capacity": 0,
    "address": "315 ARDEN AVE, SUITE 4",
    "city": "GLENDALE",
    "zip": "91203",
    "county": "LOS ANGELES",
    "phone": "(818) 322-6497",
    "lat": 34.158834,
    "lng": -118.2587715
  },
  {
    "id": "630026680",
    "name": "LUCENT HOME HEALTH",
    "npi": null,
    "hcaiId": null,
    "businessName": "LUCENT HOME HEALTH",
    "contactEmail": "LUCENTHHA@GMAIL.COM",
    "categoryName": "HOME HEALTH AGENCY",
    "categoryCode": "HHA",
    "licenseStatus": "ACTIVE",
    "inService": true,
    "licenseNumber": "550009255",
    "licenseEffectiveDate": "07/15/2025",
    "licenseExpirationDate": "07/14/2026",
    "dataDate": "10/18/2025",
    "capacity": 0,
    "address": "401 N BRAND BLVD, SUITE 824",
    "city": "GLENDALE",
    "zip": "91203",
    "county": "LOS ANGELES",
    "phone": "(818) 480-5782",
    "lat": 34.15178144,
    "lng": -118.2551794
  },
  {
    "id": "630027705",
    "name": "LUCID HOME HEALTH INC.",
    "npi": null,
    "hcaiId": null,
    "businessName": "LUCID HOME HEALTH INC.",
    "contactEmail": "LUCIDHOMEHEALTH@GMAIL.COM",
    "categoryName": "HOME HEALTH AGENCY",
    "categoryCode": "HHA",
    "licenseStatus": "ACTIVE",
    "inService": true,
    "licenseNumber": "550009707",
    "licenseEffectiveDate": "09/07/2025",
    "licenseExpirationDate": "03/06/2026",
    "dataDate": "10/18/2025",
    "capacity": 0,
    "address": "715 N CENTRAL AVE, SUITE 215",
    "city": "GLENDALE",
    "zip": "91203",
    "county": "LOS ANGELES",
    "phone": "(747) 255-7352",
    "lat": 34.156949,
    "lng": -118.258342
  },
  {
    "id": "630017700",
    "name": "LUGA HOME HEALTH CARE SERVICES, INC.",
    "npi": "1306350699",
    "hcaiId": "406191774",
    "businessName": "LUGA HOME HEALTH CARE SERVICES, INC.",
    "contactEmail": "LUGAHHC@YAHOO.COM",
    "categoryName": "HOME HEALTH AGENCY",
    "categoryCode": "HHA",
    "licenseStatus": "ACTIVE",
    "inService": true,
    "licenseNumber": "550004786",
    "licenseEffectiveDate": "06/27/2025",
    "licenseExpirationDate": "06/26/2026",
    "dataDate": "10/18/2025",
    "capacity": 0,
    "address": "121 W LEXINGTON DR, SUITE 202",
    "city": "GLENDALE",
    "zip": "91203",
    "county": "LOS ANGELES",
    "phone": "(818) 748-3500",
    "lat": 34.151958,
    "lng": -118.255491
  },
  {
    "id": "630014989",
    "name": "MAXLIFE HOME CARE SERVICES, INC.",
    "npi": "1568889434",
    "hcaiId": "406198156",
    "businessName": "MAXLIFE HOME CARE SERVICES, INC.",
    "contactEmail": "INFO@MAXLIFEHOMECARE.COM",
    "categoryName": "HOME HEALTH AGENCY",
    "categoryCode": "HHA",
    "licenseStatus": "ACTIVE",
    "inService": true,
    "licenseNumber": "550003202",
    "licenseEffectiveDate": "08/05/2024",
    "licenseExpirationDate": "08/04/2025",
    "dataDate": "10/18/2025",
    "capacity": 0,
    "address": "500 N CENTRAL AVE, SUITE 100",
    "city": "GLENDALE",
    "zip": "91203",
    "county": "LOS ANGELES",
    "phone": "(818) 538-5152",
    "lat": 34.15293458,
    "lng": -118.2578647
  },
  {
    "id": "630025605",
    "name": "MDKK HEALTHCARE INC",
    "npi": null,
    "hcaiId": "406190043",
    "businessName": "MDKK HEALTHCARE INC",
    "contactEmail": "MDKKHEALTHCAREINC@YAHOO.COM",
    "categoryName": "HOME HEALTH AGENCY",
    "categoryCode": "HHA",
    "licenseStatus": "ACTIVE",
    "inService": true,
    "licenseNumber": "550008674",
    "licenseEffectiveDate": "07/29/2024",
    "licenseExpirationDate": "07/28/2025",
    "dataDate": "10/18/2025",
    "capacity": 0,
    "address": "318 1/2 N BRAND BLVD, SUITE D3",
    "city": "GLENDALE",
    "zip": "91203",
    "county": "LOS ANGELES",
    "phone": "(747) 233-8681",
    "lat": 34.15069401,
    "lng": -118.2549102
  },
  {
    "id": "630011788",
    "name": "MGA HOSPICE INC.",
    "npi": "1275729972",
    "hcaiId": "406197380",
    "businessName": "MGA HOSPICE, INC",
    "contactEmail": "ADMIN@MGAHOSPICE.COM",
    "categoryName": "HOSPICE",
    "categoryCode": "HOSPICE",
    "licenseStatus": "ACTIVE",
    "inService": true,
    "licenseNumber": "550001254",
    "licenseEffectiveDate": "02/05/2022",
    "licenseExpirationDate": "02/04/2024",
    "dataDate": "10/18/2025",
    "capacity": 0,
    "address": "121 W. LEXINGTON DR., SUITE 216",
    "city": "GLENDALE",
    "zip": "91203",
    "county": "LOS ANGELES",
    "phone": "(818) 241-2725",
    "lat": 34.151958,
    "lng": -118.255491
  },
  {
    "id": "630019492",
    "name": "MIDAS HEALING HOSPICE, INC.",
    "npi": null,
    "hcaiId": "406196161",
    "businessName": "MIDAS HEALING HOSPICE, INC",
    "contactEmail": "MIDASHEALINGH@GMAIL.COM",
    "categoryName": "HOSPICE",
    "categoryCode": "HOSPICE",
    "licenseStatus": "ACTIVE",
    "inService": true,
    "licenseNumber": "550005987",
    "licenseEffectiveDate": "01/19/2025",
    "licenseExpirationDate": "01/18/2027",
    "dataDate": "10/18/2025",
    "capacity": 0,
    "address": "401 N BRAND BLVD, SUITE L106I",
    "city": "GLENDALE",
    "zip": "91203",
    "county": "LOS ANGELES",
    "phone": "(818) 480-6579",
    "lat": 34.15178144,
    "lng": -118.2551794
  },
  {
    "id": "630026306",
    "name": "MONTE HEALTHCARE",
    "npi": null,
    "hcaiId": null,
    "businessName": "MONTE HEALTHCARE",
    "contactEmail": "MONTEHEALTHCAREHH@GMAIL.COM",
    "categoryName": "HOME HEALTH AGENCY",
    "categoryCode": "HHA",
    "licenseStatus": "ACTIVE",
    "inService": true,
    "licenseNumber": "550009720",
    "licenseEffectiveDate": "08/07/2025",
    "licenseExpirationDate": "02/06/2026",
    "dataDate": "10/18/2025",
    "capacity": 0,
    "address": "121 W LEXINGTON DR, SUITE L300D",
    "city": "GLENDALE",
    "zip": "91203",
    "county": "LOS ANGELES",
    "phone": "(747) 999-0017",
    "lat": 34.151958,
    "lng": -118.255491
  },
  {
    "id": "630018111",
    "name": "NARVISTA HOME HEALTH, INC.",
    "npi": null,
    "hcaiId": "406191491",
    "businessName": "NARVISTA HOME HEALTH INC",
    "contactEmail": "NARVISTAHOME@GMAIL.COM",
    "categoryName": "HOME HEALTH AGENCY",
    "categoryCode": "HHA",
    "licenseStatus": "ACTIVE",
    "inService": true,
    "licenseNumber": "550004566",
    "licenseEffectiveDate": "03/01/2025",
    "licenseExpirationDate": "02/28/2026",
    "dataDate": "10/18/2025",
    "capacity": 0,
    "address": "421 ARDEN AVE",
    "city": "GLENDALE",
    "zip": "91203",
    "county": "LOS ANGELES",
    "phone": "(818) 925-2725",
    "lat": 34.15871599,
    "lng": -118.262415
  },
  {
    "id": "630022077",
    "name": "NATURE'S CURE HOME HEALTH",
    "npi": null,
    "hcaiId": "406195321",
    "businessName": "NATURE'S CURE HOME HEALTH",
    "contactEmail": "NATURESCUREHH@GMAIL.COM",
    "categoryName": "HOME HEALTH AGENCY",
    "categoryCode": "HHA",
    "licenseStatus": "ACTIVE",
    "inService": true,
    "licenseNumber": "550007894",
    "licenseEffectiveDate": "07/09/2025",
    "licenseExpirationDate": "03/09/2026",
    "dataDate": "10/18/2025",
    "capacity": 0,
    "address": "417 ARDEN AVE, SUITE 112A",
    "city": "GLENDALE",
    "zip": "91203",
    "county": "LOS ANGELES",
    "phone": "(818) 441-0098",
    "lat": 34.15875501,
    "lng": -118.262185
  },
  {
    "id": "630007543",
    "name": "NURSE RESOURCE HOME HEALTH INC.",
    "npi": "1083809636",
    "hcaiId": "406196848",
    "businessName": "NURSE RESOURCE HOME HEALTH INC.",
    "contactEmail": "NRHHI200@GMAIL.COM",
    "categoryName": "HOME HEALTH AGENCY",
    "categoryCode": "HHA",
    "licenseStatus": "ACTIVE",
    "inService": true,
    "licenseNumber": "550000305",
    "licenseEffectiveDate": "08/03/2024",
    "licenseExpirationDate": "08/02/2025",
    "dataDate": "10/18/2025",
    "capacity": 0,
    "address": "535 N BRAND BLVD, SUITE 200",
    "city": "GLENDALE",
    "zip": "91203",
    "county": "LOS ANGELES",
    "phone": "(818) 240-6744",
    "lat": 34.154298,
    "lng": -118.2555
  },
  {
    "id": "630025396",
    "name": "OLIVIA'S HOME HEALTH CARE, INC",
    "npi": null,
    "hcaiId": "406190123",
    "businessName": "OLIVIA'S HOME HEALTH CARE, INC",
    "contactEmail": "OLIVIASHHC@GMAIL.COM",
    "categoryName": "HOME HEALTH AGENCY",
    "categoryCode": "HHA",
    "licenseStatus": "ACTIVE",
    "inService": true,
    "licenseNumber": "550008595",
    "licenseEffectiveDate": "06/20/2025",
    "licenseExpirationDate": "06/19/2026",
    "dataDate": "10/18/2025",
    "capacity": 0,
    "address": "121 W LEXINGTON DR, SUITE L400F",
    "city": "GLENDALE",
    "zip": "91203",
    "county": "LOS ANGELES",
    "phone": "(818) 480-6569",
    "lat": 34.151958,
    "lng": -118.255491
  },
  {
    "id": "630025910",
    "name": "OSAA HOME HEALTH INC",
    "npi": null,
    "hcaiId": null,
    "businessName": "OSAA HOME HEALTH INC",
    "contactEmail": "4OSAAHH@GMAIL.COM",
    "categoryName": "HOME HEALTH AGENCY",
    "categoryCode": "HHA",
    "licenseStatus": "ACTIVE",
    "inService": true,
    "licenseNumber": "550009033",
    "licenseEffectiveDate": "03/18/2025",
    "licenseExpirationDate": "03/17/2026",
    "dataDate": "10/18/2025",
    "capacity": 0,
    "address": "535 N BRAND BLVD, SUITE 245",
    "city": "GLENDALE",
    "zip": "91203",
    "county": "LOS ANGELES",
    "phone": "(818) 796-4455",
    "lat": 34.154298,
    "lng": -118.2555
  },
  {
    "id": "630020728",
    "name": "PADRE PIO HOSPICE & PALLIATIVE CARE",
    "npi": null,
    "hcaiId": "406193558",
    "businessName": "EXQUISITE TOUCH HOSPICE",
    "contactEmail": "EXQUISITETOUCHHOSPICE@GMAIL.COM",
    "categoryName": "HOSPICE",
    "categoryCode": "HOSPICE",
    "licenseStatus": "ACTIVE",
    "inService": true,
    "licenseNumber": "550006590",
    "licenseEffectiveDate": "07/13/2025",
    "licenseExpirationDate": "07/12/2027",
    "dataDate": "10/18/2025",
    "capacity": 0,
    "address": "450 N BRAND BLVD, SUITE 600",
    "city": "GLENDALE",
    "zip": "91203",
    "county": "LOS ANGELES",
    "phone": "(818) 480-4816",
    "lat": 34.15262599,
    "lng": -118.25433
  },
  {
    "id": "630020414",
    "name": "PALERMO HOSPICE, INC",
    "npi": null,
    "hcaiId": "406196123",
    "businessName": "PALERMO HOSPICE, INC.",
    "contactEmail": "PALERMOHOSPICE@GMAIL.COM",
    "categoryName": "HOSPICE",
    "categoryCode": "HOSPICE",
    "licenseStatus": "ACTIVE",
    "inService": true,
    "licenseNumber": "550006366",
    "licenseEffectiveDate": "06/03/2025",
    "licenseExpirationDate": "06/02/2027",
    "dataDate": "10/18/2025",
    "capacity": 0,
    "address": "229 N CENTRAL AVE, SUITE 201",
    "city": "GLENDALE",
    "zip": "91203",
    "county": "LOS ANGELES",
    "phone": "(818) 751-0751",
    "lat": 34.149132,
    "lng": -118.2582675
  },
  {
    "id": "630024369",
    "name": "PARADIGM HOME HEALTH, INC",
    "npi": null,
    "hcaiId": "406190174",
    "businessName": "PARADIGM HOME HEALTH, INC",
    "contactEmail": "PARADIGMHHCARE@GMAIL.COM",
    "categoryName": "HOME HEALTH AGENCY",
    "categoryCode": "HHA",
    "licenseStatus": "ACTIVE",
    "inService": true,
    "licenseNumber": "550008546",
    "licenseEffectiveDate": "01/11/2025",
    "licenseExpirationDate": "01/10/2026",
    "dataDate": "10/18/2025",
    "capacity": 0,
    "address": "500 N CENTRAL AVE, UNIT 225B",
    "city": "GLENDALE",
    "zip": "91203",
    "county": "LOS ANGELES",
    "phone": "(747) 248-2505",
    "lat": 34.15322601,
    "lng": -118.257198
  },
  {
    "id": "630022475",
    "name": "PEACE & HARMONY HOME HEALTH CARE INC",
    "npi": null,
    "hcaiId": "406195704",
    "businessName": "PEACE & HARMONY HOME HEALTH CARE INC",
    "contactEmail": "PEACEHARMONYHOMEHEALTHCARE@GMAIL.COM",
    "categoryName": "HOME HEALTH AGENCY",
    "categoryCode": "HHA",
    "licenseStatus": "ACTIVE",
    "inService": true,
    "licenseNumber": "550007437",
    "licenseEffectiveDate": "01/30/2025",
    "licenseExpirationDate": "11/22/2025",
    "dataDate": "10/18/2025",
    "capacity": 0,
    "address": "620 N BRAND BLVD, SUITE 200",
    "city": "GLENDALE",
    "zip": "91203",
    "county": "LOS ANGELES",
    "phone": "(747) 262-1676",
    "lat": 34.15559926,
    "lng": -118.2546616
  },
  {
    "id": "630019486",
    "name": "PEAK CARE HOSPICE, INC.",
    "npi": null,
    "hcaiId": null,
    "businessName": "PEAK CARE HOSPICE, INC.",
    "contactEmail": "PEAKCAREH@GMAIL.COM",
    "categoryName": "HOSPICE",
    "categoryCode": "HOSPICE",
    "licenseStatus": "ACTIVE",
    "inService": true,
    "licenseNumber": "550006080",
    "licenseEffectiveDate": "01/19/2021",
    "licenseExpirationDate": "01/18/2023",
    "dataDate": "10/18/2025",
    "capacity": 0,
    "address": "401 N BRAND BLVD, SUITE 248",
    "city": "GLENDALE",
    "zip": "91203",
    "county": "LOS ANGELES",
    "phone": "(818)480-3284",
    "lat": 34.15178144,
    "lng": -118.2551794
  },
  {
    "id": "630025836",
    "name": "PEAK HOME HEALTH, INC.",
    "npi": null,
    "hcaiId": "406190276",
    "businessName": "PEAK HOME HEALTH, INC",
    "contactEmail": "PEAKHHINC@GMAIL.COM",
    "categoryName": "HOME HEALTH AGENCY",
    "categoryCode": "HHA",
    "licenseStatus": "ACTIVE",
    "inService": true,
    "licenseNumber": "550008982",
    "licenseEffectiveDate": "02/28/2025",
    "licenseExpirationDate": "02/27/2026",
    "dataDate": "10/18/2025",
    "capacity": 0,
    "address": "525 N BRAND BLVD, SUITE 101",
    "city": "GLENDALE",
    "zip": "91203",
    "county": "LOS ANGELES",
    "phone": "(313) 443-6633",
    "lat": 34.15383,
    "lng": -118.255491
  },
  {
    "id": "980001517",
    "name": "PEGASUS HOME HEALTH CARE",
    "npi": "1366447534",
    "hcaiId": "406196599",
    "businessName": "PEGASUS HOME HEALTH CARE",
    "contactEmail": "INFO@PEGASUSHOMECARE.COM",
    "categoryName": "HOME HEALTH AGENCY",
    "categoryCode": "HHA",
    "licenseStatus": "ACTIVE",
    "inService": true,
    "licenseNumber": "980000856",
    "licenseEffectiveDate": "12/19/2024",
    "licenseExpirationDate": "12/18/2025",
    "dataDate": "10/18/2025",
    "capacity": 0,
    "address": "505 N BRAND BLVD, SUITE 1000",
    "city": "GLENDALE",
    "zip": "91203",
    "county": "LOS ANGELES",
    "phone": "(800) 551-1939",
    "lat": 34.153515,
    "lng": -118.255833
  },
  {
    "id": "630017804",
    "name": "PRECEDENT HOME HEALTH CARE, INC.",
    "npi": null,
    "hcaiId": "406192670",
    "businessName": "PRECEDENT HOME HEALTH CARE, INC.",
    "contactEmail": "PRECEDENTHHCI@GMAIL.COM",
    "categoryName": "HOME HEALTH AGENCY",
    "categoryCode": "HHA",
    "licenseStatus": "ACTIVE",
    "inService": true,
    "licenseNumber": "550005590",
    "licenseEffectiveDate": "11/16/2024",
    "licenseExpirationDate": "07/17/2025",
    "dataDate": "10/18/2025",
    "capacity": 0,
    "address": "100 N BRAND BLVD, SUITE 201",
    "city": "GLENDALE",
    "zip": "91203",
    "county": "LOS ANGELES",
    "phone": "(818) 813-8023",
    "lat": 34.146522,
    "lng": -118.254731
  },
  {
    "id": "630020039",
    "name": "PRIME PALLIATIVE CARE INC",
    "npi": "1164051918",
    "hcaiId": "406194694",
    "businessName": "PRIME PALLIATIVE CARE INC",
    "contactEmail": "PRIMEPALLIATIVECARE@YAHOO.COM",
    "categoryName": "HOSPICE",
    "categoryCode": "HOSPICE",
    "licenseStatus": "ACTIVE",
    "inService": true,
    "licenseNumber": "550005834",
    "licenseEffectiveDate": "12/02/2022",
    "licenseExpirationDate": "06/16/2024",
    "dataDate": "10/18/2025",
    "capacity": 0,
    "address": "121 W LEXINGTON DR, SUITE 513",
    "city": "GLENDALE",
    "zip": "91203",
    "county": "LOS ANGELES",
    "phone": "(747) 224-6444",
    "lat": 34.151958,
    "lng": -118.255491
  },
  {
    "id": "630025513",
    "name": "PRIMEWELL HOME HEALTH INC",
    "npi": null,
    "hcaiId": null,
    "businessName": "PRIMEWELL HOME HEALTH INC",
    "contactEmail": "PRIMEWELLHOMEHEALTH@GMAIL.COM",
    "categoryName": "HOME HEALTH AGENCY",
    "categoryCode": "HHA",
    "licenseStatus": "ACTIVE",
    "inService": true,
    "licenseNumber": "550008638",
    "licenseEffectiveDate": "07/11/2025",
    "licenseExpirationDate": "07/10/2026",
    "dataDate": "10/18/2025",
    "capacity": 0,
    "address": "372 W ARDEN AVE, UNIT 203",
    "city": "GLENDALE",
    "zip": "91203",
    "county": "LOS ANGELES",
    "phone": "(818) 877-5430",
    "lat": 34.15821002,
    "lng": -118.261204
  },
  {
    "id": "630025048",
    "name": "RAPID HOME HEALTH CARE INC.",
    "npi": null,
    "hcaiId": "406196538",
    "businessName": "RAPID HOME HEALTH CARE INC.",
    "contactEmail": "RAPIDHOMEHC@GMAIL.COM",
    "categoryName": "HOME HEALTH AGENCY",
    "categoryCode": "HHA",
    "licenseStatus": "ACTIVE",
    "inService": true,
    "licenseNumber": "550008192",
    "licenseEffectiveDate": "10/13/2025",
    "licenseExpirationDate": "10/12/2026",
    "dataDate": "10/18/2025",
    "capacity": 0,
    "address": "100 N BRAND BLVD, SUITE 311",
    "city": "GLENDALE",
    "zip": "91203",
    "county": "LOS ANGELES",
    "phone": "(747) 400-0412",
    "lat": 34.146513,
    "lng": -118.2547215
  },
  {
    "id": "980002303",
    "name": "RELY ABLE HOME HEALTH CARE",
    "npi": "1194894782",
    "hcaiId": "406196399",
    "businessName": "ANDRE F. HENRY MEDICAL ENTERPRISE, INC.",
    "contactEmail": "PHENRY@RELYABLEHHC.COM",
    "categoryName": "HOME HEALTH AGENCY",
    "categoryCode": "HHA",
    "licenseStatus": "ACTIVE",
    "inService": true,
    "licenseNumber": "980001417",
    "licenseEffectiveDate": "11/05/2024",
    "licenseExpirationDate": "11/04/2025",
    "dataDate": "10/18/2025",
    "capacity": 0,
    "address": "331 ARDEN AVE, SUITE 101",
    "city": "GLENDALE",
    "zip": "91203",
    "county": "LOS ANGELES",
    "phone": "(818) 241-6470",
    "lat": 34.158663,
    "lng": -118.25937
  },
  {
    "id": "630024455",
    "name": "RELY HOME HEALTH, INC.",
    "npi": null,
    "hcaiId": "406195875",
    "businessName": "RELY HOME HEALTH, INC.",
    "contactEmail": "RELYHOMEHEALTH@GMAIL.COM",
    "categoryName": "HOME HEALTH AGENCY",
    "categoryCode": "HHA",
    "licenseStatus": "ACTIVE",
    "inService": true,
    "licenseNumber": "550008040",
    "licenseEffectiveDate": "05/27/2025",
    "licenseExpirationDate": "05/26/2026",
    "dataDate": "10/18/2025",
    "capacity": 0,
    "address": "100 N BRAND BLVD, SUITE 401",
    "city": "GLENDALE",
    "zip": "91203",
    "county": "LOS ANGELES",
    "phone": "(747) 888-5388",
    "lat": 34.14652401,
    "lng": -118.254737
  },
  {
    "id": "630021561",
    "name": "RESOLUTE HOME HEALTH CARE INC.",
    "npi": null,
    "hcaiId": "406193570",
    "businessName": "RESOLUTE HOME HEALTH CARE INC.",
    "contactEmail": "RESOLUTEHOMEHEALTHCARE@GMAIL.COM",
    "categoryName": "HOME HEALTH AGENCY",
    "categoryCode": "HHA",
    "licenseStatus": "ACTIVE",
    "inService": true,
    "licenseNumber": "550006831",
    "licenseEffectiveDate": "09/23/2025",
    "licenseExpirationDate": "09/22/2026",
    "dataDate": "10/18/2025",
    "capacity": 0,
    "address": "715 N CENTRAL AVE, SUITE 218",
    "city": "GLENDALE",
    "zip": "91203",
    "county": "LOS ANGELES",
    "phone": "(747) 345-3833",
    "lat": 34.156935,
    "lng": -118.258362
  },
  {
    "id": "630015736",
    "name": "RH HOME HEALTH SERVICES, INC.",
    "npi": "1669870242",
    "hcaiId": "406198082",
    "businessName": "RH HOME HEALTH SERVICES, INC.",
    "contactEmail": "RHHOMEHEALTH_SERVICES@YAHOO.COM",
    "categoryName": "HOME HEALTH AGENCY",
    "categoryCode": "HHA",
    "licenseStatus": "ACTIVE",
    "inService": true,
    "licenseNumber": "550003106",
    "licenseEffectiveDate": "06/18/2025",
    "licenseExpirationDate": "06/17/2026",
    "dataDate": "10/18/2025",
    "capacity": 0,
    "address": "229 N. CENTRAL AVE., SUITE 610",
    "city": "GLENDALE",
    "zip": "91203",
    "county": "LOS ANGELES",
    "phone": "(818) 476-5688",
    "lat": 34.149132,
    "lng": -118.2582675
  },
  {
    "id": "630013008",
    "name": "RIGHT CHOICE HOME HEALTH, INC.",
    "npi": null,
    "hcaiId": "406197607",
    "businessName": "RIGHT CHOICE HOME HEALTH, INC.",
    "contactEmail": "CORPORATE@RCHHA.COM",
    "categoryName": "HOME HEALTH AGENCY",
    "categoryCode": "HHA",
    "licenseStatus": "ACTIVE",
    "inService": true,
    "licenseNumber": "550001677",
    "licenseEffectiveDate": "11/24/2023",
    "licenseExpirationDate": "11/23/2024",
    "dataDate": "10/18/2025",
    "capacity": 0,
    "address": "435 ARDEN AVE, SUITE #560A",
    "city": "GLENDALE",
    "zip": "91203",
    "county": "LOS ANGELES",
    "phone": "(818) 806-7020",
    "lat": 34.158816,
    "lng": -118.262844
  },
  {
    "id": "630024046",
    "name": "ROYAL A&V HOME HEALTH CARE, INC.",
    "npi": null,
    "hcaiId": "406195869",
    "businessName": "ROYAL A&V HOME HEALTH CARE, INC.",
    "contactEmail": "ROYALAVHH@GMAIL.COM",
    "categoryName": "HOME HEALTH AGENCY",
    "categoryCode": "HHA",
    "licenseStatus": "ACTIVE",
    "inService": true,
    "licenseNumber": "550008026",
    "licenseEffectiveDate": "06/10/2025",
    "licenseExpirationDate": "06/09/2026",
    "dataDate": "10/18/2025",
    "capacity": 0,
    "address": "121 W LEXINGTON DR, SUITE 307B",
    "city": "GLENDALE",
    "zip": "91203",
    "county": "LOS ANGELES",
    "phone": "(818) 480-3289",
    "lat": 34.151958,
    "lng": -118.255491
  },
  {
    "id": "630016878",
    "name": "SAINT MARIA HOSPICE CARE, INC.",
    "npi": "1912451592",
    "hcaiId": "406191911",
    "businessName": "SAINT MARIA HOSPICE CARE, INC.",
    "contactEmail": "SAINTMARIAHOSPICECARE@YAHOO.COM",
    "categoryName": "HOSPICE",
    "categoryCode": "HOSPICE",
    "licenseStatus": "ACTIVE",
    "inService": true,
    "licenseNumber": "550004864",
    "licenseEffectiveDate": "07/24/2025",
    "licenseExpirationDate": "07/23/2027",
    "dataDate": "10/18/2025",
    "capacity": 0,
    "address": "715 N CENTRAL AVE, SUITE 101",
    "city": "GLENDALE",
    "zip": "91203",
    "county": "LOS ANGELES",
    "phone": "(818) 648-1767",
    "lat": 34.156935,
    "lng": -118.258362
  },
  {
    "id": "630021054",
    "name": "SANATOS HOSPICE CARE, INC.",
    "npi": null,
    "hcaiId": "406193509",
    "businessName": "SANATOS HOSPICE CARE, INC.",
    "contactEmail": "SANATOSHOSPICE@GMAIL.COM",
    "categoryName": "HOSPICE",
    "categoryCode": "HOSPICE",
    "licenseStatus": "ACTIVE",
    "inService": true,
    "licenseNumber": "550006724",
    "licenseEffectiveDate": "07/11/2024",
    "licenseExpirationDate": "08/19/2025",
    "dataDate": "10/18/2025",
    "capacity": 0,
    "address": "401 N BRAND BLVD, SUITE 635D & 635E",
    "city": "GLENDALE",
    "zip": "91203",
    "county": "LOS ANGELES",
    "phone": "(747) 264-0971",
    "lat": 34.15196298,
    "lng": -118.255487
  },
  {
    "id": "630025059",
    "name": "SGS HOME HEALTH CARE, INC.",
    "npi": null,
    "hcaiId": null,
    "businessName": "SGS HOME HEALTH CARE, INC.",
    "contactEmail": "SGSHOMEHEALTH@GMAIL.COM",
    "categoryName": "HOME HEALTH AGENCY",
    "categoryCode": "HHA",
    "licenseStatus": "ACTIVE",
    "inService": true,
    "licenseNumber": "550009344",
    "licenseEffectiveDate": "01/12/2025",
    "licenseExpirationDate": "07/11/2025",
    "dataDate": "10/18/2025",
    "capacity": 0,
    "address": "201 N BRAND BLVD, SUITE 207",
    "city": "GLENDALE",
    "zip": "91203",
    "county": "LOS ANGELES",
    "phone": "(747) 215-9800",
    "lat": 34.148304,
    "lng": -118.2554685
  },
  {
    "id": "630020311",
    "name": "SHARING CARE HOSPICE",
    "npi": null,
    "hcaiId": "406193523",
    "businessName": "SHARING CARE HOSPICE",
    "contactEmail": "SHARINGCAREHOSPICE@YAHOO.COM",
    "categoryName": "HOSPICE",
    "categoryCode": "HOSPICE",
    "licenseStatus": "ACTIVE",
    "inService": true,
    "licenseNumber": "550006427",
    "licenseEffectiveDate": "07/25/2024",
    "licenseExpirationDate": "06/11/2025",
    "dataDate": "10/18/2025",
    "capacity": 0,
    "address": "121 W LEXINGTON DR, SUITE 202",
    "city": "GLENDALE",
    "zip": "91203",
    "county": "LOS ANGELES",
    "phone": "(818) 290-3348",
    "lat": 34.15196298,
    "lng": -118.255487
  },
  {
    "id": "630021641",
    "name": "SKYLIGHT HOSPICE, INC.",
    "npi": null,
    "hcaiId": "406193261",
    "businessName": "SKYLIGHT HOSPICE, INC.",
    "contactEmail": "SKYLIGHTHOSPICE@YAHOO.COM",
    "categoryName": "HOSPICE",
    "categoryCode": "HOSPICE",
    "licenseStatus": "ACTIVE",
    "inService": true,
    "licenseNumber": "550006794",
    "licenseEffectiveDate": "09/10/2023",
    "licenseExpirationDate": "09/09/2025",
    "dataDate": "10/18/2025",
    "capacity": 0,
    "address": "715 N CENTRAL AVE, SUITE 212",
    "city": "GLENDALE",
    "zip": "91203",
    "county": "LOS ANGELES",
    "phone": "(747) 666-0681",
    "lat": 34.156935,
    "lng": -118.258362
  },
  {
    "id": "630022331",
    "name": "SKYTEAM HOSPICE, INC",
    "npi": null,
    "hcaiId": "406193919",
    "businessName": "SKYTEAM HOSPICE, INC",
    "contactEmail": "SKYTEAMHOSPICE@GMAIL.COM",
    "categoryName": "HOSPICE",
    "categoryCode": "HOSPICE",
    "licenseStatus": "ACTIVE",
    "inService": true,
    "licenseNumber": "550007316",
    "licenseEffectiveDate": "11/30/2023",
    "licenseExpirationDate": "11/29/2025",
    "dataDate": "10/18/2025",
    "capacity": 0,
    "address": "401 N BRAND BLVD, SUITE 236",
    "city": "GLENDALE",
    "zip": "91203",
    "county": "LOS ANGELES",
    "phone": "(818) 480-4808",
    "lat": 34.15178144,
    "lng": -118.2551794
  },
  {
    "id": "630021304",
    "name": "SOLACE HOSPICE CARE, INC.",
    "npi": null,
    "hcaiId": "406193920",
    "businessName": "SOLACE HOSPICE CARE, INC.",
    "contactEmail": "HOSPICE.SOLACE@YAHOO.COM",
    "categoryName": "HOSPICE",
    "categoryCode": "HOSPICE",
    "licenseStatus": "ACTIVE",
    "inService": true,
    "licenseNumber": "550007341",
    "licenseEffectiveDate": "10/01/2024",
    "licenseExpirationDate": "11/23/2025",
    "dataDate": "10/18/2025",
    "capacity": 0,
    "address": "121 W LEXINGTON DR, SUITE 511",
    "city": "GLENDALE",
    "zip": "91203",
    "county": "LOS ANGELES",
    "phone": "(747) 266-2770",
    "lat": 34.15224998,
    "lng": -118.25606
  },
  {
    "id": "630021606",
    "name": "ST GILBERT HOSPICE",
    "npi": null,
    "hcaiId": "406193399",
    "businessName": "ST GILBERT HOSPICE",
    "contactEmail": "STGILBERTHOSPICE2020@GMAIL.COM",
    "categoryName": "HOSPICE",
    "categoryCode": "HOSPICE",
    "licenseStatus": "ACTIVE",
    "inService": true,
    "licenseNumber": "550006972",
    "licenseEffectiveDate": "10/08/2025",
    "licenseExpirationDate": "10/07/2027",
    "dataDate": "10/18/2025",
    "capacity": 0,
    "address": "121 W LEXINGTON DR, SUITE 206B",
    "city": "GLENDALE",
    "zip": "91203",
    "county": "LOS ANGELES",
    "phone": "(747) 257-0032",
    "lat": 34.15204328,
    "lng": -118.2554654
  },
  {
    "id": "630019332",
    "name": "ST. ANGEL HOSPICE",
    "npi": "1376194878",
    "hcaiId": "406192561",
    "businessName": "ST. ANGEL HOSPICE",
    "contactEmail": "STANGELHOSPICE@GMAIL.COM",
    "categoryName": "HOSPICE",
    "categoryCode": "HOSPICE",
    "licenseStatus": "ACTIVE",
    "inService": true,
    "licenseNumber": "550005384",
    "licenseEffectiveDate": "03/19/2022",
    "licenseExpirationDate": "03/18/2024",
    "dataDate": "10/18/2025",
    "capacity": 0,
    "address": "401 N BRAND BLVD, UNIT 354",
    "city": "GLENDALE",
    "zip": "91203",
    "county": "LOS ANGELES",
    "phone": "(818) 480-3587",
    "lat": 34.15178144,
    "lng": -118.2551794
  },
  {
    "id": "630013196",
    "name": "ST. FRANCIS PALLIATIVE CARE",
    "npi": "1689968471",
    "hcaiId": "406197695",
    "businessName": "626 HOSPICE, INC.",
    "contactEmail": "626HOSPICE@GMAIL.COM",
    "categoryName": "HOSPICE",
    "categoryCode": "HOSPICE",
    "licenseStatus": "ACTIVE",
    "inService": true,
    "licenseNumber": "550001910",
    "licenseEffectiveDate": "03/21/2020",
    "licenseExpirationDate": "03/20/2022",
    "dataDate": "10/18/2025",
    "capacity": 0,
    "address": "700 N BRAND BLVD, SUITE 570",
    "city": "GLENDALE",
    "zip": "91203",
    "county": "LOS ANGELES",
    "phone": "(818) 790-8888",
    "lat": 34.157124,
    "lng": -118.254159
  },
  {
    "id": "630016929",
    "name": "ST. MARCOS HOME & PALLIATIVE CARE, INC.",
    "npi": "1750734844",
    "hcaiId": "406190820",
    "businessName": "ST. MARCOS HOME & PALLIATIVE CARE, INC.",
    "contactEmail": "ST.MARCOSHOMEHEALTHCARE@YAHOO.COM",
    "categoryName": "HOME HEALTH AGENCY",
    "categoryCode": "HHA",
    "licenseStatus": "ACTIVE",
    "inService": true,
    "licenseNumber": "550004202",
    "licenseEffectiveDate": "03/03/2025",
    "licenseExpirationDate": "03/02/2026",
    "dataDate": "10/18/2025",
    "capacity": 0,
    "address": "401 N BRAND BLVD, SUITE 244",
    "city": "GLENDALE",
    "zip": "91203",
    "county": "LOS ANGELES",
    "phone": "(818) 476-7878",
    "lat": 34.15178144,
    "lng": -118.2551794
  },
  {
    "id": "630020059",
    "name": "STELLAR HOSPICE CARE INC",
    "npi": null,
    "hcaiId": "406196116",
    "businessName": "STELLAR HOSPICE CARE, INC.",
    "contactEmail": "STELLARHOSPICE@GMAIL.COM",
    "categoryName": "HOSPICE",
    "categoryCode": "HOSPICE",
    "licenseStatus": "ACTIVE",
    "inService": true,
    "licenseNumber": "550006225",
    "licenseEffectiveDate": "09/20/2023",
    "licenseExpirationDate": "03/29/2025",
    "dataDate": "10/18/2025",
    "capacity": 0,
    "address": "315 ARDEN AVE, SUITE 22",
    "city": "GLENDALE",
    "zip": "91203",
    "county": "LOS ANGELES",
    "phone": "(747) 268-2754",
    "lat": 34.15879499,
    "lng": -118.258783
  },
  {
    "id": "630026292",
    "name": "STRONG HEALTH HOME HEALTH CARE, INC",
    "npi": null,
    "hcaiId": null,
    "businessName": "STRONG HEALTH HOME HEALTH CARE, INC",
    "contactEmail": "STRONGHEALTHHH@GMAIL.COM",
    "categoryName": "HOME HEALTH AGENCY",
    "categoryCode": "HHA",
    "licenseStatus": "ACTIVE",
    "inService": true,
    "licenseNumber": "550009201",
    "licenseEffectiveDate": "06/10/2025",
    "licenseExpirationDate": "06/09/2026",
    "dataDate": "10/18/2025",
    "capacity": 0,
    "address": "121 W LEXINGTON DR, SUITE 400C",
    "city": "GLENDALE",
    "zip": "91203",
    "county": "LOS ANGELES",
    "phone": "(747) 200-5594",
    "lat": 34.151958,
    "lng": -118.255491
  },
  {
    "id": "630022037",
    "name": "SUCCESS HOME CARE",
    "npi": null,
    "hcaiId": "406195620",
    "businessName": "SUCCESS HOME CARE",
    "contactEmail": "SUCCESSHOMEINC@GMAIL.COM",
    "categoryName": "HOME HEALTH AGENCY",
    "categoryCode": "HHA",
    "licenseStatus": "ACTIVE",
    "inService": true,
    "licenseNumber": "550008157",
    "licenseEffectiveDate": "11/12/2025",
    "licenseExpirationDate": "09/06/2026",
    "dataDate": "10/18/2025",
    "capacity": 0,
    "address": "121 W LEXINGTON DR, SUITE 402",
    "city": "GLENDALE",
    "zip": "91203",
    "county": "LOS ANGELES",
    "phone": "(747) 297-2204",
    "lat": 34.152246,
    "lng": -118.256058
  },
  {
    "id": "630021237",
    "name": "SUNNY DAYS HOME CARE, INC",
    "npi": null,
    "hcaiId": "406194997",
    "businessName": "SUNNY DAYS HOME CARE, INC.",
    "contactEmail": "SUNNYDAYSHCI@GMAIL.COM",
    "categoryName": "HOME HEALTH AGENCY",
    "categoryCode": "HHA",
    "licenseStatus": "ACTIVE",
    "inService": true,
    "licenseNumber": "550007752",
    "licenseEffectiveDate": "09/03/2025",
    "licenseExpirationDate": "09/02/2026",
    "dataDate": "10/18/2025",
    "capacity": 0,
    "address": "315 ARDEN AVE, SUITE 24",
    "city": "GLENDALE",
    "zip": "91203",
    "county": "LOS ANGELES",
    "phone": "(818) 877-7773",
    "lat": 34.15878807,
    "lng": -118.2587797
  },
  {
    "id": "630021182",
    "name": "SUPREME HOME CARE SERVICES, INC.",
    "npi": null,
    "hcaiId": "406193309",
    "businessName": "SUPREME HOME CARE SERVICES, INC.",
    "contactEmail": "SUPREMEHCSI@GMAIL.COM",
    "categoryName": "HOME HEALTH AGENCY",
    "categoryCode": "HHA",
    "licenseStatus": "ACTIVE",
    "inService": true,
    "licenseNumber": "550007174",
    "licenseEffectiveDate": "11/10/2024",
    "licenseExpirationDate": "11/09/2025",
    "dataDate": "10/18/2025",
    "capacity": 0,
    "address": "100 N BRAND BLVD, SUITE 416",
    "city": "GLENDALE",
    "zip": "91203",
    "county": "LOS ANGELES",
    "phone": "(818) 858-9171",
    "lat": 34.14652401,
    "lng": -118.254737
  },
  {
    "id": "630018132",
    "name": "TOP RATED HOME HEALTH, INC",
    "npi": null,
    "hcaiId": "406195567",
    "businessName": "TOP RATED HOME HEALTH, INC.",
    "contactEmail": "TOPRATEDHOMEHEALTH@GMAIL.COM",
    "categoryName": "HOME HEALTH AGENCY",
    "categoryCode": "HHA",
    "licenseStatus": "ACTIVE",
    "inService": true,
    "licenseNumber": "550005972",
    "licenseEffectiveDate": "01/11/2025",
    "licenseExpirationDate": "01/10/2026",
    "dataDate": "10/18/2025",
    "capacity": 0,
    "address": "421 ARDEN AVE, SUITE A",
    "city": "GLENDALE",
    "zip": "91203",
    "county": "LOS ANGELES",
    "phone": "(818) 308-3141",
    "lat": 34.15871599,
    "lng": -118.262421
  },
  {
    "id": "630021817",
    "name": "TOUCH OF CARE HOSPICE, INC.",
    "npi": null,
    "hcaiId": "406193872",
    "businessName": "TOUCH OF CARE HOSPICE, INC.",
    "contactEmail": "TOUCHOFCAREHOSPICE@GMAIL.COM",
    "categoryName": "HOSPICE",
    "categoryCode": "HOSPICE",
    "licenseStatus": "ACTIVE",
    "inService": true,
    "licenseNumber": "550007366",
    "licenseEffectiveDate": "12/06/2023",
    "licenseExpirationDate": "12/05/2025",
    "dataDate": "10/18/2025",
    "capacity": 0,
    "address": "5406 SAN FERNANDO RD, SUITE #201",
    "city": "GLENDALE",
    "zip": "91203",
    "county": "LOS ANGELES",
    "phone": "(747) 215-6765",
    "lat": 34.150347,
    "lng": -118.273302
  },
  {
    "id": "630008702",
    "name": "TRANQUIL CARE HOSPICE",
    "npi": null,
    "hcaiId": "406197028",
    "businessName": "S&F HOSPICE OPCO I, LLC",
    "contactEmail": "MIKIM@TRANQUILCARES.COM",
    "categoryName": "HOSPICE",
    "categoryCode": "HOSPICE",
    "licenseStatus": "ACTIVE",
    "inService": true,
    "licenseNumber": "550000405",
    "licenseEffectiveDate": "06/22/2025",
    "licenseExpirationDate": "06/21/2027",
    "dataDate": "10/18/2025",
    "capacity": 0,
    "address": "700 N CENTRAL AVE, SUITE 200",
    "city": "GLENDALE",
    "zip": "91203",
    "county": "LOS ANGELES",
    "phone": "(310) 264-8413",
    "lat": 34.157107,
    "lng": -118.257454
  },
  {
    "id": "630020056",
    "name": "TRUSTED HOME HEALTH CARE SERVICES",
    "npi": null,
    "hcaiId": "406196298",
    "businessName": "TRUSTED HOME HEALTH CARE SERVICES",
    "contactEmail": "TRUSTEDHOMEHEALTHCARESERVICES@GMAIL.COM",
    "categoryName": "HOME HEALTH AGENCY",
    "categoryCode": "HHA",
    "licenseStatus": "ACTIVE",
    "inService": true,
    "licenseNumber": "550006178",
    "licenseEffectiveDate": "04/16/2025",
    "licenseExpirationDate": "04/15/2026",
    "dataDate": "10/18/2025",
    "capacity": 0,
    "address": "229 N CENTRAL AVE, UNIT 202",
    "city": "GLENDALE",
    "zip": "91203",
    "county": "LOS ANGELES",
    "phone": "(747) 240-6754",
    "lat": 34.14910601,
    "lng": -118.258215
  },
  {
    "id": "630024774",
    "name": "UNBELIEVABLE HOME HEALTH, INC",
    "npi": null,
    "hcaiId": "406190178",
    "businessName": "UNBELIEVABLE HOME HEALTH, INC",
    "contactEmail": "UNBELIEVABLECARE@GMAIL.COM",
    "categoryName": "HOME HEALTH AGENCY",
    "categoryCode": "HHA",
    "licenseStatus": "ACTIVE",
    "inService": true,
    "licenseNumber": "550008680",
    "licenseEffectiveDate": "08/08/2025",
    "licenseExpirationDate": "08/07/2026",
    "dataDate": "10/18/2025",
    "capacity": 0,
    "address": "121 W LEXINGTON DR, SUITE L300A",
    "city": "GLENDALE",
    "zip": "91203",
    "county": "LOS ANGELES",
    "phone": "(818) 743-2070",
    "lat": 34.151958,
    "lng": -118.255491
  },
  {
    "id": "630027205",
    "name": "UNIVERSAL PERFECT HOME HEALTH CARE",
    "npi": null,
    "hcaiId": null,
    "businessName": "UNIVERSAL PERFECT HOME HEALTH CARE",
    "contactEmail": "UNIVERSALPERFECTHHC@GMAIL.COM",
    "categoryName": "HOME HEALTH AGENCY",
    "categoryCode": "HHA",
    "licenseStatus": "ACTIVE",
    "inService": true,
    "licenseNumber": "550009535",
    "licenseEffectiveDate": "05/22/2025",
    "licenseExpirationDate": "11/21/2025",
    "dataDate": "10/18/2025",
    "capacity": 0,
    "address": "401 N BRAND BLVD, SUITE 822",
    "city": "GLENDALE",
    "zip": "91203",
    "county": "LOS ANGELES",
    "phone": "(818) 630-9889",
    "lat": 34.15196001,
    "lng": -118.255485
  },
  {
    "id": "630025055",
    "name": "URGENT HOME HEALTH SERVICES",
    "npi": null,
    "hcaiId": "406190137",
    "businessName": "URGENT HOME HEALTH SERVICES",
    "contactEmail": "URGENTHOMEHC@GMAIL.COM",
    "categoryName": "HOME HEALTH AGENCY",
    "categoryCode": "HHA",
    "licenseStatus": "ACTIVE",
    "inService": true,
    "licenseNumber": "550008568",
    "licenseEffectiveDate": "05/30/2025",
    "licenseExpirationDate": "05/29/2026",
    "dataDate": "10/18/2025",
    "capacity": 0,
    "address": "100 N BRAND BLVD, SUITE 310",
    "city": "GLENDALE",
    "zip": "91203",
    "county": "LOS ANGELES",
    "phone": "(747) 215-6543",
    "lat": 34.146513,
    "lng": -118.2547215
  },
  {
    "id": "630020667",
    "name": "VBK HOSPICE, INC.",
    "npi": null,
    "hcaiId": "406193302",
    "businessName": "VBK HOSPICE, INC",
    "contactEmail": "VBKHOSPICE@GMAIL.COM",
    "categoryName": "HOSPICE",
    "categoryCode": "HOSPICE",
    "licenseStatus": "ACTIVE",
    "inService": true,
    "licenseNumber": "550006516",
    "licenseEffectiveDate": "03/18/2025",
    "licenseExpirationDate": "06/29/2025",
    "dataDate": "10/18/2025",
    "capacity": 0,
    "address": "450 N BRAND BLVD, SUITE 600",
    "city": "GLENDALE",
    "zip": "91203",
    "county": "LOS ANGELES",
    "phone": "(818) 696-7920",
    "lat": 34.152354,
    "lng": -118.254996
  },
  {
    "id": "630021135",
    "name": "VITA LUXE HOSPICE CARE, INC.",
    "npi": null,
    "hcaiId": "406190258",
    "businessName": "VITA LUXE HOSPICE CARE, INC.",
    "contactEmail": "VITALUXECARE@GMAIL.COM",
    "categoryName": "HOSPICE",
    "categoryCode": "HOSPICE",
    "licenseStatus": "ACTIVE",
    "inService": true,
    "licenseNumber": "550007646",
    "licenseEffectiveDate": "05/17/2024",
    "licenseExpirationDate": "12/21/2025",
    "dataDate": "10/18/2025",
    "capacity": 0,
    "address": "417 ARDEN AVE, SUITE 208",
    "city": "GLENDALE",
    "zip": "91203",
    "county": "LOS ANGELES",
    "phone": "(747) 293-9399",
    "lat": 34.15875501,
    "lng": -118.262185
  },
  {
    "id": "630019041",
    "name": "VIVAT SKILLED NURSING, INC.",
    "npi": null,
    "hcaiId": "406196299",
    "businessName": "VIVAT SKILLED NURSING, INC.",
    "contactEmail": "ADMIN@VIVATCARE.COM",
    "categoryName": "HOME HEALTH AGENCY",
    "categoryCode": "HHA",
    "licenseStatus": "ACTIVE",
    "inService": true,
    "licenseNumber": "550005855",
    "licenseEffectiveDate": "11/20/2025",
    "licenseExpirationDate": "11/19/2026",
    "dataDate": "10/18/2025",
    "capacity": 0,
    "address": "411 N CENTRAL AVE, SUITE 302",
    "city": "GLENDALE",
    "zip": "91203",
    "county": "LOS ANGELES",
    "phone": "(213) 477-4447",
    "lat": 34.15248199,
    "lng": -118.258306
  },
  {
    "id": "630021634",
    "name": "WELL CENTER HOME HEALTH",
    "npi": null,
    "hcaiId": "406563345",
    "businessName": "WELL CENTER HOME HEALTH",
    "contactEmail": "WELLCENTERHH1@GMAIL.COM",
    "categoryName": "HOME HEALTH AGENCY",
    "categoryCode": "HHA",
    "licenseStatus": "ACTIVE",
    "inService": true,
    "licenseNumber": "550007148",
    "licenseEffectiveDate": "11/01/2025",
    "licenseExpirationDate": "10/31/2026",
    "dataDate": "10/18/2025",
    "capacity": 0,
    "address": "401 N BRAND BLVD, SUITE 635B",
    "city": "GLENDALE",
    "zip": "91203",
    "county": "LOS ANGELES",
    "phone": "(818) 336-1758",
    "lat": 34.15196298,
    "lng": -118.255487
  },
  {
    "id": "630019476",
    "name": "WEST COAST PALLIATIVE CARE INC",
    "npi": null,
    "hcaiId": "406192241",
    "businessName": "WEST COAST PALLIATIVE CARE INC",
    "contactEmail": "WCPALLIATIVE@YAHOO.COM",
    "categoryName": "HOSPICE",
    "categoryCode": "HOSPICE",
    "licenseStatus": "ACTIVE",
    "inService": true,
    "licenseNumber": "550005224",
    "licenseEffectiveDate": "08/17/2022",
    "licenseExpirationDate": "01/14/2024",
    "dataDate": "10/18/2025",
    "capacity": 0,
    "address": "401 N BRAND BLVD, SUITE 627",
    "city": "GLENDALE",
    "zip": "91203",
    "county": "LOS ANGELES",
    "phone": "(818) 322-0550",
    "lat": 34.15178144,
    "lng": -118.2551794
  },
  {
    "id": "630026140",
    "name": "WEST EMPIRE HOME HEALTH CARE INC",
    "npi": null,
    "hcaiId": null,
    "businessName": "WEST EMPIRE HOME HEALTH CARE INC",
    "contactEmail": "WESTEMPIREHOMEHEALTH@GMAIL.COM",
    "categoryName": "HOME HEALTH AGENCY",
    "categoryCode": "HHA",
    "licenseStatus": "ACTIVE",
    "inService": true,
    "licenseNumber": "550009491",
    "licenseEffectiveDate": "10/26/2025",
    "licenseExpirationDate": "10/25/2026",
    "dataDate": "10/18/2025",
    "capacity": 0,
    "address": "229 N CENTRAL AVE, SUITE 700",
    "city": "GLENDALE",
    "zip": "91203",
    "county": "LOS ANGELES",
    "phone": "(818) 813-3824",
    "lat": 34.14910601,
    "lng": -118.258215
  },
  {
    "id": "630024939",
    "name": "WHOLE HEART HOME HEALTH AGENCY, INC.",
    "npi": null,
    "hcaiId": "406197239",
    "businessName": "WHOLE HEART HOME HEALTH AGENCY, INC.",
    "contactEmail": "WHOLEHEARTHH@GMAIL.COM",
    "categoryName": "HOME HEALTH AGENCY",
    "categoryCode": "HHA",
    "licenseStatus": "ACTIVE",
    "inService": true,
    "licenseNumber": "550008474",
    "licenseEffectiveDate": "09/16/2025",
    "licenseExpirationDate": "04/12/2026",
    "dataDate": "10/18/2025",
    "capacity": 0,
    "address": "121 WEST LEXINGTON DRIVE, SUITE 206D",
    "city": "GLENDALE",
    "zip": "91203",
    "county": "LOS ANGELES",
    "phone": "(323) 553-9836",
    "lat": 34.15204328,
    "lng": -118.2554654
  },
  {
    "id": "630021272",
    "name": "XCLUSIVE HOSPICE CARE, INC.",
    "npi": null,
    "hcaiId": "406193400",
    "businessName": "XCLUSIVE HOSPICE CARE, INC.",
    "contactEmail": "XCLUSIVEHOSPICECARE@GMAIL.COM",
    "categoryName": "HOSPICE",
    "categoryCode": "HOSPICE",
    "licenseStatus": "ACTIVE",
    "inService": true,
    "licenseNumber": "550007008",
    "licenseEffectiveDate": "10/06/2025",
    "licenseExpirationDate": "10/05/2027",
    "dataDate": "10/18/2025",
    "capacity": 0,
    "address": "229 N CENTRAL AVE, SUITE 406",
    "city": "GLENDALE",
    "zip": "91203",
    "county": "LOS ANGELES",
    "phone": "(818) 528-6045",
    "lat": 34.14910601,
    "lng": -118.258215
  },
  {
    "id": "630024368",
    "name": "Y&E HOME HEALTH, INC",
    "npi": null,
    "hcaiId": "406197624",
    "businessName": "Y&E HOME HEALTH, INC",
    "contactEmail": "YANDEHOMEHEALTH@GMAIL.COM",
    "categoryName": "HOME HEALTH AGENCY",
    "categoryCode": "HHA",
    "licenseStatus": "ACTIVE",
    "inService": true,
    "licenseNumber": "550008281",
    "licenseEffectiveDate": "12/13/2024",
    "licenseExpirationDate": "12/12/2025",
    "dataDate": "10/18/2025",
    "capacity": 0,
    "address": "500 N CENTRAL AVE, UNIT 225",
    "city": "GLENDALE",
    "zip": "91203",
    "county": "LOS ANGELES",
    "phone": "(747) 228-0990",
    "lat": 34.15293458,
    "lng": -118.2578647
  },
  {
    "id": "630025595",
    "name": "YOUR COMFORT CARE INC",
    "npi": null,
    "hcaiId": null,
    "businessName": "YOUR COMFORT CARE INC",
    "contactEmail": "YOURCOMFORTCARE@YAHOO.COM",
    "categoryName": "HOME HEALTH AGENCY",
    "categoryCode": "HHA",
    "licenseStatus": "ACTIVE",
    "inService": true,
    "licenseNumber": "550008934",
    "licenseEffectiveDate": "01/31/2025",
    "licenseExpirationDate": "01/30/2026",
    "dataDate": "10/18/2025",
    "capacity": 0,
    "address": "336 N CENTRAL AVE, SUITE 7",
    "city": "GLENDALE",
    "zip": "91203",
    "county": "LOS ANGELES",
    "phone": "(747) 228-1320",
    "lat": 34.151283,
    "lng": -118.2574665
  },
  {
    "id": "630019403",
    "name": "ZEUS HOSPICE, INC",
    "npi": null,
    "hcaiId": "406192921",
    "businessName": "ZEUS HOSPICE, INC",
    "contactEmail": "ZEUSHOSPICE@GMAIL.COM",
    "categoryName": "HOSPICE",
    "categoryCode": "HOSPICE",
    "licenseStatus": "ACTIVE",
    "inService": true,
    "licenseNumber": "550005747",
    "licenseEffectiveDate": "11/16/2022",
    "licenseExpirationDate": "09/21/2024",
    "dataDate": "10/18/2025",
    "capacity": 0,
    "address": "121 W LEXINGTON DR, SUITE 616",
    "city": "GLENDALE",
    "zip": "91203",
    "county": "LOS ANGELES",
    "phone": "(626) 239-7070",
    "lat": 34.15224998,
    "lng": -118.25606
  }
]