[
  {
    "id": "630025666",
    "name": "ALKEV HOME HEALTH, INC.",
    "npi": null,
    "hcaiId": null,
    "businessName": "ALKEV HOME HEALTH, INC.",
    "contactEmail": "ALKEVHH@GMAIL.COM",
    "categoryName": "HOME HEALTH AGENCY",
    "categoryCode": "HHA",
    "licenseStatus": "ACTIVE",
    "inService": true,
    "licenseNumber": "550009165",
    "licenseEffectiveDate": "04/29/2025",
    "licenseExpirationDate": "04/28/2026",
    "dataDate": "10/18/2025",
    "capacity": 0,
    "address": "1115 N PACIFIC AVE, SUITE E",
    "city": "GLENDALE",
    "zip": "91202",
    "county": "LOS ANGELES",
    "phone": "(818) 359-1791",
    "lat": 34.161282,
    "lng": -118.2647205
  },
  {
    "id": "630025823",
    "name": "ALL ELITE HOME HEALTH, INC.",
    "npi": null,
    "hcaiId": "406196786",
    "businessName": "ALL ELITE HOME HEALTH, INC.",
    "contactEmail": "ANNA@ALLELITEHOMEHEALTH.COM",
    "categoryName": "HOME HEALTH AGENCY",
    "categoryCode": "HHA",
    "licenseStatus": "ACTIVE",
    "inService": true,
    "licenseNumber": "550008336",
    "licenseEffectiveDate": "01/19/2025",
    "licenseExpirationDate": "01/18/2026",
    "dataDate": "10/18/2025",
    "capacity": 0,
    "address": "200 W GLENOAKS BLVD, SUITE 207",
    "city": "GLENDALE",
    "zip": "91202",
    "county": "LOS ANGELES",
    "phone": "(818) 245-6601",
    "lat": 34.159662,
    "lng": -118.258461
  },
  {
    "id": "630016194",
    "name": "AM-PM HOSPICE SERVICES",
    "npi": "1093196214",
    "hcaiId": "406190990",
    "businessName": "AM-PM HOSPICE SERVICES",
    "contactEmail": "AMPMHOSPICE11@GMAIL.COM",
    "categoryName": "HOSPICE",
    "categoryCode": "HOSPICE",
    "licenseStatus": "ACTIVE",
    "inService": true,
    "licenseNumber": "550004248",
    "licenseEffectiveDate": "05/14/2024",
    "licenseExpirationDate": "05/13/2026",
    "dataDate": "10/18/2025",
    "capacity": 0,
    "address": "1155 N CENTRAL AVE, SUITE 104",
    "city": "GLENDALE",
    "zip": "91202",
    "county": "LOS ANGELES",
    "phone": "(818) 484-8130",
    "lat": 34.16346,
    "lng": -118.257147
  },
  {
    "id": "630017709",
    "name": "BRAND SURGERY CENTER LLC",
    "npi": "1437537107",
    "hcaiId": null,
    "businessName": null,
    "contactEmail": null,
    "categoryName": "SURGICAL CLINIC",
    "categoryCode": "ASC",
    "licenseStatus": null,
    "inService": null,
    "licenseNumber": null,
    "licenseEffectiveDate": null,
    "licenseExpirationDate": null,
    "dataDate": "10/18/2025",
    "capacity": 0,
    "address": "1146 N BRAND BLVD",
    "city": "GLENDALE",
    "zip": "91202",
    "county": "LOS ANGELES",
    "phone": "(818) 426-7077",
    "lat": 34.163109,
    "lng": -118.2546045
  },
  {
    "id": "930001830",
    "name": "BRAND SURGICAL INSTITUTE MEDICAL CENTER, INC.",
    "npi": "1336215847",
    "hcaiId": null,
    "businessName": null,
    "contactEmail": "SAMVALIAN@YAHOO.COM",
    "categoryName": "SURGICAL CLINIC",
    "categoryCode": "ASC",
    "licenseStatus": null,
    "inService": null,
    "licenseNumber": null,
    "licenseEffectiveDate": null,
    "licenseExpirationDate": null,
    "dataDate": "10/18/2025",
    "capacity": 0,
    "address": "1141 N BRAND BLVD, SUITE 200",
    "city": "GLENDALE",
    "zip": "91202",
    "county": "LOS ANGELES",
    "phone": "(818) 243-9999",
    "lat": 34.162983,
    "lng": -118.255662
  },
  {
    "id": "630022451",
    "name": "CARING AND WELLNESS HOSPICE CARE, INC.",
    "npi": null,
    "hcaiId": "406190219",
    "businessName": "CARING AND WELLNESS HOSPICE CARE, INC.",
    "contactEmail": "CARINGANDWELLNESSHOSPICE@GMAIL.COM",
    "categoryName": "HOSPICE",
    "categoryCode": "HOSPICE",
    "licenseStatus": "ACTIVE",
    "inService": true,
    "licenseNumber": "550007650",
    "licenseEffectiveDate": "12/20/2023",
    "licenseExpirationDate": "12/19/2025",
    "dataDate": "10/18/2025",
    "capacity": 0,
    "address": "1112 1/2 N PACIFIC AVE",
    "city": "GLENDALE",
    "zip": "91202",
    "county": "LOS ANGELES",
    "phone": "(818) 839-3333",
    "lat": 34.16111314,
    "lng": -118.2644302
  },
  {
    "id": "630011131",
    "name": "COMMUNITY SURGERY CENTER OF GLENDALE",
    "npi": "1093156937",
    "hcaiId": null,
    "businessName": null,
    "contactEmail": "LISA_DEBRUNO@LAKSIDEMED.COM",
    "categoryName": "SURGICAL CLINIC",
    "categoryCode": "ASC",
    "licenseStatus": null,
    "inService": null,
    "licenseNumber": null,
    "licenseEffectiveDate": null,
    "licenseExpirationDate": null,
    "dataDate": "10/18/2025",
    "capacity": 0,
    "address": "5700 SAN FERNANDO RD",
    "city": "GLENDALE",
    "zip": "91202",
    "county": "LOS ANGELES",
    "phone": "(818) 637-7766",
    "lat": 34.156008,
    "lng": -118.2764925
  },
  {
    "id": "630019993",
    "name": "COMPASSION HOSPICE CORP",
    "npi": null,
    "hcaiId": "406192855",
    "businessName": "COMPASSION HOSPICE CORP",
    "contactEmail": "YLCOMPASSIONHOSPICE@GMAIL.COM",
    "categoryName": "HOSPICE",
    "categoryCode": "HOSPICE",
    "licenseStatus": "ACTIVE",
    "inService": true,
    "licenseNumber": "550005636",
    "licenseEffectiveDate": "08/27/2025",
    "licenseExpirationDate": "08/04/2026",
    "dataDate": "10/18/2025",
    "capacity": 0,
    "address": "1010 NORTH CENTRAL AVENUE, SUITE 307",
    "city": "GLENDALE",
    "zip": "91202",
    "county": "LOS ANGELES",
    "phone": "(562) 221-7660",
    "lat": 34.16009615,
    "lng": -118.2567068
  },
  {
    "id": "630013985",
    "name": "DAYLIGHT HOME HEALTH SERVICES, INC.",
    "npi": "1336499797",
    "hcaiId": "406197995",
    "businessName": "DAYLIGHT HOME HEALTH SERVICES, INC.",
    "contactEmail": "DAYLIGHTHOMEHEALTH@YAHOO.COM",
    "categoryName": "HOME HEALTH AGENCY",
    "categoryCode": "HHA",
    "licenseStatus": "ACTIVE",
    "inService": true,
    "licenseNumber": "550002467",
    "licenseEffectiveDate": "05/26/2025",
    "licenseExpirationDate": "05/25/2026",
    "dataDate": "10/18/2025",
    "capacity": 0,
    "address": "1155 N CENTRAL AVE, SUITE 211",
    "city": "GLENDALE",
    "zip": "91202",
    "county": "LOS ANGELES",
    "phone": "(818) 956-2213",
    "lat": 34.16346,
    "lng": -118.257147
  },
  {
    "id": "630011866",
    "name": "DIRECT NURSING SERVICES, INC",
    "npi": "1467643809",
    "hcaiId": "406197258",
    "businessName": "DIRECT NURSING SERVICES, INC.",
    "contactEmail": "DIRECTNURSINGSERVICES1@YAHOO.COM",
    "categoryName": "HOME HEALTH AGENCY",
    "categoryCode": "HHA",
    "licenseStatus": "ACTIVE",
    "inService": true,
    "licenseNumber": "550001002",
    "licenseEffectiveDate": "04/10/2025",
    "licenseExpirationDate": "04/09/2026",
    "dataDate": "10/18/2025",
    "capacity": 0,
    "address": "1111 N BRAND BLVD, SUITE 410",
    "city": "GLENDALE",
    "zip": "91202",
    "county": "LOS ANGELES",
    "phone": "(818) 985-9898",
    "lat": 34.162173,
    "lng": -118.2556575
  },
  {
    "id": "630016115",
    "name": "FAMILY CARE CLHF",
    "npi": null,
    "hcaiId": "206190080",
    "businessName": "FAMILY CARE CLHF, INC.",
    "contactEmail": "FAMILYCARECLHF@GMAIL.COM",
    "categoryName": "CONGREGATE LIVING HEALTH FACILITY",
    "categoryCode": "CLHF",
    "licenseStatus": "ACTIVE",
    "inService": true,
    "licenseNumber": "550004309",
    "licenseEffectiveDate": "06/04/2025",
    "licenseExpirationDate": "06/03/2026",
    "dataDate": "10/18/2025",
    "capacity": 6,
    "address": "1412 CLEVELAND RD.",
    "city": "GLENDALE",
    "zip": "91202",
    "county": "LOS ANGELES",
    "phone": "(818) 271-1656",
    "lat": 34.170012,
    "lng": -118.277343
  },
  {
    "id": "630016937",
    "name": "FOREVER ACTIVE ADULT DAY HEALTH CARE CENTER",
    "npi": null,
    "hcaiId": null,
    "businessName": "FOREVER ACTIVE CBAS",
    "contactEmail": "FOREVERACTIVECBAS@GMAIL.COM",
    "categoryName": "ADULT DAY HEALTH CARE",
    "categoryCode": "ADHC",
    "licenseStatus": "ACTIVE",
    "inService": true,
    "licenseNumber": "550004807",
    "licenseEffectiveDate": "06/04/2025",
    "licenseExpirationDate": "06/03/2026",
    "dataDate": "10/18/2025",
    "capacity": 0,
    "address": "1111 W GLENOAKS BLVD",
    "city": "GLENDALE",
    "zip": "91202",
    "county": "LOS ANGELES",
    "phone": "(747) 245-3600",
    "lat": 34.16457578,
    "lng": -118.2804338
  },
  {
    "id": "630020668",
    "name": "GANA HOSPICE, INC.",
    "npi": null,
    "hcaiId": "406193564",
    "businessName": "GANA HOSPICE, INC.",
    "contactEmail": "GANAHOSPICE@GMAIL.COM",
    "categoryName": "HOSPICE",
    "categoryCode": "HOSPICE",
    "licenseStatus": "ACTIVE",
    "inService": true,
    "licenseNumber": "550006581",
    "licenseEffectiveDate": "07/09/2025",
    "licenseExpirationDate": "07/08/2027",
    "dataDate": "10/18/2025",
    "capacity": 0,
    "address": "200 W GLENOAKS BLVD, SUITE 103",
    "city": "GLENDALE",
    "zip": "91202",
    "county": "LOS ANGELES",
    "phone": "(818) 296-9634",
    "lat": 34.15967702,
    "lng": -118.258228
  },
  {
    "id": "630023880",
    "name": "GOG HOME HEALTH, INC.",
    "npi": null,
    "hcaiId": "406195437",
    "businessName": "GOG HOME HEALTH, INC.",
    "contactEmail": "GOGHOMEHEALTHINC@GMAIL.COM",
    "categoryName": "HOME HEALTH AGENCY",
    "categoryCode": "HHA",
    "licenseStatus": "ACTIVE",
    "inService": true,
    "licenseNumber": "550008062",
    "licenseEffectiveDate": "11/14/2025",
    "licenseExpirationDate": "06/28/2026",
    "dataDate": "10/18/2025",
    "capacity": 0,
    "address": "1010 N CENTRAL AVE, SUITE 410",
    "city": "GLENDALE",
    "zip": "91202",
    "county": "LOS ANGELES",
    "phone": "(818) 245-1104",
    "lat": 34.160022,
    "lng": -118.256823
  },
  {
    "id": "920000017",
    "name": "GOLDEN HAVEN CARE CENTER",
    "npi": "1912682972",
    "hcaiId": "206190321",
    "businessName": "GOLDEN HAVEN CARE CENTER, LLC",
    "contactEmail": "ICABRAL@GHCCEMAIL.COM",
    "categoryName": "SKILLED NURSING FACILITY",
    "categoryCode": "SNF",
    "licenseStatus": "ACTIVE",
    "inService": true,
    "licenseNumber": "920000034",
    "licenseEffectiveDate": "04/17/2025",
    "licenseExpirationDate": "11/11/2025",
    "dataDate": "10/18/2025",
    "capacity": 99,
    "address": "409 W GLENOAKS BLVD",
    "city": "GLENDALE",
    "zip": "91202",
    "county": "LOS ANGELES",
    "phone": "(818) 240-4300",
    "lat": 34.16031,
    "lng": -118.261926
  },
  {
    "id": "630023516",
    "name": "GRATITUDE HOME HEALTH, INC.",
    "npi": null,
    "hcaiId": "406195370",
    "businessName": "GRATITUDE HOME HEALTH, INC.",
    "contactEmail": "GRATITUDEHH@GMAIL.COM",
    "categoryName": "HOME HEALTH AGENCY",
    "categoryCode": "HHA",
    "licenseStatus": "ACTIVE",
    "inService": true,
    "licenseNumber": "550007947",
    "licenseEffectiveDate": "04/13/2025",
    "licenseExpirationDate": "04/12/2026",
    "dataDate": "10/18/2025",
    "capacity": 0,
    "address": "1010 N CENTRAL AVE, SUITE 218",
    "city": "GLENDALE",
    "zip": "91202",
    "county": "LOS ANGELES",
    "phone": "(747) 444-4925",
    "lat": 34.160026,
    "lng": -118.256822
  },
  {
    "id": "630022189",
    "name": "HEAL HOME HEALTH CARE",
    "npi": null,
    "hcaiId": "406195582",
    "businessName": "HEAL HOME HEALTH CARE",
    "contactEmail": "INFO@HEALHOMEHEALTH.ORG",
    "categoryName": "HOME HEALTH AGENCY",
    "categoryCode": "HHA",
    "licenseStatus": "ACTIVE",
    "inService": true,
    "licenseNumber": "550007569",
    "licenseEffectiveDate": "12/20/2024",
    "licenseExpirationDate": "12/19/2025",
    "dataDate": "10/18/2025",
    "capacity": 0,
    "address": "1101 N PACIFIC AVE, SUITE 200",
    "city": "GLENDALE",
    "zip": "91202",
    "county": "LOS ANGELES",
    "phone": "(818) 562-0994",
    "lat": 34.16078486,
    "lng": -118.2644708
  },
  {
    "id": "630022655",
    "name": "HEALTHY PALACE HOME HEALTH CARE, INC",
    "npi": null,
    "hcaiId": "406195472",
    "businessName": "HEALTHY PALACE HOME HEALTH CARE, INC",
    "contactEmail": "HEALTHYPALACEHOMEHEALTH@GMAIL.COM",
    "categoryName": "HOME HEALTH AGENCY",
    "categoryCode": "HHA",
    "licenseStatus": "ACTIVE",
    "inService": true,
    "licenseNumber": "550007881",
    "licenseEffectiveDate": "03/10/2025",
    "licenseExpirationDate": "03/09/2026",
    "dataDate": "10/18/2025",
    "capacity": 0,
    "address": "1141 N BRAND BLVD, SUITE 206",
    "city": "GLENDALE",
    "zip": "91202",
    "county": "LOS ANGELES",
    "phone": "(747) 300-0805",
    "lat": 34.162981,
    "lng": -118.255673
  },
  {
    "id": "630020642",
    "name": "HOPE STAR HOSPICE CARE, INC.",
    "npi": null,
    "hcaiId": "406190226",
    "businessName": "HOPE STAR HOSPICE CARE, INC.",
    "contactEmail": "HOPESTARCARE@GMAIL.COM",
    "categoryName": "HOSPICE",
    "categoryCode": "HOSPICE",
    "licenseStatus": "ACTIVE",
    "inService": true,
    "licenseNumber": "550006331",
    "licenseEffectiveDate": "03/18/2025",
    "licenseExpirationDate": "03/17/2027",
    "dataDate": "10/18/2025",
    "capacity": 0,
    "address": "1010 N CENTRAL AVE, SUITE 420",
    "city": "GLENDALE",
    "zip": "91202",
    "county": "LOS ANGELES",
    "phone": "(818) 359-9306",
    "lat": 34.160026,
    "lng": -118.256822
  },
  {
    "id": "630025272",
    "name": "KH HOME HEALTH SERVICES INC",
    "npi": null,
    "hcaiId": null,
    "businessName": "KH HOME HEALTH SERVICES INC",
    "contactEmail": "KHHOMEHEALTH@GMAIL.COM",
    "categoryName": "HOME HEALTH AGENCY",
    "categoryCode": "HHA",
    "licenseStatus": "ACTIVE",
    "inService": true,
    "licenseNumber": "550008904",
    "licenseEffectiveDate": "05/27/2025",
    "licenseExpirationDate": "01/18/2026",
    "dataDate": "10/18/2025",
    "capacity": 0,
    "address": "1141 N BRAND BLVD, SUITE 308",
    "city": "GLENDALE",
    "zip": "91202",
    "county": "LOS ANGELES",
    "phone": "(747) 966-2001",
    "lat": 34.162981,
    "lng": -118.255673
  },
  {
    "id": "630020006",
    "name": "MEGAL HOME HEALTH CARE, INC.",
    "npi": null,
    "hcaiId": "406193837",
    "businessName": "MEGAL HOME HEALTH CARE, INC",
    "contactEmail": "MEGALHOMEHEALTH@GMAIL.COM",
    "categoryName": "HOME HEALTH AGENCY",
    "categoryCode": "HHA",
    "licenseStatus": "ACTIVE",
    "inService": true,
    "licenseNumber": "550006090",
    "licenseEffectiveDate": "03/25/2025",
    "licenseExpirationDate": "02/12/2026",
    "dataDate": "10/18/2025",
    "capacity": 0,
    "address": "1110 N BRAND BLVD, SUITE 301B",
    "city": "GLENDALE",
    "zip": "91202",
    "county": "LOS ANGELES",
    "phone": "(818) 538-4483",
    "lat": 34.161876,
    "lng": -118.254735
  },
  {
    "id": "630020011",
    "name": "MEGAL HOSPICE & PALLIATIVE CARE, INC",
    "npi": null,
    "hcaiId": "406196113",
    "businessName": "MEGAL HOSPICE & PALLIATIVE CARE, INC",
    "contactEmail": "MEGALHOSPICE@GMAIL.COM",
    "categoryName": "HOSPICE",
    "categoryCode": "HOSPICE",
    "licenseStatus": "ACTIVE",
    "inService": true,
    "licenseNumber": "550006339",
    "licenseEffectiveDate": "02/11/2025",
    "licenseExpirationDate": "02/10/2027",
    "dataDate": "10/18/2025",
    "capacity": 0,
    "address": "1110 N BRAND BLVD, SUITE 301A",
    "city": "GLENDALE",
    "zip": "91202",
    "county": "LOS ANGELES",
    "phone": "(818) 538-4491",
    "lat": 34.161876,
    "lng": -118.254735
  },
  {
    "id": "630020361",
    "name": "MONTANA HOSPICE, INC.",
    "npi": null,
    "hcaiId": "406196140",
    "businessName": "MONTANA HOSPICE, INC.",
    "contactEmail": "MONTANAHOSPICE@YAHOO.COM",
    "categoryName": "HOSPICE",
    "categoryCode": "HOSPICE",
    "licenseStatus": "ACTIVE",
    "inService": true,
    "licenseNumber": "550006193",
    "licenseEffectiveDate": "03/30/2025",
    "licenseExpirationDate": "03/29/2027",
    "dataDate": "10/18/2025",
    "capacity": 0,
    "address": "1201 N PACIFIC AVE, SUITE 103",
    "city": "GLENDALE",
    "zip": "91202",
    "county": "LOS ANGELES",
    "phone": "(818) 453-0033",
    "lat": 34.163541,
    "lng": -118.26522
  },
  {
    "id": "630025383",
    "name": "NATURAL CARE HOME HEALTH, INC.",
    "npi": null,
    "hcaiId": "406190068",
    "businessName": "NATURAL CARE HOME HEALTH, INC.",
    "contactEmail": "NATURALCAREHH@GMAIL.COM",
    "categoryName": "HOME HEALTH AGENCY",
    "categoryCode": "HHA",
    "licenseStatus": "ACTIVE",
    "inService": true,
    "licenseNumber": "550008695",
    "licenseEffectiveDate": "09/29/2025",
    "licenseExpirationDate": "08/06/2026",
    "dataDate": "10/18/2025",
    "capacity": 0,
    "address": "1010 N CENTRAL AVE, SUITE 204",
    "city": "GLENDALE",
    "zip": "91202",
    "county": "LOS ANGELES",
    "phone": "(818) 441-0086",
    "lat": 34.160022,
    "lng": -118.256823
  },
  {
    "id": "630020501",
    "name": "PEARL HOME HEALTH CARE, INC.",
    "npi": null,
    "hcaiId": "406193795",
    "businessName": "PEARL HOME HEALTH CARE, INC",
    "contactEmail": "INFO@PEARLHOMELA.COM",
    "categoryName": "HOME HEALTH AGENCY",
    "categoryCode": "HHA",
    "licenseStatus": "ACTIVE",
    "inService": true,
    "licenseNumber": "550006259",
    "licenseEffectiveDate": "05/10/2025",
    "licenseExpirationDate": "05/09/2026",
    "dataDate": "10/18/2025",
    "capacity": 0,
    "address": "1010 N CENTRAL AVE, SUITE 240",
    "city": "GLENDALE",
    "zip": "91202",
    "county": "LOS ANGELES",
    "phone": "(747) 265-6315",
    "lat": 34.160026,
    "lng": -118.256822
  },
  {
    "id": "980002381",
    "name": "RIGHTCARE HOME HEALTH SERVICES, INC.",
    "npi": "1700065968",
    "hcaiId": "406196474",
    "businessName": "RIGHTCARE HOME HEALTH SERVICES, INC.",
    "contactEmail": "RIGHTCARE011@YAHOO.COM",
    "categoryName": "HOME HEALTH AGENCY",
    "categoryCode": "HHA",
    "licenseStatus": "ACTIVE",
    "inService": true,
    "licenseNumber": "980001491",
    "licenseEffectiveDate": "08/25/2025",
    "licenseExpirationDate": "01/14/2026",
    "dataDate": "10/18/2025",
    "capacity": 0,
    "address": "1110 NORTH BRAND BOULEVARD, SUITE 303",
    "city": "GLENDALE",
    "zip": "91202",
    "county": "LOS ANGELES",
    "phone": "(818) 550-8668",
    "lat": 34.16187769,
    "lng": -118.2548084
  },
  {
    "id": "630020197",
    "name": "SAINT ANNA HEALTHCARE, INC",
    "npi": null,
    "hcaiId": "406193044",
    "businessName": "SAINT ANNA HEALTHCARE, INC",
    "contactEmail": "SAINTANNAINC@GMAIL.COM",
    "categoryName": "HOME HEALTH AGENCY",
    "categoryCode": "HHA",
    "licenseStatus": "ACTIVE",
    "inService": true,
    "licenseNumber": "550006148",
    "licenseEffectiveDate": "04/01/2023",
    "licenseExpirationDate": "03/31/2024",
    "dataDate": "10/18/2025",
    "capacity": 0,
    "address": "124 W STOCKER ST, SUITE A",
    "city": "GLENDALE",
    "zip": "91202",
    "county": "LOS ANGELES",
    "phone": "(818) 484-8534",
    "lat": 34.16365191,
    "lng": -118.2555388
  },
  {
    "id": "630021525",
    "name": "SELAPHIEL HOME HEALTH CARE, INC",
    "npi": null,
    "hcaiId": "406193352",
    "businessName": "SELAPHIEL HOME HEALTH CARE, INC",
    "contactEmail": "ADMIN@SHHC.HEALTH",
    "categoryName": "HOME HEALTH AGENCY",
    "categoryCode": "HHA",
    "licenseStatus": "ACTIVE",
    "inService": true,
    "licenseNumber": "550006959",
    "licenseEffectiveDate": "10/14/2025",
    "licenseExpirationDate": "10/13/2026",
    "dataDate": "10/18/2025",
    "capacity": 0,
    "address": "1160 N CENTRAL AVE, UNIT 212A",
    "city": "GLENDALE",
    "zip": "91202",
    "county": "LOS ANGELES",
    "phone": "(888) 800-4885",
    "lat": 34.163463,
    "lng": -118.256251
  },
  {
    "id": "630021387",
    "name": "SERANI HOSPICE",
    "npi": null,
    "hcaiId": "406193949",
    "businessName": "SERANI HOSPICE",
    "contactEmail": "SERANIHOSPICE@GMAIL.COM",
    "categoryName": "HOSPICE",
    "categoryCode": "HOSPICE",
    "licenseStatus": "ACTIVE",
    "inService": true,
    "licenseNumber": "550007085",
    "licenseEffectiveDate": "06/18/2025",
    "licenseExpirationDate": "10/28/2025",
    "dataDate": "10/18/2025",
    "capacity": 0,
    "address": "1010 N CENTRAL AVE, UNIT 301",
    "city": "GLENDALE",
    "zip": "91202",
    "county": "LOS ANGELES",
    "phone": "(818) 387-6947",
    "lat": 34.160026,
    "lng": -118.256822
  },
  {
    "id": "630018103",
    "name": "SILVERLAKE BEST CARE, INC.",
    "npi": "1639669658",
    "hcaiId": "406191878",
    "businessName": "SILVERLAKE BEST CARE, INC.",
    "contactEmail": "SILVERLAKEBEST@GMAIL.COM",
    "categoryName": "HOME HEALTH AGENCY",
    "categoryCode": "HHA",
    "licenseStatus": "ACTIVE",
    "inService": true,
    "licenseNumber": "550004577",
    "licenseEffectiveDate": "03/09/2025",
    "licenseExpirationDate": "03/08/2026",
    "dataDate": "10/18/2025",
    "capacity": 0,
    "address": "1010 N CENTRAL AVE, UNIT 480",
    "city": "GLENDALE",
    "zip": "91202",
    "county": "LOS ANGELES",
    "phone": "(213) 279-9949",
    "lat": 34.160031,
    "lng": -118.256832
  },
  {
    "id": "630017060",
    "name": "T.H.E. HOME HEALTH GROUP, INC.",
    "npi": "1912456971",
    "hcaiId": "406191412",
    "businessName": "T.H.E. HOME HEALTH GROUP, INC.",
    "contactEmail": "TRIMAXHHCARE@GMAIL.COM",
    "categoryName": "HOME HEALTH AGENCY",
    "categoryCode": "HHA",
    "licenseStatus": "ACTIVE",
    "inService": false,
    "licenseNumber": "550004375",
    "licenseEffectiveDate": "09/01/2022",
    "licenseExpirationDate": "08/31/2023",
    "dataDate": "10/18/2025",
    "capacity": 0,
    "address": "1110 N BRAND BLVD, SUITE 302",
    "city": "GLENDALE",
    "zip": "91202",
    "county": "LOS ANGELES",
    "phone": "(818) 877-8213",
    "lat": 34.161876,
    "lng": -118.254735
  },
  {
    "id": "630015355",
    "name": "TRIMAX HOSPICE, INC",
    "npi": "1467868505",
    "hcaiId": "406198453",
    "businessName": "TRIMAX HOSPICE, INC.",
    "contactEmail": "TRIMAXHOSPICE@GMAIL.COM",
    "categoryName": "HOSPICE",
    "categoryCode": "HOSPICE",
    "licenseStatus": "ACTIVE",
    "inService": false,
    "licenseNumber": "550003813",
    "licenseEffectiveDate": "01/25/2025",
    "licenseExpirationDate": "01/24/2027",
    "dataDate": "10/18/2025",
    "capacity": 0,
    "address": "1110 N BRAND BLVD, SUITE 302B",
    "city": "GLENDALE",
    "zip": "91202",
    "county": "LOS ANGELES",
    "phone": "(818) 930-1801",
    "lat": 34.161876,
    "lng": -118.254735
  },
  {
    "id": "630025076",
    "name": "VENICE HOME HEALTH CARE INC",
    "npi": null,
    "hcaiId": null,
    "businessName": "VENICE HOME HEALTH CARE INC",
    "contactEmail": "VENICEHHC@GMAIL.COM",
    "categoryName": "HOME HEALTH AGENCY",
    "categoryCode": "HHA",
    "licenseStatus": "ACTIVE",
    "inService": true,
    "licenseNumber": "550008411",
    "licenseEffectiveDate": "03/02/2024",
    "licenseExpirationDate": "03/01/2025",
    "dataDate": "10/18/2025",
    "capacity": 0,
    "address": "200 W GLENOAKS BLVD, SUITE 105",
    "city": "GLENDALE",
    "zip": "91202",
    "county": "LOS ANGELES",
    "phone": "(747) 800-3855",
    "lat": 34.159662,
    "lng": -118.258461
  }
]