[
  {
    "id": "630017580",
    "name": "ACESO HOME HEALTH CARE",
    "npi": null,
    "hcaiId": "406191559",
    "businessName": "ACESO HOME HEALTH CARE",
    "contactEmail": "ACESOHHC@YAHOO.COM",
    "categoryName": "HOME HEALTH AGENCY",
    "categoryCode": "HHA",
    "licenseStatus": "ACTIVE",
    "inService": true,
    "licenseNumber": "550004568",
    "licenseEffectiveDate": "02/26/2025",
    "licenseExpirationDate": "02/25/2026",
    "dataDate": "10/18/2025",
    "capacity": 0,
    "address": "221 E GLENOAKS BLVD, SUITE 225C",
    "city": "GLENDALE",
    "zip": "91207",
    "county": "LOS ANGELES",
    "phone": "(818) 358-8700",
    "lat": 34.15876301,
    "lng": -118.253058
  },
  {
    "id": "630016828",
    "name": "ALLSTAR HOME HEALTHCARE, INC.",
    "npi": "1689021354",
    "hcaiId": "406190642",
    "businessName": "ALLSTAR HOME HEALTHCARE, INC.",
    "contactEmail": "ALLSTARHHCINC@GMAIL.COM",
    "categoryName": "HOME HEALTH AGENCY",
    "categoryCode": "HHA",
    "licenseStatus": "ACTIVE",
    "inService": true,
    "licenseNumber": "550004039",
    "licenseEffectiveDate": "11/07/2025",
    "licenseExpirationDate": "11/06/2026",
    "dataDate": "10/18/2025",
    "capacity": 0,
    "address": "601 E GLENOAKS BLVD, SUITE 104",
    "city": "GLENDALE",
    "zip": "91207",
    "county": "LOS ANGELES",
    "phone": "(818) 945-5336",
    "lat": 34.158546,
    "lng": -118.2487545
  },
  {
    "id": "630027910",
    "name": "BETTER LIFE HOME HEALTH INC",
    "npi": null,
    "hcaiId": null,
    "businessName": "BETTER LIFE HOME HEALTH INC",
    "contactEmail": "BETTERLIFEHOMEHEALTHINC@GMAIL.COM",
    "categoryName": "HOME HEALTH AGENCY",
    "categoryCode": "HHA",
    "licenseStatus": "ACTIVE",
    "inService": true,
    "licenseNumber": "550009776",
    "licenseEffectiveDate": "09/21/2025",
    "licenseExpirationDate": "03/20/2026",
    "dataDate": "10/18/2025",
    "capacity": 0,
    "address": "333 E GLENOAKS BLVD, SUITE 201",
    "city": "GLENDALE",
    "zip": "91207",
    "county": "LOS ANGELES",
    "phone": "(747) 215-6727",
    "lat": 34.158488,
    "lng": -118.25117
  },
  {
    "id": "630021388",
    "name": "BETTER LIFE HOSPICE",
    "npi": null,
    "hcaiId": "406190215",
    "businessName": "BETTER LIFE HOSPICE",
    "contactEmail": "BETTERLIFEHOSPICE@GMAIL.COM",
    "categoryName": "HOSPICE",
    "categoryCode": "HOSPICE",
    "licenseStatus": "ACTIVE",
    "inService": true,
    "licenseNumber": "550007275",
    "licenseEffectiveDate": "04/22/2025",
    "licenseExpirationDate": "11/22/2025",
    "dataDate": "10/18/2025",
    "capacity": 0,
    "address": "333 E GLENOAKS BLVD, SUITE 205",
    "city": "GLENDALE",
    "zip": "91207",
    "county": "LOS ANGELES",
    "phone": "(818) 369-7736",
    "lat": 34.158488,
    "lng": -118.25117
  },
  {
    "id": "630019391",
    "name": "HARMONY LIFE HOSPICE, INC.",
    "npi": null,
    "hcaiId": "406192567",
    "businessName": "HARMONY LIFE HOSPICE, INC.",
    "contactEmail": "HARMONYLIFEOFFICE@GMAIL.COM",
    "categoryName": "HOSPICE",
    "categoryCode": "HOSPICE",
    "licenseStatus": "ACTIVE",
    "inService": true,
    "licenseNumber": "550005437",
    "licenseEffectiveDate": "03/18/2025",
    "licenseExpirationDate": "04/23/2026",
    "dataDate": "10/18/2025",
    "capacity": 0,
    "address": "333 E GLENOAKS BLVD, SUITE 207",
    "city": "GLENDALE",
    "zip": "91207",
    "county": "LOS ANGELES",
    "phone": "(747) 300-2460",
    "lat": 34.15846801,
    "lng": -118.25117
  },
  {
    "id": "630022078",
    "name": "HEALTH CORNER HOSPICE",
    "npi": null,
    "hcaiId": "406195738",
    "businessName": "HEALTH CORNER HOSPICE",
    "contactEmail": "HEALTHCORNERHOSPICE@GMAIL.COM",
    "categoryName": "HOSPICE",
    "categoryCode": "HOSPICE",
    "licenseStatus": "ACTIVE",
    "inService": true,
    "licenseNumber": "550007715",
    "licenseEffectiveDate": "03/27/2025",
    "licenseExpirationDate": "12/16/2025",
    "dataDate": "10/18/2025",
    "capacity": 0,
    "address": "333 E GLENOAKS BLVD, SUITE 202",
    "city": "GLENDALE",
    "zip": "91207",
    "county": "LOS ANGELES",
    "phone": "(818) 369-7033",
    "lat": 34.15846801,
    "lng": -118.25117
  },
  {
    "id": "630020676",
    "name": "HEALTHY WAY HOSPICE INC.",
    "npi": null,
    "hcaiId": "406193728",
    "businessName": "HEALTHY WAY HOSPICE INC.",
    "contactEmail": "HEALTHYWAYHOSPICE01@GMAIL.COM",
    "categoryName": "HOSPICE",
    "categoryCode": "HOSPICE",
    "licenseStatus": "ACTIVE",
    "inService": true,
    "licenseNumber": "550006758",
    "licenseEffectiveDate": "08/24/2025",
    "licenseExpirationDate": "08/23/2027",
    "dataDate": "10/18/2025",
    "capacity": 0,
    "address": "601 E GLENOAKS BLVD, SUITE 103",
    "city": "GLENDALE",
    "zip": "91207",
    "county": "LOS ANGELES",
    "phone": "(818) 856-0105",
    "lat": 34.15854802,
    "lng": -118.248762
  },
  {
    "id": "630021164",
    "name": "LIFEPRO HOME HEALTH CARE, INC.",
    "npi": null,
    "hcaiId": "406193208",
    "businessName": "LIFEPRO HOME HEALTH CARE, INC.",
    "contactEmail": "LIFEPROHHC@GMAIL.COM",
    "categoryName": "HOME HEALTH AGENCY",
    "categoryCode": "HHA",
    "licenseStatus": "ACTIVE",
    "inService": true,
    "licenseNumber": "550006572",
    "licenseEffectiveDate": "07/17/2025",
    "licenseExpirationDate": "07/16/2026",
    "dataDate": "10/18/2025",
    "capacity": 0,
    "address": "221 E GLENOAKS BLVD, #222B",
    "city": "GLENDALE",
    "zip": "91207",
    "county": "LOS ANGELES",
    "phone": "(818) 660-2929",
    "lat": 34.158789,
    "lng": -118.253295
  },
  {
    "id": "630021048",
    "name": "LOYAL WAY HOSPICE AND PALLIATIVE CARE, INC.",
    "npi": null,
    "hcaiId": "406190195",
    "businessName": "LOYAL WAY HOSPICE AND PALLIATIVE CARE, INC",
    "contactEmail": "LOYALWAYHOSPICE@GMAIL.COM",
    "categoryName": "HOSPICE",
    "categoryCode": "HOSPICE",
    "licenseStatus": "ACTIVE",
    "inService": true,
    "licenseNumber": "550006048",
    "licenseEffectiveDate": "02/25/2025",
    "licenseExpirationDate": "02/24/2027",
    "dataDate": "10/18/2025",
    "capacity": 0,
    "address": "301 E GLENOAKS BLVD, SUITE 4",
    "city": "GLENDALE",
    "zip": "91207",
    "county": "LOS ANGELES",
    "phone": "(818) 938-9444",
    "lat": 34.15831502,
    "lng": -118.2520038
  },
  {
    "id": "630021963",
    "name": "OLIVEGLEN HOSPICE CARE, INC.",
    "npi": null,
    "hcaiId": "406193377",
    "businessName": "OLIVEGLEN HOSPICE CARE, INC.",
    "contactEmail": "OLIVEGLENHHC@GMAIL.COM",
    "categoryName": "HOSPICE",
    "categoryCode": "HOSPICE",
    "licenseStatus": "ACTIVE",
    "inService": true,
    "licenseNumber": "550007002",
    "licenseEffectiveDate": "10/21/2025",
    "licenseExpirationDate": "10/20/2027",
    "dataDate": "10/18/2025",
    "capacity": 0,
    "address": "333 E GLENOAKS BLVD, SUITE 203",
    "city": "GLENDALE",
    "zip": "91207",
    "county": "LOS ANGELES",
    "phone": "(747) 283-0371",
    "lat": 34.158488,
    "lng": -118.25117
  },
  {
    "id": "630011791",
    "name": "PLANET HOME HEALTH CARE, INC.",
    "npi": "1821298449",
    "hcaiId": "406197374",
    "businessName": "PLANET HOME HEALTH CARE, INC.",
    "contactEmail": "PLANETHOMEHEALTHCARE@YAHOO.COM",
    "categoryName": "HOME HEALTH AGENCY",
    "categoryCode": "HHA",
    "licenseStatus": "ACTIVE",
    "inService": true,
    "licenseNumber": "550001261",
    "licenseEffectiveDate": "06/28/2025",
    "licenseExpirationDate": "06/27/2026",
    "dataDate": "10/18/2025",
    "capacity": 0,
    "address": "221 E GLENOAKS BLVD, SUITE 240",
    "city": "GLENDALE",
    "zip": "91207",
    "county": "LOS ANGELES",
    "phone": "(818) 242-0720",
    "lat": 34.158789,
    "lng": -118.253295
  },
  {
    "id": "630020911",
    "name": "PROTECTIVE HOME HEALTH CARE, INC.",
    "npi": null,
    "hcaiId": "406193353",
    "businessName": "PROTECTIVE HOME HEALTH CARE, INC.",
    "contactEmail": "PROTECTIVEHHC@GMAIL.COM",
    "categoryName": "HOME HEALTH AGENCY",
    "categoryCode": "HHA",
    "licenseStatus": "ACTIVE",
    "inService": true,
    "licenseNumber": "550006812",
    "licenseEffectiveDate": "09/04/2025",
    "licenseExpirationDate": "09/03/2026",
    "dataDate": "10/18/2025",
    "capacity": 0,
    "address": "221 E GLENOAKS BLVD, UNIT 222A",
    "city": "GLENDALE",
    "zip": "91207",
    "county": "LOS ANGELES",
    "phone": "(818) 660-2364",
    "lat": 34.158789,
    "lng": -118.253295
  },
  {
    "id": "630019033",
    "name": "TRUE CHOICE HOME HEALTH, INC.",
    "npi": null,
    "hcaiId": "406192503",
    "businessName": "TRUE CHOICE HOME HEALTH, INC.",
    "contactEmail": "TRUECHOICEHH@YAHOO.COM",
    "categoryName": "HOME HEALTH AGENCY",
    "categoryCode": "HHA",
    "licenseStatus": "ACTIVE",
    "inService": true,
    "licenseNumber": "550005402",
    "licenseEffectiveDate": "03/05/2025",
    "licenseExpirationDate": "03/04/2026",
    "dataDate": "10/18/2025",
    "capacity": 0,
    "address": "221 E GLENOAKS BLVD, SUITE 225B",
    "city": "GLENDALE",
    "zip": "91207",
    "county": "LOS ANGELES",
    "phone": "(818) 357-5855",
    "lat": 34.15876301,
    "lng": -118.253058
  },
  {
    "id": "630023892",
    "name": "US MED HOME HEALTH",
    "npi": null,
    "hcaiId": "406195832",
    "businessName": "US MED HOME HEALTH",
    "contactEmail": "USMED88@YAHOO.COM",
    "categoryName": "HOME HEALTH AGENCY",
    "categoryCode": "HHA",
    "licenseStatus": "ACTIVE",
    "inService": true,
    "licenseNumber": "550007955",
    "licenseEffectiveDate": "04/21/2025",
    "licenseExpirationDate": "04/20/2026",
    "dataDate": "10/18/2025",
    "capacity": 0,
    "address": "221 E GLENOAKS BLVD, SUITE 227",
    "city": "GLENDALE",
    "zip": "91207",
    "county": "LOS ANGELES",
    "phone": "(818) 245-6411",
    "lat": 34.158789,
    "lng": -118.253295
  },
  {
    "id": "630011365",
    "name": "US MEDTRADE HOME HEALTHCARE, INC.",
    "npi": "1821270851",
    "hcaiId": "406197209",
    "businessName": "US MEDTRADE HOME HEALTHCARE, INC.",
    "contactEmail": "USMEDTRADE_HEALTHCARE@YAHOO.COM",
    "categoryName": "HOME HEALTH AGENCY",
    "categoryCode": "HHA",
    "licenseStatus": "ACTIVE",
    "inService": true,
    "licenseNumber": "550000905",
    "licenseEffectiveDate": "01/21/2025",
    "licenseExpirationDate": "01/20/2026",
    "dataDate": "10/18/2025",
    "capacity": 0,
    "address": "221 E GLENOAKS BLVD, SUITE 100",
    "city": "GLENDALE",
    "zip": "91207",
    "county": "LOS ANGELES",
    "phone": "(818) 550-0877",
    "lat": 34.158789,
    "lng": -118.253295
  }
]