[
  {
    "id": "630021854",
    "name": "5 STAR HOSPICE",
    "npi": null,
    "hcaiId": "406193276",
    "businessName": "5 STAR HOSPICE",
    "contactEmail": "HOSPICE5STAR@GMAIL.COM",
    "categoryName": "HOSPICE",
    "categoryCode": "HOSPICE",
    "licenseStatus": "ACTIVE",
    "inService": true,
    "licenseNumber": "550007017",
    "licenseEffectiveDate": "10/19/2025",
    "licenseExpirationDate": "10/18/2027",
    "dataDate": "10/18/2025",
    "capacity": 0,
    "address": "425 E COLORADO ST, SUITE 480C",
    "city": "GLENDALE",
    "zip": "91205",
    "county": "LOS ANGELES",
    "phone": "(818) 301-4449",
    "lat": 34.14312104,
    "lng": -118.2503967
  },
  {
    "id": "630024953",
    "name": "7 DAY HOME CARE, INC.",
    "npi": null,
    "hcaiId": "406197817",
    "businessName": "7 DAY HOME CARE, INC.",
    "contactEmail": "SEVENDAYHOMECARE@GMAIL.COM",
    "categoryName": "HOME HEALTH AGENCY",
    "categoryCode": "HHA",
    "licenseStatus": "ACTIVE",
    "inService": true,
    "licenseNumber": "550008394",
    "licenseEffectiveDate": "02/21/2025",
    "licenseExpirationDate": "02/20/2026",
    "dataDate": "10/18/2025",
    "capacity": 0,
    "address": "415 E HARVARD ST, UNIT 104B",
    "city": "GLENDALE",
    "zip": "91205",
    "county": "LOS ANGELES",
    "phone": "(818) 966-8566",
    "lat": 34.144785,
    "lng": -118.2505995
  },
  {
    "id": "630026419",
    "name": "A S K HOME HEALTH INC",
    "npi": null,
    "hcaiId": null,
    "businessName": "A S K HOME HEALTH INC",
    "contactEmail": "INFO@ASKHOMEHEALTHINC.COM",
    "categoryName": "HOME HEALTH AGENCY",
    "categoryCode": "HHA",
    "licenseStatus": "ACTIVE",
    "inService": true,
    "licenseNumber": "550009483",
    "licenseEffectiveDate": "05/07/2025",
    "licenseExpirationDate": "11/06/2025",
    "dataDate": "10/18/2025",
    "capacity": 0,
    "address": "1224 S GLENDALE AVE, SUITE C",
    "city": "GLENDALE",
    "zip": "91205",
    "county": "LOS ANGELES",
    "phone": "(818) 696-2114",
    "lat": 34.1311483,
    "lng": -118.2523005
  },
  {
    "id": "630023846",
    "name": "AB HEALTH SERVICES",
    "npi": null,
    "hcaiId": "406195857",
    "businessName": "AB HEALTH SERVICES",
    "contactEmail": "ABHEALTHSERVICES.USA@GMAIL.COM",
    "categoryName": "HOME HEALTH AGENCY",
    "categoryCode": "HHA",
    "licenseStatus": "ACTIVE",
    "inService": true,
    "licenseNumber": "550008012",
    "licenseEffectiveDate": "03/23/2025",
    "licenseExpirationDate": "03/22/2026",
    "dataDate": "10/18/2025",
    "capacity": 0,
    "address": "225 E BROADWAY, SUITE 205D",
    "city": "GLENDALE",
    "zip": "91205",
    "county": "LOS ANGELES",
    "phone": "(747) 224-6010",
    "lat": 34.146576,
    "lng": -118.252953
  },
  {
    "id": "630024815",
    "name": "ACUMEN HOME HEALTH",
    "npi": null,
    "hcaiId": "406196499",
    "businessName": "ACUMEN HOME HEALTH",
    "contactEmail": "ACUMENHOMEHEALTH@GMAIL.COM",
    "categoryName": "HOME HEALTH AGENCY",
    "categoryCode": "HHA",
    "licenseStatus": "ACTIVE",
    "inService": true,
    "licenseNumber": "550008438",
    "licenseEffectiveDate": "07/21/2025",
    "licenseExpirationDate": "03/13/2026",
    "dataDate": "10/18/2025",
    "capacity": 0,
    "address": "511 E HARVARD ST, SUITE 7",
    "city": "GLENDALE",
    "zip": "91205",
    "county": "LOS ANGELES",
    "phone": "(818) 484-5200",
    "lat": 34.14473799,
    "lng": -118.249599
  },
  {
    "id": "980001065",
    "name": "AFFILIATED HOME HEALTH SERVICES, INC.",
    "npi": "1093885527",
    "hcaiId": "406194201",
    "businessName": "AFFILIATED HOME HEALTH SERVICES, INC.",
    "contactEmail": "CCO@AFFILIATEDHOMEHEALTH.COM",
    "categoryName": "HOME HEALTH AGENCY",
    "categoryCode": "HHA",
    "licenseStatus": "ACTIVE",
    "inService": true,
    "licenseNumber": "980000579",
    "licenseEffectiveDate": "03/15/2024",
    "licenseExpirationDate": "03/14/2025",
    "dataDate": "10/18/2025",
    "capacity": 0,
    "address": "240 S JACKSON ST, SUITE 210",
    "city": "GLENDALE",
    "zip": "91205",
    "county": "LOS ANGELES",
    "phone": "(818) 539-7768",
    "lat": 34.14370813,
    "lng": -118.2500373
  },
  {
    "id": "630026194",
    "name": "ALICANTE HOME HEALTH INC.",
    "npi": null,
    "hcaiId": null,
    "businessName": "ALICANTE HOME HEALTH INC.",
    "contactEmail": "ALICANTEHOMEHEALTH@GMAIL.COM",
    "categoryName": "HOME HEALTH AGENCY",
    "categoryCode": "HHA",
    "licenseStatus": "ACTIVE",
    "inService": true,
    "licenseNumber": "550009823",
    "licenseEffectiveDate": "11/08/2025",
    "licenseExpirationDate": "05/07/2026",
    "dataDate": "10/18/2025",
    "capacity": 0,
    "address": "1241 S GLENDALE AVE, SUITE 204A",
    "city": "GLENDALE",
    "zip": "91205",
    "county": "LOS ANGELES",
    "phone": "(747) 786-0006",
    "lat": 34.13069202,
    "lng": -118.252824
  },
  {
    "id": "630019404",
    "name": "ALL FOR HEALTH, HEALTH FOR ALL, INC",
    "npi": "1073907689",
    "hcaiId": null,
    "businessName": "ALL FOR HEALTH, HEALTH FOR ALL, INC.",
    "contactEmail": null,
    "categoryName": "PRIMARY CARE CLINIC",
    "categoryCode": "COMTYC",
    "licenseStatus": "ACTIVE",
    "inService": true,
    "licenseNumber": "550003081",
    "licenseEffectiveDate": "05/20/2025",
    "licenseExpirationDate": "05/19/2026",
    "dataDate": "10/18/2025",
    "capacity": 0,
    "address": "141 S CEDAR ST",
    "city": "GLENDALE",
    "zip": "91205",
    "county": "LOS ANGELES",
    "phone": null,
    "lat": 34.145514,
    "lng": -118.244331
  },
  {
    "id": "960002791",
    "name": "ALL FOR HEALTH, HEALTH FOR ALL, INC.",
    "npi": "1568567220",
    "hcaiId": "306197090",
    "businessName": "ALL FOR HEALTH, HEALTH FOR ALL, INC.",
    "contactEmail": "HISRAELIAN@ALL4HEALTH.ORG",
    "categoryName": "PRIMARY CARE CLINIC",
    "categoryCode": "COMTYC",
    "licenseStatus": "ACTIVE",
    "inService": true,
    "licenseNumber": "960001391",
    "licenseEffectiveDate": "11/08/2025",
    "licenseExpirationDate": "11/07/2026",
    "dataDate": "10/18/2025",
    "capacity": 0,
    "address": "519 E BROADWAY",
    "city": "GLENDALE",
    "zip": "91205",
    "county": "LOS ANGELES",
    "phone": "(818) 334-6334",
    "lat": 34.146612,
    "lng": -118.2492135
  },
  {
    "id": "630016635",
    "name": "ALL SAINTS HOSPICE CARE, INC.",
    "npi": "1831550615",
    "hcaiId": "406190795",
    "businessName": "ALL SAINTS HOSPICE CARE INC",
    "contactEmail": "ALLSTHOSPICE@GMAIL.COM",
    "categoryName": "HOSPICE",
    "categoryCode": "HOSPICE",
    "licenseStatus": "ACTIVE",
    "inService": true,
    "licenseNumber": "550004024",
    "licenseEffectiveDate": "11/23/2021",
    "licenseExpirationDate": "11/22/2023",
    "dataDate": "10/18/2025",
    "capacity": 0,
    "address": "415 E HARVARD ST, SUITE 102",
    "city": "GLENDALE",
    "zip": "91205",
    "county": "LOS ANGELES",
    "phone": "(818) 588-3802",
    "lat": 34.144785,
    "lng": -118.2505995
  },
  {
    "id": "630022446",
    "name": "ALL4HEALTH HOME CARE, INC",
    "npi": null,
    "hcaiId": "406195349",
    "businessName": "ALL4HEALTH HOME CARE, INC",
    "contactEmail": "ALL4HEALTHHOMECARE@GMAIL.COM",
    "categoryName": "HOME HEALTH AGENCY",
    "categoryCode": "HHA",
    "licenseStatus": "ACTIVE",
    "inService": true,
    "licenseNumber": "550007922",
    "licenseEffectiveDate": "03/31/2025",
    "licenseExpirationDate": "03/30/2026",
    "dataDate": "10/18/2025",
    "capacity": 0,
    "address": "225 E BROADWAY, SUITE 210C",
    "city": "GLENDALE",
    "zip": "91205",
    "county": "LOS ANGELES",
    "phone": "(818) 405-3832",
    "lat": 34.146576,
    "lng": -118.252953
  },
  {
    "id": "630026975",
    "name": "ALLANTE HOME HEALTH INC",
    "npi": null,
    "hcaiId": null,
    "businessName": "ALLANTE HOME HEALTH INC",
    "contactEmail": "ALLANTEHH@GMAIL.COM",
    "categoryName": "HOME HEALTH AGENCY",
    "categoryCode": "HHA",
    "licenseStatus": "ACTIVE",
    "inService": true,
    "licenseNumber": "550009460",
    "licenseEffectiveDate": "10/18/2025",
    "licenseExpirationDate": "10/17/2026",
    "dataDate": "10/18/2025",
    "capacity": 0,
    "address": "225 E BROADWAY, SUITE B112A",
    "city": "GLENDALE",
    "zip": "91205",
    "county": "LOS ANGELES",
    "phone": "(747) 287-2027",
    "lat": 34.146576,
    "lng": -118.252953
  },
  {
    "id": "630020671",
    "name": "ALMAZ HHA LLC",
    "npi": null,
    "hcaiId": "406334815",
    "businessName": "ALMAZ HHA LLC",
    "contactEmail": "ALMAZHHA@GMAIL.COM",
    "categoryName": "HOME HEALTH AGENCY",
    "categoryCode": "HHA",
    "licenseStatus": "ACTIVE",
    "inService": true,
    "licenseNumber": "550006219",
    "licenseEffectiveDate": "03/15/2025",
    "licenseExpirationDate": "03/14/2026",
    "dataDate": "10/18/2025",
    "capacity": 0,
    "address": "111 E BROADWAY, SUITE 203",
    "city": "GLENDALE",
    "zip": "91205",
    "county": "LOS ANGELES",
    "phone": "(818) 442-2686",
    "lat": 34.14715802,
    "lng": -118.254072
  },
  {
    "id": "630020609",
    "name": "AMICA HOSPICE CARE, INC.",
    "npi": null,
    "hcaiId": "406193710",
    "businessName": "AMICA HOSPICE CARE, INC.",
    "contactEmail": "AMICAHCARE@GMAIL.COM",
    "categoryName": "HOSPICE",
    "categoryCode": "HOSPICE",
    "licenseStatus": "ACTIVE",
    "inService": true,
    "licenseNumber": "550006847",
    "licenseEffectiveDate": "09/16/2025",
    "licenseExpirationDate": "09/15/2027",
    "dataDate": "10/18/2025",
    "capacity": 0,
    "address": "415 E HARVARD ST, SUITE 102",
    "city": "GLENDALE",
    "zip": "91205",
    "county": "LOS ANGELES",
    "phone": "(818) 922-2304",
    "lat": 34.14473502,
    "lng": -118.250602
  },
  {
    "id": "630018048",
    "name": "ANGEL CITY HOME HEALTH, INC.",
    "npi": null,
    "hcaiId": "406192443",
    "businessName": "ANGEL CITY HOME HEALTH, INC.",
    "contactEmail": "ANGELCITYHOMEHEALTH@GMAIL.COM",
    "categoryName": "HOME HEALTH AGENCY",
    "categoryCode": "HHA",
    "licenseStatus": "ACTIVE",
    "inService": true,
    "licenseNumber": "550005396",
    "licenseEffectiveDate": "03/16/2023",
    "licenseExpirationDate": "03/15/2024",
    "dataDate": "10/18/2025",
    "capacity": 0,
    "address": "511 E HARVARD ST, UNIT 5",
    "city": "GLENDALE",
    "zip": "91205",
    "county": "LOS ANGELES",
    "phone": "(818) 442-2686",
    "lat": 34.144722,
    "lng": -118.249569
  },
  {
    "id": "630018935",
    "name": "ANGEL'S TOUCH HOME HEALTH CARE INC.",
    "npi": "1255891628",
    "hcaiId": "406192429",
    "businessName": "ANGEL'S TOUCH HOME HEALTH CARE INC.",
    "contactEmail": "ANGELSTOUCHHHC@YAHOO.COM",
    "categoryName": "HOME HEALTH AGENCY",
    "categoryCode": "HHA",
    "licenseStatus": "ACTIVE",
    "inService": true,
    "licenseNumber": "550005326",
    "licenseEffectiveDate": "09/16/2025",
    "licenseExpirationDate": "02/24/2026",
    "dataDate": "10/18/2025",
    "capacity": 0,
    "address": "225 EAST BROADWAY, SUITE 215A",
    "city": "GLENDALE",
    "zip": "91205",
    "county": "LOS ANGELES",
    "phone": "(818) 812-1188",
    "lat": 34.14658172,
    "lng": -118.2529666
  },
  {
    "id": "630018300",
    "name": "ANGELS GARDEN HOSPICE, INC.",
    "npi": "1063992204",
    "hcaiId": "406191817",
    "businessName": "ANGELS GARDEN HOSPICE, INC.",
    "contactEmail": "CCCHOSPICE@YAHOO.COM",
    "categoryName": "HOSPICE",
    "categoryCode": "HOSPICE",
    "licenseStatus": "ACTIVE",
    "inService": true,
    "licenseNumber": "550004862",
    "licenseEffectiveDate": "07/18/2023",
    "licenseExpirationDate": "07/17/2025",
    "dataDate": "10/18/2025",
    "capacity": 0,
    "address": "225 E BROADWAY, SUITE 301B",
    "city": "GLENDALE",
    "zip": "91205",
    "county": "LOS ANGELES",
    "phone": "(213) 802-8185",
    "lat": 34.146576,
    "lng": -118.252953
  },
  {
    "id": "630012775",
    "name": "ANGELS HOSPICE SERVICES, INC.",
    "npi": null,
    "hcaiId": "406197588",
    "businessName": "ANGELS HOSPICE SERVICES, INC.",
    "contactEmail": "ANGELSHOSPICEINC@YAHOO.COM",
    "categoryName": "HOSPICE",
    "categoryCode": "HOSPICE",
    "licenseStatus": "ACTIVE",
    "inService": true,
    "licenseNumber": "550001661",
    "licenseEffectiveDate": "06/09/2022",
    "licenseExpirationDate": "06/08/2024",
    "dataDate": "10/18/2025",
    "capacity": 0,
    "address": "126 S JACKSON ST, SUITE 304",
    "city": "GLENDALE",
    "zip": "91205",
    "county": "LOS ANGELES",
    "phone": "(818) 241-7700",
    "lat": 34.145343,
    "lng": -118.2497445
  },
  {
    "id": "060002083",
    "name": "ARARAT ADULT DAY HEALTH CARE CENTER",
    "npi": null,
    "hcaiId": null,
    "businessName": "HICHOICE HEALTH CARE, INC.",
    "contactEmail": "ARARATADHC@YAHOO.COM",
    "categoryName": "ADULT DAY HEALTH CARE",
    "categoryCode": "ADHC",
    "licenseStatus": "ACTIVE",
    "inService": true,
    "licenseNumber": "060000887",
    "licenseEffectiveDate": "11/03/2024",
    "licenseExpirationDate": "11/02/2025",
    "dataDate": "10/18/2025",
    "capacity": 0,
    "address": "721 S GLENDALE AVE",
    "city": "GLENDALE",
    "zip": "91205",
    "county": "LOS ANGELES",
    "phone": "(818) 240-1721",
    "lat": 34.13799704,
    "lng": -118.2512929
  },
  {
    "id": "970000105",
    "name": "ARARAT POST ACUTE",
    "npi": "1972588846",
    "hcaiId": "206190888",
    "businessName": "ARARAT HOME OF LOS ANGELES, INC.",
    "contactEmail": "VARSENIKK@ARARATHOME.ORG",
    "categoryName": "SKILLED NURSING FACILITY",
    "categoryCode": "SNF",
    "licenseStatus": "ACTIVE",
    "inService": true,
    "licenseNumber": "970000052",
    "licenseEffectiveDate": "12/01/2024",
    "licenseExpirationDate": "11/30/2025",
    "dataDate": "10/18/2025",
    "capacity": 28,
    "address": "1230 E WINDSOR RD",
    "city": "GLENDALE",
    "zip": "91205",
    "county": "LOS ANGELES",
    "phone": "(818) 244-7219",
    "lat": 34.136811,
    "lng": -118.238553
  },
  {
    "id": "630020312",
    "name": "ARMALINA HOSPICE,INC",
    "npi": null,
    "hcaiId": "406195001",
    "businessName": "ARMALINA HOSPICE,INC",
    "contactEmail": "ARMALINAHOSPICE@GMAIL.COM",
    "categoryName": "HOSPICE",
    "categoryCode": "HOSPICE",
    "licenseStatus": "ACTIVE",
    "inService": true,
    "licenseNumber": "550006299",
    "licenseEffectiveDate": "05/14/2023",
    "licenseExpirationDate": "05/13/2025",
    "dataDate": "10/18/2025",
    "capacity": 0,
    "address": "225 E BROADWAY, SUITE 103B",
    "city": "GLENDALE",
    "zip": "91205",
    "county": "LOS ANGELES",
    "phone": "(818) 536-7325",
    "lat": 34.146576,
    "lng": -118.252953
  },
  {
    "id": "630021161",
    "name": "AROUND THE CLOCK HOSPICE",
    "npi": null,
    "hcaiId": "406193857",
    "businessName": "AROUND THE CLOCK HOSPICE",
    "contactEmail": "AROUNDTHECLOCKHOSPICE2023@GMAIL.COM",
    "categoryName": "HOSPICE",
    "categoryCode": "HOSPICE",
    "licenseStatus": "ACTIVE",
    "inService": true,
    "licenseNumber": "550007354",
    "licenseEffectiveDate": "12/03/2025",
    "licenseExpirationDate": "12/02/2027",
    "dataDate": "10/18/2025",
    "capacity": 0,
    "address": "225 E BROADWAY, SUITE 113",
    "city": "GLENDALE",
    "zip": "91205",
    "county": "LOS ANGELES",
    "phone": "(818) 796-2998",
    "lat": 34.14658499,
    "lng": -118.252965
  },
  {
    "id": "630020561",
    "name": "ARROW HOSPICE, INC.",
    "npi": null,
    "hcaiId": "406193864",
    "businessName": "ARROW HOSPICE, INC.",
    "contactEmail": "INFO.ARROWHOSPICE@GMAIL.COM",
    "categoryName": "HOSPICE",
    "categoryCode": "HOSPICE",
    "licenseStatus": "ACTIVE",
    "inService": true,
    "licenseNumber": "550007294",
    "licenseEffectiveDate": "11/22/2025",
    "licenseExpirationDate": "11/21/2027",
    "dataDate": "10/18/2025",
    "capacity": 0,
    "address": "225 E BROADWAY, SUITE B104B",
    "city": "GLENDALE",
    "zip": "91205",
    "county": "LOS ANGELES",
    "phone": "(818) 536-7949",
    "lat": 34.146576,
    "lng": -118.252953
  },
  {
    "id": "630021414",
    "name": "ARTEMIS HEALTHCARE",
    "npi": null,
    "hcaiId": "406194961",
    "businessName": "ARTEMIS HEALTHCARE",
    "contactEmail": "ARTEMISHEALTHCARE20@GMAIL.COM",
    "categoryName": "HOSPICE",
    "categoryCode": "HOSPICE",
    "licenseStatus": "ACTIVE",
    "inService": true,
    "licenseNumber": "550007054",
    "licenseEffectiveDate": "10/29/2023",
    "licenseExpirationDate": "10/28/2025",
    "dataDate": "10/18/2025",
    "capacity": 0,
    "address": "220 S KENWOOD ST, SUITE 101",
    "city": "GLENDALE",
    "zip": "91205",
    "county": "LOS ANGELES",
    "phone": "(323) 394-8000",
    "lat": 34.14356398,
    "lng": -118.250995
  },
  {
    "id": "630022197",
    "name": "ARTSAKH HOME HEALTH",
    "npi": null,
    "hcaiId": "406195607",
    "businessName": "ARTSAKH HOME HEALTH",
    "contactEmail": "ARTSAKHHOMEHEALTH@GMAIL.COM",
    "categoryName": "HOME HEALTH AGENCY",
    "categoryCode": "HHA",
    "licenseStatus": "ACTIVE",
    "inService": true,
    "licenseNumber": "550008166",
    "licenseEffectiveDate": "09/08/2023",
    "licenseExpirationDate": "09/07/2024",
    "dataDate": "10/18/2025",
    "capacity": 0,
    "address": "1016 E BROADWAY, UNIT 300",
    "city": "GLENDALE",
    "zip": "91205",
    "county": "LOS ANGELES",
    "phone": "(818) 742-8776",
    "lat": 34.145964,
    "lng": -118.242261
  },
  {
    "id": "630026490",
    "name": "ASHLEY HOME HEALTH INC",
    "npi": null,
    "hcaiId": null,
    "businessName": "ASHLEY HOME HEALTH INC",
    "contactEmail": "ASHLEYHOMEHEALTHINC@GMAIL.COM",
    "categoryName": "HOME HEALTH AGENCY",
    "categoryCode": "HHA",
    "licenseStatus": "ACTIVE",
    "inService": true,
    "licenseNumber": "550009294",
    "licenseEffectiveDate": "02/07/2025",
    "licenseExpirationDate": "08/06/2025",
    "dataDate": "10/18/2025",
    "capacity": 0,
    "address": "1241 S GLENDALE AVE, SUITE 304B",
    "city": "GLENDALE",
    "zip": "91205",
    "county": "LOS ANGELES",
    "phone": "(747) 250-5080",
    "lat": 34.130682,
    "lng": -118.252791
  },
  {
    "id": "630023766",
    "name": "AVANT GARDE HOME HEALTH CARE",
    "npi": null,
    "hcaiId": "406195367",
    "businessName": "AVANT GARDE HOME HEALTH CARE INC",
    "contactEmail": "AVANTGARDEHHS@GMAIL.COM",
    "categoryName": "HOME HEALTH AGENCY",
    "categoryCode": "HHA",
    "licenseStatus": "ACTIVE",
    "inService": true,
    "licenseNumber": "550007946",
    "licenseEffectiveDate": "04/06/2025",
    "licenseExpirationDate": "04/05/2026",
    "dataDate": "10/18/2025",
    "capacity": 0,
    "address": "400 S GLENDALE AVE, SUITE N2",
    "city": "GLENDALE",
    "zip": "91205",
    "county": "LOS ANGELES",
    "phone": "(818) 531-4910",
    "lat": 34.141536,
    "lng": -118.249209
  },
  {
    "id": "630016145",
    "name": "AVG HOME HEALTH CARE, INC.",
    "npi": "1528440799",
    "hcaiId": "406198514",
    "businessName": "AVG HOME HEALTH CARE, INC.",
    "contactEmail": "AVGHEALTH@GMAIL.COM",
    "categoryName": "HOME HEALTH AGENCY",
    "categoryCode": "HHA",
    "licenseStatus": "ACTIVE",
    "inService": true,
    "licenseNumber": "550003998",
    "licenseEffectiveDate": "10/10/2025",
    "licenseExpirationDate": "10/09/2026",
    "dataDate": "10/18/2025",
    "capacity": 0,
    "address": "725 S GLENDALE AVE, UNIT E",
    "city": "GLENDALE",
    "zip": "91205",
    "county": "LOS ANGELES",
    "phone": "(818) 798-5800",
    "lat": 34.137693,
    "lng": -118.2516525
  },
  {
    "id": "630025747",
    "name": "AYG HOME HEALTH INC",
    "npi": null,
    "hcaiId": null,
    "businessName": "AYG HOME HEALTH INC",
    "contactEmail": null,
    "categoryName": "HOME HEALTH AGENCY",
    "categoryCode": "HHA",
    "licenseStatus": "ACTIVE",
    "inService": true,
    "licenseNumber": "550009196",
    "licenseEffectiveDate": "05/17/2025",
    "licenseExpirationDate": "05/16/2026",
    "dataDate": "10/18/2025",
    "capacity": 0,
    "address": "1241 S GLENDALE AVE, SUITE 304D",
    "city": "GLENDALE",
    "zip": "91205",
    "county": "LOS ANGELES",
    "phone": "(818) 538-4287",
    "lat": 34.130682,
    "lng": -118.252791
  },
  {
    "id": "630022066",
    "name": "BELIEVE HOSPICE CARE INC",
    "npi": null,
    "hcaiId": "406190214",
    "businessName": "BELIEVE HOSPICE CARE INC",
    "contactEmail": "BELIEVEHOSPICE@YAHOO.COM",
    "categoryName": "HOSPICE",
    "categoryCode": "HOSPICE",
    "licenseStatus": "ACTIVE",
    "inService": true,
    "licenseNumber": "550007539",
    "licenseEffectiveDate": "12/13/2023",
    "licenseExpirationDate": "12/12/2025",
    "dataDate": "10/18/2025",
    "capacity": 0,
    "address": "225 E BROADWAY, SUITE 306A",
    "city": "GLENDALE",
    "zip": "91205",
    "county": "LOS ANGELES",
    "phone": "(310) 388-8338",
    "lat": 34.146576,
    "lng": -118.252953
  },
  {
    "id": "630018372",
    "name": "BEST IN TOWN HOME HEALTH CARE INC",
    "npi": "1346716388",
    "hcaiId": "406191718",
    "businessName": "BEST IN TOWN HOME HEALTH CARE",
    "contactEmail": "BESTINTOWNHHC@GMAIL.COM",
    "categoryName": "HOME HEALTH AGENCY",
    "categoryCode": "HHA",
    "licenseStatus": "ACTIVE",
    "inService": true,
    "licenseNumber": "550004780",
    "licenseEffectiveDate": "06/08/2025",
    "licenseExpirationDate": "06/07/2026",
    "dataDate": "10/18/2025",
    "capacity": 0,
    "address": "1110 S GLENDALE AVE, SUITE B",
    "city": "GLENDALE",
    "zip": "91205",
    "county": "LOS ANGELES",
    "phone": "(818) 405-9565",
    "lat": 34.133058,
    "lng": -118.251477
  },
  {
    "id": "630022082",
    "name": "BLUE SHIELD HOSPICE",
    "npi": null,
    "hcaiId": "406196108",
    "businessName": "BLUE SHIELD HOSPICE",
    "contactEmail": "BLUESHIELDHOSPICE@GMAIL.COM",
    "categoryName": "HOSPICE",
    "categoryCode": "HOSPICE",
    "licenseStatus": "ACTIVE",
    "inService": true,
    "licenseNumber": "550007595",
    "licenseEffectiveDate": "01/14/2025",
    "licenseExpirationDate": "12/17/2025",
    "dataDate": "10/18/2025",
    "capacity": 0,
    "address": "425 E COLORADO ST, UNIT 480B",
    "city": "GLENDALE",
    "zip": "91205",
    "county": "LOS ANGELES",
    "phone": "(818) 855-9729",
    "lat": 34.14312104,
    "lng": -118.2503967
  },
  {
    "id": "630021248",
    "name": "BOUNTEOUS HOME HEALTH, INC.",
    "npi": null,
    "hcaiId": "406195411",
    "businessName": "BOUNTEOUS HOME HEALTH, INC.",
    "contactEmail": "BOUNTEOUSHHCA@GMAIL.COM",
    "categoryName": "HOME HEALTH AGENCY",
    "categoryCode": "HHA",
    "licenseStatus": "ACTIVE",
    "inService": true,
    "licenseNumber": "550007778",
    "licenseEffectiveDate": "06/02/2025",
    "licenseExpirationDate": "01/12/2026",
    "dataDate": "10/18/2025",
    "capacity": 0,
    "address": "805 E BROADWAY, SUITE D",
    "city": "GLENDALE",
    "zip": "91205",
    "county": "LOS ANGELES",
    "phone": "(818) 453-8216",
    "lat": 34.14654501,
    "lng": -118.245337
  },
  {
    "id": "630027779",
    "name": "BRIGHT HEARTS HOME HEALTH SERVICES INC",
    "npi": null,
    "hcaiId": null,
    "businessName": "BRIGHT HEARTS HOME HEALTH SERVICES INC",
    "contactEmail": "BRIGHTHEARTSHHS@GMAIL.COM",
    "categoryName": "HOME HEALTH AGENCY",
    "categoryCode": "HHA",
    "licenseStatus": "ACTIVE",
    "inService": true,
    "licenseNumber": "550009948",
    "licenseEffectiveDate": "09/11/2025",
    "licenseExpirationDate": "03/10/2026",
    "dataDate": "10/18/2025",
    "capacity": 0,
    "address": "233 S VERDUGO RD, UNIT A",
    "city": "GLENDALE",
    "zip": "91205",
    "county": "LOS ANGELES",
    "phone": "(818) 822-0006",
    "lat": 34.143229,
    "lng": -118.234457
  },
  {
    "id": "630019336",
    "name": "BROADWAY LASER SURGICAL INSTITUTE",
    "npi": "1558853234",
    "hcaiId": null,
    "businessName": null,
    "contactEmail": null,
    "categoryName": "SURGICAL CLINIC",
    "categoryCode": "ASC",
    "licenseStatus": null,
    "inService": null,
    "licenseNumber": null,
    "licenseEffectiveDate": null,
    "licenseExpirationDate": null,
    "dataDate": "10/18/2025",
    "capacity": 0,
    "address": "1100 E BROADWAY, SUITE 201",
    "city": "GLENDALE",
    "zip": "91205",
    "county": "LOS ANGELES",
    "phone": null,
    "lat": 34.146027,
    "lng": -118.241523
  },
  {
    "id": "630018502",
    "name": "CALIFORNIA CARE HOSPICE INC.",
    "npi": "1134691611",
    "hcaiId": "406191965",
    "businessName": "CALIFORNIA CARE HOSPICE INC.",
    "contactEmail": "CALIFORNIACAREHOSPICE@GMAIL.COM",
    "categoryName": "HOSPICE",
    "categoryCode": "HOSPICE",
    "licenseStatus": "ACTIVE",
    "inService": true,
    "licenseNumber": "550005053",
    "licenseEffectiveDate": "10/25/2023",
    "licenseExpirationDate": "10/24/2025",
    "dataDate": "10/18/2025",
    "capacity": 0,
    "address": "815 E COLORADO ST, SUITE 140",
    "city": "GLENDALE",
    "zip": "91205",
    "county": "LOS ANGELES",
    "phone": "(818) 538-5313",
    "lat": 34.14294,
    "lng": -118.244772
  },
  {
    "id": "630016720",
    "name": "CALIFORNIA NURSING & HOME HEALTH CARE, INC.",
    "npi": "1013378710",
    "hcaiId": "406190898",
    "businessName": "CALIFORNIA NURSING & HOME HEALTH CARE, INC.",
    "contactEmail": "CALIFORNIANURSING@MAIL.COM",
    "categoryName": "HOME HEALTH AGENCY",
    "categoryCode": "HHA",
    "licenseStatus": "ACTIVE",
    "inService": true,
    "licenseNumber": "550004269",
    "licenseEffectiveDate": "03/15/2025",
    "licenseExpirationDate": "03/14/2026",
    "dataDate": "10/18/2025",
    "capacity": 0,
    "address": "1100 E BROADWAY, SUITE 306",
    "city": "GLENDALE",
    "zip": "91205",
    "county": "LOS ANGELES",
    "phone": "(818) 779-0260",
    "lat": 34.146027,
    "lng": -118.241523
  },
  {
    "id": "630016119",
    "name": "CALMED HOME HEALTH CARE, INC",
    "npi": "1952782823",
    "hcaiId": "406334748",
    "businessName": "CALMED HOME HEALTH CARE, INC",
    "contactEmail": "CALMEDHHC@GMAIL.COM",
    "categoryName": "HOME HEALTH AGENCY",
    "categoryCode": "HHA",
    "licenseStatus": "ACTIVE",
    "inService": true,
    "licenseNumber": "550003999",
    "licenseEffectiveDate": "10/19/2025",
    "licenseExpirationDate": "10/18/2026",
    "dataDate": "10/18/2025",
    "capacity": 0,
    "address": "225 E BROADWAY, SUITE 304A",
    "city": "GLENDALE",
    "zip": "91205",
    "county": "LOS ANGELES",
    "phone": "(747) 699-0068",
    "lat": 34.14658499,
    "lng": -118.252965
  },
  {
    "id": "630023925",
    "name": "CARED FOR HOME HEALTH",
    "npi": null,
    "hcaiId": "406195318",
    "businessName": "CARED FOR HOME HEALTH",
    "contactEmail": "CAREFORHHC@GMAIL.COM",
    "categoryName": "HOME HEALTH AGENCY",
    "categoryCode": "HHA",
    "licenseStatus": "ACTIVE",
    "inService": true,
    "licenseNumber": "550008046",
    "licenseEffectiveDate": "06/24/2025",
    "licenseExpirationDate": "06/23/2026",
    "dataDate": "10/18/2025",
    "capacity": 0,
    "address": "511 E HARVARD ST, SUITE 3",
    "city": "GLENDALE",
    "zip": "91205",
    "county": "LOS ANGELES",
    "phone": "(818) 484-5131",
    "lat": 34.144722,
    "lng": -118.249569
  },
  {
    "id": "630021967",
    "name": "CAREGIVER HOME HEALTH",
    "npi": null,
    "hcaiId": "406195476",
    "businessName": "CAREGIVER HOME HEALTH",
    "contactEmail": "4CAREGIVERHH@GMAIL.COM",
    "categoryName": "HOME HEALTH AGENCY",
    "categoryCode": "HHA",
    "licenseStatus": "ACTIVE",
    "inService": true,
    "licenseNumber": "550007886",
    "licenseEffectiveDate": "03/08/2024",
    "licenseExpirationDate": "03/07/2025",
    "dataDate": "10/18/2025",
    "capacity": 0,
    "address": "125 S LOUISE ST, SUITE 19",
    "city": "GLENDALE",
    "zip": "91205",
    "county": "LOS ANGELES",
    "phone": "(818) 287-7622",
    "lat": 34.14568157,
    "lng": -118.2526864
  },
  {
    "id": "630025633",
    "name": "CAREMINDED HOME HEALTH, INC.",
    "npi": null,
    "hcaiId": null,
    "businessName": "CAREMINDED HOME HEALTH, INC.",
    "contactEmail": "CAREMINDEDHH@GMAIL.COM",
    "categoryName": "HOME HEALTH AGENCY",
    "categoryCode": "HHA",
    "licenseStatus": "ACTIVE",
    "inService": true,
    "licenseNumber": "550009821",
    "licenseEffectiveDate": "11/09/2025",
    "licenseExpirationDate": "05/08/2026",
    "dataDate": "10/18/2025",
    "capacity": 0,
    "address": "225 E BROADWAY, SUITE 306C",
    "city": "GLENDALE",
    "zip": "91205",
    "county": "LOS ANGELES",
    "phone": "(818) 298-2574",
    "lat": 34.14656298,
    "lng": -118.25288
  },
  {
    "id": "630021110",
    "name": "CARING NURSES HOSPICE INC",
    "npi": null,
    "hcaiId": "406193921",
    "businessName": "CARING NURSES HOSPICE INC",
    "contactEmail": "CARINGNURSESHOSPICE@GMAIL.COM",
    "categoryName": "HOSPICE",
    "categoryCode": "HOSPICE",
    "licenseStatus": "ACTIVE",
    "inService": true,
    "licenseNumber": "550007324",
    "licenseEffectiveDate": "11/19/2023",
    "licenseExpirationDate": "11/18/2025",
    "dataDate": "10/18/2025",
    "capacity": 0,
    "address": "220 S KENWOOD ST, SUITE 102",
    "city": "GLENDALE",
    "zip": "91205",
    "county": "LOS ANGELES",
    "phone": "(747) 777-3937",
    "lat": 34.14356398,
    "lng": -118.250995
  },
  {
    "id": "630011173",
    "name": "CENTRAL HOME HEALTH AGENCY",
    "npi": "1235295361",
    "hcaiId": "406197080",
    "businessName": "CENTRAL HOME HEALTH AGENCY",
    "contactEmail": "CENTRALHOMEHEALTH@SBCGLOBAL.NET",
    "categoryName": "HOME HEALTH AGENCY",
    "categoryCode": "HHA",
    "licenseStatus": "ACTIVE",
    "inService": true,
    "licenseNumber": "550000679",
    "licenseEffectiveDate": "11/15/2025",
    "licenseExpirationDate": "11/14/2026",
    "dataDate": "10/18/2025",
    "capacity": 0,
    "address": "220 S KENWOOD ST, SUITE 330",
    "city": "GLENDALE",
    "zip": "91205",
    "county": "LOS ANGELES",
    "phone": "(818) 242-0439",
    "lat": 34.143624,
    "lng": -118.2511395
  },
  {
    "id": "980002391",
    "name": "CENTRAL HOME HEALTHCARE, INC.",
    "npi": "1467536664",
    "hcaiId": "406197130",
    "businessName": "CENTRAL HOME HEALTHCARE, INC.",
    "contactEmail": "CENTRAL_HOMEHEALTH@YAHOO.COM",
    "categoryName": "HOME HEALTH AGENCY",
    "categoryCode": "HHA",
    "licenseStatus": "ACTIVE",
    "inService": true,
    "licenseNumber": "980001501",
    "licenseEffectiveDate": "06/23/2025",
    "licenseExpirationDate": "06/22/2026",
    "dataDate": "10/18/2025",
    "capacity": 0,
    "address": "221 S VERDUGO RD",
    "city": "GLENDALE",
    "zip": "91205",
    "county": "LOS ANGELES",
    "phone": "(818) 500-1254",
    "lat": 34.143822,
    "lng": -118.234548
  },
  {
    "id": "930001841",
    "name": "CHEVY CHASE AMBULATORY CENTER",
    "npi": "1497733661",
    "hcaiId": "306196624",
    "businessName": "CHEVY CHASE AMBULATORY CENTER, LP",
    "contactEmail": "VALENY@EARTHLINK.COM",
    "categoryName": "SURGICAL CLINIC",
    "categoryCode": "ASC",
    "licenseStatus": "INACTIVE - CAPEN DECISION",
    "inService": false,
    "licenseNumber": "550000021",
    "licenseEffectiveDate": "04/25/2007",
    "licenseExpirationDate": "04/24/2008",
    "dataDate": "10/18/2025",
    "capacity": 0,
    "address": "801 S CHEVY CHASE DR, SUITE 106",
    "city": "GLENDALE",
    "zip": "91205",
    "county": "LOS ANGELES",
    "phone": "(818) 265-2275",
    "lat": 34.136586,
    "lng": -118.2402675
  },
  {
    "id": "630025379",
    "name": "CIEL HOME HEALTH CARE, INC.",
    "npi": null,
    "hcaiId": "406190125",
    "businessName": "CIEL HOME HEALTH CARE, INC.",
    "contactEmail": "CIELHOMEHEALTHINC@GMAIL.COM",
    "categoryName": "HOME HEALTH AGENCY",
    "categoryCode": "HHA",
    "licenseStatus": "ACTIVE",
    "inService": true,
    "licenseNumber": "550008573",
    "licenseEffectiveDate": "06/09/2025",
    "licenseExpirationDate": "06/08/2026",
    "dataDate": "10/18/2025",
    "capacity": 0,
    "address": "225 E BROADWAY, SUITE 208",
    "city": "GLENDALE",
    "zip": "91205",
    "county": "LOS ANGELES",
    "phone": "(818) 536-7421",
    "lat": 34.146576,
    "lng": -118.252953
  },
  {
    "id": "630012558",
    "name": "CIRCLE OF LIFE HOME HEALTH, INC.",
    "npi": "1932575834",
    "hcaiId": "406197493",
    "businessName": "CIRCLE OF LIFE HOME HEALTH, INC.",
    "contactEmail": "CIRCLEOFLIFEHH@YAHOO.COM",
    "categoryName": "HOME HEALTH AGENCY",
    "categoryCode": "HHA",
    "licenseStatus": "ACTIVE",
    "inService": true,
    "licenseNumber": "550001485",
    "licenseEffectiveDate": "01/27/2025",
    "licenseExpirationDate": "01/26/2026",
    "dataDate": "10/18/2025",
    "capacity": 0,
    "address": "1241 S GLENDALE AVE, SUITE 202A",
    "city": "GLENDALE",
    "zip": "91205",
    "county": "LOS ANGELES",
    "phone": "(818) 405-9464",
    "lat": 34.130691,
    "lng": -118.2528225
  },
  {
    "id": "630021211",
    "name": "CITADEL HOSPICE CARE",
    "npi": null,
    "hcaiId": "406197166",
    "businessName": "CITADEL HOSPICE CARE",
    "contactEmail": "ADMIN@CITADELHOSPICE.COM",
    "categoryName": "HOSPICE",
    "categoryCode": "HOSPICE",
    "licenseStatus": "ACTIVE",
    "inService": true,
    "licenseNumber": "550006741",
    "licenseEffectiveDate": "08/26/2025",
    "licenseExpirationDate": "08/25/2027",
    "dataDate": "10/18/2025",
    "capacity": 0,
    "address": "901 S GLENDALE AVE, SUITE E1",
    "city": "GLENDALE",
    "zip": "91205",
    "county": "LOS ANGELES",
    "phone": "(818) 937-9368",
    "lat": 34.135722,
    "lng": -118.251819
  },
  {
    "id": "630026075",
    "name": "COMMUNITY CARE HOME HEALTH, INC.",
    "npi": null,
    "hcaiId": null,
    "businessName": "COMMUNITY CARE HOME HEALTH, INC.",
    "contactEmail": "COMMUNITYCAREHH@GMAIL.COM",
    "categoryName": "HOME HEALTH AGENCY",
    "categoryCode": "HHA",
    "licenseStatus": "ACTIVE",
    "inService": true,
    "licenseNumber": "550009645",
    "licenseEffectiveDate": "08/13/2025",
    "licenseExpirationDate": "02/12/2026",
    "dataDate": "10/18/2025",
    "capacity": 0,
    "address": "225 E BROADWAY, SUITE 207",
    "city": "GLENDALE",
    "zip": "91205",
    "county": "LOS ANGELES",
    "phone": null,
    "lat": 34.146576,
    "lng": -118.252953
  },
  {
    "id": "630011595",
    "name": "COMMUNITY HOME HEALTH CARE SERVICES",
    "npi": "1750572632",
    "hcaiId": "406197310",
    "businessName": "COMMUNITY HOME HEALTH CARE SERVICES",
    "contactEmail": "COMMHHC@YAHOO.COM",
    "categoryName": "HOME HEALTH AGENCY",
    "categoryCode": "HHA",
    "licenseStatus": "ACTIVE",
    "inService": true,
    "licenseNumber": "550001058",
    "licenseEffectiveDate": "04/08/2025",
    "licenseExpirationDate": "04/07/2026",
    "dataDate": "10/18/2025",
    "capacity": 0,
    "address": "1012 E COLORADO ST, UNIT 270",
    "city": "GLENDALE",
    "zip": "91205",
    "county": "LOS ANGELES",
    "phone": "(818) 244-7029",
    "lat": 34.142202,
    "lng": -118.2422925
  },
  {
    "id": "630009265",
    "name": "COMPREHENSIVE COMMUNITY HEALTH CENTER, INC.",
    "npi": null,
    "hcaiId": "306196855",
    "businessName": "COMPREHENSIVE COMMUNITY HEALTH CENTER, INC.",
    "contactEmail": "DAVIDLO@CCHCCENTERS.ORG",
    "categoryName": "PRIMARY CARE CLINIC",
    "categoryCode": "COMTYC",
    "licenseStatus": "ACTIVE",
    "inService": true,
    "licenseNumber": "550000322",
    "licenseEffectiveDate": "12/01/2024",
    "licenseExpirationDate": "11/30/2025",
    "dataDate": "10/18/2025",
    "capacity": 0,
    "address": "801 S CHEVY CHASE DR, SUITE 250",
    "city": "GLENDALE",
    "zip": "91205",
    "county": "LOS ANGELES",
    "phone": "(818) 265-2264",
    "lat": 34.136586,
    "lng": -118.2402675
  },
  {
    "id": "630023088",
    "name": "CORE CARE HOME HEALTH INC",
    "npi": null,
    "hcaiId": "406195814",
    "businessName": "CORE CARE HOME HEALTH INC",
    "contactEmail": "CORECAREHH@GMAIL.COM",
    "categoryName": "HOME HEALTH AGENCY",
    "categoryCode": "HHA",
    "licenseStatus": "ACTIVE",
    "inService": true,
    "licenseNumber": "550007847",
    "licenseEffectiveDate": "02/15/2025",
    "licenseExpirationDate": "02/14/2026",
    "dataDate": "10/18/2025",
    "capacity": 0,
    "address": "105 S KENWOOD ST",
    "city": "GLENDALE",
    "zip": "91205",
    "county": "LOS ANGELES",
    "phone": "(800) 229-2711",
    "lat": 34.146009,
    "lng": -118.251531
  },
  {
    "id": "630018334",
    "name": "CROWN HOME CARE, INC.",
    "npi": "1528540754",
    "hcaiId": "406192615",
    "businessName": "CROWN HOME CARE, INC.",
    "contactEmail": "CROWN_HC@YAHOO.COM",
    "categoryName": "HOME HEALTH AGENCY",
    "categoryCode": "HHA",
    "licenseStatus": "ACTIVE",
    "inService": true,
    "licenseNumber": "550005284",
    "licenseEffectiveDate": "09/28/2025",
    "licenseExpirationDate": "09/27/2026",
    "dataDate": "10/18/2025",
    "capacity": 0,
    "address": "124 S GLENDALE AVE, SUITE A",
    "city": "GLENDALE",
    "zip": "91205",
    "county": "LOS ANGELES",
    "phone": "(818) 696-9229",
    "lat": 34.14540197,
    "lng": -118.2472603
  },
  {
    "id": "630011412",
    "name": "CRYSTAL CLEAR HOME HEALTH, INC.",
    "npi": "1588863583",
    "hcaiId": "406197295",
    "businessName": "CRYSTAL CLEAR HOME HEALTH, INC.",
    "contactEmail": "CRYSTALCLEARHOMEHEALTH@YAHOO.COM",
    "categoryName": "HOME HEALTH AGENCY",
    "categoryCode": "HHA",
    "licenseStatus": "ACTIVE",
    "inService": true,
    "licenseNumber": "550001047",
    "licenseEffectiveDate": "04/07/2025",
    "licenseExpirationDate": "04/06/2026",
    "dataDate": "10/18/2025",
    "capacity": 0,
    "address": "1016 E BROADWAY, SUITE 109",
    "city": "GLENDALE",
    "zip": "91205",
    "county": "LOS ANGELES",
    "phone": "(818) 241-7141",
    "lat": 34.145964,
    "lng": -118.242261
  },
  {
    "id": "630024773",
    "name": "DAISY HOME HEALTH",
    "npi": null,
    "hcaiId": "406198039",
    "businessName": "DAISY HOME HEALTH",
    "contactEmail": "DAISYHOMEHEALTH21@GMAIL.COM",
    "categoryName": "HOME HEALTH AGENCY",
    "categoryCode": "HHA",
    "licenseStatus": "ACTIVE",
    "inService": true,
    "licenseNumber": "550008800",
    "licenseEffectiveDate": "01/11/2025",
    "licenseExpirationDate": "01/10/2026",
    "dataDate": "10/18/2025",
    "capacity": 0,
    "address": "204 E CHEVY CHASE DR, SUITE 5",
    "city": "GLENDALE",
    "zip": "91205",
    "county": "LOS ANGELES",
    "phone": "(323) 999-7205",
    "lat": 34.13316497,
    "lng": -118.2534609
  },
  {
    "id": "060001809",
    "name": "DAYLIGHT ADULT DAY HEALTH CARE CENTER",
    "npi": null,
    "hcaiId": null,
    "businessName": "DAYLIGHT ADULT DAY HEALTH CARE",
    "contactEmail": "ARPIA@DAYLIGHTHEALTH.ORG",
    "categoryName": "ADULT DAY HEALTH CARE",
    "categoryCode": "ADHC",
    "licenseStatus": "ACTIVE",
    "inService": true,
    "licenseNumber": "060000626",
    "licenseEffectiveDate": "11/28/2024",
    "licenseExpirationDate": "11/27/2025",
    "dataDate": "10/18/2025",
    "capacity": 0,
    "address": "915 E COLORADO ST",
    "city": "GLENDALE",
    "zip": "91205",
    "county": "LOS ANGELES",
    "phone": "(818) 553-3818",
    "lat": 34.142931,
    "lng": -118.2431385
  },
  {
    "id": "060001842",
    "name": "DAYLIGHT ADULT DAY HEALTH CARE CENTER (SITE 2)",
    "npi": null,
    "hcaiId": null,
    "businessName": "DAYLIGHT ADULT DAY HEALTH CARE",
    "contactEmail": "ARPIA@DAYLIGHTHEALTH.ORG",
    "categoryName": "ADULT DAY HEALTH CARE",
    "categoryCode": "ADHC",
    "licenseStatus": "ACTIVE",
    "inService": true,
    "licenseNumber": "060000659",
    "licenseEffectiveDate": "06/14/2025",
    "licenseExpirationDate": "06/13/2026",
    "dataDate": "10/18/2025",
    "capacity": 0,
    "address": "905 E COLORADO ST",
    "city": "GLENDALE",
    "zip": "91205",
    "county": "LOS ANGELES",
    "phone": "(818) 553-3818",
    "lat": 34.142931,
    "lng": -118.2436335
  },
  {
    "id": "630027167",
    "name": "DEO HOME HEALTH INC",
    "npi": null,
    "hcaiId": null,
    "businessName": "DEO HOME HEALTH INC",
    "contactEmail": "DEOHOMEHEALTH@GMAIL.COM",
    "categoryName": "HOME HEALTH AGENCY",
    "categoryCode": "HHA",
    "licenseStatus": "ACTIVE",
    "inService": true,
    "licenseNumber": "550009791",
    "licenseEffectiveDate": "10/17/2025",
    "licenseExpirationDate": "04/16/2026",
    "dataDate": "10/18/2025",
    "capacity": 0,
    "address": "1241 S GLENDALE AVE, SUITE 205F",
    "city": "GLENDALE",
    "zip": "91205",
    "county": "LOS ANGELES",
    "phone": "(818) 839-1829",
    "lat": 34.13069202,
    "lng": -118.252824
  },
  {
    "id": "630023447",
    "name": "DIAMOND STAR HOME HEALTH CARE, INC",
    "npi": null,
    "hcaiId": "406195818",
    "businessName": "DIAMOND STAR HOME HEALTH CARE, INC",
    "contactEmail": "DIAMONDSTARHH9@GMAIL.COM",
    "categoryName": "HOME HEALTH AGENCY",
    "categoryCode": "HHA",
    "licenseStatus": "ACTIVE",
    "inService": true,
    "licenseNumber": "550007850",
    "licenseEffectiveDate": "02/17/2025",
    "licenseExpirationDate": "02/16/2026",
    "dataDate": "10/18/2025",
    "capacity": 0,
    "address": "225 E BROADWAY, SUITE B107",
    "city": "GLENDALE",
    "zip": "91205",
    "county": "LOS ANGELES",
    "phone": "(747) 273-1592",
    "lat": 34.146576,
    "lng": -118.252953
  },
  {
    "id": "630020936",
    "name": "DIVINE HEALTH HOSPICE, INC.",
    "npi": null,
    "hcaiId": "406193279",
    "businessName": "DIVINE HEALTH HOSPICE, INC.",
    "contactEmail": "DIVINEHEALTHHOSPICE@GMAIL.COM",
    "categoryName": "HOSPICE",
    "categoryCode": "HOSPICE",
    "licenseStatus": "ACTIVE",
    "inService": true,
    "licenseNumber": "550007115",
    "licenseEffectiveDate": "08/12/2025",
    "licenseExpirationDate": "08/11/2027",
    "dataDate": "10/18/2025",
    "capacity": 0,
    "address": "225 E BROADWAY, SUITE 111AB",
    "city": "GLENDALE",
    "zip": "91205",
    "county": "LOS ANGELES",
    "phone": "(818) 536-7375",
    "lat": 34.146576,
    "lng": -118.252953
  },
  {
    "id": "630016981",
    "name": "DIVINE MERCY HOME HEALTH CARE, INC.",
    "npi": "1497152144",
    "hcaiId": "406190881",
    "businessName": "DIVINE MERCY HOME HEALTHCARE, INC.",
    "contactEmail": "DIVINEMERCYHOMEHEALTH@YAHOO.COM",
    "categoryName": "HOME HEALTH AGENCY",
    "categoryCode": "HHA",
    "licenseStatus": "ACTIVE",
    "inService": true,
    "licenseNumber": "550004074",
    "licenseEffectiveDate": "12/22/2024",
    "licenseExpirationDate": "12/21/2025",
    "dataDate": "10/18/2025",
    "capacity": 0,
    "address": "805 E. BROADWAY, SUITE A&H",
    "city": "GLENDALE",
    "zip": "91205",
    "county": "LOS ANGELES",
    "phone": "(818) 551-0079",
    "lat": 34.146594,
    "lng": -118.2453435
  },
  {
    "id": "630019451",
    "name": "EDNA HOSPICE, INC.",
    "npi": null,
    "hcaiId": "406192746",
    "businessName": "EDNA HOSPICE, INC.",
    "contactEmail": "EDNAHOSPICE@GMAIL.COM",
    "categoryName": "HOSPICE",
    "categoryCode": "HOSPICE",
    "licenseStatus": "ACTIVE",
    "inService": true,
    "licenseNumber": "550005609",
    "licenseEffectiveDate": "07/22/2024",
    "licenseExpirationDate": "07/21/2026",
    "dataDate": "10/18/2025",
    "capacity": 0,
    "address": "225 E BROADWAY, SUITE B111",
    "city": "GLENDALE",
    "zip": "91205",
    "county": "LOS ANGELES",
    "phone": "(747) 282-1222",
    "lat": 34.146576,
    "lng": -118.252953
  },
  {
    "id": "630013041",
    "name": "EGEIA HOME HEALTH, INC.",
    "npi": null,
    "hcaiId": "406197636",
    "businessName": "EGEIA HOME HEALTH, INC.",
    "contactEmail": "EGEIAHHC@YAHOO.COM",
    "categoryName": "HOME HEALTH AGENCY",
    "categoryCode": "HHA",
    "licenseStatus": "ACTIVE",
    "inService": true,
    "licenseNumber": "550001731",
    "licenseEffectiveDate": "11/19/2024",
    "licenseExpirationDate": "11/18/2025",
    "dataDate": "10/18/2025",
    "capacity": 0,
    "address": "1101 E BROADWAY, SUITE 102",
    "city": "GLENDALE",
    "zip": "91205",
    "county": "LOS ANGELES",
    "phone": "(818) 243-8408",
    "lat": 34.14645,
    "lng": -118.2414555
  },
  {
    "id": "630017973",
    "name": "ELEGANT HOME HEALTH CARE, INC.",
    "npi": "1578060760",
    "hcaiId": "406192120",
    "businessName": "ELEGANT HOME HEALTH CARE, INC.",
    "contactEmail": "ELEGANTHHC@GMAIL.COM",
    "categoryName": "HOME HEALTH AGENCY",
    "categoryCode": "HHA",
    "licenseStatus": "ACTIVE",
    "inService": true,
    "licenseNumber": "550004788",
    "licenseEffectiveDate": "06/27/2025",
    "licenseExpirationDate": "06/26/2026",
    "dataDate": "10/18/2025",
    "capacity": 0,
    "address": "1259 S GLENDALE AVE, SUITE H",
    "city": "GLENDALE",
    "zip": "91205",
    "county": "LOS ANGELES",
    "phone": "(818) 465-2222",
    "lat": 34.130063,
    "lng": -118.252765
  },
  {
    "id": "630026201",
    "name": "EMERGENCY HOME HEALTH INC",
    "npi": null,
    "hcaiId": null,
    "businessName": "EMERGENCY HOME HEALTH INC",
    "contactEmail": "EMERGENCYHH@YAHOO.COM",
    "categoryName": "HOME HEALTH AGENCY",
    "categoryCode": "HHA",
    "licenseStatus": "ACTIVE",
    "inService": true,
    "licenseNumber": "550009290",
    "licenseEffectiveDate": "08/06/2025",
    "licenseExpirationDate": "08/05/2026",
    "dataDate": "10/18/2025",
    "capacity": 0,
    "address": "1224 E BROADWAY, SUITE 202",
    "city": "GLENDALE",
    "zip": "91205",
    "county": "LOS ANGELES",
    "phone": "(626) 631-5311",
    "lat": 34.14594201,
    "lng": -118.23866
  },
  {
    "id": "630017900",
    "name": "ENDLESS HOME HEALTH INC.",
    "npi": "1366954695",
    "hcaiId": "406191675",
    "businessName": "ENDLESS HOME HEALTH INC.",
    "contactEmail": "ARINB@ENDLESSHOMEHEALTH.COM",
    "categoryName": "HOME HEALTH AGENCY",
    "categoryCode": "HHA",
    "licenseStatus": "ACTIVE",
    "inService": true,
    "licenseNumber": "550004677",
    "licenseEffectiveDate": "04/25/2025",
    "licenseExpirationDate": "04/24/2026",
    "dataDate": "10/18/2025",
    "capacity": 0,
    "address": "225 E BROADWAY, UNIT 305B",
    "city": "GLENDALE",
    "zip": "91205",
    "county": "LOS ANGELES",
    "phone": "(818) 536-7923",
    "lat": 34.146576,
    "lng": -118.252953
  },
  {
    "id": "630025756",
    "name": "ESSENTIAL CARE HOME HEALTH, INC.",
    "npi": null,
    "hcaiId": null,
    "businessName": "ESSENTIAL CARE HOME HEALTH, INC.",
    "contactEmail": "ESSENTIALCAREHH@GMAIL.COM",
    "categoryName": "HOME HEALTH AGENCY",
    "categoryCode": "HHA",
    "licenseStatus": "ACTIVE",
    "inService": true,
    "licenseNumber": "550009212",
    "licenseEffectiveDate": "05/24/2025",
    "licenseExpirationDate": "05/23/2026",
    "dataDate": "10/18/2025",
    "capacity": 0,
    "address": "225 E BROADWAY, #B101E",
    "city": "GLENDALE",
    "zip": "91205",
    "county": "LOS ANGELES",
    "phone": "(818) 945-0123",
    "lat": 34.146576,
    "lng": -118.252953
  },
  {
    "id": "630025073",
    "name": "EVEREST HOME HEALTH CARE",
    "npi": null,
    "hcaiId": "406196309",
    "businessName": "EVEREST HOME HEALTH CARE",
    "contactEmail": "EVERESTHHCARE@GMAIL.COM",
    "categoryName": "HOME HEALTH AGENCY",
    "categoryCode": "HHA",
    "licenseStatus": "ACTIVE",
    "inService": true,
    "licenseNumber": "550008459",
    "licenseEffectiveDate": "03/22/2025",
    "licenseExpirationDate": "03/21/2026",
    "dataDate": "10/18/2025",
    "capacity": 0,
    "address": "225 E BROADWAY, SUITE 107-B",
    "city": "GLENDALE",
    "zip": "91205",
    "county": "LOS ANGELES",
    "phone": "(747) 666-6505",
    "lat": 34.146576,
    "lng": -118.252953
  },
  {
    "id": "630011922",
    "name": "FAST HOSPICE SERVICES INC",
    "npi": "1306343587",
    "hcaiId": "406197502",
    "businessName": "FAST HOSPICE SERVICES INC",
    "contactEmail": "FASTHOSPICESERVICES@GMAIL.COM",
    "categoryName": "HOSPICE",
    "categoryCode": "HOSPICE",
    "licenseStatus": "ACTIVE",
    "inService": false,
    "licenseNumber": "550001565",
    "licenseEffectiveDate": "04/15/2023",
    "licenseExpirationDate": "04/14/2025",
    "dataDate": "10/18/2025",
    "capacity": 0,
    "address": "1241 S GLENDALE AVE, SUITE 305C",
    "city": "GLENDALE",
    "zip": "91205",
    "county": "LOS ANGELES",
    "phone": "(747) 400-0139",
    "lat": 34.130682,
    "lng": -118.252791
  },
  {
    "id": "630025333",
    "name": "FIRST SIGNATURE HOME HEALTH CARE, INC.",
    "npi": null,
    "hcaiId": "406197490",
    "businessName": "FIRST SIGNATURE HOME HEALTH CARE, INC.",
    "contactEmail": "FIRSTSIGNATUREHHC@GMAIL.COM",
    "categoryName": "HOME HEALTH AGENCY",
    "categoryCode": "HHA",
    "licenseStatus": "ACTIVE",
    "inService": true,
    "licenseNumber": "550008574",
    "licenseEffectiveDate": "05/25/2025",
    "licenseExpirationDate": "05/24/2026",
    "dataDate": "10/18/2025",
    "capacity": 0,
    "address": "225 E BROADWAY, SUITE 211C",
    "city": "GLENDALE",
    "zip": "91205",
    "county": "LOS ANGELES",
    "phone": "(760) 254-8460",
    "lat": 34.146576,
    "lng": -118.252953
  },
  {
    "id": "630025637",
    "name": "FOCUSED HOME HEALTH, INC.",
    "npi": null,
    "hcaiId": null,
    "businessName": "FOCUSED HOME HEALTH, INC.",
    "contactEmail": "FOCUSEDHH@GMAIL.COM",
    "categoryName": "HOME HEALTH AGENCY",
    "categoryCode": "HHA",
    "licenseStatus": "ACTIVE",
    "inService": true,
    "licenseNumber": "550009802",
    "licenseEffectiveDate": "11/09/2025",
    "licenseExpirationDate": "05/08/2026",
    "dataDate": "10/18/2025",
    "capacity": 0,
    "address": "225 E BROADWAY, SUITE 205D",
    "city": "GLENDALE",
    "zip": "91205",
    "county": "LOS ANGELES",
    "phone": "(747) 372-5064",
    "lat": 34.14658499,
    "lng": -118.252965
  },
  {
    "id": "630020057",
    "name": "FORTUNE HEALTH CARE SERVICES, INC.",
    "npi": null,
    "hcaiId": "406195917",
    "businessName": "FORTUNE HEALTH CARE SERVICES, INC.",
    "contactEmail": "FORTUNEHH1@GMAIL.COM",
    "categoryName": "HOME HEALTH AGENCY",
    "categoryCode": "HHA",
    "licenseStatus": "ACTIVE",
    "inService": true,
    "licenseNumber": "550006002",
    "licenseEffectiveDate": "02/01/2025",
    "licenseExpirationDate": "01/31/2026",
    "dataDate": "10/18/2025",
    "capacity": 0,
    "address": "225 E BROADWAY, SUITE 104",
    "city": "GLENDALE",
    "zip": "91205",
    "county": "LOS ANGELES",
    "phone": "(818) 697-1725",
    "lat": 34.146576,
    "lng": -118.252953
  },
  {
    "id": "630025384",
    "name": "GENTLE LOVING CARE",
    "npi": null,
    "hcaiId": "406190136",
    "businessName": "GENTLE LOVING CARE",
    "contactEmail": "GLCHOMEHEALTH@GMAIL.COM",
    "categoryName": "HOME HEALTH AGENCY",
    "categoryCode": "HHA",
    "licenseStatus": "ACTIVE",
    "inService": true,
    "licenseNumber": "550008611",
    "licenseEffectiveDate": "06/20/2025",
    "licenseExpirationDate": "06/19/2026",
    "dataDate": "10/18/2025",
    "capacity": 0,
    "address": "225 E BROADWAY, SUITE 301E",
    "city": "GLENDALE",
    "zip": "91205",
    "county": "LOS ANGELES",
    "phone": "(818) 856-4466",
    "lat": 34.146576,
    "lng": -118.252953
  },
  {
    "id": "630026067",
    "name": "GHC CARING SERVICES, INC",
    "npi": null,
    "hcaiId": null,
    "businessName": "GHC CARING SERVICES, INC.",
    "contactEmail": "GHCCARINGSERVICES@YAHOO.COM",
    "categoryName": "HOME HEALTH AGENCY",
    "categoryCode": "HHA",
    "licenseStatus": "ACTIVE",
    "inService": true,
    "licenseNumber": "550009374",
    "licenseEffectiveDate": "09/10/2025",
    "licenseExpirationDate": "09/09/2026",
    "dataDate": "10/18/2025",
    "capacity": 0,
    "address": "415 E HARVARD ST, SUITE 101A",
    "city": "GLENDALE",
    "zip": "91205",
    "county": "LOS ANGELES",
    "phone": "(818) 424-0056",
    "lat": 34.144785,
    "lng": -118.2505995
  },
  {
    "id": "630022410",
    "name": "GHC SERVICES, INC.",
    "npi": null,
    "hcaiId": "406195424",
    "businessName": "GHC SERVICES, INC.",
    "contactEmail": "GHCSERVICESINC@YAHOO.COM",
    "categoryName": "HOME HEALTH AGENCY",
    "categoryCode": "HHA",
    "licenseStatus": "ACTIVE",
    "inService": true,
    "licenseNumber": "550007900",
    "licenseEffectiveDate": "03/02/2025",
    "licenseExpirationDate": "03/01/2026",
    "dataDate": "10/18/2025",
    "capacity": 0,
    "address": "126 S JACKSON ST, SUITE 302",
    "city": "GLENDALE",
    "zip": "91205",
    "county": "LOS ANGELES",
    "phone": "(818) 424-0056",
    "lat": 34.145343,
    "lng": -118.2497445
  },
  {
    "id": "630026153",
    "name": "GIRONA HOME HEALTH, INC.",
    "npi": null,
    "hcaiId": null,
    "businessName": "GIRONA HOME HEALTH, INC.",
    "contactEmail": "GIRONAHOMEHEALTH@GMAIL.COM",
    "categoryName": "HOME HEALTH AGENCY",
    "categoryCode": "HHA",
    "licenseStatus": "ACTIVE",
    "inService": true,
    "licenseNumber": "550009456",
    "licenseEffectiveDate": "10/08/2025",
    "licenseExpirationDate": "10/07/2026",
    "dataDate": "10/18/2025",
    "capacity": 0,
    "address": "1241 S GLENDALE AVE, SUITE 204B",
    "city": "GLENDALE",
    "zip": "91205",
    "county": "LOS ANGELES",
    "phone": "(747) 944-0006",
    "lat": 34.13069202,
    "lng": -118.252824
  },
  {
    "id": "630023329",
    "name": "GLENDALE CARE HOME HEALTH",
    "npi": null,
    "hcaiId": "406195475",
    "businessName": "GLENDALE CARE HOME HEALTH",
    "contactEmail": "GLENDALECAREHH@GMAIL.COM",
    "categoryName": "HOME HEALTH AGENCY",
    "categoryCode": "HHA",
    "licenseStatus": "ACTIVE",
    "inService": true,
    "licenseNumber": "550007885",
    "licenseEffectiveDate": "03/10/2025",
    "licenseExpirationDate": "03/09/2026",
    "dataDate": "10/18/2025",
    "capacity": 0,
    "address": "225 E BROADWAY, SUITE 304C",
    "city": "GLENDALE",
    "zip": "91205",
    "county": "LOS ANGELES",
    "phone": "(747) 265-3365",
    "lat": 34.146576,
    "lng": -118.252953
  },
  {
    "id": "060001935",
    "name": "GLENDALE GARDENS ADULT DAY HEALTH CARE CENTER",
    "npi": null,
    "hcaiId": null,
    "businessName": "AM HEALTHCARE, INC.",
    "contactEmail": "GLENDALEGARDENS@YAHOO.COM",
    "categoryName": "ADULT DAY HEALTH CARE",
    "categoryCode": "ADHC",
    "licenseStatus": "ACTIVE",
    "inService": true,
    "licenseNumber": "060000752",
    "licenseEffectiveDate": "11/20/2025",
    "licenseExpirationDate": "11/19/2026",
    "dataDate": "10/18/2025",
    "capacity": 0,
    "address": "510 E. HARVARD STREET",
    "city": "GLENDALE",
    "zip": "91205",
    "county": "LOS ANGELES",
    "phone": "(818) 507-4998",
    "lat": 34.144182,
    "lng": -118.24965
  },
  {
    "id": "630026243",
    "name": "GLENHILLS HOME HEALTH",
    "npi": null,
    "hcaiId": "406190285",
    "businessName": "GLENHILLS HOME HEALTH",
    "contactEmail": "GLENHILLSHH@YAHOO.COM",
    "categoryName": "HOME HEALTH AGENCY",
    "categoryCode": "HHA",
    "licenseStatus": "ACTIVE",
    "inService": true,
    "licenseNumber": "550009057",
    "licenseEffectiveDate": "03/28/2025",
    "licenseExpirationDate": "03/27/2026",
    "dataDate": "10/18/2025",
    "capacity": 0,
    "address": "1259 S GLENDALE AVE, SUITE 1",
    "city": "GLENDALE",
    "zip": "91205",
    "county": "LOS ANGELES",
    "phone": "(818) 671-0700",
    "lat": 34.130061,
    "lng": -118.2527415
  },
  {
    "id": "630023322",
    "name": "GLENWOOD HOME HEALTH INC",
    "npi": null,
    "hcaiId": "406195474",
    "businessName": "GLENWOOD HOME HEALTH INC",
    "contactEmail": "GLENWOODHOMEHEALTH@GMAIL.COM",
    "categoryName": "HOME HEALTH AGENCY",
    "categoryCode": "HHA",
    "licenseStatus": "ACTIVE",
    "inService": true,
    "licenseNumber": "550007882",
    "licenseEffectiveDate": "03/10/2025",
    "licenseExpirationDate": "03/09/2026",
    "dataDate": "10/18/2025",
    "capacity": 0,
    "address": "225 E BROADWAY, SUITE 304B",
    "city": "GLENDALE",
    "zip": "91205",
    "county": "LOS ANGELES",
    "phone": "(747) 737-3137",
    "lat": 34.146576,
    "lng": -118.252953
  },
  {
    "id": "630019533",
    "name": "GOLDEN HEARTH HOSPICE, INC",
    "npi": "1386280014",
    "hcaiId": "406192591",
    "businessName": "GOLDEN HEARTH HOSPICE, INC",
    "contactEmail": "GOLDENHEARTHHOSPICE@YAHOO.COM",
    "categoryName": "HOSPICE",
    "categoryCode": "HOSPICE",
    "licenseStatus": "ACTIVE",
    "inService": true,
    "licenseNumber": "550005381",
    "licenseEffectiveDate": "02/13/2024",
    "licenseExpirationDate": "02/12/2026",
    "dataDate": "10/18/2025",
    "capacity": 0,
    "address": "225 E BROADWAY, SUITE 214",
    "city": "GLENDALE",
    "zip": "91205",
    "county": "LOS ANGELES",
    "phone": "(323) 561-3034",
    "lat": 34.14658499,
    "lng": -118.252965
  },
  {
    "id": "630015663",
    "name": "GOOD SAMARITAN HOSPICE AND PALLIATIVE CARE, INC.",
    "npi": null,
    "hcaiId": "406198267",
    "businessName": "GOOD SAMARITAN HOSPICE AND PALLIATIVE CARE, INC.",
    "contactEmail": "GSHAPC@ATT.NET",
    "categoryName": "HOSPICE",
    "categoryCode": "HOSPICE",
    "licenseStatus": "ACTIVE",
    "inService": true,
    "licenseNumber": "550003558",
    "licenseEffectiveDate": "05/03/2024",
    "licenseExpirationDate": "05/02/2026",
    "dataDate": "10/18/2025",
    "capacity": 0,
    "address": "725 S. GLENDALE AVENUE, SUITE M",
    "city": "GLENDALE",
    "zip": "91205",
    "county": "LOS ANGELES",
    "phone": "(818) 507-4745",
    "lat": 34.137693,
    "lng": -118.2516525
  },
  {
    "id": "630021176",
    "name": "GREAT CARE HOSPICE AND PALLIATIVE CARE, INC",
    "npi": null,
    "hcaiId": "406193478",
    "businessName": "GREAT CARE HOSPICE AND PALLIATIVE CARE, INC",
    "contactEmail": "GREATCAREHOSPICE@YAHOO.COM",
    "categoryName": "HOSPICE",
    "categoryCode": "HOSPICE",
    "licenseStatus": "ACTIVE",
    "inService": true,
    "licenseNumber": "550006709",
    "licenseEffectiveDate": "08/18/2025",
    "licenseExpirationDate": "08/17/2027",
    "dataDate": "10/18/2025",
    "capacity": 0,
    "address": "225 E BROADWAY, SUITE 303A",
    "city": "GLENDALE",
    "zip": "91205",
    "county": "LOS ANGELES",
    "phone": "(818) 659-9230",
    "lat": 34.14656298,
    "lng": -118.25288
  },
  {
    "id": "630019400",
    "name": "GREAT HOSPICE CARE, INC.",
    "npi": null,
    "hcaiId": null,
    "businessName": "GREAT HOSPICE CARE, INC.",
    "contactEmail": "GREATHOSPICE@GMAIL.COM",
    "categoryName": "HOSPICE",
    "categoryCode": "HOSPICE",
    "licenseStatus": "ACTIVE",
    "inService": true,
    "licenseNumber": "550005937",
    "licenseEffectiveDate": "10/08/2024",
    "licenseExpirationDate": "10/07/2026",
    "dataDate": "10/18/2025",
    "capacity": 0,
    "address": "135 S JACKSON ST, SUITE 101-B",
    "city": "GLENDALE",
    "zip": "91205",
    "county": "LOS ANGELES",
    "phone": "(818) 330-3020",
    "lat": 34.14566512,
    "lng": -118.2501658
  },
  {
    "id": "630021323",
    "name": "GREEN LIFE HOSPICE INC",
    "npi": null,
    "hcaiId": "406193344",
    "businessName": "GREEN LIFE HOSPICE INC",
    "contactEmail": "HOSPICEGREENLIFE@GMAIL.COM",
    "categoryName": "HOSPICE",
    "categoryCode": "HOSPICE",
    "licenseStatus": "ACTIVE",
    "inService": true,
    "licenseNumber": "550006957",
    "licenseEffectiveDate": "09/22/2025",
    "licenseExpirationDate": "09/21/2027",
    "dataDate": "10/18/2025",
    "capacity": 0,
    "address": "225 E BROADWAY, SUITE B103A",
    "city": "GLENDALE",
    "zip": "91205",
    "county": "LOS ANGELES",
    "phone": "(689) 999-0099",
    "lat": 34.146576,
    "lng": -118.252953
  },
  {
    "id": "630025295",
    "name": "GREEN ORCHID HOME HEALTH, INC.",
    "npi": null,
    "hcaiId": "406197933",
    "businessName": "GREEN ORCHID HOME HEALTH, INC.",
    "contactEmail": "GREENORCHIDHH@GMAIL.COM",
    "categoryName": "HOME HEALTH AGENCY",
    "categoryCode": "HHA",
    "licenseStatus": "ACTIVE",
    "inService": true,
    "licenseNumber": "550008548",
    "licenseEffectiveDate": "04/24/2025",
    "licenseExpirationDate": "04/23/2026",
    "dataDate": "10/18/2025",
    "capacity": 0,
    "address": "225 E BROADWAY, SUITE B117A",
    "city": "GLENDALE",
    "zip": "91205",
    "county": "LOS ANGELES",
    "phone": "(818) 970-3914",
    "lat": 34.146576,
    "lng": -118.252953
  },
  {
    "id": "630011798",
    "name": "GUARDIAN HOME HEALTH, INC.",
    "npi": null,
    "hcaiId": "406197271",
    "businessName": "GUARDIAN HOME HEALTH, INC.",
    "contactEmail": "GUARDIANHHC@YAHOO.COM",
    "categoryName": "HOME HEALTH AGENCY",
    "categoryCode": "HHA",
    "licenseStatus": "ACTIVE",
    "inService": true,
    "licenseNumber": "550001061",
    "licenseEffectiveDate": "06/25/2025",
    "licenseExpirationDate": "06/24/2026",
    "dataDate": "10/18/2025",
    "capacity": 0,
    "address": "1101 E BROADWAY, SUITE 107",
    "city": "GLENDALE",
    "zip": "91205",
    "county": "LOS ANGELES",
    "phone": "(818) 291-8444",
    "lat": 34.14645,
    "lng": -118.2414555
  },
  {
    "id": "630021116",
    "name": "GUARDIANS HOME HEALTH CARE",
    "npi": null,
    "hcaiId": "406193814",
    "businessName": "GUARDIANS HOME HEALTH CARE",
    "contactEmail": "MANAGEMENT@GUARDIANSHOME.NET",
    "categoryName": "HOME HEALTH AGENCY",
    "categoryCode": "HHA",
    "licenseStatus": "ACTIVE",
    "inService": true,
    "licenseNumber": "550007184",
    "licenseEffectiveDate": "09/03/2025",
    "licenseExpirationDate": "09/02/2026",
    "dataDate": "10/18/2025",
    "capacity": 0,
    "address": "901 S GLENDALE AVE, SUITE E",
    "city": "GLENDALE",
    "zip": "91205",
    "county": "LOS ANGELES",
    "phone": "(818) 484-8004",
    "lat": 34.135722,
    "lng": -118.251819
  },
  {
    "id": "630018190",
    "name": "H & R HOME HEALTH SERVICES, INC.",
    "npi": null,
    "hcaiId": "406192136",
    "businessName": "H & R HOME HEALTH SERVICES, INC.",
    "contactEmail": "H.R.HOMEHEALTHSERVICES@GMAIL.COM",
    "categoryName": "HOME HEALTH AGENCY",
    "categoryCode": "HHA",
    "licenseStatus": "ACTIVE",
    "inService": true,
    "licenseNumber": "550005136",
    "licenseEffectiveDate": "12/06/2024",
    "licenseExpirationDate": "12/05/2025",
    "dataDate": "10/18/2025",
    "capacity": 0,
    "address": "511 E HARVARD ST, UNIT 7",
    "city": "GLENDALE",
    "zip": "91205",
    "county": "LOS ANGELES",
    "phone": "(818) 539-7343",
    "lat": 34.144722,
    "lng": -118.249569
  },
  {
    "id": "630012470",
    "name": "HARVARD HEALTH SERVICES, INC.",
    "npi": null,
    "hcaiId": "406197567",
    "businessName": "HARVARD HEALTH SERVICES, INC.",
    "contactEmail": "HARVARDHS@YAHOO.COM",
    "categoryName": "HOME HEALTH AGENCY",
    "categoryCode": "HHA",
    "licenseStatus": "ACTIVE",
    "inService": true,
    "licenseNumber": "550001641",
    "licenseEffectiveDate": "06/10/2025",
    "licenseExpirationDate": "06/09/2026",
    "dataDate": "10/18/2025",
    "capacity": 0,
    "address": "126 S JACKSON ST, SUITE 205",
    "city": "GLENDALE",
    "zip": "91205",
    "county": "LOS ANGELES",
    "phone": "(818) 502-9996",
    "lat": 34.145343,
    "lng": -118.2497445
  },
  {
    "id": "630025986",
    "name": "HARVARD HOME HEALTH, INC",
    "npi": null,
    "hcaiId": "406190147",
    "businessName": "HARVARD HOME HEALTH, INC",
    "contactEmail": "HARVARDHHC@GMAIL.COM",
    "categoryName": "HOME HEALTH AGENCY",
    "categoryCode": "HHA",
    "licenseStatus": "ACTIVE",
    "inService": true,
    "licenseNumber": "550008906",
    "licenseEffectiveDate": "01/10/2025",
    "licenseExpirationDate": "01/09/2026",
    "dataDate": "10/18/2025",
    "capacity": 0,
    "address": "415 E HARVARD ST, SUITE 103",
    "city": "GLENDALE",
    "zip": "91205",
    "county": "LOS ANGELES",
    "phone": "(747) 301-3252",
    "lat": 34.144785,
    "lng": -118.2505995
  },
  {
    "id": "630017645",
    "name": "HARVARD HOME HEALTH, LLC",
    "npi": "1821509555",
    "hcaiId": "406191585",
    "businessName": "HARVARD HOME HEALTH, LLC",
    "contactEmail": "HARVARDHOMEHEALTH@GMAIL.COM",
    "categoryName": "HOME HEALTH AGENCY",
    "categoryCode": "HHA",
    "licenseStatus": "ACTIVE",
    "inService": true,
    "licenseNumber": "550004628",
    "licenseEffectiveDate": "02/20/2025",
    "licenseExpirationDate": "02/19/2026",
    "dataDate": "10/18/2025",
    "capacity": 0,
    "address": "511 E HARVARD ST, SUITE 6",
    "city": "GLENDALE",
    "zip": "91205",
    "county": "LOS ANGELES",
    "phone": "(818) 484-8221",
    "lat": 34.144722,
    "lng": -118.249569
  },
  {
    "id": "630021303",
    "name": "HDE HOME HEALTH CARE INC",
    "npi": null,
    "hcaiId": "406193259",
    "businessName": "HDE HOME HEALTH CARE INC",
    "contactEmail": "HDEHOMEHEALTHCARE@GMAIL.COM",
    "categoryName": "HOME HEALTH AGENCY",
    "categoryCode": "HHA",
    "licenseStatus": "ACTIVE",
    "inService": true,
    "licenseNumber": "550006775",
    "licenseEffectiveDate": "05/10/2025",
    "licenseExpirationDate": "05/09/2026",
    "dataDate": "10/18/2025",
    "capacity": 0,
    "address": "225 E BROADWAY, SUITE B103B",
    "city": "GLENDALE",
    "zip": "91205",
    "county": "LOS ANGELES",
    "phone": "(818) 213-8569",
    "lat": 34.146576,
    "lng": -118.252953
  },
  {
    "id": "630011529",
    "name": "HEALING CARE HOME HEALTH, INC.",
    "npi": null,
    "hcaiId": "406197220",
    "businessName": "HEALING CARE HOME HEALTH, INC.",
    "contactEmail": "HEALINGCAREHOMEHEALTH@YAHOO.COM",
    "categoryName": "HOME HEALTH AGENCY",
    "categoryCode": "HHA",
    "licenseStatus": "ACTIVE",
    "inService": true,
    "licenseNumber": "550000949",
    "licenseEffectiveDate": "04/02/2025",
    "licenseExpirationDate": "04/01/2026",
    "dataDate": "10/18/2025",
    "capacity": 0,
    "address": "1012 E COLORADO ST, SUITE 220",
    "city": "GLENDALE",
    "zip": "91205",
    "county": "LOS ANGELES",
    "phone": "(818) 502-2074",
    "lat": 34.142202,
    "lng": -118.2422925
  },
  {
    "id": "630025925",
    "name": "HEALTHY MIND HOME CARE, INC",
    "npi": null,
    "hcaiId": "406190149",
    "businessName": "HEALTHY MIND HOME CARE, INC",
    "contactEmail": "HEALTHYMINDHOMEHEALTH@GMAIL.COM",
    "categoryName": "HOME HEALTH AGENCY",
    "categoryCode": "HHA",
    "licenseStatus": "ACTIVE",
    "inService": true,
    "licenseNumber": "550008900",
    "licenseEffectiveDate": "01/10/2025",
    "licenseExpirationDate": "01/09/2026",
    "dataDate": "10/18/2025",
    "capacity": 0,
    "address": "225 E BROADWAY, SUITE 205C",
    "city": "GLENDALE",
    "zip": "91205",
    "county": "LOS ANGELES",
    "phone": "(818) 405-3410",
    "lat": 34.146576,
    "lng": -118.252953
  },
  {
    "id": "630016787",
    "name": "HELPING HANDS HOME HEALTH CARE, LLC",
    "npi": "1124473715",
    "hcaiId": "406191313",
    "businessName": "HELPING HANDS HOME HEALTH CARE, LLC",
    "contactEmail": "INFOHELPINGHANDSHHC@GMAIL.COM",
    "categoryName": "HOME HEALTH AGENCY",
    "categoryCode": "HHA",
    "licenseStatus": "ACTIVE",
    "inService": true,
    "licenseNumber": "550004339",
    "licenseEffectiveDate": "08/11/2025",
    "licenseExpirationDate": "08/10/2026",
    "dataDate": "10/18/2025",
    "capacity": 0,
    "address": "1241 S GLENDALE AVE, SUITE 205B",
    "city": "GLENDALE",
    "zip": "91205",
    "county": "LOS ANGELES",
    "phone": "(818) 465-4245",
    "lat": 34.130682,
    "lng": -118.252791
  },
  {
    "id": "630021900",
    "name": "HELPING HEARTS HOSPICE CARE INC",
    "npi": null,
    "hcaiId": "406194885",
    "businessName": "HELPING HEARTS HOSPICE CARE INC",
    "contactEmail": "HELPINGHEARTSHOSPICECARE@GMAIL.COM",
    "categoryName": "HOSPICE",
    "categoryCode": "HOSPICE",
    "licenseStatus": "ACTIVE",
    "inService": true,
    "licenseNumber": "550007230",
    "licenseEffectiveDate": "11/18/2023",
    "licenseExpirationDate": "11/17/2025",
    "dataDate": "10/18/2025",
    "capacity": 0,
    "address": "143 S GLENDALE AVE, SUITE 105",
    "city": "GLENDALE",
    "zip": "91205",
    "county": "LOS ANGELES",
    "phone": "(747) 240-6020",
    "lat": 34.144929,
    "lng": -118.2483
  },
  {
    "id": "630020755",
    "name": "HOPE & PEACE HOSPICE CARE INC",
    "npi": null,
    "hcaiId": "406190292",
    "businessName": "HOPE & PEACE HOSPICE CARE INC",
    "contactEmail": "HOPEPEACEHOSPICE@GMAIL.COM",
    "categoryName": "HOSPICE",
    "categoryCode": "HOSPICE",
    "licenseStatus": "ACTIVE",
    "inService": true,
    "licenseNumber": "550006372",
    "licenseEffectiveDate": "05/13/2025",
    "licenseExpirationDate": "05/12/2027",
    "dataDate": "10/18/2025",
    "capacity": 0,
    "address": "135 S JACKSON ST, SUITE 102",
    "city": "GLENDALE",
    "zip": "91205",
    "county": "LOS ANGELES",
    "phone": "(818) 484-8526",
    "lat": 34.14566512,
    "lng": -118.2501658
  },
  {
    "id": "630013182",
    "name": "HOSPICE OF ST. GEORGE, INC.",
    "npi": null,
    "hcaiId": "406197887",
    "businessName": "HOSPICE OF ST. GEORGE, INC.",
    "contactEmail": "HOSPICEOFSTGEORGE@YAHOO.COM",
    "categoryName": "HOSPICE",
    "categoryCode": "HOSPICE",
    "licenseStatus": "ACTIVE",
    "inService": true,
    "licenseNumber": "550002224",
    "licenseEffectiveDate": "04/04/2023",
    "licenseExpirationDate": "04/03/2025",
    "dataDate": "10/18/2025",
    "capacity": 0,
    "address": "415 E HARVARD ST, SUITE 101",
    "city": "GLENDALE",
    "zip": "91205",
    "county": "LOS ANGELES",
    "phone": "(818) 553-8000",
    "lat": 34.144785,
    "lng": -118.2505995
  },
  {
    "id": "630017145",
    "name": "ICURE HOME HEALTH, INC.",
    "npi": "1578007902",
    "hcaiId": "406191399",
    "businessName": "ICURE HOME HEALTH, INC.",
    "contactEmail": "ICUREHH@GMAIL.COM",
    "categoryName": "HOME HEALTH AGENCY",
    "categoryCode": "HHA",
    "licenseStatus": "ACTIVE",
    "inService": true,
    "licenseNumber": "550004479",
    "licenseEffectiveDate": "11/07/2025",
    "licenseExpirationDate": "11/06/2026",
    "dataDate": "10/18/2025",
    "capacity": 0,
    "address": "1415 E COLORADO ST, UNIT 207",
    "city": "GLENDALE",
    "zip": "91205",
    "county": "LOS ANGELES",
    "phone": "(818) 935-6140",
    "lat": 34.14311601,
    "lng": -118.233339
  },
  {
    "id": "630021919",
    "name": "INGENIOUS HOME HEALTH, INC",
    "npi": null,
    "hcaiId": "406196199",
    "businessName": "INGENIOUS HOME HEALTH, INC",
    "contactEmail": "INGENIOUSHOMEHEALTH@GMAIL.COM",
    "categoryName": "HOME HEALTH AGENCY",
    "categoryCode": "HHA",
    "licenseStatus": "ACTIVE",
    "inService": true,
    "licenseNumber": "550007731",
    "licenseEffectiveDate": "11/08/2024",
    "licenseExpirationDate": "11/07/2025",
    "dataDate": "10/18/2025",
    "capacity": 0,
    "address": "725 S GLENDALE AVE, SUITE L",
    "city": "GLENDALE",
    "zip": "91205",
    "county": "LOS ANGELES",
    "phone": "(626) 800-0118",
    "lat": 34.137828,
    "lng": -118.25163
  },
  {
    "id": "630016212",
    "name": "INHOUSE CARE SERVICES, INC.",
    "npi": "1891170205",
    "hcaiId": "406190643",
    "businessName": "INHOUSE CARE SERVICES, INC.",
    "contactEmail": "INHOUSEHS@YAHOO.COM",
    "categoryName": "HOME HEALTH AGENCY",
    "categoryCode": "HHA",
    "licenseStatus": "ACTIVE",
    "inService": true,
    "licenseNumber": "550004145",
    "licenseEffectiveDate": "02/17/2025",
    "licenseExpirationDate": "02/16/2026",
    "dataDate": "10/18/2025",
    "capacity": 0,
    "address": "126 S. JACKSON ST., SUITE 302",
    "city": "GLENDALE",
    "zip": "91205",
    "county": "LOS ANGELES",
    "phone": "(818) 696-2726",
    "lat": 34.1453521,
    "lng": -118.2497843
  },
  {
    "id": "630026225",
    "name": "INSPIRE HOME HEALTH, INC.",
    "npi": null,
    "hcaiId": null,
    "businessName": "INSPIRE HOME HEALTH, INC.",
    "contactEmail": "INSPIREHOMEHEALTHINC@GMAIL.COM",
    "categoryName": "HOME HEALTH AGENCY",
    "categoryCode": "HHA",
    "licenseStatus": "ACTIVE",
    "inService": true,
    "licenseNumber": "550009359",
    "licenseEffectiveDate": "09/10/2025",
    "licenseExpirationDate": "09/09/2026",
    "dataDate": "10/18/2025",
    "capacity": 0,
    "address": "225 E BROADWAY, SUITE B113",
    "city": "GLENDALE",
    "zip": "91205",
    "county": "LOS ANGELES",
    "phone": "(747) 737-2013",
    "lat": 34.146576,
    "lng": -118.252953
  },
  {
    "id": "630022438",
    "name": "INVICTA HOSPICE INC",
    "npi": null,
    "hcaiId": "406193906",
    "businessName": "INVICTA HOSPICE INC",
    "contactEmail": "INVICTAHOSPICE@GMAIL.COM",
    "categoryName": "HOSPICE",
    "categoryCode": "HOSPICE",
    "licenseStatus": "ACTIVE",
    "inService": true,
    "licenseNumber": "550007391",
    "licenseEffectiveDate": "12/07/2023",
    "licenseExpirationDate": "12/06/2025",
    "dataDate": "10/18/2025",
    "capacity": 0,
    "address": "225 E BROADWAY, SUITE 102C",
    "city": "GLENDALE",
    "zip": "91205",
    "county": "LOS ANGELES",
    "phone": "(747) 666-1113",
    "lat": 34.146576,
    "lng": -118.252953
  },
  {
    "id": "630019468",
    "name": "JL HOME HEALTH CARE, INC.",
    "npi": null,
    "hcaiId": "406193349",
    "businessName": "JL HOME HEALTH CARE, INC.",
    "contactEmail": "JLHOMEHEALTHCARE@GMAIL.COM",
    "categoryName": "HOME HEALTH AGENCY",
    "categoryCode": "HHA",
    "licenseStatus": "ACTIVE",
    "inService": true,
    "licenseNumber": "550007147",
    "licenseEffectiveDate": "10/29/2024",
    "licenseExpirationDate": "10/28/2025",
    "dataDate": "10/18/2025",
    "capacity": 0,
    "address": "805 E BROADWAY, SUITE E",
    "city": "GLENDALE",
    "zip": "91205",
    "county": "LOS ANGELES",
    "phone": "(818) 736-9703",
    "lat": 34.146594,
    "lng": -118.2453435
  },
  {
    "id": "630011214",
    "name": "K & A CARE, INC.",
    "npi": "1528276383",
    "hcaiId": "406197284",
    "businessName": "K & A CARE, INC.",
    "contactEmail": "KACAREINC@YAHOO.COM",
    "categoryName": "HOME HEALTH AGENCY",
    "categoryCode": "HHA",
    "licenseStatus": "ACTIVE",
    "inService": true,
    "licenseNumber": "550000860",
    "licenseEffectiveDate": "11/14/2024",
    "licenseExpirationDate": "11/13/2025",
    "dataDate": "10/18/2025",
    "capacity": 0,
    "address": "225 E BROADWAY, SUITE 209",
    "city": "GLENDALE",
    "zip": "91205",
    "county": "LOS ANGELES",
    "phone": "(818) 507-5678",
    "lat": 34.146576,
    "lng": -118.252953
  },
  {
    "id": "060002012",
    "name": "KENWOOD ADULT DAY HEALTH & SOCIAL SERVICES CENTER",
    "npi": null,
    "hcaiId": null,
    "businessName": "SUNNYDAY ADHC, INC.",
    "contactEmail": "KENWOODADHC@GMAIL.COM",
    "categoryName": "ADULT DAY HEALTH CARE",
    "categoryCode": "ADHC",
    "licenseStatus": "ACTIVE",
    "inService": true,
    "licenseNumber": "060000803",
    "licenseEffectiveDate": "04/22/2025",
    "licenseExpirationDate": "04/21/2026",
    "dataDate": "10/18/2025",
    "capacity": 0,
    "address": "213 S KENWOOD ST",
    "city": "GLENDALE",
    "zip": "91205",
    "county": "LOS ANGELES",
    "phone": "(781) 637-7880",
    "lat": 34.143894,
    "lng": -118.251675
  },
  {
    "id": "630011919",
    "name": "KOREAN TOWN HOME CARE, INC.",
    "npi": "1447411236",
    "hcaiId": "406197263",
    "businessName": "KOREAN TOWN HOME CARE, INC.",
    "contactEmail": "KTOWNHH@YAHOO.COM",
    "categoryName": "HOME HEALTH AGENCY",
    "categoryCode": "HHA",
    "licenseStatus": "ACTIVE",
    "inService": true,
    "licenseNumber": "550000995",
    "licenseEffectiveDate": "03/22/2025",
    "licenseExpirationDate": "03/21/2026",
    "dataDate": "10/18/2025",
    "capacity": 0,
    "address": "415 E HARVARD ST, SUITE 202",
    "city": "GLENDALE",
    "zip": "91205",
    "county": "LOS ANGELES",
    "phone": "(310) 448-1414",
    "lat": 34.144785,
    "lng": -118.2505995
  },
  {
    "id": "630025284",
    "name": "L & T HOME HEALTH INC",
    "npi": null,
    "hcaiId": "406197821",
    "businessName": "L & T HOME HEALTH INC",
    "contactEmail": "LTHOMEHEALTH1@GMAIL.COM",
    "categoryName": "HOME HEALTH AGENCY",
    "categoryCode": "HHA",
    "licenseStatus": "ACTIVE",
    "inService": true,
    "licenseNumber": "550008375",
    "licenseEffectiveDate": "03/05/2025",
    "licenseExpirationDate": "02/06/2026",
    "dataDate": "10/18/2025",
    "capacity": 0,
    "address": "220 S KENWOOD ST, SUITE 208",
    "city": "GLENDALE",
    "zip": "91205",
    "county": "LOS ANGELES",
    "phone": "(818) 396-4099",
    "lat": 34.14356423,
    "lng": -118.251078
  },
  {
    "id": "630012944",
    "name": "LA BEST HOME HEALTH INC.",
    "npi": null,
    "hcaiId": "406197731",
    "businessName": "LA BEST HOME HEALTH INC.",
    "contactEmail": "LABESTHHA@GMAIL.COM",
    "categoryName": "HOME HEALTH AGENCY",
    "categoryCode": "HHA",
    "licenseStatus": "ACTIVE",
    "inService": true,
    "licenseNumber": "550002072",
    "licenseEffectiveDate": "09/27/2022",
    "licenseExpirationDate": "09/26/2023",
    "dataDate": "10/18/2025",
    "capacity": 0,
    "address": "1101 E BROADWAY, SUITE 105",
    "city": "GLENDALE",
    "zip": "91205",
    "county": "LOS ANGELES",
    "phone": "(818) 242-7200",
    "lat": 34.14645,
    "lng": -118.2414555
  },
  {
    "id": "630019868",
    "name": "LA COUNTY HOSPICE, INC",
    "npi": "1770114530",
    "hcaiId": "406192850",
    "businessName": "L A COUNTY HOSPICE, INC",
    "contactEmail": "LACOUNTYHOSPICE@YAHOO.COM",
    "categoryName": "HOSPICE",
    "categoryCode": "HOSPICE",
    "licenseStatus": "ACTIVE",
    "inService": true,
    "licenseNumber": "550005654",
    "licenseEffectiveDate": "08/06/2024",
    "licenseExpirationDate": "08/05/2026",
    "dataDate": "10/18/2025",
    "capacity": 0,
    "address": "1259 S GLENDALE AVE, SUITE D",
    "city": "GLENDALE",
    "zip": "91205",
    "county": "LOS ANGELES",
    "phone": "(818) 649-1759",
    "lat": 34.130061,
    "lng": -118.2527415
  },
  {
    "id": "630020369",
    "name": "LA HOME HEALTHCARE, INC.",
    "npi": null,
    "hcaiId": "406195244",
    "businessName": "LA HOME HEALTHCARE, INC.",
    "contactEmail": "LAHOMEHEALTHCARE1@GMAIL.COM",
    "categoryName": "HOME HEALTH AGENCY",
    "categoryCode": "HHA",
    "licenseStatus": "ACTIVE",
    "inService": true,
    "licenseNumber": "550005984",
    "licenseEffectiveDate": "01/08/2025",
    "licenseExpirationDate": "01/07/2026",
    "dataDate": "10/18/2025",
    "capacity": 0,
    "address": "1012 E COLORADO ST, SUITE 200",
    "city": "GLENDALE",
    "zip": "91205",
    "county": "LOS ANGELES",
    "phone": "(818) 484-7780",
    "lat": 34.142202,
    "lng": -118.2422925
  },
  {
    "id": "630022434",
    "name": "LA SKILLED HOSPICE INC",
    "npi": null,
    "hcaiId": "406190218",
    "businessName": "LA SKILLED HOSPICE INC",
    "contactEmail": "LASKILLEDHOSPICE@GMAIL.COM",
    "categoryName": "HOSPICE",
    "categoryCode": "HOSPICE",
    "licenseStatus": "ACTIVE",
    "inService": true,
    "licenseNumber": "550007405",
    "licenseEffectiveDate": "12/07/2023",
    "licenseExpirationDate": "12/06/2025",
    "dataDate": "10/18/2025",
    "capacity": 0,
    "address": "225 E BROADWAY, SUITE 313A",
    "city": "GLENDALE",
    "zip": "91205",
    "county": "LOS ANGELES",
    "phone": "(747) 666-1114",
    "lat": 34.146576,
    "lng": -118.252953
  },
  {
    "id": "970000081",
    "name": "LEISURE GLEN POST ACUTE CARE CENTER",
    "npi": "1003540329",
    "hcaiId": "206190022",
    "businessName": "LEISURE HEALTHCARE, LLC",
    "contactEmail": "ADMINISTRATOR@LEISUREGLENREHAB.COM",
    "categoryName": "SKILLED NURSING FACILITY",
    "categoryCode": "SNF",
    "licenseStatus": "ACTIVE",
    "inService": true,
    "licenseNumber": "970000040",
    "licenseEffectiveDate": "05/05/2025",
    "licenseExpirationDate": "05/04/2026",
    "dataDate": "10/18/2025",
    "capacity": 125,
    "address": "330 MISSION RD",
    "city": "GLENDALE",
    "zip": "91205",
    "county": "LOS ANGELES",
    "phone": "(818) 247-4476",
    "lat": 34.12699035,
    "lng": -118.251456
  },
  {
    "id": "630011338",
    "name": "LIBRA HOME HEALTH CARE, INC.",
    "npi": "1609265339",
    "hcaiId": "406196977",
    "businessName": "LIBRA HOME HEALTH CARE, INC.",
    "contactEmail": "LIBRA1HHCI@YAHOO.COM",
    "categoryName": "HOME HEALTH AGENCY",
    "categoryCode": "HHA",
    "licenseStatus": "ACTIVE",
    "inService": true,
    "licenseNumber": "550000498",
    "licenseEffectiveDate": "06/27/2025",
    "licenseExpirationDate": "06/26/2026",
    "dataDate": "10/18/2025",
    "capacity": 0,
    "address": "1215 E COLORADO ST, SUITE 201",
    "city": "GLENDALE",
    "zip": "91205",
    "county": "LOS ANGELES",
    "phone": "(818) 405-9437",
    "lat": 34.142931,
    "lng": -118.2391065
  },
  {
    "id": "630019866",
    "name": "LIBRA HOSPICE CARE, INC",
    "npi": null,
    "hcaiId": "406190246",
    "businessName": "LIBRA HOSPICE CARE, INC",
    "contactEmail": "LIBRAHOSPICECARE@YAHOO.COM",
    "categoryName": "HOSPICE",
    "categoryCode": "HOSPICE",
    "licenseStatus": "ACTIVE",
    "inService": true,
    "licenseNumber": "550006114",
    "licenseEffectiveDate": "02/02/2025",
    "licenseExpirationDate": "02/01/2027",
    "dataDate": "10/18/2025",
    "capacity": 0,
    "address": "1259 S GLENDALE AVE, SUITE E",
    "city": "GLENDALE",
    "zip": "91205",
    "county": "LOS ANGELES",
    "phone": "(818) 963-9900",
    "lat": 34.130061,
    "lng": -118.2527415
  },
  {
    "id": "630022461",
    "name": "LIFEMATTERS CARE INC",
    "npi": null,
    "hcaiId": "406185246",
    "businessName": "LIFEMATTERS CARE INC",
    "contactEmail": "LIFEMATTERSCAREINC@GMAIL.COM",
    "categoryName": "HOME HEALTH AGENCY",
    "categoryCode": "HHA",
    "licenseStatus": "ACTIVE",
    "inService": true,
    "licenseNumber": "550007276",
    "licenseEffectiveDate": "11/23/2024",
    "licenseExpirationDate": "11/22/2025",
    "dataDate": "10/18/2025",
    "capacity": 0,
    "address": "225 E BROADWAY, SUITE B101B",
    "city": "GLENDALE",
    "zip": "91205",
    "county": "LOS ANGELES",
    "phone": "(747) 444-4052",
    "lat": 34.146576,
    "lng": -118.252953
  },
  {
    "id": "630019977",
    "name": "LIFETIME HOSPICE CARE, INC.",
    "npi": null,
    "hcaiId": "406192972",
    "businessName": "LIFETIME HOSPICE CARE, INC.",
    "contactEmail": "LIFETIMEHOSPICECARE@GMAIL.COM",
    "categoryName": "HOSPICE",
    "categoryCode": "HOSPICE",
    "licenseStatus": "ACTIVE",
    "inService": true,
    "licenseNumber": "550005842",
    "licenseEffectiveDate": "11/12/2025",
    "licenseExpirationDate": "09/24/2026",
    "dataDate": "10/18/2025",
    "capacity": 0,
    "address": "425 E COLORADO ST, SUITE 480A",
    "city": "GLENDALE",
    "zip": "91205",
    "county": "LOS ANGELES",
    "phone": "(818) 503-0190",
    "lat": 34.143174,
    "lng": -118.250442
  },
  {
    "id": "630025057",
    "name": "LION HEART HOME HEALTH, INC.",
    "npi": null,
    "hcaiId": null,
    "businessName": "LION HEART HOME HEALTH, INC.",
    "contactEmail": "LIONHOMEHEALTH@GMAIL.COM",
    "categoryName": "HOME HEALTH AGENCY",
    "categoryCode": "HHA",
    "licenseStatus": "ACTIVE",
    "inService": true,
    "licenseNumber": "550008583",
    "licenseEffectiveDate": "11/04/2023",
    "licenseExpirationDate": "05/03/2024",
    "dataDate": "10/18/2025",
    "capacity": 0,
    "address": "225 E BROADWAY, SUITE 107C",
    "city": "GLENDALE",
    "zip": "91205",
    "county": "LOS ANGELES",
    "phone": "(818) 536-7924",
    "lat": 34.146576,
    "lng": -118.252953
  },
  {
    "id": "630007505",
    "name": "LIVI'S HOME HEALTH CARE",
    "npi": "1437372232",
    "hcaiId": "406197001",
    "businessName": "LIVI'S HOME HEALTH CARE",
    "contactEmail": "LIVISHHC2018@YAHOO.COM",
    "categoryName": "HOME HEALTH AGENCY",
    "categoryCode": "HHA",
    "licenseStatus": "ACTIVE",
    "inService": false,
    "licenseNumber": "550000360",
    "licenseEffectiveDate": "09/02/2024",
    "licenseExpirationDate": "09/01/2025",
    "dataDate": "10/18/2025",
    "capacity": 0,
    "address": "1224 E BROADWAY, SUITE 103",
    "city": "GLENDALE",
    "zip": "91205",
    "county": "LOS ANGELES",
    "phone": "(818) 502-1902",
    "lat": 34.14591,
    "lng": -118.238355
  },
  {
    "id": "630018873",
    "name": "LONG LIFE HOME HEALTH, INC",
    "npi": null,
    "hcaiId": "406192657",
    "businessName": "LONG LIFE HOME HEALTH, INC",
    "contactEmail": "LONGLIFEHH19@GMAIL.COM",
    "categoryName": "HOME HEALTH AGENCY",
    "categoryCode": "HHA",
    "licenseStatus": "ACTIVE",
    "inService": true,
    "licenseNumber": "550005279",
    "licenseEffectiveDate": "02/15/2025",
    "licenseExpirationDate": "02/14/2026",
    "dataDate": "10/18/2025",
    "capacity": 0,
    "address": "400 S GLENDALE AVE, UNIT N",
    "city": "GLENDALE",
    "zip": "91205",
    "county": "LOS ANGELES",
    "phone": "(818) 649-1888",
    "lat": 34.141536,
    "lng": -118.249209
  },
  {
    "id": "630020876",
    "name": "LOVING HOME HEALTH SERVICES INC",
    "npi": null,
    "hcaiId": "406193144",
    "businessName": "LOVING HOME HEALTH SERVICES INC",
    "contactEmail": "LOVINGHHS@GMAIL.COM",
    "categoryName": "HOME HEALTH AGENCY",
    "categoryCode": "HHA",
    "licenseStatus": "ACTIVE",
    "inService": true,
    "licenseNumber": "550006220",
    "licenseEffectiveDate": "05/27/2025",
    "licenseExpirationDate": "04/22/2026",
    "dataDate": "10/18/2025",
    "capacity": 0,
    "address": "1344 E COLORADO ST, SUITE B 1/2",
    "city": "GLENDALE",
    "zip": "91205",
    "county": "LOS ANGELES",
    "phone": "(747) 240-6049",
    "lat": 34.14242899,
    "lng": -118.235436
  },
  {
    "id": "630022090",
    "name": "LUX HOSPICE",
    "npi": null,
    "hcaiId": "406195266",
    "businessName": "LUX HOSPICE",
    "contactEmail": "LUXHOSPICE@YAHOO.COM",
    "categoryName": "HOSPICE",
    "categoryCode": "HOSPICE",
    "licenseStatus": "ACTIVE",
    "inService": true,
    "licenseNumber": "550007674",
    "licenseEffectiveDate": "12/23/2023",
    "licenseExpirationDate": "12/22/2025",
    "dataDate": "10/18/2025",
    "capacity": 0,
    "address": "322 E BROADWAY",
    "city": "GLENDALE",
    "zip": "91205",
    "county": "LOS ANGELES",
    "phone": "(818) 435-3355",
    "lat": 34.14625492,
    "lng": -118.2518459
  },
  {
    "id": "630026146",
    "name": "MARBELLA HOME HEALTH INC",
    "npi": null,
    "hcaiId": null,
    "businessName": "MARBELLA HOME HEALTH INC",
    "contactEmail": "MARBELLAHOMEHEALTH@GMAIL.COM",
    "categoryName": "HOME HEALTH AGENCY",
    "categoryCode": "HHA",
    "licenseStatus": "ACTIVE",
    "inService": true,
    "licenseNumber": "550009880",
    "licenseEffectiveDate": "09/17/2025",
    "licenseExpirationDate": "03/16/2026",
    "dataDate": "10/18/2025",
    "capacity": 0,
    "address": "1241 S GLENDALE AVE, SUITE 204C",
    "city": "GLENDALE",
    "zip": "91205",
    "county": "LOS ANGELES",
    "phone": "(747) 946-0006",
    "lat": 34.13069202,
    "lng": -118.252824
  },
  {
    "id": "630019692",
    "name": "MAYERLING HOME HEALTH LLC",
    "npi": null,
    "hcaiId": "406192914",
    "businessName": "MAYERLING HOME HEALTH LLC",
    "contactEmail": "MAYERLINGHOMEHEALTH@GMAIL.COM",
    "categoryName": "HOME HEALTH AGENCY",
    "categoryCode": "HHA",
    "licenseStatus": "ACTIVE",
    "inService": true,
    "licenseNumber": "550005737",
    "licenseEffectiveDate": "09/17/2025",
    "licenseExpirationDate": "09/16/2026",
    "dataDate": "10/18/2025",
    "capacity": 0,
    "address": "1100 E BROADWAY, SUITE 308",
    "city": "GLENDALE",
    "zip": "91205",
    "county": "LOS ANGELES",
    "phone": "(818) 659-0841",
    "lat": 34.146027,
    "lng": -118.241442
  },
  {
    "id": "630010999",
    "name": "MEDIA HOME HEALTH",
    "npi": "1003979543",
    "hcaiId": "406197077",
    "businessName": "VISITING ANGELS HOME HEALTH CARE, INC.",
    "contactEmail": "MEDIAHOMEHEALTH@YAHOO.COM",
    "categoryName": "HOME HEALTH AGENCY",
    "categoryCode": "HHA",
    "licenseStatus": "ACTIVE",
    "inService": true,
    "licenseNumber": "550000406",
    "licenseEffectiveDate": "05/20/2025",
    "licenseExpirationDate": "05/19/2026",
    "dataDate": "10/18/2025",
    "capacity": 0,
    "address": "225 E. BROADWAY, SUITE 111",
    "city": "GLENDALE",
    "zip": "91205",
    "county": "LOS ANGELES",
    "phone": "(866) 999-3840",
    "lat": 34.146576,
    "lng": -118.252953
  },
  {
    "id": "630017098",
    "name": "MELORA HOME HEALTH CARE, INC.",
    "npi": "1811446271",
    "hcaiId": "406361415",
    "businessName": "MELORA HOME HEALTH CARE, INC.",
    "contactEmail": "MELORAHOMECARE@GMAIL.COM",
    "categoryName": "HOME HEALTH AGENCY",
    "categoryCode": "HHA",
    "licenseStatus": "ACTIVE",
    "inService": true,
    "licenseNumber": "550004378",
    "licenseEffectiveDate": "09/15/2025",
    "licenseExpirationDate": "09/14/2026",
    "dataDate": "10/18/2025",
    "capacity": 0,
    "address": "1415 E COLORADO ST, SUITE 211",
    "city": "GLENDALE",
    "zip": "91205",
    "county": "LOS ANGELES",
    "phone": "(909) 366-9927",
    "lat": 34.14311601,
    "lng": -118.233339
  },
  {
    "id": "630019425",
    "name": "MENSA HOSPICE CARE INC.",
    "npi": null,
    "hcaiId": "406192743",
    "businessName": "MENSA HOSPICE CARE INC.",
    "contactEmail": "ARLEN@MENSAHOSPICE.COM",
    "categoryName": "HOSPICE",
    "categoryCode": "HOSPICE",
    "licenseStatus": "ACTIVE",
    "inService": true,
    "licenseNumber": "550005568",
    "licenseEffectiveDate": "06/26/2024",
    "licenseExpirationDate": "06/25/2026",
    "dataDate": "10/18/2025",
    "capacity": 0,
    "address": "1321 E COLORADO ST, SUITE M",
    "city": "GLENDALE",
    "zip": "91205",
    "county": "LOS ANGELES",
    "phone": "(818) 469-2001",
    "lat": 34.143048,
    "lng": -118.236735
  },
  {
    "id": "630020867",
    "name": "MILANO HOME HEALTH",
    "npi": null,
    "hcaiId": "406193172",
    "businessName": "MILANO HOME HEALTH",
    "contactEmail": "4MILANOHH@GMAIL.COM",
    "categoryName": "HOME HEALTH AGENCY",
    "categoryCode": "HHA",
    "licenseStatus": "ACTIVE",
    "inService": true,
    "licenseNumber": "550007015",
    "licenseEffectiveDate": "10/21/2024",
    "licenseExpirationDate": "10/20/2025",
    "dataDate": "10/18/2025",
    "capacity": 0,
    "address": "225 E BROADWAY, SUITE B105B",
    "city": "GLENDALE",
    "zip": "91205",
    "county": "LOS ANGELES",
    "phone": "(818) 536-7390",
    "lat": 34.146576,
    "lng": -118.252953
  },
  {
    "id": "630019028",
    "name": "MONROE HOME HEALTH CARE, INC.",
    "npi": null,
    "hcaiId": "406192706",
    "businessName": "MONROE HOME HEALTH CARE, INC.",
    "contactEmail": "INFO@MONROEHHC.COM",
    "categoryName": "HOME HEALTH AGENCY",
    "categoryCode": "HHA",
    "licenseStatus": "ACTIVE",
    "inService": true,
    "licenseNumber": "550005581",
    "licenseEffectiveDate": "07/15/2023",
    "licenseExpirationDate": "07/14/2024",
    "dataDate": "10/18/2025",
    "capacity": 0,
    "address": "225 E BROADWAY, SUITE B112",
    "city": "GLENDALE",
    "zip": "91205",
    "county": "LOS ANGELES",
    "phone": "(714) 719-9042",
    "lat": 34.146576,
    "lng": -118.252953
  },
  {
    "id": "630021564",
    "name": "NEW HEIGHTS HOSPICE INC",
    "npi": null,
    "hcaiId": "406193489",
    "businessName": "NEW HEIGHTS HOSPICE, INC.",
    "contactEmail": "NEWHEIGHTSHOSPICE@GMAIL.COM",
    "categoryName": "HOSPICE",
    "categoryCode": "HOSPICE",
    "licenseStatus": "ACTIVE",
    "inService": true,
    "licenseNumber": "550006695",
    "licenseEffectiveDate": "08/20/2025",
    "licenseExpirationDate": "08/19/2027",
    "dataDate": "10/18/2025",
    "capacity": 0,
    "address": "1224 E BROADWAY, SUITE 204",
    "city": "GLENDALE",
    "zip": "91205",
    "county": "LOS ANGELES",
    "phone": "(818) 696-2153",
    "lat": 34.14591,
    "lng": -118.238355
  },
  {
    "id": "980002270",
    "name": "NEW HORIZON HOME HEALTH CARE, INC.",
    "npi": null,
    "hcaiId": "406196295",
    "businessName": "NEW HORIZON HOME HEALTH CARE, INC.",
    "contactEmail": "NEWHORIZONHH@DSLEXTREME.COM",
    "categoryName": "HOME HEALTH AGENCY",
    "categoryCode": "HHA",
    "licenseStatus": "ACTIVE",
    "inService": true,
    "licenseNumber": "980001385",
    "licenseEffectiveDate": "12/31/2024",
    "licenseExpirationDate": "12/30/2025",
    "dataDate": "10/18/2025",
    "capacity": 0,
    "address": "815 E COLORADO ST, SUITE 100",
    "city": "GLENDALE",
    "zip": "91205",
    "county": "LOS ANGELES",
    "phone": "(818) 244-4007",
    "lat": 34.14294,
    "lng": -118.244772
  },
  {
    "id": "630014132",
    "name": "NEW HORIZON HOSPICE, INC.",
    "npi": null,
    "hcaiId": "406197860",
    "businessName": "NEW HORIZON HOSPICE, INC.",
    "contactEmail": "INFO@NEWHORIZONHOSPICE.COM",
    "categoryName": "HOSPICE",
    "categoryCode": "HOSPICE",
    "licenseStatus": "ACTIVE",
    "inService": true,
    "licenseNumber": "550002495",
    "licenseEffectiveDate": "11/01/2025",
    "licenseExpirationDate": "10/31/2027",
    "dataDate": "10/18/2025",
    "capacity": 0,
    "address": "1012 E COLORADO ST, SUITE 290",
    "city": "GLENDALE",
    "zip": "91205",
    "county": "LOS ANGELES",
    "phone": "(818) 244-5360",
    "lat": 34.142202,
    "lng": -118.2422925
  },
  {
    "id": "630021577",
    "name": "NEXT CARE HOME HEALTH INC.",
    "npi": null,
    "hcaiId": "406195588",
    "businessName": "NEXT CARE HOME HEALTH INC.",
    "contactEmail": "NEXTCAREHOMEHEALTH@GMAIL.COM",
    "categoryName": "HOME HEALTH AGENCY",
    "categoryCode": "HHA",
    "licenseStatus": "ACTIVE",
    "inService": true,
    "licenseNumber": "550007447",
    "licenseEffectiveDate": "12/06/2024",
    "licenseExpirationDate": "12/05/2025",
    "dataDate": "10/18/2025",
    "capacity": 0,
    "address": "220 S KENWOOD ST, SUITE 103",
    "city": "GLENDALE",
    "zip": "91205",
    "county": "LOS ANGELES",
    "phone": "(323) 394-8000",
    "lat": 34.14356,
    "lng": -118.250983
  },
  {
    "id": "630021544",
    "name": "NEXT DOOR HOME HEALTH SERVICES",
    "npi": null,
    "hcaiId": "406195541",
    "businessName": "NEXT DOOR HOME HEALTH SERVICES",
    "contactEmail": "NEXTDOORHHS@GMAIL.COM",
    "categoryName": "HOME HEALTH AGENCY",
    "categoryCode": "HHA",
    "licenseStatus": "ACTIVE",
    "inService": true,
    "licenseNumber": "550006976",
    "licenseEffectiveDate": "10/13/2025",
    "licenseExpirationDate": "10/12/2026",
    "dataDate": "10/18/2025",
    "capacity": 0,
    "address": "125 S LOUISE ST, SUITE 21",
    "city": "GLENDALE",
    "zip": "91205",
    "county": "LOS ANGELES",
    "phone": "(818) 275-4244",
    "lat": 34.1450895,
    "lng": -118.2551251
  },
  {
    "id": "630012900",
    "name": "NIGHTINGALE HOME HEALTH, INC.",
    "npi": "1831401090",
    "hcaiId": "406197937",
    "businessName": "NIGHTINGALE HOME HEALTH, INC.",
    "contactEmail": "NIGHTINGALEHHC13@YAHOO.COM",
    "categoryName": "HOME HEALTH AGENCY",
    "categoryCode": "HHA",
    "licenseStatus": "ACTIVE",
    "inService": true,
    "licenseNumber": "550002275",
    "licenseEffectiveDate": "05/10/2022",
    "licenseExpirationDate": "05/09/2023",
    "dataDate": "10/18/2025",
    "capacity": 0,
    "address": "1344 E COLORADO ST, SUITE B",
    "city": "GLENDALE",
    "zip": "91205",
    "county": "LOS ANGELES",
    "phone": "(818) 245-6900",
    "lat": 34.142319,
    "lng": -118.2357945
  },
  {
    "id": "630018393",
    "name": "NIKA HOME HEALTH, INC.",
    "npi": "1669947404",
    "hcaiId": "406191860",
    "businessName": "NIKA HOME HEALTH, INC.",
    "contactEmail": "NIKAHOMEHEALTH18@GMAIL.COM",
    "categoryName": "HOME HEALTH AGENCY",
    "categoryCode": "HHA",
    "licenseStatus": "ACTIVE",
    "inService": true,
    "licenseNumber": "550004993",
    "licenseEffectiveDate": "10/04/2024",
    "licenseExpirationDate": "10/03/2025",
    "dataDate": "10/18/2025",
    "capacity": 0,
    "address": "1241 S GLENDALE AVE, SUITE 202B",
    "city": "GLENDALE",
    "zip": "91205",
    "county": "LOS ANGELES",
    "phone": "(747) 237-3663",
    "lat": 34.13069202,
    "lng": -118.252824
  },
  {
    "id": "630013837",
    "name": "NOYAN HOME HEALTH CARE INC.",
    "npi": "1538428529",
    "hcaiId": "406197839",
    "businessName": "NOYAN HOME HEALTH CARE INC.",
    "contactEmail": "NOYANHOMEHEALTHCARE@GMAIL.COM",
    "categoryName": "HOME HEALTH AGENCY",
    "categoryCode": "HHA",
    "licenseStatus": "ACTIVE",
    "inService": true,
    "licenseNumber": "550002418",
    "licenseEffectiveDate": "05/18/2025",
    "licenseExpirationDate": "05/17/2026",
    "dataDate": "10/18/2025",
    "capacity": 0,
    "address": "425 E COLORADO ST, SUITE 680",
    "city": "GLENDALE",
    "zip": "91205",
    "county": "LOS ANGELES",
    "phone": "(818) 507-9300",
    "lat": 34.143172,
    "lng": -118.25044
  },
  {
    "id": "630007546",
    "name": "NURSES TOUCH HOME HEALTH PROVIDERS, INC.",
    "npi": "1770771925",
    "hcaiId": "406196845",
    "businessName": "NURSES TOUCH HOME HEALTH PROVIDERS, INC.",
    "contactEmail": "TRIXIE@NURSESTOUCHHOMEHEALTH.COM",
    "categoryName": "HOME HEALTH AGENCY",
    "categoryCode": "HHA",
    "licenseStatus": "ACTIVE",
    "inService": true,
    "licenseNumber": "550000293",
    "licenseEffectiveDate": "11/01/2024",
    "licenseExpirationDate": "10/31/2025",
    "dataDate": "10/18/2025",
    "capacity": 0,
    "address": "135 S. JACKSON ST., SUITE 100",
    "city": "GLENDALE",
    "zip": "91205",
    "county": "LOS ANGELES",
    "phone": "(818) 500-4877",
    "lat": 34.14566512,
    "lng": -118.2501658
  },
  {
    "id": "630014606",
    "name": "NURSES TOUCH HOSPICE, INC.",
    "npi": null,
    "hcaiId": "406198406",
    "businessName": "NURSES TOUCH HOSPICE, INC.",
    "contactEmail": "TEAMNT@NURSESTOUCHHOMEHEALTH.COM",
    "categoryName": "HOSPICE",
    "categoryCode": "HOSPICE",
    "licenseStatus": "ACTIVE",
    "inService": true,
    "licenseNumber": "550003045",
    "licenseEffectiveDate": "04/08/2025",
    "licenseExpirationDate": "04/07/2027",
    "dataDate": "10/18/2025",
    "capacity": 0,
    "address": "135 S. JACKSON ST., SUITE 100A",
    "city": "GLENDALE",
    "zip": "91205",
    "county": "LOS ANGELES",
    "phone": "(818) 937-9520",
    "lat": 34.14566512,
    "lng": -118.2501658
  },
  {
    "id": "630018778",
    "name": "OAK VIEW HHA LLC",
    "npi": "1104385582",
    "hcaiId": "406192105",
    "businessName": "OAK VIEW HHA LLC",
    "contactEmail": "OAKVIEWHHA@GMAIL.COM",
    "categoryName": "HOME HEALTH AGENCY",
    "categoryCode": "HHA",
    "licenseStatus": "ACTIVE",
    "inService": true,
    "licenseNumber": "550005183",
    "licenseEffectiveDate": "12/19/2024",
    "licenseExpirationDate": "12/18/2025",
    "dataDate": "10/18/2025",
    "capacity": 0,
    "address": "1100 E BROADWAY, SUITE 305",
    "city": "GLENDALE",
    "zip": "91205",
    "county": "LOS ANGELES",
    "phone": "(818) 696-2525",
    "lat": 34.146027,
    "lng": -118.241523
  },
  {
    "id": "630015779",
    "name": "ODEN HOME HEALTH, LLC",
    "npi": null,
    "hcaiId": "406198522",
    "businessName": "ODEN HOME HEALTH, LLC",
    "contactEmail": "CAREFORHHC@GMAIL.COM",
    "categoryName": "HOME HEALTH AGENCY",
    "categoryCode": "HHA",
    "licenseStatus": "ACTIVE",
    "inService": true,
    "licenseNumber": "550003993",
    "licenseEffectiveDate": "10/23/2025",
    "licenseExpirationDate": "10/22/2026",
    "dataDate": "10/18/2025",
    "capacity": 0,
    "address": "511 E. HARVARD, UNIT 8",
    "city": "GLENDALE",
    "zip": "91205",
    "county": "LOS ANGELES",
    "phone": "(818) 484-5131",
    "lat": 34.144722,
    "lng": -118.249569
  },
  {
    "id": "630021962",
    "name": "OLIVEGLEN HOME HEALTH CARE, INC.",
    "npi": null,
    "hcaiId": "406193405",
    "businessName": "OLIVEGLEN HOME HEALTH CARE, INC.",
    "contactEmail": "OLIVEGLENHHC@GMAIL.COM",
    "categoryName": "HOME HEALTH AGENCY",
    "categoryCode": "HHA",
    "licenseStatus": "ACTIVE",
    "inService": true,
    "licenseNumber": "550007127",
    "licenseEffectiveDate": "10/07/2025",
    "licenseExpirationDate": "10/06/2026",
    "dataDate": "10/18/2025",
    "capacity": 0,
    "address": "1101 E BROADWAY, SUITE 111",
    "city": "GLENDALE",
    "zip": "91205",
    "county": "LOS ANGELES",
    "phone": "(747) 283-0368",
    "lat": 34.14645599,
    "lng": -118.241462
  },
  {
    "id": "630020158",
    "name": "OMNIA HOSPICE, INC.",
    "npi": null,
    "hcaiId": "406193571",
    "businessName": "OMNIA HOSPICE, INC.",
    "contactEmail": "OMNIAHOSPICE@GMAIL.COM",
    "categoryName": "HOSPICE",
    "categoryCode": "HOSPICE",
    "licenseStatus": "ACTIVE",
    "inService": true,
    "licenseNumber": "550006580",
    "licenseEffectiveDate": "07/10/2025",
    "licenseExpirationDate": "07/09/2027",
    "dataDate": "10/18/2025",
    "capacity": 0,
    "address": "400 S GLENDALE AVE, SUITE M",
    "city": "GLENDALE",
    "zip": "91205",
    "county": "LOS ANGELES",
    "phone": "(747) 282-1530",
    "lat": 34.14149101,
    "lng": -118.249369
  },
  {
    "id": "630017037",
    "name": "ON TIME HEALTH CARE, INC.",
    "npi": "1932558103",
    "hcaiId": "406190879",
    "businessName": "ON TIME HEALTH CARE, INC.",
    "contactEmail": "ONTIMEHCI@MAIL.COM",
    "categoryName": "HOME HEALTH AGENCY",
    "categoryCode": "HHA",
    "licenseStatus": "ACTIVE",
    "inService": true,
    "licenseNumber": "550004076",
    "licenseEffectiveDate": "09/03/2025",
    "licenseExpirationDate": "09/02/2026",
    "dataDate": "10/18/2025",
    "capacity": 0,
    "address": "126 S. JACKSON STREET, SUITE 206",
    "city": "GLENDALE",
    "zip": "91205",
    "county": "LOS ANGELES",
    "phone": "(818) 696-2612",
    "lat": 34.145343,
    "lng": -118.2497445
  },
  {
    "id": "630021210",
    "name": "PEACEFUL MIND HOSPICE CARE, INC.",
    "npi": null,
    "hcaiId": "406193378",
    "businessName": "PEACEFUL MIND HOSPICE CARE, INC.",
    "contactEmail": "PEACEFULMINDCARE@GMAIL.COM",
    "categoryName": "HOSPICE",
    "categoryCode": "HOSPICE",
    "licenseStatus": "ACTIVE",
    "inService": true,
    "licenseNumber": "550007003",
    "licenseEffectiveDate": "10/15/2023",
    "licenseExpirationDate": "10/14/2025",
    "dataDate": "10/18/2025",
    "capacity": 0,
    "address": "725 S GLENDALE AVE, SUITE H",
    "city": "GLENDALE",
    "zip": "91205",
    "county": "LOS ANGELES",
    "phone": "(818) 900-6652",
    "lat": 34.137828,
    "lng": -118.25163
  },
  {
    "id": "630021615",
    "name": "PERFECT HARMONY HOSPICE CARE, INC.",
    "npi": null,
    "hcaiId": "406193382",
    "businessName": "PERFECT HARMONY HOSPICE CARE, INC",
    "contactEmail": "PERFECTHARMONY2020@YAHOO.COM",
    "categoryName": "HOSPICE",
    "categoryCode": "HOSPICE",
    "licenseStatus": "ACTIVE",
    "inService": true,
    "licenseNumber": "550007004",
    "licenseEffectiveDate": "10/19/2025",
    "licenseExpirationDate": "10/18/2027",
    "dataDate": "10/18/2025",
    "capacity": 0,
    "address": "225 E BROADWAY, SUITE B101F",
    "city": "GLENDALE",
    "zip": "91205",
    "county": "LOS ANGELES",
    "phone": "(747) 208-7700",
    "lat": 34.146576,
    "lng": -118.252953
  },
  {
    "id": "630020783",
    "name": "PERMANENT HOME HEALTH, INC.",
    "npi": null,
    "hcaiId": "406195543",
    "businessName": "PERMANENT HOME HEALTH, INC.",
    "contactEmail": "PERMANENTHOMEHEALTH@GMAIL.COM",
    "categoryName": "HOME HEALTH AGENCY",
    "categoryCode": "HHA",
    "licenseStatus": "ACTIVE",
    "inService": true,
    "licenseNumber": "550007075",
    "licenseEffectiveDate": "11/01/2025",
    "licenseExpirationDate": "10/31/2026",
    "dataDate": "10/18/2025",
    "capacity": 0,
    "address": "1100 E BROADWAY, SUITE 204",
    "city": "GLENDALE",
    "zip": "91205",
    "county": "LOS ANGELES",
    "phone": "(818) 330-7970",
    "lat": 34.14602902,
    "lng": -118.241529
  },
  {
    "id": "630017677",
    "name": "PISTIS HOME HEALTH",
    "npi": "1841704210",
    "hcaiId": "406191397",
    "businessName": "PISTIS HOME HEALTH",
    "contactEmail": "PISTISHH@YAHOO.COM",
    "categoryName": "HOME HEALTH AGENCY",
    "categoryCode": "HHA",
    "licenseStatus": "ACTIVE",
    "inService": true,
    "licenseNumber": "550004461",
    "licenseEffectiveDate": "12/01/2023",
    "licenseExpirationDate": "11/30/2024",
    "dataDate": "10/18/2025",
    "capacity": 0,
    "address": "1241 S GLENDALE AVE, SUITE 204F",
    "city": "GLENDALE",
    "zip": "91205",
    "county": "LOS ANGELES",
    "phone": "(818) 392-8286",
    "lat": 34.130682,
    "lng": -118.252791
  },
  {
    "id": "630021554",
    "name": "PLATINUM STAR HOSPICE, INC.",
    "npi": null,
    "hcaiId": "406193323",
    "businessName": "PLATINUM STAR HOSPICE, INC.",
    "contactEmail": "PLATSTARHOSPICE@GMAIL.COM",
    "categoryName": "HOSPICE",
    "categoryCode": "HOSPICE",
    "licenseStatus": "ACTIVE",
    "inService": true,
    "licenseNumber": "550007123",
    "licenseEffectiveDate": "10/29/2023",
    "licenseExpirationDate": "10/28/2025",
    "dataDate": "10/18/2025",
    "capacity": 0,
    "address": "801-C EAST BROADWAY",
    "city": "GLENDALE",
    "zip": "91205",
    "county": "LOS ANGELES",
    "phone": "(818) 722-1222",
    "lat": 34.14636276,
    "lng": -118.2455098
  },
  {
    "id": "630019395",
    "name": "PRECIOUS HOSPICE CARE, INC.",
    "npi": "1508417817",
    "hcaiId": "406192570",
    "businessName": "PRECIOUS HOSPICE CARE, INC.",
    "contactEmail": "PRECIOUSHOSPICEINC@GMAIL.COM",
    "categoryName": "HOSPICE",
    "categoryCode": "HOSPICE",
    "licenseStatus": "ACTIVE",
    "inService": true,
    "licenseNumber": "550005385",
    "licenseEffectiveDate": "03/09/2024",
    "licenseExpirationDate": "03/08/2026",
    "dataDate": "10/18/2025",
    "capacity": 0,
    "address": "126 S JACKSON ST, SUITE 307",
    "city": "GLENDALE",
    "zip": "91205",
    "county": "LOS ANGELES",
    "phone": "(818) 272-8989",
    "lat": 34.145343,
    "lng": -118.2497445
  },
  {
    "id": "630021390",
    "name": "PREFERRED HOME HEALTH, INC.",
    "npi": null,
    "hcaiId": "406195769",
    "businessName": "PREFERRED HOME HEALTH, INC.",
    "contactEmail": "PREFERREDHHINC@GMAIL.COM",
    "categoryName": "HOME HEALTH AGENCY",
    "categoryCode": "HHA",
    "licenseStatus": "ACTIVE",
    "inService": true,
    "licenseNumber": "550007791",
    "licenseEffectiveDate": "01/18/2025",
    "licenseExpirationDate": "01/17/2026",
    "dataDate": "10/18/2025",
    "capacity": 0,
    "address": "1101 E BROADWAY, SUITE 109",
    "city": "GLENDALE",
    "zip": "91205",
    "county": "LOS ANGELES",
    "phone": "(818) 484-8118",
    "lat": 34.14645,
    "lng": -118.2414555
  },
  {
    "id": "630020831",
    "name": "PREFERRED HOSPICE",
    "npi": null,
    "hcaiId": "406196204",
    "businessName": "PREFERRED HOSPICE",
    "contactEmail": "PREFERREDHOSPICEINC@GMAIL.COM",
    "categoryName": "HOSPICE",
    "categoryCode": "HOSPICE",
    "licenseStatus": "ACTIVE",
    "inService": true,
    "licenseNumber": "550006400",
    "licenseEffectiveDate": "06/08/2025",
    "licenseExpirationDate": "06/07/2027",
    "dataDate": "10/18/2025",
    "capacity": 0,
    "address": "1016 E BROADWAY, SUITE 206",
    "city": "GLENDALE",
    "zip": "91205",
    "county": "LOS ANGELES",
    "phone": "(818) 649-1661",
    "lat": 34.145964,
    "lng": -118.242261
  },
  {
    "id": "630011269",
    "name": "PRIMAVERA HOME HEALTH, INC.",
    "npi": "1407352651",
    "hcaiId": "406197180",
    "businessName": "PRIMAVERA HOME HEALTH, INC.",
    "contactEmail": "PRIMAVERAHHC@GMAIL.COM",
    "categoryName": "HOME HEALTH AGENCY",
    "categoryCode": "HHA",
    "licenseStatus": "ACTIVE",
    "inService": true,
    "licenseNumber": "550000814",
    "licenseEffectiveDate": "01/31/2022",
    "licenseExpirationDate": "01/30/2023",
    "dataDate": "10/18/2025",
    "capacity": 0,
    "address": "1241 S GLENDALE AVE, SUITE 204A",
    "city": "GLENDALE",
    "zip": "91205",
    "county": "LOS ANGELES",
    "phone": "(747) 222-6507",
    "lat": 34.130682,
    "lng": -118.252791
  },
  {
    "id": "630025872",
    "name": "PRIORITY HOME HEALTH INC",
    "npi": null,
    "hcaiId": null,
    "businessName": "PRIORITY HOME HEALTH INC",
    "contactEmail": "PRIORITYHHI@GMAIL.COM",
    "categoryName": "HOME HEALTH AGENCY",
    "categoryCode": "HHA",
    "licenseStatus": "ACTIVE",
    "inService": true,
    "licenseNumber": "550009394",
    "licenseEffectiveDate": "02/16/2025",
    "licenseExpirationDate": "08/15/2025",
    "dataDate": "10/18/2025",
    "capacity": 0,
    "address": "225 E BROADWAY, SUITE 216B",
    "city": "GLENDALE",
    "zip": "91205",
    "county": "LOS ANGELES",
    "phone": "(818) 536-7306",
    "lat": 34.146576,
    "lng": -118.252953
  },
  {
    "id": "630016657",
    "name": "PROGRESS HOME HEALTH CARE, INC.",
    "npi": "1457705360",
    "hcaiId": "406191011",
    "businessName": "PROGRESS HOME HEALTH CARE, INC.",
    "contactEmail": "PROGRESSHHC@GMAIL.COM",
    "categoryName": "HOME HEALTH AGENCY",
    "categoryCode": "HHA",
    "licenseStatus": "ACTIVE",
    "inService": true,
    "licenseNumber": "550004257",
    "licenseEffectiveDate": "05/12/2025",
    "licenseExpirationDate": "05/11/2026",
    "dataDate": "10/18/2025",
    "capacity": 0,
    "address": "126 S JACKSON ST, SUITE 306",
    "city": "GLENDALE",
    "zip": "91205",
    "county": "LOS ANGELES",
    "phone": "(818) 697-0707",
    "lat": 34.145343,
    "lng": -118.2497445
  },
  {
    "id": "630014604",
    "name": "PROGRESS HOME HEALTH, INC.",
    "npi": null,
    "hcaiId": "406197978",
    "businessName": "PROGRESS HOME HEALTH, INC.",
    "contactEmail": "PROGRESSHH@YAHOO.COM",
    "categoryName": "HOME HEALTH AGENCY",
    "categoryCode": "HHA",
    "licenseStatus": "ACTIVE",
    "inService": true,
    "licenseNumber": "550002868",
    "licenseEffectiveDate": "10/24/2025",
    "licenseExpirationDate": "10/23/2026",
    "dataDate": "10/18/2025",
    "capacity": 0,
    "address": "919 1/2 E BROADWAY, SUITE 206",
    "city": "GLENDALE",
    "zip": "91205",
    "county": "LOS ANGELES",
    "phone": "(818) 484-5868",
    "lat": 34.1463369,
    "lng": -118.2437437
  },
  {
    "id": "630017390",
    "name": "PROSPER HOME HEALTH CARE, INC.",
    "npi": "1609302629",
    "hcaiId": "406191460",
    "businessName": "PROSPER HOME HEALTH CARE, INC.",
    "contactEmail": "PROSPERHOMEHEALTH@YAHOO.COM",
    "categoryName": "HOME HEALTH AGENCY",
    "categoryCode": "HHA",
    "licenseStatus": "ACTIVE",
    "inService": true,
    "licenseNumber": "550004389",
    "licenseEffectiveDate": "09/13/2025",
    "licenseExpirationDate": "09/12/2026",
    "dataDate": "10/18/2025",
    "capacity": 0,
    "address": "409 S GLENDALE AVE, SUITE 201",
    "city": "GLENDALE",
    "zip": "91205",
    "county": "LOS ANGELES",
    "phone": "(818) 578-2777",
    "lat": 34.141311,
    "lng": -118.250181
  },
  {
    "id": "630017983",
    "name": "PURE CARE HOME HEALTH INC",
    "npi": "1295239028",
    "hcaiId": "406191719",
    "businessName": "PURE CARE HOME HEALTH INC",
    "contactEmail": "PURECAREHHC@GMAIL.COM",
    "categoryName": "HOME HEALTH AGENCY",
    "categoryCode": "HHA",
    "licenseStatus": "ACTIVE",
    "inService": true,
    "licenseNumber": "550004781",
    "licenseEffectiveDate": "06/08/2025",
    "licenseExpirationDate": "06/07/2026",
    "dataDate": "10/18/2025",
    "capacity": 0,
    "address": "225 E BROADWAY, SUITE 305E",
    "city": "GLENDALE",
    "zip": "91205",
    "county": "LOS ANGELES",
    "phone": "(818) 748-6441",
    "lat": 34.14658499,
    "lng": -118.252965
  },
  {
    "id": "630025434",
    "name": "QUARTZ HOME HEALTH CARE, INC.",
    "npi": null,
    "hcaiId": "406190114",
    "businessName": "QUARTZ HOME HEALTH CARE, INC.",
    "contactEmail": "QUARTZHHC@GMAIL.COM",
    "categoryName": "HOME HEALTH AGENCY",
    "categoryCode": "HHA",
    "licenseStatus": "ACTIVE",
    "inService": true,
    "licenseNumber": "550008571",
    "licenseEffectiveDate": "06/02/2025",
    "licenseExpirationDate": "06/01/2026",
    "dataDate": "10/18/2025",
    "capacity": 0,
    "address": "1339 E COLORADO ST, SUITE 101",
    "city": "GLENDALE",
    "zip": "91205",
    "county": "LOS ANGELES",
    "phone": "(818) 730-9069",
    "lat": 34.143057,
    "lng": -118.2359655
  },
  {
    "id": "630020858",
    "name": "RAINBOW HOME HEALTH CARE",
    "npi": null,
    "hcaiId": "406195306",
    "businessName": "RAINBOW HOME HEALTH CARE",
    "contactEmail": "RAINBOWHHC1@GMAIL.COM",
    "categoryName": "HOME HEALTH AGENCY",
    "categoryCode": "HHA",
    "licenseStatus": "ACTIVE",
    "inService": true,
    "licenseNumber": "550006748",
    "licenseEffectiveDate": "08/13/2025",
    "licenseExpirationDate": "08/12/2026",
    "dataDate": "10/18/2025",
    "capacity": 0,
    "address": "225 E BROADWAY, SUITE B105A",
    "city": "GLENDALE",
    "zip": "91205",
    "county": "LOS ANGELES",
    "phone": "(818) 536-7385",
    "lat": 34.146576,
    "lng": -118.252953
  },
  {
    "id": "630018706",
    "name": "REGAL HOME HEALTH CARE, INC.",
    "npi": "1174080469",
    "hcaiId": "406192019",
    "businessName": "REGAL HOME HEALTH CARE, INC.",
    "contactEmail": "REGALHOMEHEALTHCAREINC@GMAIL.COM",
    "categoryName": "HOME HEALTH AGENCY",
    "categoryCode": "HHA",
    "licenseStatus": "ACTIVE",
    "inService": true,
    "licenseNumber": "550005077",
    "licenseEffectiveDate": "11/15/2024",
    "licenseExpirationDate": "11/14/2025",
    "dataDate": "10/18/2025",
    "capacity": 0,
    "address": "1123 E BROADWAY",
    "city": "GLENDALE",
    "zip": "91205",
    "county": "LOS ANGELES",
    "phone": "(818) 484-7474",
    "lat": 34.14654,
    "lng": -118.240803
  },
  {
    "id": "630021540",
    "name": "RESTORATIVE HOME HEALTH",
    "npi": null,
    "hcaiId": "406193407",
    "businessName": "RESTORATIVE HOME HEALTH",
    "contactEmail": "RESTORATIVEHOMEHEALTH@GMAIL.COM",
    "categoryName": "HOME HEALTH AGENCY",
    "categoryCode": "HHA",
    "licenseStatus": "ACTIVE",
    "inService": true,
    "licenseNumber": "550007104",
    "licenseEffectiveDate": "10/21/2025",
    "licenseExpirationDate": "10/20/2026",
    "dataDate": "10/18/2025",
    "capacity": 0,
    "address": "125 S LOUISE ST., SUITE 18",
    "city": "GLENDALE",
    "zip": "91205",
    "county": "LOS ANGELES",
    "phone": "(747) 254-8881",
    "lat": 34.1450851,
    "lng": -118.2551251
  },
  {
    "id": "630018962",
    "name": "ROSEWOOD HOME & PALLIATIVE CARE, INC.",
    "npi": null,
    "hcaiId": "406192802",
    "businessName": "ROSEWOOD HOME & PALLIATIVE CARE, INC",
    "contactEmail": "HOMECAREROSEWOOD@GMAIL.COM",
    "categoryName": "HOME HEALTH AGENCY",
    "categoryCode": "HHA",
    "licenseStatus": "ACTIVE",
    "inService": true,
    "licenseNumber": "550005663",
    "licenseEffectiveDate": "08/07/2023",
    "licenseExpirationDate": "08/06/2024",
    "dataDate": "10/18/2025",
    "capacity": 0,
    "address": "1241 S GLENDALE AVE, SUITE 301",
    "city": "GLENDALE",
    "zip": "91205",
    "county": "LOS ANGELES",
    "phone": "(213) 761-5731",
    "lat": 34.130682,
    "lng": -118.252791
  },
  {
    "id": "630018969",
    "name": "ROSEWOOD HOSPICE & PALLIATIVE CARE, INC",
    "npi": null,
    "hcaiId": "406192046",
    "businessName": "ROSEWOOD HOSPICE & PALLIATIVE CARE, INC",
    "contactEmail": "ROSEWOODHOSPICE@GMAIL.COM",
    "categoryName": "HOSPICE",
    "categoryCode": "HOSPICE",
    "licenseStatus": "ACTIVE",
    "inService": true,
    "licenseNumber": "550005149",
    "licenseEffectiveDate": "11/23/2023",
    "licenseExpirationDate": "11/22/2025",
    "dataDate": "10/18/2025",
    "capacity": 0,
    "address": "1241 S GLENDALE AVE, SUITE 301C",
    "city": "GLENDALE",
    "zip": "91205",
    "county": "LOS ANGELES",
    "phone": "(213) 973-2671",
    "lat": 34.130682,
    "lng": -118.252791
  },
  {
    "id": "630018744",
    "name": "SAFEWAY HOME CARE, INC.",
    "npi": "1164988226",
    "hcaiId": "406192106",
    "businessName": "SAFEWAY HOME CARE, INC.",
    "contactEmail": "SAFEWAYHOMECAREINC@GMAIL.COM",
    "categoryName": "HOME HEALTH AGENCY",
    "categoryCode": "HHA",
    "licenseStatus": "ACTIVE",
    "inService": true,
    "licenseNumber": "550005184",
    "licenseEffectiveDate": "12/20/2024",
    "licenseExpirationDate": "12/19/2025",
    "dataDate": "10/18/2025",
    "capacity": 0,
    "address": "415 E HARVARD ST, SUITE 103",
    "city": "GLENDALE",
    "zip": "91205",
    "county": "LOS ANGELES",
    "phone": "(747) 215-6522",
    "lat": 34.144785,
    "lng": -118.2505995
  },
  {
    "id": "630016407",
    "name": "SAFEWAY HOSPICE CORP",
    "npi": "1235500059",
    "hcaiId": "406190688",
    "businessName": "SAFEWAY HOSPICE CORP",
    "contactEmail": "SAFEWAYHOSPICE@GMAIL.COM",
    "categoryName": "HOSPICE",
    "categoryCode": "HOSPICE",
    "licenseStatus": "ACTIVE",
    "inService": true,
    "licenseNumber": "550004128",
    "licenseEffectiveDate": "01/24/2024",
    "licenseExpirationDate": "01/23/2026",
    "dataDate": "10/18/2025",
    "capacity": 0,
    "address": "415 E. HARVARD ST., SUITE 203",
    "city": "GLENDALE, CA",
    "zip": "91205",
    "county": "LOS ANGELES",
    "phone": "(818) 945-5964",
    "lat": 34.144785,
    "lng": -118.2505995
  },
  {
    "id": "630022444",
    "name": "SANTE HOME HEALTH CARE, INC",
    "npi": null,
    "hcaiId": "406195406",
    "businessName": "SANTE HOME HEALTH CARE, INC",
    "contactEmail": "SANTEHOMEHEALTH@GMAIL.COM",
    "categoryName": "HOME HEALTH AGENCY",
    "categoryCode": "HHA",
    "licenseStatus": "ACTIVE",
    "inService": true,
    "licenseNumber": "550007866",
    "licenseEffectiveDate": "03/26/2025",
    "licenseExpirationDate": "02/15/2026",
    "dataDate": "10/18/2025",
    "capacity": 0,
    "address": "225 E BROADWAY, SUITE 210B",
    "city": "GLENDALE",
    "zip": "91205",
    "county": "LOS ANGELES",
    "phone": "(818) 660-0609",
    "lat": 34.1466389,
    "lng": -118.2531191
  },
  {
    "id": "630026892",
    "name": "SEROV HOME HEALTH LLC",
    "npi": null,
    "hcaiId": null,
    "businessName": "SEROV HOME HEALTH, LLC",
    "contactEmail": "INFO@SEROVHOMEHEALTH.COM",
    "categoryName": "HOME HEALTH AGENCY",
    "categoryCode": "HHA",
    "licenseStatus": "ACTIVE",
    "inService": true,
    "licenseNumber": "550009451",
    "licenseEffectiveDate": "10/15/2025",
    "licenseExpirationDate": "10/14/2026",
    "dataDate": "10/18/2025",
    "capacity": 0,
    "address": "126 S JACKSON ST, SUITE 200",
    "city": "GLENDALE",
    "zip": "91205",
    "county": "LOS ANGELES",
    "phone": "(818) 937-9025",
    "lat": 34.145343,
    "lng": -118.2497445
  },
  {
    "id": "630026553",
    "name": "SEVEN ANGELS HOME HEALTH CARE",
    "npi": null,
    "hcaiId": null,
    "businessName": "SEVEN ANGELS HOME HEALTH CARE",
    "contactEmail": "SEVENANGELSHHC@GMAIL.COM",
    "categoryName": "HOME HEALTH AGENCY",
    "categoryCode": "HHA",
    "licenseStatus": "ACTIVE",
    "inService": true,
    "licenseNumber": "550009496",
    "licenseEffectiveDate": "03/30/2025",
    "licenseExpirationDate": "09/29/2025",
    "dataDate": "10/18/2025",
    "capacity": 0,
    "address": "225 E BROADWAY, SUITE 315",
    "city": "GLENDALE",
    "zip": "91205",
    "county": "LOS ANGELES",
    "phone": "(747) 215-9115",
    "lat": 34.14658499,
    "lng": -118.252965
  },
  {
    "id": "630011648",
    "name": "SIGMA HOME HEALTH CARE, INC.",
    "npi": "1700060258",
    "hcaiId": "406197224",
    "businessName": "SIGMA HOME HEALTH CARE, INC.",
    "contactEmail": "SIGMAHHC@YAHOO.COM",
    "categoryName": "HOME HEALTH AGENCY",
    "categoryCode": "HHA",
    "licenseStatus": "ACTIVE",
    "inService": true,
    "licenseNumber": "550000955",
    "licenseEffectiveDate": "01/27/2025",
    "licenseExpirationDate": "01/26/2026",
    "dataDate": "10/18/2025",
    "capacity": 0,
    "address": "805 E BROADWAY, SUITE G",
    "city": "GLENDALE",
    "zip": "91205",
    "county": "LOS ANGELES",
    "phone": "(818) 551-1141",
    "lat": 34.146594,
    "lng": -118.2453435
  },
  {
    "id": "630025691",
    "name": "SPECIAL CARE YOU NEED, INC",
    "npi": null,
    "hcaiId": "406190307",
    "businessName": "SPECIAL CARE YOU NEED, INC",
    "contactEmail": "SPECIALCAREYOUNEED@GMAIL.COM",
    "categoryName": "HOME HEALTH AGENCY",
    "categoryCode": "HHA",
    "licenseStatus": "ACTIVE",
    "inService": true,
    "licenseNumber": "550009018",
    "licenseEffectiveDate": "02/10/2025",
    "licenseExpirationDate": "02/09/2026",
    "dataDate": "10/18/2025",
    "capacity": 0,
    "address": "1241 S GLENDALE AVE, SUITE 304C",
    "city": "GLENDALE",
    "zip": "91205",
    "county": "LOS ANGELES",
    "phone": "(747) 272-0449",
    "lat": 34.130682,
    "lng": -118.252791
  },
  {
    "id": "630025765",
    "name": "SPRING HOME HEALTH CARE",
    "npi": null,
    "hcaiId": "406198773",
    "businessName": "SPRING HOME HEALTH CARE",
    "contactEmail": "SPRINGHHALA@GMAIL.COM",
    "categoryName": "HOME HEALTH AGENCY",
    "categoryCode": "HHA",
    "licenseStatus": "ACTIVE",
    "inService": true,
    "licenseNumber": "550008777",
    "licenseEffectiveDate": "10/19/2025",
    "licenseExpirationDate": "10/18/2026",
    "dataDate": "10/18/2025",
    "capacity": 0,
    "address": "511 E HARVARD ST, SUITE 4A",
    "city": "GLENDALE",
    "zip": "91205",
    "county": "LOS ANGELES",
    "phone": "(818) 237-6909",
    "lat": 34.144722,
    "lng": -118.249569
  },
  {
    "id": "630018701",
    "name": "ST. RITA HOSPICE, INC.",
    "npi": null,
    "hcaiId": null,
    "businessName": "ST. RITA HOSPICE, INC.",
    "contactEmail": "STRITAHOSPICE@YAHOO.COM",
    "categoryName": "HOSPICE",
    "categoryCode": "HOSPICE",
    "licenseStatus": "ACTIVE",
    "inService": true,
    "licenseNumber": "550006174",
    "licenseEffectiveDate": "03/23/2025",
    "licenseExpirationDate": "03/22/2027",
    "dataDate": "10/18/2025",
    "capacity": 0,
    "address": "415 E HARVARD ST, SUITE 104A",
    "city": "GLENDALE",
    "zip": "91205",
    "county": "LOS ANGELES",
    "phone": "(818) 696-2300",
    "lat": 34.144785,
    "lng": -118.2505995
  },
  {
    "id": "630022196",
    "name": "STARWOOD HOME HEALTH CARE, INC.",
    "npi": null,
    "hcaiId": "406195712",
    "businessName": "STARWOOD HOME HEALTH CARE, INC.",
    "contactEmail": "HOMEHEALTHSTARWOOD@GMAIL.COM",
    "categoryName": "HOME HEALTH AGENCY",
    "categoryCode": "HHA",
    "licenseStatus": "ACTIVE",
    "inService": true,
    "licenseNumber": "550007678",
    "licenseEffectiveDate": "11/24/2024",
    "licenseExpirationDate": "11/23/2025",
    "dataDate": "10/18/2025",
    "capacity": 0,
    "address": "225 E BROADWAY, SUITE B118A",
    "city": "GLENDALE",
    "zip": "91205",
    "county": "LOS ANGELES",
    "phone": "(818) 397-1241",
    "lat": 34.146576,
    "lng": -118.252953
  },
  {
    "id": "630022216",
    "name": "STARWOOD HOSPICE, INC",
    "npi": null,
    "hcaiId": "406195101",
    "businessName": "STARWOOD HOSPICE, INC",
    "contactEmail": "HOSPICESTARWOOD@GMAIL.COM",
    "categoryName": "HOSPICE",
    "categoryCode": "HOSPICE",
    "licenseStatus": "ACTIVE",
    "inService": true,
    "licenseNumber": "550007522",
    "licenseEffectiveDate": "12/19/2023",
    "licenseExpirationDate": "12/18/2025",
    "dataDate": "10/18/2025",
    "capacity": 0,
    "address": "225 E BROADWAY, SUITE B118 C",
    "city": "GLENDALE",
    "zip": "91205",
    "county": "LOS ANGELES",
    "phone": "(323) 740-0090",
    "lat": 34.146576,
    "lng": -118.252953
  },
  {
    "id": "630020223",
    "name": "STELLA HOSPICE, INC.",
    "npi": null,
    "hcaiId": "406193642",
    "businessName": "STELLA HOSPICE, INC.",
    "contactEmail": "STELLAHOSPICEINC@GMAIL.COM",
    "categoryName": "HOSPICE",
    "categoryCode": "HOSPICE",
    "licenseStatus": "ACTIVE",
    "inService": true,
    "licenseNumber": "550006491",
    "licenseEffectiveDate": "07/07/2023",
    "licenseExpirationDate": "07/06/2025",
    "dataDate": "10/18/2025",
    "capacity": 0,
    "address": "1241 S GLENDALE AVE, SUITE 202D",
    "city": "GLENDALE",
    "zip": "91205",
    "county": "LOS ANGELES",
    "phone": "(747) 282-1787",
    "lat": 34.130682,
    "lng": -118.252791
  },
  {
    "id": "630018654",
    "name": "SUDARIO HOME HEALTH CARE, INC.",
    "npi": "1629535380",
    "hcaiId": "406191985",
    "businessName": "SUDARIO HOME HEALTH CARE, INC.",
    "contactEmail": "SUDARIOHHC@GMAIL.COM",
    "categoryName": "HOME HEALTH AGENCY",
    "categoryCode": "HHA",
    "licenseStatus": "ACTIVE",
    "inService": true,
    "licenseNumber": "550005014",
    "licenseEffectiveDate": "10/16/2025",
    "licenseExpirationDate": "10/15/2026",
    "dataDate": "10/18/2025",
    "capacity": 0,
    "address": "220 S KENWOOD ST, SUITE 202",
    "city": "GLENDALE",
    "zip": "91205",
    "county": "LOS ANGELES",
    "phone": "(626) 629-3132",
    "lat": 34.143624,
    "lng": -118.2511395
  },
  {
    "id": "630020586",
    "name": "SUNNY HOSPICE INC.",
    "npi": null,
    "hcaiId": "406196193",
    "businessName": "SUNNY HOSPICE INC",
    "contactEmail": "SUNNYHOSPICE20@GMAIL.COM",
    "categoryName": "HOSPICE",
    "categoryCode": "HOSPICE",
    "licenseStatus": "ACTIVE",
    "inService": true,
    "licenseNumber": "550007262",
    "licenseEffectiveDate": "11/22/2025",
    "licenseExpirationDate": "11/21/2027",
    "dataDate": "10/18/2025",
    "capacity": 0,
    "address": "225 E BROADWAY, SUITE B104A",
    "city": "GLENDALE",
    "zip": "91205",
    "county": "LOS ANGELES",
    "phone": "(818) 572-3495",
    "lat": 34.146576,
    "lng": -118.252953
  },
  {
    "id": "630018320",
    "name": "SUNNYLAND HOME HEALTH CARE, INC.",
    "npi": "1336629674",
    "hcaiId": "406192008",
    "businessName": "SUNNYLAND HOME HEALTH CARE, INC.",
    "contactEmail": "SUNNYLANDHOMEHEALTH@GMAIL.COM",
    "categoryName": "HOME HEALTH AGENCY",
    "categoryCode": "HHA",
    "licenseStatus": "ACTIVE",
    "inService": true,
    "licenseNumber": "550005061",
    "licenseEffectiveDate": "11/08/2024",
    "licenseExpirationDate": "11/07/2025",
    "dataDate": "10/18/2025",
    "capacity": 0,
    "address": "100 FRANKLIN CT",
    "city": "GLENDALE",
    "zip": "91205",
    "county": "LOS ANGELES",
    "phone": "(818) 649-1020",
    "lat": 34.14453729,
    "lng": -118.2467719
  },
  {
    "id": "630012373",
    "name": "TOP LINE HOME HEALTHCARE, INC",
    "npi": "1508098195",
    "hcaiId": "406197433",
    "businessName": "TOP LINE HOME HEALTHCARE, INC",
    "contactEmail": "INFO@TOPLINEHOMEHEALTH.COM",
    "categoryName": "HOME HEALTH AGENCY",
    "categoryCode": "HHA",
    "licenseStatus": "ACTIVE",
    "inService": true,
    "licenseNumber": "550001356",
    "licenseEffectiveDate": "08/17/2024",
    "licenseExpirationDate": "08/16/2025",
    "dataDate": "10/18/2025",
    "capacity": 0,
    "address": "1100 E BROADWAY, SUITE 304",
    "city": "GLENDALE",
    "zip": "91205",
    "county": "LOS ANGELES",
    "phone": "(323) 739-0360",
    "lat": 34.146027,
    "lng": -118.241523
  },
  {
    "id": "630012308",
    "name": "TRADITIONAL HOME HEALTH, INC.",
    "npi": null,
    "hcaiId": "406197390",
    "businessName": "TRADITIONAL HOME HEALTH, INC",
    "contactEmail": "TRADITIONALHOMEHEALTH@GMAIL.COM",
    "categoryName": "HOME HEALTH AGENCY",
    "categoryCode": "HHA",
    "licenseStatus": "ACTIVE",
    "inService": true,
    "licenseNumber": "550001278",
    "licenseEffectiveDate": "04/09/2025",
    "licenseExpirationDate": "04/08/2026",
    "dataDate": "10/18/2025",
    "capacity": 0,
    "address": "415 E HARVARD ST, SUITE 204A",
    "city": "GLENDALE",
    "zip": "91205",
    "county": "LOS ANGELES",
    "phone": "(818) 396-5367",
    "lat": 34.144785,
    "lng": -118.2505995
  },
  {
    "id": "980002276",
    "name": "TRADITIONS HEALTH",
    "npi": "1013937028",
    "hcaiId": "406196059",
    "businessName": "PROCARE HOSPICE, LLC",
    "contactEmail": "JOANN.MACK@TRADITIONSHEALTH.COM",
    "categoryName": "HOSPICE",
    "categoryCode": "HOSPICE",
    "licenseStatus": "ACTIVE",
    "inService": false,
    "licenseNumber": "980001391",
    "licenseEffectiveDate": "04/24/2022",
    "licenseExpirationDate": "04/23/2024",
    "dataDate": "10/18/2025",
    "capacity": 0,
    "address": "520 E BROADWAY, SUITE 201",
    "city": "GLENDALE",
    "zip": "91205",
    "county": "LOS ANGELES",
    "phone": "(747) 286-2088",
    "lat": 34.146108,
    "lng": -118.249182
  },
  {
    "id": "630018763",
    "name": "TRANQUIL HOSPICE, INC.",
    "npi": null,
    "hcaiId": "406192184",
    "businessName": "TRANQUIL HOSPICE, INC.",
    "contactEmail": "TRANQUILHOSPICE@YAHOO.COM",
    "categoryName": "HOSPICE",
    "categoryCode": "HOSPICE",
    "licenseStatus": "ACTIVE",
    "inService": true,
    "licenseNumber": "550005193",
    "licenseEffectiveDate": "11/08/2023",
    "licenseExpirationDate": "11/07/2025",
    "dataDate": "10/18/2025",
    "capacity": 0,
    "address": "415 E HARVARD ST, SUITE 101C",
    "city": "GLENDALE",
    "zip": "91205",
    "county": "LOS ANGELES",
    "phone": "(818) 934-7755",
    "lat": 34.144785,
    "lng": -118.2505995
  },
  {
    "id": "980002398",
    "name": "TWINS QUALITY HOME HEALTH CARE, INC.",
    "npi": "1760449201",
    "hcaiId": "406197123",
    "businessName": "TWINS QUALITY HOME HEALTH CARE, INC.",
    "contactEmail": "LMARIANO@TWINSQUALITY.COM",
    "categoryName": "HOME HEALTH AGENCY",
    "categoryCode": "HHA",
    "licenseStatus": "ACTIVE",
    "inService": true,
    "licenseNumber": "980001508",
    "licenseEffectiveDate": "03/01/2025",
    "licenseExpirationDate": "02/28/2026",
    "dataDate": "10/18/2025",
    "capacity": 0,
    "address": "240 S GLENDALE AVE",
    "city": "GLENDALE",
    "zip": "91205",
    "county": "LOS ANGELES",
    "phone": "(818) 265-5088",
    "lat": 34.14319602,
    "lng": -118.2483
  },
  {
    "id": "630016964",
    "name": "UNICORN HOME HEALTH, INC.",
    "npi": null,
    "hcaiId": "406191370",
    "businessName": "UNICORN HOME HEALTH, INC.",
    "contactEmail": "UNICORNHHINC@GMAIL.COM",
    "categoryName": "HOME HEALTH AGENCY",
    "categoryCode": "HHA",
    "licenseStatus": "ACTIVE",
    "inService": true,
    "licenseNumber": "550004473",
    "licenseEffectiveDate": "09/25/2025",
    "licenseExpirationDate": "09/24/2026",
    "dataDate": "10/18/2025",
    "capacity": 0,
    "address": "400 S. GLENDALE AVENUE, SUITE J",
    "city": "GLENDALE",
    "zip": "91205",
    "county": "LOS ANGELES",
    "phone": "(818) 572-4533",
    "lat": 34.1411129,
    "lng": -118.2598646
  },
  {
    "id": "630015327",
    "name": "UNITED HOSPICE SERVICES, INC",
    "npi": "1700291226",
    "hcaiId": "406190475",
    "businessName": "UNITED HOSPICE SERVICES, INC.",
    "contactEmail": "UNITEDHOSPICESERVICES@GMAIL.COM",
    "categoryName": "HOSPICE",
    "categoryCode": "HOSPICE",
    "licenseStatus": "ACTIVE",
    "inService": true,
    "licenseNumber": "550004168",
    "licenseEffectiveDate": "12/05/2023",
    "licenseExpirationDate": "12/04/2025",
    "dataDate": "10/18/2025",
    "capacity": 0,
    "address": "225 E BROADWAY, SUITE B104",
    "city": "GLENDALE",
    "zip": "91205",
    "county": "LOS ANGELES",
    "phone": "(818) 599-6667",
    "lat": 34.146576,
    "lng": -118.252953
  },
  {
    "id": "980000966",
    "name": "USA HOME HEALTH, INC.",
    "npi": "1386603504",
    "hcaiId": "406196675",
    "businessName": "USA HOME HEALTH, INC.",
    "contactEmail": "USAHOMEHEALTHINC@GMAIL.COM",
    "categoryName": "HOME HEALTH AGENCY",
    "categoryCode": "HHA",
    "licenseStatus": "ACTIVE",
    "inService": true,
    "licenseNumber": "980000484",
    "licenseEffectiveDate": "12/01/2024",
    "licenseExpirationDate": "11/30/2025",
    "dataDate": "10/18/2025",
    "capacity": 0,
    "address": "1415 E COLORADO ST, SUITE 206",
    "city": "GLENDALE",
    "zip": "91205",
    "county": "LOS ANGELES",
    "phone": "(818) 244-5112",
    "lat": 34.14312,
    "lng": -118.233333
  },
  {
    "id": "630025062",
    "name": "VENERA HOME HEALTH INC",
    "npi": null,
    "hcaiId": "406196846",
    "businessName": "VENERA HOME HEALTH INC",
    "contactEmail": "VENERAHOMEHEALTHINC@GMAIL.COM",
    "categoryName": "HOME HEALTH AGENCY",
    "categoryCode": "HHA",
    "licenseStatus": "ACTIVE",
    "inService": true,
    "licenseNumber": "550008367",
    "licenseEffectiveDate": "01/25/2025",
    "licenseExpirationDate": "01/24/2026",
    "dataDate": "10/18/2025",
    "capacity": 0,
    "address": "322A E BROADWAY",
    "city": "GLENDALE",
    "zip": "91205",
    "county": "LOS ANGELES",
    "phone": "(747) 609-6538",
    "lat": 34.14625936,
    "lng": -118.2515867
  },
  {
    "id": "630022468",
    "name": "VERVE HOME HEALTH CARE INC",
    "npi": null,
    "hcaiId": "406195590",
    "businessName": "VERVE HOME HEALTH CARE INC",
    "contactEmail": "VERVEHOMEHEALTHCARE@GMAIL.COM",
    "categoryName": "HOME HEALTH AGENCY",
    "categoryCode": "HHA",
    "licenseStatus": "ACTIVE",
    "inService": true,
    "licenseNumber": "550007429",
    "licenseEffectiveDate": "12/08/2024",
    "licenseExpirationDate": "12/07/2025",
    "dataDate": "10/18/2025",
    "capacity": 0,
    "address": "126 S JACKSON ST, SUITE 202",
    "city": "GLENDALE",
    "zip": "91205",
    "county": "LOS ANGELES",
    "phone": "(747) 313-6121",
    "lat": 34.14534099,
    "lng": -118.24976
  },
  {
    "id": "630018438",
    "name": "WELLHEALTH, LLC.",
    "npi": "1154890069",
    "hcaiId": "406191712",
    "businessName": "WELLHEALTH, LLC.",
    "contactEmail": "WELLHEALTHHC@GMAIL.COM",
    "categoryName": "HOME HEALTH AGENCY",
    "categoryCode": "HHA",
    "licenseStatus": "ACTIVE",
    "inService": true,
    "licenseNumber": "550004742",
    "licenseEffectiveDate": "06/11/2025",
    "licenseExpirationDate": "06/10/2026",
    "dataDate": "10/18/2025",
    "capacity": 0,
    "address": "1100 E BROADWAY, SUITE 307",
    "city": "GLENDALE",
    "zip": "91205",
    "county": "LOS ANGELES",
    "phone": "(818) 308-3812",
    "lat": 34.14607398,
    "lng": -118.24152
  },
  {
    "id": "930001689",
    "name": "WEST GLENDALE DIALYSIS",
    "npi": "1992041149",
    "hcaiId": "306196146",
    "businessName": "TOTAL RENAL CARE, INC.",
    "contactEmail": "CAL_C@DAVITA.COM",
    "categoryName": "CHRONIC DIALYSIS CLINIC",
    "categoryCode": "ESRD/CDC",
    "licenseStatus": "ACTIVE",
    "inService": true,
    "licenseNumber": "930000942",
    "licenseEffectiveDate": "04/04/2025",
    "licenseExpirationDate": "04/03/2026",
    "dataDate": "10/18/2025",
    "capacity": 18,
    "address": "1427 S GLENDALE AVE",
    "city": "GLENDALE",
    "zip": "91205",
    "county": "LOS ANGELES",
    "phone": "(818) 241-0016",
    "lat": 34.127856,
    "lng": -118.2531285
  },
  {
    "id": "630026475",
    "name": "WHITE LIGHT HOME HEALTH INC",
    "npi": null,
    "hcaiId": null,
    "businessName": "WHITE LIGHT HOME HEALTH INC",
    "contactEmail": "WHITELIGHTHH@GMAIL.COM",
    "categoryName": "HOME HEALTH AGENCY",
    "categoryCode": "HHA",
    "licenseStatus": "ACTIVE",
    "inService": true,
    "licenseNumber": "550009647",
    "licenseEffectiveDate": "08/24/2025",
    "licenseExpirationDate": "02/23/2026",
    "dataDate": "10/18/2025",
    "capacity": 0,
    "address": "1241 S GLENDALE AVE, SUITE 304A",
    "city": "GLENDALE",
    "zip": "91205",
    "county": "LOS ANGELES",
    "phone": "(747) 353-9256",
    "lat": 34.130682,
    "lng": -118.252791
  },
  {
    "id": "630022149",
    "name": "YAN HOSPICE INC.",
    "npi": null,
    "hcaiId": "406193863",
    "businessName": "YAN HOSPICE INC.",
    "contactEmail": "YANHOSPICE@GMAIL.COM",
    "categoryName": "HOSPICE",
    "categoryCode": "HOSPICE",
    "licenseStatus": "ACTIVE",
    "inService": true,
    "licenseNumber": "550007299",
    "licenseEffectiveDate": "11/24/2023",
    "licenseExpirationDate": "11/23/2025",
    "dataDate": "10/18/2025",
    "capacity": 0,
    "address": "135 S JACKSON ST, SUITE 201B",
    "city": "GLENDALE",
    "zip": "91205",
    "county": "LOS ANGELES",
    "phone": "(818) 649-1063",
    "lat": 34.14566512,
    "lng": -118.2501658
  },
  {
    "id": "630021576",
    "name": "YES TO CARE",
    "npi": null,
    "hcaiId": "406193601",
    "businessName": "YES TO CARE",
    "contactEmail": "YESTOCAREHH@GMAIL.COM",
    "categoryName": "HOME HEALTH AGENCY",
    "categoryCode": "HHA",
    "licenseStatus": "ACTIVE",
    "inService": true,
    "licenseNumber": "550006830",
    "licenseEffectiveDate": "09/20/2025",
    "licenseExpirationDate": "09/19/2026",
    "dataDate": "10/18/2025",
    "capacity": 0,
    "address": "220 S KENWOOD ST, SUITE 105",
    "city": "GLENDALE",
    "zip": "91205",
    "county": "LOS ANGELES",
    "phone": "(818) 430-4450",
    "lat": 34.14356398,
    "lng": -118.250995
  },
  {
    "id": "630023743",
    "name": "ZILLA HOME CARE",
    "npi": null,
    "hcaiId": "406195874",
    "businessName": "ZILLA HOME CARE",
    "contactEmail": "ZILLAHOMECARE@OUTLOOK.COM",
    "categoryName": "HOME HEALTH AGENCY",
    "categoryCode": "HHA",
    "licenseStatus": "ACTIVE",
    "inService": true,
    "licenseNumber": "550008038",
    "licenseEffectiveDate": "06/09/2025",
    "licenseExpirationDate": "06/08/2026",
    "dataDate": "10/18/2025",
    "capacity": 0,
    "address": "225 E BROADWAY, SUITE B101A",
    "city": "GLENDALE",
    "zip": "91205",
    "county": "LOS ANGELES",
    "phone": "(818) 536-7440",
    "lat": 34.14656298,
    "lng": -118.25288
  }
]