[
  {
    "id": "630012155",
    "name": "24/7 HOME HEALTH SERVICES",
    "npi": "1104052141",
    "hcaiId": "406197448",
    "businessName": "24-7 HOME HEALTH SERVICES INC",
    "contactEmail": "247HHS@GMAIL.COM",
    "categoryName": "HOME HEALTH AGENCY",
    "categoryCode": "HHA",
    "licenseStatus": "ACTIVE",
    "inService": true,
    "licenseNumber": "550001354",
    "licenseEffectiveDate": "06/28/2025",
    "licenseExpirationDate": "06/27/2026",
    "dataDate": "10/18/2025",
    "capacity": 0,
    "address": "109 N CEDAR ST",
    "city": "GLENDALE",
    "zip": "91206",
    "county": "LOS ANGELES",
    "phone": "(877) 247-6797",
    "lat": 34.146729,
    "lng": -118.244565
  },
  {
    "id": "630011948",
    "name": "A & P HOME HEALTH, INC.",
    "npi": "1659530327",
    "hcaiId": "406197243",
    "businessName": "A & P HOME HEALTH, INC.",
    "contactEmail": "APHOMEHEALTH@GMAIL.COM",
    "categoryName": "HOME HEALTH AGENCY",
    "categoryCode": "HHA",
    "licenseStatus": "ACTIVE",
    "inService": true,
    "licenseNumber": "550000990",
    "licenseEffectiveDate": "04/07/2025",
    "licenseExpirationDate": "04/06/2026",
    "dataDate": "10/18/2025",
    "capacity": 0,
    "address": "212 N GLENDALE AVE, SUITE 104",
    "city": "GLENDALE",
    "zip": "91206",
    "county": "LOS ANGELES",
    "phone": "(818) 846-4100",
    "lat": 34.148628,
    "lng": -118.2458385
  },
  {
    "id": "630011033",
    "name": "A TO Z HOME HEALTH, INC.",
    "npi": "1497880645",
    "hcaiId": "406197127",
    "businessName": "A TO Z HOME HEALTH, INC.",
    "contactEmail": "A2ZHHI@YAHOO.COM",
    "categoryName": "HOME HEALTH AGENCY",
    "categoryCode": "HHA",
    "licenseStatus": "ACTIVE",
    "inService": true,
    "licenseNumber": "550000480",
    "licenseEffectiveDate": "11/01/2025",
    "licenseExpirationDate": "10/31/2026",
    "dataDate": "10/18/2025",
    "capacity": 0,
    "address": "212 N GLENDALE AVE, SUITE 200",
    "city": "GLENDALE",
    "zip": "91206",
    "county": "LOS ANGELES",
    "phone": "(818) 509-3000",
    "lat": 34.148628,
    "lng": -118.2458385
  },
  {
    "id": "630022166",
    "name": "A TO Z HOSPICE, INC.",
    "npi": null,
    "hcaiId": "406193853",
    "businessName": "A TO Z HOSPICE, INC.",
    "contactEmail": "ATOZHOSPICE2020@GMAIL.COM",
    "categoryName": "HOSPICE",
    "categoryCode": "HOSPICE",
    "licenseStatus": "ACTIVE",
    "inService": true,
    "licenseNumber": "550007380",
    "licenseEffectiveDate": "12/03/2023",
    "licenseExpirationDate": "12/02/2025",
    "dataDate": "10/18/2025",
    "capacity": 0,
    "address": "212 N GLENDALE AVE, SUITE 100",
    "city": "GLENDALE",
    "zip": "91206",
    "county": "LOS ANGELES",
    "phone": "(818) 491-9005",
    "lat": 34.148628,
    "lng": -118.245825
  },
  {
    "id": "930000059",
    "name": "ADVENTIST HEALTH GLENDALE",
    "npi": "1831188275",
    "hcaiId": "106190323",
    "businessName": "GLENDALE ADVENTIST MEDICAL CENTER",
    "contactEmail": "OGANESA@AH.ORG",
    "categoryName": "GENERAL ACUTE CARE HOSPITAL",
    "categoryCode": "GACH",
    "licenseStatus": "ACTIVE",
    "inService": true,
    "licenseNumber": "930000059",
    "licenseEffectiveDate": "06/01/2025",
    "licenseExpirationDate": "05/31/2026",
    "dataDate": "10/18/2025",
    "capacity": 415,
    "address": "1509 WILSON TER",
    "city": "GLENDALE",
    "zip": "91206",
    "county": "LOS ANGELES",
    "phone": "(818) 409-8087",
    "lat": 34.150779,
    "lng": -118.230615
  },
  {
    "id": "630012627",
    "name": "ADVENTIST HEALTH HOME CARE SERVICES",
    "npi": null,
    "hcaiId": "406198048",
    "businessName": "WESTERN HEALTH RESOURCES",
    "contactEmail": "CREDENTIALING@AH.ORG",
    "categoryName": "HOSPICE",
    "categoryCode": "HOSPICE",
    "licenseStatus": "ACTIVE",
    "inService": true,
    "licenseNumber": "550001470",
    "licenseEffectiveDate": "06/04/2024",
    "licenseExpirationDate": "06/03/2026",
    "dataDate": "10/18/2025",
    "capacity": 0,
    "address": "281 HARVEY DRIVE, UNIT B",
    "city": "GLENDALE",
    "zip": "91206",
    "county": "LOS ANGELES",
    "phone": "(818) 409-8011",
    "lat": 34.14870943,
    "lng": -118.2281155
  },
  {
    "id": "630011408",
    "name": "ALL- ACCESS HOME HEALTH, INC.",
    "npi": null,
    "hcaiId": "406197221",
    "businessName": "ALL-ACCESS HOME HEALTH, INC.",
    "contactEmail": "ALLACCESS24@YAHOO.COM",
    "categoryName": "HOME HEALTH AGENCY",
    "categoryCode": "HHA",
    "licenseStatus": "ACTIVE",
    "inService": true,
    "licenseNumber": "550000950",
    "licenseEffectiveDate": "03/20/2025",
    "licenseExpirationDate": "03/19/2026",
    "dataDate": "10/18/2025",
    "capacity": 0,
    "address": "144 N GLENDALE AVE, SUITE 302",
    "city": "GLENDALE",
    "zip": "91206",
    "county": "LOS ANGELES",
    "phone": "(818) 240-4663",
    "lat": 34.147917,
    "lng": -118.2462345
  },
  {
    "id": "630025163",
    "name": "AMIRA HH INC",
    "npi": null,
    "hcaiId": null,
    "businessName": "AMIRA HH INC",
    "contactEmail": "AMIRAHHINC@YAHOO.COM",
    "categoryName": "HOME HEALTH AGENCY",
    "categoryCode": "HHA",
    "licenseStatus": "ACTIVE",
    "inService": true,
    "licenseNumber": "550008279",
    "licenseEffectiveDate": "12/08/2022",
    "licenseExpirationDate": "06/07/2023",
    "dataDate": "10/18/2025",
    "capacity": 0,
    "address": "805 E WILSON AVE, SUITE 3",
    "city": "GLENDALE",
    "zip": "91206",
    "county": "LOS ANGELES",
    "phone": "(818) 531-4968",
    "lat": 34.14834,
    "lng": -118.2452985
  },
  {
    "id": "980001949",
    "name": "ARPI, INC., HOME HEALTH CARE SERVICES",
    "npi": "1821149196",
    "hcaiId": "406195012",
    "businessName": "ARPI, INC.",
    "contactEmail": "INFO@ARPIHOMEHEALTH.COM",
    "categoryName": "HOME HEALTH AGENCY",
    "categoryCode": "HHA",
    "licenseStatus": "ACTIVE",
    "inService": true,
    "licenseNumber": "980001136",
    "licenseEffectiveDate": "02/03/2025",
    "licenseExpirationDate": "02/02/2026",
    "dataDate": "10/18/2025",
    "capacity": 0,
    "address": "206 N JACKSON ST, SUITE 100",
    "city": "GLENDALE",
    "zip": "91206",
    "county": "LOS ANGELES",
    "phone": "(818) 239-3949",
    "lat": 34.14852,
    "lng": -118.249758
  },
  {
    "id": "630016840",
    "name": "ARROWHEAD HOME HEALTH, INC.",
    "npi": null,
    "hcaiId": "406192112",
    "businessName": "ARROWHEAD HOME HEALTH, INC.",
    "contactEmail": "ARROWHEADHH18@YAHOO.COM",
    "categoryName": "HOME HEALTH AGENCY",
    "categoryCode": "HHA",
    "licenseStatus": "ACTIVE",
    "inService": true,
    "licenseNumber": "550004080",
    "licenseEffectiveDate": "12/21/2024",
    "licenseExpirationDate": "12/20/2025",
    "dataDate": "10/18/2025",
    "capacity": 0,
    "address": "144 N GLENDALE AVE, SUITE 301",
    "city": "GLENDALE",
    "zip": "91206",
    "county": "LOS ANGELES",
    "phone": "(818) 514-0918",
    "lat": 34.147917,
    "lng": -118.2462345
  },
  {
    "id": "630021312",
    "name": "ASSURE HOME HEALTH CARE",
    "npi": null,
    "hcaiId": "406195529",
    "businessName": "ASSURE HOME HEALTH CARE",
    "contactEmail": "4ASSUREHHC@GMAIL.COM",
    "categoryName": "HOME HEALTH AGENCY",
    "categoryCode": "HHA",
    "licenseStatus": "ACTIVE",
    "inService": true,
    "licenseNumber": "550006899",
    "licenseEffectiveDate": "09/22/2025",
    "licenseExpirationDate": "09/21/2026",
    "dataDate": "10/18/2025",
    "capacity": 0,
    "address": "217 N VERDUGO RD, SUITE D",
    "city": "GLENDALE",
    "zip": "91206",
    "county": "LOS ANGELES",
    "phone": "(747) 245-9604",
    "lat": 34.148718,
    "lng": -118.2360285
  },
  {
    "id": "630015928",
    "name": "ASSURED HOME HEALTH CARE, INC.",
    "npi": "1144613241",
    "hcaiId": "406198253",
    "businessName": "ASSURED HOME HEALTH CARE, INC.",
    "contactEmail": "ASSUREDHHC@YAHOO.COM",
    "categoryName": "HOME HEALTH AGENCY",
    "categoryCode": "HHA",
    "licenseStatus": "ACTIVE",
    "inService": true,
    "licenseNumber": "550003355",
    "licenseEffectiveDate": "07/25/2023",
    "licenseExpirationDate": "07/24/2024",
    "dataDate": "10/18/2025",
    "capacity": 0,
    "address": "230 N. MARYLAND AVENUE, SUITE 302",
    "city": "GLENDALE",
    "zip": "91206",
    "county": "LOS ANGELES",
    "phone": "(818) 796-3939",
    "lat": 34.14911967,
    "lng": -118.2537029
  },
  {
    "id": "920000306",
    "name": "AUTUMN HILLS HEALTH CARE CENTER",
    "npi": "1245528926",
    "hcaiId": "206190320",
    "businessName": "AUTUMN HILLS OPERATING COMPANY, LP",
    "contactEmail": "SXPETROSYAN@MARINERHEALTHCARE.COM",
    "categoryName": "SKILLED NURSING FACILITY",
    "categoryCode": "SNF",
    "licenseStatus": "ACTIVE",
    "inService": true,
    "licenseNumber": "920000127",
    "licenseEffectiveDate": "11/01/2025",
    "licenseExpirationDate": "10/31/2026",
    "dataDate": "10/18/2025",
    "capacity": 99,
    "address": "430 N GLENDALE AVE",
    "city": "GLENDALE",
    "zip": "91206",
    "county": "LOS ANGELES",
    "phone": "(818) 246-5677",
    "lat": 34.152705,
    "lng": -118.2433635
  },
  {
    "id": "630019255",
    "name": "BRAND HOME HEALTH CARE INC",
    "npi": null,
    "hcaiId": "406192517",
    "businessName": "BRAND HOME HEALTH CARE INC",
    "contactEmail": "BRANDHOMEHEALTH@YAHOO.COM",
    "categoryName": "HOME HEALTH AGENCY",
    "categoryCode": "HHA",
    "licenseStatus": "ACTIVE",
    "inService": true,
    "licenseNumber": "550005234",
    "licenseEffectiveDate": "01/30/2025",
    "licenseExpirationDate": "01/29/2026",
    "dataDate": "10/18/2025",
    "capacity": 0,
    "address": "230 N MARYLAND AVE, SUITE 106",
    "city": "GLENDALE",
    "zip": "91206",
    "county": "LOS ANGELES",
    "phone": "(747) 215-9133",
    "lat": 34.14935801,
    "lng": -118.25344
  },
  {
    "id": "630025957",
    "name": "BROADVIEW HOME HEALTH, INC.",
    "npi": null,
    "hcaiId": null,
    "businessName": "BROADVIEW HOME HEALTH, INC",
    "contactEmail": "BROADVIEWHHC@GMAIL.COM",
    "categoryName": "HOME HEALTH AGENCY",
    "categoryCode": "HHA",
    "licenseStatus": "ACTIVE",
    "inService": true,
    "licenseNumber": "550009007",
    "licenseEffectiveDate": "01/02/2025",
    "licenseExpirationDate": "01/01/2026",
    "dataDate": "10/18/2025",
    "capacity": 0,
    "address": "517 E WILSON AVE, SUITE 103B",
    "city": "GLENDALE",
    "zip": "91206",
    "county": "LOS ANGELES",
    "phone": "(747) 777-4491",
    "lat": 34.148376,
    "lng": -118.2492
  },
  {
    "id": "630013191",
    "name": "CB HOMECARE HOSPICE",
    "npi": "1427482710",
    "hcaiId": "406197730",
    "businessName": "CB HOMECARE HOSPICE CORPORATION",
    "contactEmail": "CBHOMECAREHOSPICE@CBHOMECAREHOSPICE.COM",
    "categoryName": "HOSPICE",
    "categoryCode": "HOSPICE",
    "licenseStatus": "ACTIVE",
    "inService": true,
    "licenseNumber": "550002000",
    "licenseEffectiveDate": "05/17/2024",
    "licenseExpirationDate": "05/16/2026",
    "dataDate": "10/18/2025",
    "capacity": 0,
    "address": "512 E. WILSON AVE., #204",
    "city": "GLENDALE",
    "zip": "91206",
    "county": "LOS ANGELES",
    "phone": "(818) 241-5910",
    "lat": 34.147917,
    "lng": -118.249254
  },
  {
    "id": "630020912",
    "name": "CHANGING LIVES HOME HEALTH",
    "npi": null,
    "hcaiId": "406195302",
    "businessName": "WELLNESS EMPIRE",
    "contactEmail": "CHANGINGLIVESHH@GMAIL.COM",
    "categoryName": "HOME HEALTH AGENCY",
    "categoryCode": "HHA",
    "licenseStatus": "ACTIVE",
    "inService": true,
    "licenseNumber": "550006720",
    "licenseEffectiveDate": "08/23/2025",
    "licenseExpirationDate": "08/22/2026",
    "dataDate": "10/18/2025",
    "capacity": 0,
    "address": "805 E WILSON AVE, UNIT B",
    "city": "GLENDALE",
    "zip": "91206",
    "county": "LOS ANGELES",
    "phone": "(818) 396-5678",
    "lat": 34.14834,
    "lng": -118.2452985
  },
  {
    "id": "630021406",
    "name": "CLOVER HOME HEALTH CARE, INC.",
    "npi": null,
    "hcaiId": "406195692",
    "businessName": "CLOVER HOME HEALTH CARE, INC.",
    "contactEmail": "HOMEHEALTHCLOVER@GMAIL.COM",
    "categoryName": "HOME HEALTH AGENCY",
    "categoryCode": "HHA",
    "licenseStatus": "ACTIVE",
    "inService": true,
    "licenseNumber": "550006752",
    "licenseEffectiveDate": "09/02/2025",
    "licenseExpirationDate": "09/01/2026",
    "dataDate": "10/18/2025",
    "capacity": 0,
    "address": "512 E WILSON AVE, SUITE 306",
    "city": "GLENDALE",
    "zip": "91206",
    "county": "LOS ANGELES",
    "phone": "(747) 201-0199",
    "lat": 34.148133,
    "lng": -118.24942
  },
  {
    "id": "630014773",
    "name": "COMPREHENSIVE HEALTH CARE SERVICES LLC",
    "npi": "1457780561",
    "hcaiId": "406197992",
    "businessName": "COMPREHENSIVE HEALTH CARE SERVICES LLC",
    "contactEmail": "CHEALTHCS@GMAIL.COM",
    "categoryName": "HOME HEALTH AGENCY",
    "categoryCode": "HHA",
    "licenseStatus": "ACTIVE",
    "inService": true,
    "licenseNumber": "550002858",
    "licenseEffectiveDate": "10/21/2024",
    "licenseExpirationDate": "10/20/2025",
    "dataDate": "10/18/2025",
    "capacity": 0,
    "address": "512 E WILSON AVE, SUITE 200-A",
    "city": "GLENDALE",
    "zip": "91206",
    "county": "LOS ANGELES",
    "phone": "(818) 549-0683",
    "lat": 34.147908,
    "lng": -118.2494295
  },
  {
    "id": "630026460",
    "name": "CREDENCE HOME HEALTH CARE, INC.",
    "npi": null,
    "hcaiId": null,
    "businessName": "CREDENCE HOME HEALTH CARE, INC.",
    "contactEmail": "CREDENCEHOMEHEALTHCAREINC@YAHOO.COM",
    "categoryName": "HOME HEALTH AGENCY",
    "categoryCode": "HHA",
    "licenseStatus": "ACTIVE",
    "inService": true,
    "licenseNumber": "550009241",
    "licenseEffectiveDate": "07/12/2025",
    "licenseExpirationDate": "07/11/2026",
    "dataDate": "10/18/2025",
    "capacity": 0,
    "address": "512 E WILSON AVE, SUITE 303",
    "city": "GLENDALE",
    "zip": "91206",
    "county": "LOS ANGELES",
    "phone": "(818) 696-2107",
    "lat": 34.147908,
    "lng": -118.2494295
  },
  {
    "id": "630017159",
    "name": "DIGNICARE HOSPICE SERVICES LLC",
    "npi": "1376967224",
    "hcaiId": "406191603",
    "businessName": "DIGNICARE HOSPICE SERVICES LLC",
    "contactEmail": "ALBERT.VALMEO@DIGNICAREHOSPICE.COM",
    "categoryName": "HOSPICE",
    "categoryCode": "HOSPICE",
    "licenseStatus": "ACTIVE",
    "inService": true,
    "licenseNumber": "550004623",
    "licenseEffectiveDate": "04/08/2025",
    "licenseExpirationDate": "04/07/2027",
    "dataDate": "10/18/2025",
    "capacity": 0,
    "address": "520 E WILSON AVE, SUITE 105",
    "city": "GLENDALE",
    "zip": "91206",
    "county": "LOS ANGELES",
    "phone": "(818) 975-0685",
    "lat": 34.147908,
    "lng": -118.2491235
  },
  {
    "id": "630011794",
    "name": "DIVINE GRACE HOME HEALTH, INC.",
    "npi": "1073798310",
    "hcaiId": "406197253",
    "businessName": "DIVINE GRACE HOME HEALTH, INC.",
    "contactEmail": "DIVINEGRACEHH@GMAIL.COM",
    "categoryName": "HOME HEALTH AGENCY",
    "categoryCode": "HHA",
    "licenseStatus": "ACTIVE",
    "inService": true,
    "licenseNumber": "550001019",
    "licenseEffectiveDate": "04/01/2024",
    "licenseExpirationDate": "03/31/2025",
    "dataDate": "10/18/2025",
    "capacity": 0,
    "address": "512 E WILSON AVE, SUITE 401",
    "city": "GLENDALE",
    "zip": "91206",
    "county": "LOS ANGELES",
    "phone": "(818) 956-5872",
    "lat": 34.147917,
    "lng": -118.249254
  },
  {
    "id": "630016032",
    "name": "EASY CARE HOSPICE, INC.",
    "npi": null,
    "hcaiId": "406191827",
    "businessName": "EASY CARE HOSPICE, INC.",
    "contactEmail": "EASYCAREHOSPICE@GMAIL.COM",
    "categoryName": "HOSPICE",
    "categoryCode": "HOSPICE",
    "licenseStatus": "ACTIVE",
    "inService": true,
    "licenseNumber": "550003901",
    "licenseEffectiveDate": "06/05/2025",
    "licenseExpirationDate": "06/04/2027",
    "dataDate": "10/18/2025",
    "capacity": 0,
    "address": "520 E WILSON AVE, SUITE 115",
    "city": "GLENDALE",
    "zip": "91206",
    "county": "LOS ANGELES",
    "phone": "(818) 839-1858",
    "lat": 34.147908,
    "lng": -118.2491235
  },
  {
    "id": "630026808",
    "name": "ELLIOT HOME CARE",
    "npi": null,
    "hcaiId": null,
    "businessName": "ELLIOT HOME CARE",
    "contactEmail": "ELLIOTHOMEHC@GMAIL.COM",
    "categoryName": "HOME HEALTH AGENCY",
    "categoryCode": "HHA",
    "licenseStatus": "ACTIVE",
    "inService": true,
    "licenseNumber": "550009249",
    "licenseEffectiveDate": "07/15/2025",
    "licenseExpirationDate": "07/14/2026",
    "dataDate": "10/18/2025",
    "capacity": 0,
    "address": "416 N GLENDALE AVE, UNIT 212-A",
    "city": "GLENDALE",
    "zip": "91206",
    "county": "LOS ANGELES",
    "phone": "(818) 396-9598",
    "lat": 34.152399,
    "lng": -118.24371
  },
  {
    "id": "630021000",
    "name": "ETERNAL LOVE HOSPICE",
    "npi": null,
    "hcaiId": "406193280",
    "businessName": "ETERNAL LOVE HOSPICE",
    "contactEmail": "ETERNALLOVEHOSPICE@GMAIL.COM",
    "categoryName": "HOSPICE",
    "categoryCode": "HOSPICE",
    "licenseStatus": "ACTIVE",
    "inService": true,
    "licenseNumber": "550007112",
    "licenseEffectiveDate": "10/28/2025",
    "licenseExpirationDate": "10/27/2027",
    "dataDate": "10/18/2025",
    "capacity": 0,
    "address": "144 N GLENDALE AVE, SUITE 108",
    "city": "GLENDALE",
    "zip": "91206",
    "county": "LOS ANGELES",
    "phone": "(747) 215-6515",
    "lat": 34.147917,
    "lng": -118.2462345
  },
  {
    "id": "630021477",
    "name": "FATE HOSPICE INC.",
    "npi": null,
    "hcaiId": "406193724",
    "businessName": "FATE HOSPICE INC.",
    "contactEmail": "FATEHOSPICEINC@GMAIL.COM",
    "categoryName": "HOSPICE",
    "categoryCode": "HOSPICE",
    "licenseStatus": "ACTIVE",
    "inService": true,
    "licenseNumber": "550006848",
    "licenseEffectiveDate": "09/14/2025",
    "licenseExpirationDate": "09/13/2027",
    "dataDate": "10/18/2025",
    "capacity": 0,
    "address": "1461 E CHEVY CHASE DR, SUITE 100A",
    "city": "GLENDALE",
    "zip": "91206",
    "county": "LOS ANGELES",
    "phone": "(626) 631-6101",
    "lat": 34.15191001,
    "lng": -118.233959
  },
  {
    "id": "630011940",
    "name": "FIVE STAR QUALITY HEALTHCARE, INC.",
    "npi": null,
    "hcaiId": "406197459",
    "businessName": "FIVE STAR QUALITY HEALTHCARE, INC.",
    "contactEmail": "FIVESTARHEALTHCARE2012@YAHOO.COM",
    "categoryName": "HOME HEALTH AGENCY",
    "categoryCode": "HHA",
    "licenseStatus": "ACTIVE",
    "inService": true,
    "licenseNumber": "550001394",
    "licenseEffectiveDate": "12/26/2024",
    "licenseExpirationDate": "12/25/2025",
    "dataDate": "10/18/2025",
    "capacity": 0,
    "address": "116 N ARTSAKH AVE, SUITE 200",
    "city": "GLENDALE",
    "zip": "91206",
    "county": "LOS ANGELES",
    "phone": "(818) 507-6469",
    "lat": 34.147098,
    "lng": -118.2535245
  },
  {
    "id": "930000302",
    "name": "GLENDALE ADVENTIST MEDICAL CENTER",
    "npi": "1831188275",
    "hcaiId": null,
    "businessName": "GLENDALE ADVENTIST MEDICAL CENTER",
    "contactEmail": null,
    "categoryName": "GENERAL ACUTE CARE HOSPITAL",
    "categoryCode": "GACH",
    "licenseStatus": "ACTIVE",
    "inService": true,
    "licenseNumber": "930000059",
    "licenseEffectiveDate": "06/01/2025",
    "licenseExpirationDate": "05/31/2026",
    "dataDate": "10/18/2025",
    "capacity": 0,
    "address": "1509 WILSON TERRACE",
    "city": "GLENDALE",
    "zip": "91206",
    "county": "LOS ANGELES",
    "phone": null,
    "lat": 34.15233862,
    "lng": -118.2299789
  },
  {
    "id": "930000652",
    "name": "GLENDALE ADVENTIST MEDICAL CENTER D/P APH",
    "npi": "1831188275",
    "hcaiId": null,
    "businessName": "GLENDALE ADVENTIST MEDICAL CENTER",
    "contactEmail": null,
    "categoryName": "ACUTE PSYCHIATRIC HOSPITAL",
    "categoryCode": "APH",
    "licenseStatus": "ACTIVE",
    "inService": true,
    "licenseNumber": "930000059",
    "licenseEffectiveDate": "06/01/2025",
    "licenseExpirationDate": "05/31/2026",
    "dataDate": "10/18/2025",
    "capacity": 60,
    "address": "1509 WILSON TER",
    "city": "GLENDALE",
    "zip": "91206",
    "county": "LOS ANGELES",
    "phone": "(818) 409-8000",
    "lat": 34.150779,
    "lng": -118.230615
  },
  {
    "id": "930000892",
    "name": "GLENDALE ADVENTIST MEDICAL CENTER D/P SNF",
    "npi": null,
    "hcaiId": null,
    "businessName": "GLENDALE ADVENTIST MEDICAL CENTER",
    "contactEmail": "J.C.LANSANGAN@MARINERHEALTHCARE.COM",
    "categoryName": "SKILLED NURSING FACILITY",
    "categoryCode": "SNF",
    "licenseStatus": "ACTIVE",
    "inService": true,
    "licenseNumber": "930000059",
    "licenseEffectiveDate": "06/01/2025",
    "licenseExpirationDate": "05/31/2026",
    "dataDate": "10/18/2025",
    "capacity": 40,
    "address": "1509 WILSON TER",
    "city": "GLENDALE",
    "zip": "91206",
    "county": "LOS ANGELES",
    "phone": "(818) 409-8072",
    "lat": 34.150779,
    "lng": -118.230615
  },
  {
    "id": "630008441",
    "name": "GLENDALE ENDOSCOPY CENTER, LLC",
    "npi": "1932258415",
    "hcaiId": "306197065",
    "businessName": "GLENDALE ENDOSCOPY CENTER, LLC",
    "contactEmail": null,
    "categoryName": "SURGICAL CLINIC",
    "categoryCode": "ASC",
    "licenseStatus": "INACTIVE - CAPEN DECISION",
    "inService": false,
    "licenseNumber": "550000645",
    "licenseEffectiveDate": "12/03/2007",
    "licenseExpirationDate": "06/02/2008",
    "dataDate": "10/18/2025",
    "capacity": 0,
    "address": "824 N GLENDALE AVE",
    "city": "GLENDALE",
    "zip": "91206",
    "county": "LOS ANGELES",
    "phone": "(818) 654-9301",
    "lat": 34.15815569,
    "lng": -118.2402261
  },
  {
    "id": "060001878",
    "name": "GLENDALE HILLS ADULT DAY HEALTH CARE CENTER",
    "npi": null,
    "hcaiId": null,
    "businessName": "GAA, LLC",
    "contactEmail": "GHADHC@ATT.NET",
    "categoryName": "ADULT DAY HEALTH CARE",
    "categoryCode": "ADHC",
    "licenseStatus": "ACTIVE",
    "inService": true,
    "licenseNumber": "060000695",
    "licenseEffectiveDate": "12/04/2024",
    "licenseExpirationDate": "12/03/2025",
    "dataDate": "10/18/2025",
    "capacity": 0,
    "address": "550 N GLENDALE AVE, SUITE A",
    "city": "GLENDALE",
    "zip": "91206",
    "county": "LOS ANGELES",
    "phone": "(818) 241-3400",
    "lat": 34.154568,
    "lng": -118.242459
  },
  {
    "id": "980001024",
    "name": "GLENDALE HOME HEALTH CARE",
    "npi": "1497733687",
    "hcaiId": "406194038",
    "businessName": "JOLIKIM HOME HEALTH SERVICES, INC.",
    "contactEmail": "HOMEHEALTH@CHARTER.NET",
    "categoryName": "HOME HEALTH AGENCY",
    "categoryCode": "HHA",
    "licenseStatus": "ACTIVE",
    "inService": true,
    "licenseNumber": "980000538",
    "licenseEffectiveDate": "02/11/2022",
    "licenseExpirationDate": "02/10/2023",
    "dataDate": "10/18/2025",
    "capacity": 0,
    "address": "914 N GLENDALE AVE",
    "city": "GLENDALE",
    "zip": "91206",
    "county": "LOS ANGELES",
    "phone": "(818) 502-2121",
    "lat": 34.159203,
    "lng": -118.239138
  },
  {
    "id": "920000020",
    "name": "GLENDALE POST ACUTE CENTER",
    "npi": "1659737906",
    "hcaiId": "206190665",
    "businessName": "LAC VERDUGO OPERATIONS, LLC",
    "contactEmail": "ALISHA.VINSON@GLENDALEPAC.COM",
    "categoryName": "SKILLED NURSING FACILITY",
    "categoryCode": "SNF",
    "licenseStatus": "ACTIVE",
    "inService": true,
    "licenseNumber": "920000061",
    "licenseEffectiveDate": "07/28/2025",
    "licenseExpirationDate": "07/27/2026",
    "dataDate": "10/18/2025",
    "capacity": 136,
    "address": "250 N VERDUGO RD",
    "city": "GLENDALE",
    "zip": "91206",
    "county": "LOS ANGELES",
    "phone": "(818) 244-1133",
    "lat": 34.149798,
    "lng": -118.235538
  },
  {
    "id": "630022019",
    "name": "GLOBE HOME HEALTH CARE, INC.",
    "npi": null,
    "hcaiId": "406195523",
    "businessName": "GLOBE HOME HEALTH CARE, INC.",
    "contactEmail": "GLOBEHOMEHEALTHCARE@GMAIL.COM",
    "categoryName": "HOME HEALTH AGENCY",
    "categoryCode": "HHA",
    "licenseStatus": "ACTIVE",
    "inService": true,
    "licenseNumber": "550006747",
    "licenseEffectiveDate": "09/02/2025",
    "licenseExpirationDate": "09/01/2026",
    "dataDate": "10/18/2025",
    "capacity": 0,
    "address": "1010 N GLENDALE AVE, SUITE 208",
    "city": "GLENDALE",
    "zip": "91206",
    "county": "LOS ANGELES",
    "phone": "(818) 696-2802",
    "lat": 34.16022,
    "lng": -118.23696
  },
  {
    "id": "630018617",
    "name": "GRAVATIS HOME HEALTH CARE INC",
    "npi": "1225592512",
    "hcaiId": "406192364",
    "businessName": "GRAVATIS HOME HEALTH CARE INC",
    "contactEmail": "GRAVATISINC@GMAIL.COM",
    "categoryName": "HOME HEALTH AGENCY",
    "categoryCode": "HHA",
    "licenseStatus": "ACTIVE",
    "inService": true,
    "licenseNumber": "550005042",
    "licenseEffectiveDate": "10/26/2025",
    "licenseExpirationDate": "10/25/2026",
    "dataDate": "10/18/2025",
    "capacity": 0,
    "address": "1461 E CHEVY CHASE DR, SUITE 100",
    "city": "GLENDALE",
    "zip": "91206",
    "county": "LOS ANGELES",
    "phone": "(213) 468-4668",
    "lat": 34.15191001,
    "lng": -118.233959
  },
  {
    "id": "630018151",
    "name": "HAPPY LIFE HOME HEALTH CARE, INC",
    "npi": null,
    "hcaiId": "406191779",
    "businessName": "HAPPY LIFE HOME HEALTH CARE, INC",
    "contactEmail": "HAPPY_LIFE@HAPPYLIFEHOMEHEALTH.COM",
    "categoryName": "HOME HEALTH AGENCY",
    "categoryCode": "HHA",
    "licenseStatus": "ACTIVE",
    "inService": true,
    "licenseNumber": "550004880",
    "licenseEffectiveDate": "08/24/2024",
    "licenseExpirationDate": "08/23/2025",
    "dataDate": "10/18/2025",
    "capacity": 0,
    "address": "517 E WILSON AVE, SUITE 105",
    "city": "GLENDALE",
    "zip": "91206",
    "county": "LOS ANGELES",
    "phone": "(818) 334-4661",
    "lat": 34.14838102,
    "lng": -118.249182
  },
  {
    "id": "630014695",
    "name": "HEALING ANGELS HOSPICE",
    "npi": "1720330756",
    "hcaiId": "406198334",
    "businessName": "HEALING ANGELS HOSPICE",
    "contactEmail": "HEALINGHOSPICE@GMAIL.COM",
    "categoryName": "HOSPICE",
    "categoryCode": "HOSPICE",
    "licenseStatus": "ACTIVE",
    "inService": true,
    "licenseNumber": "550002911",
    "licenseEffectiveDate": "11/26/2022",
    "licenseExpirationDate": "11/25/2024",
    "dataDate": "10/18/2025",
    "capacity": 0,
    "address": "144 N GLENDALE AVE, SUITE 304",
    "city": "GLENDALE",
    "zip": "91206",
    "county": "LOS ANGELES",
    "phone": "(855) 503-9300",
    "lat": 34.147917,
    "lng": -118.2462345
  },
  {
    "id": "630013453",
    "name": "HOSPICE OF ST. CLARE, INC.",
    "npi": "1851678916",
    "hcaiId": "406197893",
    "businessName": "HOSPICE OF ST. CLARE, INC.",
    "contactEmail": "HOSPICEOFSTCLARE@YAHOO.COM",
    "categoryName": "HOSPICE",
    "categoryCode": "HOSPICE",
    "licenseStatus": "ACTIVE",
    "inService": true,
    "licenseNumber": "550002138",
    "licenseEffectiveDate": "03/04/2025",
    "licenseExpirationDate": "11/11/2026",
    "dataDate": "10/18/2025",
    "capacity": 0,
    "address": "144 N GLENDALE AVE, SUITE 303",
    "city": "GLENDALE",
    "zip": "91206",
    "county": "LOS ANGELES",
    "phone": "(818) 508-8500",
    "lat": 34.147917,
    "lng": -118.2462345
  },
  {
    "id": "630024061",
    "name": "JAX HOME HEALTH, INC",
    "npi": null,
    "hcaiId": "406195450",
    "businessName": "JAX HOME HEALTH, INC",
    "contactEmail": "JAXHOMEHEALTHINC@GMAIL.COM",
    "categoryName": "HOME HEALTH AGENCY",
    "categoryCode": "HHA",
    "licenseStatus": "ACTIVE",
    "inService": true,
    "licenseNumber": "550008080",
    "licenseEffectiveDate": "06/21/2025",
    "licenseExpirationDate": "06/20/2026",
    "dataDate": "10/18/2025",
    "capacity": 0,
    "address": "230 N MARYLAND AVE, SUITE 301",
    "city": "GLENDALE",
    "zip": "91206",
    "county": "LOS ANGELES",
    "phone": "(747) 877-9240",
    "lat": 34.14911967,
    "lng": -118.2537029
  },
  {
    "id": "630022070",
    "name": "KNH HOSPICE CARE INC",
    "npi": null,
    "hcaiId": "406195185",
    "businessName": "KNH HOSPICE CARE INC",
    "contactEmail": "KNHHOSPICECAREINC@GMAIL.COM",
    "categoryName": "HOSPICE",
    "categoryCode": "HOSPICE",
    "licenseStatus": "ACTIVE",
    "inService": true,
    "licenseNumber": "550007560",
    "licenseEffectiveDate": "06/20/2025",
    "licenseExpirationDate": "12/17/2025",
    "dataDate": "10/18/2025",
    "capacity": 0,
    "address": "520 E WILSON AVE, UNIT 100",
    "city": "GLENDALE",
    "zip": "91206",
    "county": "LOS ANGELES",
    "phone": "(818) 453-8897",
    "lat": 34.14792001,
    "lng": -118.249135
  },
  {
    "id": "630025189",
    "name": "LH HOME CARE SERVICE INC.",
    "npi": null,
    "hcaiId": "406197522",
    "businessName": "LH HOME CARE SERVICE INC",
    "contactEmail": "LHHOMECARESERVICE@GMAIL.COM",
    "categoryName": "HOME HEALTH AGENCY",
    "categoryCode": "HHA",
    "licenseStatus": "ACTIVE",
    "inService": true,
    "licenseNumber": "550008605",
    "licenseEffectiveDate": "06/09/2025",
    "licenseExpirationDate": "06/08/2026",
    "dataDate": "10/18/2025",
    "capacity": 0,
    "address": "520 E WILSON AVE, SUITE 240",
    "city": "GLENDALE",
    "zip": "91206",
    "county": "LOS ANGELES",
    "phone": "(818) 646-4055",
    "lat": 34.147908,
    "lng": -118.2491235
  },
  {
    "id": "630018968",
    "name": "LIKE FAMILY HOSPICE AND PALLIATIVE CARE INC",
    "npi": "1124580881",
    "hcaiId": "406192079",
    "businessName": "LIKE FAMILY HOSPICE AND PALLIATIVE CARE INC",
    "contactEmail": "LIKEFAMILYHOSPICE@GMAIL.COM",
    "categoryName": "HOSPICE",
    "categoryCode": "HOSPICE",
    "licenseStatus": "ACTIVE",
    "inService": true,
    "licenseNumber": "550005112",
    "licenseEffectiveDate": "11/22/2023",
    "licenseExpirationDate": "11/21/2025",
    "dataDate": "10/18/2025",
    "capacity": 0,
    "address": "520 E WILSON AVE, SUITE 225",
    "city": "GLENDALE",
    "zip": "91206",
    "county": "LOS ANGELES",
    "phone": "(818) 696-2256",
    "lat": 34.147908,
    "lng": -118.2491235
  },
  {
    "id": "630016373",
    "name": "LYRA HOSPICE",
    "npi": "1700253432",
    "hcaiId": "406190851",
    "businessName": "LYRA HOSPICE",
    "contactEmail": "LYRAHOSPICE@GMAIL.COM",
    "categoryName": "HOSPICE",
    "categoryCode": "HOSPICE",
    "licenseStatus": "ACTIVE",
    "inService": true,
    "licenseNumber": "550004089",
    "licenseEffectiveDate": "12/28/2023",
    "licenseExpirationDate": "12/27/2025",
    "dataDate": "10/18/2025",
    "capacity": 0,
    "address": "212 N GLENDALE AVE, SUITE 102",
    "city": "GLENDALE",
    "zip": "91206",
    "county": "LOS ANGELES",
    "phone": "(424) 421-2723",
    "lat": 34.148628,
    "lng": -118.245825
  },
  {
    "id": "630012923",
    "name": "MEDICAL MISSION ADVENTURES",
    "npi": "1295038396",
    "hcaiId": "306197614",
    "businessName": "MEDICAL MISSION ADVENTURES",
    "contactEmail": "WONGEM818@GMAIL.COM",
    "categoryName": "PRIMARY CARE CLINIC",
    "categoryCode": "COMTYC",
    "licenseStatus": "ACTIVE",
    "inService": true,
    "licenseNumber": "550001774",
    "licenseEffectiveDate": "02/27/2025",
    "licenseExpirationDate": "11/14/2025",
    "dataDate": "10/18/2025",
    "capacity": 0,
    "address": "134 N KENWOOD ST, FLOOR 3 UNIT 330",
    "city": "GLENDALE",
    "zip": "91206",
    "county": "LOS ANGELES",
    "phone": "(818) 631-6465",
    "lat": 34.14761374,
    "lng": -118.25093
  },
  {
    "id": "630020435",
    "name": "MEDLINE QUALITY HOSPICE, INC",
    "npi": null,
    "hcaiId": "406196053",
    "businessName": "MEDLINE QUALITY HOSPICE, INC.",
    "contactEmail": "MEDLINEQUALITYHOSPICE@GMAIL.COM",
    "categoryName": "HOSPICE",
    "categoryCode": "HOSPICE",
    "licenseStatus": "ACTIVE",
    "inService": true,
    "licenseNumber": "550006320",
    "licenseEffectiveDate": "04/29/2025",
    "licenseExpirationDate": "04/28/2027",
    "dataDate": "10/18/2025",
    "capacity": 0,
    "address": "418 N GLENDALE AVE, SUITE C",
    "city": "GLENDALE",
    "zip": "91206",
    "county": "LOS ANGELES",
    "phone": "(562) 587-9092",
    "lat": 34.152399,
    "lng": -118.24371
  },
  {
    "id": "630021174",
    "name": "MISSION HOME CARE SERVICES, INC",
    "npi": null,
    "hcaiId": "406193606",
    "businessName": "MISSION HOME CARE SERVICES, INC",
    "contactEmail": "MISSIONHCSI@GMAIL.COM",
    "categoryName": "HOME HEALTH AGENCY",
    "categoryCode": "HHA",
    "licenseStatus": "ACTIVE",
    "inService": true,
    "licenseNumber": "550007089",
    "licenseEffectiveDate": "08/13/2025",
    "licenseExpirationDate": "08/12/2026",
    "dataDate": "10/18/2025",
    "capacity": 0,
    "address": "512 E WILSON AVE, SUITE 402",
    "city": "GLENDALE",
    "zip": "91206",
    "county": "LOS ANGELES",
    "phone": "(818) 968-4474",
    "lat": 34.147918,
    "lng": -118.249427
  },
  {
    "id": "980002467",
    "name": "MONTROSE HOME HEALTHCARE, INC.",
    "npi": null,
    "hcaiId": "406196595",
    "businessName": "MONTROSE HOME HEALTHCARE, INC.",
    "contactEmail": "MONTROSEHOME@SBCGLOBAL.NET",
    "categoryName": "HOME HEALTH AGENCY",
    "categoryCode": "HHA",
    "licenseStatus": "ACTIVE",
    "inService": true,
    "licenseNumber": "980001573",
    "licenseEffectiveDate": "11/13/2024",
    "licenseExpirationDate": "11/12/2025",
    "dataDate": "10/18/2025",
    "capacity": 0,
    "address": "230 NORTH MARYLAND AVENUE, SUITE 104",
    "city": "GLENDALE",
    "zip": "91206",
    "county": "LOS ANGELES",
    "phone": "(818) 545-0211",
    "lat": 34.14911967,
    "lng": -118.2537029
  },
  {
    "id": "630012949",
    "name": "NAVITAS HOSPICE CARE INC.",
    "npi": "1619284296",
    "hcaiId": "406197563",
    "businessName": "NAVITAS HOSPICE CARE INC.",
    "contactEmail": "NAVITASHOSPICECARE@YAHOO.COM",
    "categoryName": "HOSPICE",
    "categoryCode": "HOSPICE",
    "licenseStatus": "ACTIVE",
    "inService": false,
    "licenseNumber": "550001639",
    "licenseEffectiveDate": "06/24/2023",
    "licenseExpirationDate": "06/23/2025",
    "dataDate": "10/18/2025",
    "capacity": 0,
    "address": "740 E WILSON AVE, SUITE 203",
    "city": "GLENDALE",
    "zip": "91206",
    "county": "LOS ANGELES",
    "phone": "(747) 255-4488",
    "lat": 34.147944,
    "lng": -118.245762
  },
  {
    "id": "630017394",
    "name": "NEW ERA HOME HEALTH CARE",
    "npi": "1801322086",
    "hcaiId": "406191869",
    "businessName": "NEW ERA HOME HEALTH CARE",
    "contactEmail": "NEWERAHC@YAHOO.COM",
    "categoryName": "HOME HEALTH AGENCY",
    "categoryCode": "HHA",
    "licenseStatus": "ACTIVE",
    "inService": true,
    "licenseNumber": "550004578",
    "licenseEffectiveDate": "03/02/2025",
    "licenseExpirationDate": "03/01/2026",
    "dataDate": "10/18/2025",
    "capacity": 0,
    "address": "805 E WILSON AVE, SUITE D",
    "city": "GLENDALE",
    "zip": "91206",
    "county": "LOS ANGELES",
    "phone": "(818) 937-9027",
    "lat": 34.14834,
    "lng": -118.2452985
  },
  {
    "id": "630016640",
    "name": "NOBILIS HOME HEALTH CARE",
    "npi": "1689039281",
    "hcaiId": "406190941",
    "businessName": "NOBILIS, INC.",
    "contactEmail": "INFO@NOBILISHOMEHEALTH.COM",
    "categoryName": "HOME HEALTH AGENCY",
    "categoryCode": "HHA",
    "licenseStatus": "ACTIVE",
    "inService": true,
    "licenseNumber": "550004250",
    "licenseEffectiveDate": "06/25/2025",
    "licenseExpirationDate": "05/11/2026",
    "dataDate": "10/18/2025",
    "capacity": 0,
    "address": "206 N JACKSON ST, SUITE 301",
    "city": "GLENDALE",
    "zip": "91206",
    "county": "LOS ANGELES",
    "phone": "(888) 381-7181",
    "lat": 34.14852,
    "lng": -118.249758
  },
  {
    "id": "630011225",
    "name": "NORTH GLENDALE DIALYSIS",
    "npi": "1629200134",
    "hcaiId": "306197036",
    "businessName": "TOTAL RENAL CARE, INC.",
    "contactEmail": "CAL_C@DAVITA.COM",
    "categoryName": "CHRONIC DIALYSIS CLINIC",
    "categoryCode": "ESRD/CDC",
    "licenseStatus": "ACTIVE",
    "inService": true,
    "licenseNumber": "550000584",
    "licenseEffectiveDate": "11/01/2025",
    "licenseExpirationDate": "10/31/2026",
    "dataDate": "10/18/2025",
    "capacity": 37,
    "address": "1505 WILSON TER, SUITE 190",
    "city": "GLENDALE",
    "zip": "91206",
    "county": "LOS ANGELES",
    "phone": "(818) 637-8348",
    "lat": 34.150779,
    "lng": -118.230615
  },
  {
    "id": "630015694",
    "name": "PHYSICIAN SURGERY CENTER AT GLENDALE ADVENTIST, LL",
    "npi": "1760807127",
    "hcaiId": null,
    "businessName": null,
    "contactEmail": "LORA.ALTIS-PARKHURST@AH.OR",
    "categoryName": "SURGICAL CLINIC",
    "categoryCode": "ASC",
    "licenseStatus": null,
    "inService": null,
    "licenseNumber": null,
    "licenseEffectiveDate": null,
    "licenseExpirationDate": null,
    "dataDate": "10/18/2025",
    "capacity": 0,
    "address": "1500 E. CHEVEY CHASE DRIVE, SUITE #101",
    "city": "GLENDALE",
    "zip": "91206",
    "county": "LOS ANGELES",
    "phone": "(818) 863-4225",
    "lat": 34.151742,
    "lng": -118.231821
  },
  {
    "id": "630015972",
    "name": "PURVIEW HOSPICE AND PALLIATIVE CARE, INC.",
    "npi": "1134516545",
    "hcaiId": "406198497",
    "businessName": "PURVIEW HOSPICE AND PALLIATIVE CARE, INC.",
    "contactEmail": "INFO@PURVIEWHOSPICE.COM",
    "categoryName": "HOSPICE",
    "categoryCode": "HOSPICE",
    "licenseStatus": "ACTIVE",
    "inService": true,
    "licenseNumber": "550003971",
    "licenseEffectiveDate": "11/04/2025",
    "licenseExpirationDate": "09/19/2027",
    "dataDate": "10/18/2025",
    "capacity": 0,
    "address": "200 N MARYLAND AVE, SUITE 201B",
    "city": "GLENDALE",
    "zip": "91206",
    "county": "LOS ANGELES",
    "phone": "(818) 696-9225",
    "lat": 34.148313,
    "lng": -118.253502
  },
  {
    "id": "630020125",
    "name": "QUAD CARE HOSPICE INCORPORATED",
    "npi": null,
    "hcaiId": "406196237",
    "businessName": "QUAD CARE HOSPICE INCORPORATED",
    "contactEmail": "QUADCARE209@GMAIL.COM",
    "categoryName": "HOSPICE",
    "categoryCode": "HOSPICE",
    "licenseStatus": "ACTIVE",
    "inService": true,
    "licenseNumber": "550005916",
    "licenseEffectiveDate": "12/16/2024",
    "licenseExpirationDate": "12/15/2026",
    "dataDate": "10/18/2025",
    "capacity": 0,
    "address": "512 E WILSON AVE, SUITE 209",
    "city": "GLENDALE",
    "zip": "91206",
    "county": "LOS ANGELES",
    "phone": "(747) 609-8001",
    "lat": 34.147908,
    "lng": -118.2494295
  },
  {
    "id": "630016651",
    "name": "QUANTUM HOME HEALTH SERVICES, INC.",
    "npi": "1225499742",
    "hcaiId": "406190691",
    "businessName": "QUANTUM HOME HEALTH SERVICES, INC.",
    "contactEmail": "QUANTUMHHS@GMAIL.COM",
    "categoryName": "HOME HEALTH AGENCY",
    "categoryCode": "HHA",
    "licenseStatus": "ACTIVE",
    "inService": true,
    "licenseNumber": "550004136",
    "licenseEffectiveDate": "01/30/2025",
    "licenseExpirationDate": "01/29/2026",
    "dataDate": "10/18/2025",
    "capacity": 0,
    "address": "520 E WILSON AVE, SUITE 215",
    "city": "GLENDALE",
    "zip": "91206",
    "county": "LOS ANGELES",
    "phone": "(818) 847-7997",
    "lat": 34.147908,
    "lng": -118.2491235
  },
  {
    "id": "630021547",
    "name": "REALITY CARE HOSPICE, INC.",
    "npi": null,
    "hcaiId": "406195011",
    "businessName": "REALITY CARE HOSPICE, INC.",
    "contactEmail": "REALITYCAREHOSPICE@GMAIL.COM",
    "categoryName": "HOSPICE",
    "categoryCode": "HOSPICE",
    "licenseStatus": "ACTIVE",
    "inService": true,
    "licenseNumber": "550007314",
    "licenseEffectiveDate": "04/22/2025",
    "licenseExpirationDate": "11/24/2025",
    "dataDate": "10/18/2025",
    "capacity": 0,
    "address": "520 E WILSON AVE, SUITE 205",
    "city": "GLENDALE",
    "zip": "91206",
    "county": "LOS ANGELES",
    "phone": "(818) 600-1565",
    "lat": 34.14792001,
    "lng": -118.249135
  },
  {
    "id": "630011818",
    "name": "RELIANCE HOME HEALTH CARE, INC.",
    "npi": "1881019545",
    "hcaiId": "406197247",
    "businessName": "RELIANCE HOME HEALTH CARE, INC.",
    "contactEmail": "RELIANCEHOMEHEALTHCARE@GMAIL.COM",
    "categoryName": "HOME HEALTH AGENCY",
    "categoryCode": "HHA",
    "licenseStatus": "ACTIVE",
    "inService": true,
    "licenseNumber": "550000987",
    "licenseEffectiveDate": "12/18/2024",
    "licenseExpirationDate": "12/17/2025",
    "dataDate": "10/18/2025",
    "capacity": 0,
    "address": "520 E WILSON AVE, SUITE 110",
    "city": "GLENDALE",
    "zip": "91206",
    "county": "LOS ANGELES",
    "phone": "(626) 857-7777",
    "lat": 34.147908,
    "lng": -118.2491235
  },
  {
    "id": "980002510",
    "name": "RENAISSANCE HOME HEALTH SERVICES INC.",
    "npi": "1194049619",
    "hcaiId": "406196780",
    "businessName": "RENAISSANCE HOME HEALTH SERVICES, INC.",
    "contactEmail": "ADMIN@RHHSINC.ORG",
    "categoryName": "HOME HEALTH AGENCY",
    "categoryCode": "HHA",
    "licenseStatus": "ACTIVE",
    "inService": true,
    "licenseNumber": "980001605",
    "licenseEffectiveDate": "12/17/2024",
    "licenseExpirationDate": "12/16/2025",
    "dataDate": "10/18/2025",
    "capacity": 0,
    "address": "512 E WILSON AVE, SUITE 203",
    "city": "GLENDALE",
    "zip": "91206",
    "county": "LOS ANGELES",
    "phone": "(213) 252-8981",
    "lat": 34.147918,
    "lng": -118.249427
  },
  {
    "id": "630025135",
    "name": "SILVER LAKE HH, INC.",
    "npi": null,
    "hcaiId": null,
    "businessName": "SILVER LAKE HH, INC.",
    "contactEmail": "SILVERLAKEHH@YAHOO.COM",
    "categoryName": "HOME HEALTH AGENCY",
    "categoryCode": "HHA",
    "licenseStatus": "ACTIVE",
    "inService": true,
    "licenseNumber": "550008280",
    "licenseEffectiveDate": "12/08/2022",
    "licenseExpirationDate": "06/07/2023",
    "dataDate": "10/18/2025",
    "capacity": 0,
    "address": "807 E WILSON AVE, SUITE 2",
    "city": "GLENDALE",
    "zip": "91206",
    "county": "LOS ANGELES",
    "phone": "(747) 232-1245",
    "lat": 34.14834,
    "lng": -118.2452985
  },
  {
    "id": "630020644",
    "name": "SOLID HOSPICE CARE, INC.",
    "npi": null,
    "hcaiId": null,
    "businessName": "SOLID HOSPICE CARE, INC.",
    "contactEmail": "SOLIDHOSPICECARE@GMAIL.COM",
    "categoryName": "HOSPICE",
    "categoryCode": "HOSPICE",
    "licenseStatus": "ACTIVE",
    "inService": true,
    "licenseNumber": "550006352",
    "licenseEffectiveDate": "05/13/2025",
    "licenseExpirationDate": "05/12/2027",
    "dataDate": "10/18/2025",
    "capacity": 0,
    "address": "200 N MARYLAND AVE, SUITE 201-C",
    "city": "GLENDALE",
    "zip": "91206",
    "county": "LOS ANGELES",
    "phone": "(626) 714-7113",
    "lat": 34.14831401,
    "lng": -118.2535
  },
  {
    "id": "980002236",
    "name": "ST. ANTHONY HOSPICE",
    "npi": "1255549473",
    "hcaiId": "406196535",
    "businessName": "ST. ANTHONY HOSPICE",
    "contactEmail": "STANTHONYHOSPICE@ST-ANTHONYHOSPICE.COM",
    "categoryName": "HOSPICE",
    "categoryCode": "HOSPICE",
    "licenseStatus": "ACTIVE",
    "inService": true,
    "licenseNumber": "980001354",
    "licenseEffectiveDate": "11/16/2023",
    "licenseExpirationDate": "11/15/2025",
    "dataDate": "10/18/2025",
    "capacity": 0,
    "address": "512 E WILSON AVE, SUITE 208",
    "city": "GLENDALE",
    "zip": "91206",
    "county": "LOS ANGELES",
    "phone": "(818) 241-0082",
    "lat": 34.147908,
    "lng": -118.2494295
  },
  {
    "id": "630024138",
    "name": "TRIBUTE HOME HEALTH CARE, INC.",
    "npi": null,
    "hcaiId": "406196231",
    "businessName": "TRIBUTE HOME HEALTH CARE, INC.",
    "contactEmail": "TRIBUTEHHC@GMAIL.COM",
    "categoryName": "HOME HEALTH AGENCY",
    "categoryCode": "HHA",
    "licenseStatus": "ACTIVE",
    "inService": true,
    "licenseNumber": "550008404",
    "licenseEffectiveDate": "02/23/2025",
    "licenseExpirationDate": "02/22/2026",
    "dataDate": "10/18/2025",
    "capacity": 0,
    "address": "520 E WILSON AVE, SUITE 200",
    "city": "GLENDALE",
    "zip": "91206",
    "county": "LOS ANGELES",
    "phone": "(747) 271-4448",
    "lat": 34.147908,
    "lng": -118.2491235
  },
  {
    "id": "630021277",
    "name": "VENERABLE HOSPICE CARE",
    "npi": null,
    "hcaiId": "406194821",
    "businessName": "VENERABLE HOSPICE CARE",
    "contactEmail": "VENERABLEHOSPICE202@GMAIL.COM",
    "categoryName": "HOSPICE",
    "categoryCode": "HOSPICE",
    "licenseStatus": "ACTIVE",
    "inService": true,
    "licenseNumber": "550007272",
    "licenseEffectiveDate": "08/31/2023",
    "licenseExpirationDate": "08/30/2025",
    "dataDate": "10/18/2025",
    "capacity": 0,
    "address": "512 E WILSON AVE, SUITE 202",
    "city": "GLENDALE",
    "zip": "91206",
    "county": "LOS ANGELES",
    "phone": "(818) 601-2488",
    "lat": 34.147908,
    "lng": -118.2494295
  }
]