[
  {
    "id": "630025080",
    "name": "1ST SOLUTION HOME HEALTH, INC.",
    "npi": null,
    "hcaiId": "406196805",
    "businessName": "1ST SOLUTION HOME HEALTH, INC.,",
    "contactEmail": "FIRSTSOLUTIONHH@GMAIL.COM",
    "categoryName": "HOME HEALTH AGENCY",
    "categoryCode": "HHA",
    "licenseStatus": "ACTIVE",
    "inService": true,
    "licenseNumber": "550008348",
    "licenseEffectiveDate": "01/25/2025",
    "licenseExpirationDate": "01/24/2026",
    "dataDate": "10/18/2025",
    "capacity": 0,
    "address": "1314 W GLENOAKS BLVD, SUITE 106",
    "city": "GLENDALE",
    "zip": "91201",
    "county": "LOS ANGELES",
    "phone": "(800) 913-9920",
    "lat": 34.1664581,
    "lng": -118.2835553
  },
  {
    "id": "630011951",
    "name": "ACACIA HOME HEALTH SERVICES",
    "npi": "1396900890",
    "hcaiId": "406197321",
    "businessName": "QUALITY CARE HOME HEALTH SERVICES, INC.",
    "contactEmail": "ALEX@ACACIAHEALTH.NET",
    "categoryName": "HOME HEALTH AGENCY",
    "categoryCode": "HHA",
    "licenseStatus": "ACTIVE",
    "inService": true,
    "licenseNumber": "550000928",
    "licenseEffectiveDate": "03/17/2025",
    "licenseExpirationDate": "03/16/2026",
    "dataDate": "10/18/2025",
    "capacity": 0,
    "address": "1616 VICTORY BLVD, SUITE 205",
    "city": "GLENDALE",
    "zip": "91201",
    "county": "LOS ANGELES",
    "phone": "(818) 241-2200",
    "lat": 34.15995,
    "lng": -118.299186
  },
  {
    "id": "630025225",
    "name": "ALFA HOME HEALTH, INC.",
    "npi": null,
    "hcaiId": "406197142",
    "businessName": "ALFA HOME HEALTH INC",
    "contactEmail": "ALFAHOMEHEALTHINC@GMAIL.COM",
    "categoryName": "HOME HEALTH AGENCY",
    "categoryCode": "HHA",
    "licenseStatus": "ACTIVE",
    "inService": true,
    "licenseNumber": "550008600",
    "licenseEffectiveDate": "05/11/2025",
    "licenseExpirationDate": "05/10/2026",
    "dataDate": "10/18/2025",
    "capacity": 0,
    "address": "1314 W GLENOAKS BLVD, SUITE 106B",
    "city": "GLENDALE",
    "zip": "91201",
    "county": "LOS ANGELES",
    "phone": "(818) 565-8008",
    "lat": 34.1664581,
    "lng": -118.2835553
  },
  {
    "id": "630018081",
    "name": "ALPHA HOME HEALTH AGENCY",
    "npi": "1558852418",
    "hcaiId": "406191702",
    "businessName": "ALPHA HOME HEALTH AGENCY",
    "contactEmail": "INFO@ALPHAHOMECAREAGENCY.COM",
    "categoryName": "HOME HEALTH AGENCY",
    "categoryCode": "HHA",
    "licenseStatus": "ACTIVE",
    "inService": true,
    "licenseNumber": "550004693",
    "licenseEffectiveDate": "04/16/2025",
    "licenseExpirationDate": "04/15/2026",
    "dataDate": "10/18/2025",
    "capacity": 0,
    "address": "1220 W GLENOAKS BLVD, SUITE 201",
    "city": "GLENDALE",
    "zip": "91201",
    "county": "LOS ANGELES",
    "phone": "(747) 609-1000",
    "lat": 34.165386,
    "lng": -118.282302
  },
  {
    "id": "630017376",
    "name": "ANGEL OF MERCY HOME HEALTH CARE",
    "npi": "1306379383",
    "hcaiId": "406191407",
    "businessName": "ANGEL OF MERCY HOME HEALTH CARE",
    "contactEmail": "ANGELOFMERCYHHC@GMAIL.COM",
    "categoryName": "HOME HEALTH AGENCY",
    "categoryCode": "HHA",
    "licenseStatus": "ACTIVE",
    "inService": true,
    "licenseNumber": "550004502",
    "licenseEffectiveDate": "10/03/2025",
    "licenseExpirationDate": "12/13/2025",
    "dataDate": "10/18/2025",
    "capacity": 0,
    "address": "1110 SONORA AVE, SUITE 102",
    "city": "GLENDALE",
    "zip": "91201",
    "county": "LOS ANGELES",
    "phone": "(818) 937-9440",
    "lat": 34.168617,
    "lng": -118.2849525
  },
  {
    "id": "630020042",
    "name": "ANGELS PROTECTION HOSPICE, INC.",
    "npi": null,
    "hcaiId": "406195976",
    "businessName": "ANGELS PROTECTION HOSPICE, INC.",
    "contactEmail": "ANGELS@ANGELSPROTECTIONHOSPICE.COM",
    "categoryName": "HOSPICE",
    "categoryCode": "HOSPICE",
    "licenseStatus": "ACTIVE",
    "inService": true,
    "licenseNumber": "550006171",
    "licenseEffectiveDate": "03/26/2025",
    "licenseExpirationDate": "03/25/2027",
    "dataDate": "10/18/2025",
    "capacity": 0,
    "address": "1616 VICTORY BLVD, SUITE 103",
    "city": "GLENDALE",
    "zip": "91201",
    "county": "LOS ANGELES",
    "phone": "(747) 215-6404",
    "lat": 34.15995,
    "lng": -118.299186
  },
  {
    "id": "630026602",
    "name": "ANNE HOME HEALTH CARE",
    "npi": null,
    "hcaiId": null,
    "businessName": "ANNE HOME HEALTH CARE",
    "contactEmail": "ANNEHEALTHC@GMAIL.COM",
    "categoryName": "HOME HEALTH AGENCY",
    "categoryCode": "HHA",
    "licenseStatus": "ACTIVE",
    "inService": true,
    "licenseNumber": "550009144",
    "licenseEffectiveDate": "05/21/2025",
    "licenseExpirationDate": "05/20/2026",
    "dataDate": "10/18/2025",
    "capacity": 0,
    "address": "1930 W GLENOAKS BLVD, SUITE 6",
    "city": "GLENDALE",
    "zip": "91201",
    "county": "LOS ANGELES",
    "phone": "(818) 800-0617",
    "lat": 34.174476,
    "lng": -118.2949425
  },
  {
    "id": "630019390",
    "name": "APPROVED HOSPICE CARE, INC",
    "npi": null,
    "hcaiId": "406195914",
    "businessName": "APPROVED HOSPICE CARE, INC",
    "contactEmail": "APPHOSPICE9@GMAIL.COM",
    "categoryName": "HOSPICE",
    "categoryCode": "HOSPICE",
    "licenseStatus": "ACTIVE",
    "inService": true,
    "licenseNumber": "550006202",
    "licenseEffectiveDate": "07/01/2024",
    "licenseExpirationDate": "06/30/2026",
    "dataDate": "10/18/2025",
    "capacity": 0,
    "address": "1616 VICTORY BLVD, SUITE 203",
    "city": "GLENDALE",
    "zip": "91201",
    "county": "LOS ANGELES",
    "phone": "(747) 212-1515",
    "lat": 34.15995,
    "lng": -118.299186
  },
  {
    "id": "630026615",
    "name": "ARED HOME HEALTH CARE, INC.",
    "npi": null,
    "hcaiId": null,
    "businessName": null,
    "contactEmail": "AREDHOMEHEALTHCARE@GMAIL.COM",
    "categoryName": "HOME HEALTH AGENCY",
    "categoryCode": "HHA",
    "licenseStatus": null,
    "inService": null,
    "licenseNumber": null,
    "licenseEffectiveDate": null,
    "licenseExpirationDate": null,
    "dataDate": "10/18/2025",
    "capacity": 0,
    "address": "1522 W GLENOAKS BLVD",
    "city": "GLENDALE",
    "zip": "91201",
    "county": "LOS ANGELES",
    "phone": "(818) 530-3333",
    "lat": 34.16880228,
    "lng": -118.2867635
  },
  {
    "id": "630020654",
    "name": "ASTRA HOSPICE SERVICES, INC",
    "npi": null,
    "hcaiId": "406197195",
    "businessName": "ASTRA HOSPICE SERVICES, INC",
    "contactEmail": "ASTRAHOSPICESERVICES@GMAIL.COM",
    "categoryName": "HOSPICE",
    "categoryCode": "HOSPICE",
    "licenseStatus": "ACTIVE",
    "inService": true,
    "licenseNumber": "550006442",
    "licenseEffectiveDate": "08/19/2025",
    "licenseExpirationDate": "05/27/2027",
    "dataDate": "10/18/2025",
    "capacity": 0,
    "address": "1915 WEST GLENOAKS BOULEVARD, SUITE 102",
    "city": "GLENDALE",
    "zip": "91201",
    "county": "LOS ANGELES",
    "phone": "(818) 343-4144",
    "lat": 34.17453646,
    "lng": -118.2938474
  },
  {
    "id": "630026720",
    "name": "ASTRO HOME HEALTH",
    "npi": null,
    "hcaiId": null,
    "businessName": "ASTRO HOME HEALTH",
    "contactEmail": "ASTROHHINC@GMAIL.COM",
    "categoryName": "HOME HEALTH AGENCY",
    "categoryCode": "HHA",
    "licenseStatus": "ACTIVE",
    "inService": true,
    "licenseNumber": "550009276",
    "licenseEffectiveDate": "07/13/2025",
    "licenseExpirationDate": "07/12/2026",
    "dataDate": "10/18/2025",
    "capacity": 0,
    "address": "6618 SAN FERNANDO RD, SUITE 208",
    "city": "GLENDALE",
    "zip": "91201",
    "county": "LOS ANGELES",
    "phone": "(747) 254-0707",
    "lat": 34.169436,
    "lng": -118.292571
  },
  {
    "id": "630026884",
    "name": "AVANT-GARDE HEALTH CARE",
    "npi": null,
    "hcaiId": null,
    "businessName": "AVANT-GARDE HEALTH CARE",
    "contactEmail": "AVANTGARDEHH@GMAIL.COM",
    "categoryName": "HOME HEALTH AGENCY",
    "categoryCode": "HHA",
    "licenseStatus": "ACTIVE",
    "inService": true,
    "licenseNumber": "550009789",
    "licenseEffectiveDate": "09/21/2025",
    "licenseExpirationDate": "03/20/2026",
    "dataDate": "10/18/2025",
    "capacity": 0,
    "address": "1110 SONORA AVE, SUITE 104",
    "city": "GLENDALE",
    "zip": "91201",
    "county": "LOS ANGELES",
    "phone": "(844) 866-9096",
    "lat": 34.168617,
    "lng": -118.2849525
  },
  {
    "id": "960001654",
    "name": "AVENUES PREGNANCY CLINIC OF GLENDALE",
    "npi": null,
    "hcaiId": "306194427",
    "businessName": "AVENUES GLENDALE CLINIC",
    "contactEmail": "MARJORIE@CALICHOICE.CLINIC",
    "categoryName": "PRIMARY CARE CLINIC",
    "categoryCode": "COMTYC",
    "licenseStatus": "ACTIVE",
    "inService": true,
    "licenseNumber": "960000813",
    "licenseEffectiveDate": "05/04/2025",
    "licenseExpirationDate": "05/03/2026",
    "dataDate": "10/18/2025",
    "capacity": 0,
    "address": "1911 W GLENOAKS BLVD, SUITE A",
    "city": "GLENDALE",
    "zip": "91201",
    "county": "LOS ANGELES",
    "phone": "(818) 843-0424",
    "lat": 34.174512,
    "lng": -118.293696
  },
  {
    "id": "630021701",
    "name": "BRIGHT PALLIATIVE AND HOSPICE, INC.",
    "npi": null,
    "hcaiId": "406193887",
    "businessName": "BRIGHT PALLIATIVE AND HOSPICE, INC.",
    "contactEmail": "BRIGHTPH@YAHOO.COM",
    "categoryName": "HOSPICE",
    "categoryCode": "HOSPICE",
    "licenseStatus": "ACTIVE",
    "inService": true,
    "licenseNumber": "550007141",
    "licenseEffectiveDate": "11/10/2025",
    "licenseExpirationDate": "11/09/2027",
    "dataDate": "10/18/2025",
    "capacity": 0,
    "address": "1314 W GLENOAKS BLVD, SUITE 202",
    "city": "GLENDALE",
    "zip": "91201",
    "county": "LOS ANGELES",
    "phone": "(747) 744-1001",
    "lat": 34.1664581,
    "lng": -118.2835553
  },
  {
    "id": "630026581",
    "name": "CARE IN STYLE HOME HEALTH CARE",
    "npi": null,
    "hcaiId": null,
    "businessName": "CARE IN STYLE HOME HEALTH CARE",
    "contactEmail": "CAREINSTYLEHHC@GMAIL.COM",
    "categoryName": "HOME HEALTH AGENCY",
    "categoryCode": "HHA",
    "licenseStatus": "ACTIVE",
    "inService": true,
    "licenseNumber": "550009292",
    "licenseEffectiveDate": "08/02/2025",
    "licenseExpirationDate": "08/01/2026",
    "dataDate": "10/18/2025",
    "capacity": 0,
    "address": "6618 SAN FERNANDO RD, SUITE 202",
    "city": "GLENDALE",
    "zip": "91201",
    "county": "LOS ANGELES",
    "phone": "(747) 424-4199",
    "lat": 34.169436,
    "lng": -118.292571
  },
  {
    "id": "630021970",
    "name": "CELESTINE HOME HEALTH CARE INC",
    "npi": null,
    "hcaiId": "406195589",
    "businessName": "CELESTINE HOME HEALTH CARE INC",
    "contactEmail": "CELESTINEHOMEHEALTHCARE@GMAIL.COM",
    "categoryName": "HOME HEALTH AGENCY",
    "categoryCode": "HHA",
    "licenseStatus": "ACTIVE",
    "inService": true,
    "licenseNumber": "550007430",
    "licenseEffectiveDate": "12/09/2024",
    "licenseExpirationDate": "12/08/2025",
    "dataDate": "10/18/2025",
    "capacity": 0,
    "address": "6618 SAN FERNANDO RD, UNIT 203",
    "city": "GLENDALE",
    "zip": "91201",
    "county": "LOS ANGELES",
    "phone": "(818) 858-2837",
    "lat": 34.16944001,
    "lng": -118.292591
  },
  {
    "id": "630016512",
    "name": "CENTRAL HOSPICE, INC.",
    "npi": "1326403163",
    "hcaiId": "406190834",
    "businessName": "CENTRAL HOSPICE, INC.",
    "contactEmail": "CENTRALHOSPICE@GMAIL.COM",
    "categoryName": "HOSPICE",
    "categoryCode": "HOSPICE",
    "licenseStatus": "ACTIVE",
    "inService": true,
    "licenseNumber": "550004186",
    "licenseEffectiveDate": "01/18/2024",
    "licenseExpirationDate": "01/17/2026",
    "dataDate": "10/18/2025",
    "capacity": 0,
    "address": "1110 SONORA AVE, SUITE 212",
    "city": "GLENDALE",
    "zip": "91201",
    "county": "LOS ANGELES",
    "phone": "(818) 951-8400",
    "lat": 34.168617,
    "lng": -118.2849525
  },
  {
    "id": "630021478",
    "name": "CHOSEN HOSPICE CARE",
    "npi": null,
    "hcaiId": "406193654",
    "businessName": "CHOSEN HOSPICE CARE",
    "contactEmail": "CHOSENHOSPICE@GMAIL.COM",
    "categoryName": "HOSPICE",
    "categoryCode": "HOSPICE",
    "licenseStatus": "ACTIVE",
    "inService": true,
    "licenseNumber": "550006857",
    "licenseEffectiveDate": "09/23/2025",
    "licenseExpirationDate": "09/22/2027",
    "dataDate": "10/18/2025",
    "capacity": 0,
    "address": "1737 VICTORY BLVD",
    "city": "GLENDALE",
    "zip": "91201",
    "county": "LOS ANGELES",
    "phone": "(818) 751-2288",
    "lat": 34.16233701,
    "lng": -118.301147
  },
  {
    "id": "630024156",
    "name": "CLEAR SKY HOME HEALTH CARE, INC.",
    "npi": null,
    "hcaiId": "406195829",
    "businessName": "CLEAR SKY HOME HEALTH CARE, INC.",
    "contactEmail": "CLEARSKYHOMEHEALTH@GMAIL.COM",
    "categoryName": "HOME HEALTH AGENCY",
    "categoryCode": "HHA",
    "licenseStatus": "ACTIVE",
    "inService": true,
    "licenseNumber": "550007943",
    "licenseEffectiveDate": "04/06/2025",
    "licenseExpirationDate": "04/05/2026",
    "dataDate": "10/18/2025",
    "capacity": 0,
    "address": "1915 W GLENOAKS BLVD, SUITE 201A",
    "city": "GLENDALE",
    "zip": "91201",
    "county": "LOS ANGELES",
    "phone": "(818) 538-7418",
    "lat": 34.174575,
    "lng": -118.2939345
  },
  {
    "id": "630013672",
    "name": "COMMUNITY PROFESSIONAL HOSPICE CARE, LLC",
    "npi": "1285903336",
    "hcaiId": "406197804",
    "businessName": "COMMUNITY PROFESSIONAL HOSPICE CARE, LLC",
    "contactEmail": "CPHOSPICE@GMAIL.COM",
    "categoryName": "HOSPICE",
    "categoryCode": "HOSPICE",
    "licenseStatus": "ACTIVE",
    "inService": true,
    "licenseNumber": "550002187",
    "licenseEffectiveDate": "12/27/2024",
    "licenseExpirationDate": "12/26/2026",
    "dataDate": "10/18/2025",
    "capacity": 0,
    "address": "1807 W GLENOAKS BLVD, SUITE 205",
    "city": "GLENDALE",
    "zip": "91201",
    "county": "LOS ANGELES",
    "phone": "(818) 781-1916",
    "lat": 34.173045,
    "lng": -118.2916665
  },
  {
    "id": "630017720",
    "name": "CONCIERGE HOME CARE, INC.",
    "npi": "1477069078",
    "hcaiId": "406191608",
    "businessName": "CONCIERGE HOME CARE, INC.",
    "contactEmail": "CONCIERGEHOMECAREINC@GMAIL.COM",
    "categoryName": "HOME HEALTH AGENCY",
    "categoryCode": "HHA",
    "licenseStatus": "ACTIVE",
    "inService": true,
    "licenseNumber": "550004641",
    "licenseEffectiveDate": "04/13/2025",
    "licenseExpirationDate": "04/12/2026",
    "dataDate": "10/18/2025",
    "capacity": 0,
    "address": "1110 SONORA AVE, SUITE 101",
    "city": "GLENDALE",
    "zip": "91201",
    "county": "LOS ANGELES",
    "phone": "(818) 588-4948",
    "lat": 34.168617,
    "lng": -118.2849525
  },
  {
    "id": "980002475",
    "name": "CONSTANT CARE HOME HEALTH AGENCY, INC.",
    "npi": null,
    "hcaiId": "406196690",
    "businessName": "CONSTANT CARE HOME HEALTH AGENCY, INC.",
    "contactEmail": "CONSTANTCAREHHA@YAHOO.COM",
    "categoryName": "HOME HEALTH AGENCY",
    "categoryCode": "HHA",
    "licenseStatus": "ACTIVE",
    "inService": false,
    "licenseNumber": "980001580",
    "licenseEffectiveDate": "01/21/2025",
    "licenseExpirationDate": "01/20/2026",
    "dataDate": "10/18/2025",
    "capacity": 0,
    "address": "1243 W GLENOAKS BLVD, SUITE A",
    "city": "GLENDALE",
    "zip": "91201",
    "county": "LOS ANGELES",
    "phone": "(818) 246-1133",
    "lat": 34.16625099,
    "lng": -118.282522
  },
  {
    "id": "920000015",
    "name": "DREIER'S NURSING CARE CENTER",
    "npi": "1952366460",
    "hcaiId": "206190248",
    "businessName": "KSM HEALTHCARE, INC.",
    "contactEmail": "INFO@NURSING-CARE.COM",
    "categoryName": "SKILLED NURSING FACILITY",
    "categoryCode": "SNF",
    "licenseStatus": "ACTIVE",
    "inService": true,
    "licenseNumber": "920000028",
    "licenseEffectiveDate": "06/30/2025",
    "licenseExpirationDate": "06/29/2026",
    "dataDate": "10/18/2025",
    "capacity": 53,
    "address": "1400 W GLENOAKS BLVD",
    "city": "GLENDALE",
    "zip": "91201",
    "county": "LOS ANGELES",
    "phone": "(818) 242-1183",
    "lat": 34.167042,
    "lng": -118.2848085
  },
  {
    "id": "630026577",
    "name": "EDAR HOME HEALTH CARE, INC.",
    "npi": null,
    "hcaiId": null,
    "businessName": "EDAR HOME HEALTH CARE, INC.",
    "contactEmail": "EDARHOMEHEALTHCARE@GMAIL.COM",
    "categoryName": "HOME HEALTH AGENCY",
    "categoryCode": "HHA",
    "licenseStatus": "ACTIVE",
    "inService": true,
    "licenseNumber": "550009983",
    "licenseEffectiveDate": "10/08/2025",
    "licenseExpirationDate": "04/07/2026",
    "dataDate": "10/18/2025",
    "capacity": 0,
    "address": "1524 W GLENOAKS BLVD, SUITE C",
    "city": "GLENDALE",
    "zip": "91201",
    "county": "LOS ANGELES",
    "phone": "(626) 500-0005",
    "lat": 34.168644,
    "lng": -118.2869235
  },
  {
    "id": "630017015",
    "name": "EMBER HOME HEALTH, INC.",
    "npi": null,
    "hcaiId": "406191775",
    "businessName": "EMBER HOME HEALTH, INC.",
    "contactEmail": "EMBERHHINC@GMAIL.COM",
    "categoryName": "HOME HEALTH AGENCY",
    "categoryCode": "HHA",
    "licenseStatus": "ACTIVE",
    "inService": true,
    "licenseNumber": "550004874",
    "licenseEffectiveDate": "04/05/2025",
    "licenseExpirationDate": "04/04/2026",
    "dataDate": "10/18/2025",
    "capacity": 0,
    "address": "1110 SONORA AVENUE, SUITE 106",
    "city": "GLENDALE",
    "zip": "91201",
    "county": "LOS ANGELES",
    "phone": "(818) 839-0397",
    "lat": 34.168617,
    "lng": -118.2849525
  },
  {
    "id": "630024454",
    "name": "EXCLUSIVE CHOICE HOME HEALTHCARE INC.",
    "npi": null,
    "hcaiId": "406195493",
    "businessName": "EXCLUSIVE CHOICE HOME HEALTHCARE INC.",
    "contactEmail": null,
    "categoryName": "HOME HEALTH AGENCY",
    "categoryCode": "HHA",
    "licenseStatus": "ACTIVE",
    "inService": true,
    "licenseNumber": "550008130",
    "licenseEffectiveDate": "08/18/2025",
    "licenseExpirationDate": "08/17/2026",
    "dataDate": "10/18/2025",
    "capacity": 0,
    "address": "1228 W GLENOAKS BLVD, UNIT A",
    "city": "GLENDALE",
    "zip": "91201",
    "county": "LOS ANGELES",
    "phone": "(747) 240-6905",
    "lat": 34.16544,
    "lng": -118.2825045
  },
  {
    "id": "630022824",
    "name": "FAST DOC HOME HEALTH INC",
    "npi": null,
    "hcaiId": "406195581",
    "businessName": "FAST DOC HOME HEALTH INC",
    "contactEmail": "FASTDOCHOMEHEALTH@GMAIL.COM",
    "categoryName": "HOME HEALTH AGENCY",
    "categoryCode": "HHA",
    "licenseStatus": "ACTIVE",
    "inService": true,
    "licenseNumber": "550007615",
    "licenseEffectiveDate": "12/22/2024",
    "licenseExpirationDate": "12/21/2025",
    "dataDate": "10/18/2025",
    "capacity": 0,
    "address": "1314 W GLENOAKS BLVD, SUITE 101A",
    "city": "GLENDALE",
    "zip": "91201",
    "county": "LOS ANGELES",
    "phone": "(424) 421-2696",
    "lat": 34.1664581,
    "lng": -118.2835553
  },
  {
    "id": "630026360",
    "name": "FIFTH DOC HOME HEALTH CARE",
    "npi": null,
    "hcaiId": null,
    "businessName": "FIFTH DOC HOME HEALTH CARE",
    "contactEmail": "FIFTHDOCHOMEHEALTH@GMAIL.COM",
    "categoryName": "HOME HEALTH AGENCY",
    "categoryCode": "HHA",
    "licenseStatus": "ACTIVE",
    "inService": true,
    "licenseNumber": "550009501",
    "licenseEffectiveDate": "03/24/2025",
    "licenseExpirationDate": "09/23/2025",
    "dataDate": "10/18/2025",
    "capacity": 0,
    "address": "440 WESTERN AVE, UNIT 105",
    "city": "GLENDALE",
    "zip": "91201",
    "county": "LOS ANGELES",
    "phone": "(626) 594-9079",
    "lat": 34.16292526,
    "lng": -118.2982532
  },
  {
    "id": "630023759",
    "name": "FIRST DOC HOME HEALTH, INC.",
    "npi": null,
    "hcaiId": "406196537",
    "businessName": "FIRST DOC HOME HEALTH, INC.",
    "contactEmail": "FIRSTDOCHC@YAHOO.COM",
    "categoryName": "HOME HEALTH AGENCY",
    "categoryCode": "HHA",
    "licenseStatus": "ACTIVE",
    "inService": true,
    "licenseNumber": "550008152",
    "licenseEffectiveDate": "08/30/2025",
    "licenseExpirationDate": "08/29/2026",
    "dataDate": "10/18/2025",
    "capacity": 0,
    "address": "440 WESTERN AVE, SUITE 102",
    "city": "GLENDALE",
    "zip": "91201",
    "county": "LOS ANGELES",
    "phone": "(870) 888-0888",
    "lat": 34.16292526,
    "lng": -118.2982532
  },
  {
    "id": "060001854",
    "name": "GLENDALE ADULT DAY HEALTH CARE CENTER",
    "npi": null,
    "hcaiId": null,
    "businessName": "GLENDALE ADULT DAY HEALTH CARE CENTER, INC.",
    "contactEmail": "GLENDALEADHC@YAHOO.COM",
    "categoryName": "ADULT DAY HEALTH CARE",
    "categoryCode": "ADHC",
    "licenseStatus": "ACTIVE",
    "inService": true,
    "licenseNumber": "060000671",
    "licenseEffectiveDate": "05/25/2025",
    "licenseExpirationDate": "05/24/2026",
    "dataDate": "10/18/2025",
    "capacity": 0,
    "address": "6900 SAN FERNANDO RD",
    "city": "GLENDALE",
    "zip": "91201",
    "county": "LOS ANGELES",
    "phone": "(818) 566-6688",
    "lat": 34.173297,
    "lng": -118.2978585
  },
  {
    "id": "630017488",
    "name": "GLENDALE HEIGHTS DIALYSIS",
    "npi": null,
    "hcaiId": "306198223",
    "businessName": "YARDS DIALYSIS LLC",
    "contactEmail": "CAL_C@DAVITA.COM",
    "categoryName": "CHRONIC DIALYSIS CLINIC",
    "categoryCode": "ESRD/CDC",
    "licenseStatus": "ACTIVE",
    "inService": true,
    "licenseNumber": "550004497",
    "licenseEffectiveDate": "01/04/2025",
    "licenseExpirationDate": "01/03/2026",
    "dataDate": "10/18/2025",
    "capacity": 33,
    "address": "6850 SAN FERNANDO RD",
    "city": "GLENDALE",
    "zip": "91201",
    "county": "LOS ANGELES",
    "phone": "(818) 563-6102",
    "lat": 34.173135,
    "lng": -118.2975615
  },
  {
    "id": "630019017",
    "name": "GLENOAKS HOME HEALTH, INC.",
    "npi": "1447810668",
    "hcaiId": "406192501",
    "businessName": "GLENOAKS HOME HEALTH, INC.",
    "contactEmail": "GLENOAKSHOMEHEALTH@GMAIL.COM",
    "categoryName": "HOME HEALTH AGENCY",
    "categoryCode": "HHA",
    "licenseStatus": "ACTIVE",
    "inService": true,
    "licenseNumber": "550005296",
    "licenseEffectiveDate": "02/11/2025",
    "licenseExpirationDate": "02/10/2026",
    "dataDate": "10/18/2025",
    "capacity": 0,
    "address": "1524 W GLENOAKS BLVD, SUITE A",
    "city": "GLENDALE",
    "zip": "91201",
    "county": "LOS ANGELES",
    "phone": "(818) 246-2121",
    "lat": 34.168644,
    "lng": -118.2869235
  },
  {
    "id": "630025212",
    "name": "GRANDVIEW HOME HEALTH CARE, INC.",
    "npi": null,
    "hcaiId": "406196820",
    "businessName": "GRANDVIEW HOME HEALTH CARE, INC.",
    "contactEmail": "GRANDVIEWHOMEHEALTH@GMAIL.COM",
    "categoryName": "HOME HEALTH AGENCY",
    "categoryCode": "HHA",
    "licenseStatus": "ACTIVE",
    "inService": true,
    "licenseNumber": "550008350",
    "licenseEffectiveDate": "01/20/2025",
    "licenseExpirationDate": "01/19/2026",
    "dataDate": "10/18/2025",
    "capacity": 0,
    "address": "1220 W GLENOAKS BLVD, SUITE 104",
    "city": "GLENDALE",
    "zip": "91201",
    "county": "LOS ANGELES",
    "phone": "(747) 300-0814",
    "lat": 34.165386,
    "lng": -118.282302
  },
  {
    "id": "630026050",
    "name": "GRATITUDE HOME HEALTH CARE INC.",
    "npi": null,
    "hcaiId": null,
    "businessName": "GRATITUDE HOME HEALTH CARE INC.",
    "contactEmail": "GRATITUDEHHCARE@GMAIL.COM",
    "categoryName": "HOME HEALTH AGENCY",
    "categoryCode": "HHA",
    "licenseStatus": "ACTIVE",
    "inService": true,
    "licenseNumber": "550009580",
    "licenseEffectiveDate": "05/19/2025",
    "licenseExpirationDate": "11/18/2025",
    "dataDate": "10/18/2025",
    "capacity": 0,
    "address": "1522 W GLENOAKS BLVD, SUITE D",
    "city": "GLENDALE",
    "zip": "91201",
    "county": "LOS ANGELES",
    "phone": "(747) 474-3030",
    "lat": 34.16880228,
    "lng": -118.2867635
  },
  {
    "id": "920000018",
    "name": "GRIFFITH PARK HEALTHCARE CENTER",
    "npi": "1922482678",
    "hcaiId": "206190322",
    "businessName": "GRIFFITH PARK REHABILITATION CENTER, LLC",
    "contactEmail": "ADMINISTRATOR@GRIFFITHPARKRC.COM",
    "categoryName": "SKILLED NURSING FACILITY",
    "categoryCode": "SNF",
    "licenseStatus": "ACTIVE",
    "inService": true,
    "licenseNumber": "920000035",
    "licenseEffectiveDate": "12/02/2024",
    "licenseExpirationDate": "12/01/2025",
    "dataDate": "10/18/2025",
    "capacity": 94,
    "address": "201 ALLEN AVE",
    "city": "GLENDALE",
    "zip": "91201",
    "county": "LOS ANGELES",
    "phone": "(818) 845-8507",
    "lat": 34.162785,
    "lng": -118.3057695
  },
  {
    "id": "630026047",
    "name": "HALO HOME HEALTH CARE INC",
    "npi": null,
    "hcaiId": null,
    "businessName": "HALO HOME HEALTH CARE INC",
    "contactEmail": "HALOHHCAREINC@GMAIL.COM",
    "categoryName": "HOME HEALTH AGENCY",
    "categoryCode": "HHA",
    "licenseStatus": "ACTIVE",
    "inService": true,
    "licenseNumber": "550009619",
    "licenseEffectiveDate": "06/13/2025",
    "licenseExpirationDate": "12/12/2025",
    "dataDate": "10/18/2025",
    "capacity": 0,
    "address": "1522 W GLENOAKS BLVD, SUITE E",
    "city": "GLENDALE",
    "zip": "91201",
    "county": "LOS ANGELES",
    "phone": "(747) 305-2888",
    "lat": 34.16880228,
    "lng": -118.2867635
  },
  {
    "id": "630018383",
    "name": "HOLISTIC HOSPICE CARE SERVICES, INC",
    "npi": null,
    "hcaiId": "406192230",
    "businessName": "HOLISTIC HOSPICE CARE SERVICES, INC.",
    "contactEmail": "HOLISTICHOSPICECARE@YAHOO.COM",
    "categoryName": "HOSPICE",
    "categoryCode": "HOSPICE",
    "licenseStatus": "ACTIVE",
    "inService": true,
    "licenseNumber": "550005226",
    "licenseEffectiveDate": "01/18/2024",
    "licenseExpirationDate": "01/17/2026",
    "dataDate": "10/18/2025",
    "capacity": 0,
    "address": "1616 VICTORY BLVD, SUITE 202",
    "city": "GLENDALE",
    "zip": "91201",
    "county": "LOS ANGELES",
    "phone": "(818) 484-5023",
    "lat": 34.15995,
    "lng": -118.299186
  },
  {
    "id": "630020860",
    "name": "HOSPICE OF GENTLE CARE, INC.",
    "npi": null,
    "hcaiId": "406197572",
    "businessName": "HOSPICE OF GENTLE CARE, INC.",
    "contactEmail": "HOSPICEGENTLE@GMAIL.COM",
    "categoryName": "HOSPICE",
    "categoryCode": "HOSPICE",
    "licenseStatus": "ACTIVE",
    "inService": true,
    "licenseNumber": "550006546",
    "licenseEffectiveDate": "07/20/2025",
    "licenseExpirationDate": "07/19/2027",
    "dataDate": "10/18/2025",
    "capacity": 0,
    "address": "6637 SAN FERNANDO RD, UNIT B",
    "city": "GLENDALE",
    "zip": "91201",
    "county": "LOS ANGELES",
    "phone": "(747) 205-1362",
    "lat": 34.1694605,
    "lng": -118.2935956
  },
  {
    "id": "630022327",
    "name": "ITERNITI HOME HEALTH CARE",
    "npi": null,
    "hcaiId": "406195609",
    "businessName": "ITERNITI INC.",
    "contactEmail": "INFO@ITERNITI.COM",
    "categoryName": "HOME HEALTH AGENCY",
    "categoryCode": "HHA",
    "licenseStatus": "ACTIVE",
    "inService": true,
    "licenseNumber": "550008160",
    "licenseEffectiveDate": "03/06/2023",
    "licenseExpirationDate": "09/05/2023",
    "dataDate": "10/18/2025",
    "capacity": 0,
    "address": "820 THOMPSON AVE, UNIT 1",
    "city": "GLENDALE",
    "zip": "91201",
    "county": "LOS ANGELES",
    "phone": "(747) 301-3014",
    "lat": 34.168095,
    "lng": -118.295397
  },
  {
    "id": "630020571",
    "name": "LIFE & HOPE HOME HEALTH CARE INC",
    "npi": null,
    "hcaiId": "406195301",
    "businessName": "LIFE & HOPE HOME HEALTH CARE INC",
    "contactEmail": "LIFEHOPEHHC@GMAIL.COM",
    "categoryName": "HOME HEALTH AGENCY",
    "categoryCode": "HHA",
    "licenseStatus": "ACTIVE",
    "inService": true,
    "licenseNumber": "550006689",
    "licenseEffectiveDate": "08/09/2025",
    "licenseExpirationDate": "08/08/2026",
    "dataDate": "10/18/2025",
    "capacity": 0,
    "address": "1807 W GLENOAKS BLVD, SUITE 203",
    "city": "GLENDALE",
    "zip": "91201",
    "county": "LOS ANGELES",
    "phone": "(747) 270-9988",
    "lat": 34.172999,
    "lng": -118.291728
  },
  {
    "id": "630026862",
    "name": "M&R HOME HEALTH SERVICES INC",
    "npi": null,
    "hcaiId": null,
    "businessName": "M & R HOME HEALTH SERVICES INC",
    "contactEmail": "MRHHSERVICES@YAHOO.COM",
    "categoryName": "HOME HEALTH AGENCY",
    "categoryCode": "HHA",
    "licenseStatus": "ACTIVE",
    "inService": true,
    "licenseNumber": "550009140",
    "licenseEffectiveDate": "11/02/2024",
    "licenseExpirationDate": "05/01/2025",
    "dataDate": "10/18/2025",
    "capacity": 0,
    "address": "1516 W GLENOAKS BLVD, UNIT A",
    "city": "GLENDALE",
    "zip": "91201",
    "county": "LOS ANGELES",
    "phone": "(818) 296-7276",
    "lat": 34.168464,
    "lng": -118.2866805
  },
  {
    "id": "630018538",
    "name": "NORRIS HOME HEALTH, INC.",
    "npi": "1306319785",
    "hcaiId": "406191851",
    "businessName": "NORRIS HOME HEALTH, INC.",
    "contactEmail": "NORRISHOMEHEALTH@GMAIL.COM",
    "categoryName": "HOME HEALTH AGENCY",
    "categoryCode": "HHA",
    "licenseStatus": "ACTIVE",
    "inService": true,
    "licenseNumber": "550005041",
    "licenseEffectiveDate": "10/26/2025",
    "licenseExpirationDate": "10/25/2026",
    "dataDate": "10/18/2025",
    "capacity": 0,
    "address": "1314 W GLENOAKS BLVD, SUITE 103A",
    "city": "GLENDALE",
    "zip": "91201",
    "county": "LOS ANGELES",
    "phone": "(747) 222-6189",
    "lat": 34.1664581,
    "lng": -118.2835553
  },
  {
    "id": "630025395",
    "name": "NS VISITING SERVICES INC",
    "npi": null,
    "hcaiId": "406197571",
    "businessName": "NS VISITING SERVICES INC",
    "contactEmail": "4NSVISITING@GMAIL.COM",
    "categoryName": "HOME HEALTH AGENCY",
    "categoryCode": "HHA",
    "licenseStatus": "ACTIVE",
    "inService": true,
    "licenseNumber": "550008763",
    "licenseEffectiveDate": "03/25/2024",
    "licenseExpirationDate": "09/24/2024",
    "dataDate": "10/18/2025",
    "capacity": 0,
    "address": "1915 W GLENOAKS BLVD, SUITE 202A",
    "city": "GLENDALE",
    "zip": "91201",
    "county": "LOS ANGELES",
    "phone": "(800) 353-7137",
    "lat": 34.174575,
    "lng": -118.2939345
  },
  {
    "id": "630013217",
    "name": "NUR HOME HEALTH CARE, INC.",
    "npi": null,
    "hcaiId": "406197789",
    "businessName": "NUR HOME HEALTH CARE, INC.",
    "contactEmail": "INFO@NURHHC.COM",
    "categoryName": "HOME HEALTH AGENCY",
    "categoryCode": "HHA",
    "licenseStatus": "ACTIVE",
    "inService": true,
    "licenseNumber": "550002043",
    "licenseEffectiveDate": "08/09/2025",
    "licenseExpirationDate": "08/08/2026",
    "dataDate": "10/18/2025",
    "capacity": 0,
    "address": "1905 VICTORY BOULEVARD, #11",
    "city": "GLENDALE",
    "zip": "91201",
    "county": "LOS ANGELES",
    "phone": "(818) 566-1300",
    "lat": 34.164405,
    "lng": -118.3040685
  },
  {
    "id": "630020664",
    "name": "OUR CARE HOSPICE, INC.",
    "npi": null,
    "hcaiId": null,
    "businessName": "OUR CARE HOSPICE,INC.",
    "contactEmail": "OURCAREHOSP@GMAIL.COM",
    "categoryName": "HOSPICE",
    "categoryCode": "HOSPICE",
    "licenseStatus": "ACTIVE",
    "inService": true,
    "licenseNumber": "550006609",
    "licenseEffectiveDate": "07/20/2025",
    "licenseExpirationDate": "07/19/2027",
    "dataDate": "10/18/2025",
    "capacity": 0,
    "address": "6637 SAN FERNANDO RD, UNIT A",
    "city": "GLENDALE",
    "zip": "91201",
    "county": "LOS ANGELES",
    "phone": "(747) 240-5080",
    "lat": 34.1694605,
    "lng": -118.2935956
  },
  {
    "id": "630019087",
    "name": "PRIME CARE HOSPICE INC",
    "npi": null,
    "hcaiId": "406192084",
    "businessName": "PRIME CARE HOSPICE INC",
    "contactEmail": "PRIMECARE@HOSPICE-INC.COM",
    "categoryName": "HOSPICE",
    "categoryCode": "HOSPICE",
    "licenseStatus": "ACTIVE",
    "inService": true,
    "licenseNumber": "550005118",
    "licenseEffectiveDate": "11/16/2023",
    "licenseExpirationDate": "11/15/2025",
    "dataDate": "10/18/2025",
    "capacity": 0,
    "address": "1540 W GLENOAKS BLVD, 203",
    "city": "GLENDALE",
    "zip": "91201",
    "county": "LOS ANGELES",
    "phone": "(818) 937-2666",
    "lat": 34.169049,
    "lng": -118.2875355
  },
  {
    "id": "630023445",
    "name": "PRIMETIME HOME HEALTH SERVICES",
    "npi": null,
    "hcaiId": "406195361",
    "businessName": "PRIMETIME HOME HEALTH SERVICES",
    "contactEmail": "PRIMETIMEHOSP@GMAIL.COM",
    "categoryName": "HOME HEALTH AGENCY",
    "categoryCode": "HHA",
    "licenseStatus": "ACTIVE",
    "inService": true,
    "licenseNumber": "550007972",
    "licenseEffectiveDate": "04/27/2025",
    "licenseExpirationDate": "04/26/2026",
    "dataDate": "10/18/2025",
    "capacity": 0,
    "address": "1522 W GLENOAKS BLVD, UNIT F",
    "city": "GLENDALE",
    "zip": "91201",
    "county": "LOS ANGELES",
    "phone": "(818) 839-5842",
    "lat": 34.16877865,
    "lng": -118.2867298
  },
  {
    "id": "630011355",
    "name": "PROGRESSIVE HOME HEALTH CARE, INC.",
    "npi": "1417158916",
    "hcaiId": "406197205",
    "businessName": "PROGRESSIVE HOME HEALTH CARE, INC.",
    "contactEmail": "PROGRESSIVEHH@YAHOO.COM",
    "categoryName": "HOME HEALTH AGENCY",
    "categoryCode": "HHA",
    "licenseStatus": "ACTIVE",
    "inService": true,
    "licenseNumber": "550000899",
    "licenseEffectiveDate": "02/03/2025",
    "licenseExpirationDate": "02/02/2026",
    "dataDate": "10/18/2025",
    "capacity": 0,
    "address": "1314 W GLENOAKS BLVD, SUITE 204",
    "city": "GLENDALE",
    "zip": "91201",
    "county": "LOS ANGELES",
    "phone": "(818) 553-1511",
    "lat": 34.1664581,
    "lng": -118.2835553
  },
  {
    "id": "630017813",
    "name": "PROMED HEALTH PROVIDERS INC.",
    "npi": "1780194159",
    "hcaiId": "406191738",
    "businessName": "PROMED HEALTH PROVIDERS INC.",
    "contactEmail": "PROMEDHEALTHPROVIDERS@GMAIL.COM",
    "categoryName": "HOME HEALTH AGENCY",
    "categoryCode": "HHA",
    "licenseStatus": "ACTIVE",
    "inService": true,
    "licenseNumber": "550004756",
    "licenseEffectiveDate": "06/19/2025",
    "licenseExpirationDate": "06/18/2026",
    "dataDate": "10/18/2025",
    "capacity": 0,
    "address": "1614 VICTORY BLVD., SUITE 104",
    "city": "GLENDALE",
    "zip": "91201",
    "county": "LOS ANGELES",
    "phone": "(818) 392-8080",
    "lat": 34.159869,
    "lng": -118.299051
  },
  {
    "id": "630024533",
    "name": "SECOND DOC HOME HEALTH, INC",
    "npi": null,
    "hcaiId": "406197232",
    "businessName": "SECOND DOC HOME HEALTH, INC",
    "contactEmail": "SECONDDOCHOMEHEALTH@GMAIL.COM",
    "categoryName": "HOME HEALTH AGENCY",
    "categoryCode": "HHA",
    "licenseStatus": "ACTIVE",
    "inService": true,
    "licenseNumber": "550008517",
    "licenseEffectiveDate": "06/20/2025",
    "licenseExpirationDate": "03/27/2026",
    "dataDate": "10/18/2025",
    "capacity": 0,
    "address": "440 WESTERN AVE, UNIT 102A",
    "city": "GLENDALE",
    "zip": "91201",
    "county": "LOS ANGELES",
    "phone": "(818) 850-4032",
    "lat": 34.16292526,
    "lng": -118.2982532
  },
  {
    "id": "630020889",
    "name": "SENIOR SOLUTION HOME HEALTH INC",
    "npi": null,
    "hcaiId": "406195272",
    "businessName": "SENIOR SOLUTION HOME HEALTH INC.",
    "contactEmail": "INFO@SENIORSOLUTIONHOMEHEALTH.COM",
    "categoryName": "HOME HEALTH AGENCY",
    "categoryCode": "HHA",
    "licenseStatus": "ACTIVE",
    "inService": true,
    "licenseNumber": "550006436",
    "licenseEffectiveDate": "06/21/2025",
    "licenseExpirationDate": "06/20/2026",
    "dataDate": "10/18/2025",
    "capacity": 0,
    "address": "1915 W GLENOAKS BLVD, UNIT 201",
    "city": "GLENDALE",
    "zip": "91201",
    "county": "LOS ANGELES",
    "phone": "(818) 975-8777",
    "lat": 34.174575,
    "lng": -118.2939345
  },
  {
    "id": "630019912",
    "name": "SHA HOME HEALTH CARE, INC.",
    "npi": "1093349318",
    "hcaiId": "406192439",
    "businessName": "SHA HOME HEALTH CARE, INC.",
    "contactEmail": "SHAHOMEHEALTH@GMAIL.COM",
    "categoryName": "HOME HEALTH AGENCY",
    "categoryCode": "HHA",
    "licenseStatus": "ACTIVE",
    "inService": true,
    "licenseNumber": "550005482",
    "licenseEffectiveDate": "05/29/2025",
    "licenseExpirationDate": "05/28/2026",
    "dataDate": "10/18/2025",
    "capacity": 0,
    "address": "1915 W GLENOAKS BLVD, SUITE 202",
    "city": "GLENDALE",
    "zip": "91201",
    "county": "LOS ANGELES",
    "phone": "(747) 231-3550",
    "lat": 34.174575,
    "lng": -118.2939345
  },
  {
    "id": "630021235",
    "name": "SIGNIFICANT HOSPICE CARE, INC.",
    "npi": null,
    "hcaiId": "406193950",
    "businessName": "SIGNIFICANT HOSPICE CARE, INC.",
    "contactEmail": "SIGNIFICANTHOSPICE@GMAIL.COM",
    "categoryName": "HOSPICE",
    "categoryCode": "HOSPICE",
    "licenseStatus": "ACTIVE",
    "inService": true,
    "licenseNumber": "550007136",
    "licenseEffectiveDate": "11/04/2023",
    "licenseExpirationDate": "11/03/2025",
    "dataDate": "10/18/2025",
    "capacity": 0,
    "address": "1220 W GLENOAKS BLVD, SUITE 203",
    "city": "GLENDALE",
    "zip": "91201",
    "county": "LOS ANGELES",
    "phone": "(747) 240-6633",
    "lat": 34.165386,
    "lng": -118.282302
  },
  {
    "id": "630020634",
    "name": "SOCAL INTEGRATED CARE, INC.",
    "npi": null,
    "hcaiId": "406195691",
    "businessName": "SOCAL INTEGRATED CARE, INC.",
    "contactEmail": "INFO.SOCALINTEGRATEDCARE@GMAIL.COM",
    "categoryName": "HOME HEALTH AGENCY",
    "categoryCode": "HHA",
    "licenseStatus": "ACTIVE",
    "inService": true,
    "licenseNumber": "550006655",
    "licenseEffectiveDate": "07/28/2025",
    "licenseExpirationDate": "07/27/2026",
    "dataDate": "10/18/2025",
    "capacity": 0,
    "address": "1220 W GLENOAKS BLVD, SUITE 102",
    "city": "GLENDALE",
    "zip": "91201",
    "county": "LOS ANGELES",
    "phone": "(818) 305-5054",
    "lat": 34.165386,
    "lng": -118.282302
  },
  {
    "id": "630012895",
    "name": "SPECTRUM HOSPICE, INC.",
    "npi": "1554639615",
    "hcaiId": "406197628",
    "businessName": "SPECTRUM HOSPICE, INC.",
    "contactEmail": "SPECTRUM_HOSPICE@YAHOO.COM",
    "categoryName": "HOSPICE",
    "categoryCode": "HOSPICE",
    "licenseStatus": "ACTIVE",
    "inService": true,
    "licenseNumber": "550001688",
    "licenseEffectiveDate": "11/05/2023",
    "licenseExpirationDate": "11/04/2025",
    "dataDate": "10/18/2025",
    "capacity": 0,
    "address": "1925 W GLENOAKS BLVD",
    "city": "GLENDALE",
    "zip": "91201",
    "county": "LOS ANGELES",
    "phone": "(818) 524-2700",
    "lat": 34.174755,
    "lng": -118.294164
  },
  {
    "id": "630023810",
    "name": "STANDARD HOME CARE, INC.",
    "npi": null,
    "hcaiId": "406195240",
    "businessName": "STANDARD HOME CARE, INC.",
    "contactEmail": "STANDARDHOMECARE@YAHOO.COM",
    "categoryName": "HOME HEALTH AGENCY",
    "categoryCode": "HHA",
    "licenseStatus": "ACTIVE",
    "inService": true,
    "licenseNumber": "550007917",
    "licenseEffectiveDate": "03/31/2025",
    "licenseExpirationDate": "03/30/2026",
    "dataDate": "10/18/2025",
    "capacity": 0,
    "address": "1708 STANDARD AVE, UNIT A",
    "city": "GLENDALE",
    "zip": "91201",
    "county": "LOS ANGELES",
    "phone": "(747) 302-2010",
    "lat": 34.168257,
    "lng": -118.29375
  },
  {
    "id": "630020262",
    "name": "STATEWIDE HOSPICE INC",
    "npi": null,
    "hcaiId": "406193511",
    "businessName": "STATEWIDE HOSPICE, INC.",
    "contactEmail": "STATEWIDEHOSPICE@YAHOO.COM",
    "categoryName": "HOSPICE",
    "categoryCode": "HOSPICE",
    "licenseStatus": "ACTIVE",
    "inService": true,
    "licenseNumber": "550006745",
    "licenseEffectiveDate": "05/13/2025",
    "licenseExpirationDate": "05/12/2027",
    "dataDate": "10/18/2025",
    "capacity": 0,
    "address": "1110 SONORA AVE, SUITE 103",
    "city": "GLENDALE",
    "zip": "91201",
    "county": "LOS ANGELES",
    "phone": "(818) 937-9095",
    "lat": 34.168617,
    "lng": -118.2849525
  },
  {
    "id": "630026396",
    "name": "STERLING HOME HEALTH CARE INC.",
    "npi": null,
    "hcaiId": null,
    "businessName": "STERLING HOME HEALTH CARE INC.",
    "contactEmail": "STERLINGHOMEHEALTHCAREINC@GMAIL.COM",
    "categoryName": "HOME HEALTH AGENCY",
    "categoryCode": "HHA",
    "licenseStatus": "ACTIVE",
    "inService": true,
    "licenseNumber": "550009708",
    "licenseEffectiveDate": "08/24/2025",
    "licenseExpirationDate": "02/23/2026",
    "dataDate": "10/18/2025",
    "capacity": 0,
    "address": "1524 W GLENOAKS BLVD, SUITE B",
    "city": "GLENDALE",
    "zip": "91201",
    "county": "LOS ANGELES",
    "phone": "(818) 468-3757",
    "lat": 34.16868299,
    "lng": -118.286971
  },
  {
    "id": "630016281",
    "name": "SUNFLOWER CLHF",
    "npi": null,
    "hcaiId": "206190225",
    "businessName": "SUNFLOWER CLHF, INC.",
    "contactEmail": "ADMIN@SUNFLOWERCLHF.COM",
    "categoryName": "CONGREGATE LIVING HEALTH FACILITY",
    "categoryCode": "CLHF",
    "licenseStatus": "ACTIVE",
    "inService": true,
    "licenseNumber": "550005400",
    "licenseEffectiveDate": "04/01/2025",
    "licenseExpirationDate": "03/31/2026",
    "dataDate": "10/18/2025",
    "capacity": 12,
    "address": "1058 RUBERTA AVENUE",
    "city": "GLENDALE",
    "zip": "91201",
    "county": "LOS ANGELES",
    "phone": "(818) 489-0062",
    "lat": 34.168338,
    "lng": -118.2869595
  },
  {
    "id": "630026142",
    "name": "TOP HOME HEALTH INC.",
    "npi": null,
    "hcaiId": null,
    "businessName": "TOP HOME HEALTH INC.",
    "contactEmail": "TOPHOMEHEALTHINC@GMAIL.COM",
    "categoryName": "HOME HEALTH AGENCY",
    "categoryCode": "HHA",
    "licenseStatus": "ACTIVE",
    "inService": true,
    "licenseNumber": "550009717",
    "licenseEffectiveDate": "09/14/2025",
    "licenseExpirationDate": "03/13/2026",
    "dataDate": "10/18/2025",
    "capacity": 0,
    "address": "1417 W KENNETH RD, SUITE B",
    "city": "GLENDALE",
    "zip": "91201",
    "county": "LOS ANGELES",
    "phone": "(747) 500-0026",
    "lat": 34.17288099,
    "lng": -118.279915
  },
  {
    "id": "630014430",
    "name": "UNITED HOSPICE, INC",
    "npi": "1437401197",
    "hcaiId": "406183022",
    "businessName": "UNITED HOSPICE, INC",
    "contactEmail": "UNITEDHOSPICE1@GMAIL.COM",
    "categoryName": "HOSPICE",
    "categoryCode": "HOSPICE",
    "licenseStatus": "ACTIVE",
    "inService": true,
    "licenseNumber": "550002523",
    "licenseEffectiveDate": "12/09/2021",
    "licenseExpirationDate": "12/08/2023",
    "dataDate": "10/18/2025",
    "capacity": 0,
    "address": "1220 W GLENOAKS BLVD, SUITE 204",
    "city": "GLENDALE",
    "zip": "91201",
    "county": "LOS ANGELES",
    "phone": "(747) 240-6646",
    "lat": 34.165386,
    "lng": -118.282302
  },
  {
    "id": "630026843",
    "name": "UNITY HOME HEALTH.",
    "npi": null,
    "hcaiId": null,
    "businessName": "UNITY HOME HEALTH, INC",
    "contactEmail": "LILIT@UNITYHOMEH.COM",
    "categoryName": "HOME HEALTH AGENCY",
    "categoryCode": "HHA",
    "licenseStatus": "ACTIVE",
    "inService": true,
    "licenseNumber": "550009280",
    "licenseEffectiveDate": "07/12/2025",
    "licenseExpirationDate": "07/11/2026",
    "dataDate": "10/18/2025",
    "capacity": 0,
    "address": "1314 W GLENOAKS BLVD, SUITE 206",
    "city": "GLENDALE",
    "zip": "91201",
    "county": "LOS ANGELES",
    "phone": "(818) 683-7007",
    "lat": 34.1664581,
    "lng": -118.2835553
  },
  {
    "id": "630017603",
    "name": "UNIVERSAL CARE GROUP INC.",
    "npi": "1396256939",
    "hcaiId": "406191389",
    "businessName": "UNIVERSAL CARE GROUP INC.",
    "contactEmail": "UNIVERSALCAREGROUP@GMAIL.COM",
    "categoryName": "HOME HEALTH AGENCY",
    "categoryCode": "HHA",
    "licenseStatus": "ACTIVE",
    "inService": true,
    "licenseNumber": "550004521",
    "licenseEffectiveDate": "01/17/2025",
    "licenseExpirationDate": "01/16/2026",
    "dataDate": "10/18/2025",
    "capacity": 0,
    "address": "1516 W GLENOAKS BLVD, SUITE C",
    "city": "GLENDALE",
    "zip": "91201",
    "county": "LOS ANGELES",
    "phone": "(818) 937-9420",
    "lat": 34.168464,
    "lng": -118.2866805
  },
  {
    "id": "630021651",
    "name": "VERANDA HOME HEALTH CARE INC",
    "npi": null,
    "hcaiId": "406195775",
    "businessName": "VERANDA HOME HEALTH CARE INC",
    "contactEmail": "VERANDAHOMEHEALTH@GMAIL.COM",
    "categoryName": "HOME HEALTH AGENCY",
    "categoryCode": "HHA",
    "licenseStatus": "ACTIVE",
    "inService": true,
    "licenseNumber": "550007801",
    "licenseEffectiveDate": "01/19/2025",
    "licenseExpirationDate": "01/18/2026",
    "dataDate": "10/18/2025",
    "capacity": 0,
    "address": "1220 W GLENOAKS BLVD, SUITE 204A",
    "city": "GLENDALE",
    "zip": "91201",
    "county": "LOS ANGELES",
    "phone": "(818) 636-3675",
    "lat": 34.165386,
    "lng": -118.282302
  },
  {
    "id": "630021652",
    "name": "VERANDA HOSPICE & PALLIATIVE CARE INC",
    "npi": null,
    "hcaiId": "406197630",
    "businessName": "VERANDA HOSPICE & PALLIATIVE CARE INC",
    "contactEmail": "VERANDAHOSPICE@GMAIL.COM",
    "categoryName": "HOSPICE",
    "categoryCode": "HOSPICE",
    "licenseStatus": "ACTIVE",
    "inService": true,
    "licenseNumber": "550007372",
    "licenseEffectiveDate": "12/01/2023",
    "licenseExpirationDate": "11/30/2025",
    "dataDate": "10/18/2025",
    "capacity": 0,
    "address": "1220 W GLENOAKS BLVD, SUITE 204B",
    "city": "GLENDALE",
    "zip": "91201",
    "county": "LOS ANGELES",
    "phone": "(818) 636-3608",
    "lat": 34.165386,
    "lng": -118.282302
  },
  {
    "id": "060001821",
    "name": "VICTORY ADULT DAY HEALTH CENTER",
    "npi": null,
    "hcaiId": null,
    "businessName": "HICHOICE HEALTH CARE, INC.",
    "contactEmail": "VICTORYADHC@YAHOO.COM",
    "categoryName": "ADULT DAY HEALTH CARE",
    "categoryCode": "ADHC",
    "licenseStatus": "ACTIVE",
    "inService": true,
    "licenseNumber": "060000638",
    "licenseEffectiveDate": "11/15/2024",
    "licenseExpirationDate": "11/14/2025",
    "dataDate": "10/18/2025",
    "capacity": 0,
    "address": "1745 VICTORY BLVD",
    "city": "GLENDALE",
    "zip": "91201",
    "county": "LOS ANGELES",
    "phone": "(818) 500-4114",
    "lat": 34.162461,
    "lng": -118.301391
  },
  {
    "id": "630026296",
    "name": "WISDOM HOME HEALTH CARE INC.",
    "npi": null,
    "hcaiId": null,
    "businessName": "WISDOM HOME HEALTH CARE INC.",
    "contactEmail": "WISDOMHHCARE@GMAIL.COM",
    "categoryName": "HOME HEALTH AGENCY",
    "categoryCode": "HHA",
    "licenseStatus": "ACTIVE",
    "inService": true,
    "licenseNumber": "550009189",
    "licenseEffectiveDate": "06/14/2025",
    "licenseExpirationDate": "06/13/2026",
    "dataDate": "10/18/2025",
    "capacity": 0,
    "address": "1522 W GLENOAKS BLVD, SUITE H",
    "city": "GLENDALE",
    "zip": "91201",
    "county": "LOS ANGELES",
    "phone": "(747) 777-0670",
    "lat": 34.16880228,
    "lng": -118.2867635
  }
]