[
  {
    "id": "630023748",
    "name": "A AND N HOME HEALTH CARE",
    "npi": null,
    "hcaiId": "406195453",
    "businessName": "A AND N HOME HEALTH CARE",
    "contactEmail": "AANDNHOMEHEALTH@GMAIL.COM",
    "categoryName": "HOME HEALTH AGENCY",
    "categoryCode": "HHA",
    "licenseStatus": "ACTIVE",
    "inService": true,
    "licenseNumber": "550008075",
    "licenseEffectiveDate": "07/05/2025",
    "licenseExpirationDate": "07/04/2026",
    "dataDate": "10/18/2025",
    "capacity": 0,
    "address": "3857 FOOTHILL BLVD, SUITE 17",
    "city": "GLENDALE",
    "zip": "91214",
    "county": "LOS ANGELES",
    "phone": "(818) 523-8677",
    "lat": 34.23923201,
    "lng": -118.263429
  },
  {
    "id": "630021194",
    "name": "ALLSTAR HOSPICE CARE INC",
    "npi": null,
    "hcaiId": "406193752",
    "businessName": "ALLSTAR HOSPICE CARE INC",
    "contactEmail": "ALLSTARHOSPICE23@GMAIL.COM",
    "categoryName": "HOSPICE",
    "categoryCode": "HOSPICE",
    "licenseStatus": "ACTIVE",
    "inService": true,
    "licenseNumber": "550006513",
    "licenseEffectiveDate": "12/11/2024",
    "licenseExpirationDate": "07/01/2025",
    "dataDate": "10/18/2025",
    "capacity": 0,
    "address": "2626 FOOTHILL BLVD, SUITE 203",
    "city": "LA CRESCENTA",
    "zip": "91214",
    "county": "LOS ANGELES",
    "phone": "(818) 369-7322",
    "lat": 34.22163902,
    "lng": -118.236534
  },
  {
    "id": "630019446",
    "name": "ALWAYS YES HOME HEALTH CARE, INC.",
    "npi": "1497396972",
    "hcaiId": "406192523",
    "businessName": "ALWAYS YES HOME HEALTH CARE, INC",
    "contactEmail": "INFO@ALWAYSYES.ORG",
    "categoryName": "HOME HEALTH AGENCY",
    "categoryCode": "HHA",
    "licenseStatus": "ACTIVE",
    "inService": true,
    "licenseNumber": "550005358",
    "licenseEffectiveDate": "08/06/2025",
    "licenseExpirationDate": "03/13/2026",
    "dataDate": "10/18/2025",
    "capacity": 0,
    "address": "3959 FOOTHILL BLVD, SUITE 307",
    "city": "LA CRESCENTA",
    "zip": "91214",
    "county": "LOS ANGELES",
    "phone": "(818) 387-6696",
    "lat": 34.24043301,
    "lng": -118.265683
  },
  {
    "id": "630019887",
    "name": "ANGEL'S PURE HOSPICE CARE, INC",
    "npi": null,
    "hcaiId": "406196142",
    "businessName": "ANGEL'S PURE HOSPICE CARE, INC",
    "contactEmail": "ANGELSPUREHOSPICECARE@GMAIL.COM",
    "categoryName": "HOSPICE",
    "categoryCode": "HOSPICE",
    "licenseStatus": "ACTIVE",
    "inService": true,
    "licenseNumber": "550005954",
    "licenseEffectiveDate": "12/03/2024",
    "licenseExpirationDate": "12/02/2026",
    "dataDate": "10/18/2025",
    "capacity": 0,
    "address": "3800 LA CRESCENTA AVE, SUITE 204",
    "city": "LA CRESCENTA",
    "zip": "91214",
    "county": "LOS ANGELES",
    "phone": "(818) 275-3070",
    "lat": 34.21151316,
    "lng": -118.2399433
  },
  {
    "id": "630021949",
    "name": "BEST OF HOME HEALTH, INC.",
    "npi": null,
    "hcaiId": "406195539",
    "businessName": "BEST OF HOME HEALTH, INC..",
    "contactEmail": "BESTOFHOMEHEALTH@GMAIL.COM",
    "categoryName": "HOME HEALTH AGENCY",
    "categoryCode": "HHA",
    "licenseStatus": "ACTIVE",
    "inService": true,
    "licenseNumber": "550007350",
    "licenseEffectiveDate": "10/13/2025",
    "licenseExpirationDate": "10/12/2026",
    "dataDate": "10/18/2025",
    "capacity": 0,
    "address": "3800 LA CRESCENTA AVE, SUITE 207",
    "city": "LA CRESCENTA",
    "zip": "91214",
    "county": "LOS ANGELES",
    "phone": "(213) 205-2525",
    "lat": 34.2115057,
    "lng": -118.2399178
  },
  {
    "id": "630025939",
    "name": "BIDZ HOME HEALTH CARE, INC",
    "npi": null,
    "hcaiId": null,
    "businessName": "BIDZ HOME HEALTH CARE, INC.",
    "contactEmail": "BIDZHOMEHEALTHCARE@GMAIL.COM",
    "categoryName": "HOME HEALTH AGENCY",
    "categoryCode": "HHA",
    "licenseStatus": "ACTIVE",
    "inService": true,
    "licenseNumber": "550009406",
    "licenseEffectiveDate": "09/09/2025",
    "licenseExpirationDate": "09/08/2026",
    "dataDate": "10/18/2025",
    "capacity": 0,
    "address": "2930 HONOLULU AVE, SUITE 202",
    "city": "GLENDALE",
    "zip": "91214",
    "county": "LOS ANGELES",
    "phone": "(747) 255-5043",
    "lat": 34.21286899,
    "lng": -118.24319
  },
  {
    "id": "630016053",
    "name": "BLISS HOME HEALTH CARE, INC.",
    "npi": "1952781791",
    "hcaiId": "406198511",
    "businessName": "BLISS HOME HEALTH CARE, INC.",
    "contactEmail": "BLISSHOMECAREINC@GMAIL.COM",
    "categoryName": "HOME HEALTH AGENCY",
    "categoryCode": "HHA",
    "licenseStatus": "ACTIVE",
    "inService": true,
    "licenseNumber": "550003974",
    "licenseEffectiveDate": "10/06/2025",
    "licenseExpirationDate": "10/05/2026",
    "dataDate": "10/18/2025",
    "capacity": 0,
    "address": "3206 1/2 HONOLULU AVE",
    "city": "LA CRESCENTA",
    "zip": "91214",
    "county": "LOS ANGELES",
    "phone": "(818) 330-9198",
    "lat": 34.22070242,
    "lng": -118.2491618
  },
  {
    "id": "630024231",
    "name": "BRILLIANCE HOME HEALTH, INC",
    "npi": null,
    "hcaiId": "406195466",
    "businessName": "BRILLIANCE HOME HEALTH, INC",
    "contactEmail": "TAMIRYAN878@GMAIL.COM",
    "categoryName": "HOME HEALTH AGENCY",
    "categoryCode": "HHA",
    "licenseStatus": "ACTIVE",
    "inService": true,
    "licenseNumber": "550008212",
    "licenseEffectiveDate": "10/27/2025",
    "licenseExpirationDate": "10/26/2026",
    "dataDate": "10/18/2025",
    "capacity": 0,
    "address": "3206 HONOLULU AVE",
    "city": "LA CRESCENTA",
    "zip": "91214",
    "county": "LOS ANGELES",
    "phone": "(747) 255-7055",
    "lat": 34.220547,
    "lng": -118.2492135
  },
  {
    "id": "630021556",
    "name": "CA VALLEY HOSPICE, INC",
    "npi": null,
    "hcaiId": "406193356",
    "businessName": "CA VALLEY HOSPICE, INC.",
    "contactEmail": "CAVALLEYHOSPICE@GMAIL.COM",
    "categoryName": "HOSPICE",
    "categoryCode": "HOSPICE",
    "licenseStatus": "ACTIVE",
    "inService": true,
    "licenseNumber": "550006992",
    "licenseEffectiveDate": "10/15/2025",
    "licenseExpirationDate": "10/14/2027",
    "dataDate": "10/18/2025",
    "capacity": 0,
    "address": "2600 FOOTHILL BLVD, SUITE 101",
    "city": "LA CRESCENTA",
    "zip": "91214",
    "county": "LOS ANGELES",
    "phone": "(747) 255-7252",
    "lat": 34.22098498,
    "lng": -118.235443
  },
  {
    "id": "630020991",
    "name": "CALHOPE FAMILY HOSPICE CARE, INC.",
    "npi": null,
    "hcaiId": "406197917",
    "businessName": "CALHOPE FAMILY HOSPICE CARE, INC.",
    "contactEmail": "CALHOPEFAMILYHOSPICE@GMAIL.COM",
    "categoryName": "HOSPICE",
    "categoryCode": "HOSPICE",
    "licenseStatus": "ACTIVE",
    "inService": true,
    "licenseNumber": "550006604",
    "licenseEffectiveDate": "07/28/2025",
    "licenseExpirationDate": "07/27/2027",
    "dataDate": "10/18/2025",
    "capacity": 0,
    "address": "2505 FOOTHILL BLVD, SUITE F",
    "city": "LA CRESCENTA",
    "zip": "91214",
    "county": "LOS ANGELES",
    "phone": "(818) 330-9590",
    "lat": 34.220331,
    "lng": -118.232928
  },
  {
    "id": "630023115",
    "name": "CARE FOR YOU HOME HEALTH, INC.",
    "npi": null,
    "hcaiId": "406195791",
    "businessName": "CARE FOR YOU HOME HEALTH, INC.",
    "contactEmail": "CAREFORYOUHH@GMAIL.COM",
    "categoryName": "HOME HEALTH AGENCY",
    "categoryCode": "HHA",
    "licenseStatus": "ACTIVE",
    "inService": true,
    "licenseNumber": "550007820",
    "licenseEffectiveDate": "09/29/2025",
    "licenseExpirationDate": "01/31/2026",
    "dataDate": "10/18/2025",
    "capacity": 0,
    "address": "3134 FOOTHILL BLVD, SUITE A",
    "city": "LA CRESCENTA",
    "zip": "91214",
    "county": "LOS ANGELES",
    "phone": "(818) 495-6040",
    "lat": 34.228728,
    "lng": -118.2478365
  },
  {
    "id": "630018611",
    "name": "CARE PLUS HOME HEALTH, INC.",
    "npi": null,
    "hcaiId": "406192070",
    "businessName": "CARE PLUS HOME HEALTH, INC.",
    "contactEmail": "CAREPLUS2018@YAHOO.COM",
    "categoryName": "HOME HEALTH AGENCY",
    "categoryCode": "HHA",
    "licenseStatus": "ACTIVE",
    "inService": true,
    "licenseNumber": "550005946",
    "licenseEffectiveDate": "12/28/2024",
    "licenseExpirationDate": "12/27/2025",
    "dataDate": "10/18/2025",
    "capacity": 0,
    "address": "3857 FOOTHILL BLVD, SUITE 20",
    "city": "LA CRESCENTA",
    "zip": "91214",
    "county": "LOS ANGELES",
    "phone": "(818) 330-9802",
    "lat": 34.23924,
    "lng": -118.263429
  },
  {
    "id": "630025785",
    "name": "CARING COMFORT HOME HEALTH, INC.",
    "npi": null,
    "hcaiId": null,
    "businessName": "CARING COMFORT HOME HEALTH, INC.",
    "contactEmail": "CARINGCOMFORTHH@GMAIL.COM",
    "categoryName": "HOME HEALTH AGENCY",
    "categoryCode": "HHA",
    "licenseStatus": "ACTIVE",
    "inService": true,
    "licenseNumber": "550009134",
    "licenseEffectiveDate": "04/29/2025",
    "licenseExpirationDate": "04/28/2026",
    "dataDate": "10/18/2025",
    "capacity": 0,
    "address": "2930 HONOLULU AVE, SUITE 100",
    "city": "GLENDALE",
    "zip": "91214",
    "county": "LOS ANGELES",
    "phone": "(747) 895-5199",
    "lat": 34.21286899,
    "lng": -118.24319
  },
  {
    "id": "630022112",
    "name": "CRESCENTA HOSPICE CARE, INC.",
    "npi": null,
    "hcaiId": "406190176",
    "businessName": "CRESCENTA HOSPICE CARE, INC.",
    "contactEmail": "CRESCENTAHOSPICECARE@GMAIL.COM",
    "categoryName": "HOSPICE",
    "categoryCode": "HOSPICE",
    "licenseStatus": "ACTIVE",
    "inService": true,
    "licenseNumber": "550007493",
    "licenseEffectiveDate": "12/03/2023",
    "licenseExpirationDate": "12/02/2025",
    "dataDate": "10/18/2025",
    "capacity": 0,
    "address": "2600 FOOTHILL BLVD, SUITE 108",
    "city": "LA CRESCENTA",
    "zip": "91214",
    "county": "LOS ANGELES",
    "phone": "(818) 635-7303",
    "lat": 34.221042,
    "lng": -118.235421
  },
  {
    "id": "630023076",
    "name": "CRESCENTA VALLEY HOME HEALTH CARE, INC",
    "npi": null,
    "hcaiId": "406195785",
    "businessName": "CRESCENTA VALLEY HOME HEALTH CARE, INC",
    "contactEmail": "CRESCENTAVALLEYHHC@GMAIL.COM",
    "categoryName": "HOME HEALTH AGENCY",
    "categoryCode": "HHA",
    "licenseStatus": "ACTIVE",
    "inService": true,
    "licenseNumber": "550007814",
    "licenseEffectiveDate": "01/28/2025",
    "licenseExpirationDate": "01/27/2026",
    "dataDate": "10/18/2025",
    "capacity": 0,
    "address": "2600 FOOTHILL BLVD, SUITE 106",
    "city": "LA CRESCENTA",
    "zip": "91214",
    "county": "LOS ANGELES",
    "phone": "(818) 480-3587",
    "lat": 34.221042,
    "lng": -118.235421
  },
  {
    "id": "630017732",
    "name": "DELL HOME HEALTH CARE, INC.",
    "npi": "1699280362",
    "hcaiId": "406191635",
    "businessName": "DELL HOME HEALTH CARE, INC.",
    "contactEmail": "DELLHOMEHEALTHCAREINC@YAHOO.COM",
    "categoryName": "HOME HEALTH AGENCY",
    "categoryCode": "HHA",
    "licenseStatus": "ACTIVE",
    "inService": true,
    "licenseNumber": "550004669",
    "licenseEffectiveDate": "05/04/2025",
    "licenseExpirationDate": "05/03/2026",
    "dataDate": "10/18/2025",
    "capacity": 0,
    "address": "3043 FOOTHILL BLVD, SUITE 8",
    "city": "LA CRESCENTA",
    "zip": "91214",
    "county": "LOS ANGELES",
    "phone": "(818) 369-7646",
    "lat": 34.228017,
    "lng": -118.2457305
  },
  {
    "id": "630020461",
    "name": "DIAMOND HOSPICE CARE, INC",
    "npi": null,
    "hcaiId": "406193448",
    "businessName": "DIAMOND HOSPICE CARE, INC",
    "contactEmail": "INFO@DHCAREINC.COM",
    "categoryName": "HOSPICE",
    "categoryCode": "HOSPICE",
    "licenseStatus": "ACTIVE",
    "inService": true,
    "licenseNumber": "550006680",
    "licenseEffectiveDate": "09/19/2025",
    "licenseExpirationDate": "07/10/2027",
    "dataDate": "10/18/2025",
    "capacity": 0,
    "address": "3130 FOOTHILL BOULEVARD, UNIT 3",
    "city": "LA CRESCENTA",
    "zip": "91214",
    "county": "LOS ANGELES",
    "phone": "(818) 480-0505",
    "lat": 34.22867303,
    "lng": -118.2476807
  },
  {
    "id": "630018252",
    "name": "DISTINCTIVE HOME HEALTH, INC.",
    "npi": null,
    "hcaiId": "406191777",
    "businessName": "DISTINCTIVE HOME HEALTH, INC.",
    "contactEmail": "DISTINCTIVE@DISTINCTIVEHH.COM",
    "categoryName": "HOME HEALTH AGENCY",
    "categoryCode": "HHA",
    "licenseStatus": "ACTIVE",
    "inService": true,
    "licenseNumber": "550004877",
    "licenseEffectiveDate": "08/19/2025",
    "licenseExpirationDate": "08/18/2026",
    "dataDate": "10/18/2025",
    "capacity": 0,
    "address": "4502 DYER ST, SUITE 105",
    "city": "LA CRESCENTA",
    "zip": "91214",
    "county": "LOS ANGELES",
    "phone": "(818) 484-5730",
    "lat": 34.225324,
    "lng": -118.240738
  },
  {
    "id": "630027829",
    "name": "DIVINE HARMONY HOME HEALTH INC",
    "npi": null,
    "hcaiId": null,
    "businessName": "DIVINE HARMONY HOME HEALTH INC",
    "contactEmail": "DIVINEHARMONYHH@GMAIL.COM",
    "categoryName": "HOME HEALTH AGENCY",
    "categoryCode": "HHA",
    "licenseStatus": "ACTIVE",
    "inService": true,
    "licenseNumber": "550009798",
    "licenseEffectiveDate": "11/05/2025",
    "licenseExpirationDate": "05/04/2026",
    "dataDate": "10/18/2025",
    "capacity": 0,
    "address": "3252 FOOTHILL BLVD, SUITE A",
    "city": "LA CRESCENTA",
    "zip": "91214",
    "county": "LOS ANGELES",
    "phone": "(818) 858-5722",
    "lat": 34.23045599,
    "lng": -118.250598
  },
  {
    "id": "630017592",
    "name": "ELPIS HOME HEALTH",
    "npi": "1447778873",
    "hcaiId": "406191404",
    "businessName": "ELPIS HOME HEALTH",
    "contactEmail": "ELPISHH@YAHOO.COM",
    "categoryName": "HOME HEALTH AGENCY",
    "categoryCode": "HHA",
    "licenseStatus": "ACTIVE",
    "inService": true,
    "licenseNumber": "550004501",
    "licenseEffectiveDate": "12/21/2024",
    "licenseExpirationDate": "12/20/2025",
    "dataDate": "10/18/2025",
    "capacity": 0,
    "address": "4250 PENNSYLVANIA AVE, SUITE 207",
    "city": "LA CRESCENTA",
    "zip": "91214",
    "county": "LOS ANGELES",
    "phone": "(818) 392-8262",
    "lat": 34.2243,
    "lng": -118.248471
  },
  {
    "id": "630023129",
    "name": "EMBRACING ARMS HOME HEALTH CARE, INC.",
    "npi": null,
    "hcaiId": "406195757",
    "businessName": "EMBRACING ARMS HOME HEALTH CARE, INC.",
    "contactEmail": "EMBRACINGARMSHHC@GMAIL.COM",
    "categoryName": "HOME HEALTH AGENCY",
    "categoryCode": "HHA",
    "licenseStatus": "ACTIVE",
    "inService": true,
    "licenseNumber": "550007746",
    "licenseEffectiveDate": "12/30/2024",
    "licenseExpirationDate": "12/29/2025",
    "dataDate": "10/18/2025",
    "capacity": 0,
    "address": "2600 FOOTHILL BLVD, SUITE 109",
    "city": "LA CRESCENTA",
    "zip": "91214",
    "county": "LOS ANGELES",
    "phone": "(747) 295-9613",
    "lat": 34.221042,
    "lng": -118.235421
  },
  {
    "id": "630022459",
    "name": "ERGO HOSPICE, INC",
    "npi": null,
    "hcaiId": "406193878",
    "businessName": "ERGO HOSPICE, INC",
    "contactEmail": "ERGOHOSPICE@GMAIL.COM",
    "categoryName": "HOSPICE",
    "categoryCode": "HOSPICE",
    "licenseStatus": "ACTIVE",
    "inService": true,
    "licenseNumber": "550007361",
    "licenseEffectiveDate": "12/03/2023",
    "licenseExpirationDate": "12/02/2025",
    "dataDate": "10/18/2025",
    "capacity": 0,
    "address": "2600 FOOTHILL BLVD, SUITE 100",
    "city": "LA CRESCENTA",
    "zip": "91214",
    "county": "LOS ANGELES",
    "phone": "(747) 255-7202",
    "lat": 34.221042,
    "lng": -118.235421
  },
  {
    "id": "630026058",
    "name": "ETERNAL HOME HEALTH CARE INC.",
    "npi": null,
    "hcaiId": null,
    "businessName": "ETERNAL HOME HEALTH CARE INC.",
    "contactEmail": "ETEMALHHC@GMAIL.COM",
    "categoryName": "HOME HEALTH AGENCY",
    "categoryCode": "HHA",
    "licenseStatus": "ACTIVE",
    "inService": true,
    "licenseNumber": "550009086",
    "licenseEffectiveDate": "04/24/2025",
    "licenseExpirationDate": "04/23/2026",
    "dataDate": "10/18/2025",
    "capacity": 0,
    "address": "2600 FOOTHILL BLVD, SUITE 208",
    "city": "LA CRESCENTA",
    "zip": "91214",
    "county": "LOS ANGELES",
    "phone": "(747) 212-4540",
    "lat": 34.221042,
    "lng": -118.235421
  },
  {
    "id": "630019572",
    "name": "FIRST BELL HOME HEALTH CARE",
    "npi": null,
    "hcaiId": "406193796",
    "businessName": "FIRST BELL HOME HEALTH CARE",
    "contactEmail": "FIRSTBELLHOMEHEALTHCARE@GMAIL.COM",
    "categoryName": "HOME HEALTH AGENCY",
    "categoryCode": "HHA",
    "licenseStatus": "ACTIVE",
    "inService": true,
    "licenseNumber": "550006265",
    "licenseEffectiveDate": "06/23/2025",
    "licenseExpirationDate": "05/06/2026",
    "dataDate": "10/18/2025",
    "capacity": 0,
    "address": "2600 FOOTHILL BLVD, SUITE 304",
    "city": "LA CRESCENTA",
    "zip": "91214",
    "county": "LOS ANGELES",
    "phone": "(747) 241-8211",
    "lat": 34.22098498,
    "lng": -118.235443
  },
  {
    "id": "630018142",
    "name": "FIRST CARE HOME HEALTH, INC.",
    "npi": "1487149621",
    "hcaiId": "406191894",
    "businessName": "FIRST CARE HOME HEALTH, INC.",
    "contactEmail": "FIRSTCAREHOMECARE@GMAIL.COM",
    "categoryName": "HOME HEALTH AGENCY",
    "categoryCode": "HHA",
    "licenseStatus": "ACTIVE",
    "inService": true,
    "licenseNumber": "550004958",
    "licenseEffectiveDate": "08/24/2025",
    "licenseExpirationDate": "08/23/2026",
    "dataDate": "10/18/2025",
    "capacity": 0,
    "address": "3800 LA CRESCENTA AVE, SUITE 203",
    "city": "LA CRESCENTA",
    "zip": "91214",
    "county": "LOS ANGELES",
    "phone": "(747) 224-2724",
    "lat": 34.21151316,
    "lng": -118.2399433
  },
  {
    "id": "630019513",
    "name": "GLENDALE HOME HEALTH, INC.",
    "npi": "1881243939",
    "hcaiId": "406192525",
    "businessName": "GLENDALE HOME HEALTH, INC.",
    "contactEmail": "GLENDALEHHINC@GMAIL.COM",
    "categoryName": "HOME HEALTH AGENCY",
    "categoryCode": "HHA",
    "licenseStatus": "ACTIVE",
    "inService": true,
    "licenseNumber": "550005475",
    "licenseEffectiveDate": "05/21/2025",
    "licenseExpirationDate": "05/20/2026",
    "dataDate": "10/18/2025",
    "capacity": 0,
    "address": "2600 FOOTHILL BLVD, SUITE 207",
    "city": "LA CRESCENTA",
    "zip": "91214",
    "county": "LOS ANGELES",
    "phone": "(747) 268-0550",
    "lat": 34.221042,
    "lng": -118.235421
  },
  {
    "id": "630020509",
    "name": "GLENMARK NURSING CARE SERVICES INC.",
    "npi": null,
    "hcaiId": "406197107",
    "businessName": "GLENMARK NURSING CARE SERVICES INC.",
    "contactEmail": "GLENMARKNCS@YAHOO.COM",
    "categoryName": "HOSPICE",
    "categoryCode": "HOSPICE",
    "licenseStatus": "ACTIVE",
    "inService": true,
    "licenseNumber": "550006330",
    "licenseEffectiveDate": "05/17/2025",
    "licenseExpirationDate": "05/16/2027",
    "dataDate": "10/18/2025",
    "capacity": 0,
    "address": "2600 FOOTHILL BLVD, SUITE 105",
    "city": "LA CRESCENTA",
    "zip": "91214",
    "county": "LOS ANGELES",
    "phone": "(747) 477-5400",
    "lat": 34.220988,
    "lng": -118.235448
  },
  {
    "id": "630025516",
    "name": "GMT HOME HEALTH CARE, INC.",
    "npi": null,
    "hcaiId": "406190100",
    "businessName": "GMT HOME HEALTH CARE, INC.",
    "contactEmail": "GMTHHC@GMAIL.COM",
    "categoryName": "HOME HEALTH AGENCY",
    "categoryCode": "HHA",
    "licenseStatus": "ACTIVE",
    "inService": true,
    "licenseNumber": "550008856",
    "licenseEffectiveDate": "09/22/2025",
    "licenseExpirationDate": "12/14/2025",
    "dataDate": "10/18/2025",
    "capacity": 0,
    "address": "2600 FOOTHILL BOULEVARD, SUITE 115",
    "city": "LA CRESCENTA",
    "zip": "91214",
    "county": "LOS ANGELES",
    "phone": "(747) 877-2702",
    "lat": 34.2209819,
    "lng": -118.2380228
  },
  {
    "id": "630020457",
    "name": "GOLD COAST HOSPICE, INC",
    "npi": null,
    "hcaiId": "406193539",
    "businessName": "GOLD COAST HOSPICE, INC",
    "contactEmail": "GCHOSPICEINC@YAHOO.COM",
    "categoryName": "HOSPICE",
    "categoryCode": "HOSPICE",
    "licenseStatus": "ACTIVE",
    "inService": true,
    "licenseNumber": "550006611",
    "licenseEffectiveDate": "07/06/2025",
    "licenseExpirationDate": "07/05/2027",
    "dataDate": "10/18/2025",
    "capacity": 0,
    "address": "3130 FOOTHILL BLVD, UNIT 3B",
    "city": "LA CRESCENTA",
    "zip": "91214",
    "county": "LOS ANGELES",
    "phone": "(818) 517-1722",
    "lat": 34.22854902,
    "lng": -118.247682
  },
  {
    "id": "630019672",
    "name": "HAMLIN HOME HEALTH CARE INC",
    "npi": null,
    "hcaiId": "406192864",
    "businessName": "HAMLIN HOME HEALTH CARE INC",
    "contactEmail": "HAMLINHOMEHEALTH@GMAIL.COM",
    "categoryName": "HOME HEALTH AGENCY",
    "categoryCode": "HHA",
    "licenseStatus": "ACTIVE",
    "inService": true,
    "licenseNumber": "550005710",
    "licenseEffectiveDate": "09/04/2025",
    "licenseExpirationDate": "09/03/2026",
    "dataDate": "10/18/2025",
    "capacity": 0,
    "address": "3959 FOOTHILL BLVD, SUITE 304",
    "city": "LA CRESCENTA",
    "zip": "91214",
    "county": "LOS ANGELES",
    "phone": "(747) 264-1994",
    "lat": 34.24043301,
    "lng": -118.265683
  },
  {
    "id": "630020979",
    "name": "HAPPY DAYS HOSPICE LLC",
    "npi": null,
    "hcaiId": "406194851",
    "businessName": "HAPPY DAYS HOSPICE LLC",
    "contactEmail": "MFILHART@SUNCRESTCARE.COM",
    "categoryName": "HOSPICE",
    "categoryCode": "HOSPICE",
    "licenseStatus": "ACTIVE",
    "inService": true,
    "licenseNumber": "550006817",
    "licenseEffectiveDate": "09/23/2025",
    "licenseExpirationDate": "09/22/2027",
    "dataDate": "10/18/2025",
    "capacity": 0,
    "address": "3639 FOOTHILL BLVD, SUITE 202",
    "city": "GLENDALE",
    "zip": "91214",
    "county": "LOS ANGELES",
    "phone": "(951) 400-5391",
    "lat": 34.236027,
    "lng": -118.2587625
  },
  {
    "id": "630026795",
    "name": "HEALTH SPOT HOME HEALTH",
    "npi": null,
    "hcaiId": null,
    "businessName": "HEALTH SPOT HOME HEALTH",
    "contactEmail": "HEALTHSPOTHH@GMAIL.COM",
    "categoryName": "HOME HEALTH AGENCY",
    "categoryCode": "HHA",
    "licenseStatus": "ACTIVE",
    "inService": true,
    "licenseNumber": "550009555",
    "licenseEffectiveDate": "06/13/2025",
    "licenseExpirationDate": "12/12/2025",
    "dataDate": "10/18/2025",
    "capacity": 0,
    "address": "4121 PENNSYLVANIA AVE, SUITE J",
    "city": "GLENDALE",
    "zip": "91214",
    "county": "LOS ANGELES",
    "phone": "(818) 726-4638",
    "lat": 34.22241401,
    "lng": -118.249222
  },
  {
    "id": "630020836",
    "name": "HEALTHY CARE HANDS HOSPICE INC.",
    "npi": null,
    "hcaiId": "406193621",
    "businessName": "HEALTHY CARE HANDS HOSPICE INC.",
    "contactEmail": "HCHHOSPICE@GMAIL.COM",
    "categoryName": "HOSPICE",
    "categoryCode": "HOSPICE",
    "licenseStatus": "ACTIVE",
    "inService": true,
    "licenseNumber": "550006892",
    "licenseEffectiveDate": "08/16/2023",
    "licenseExpirationDate": "08/15/2025",
    "dataDate": "10/18/2025",
    "capacity": 0,
    "address": "3857 FOOTHILL BLVD, SUITE 22",
    "city": "LA CRESCENTA",
    "zip": "91214",
    "county": "LOS ANGELES",
    "phone": "(818) 646-6480",
    "lat": 34.23924,
    "lng": -118.263429
  },
  {
    "id": "630025725",
    "name": "HEALTHY OPTIONS HOME HEALTH PROVIDER, INC.",
    "npi": null,
    "hcaiId": null,
    "businessName": "HEALTHY OPTIONS HOME HEALTH PROVIDER, INC.",
    "contactEmail": "HEALTHYOPTIONSHOMEHEALTH@EMAIL.COM",
    "categoryName": "HOME HEALTH AGENCY",
    "categoryCode": "HHA",
    "licenseStatus": "ACTIVE",
    "inService": true,
    "licenseNumber": "550009698",
    "licenseEffectiveDate": "09/06/2025",
    "licenseExpirationDate": "03/05/2026",
    "dataDate": "10/18/2025",
    "capacity": 0,
    "address": "2606 FOOTHILL BLVD, SUITE C",
    "city": "LA CRESCENTA",
    "zip": "91214",
    "county": "LOS ANGELES",
    "phone": "(818) 419-3740",
    "lat": 34.221231,
    "lng": -118.2357045
  },
  {
    "id": "630022039",
    "name": "HEALTHYU HOME CARE, INC",
    "npi": null,
    "hcaiId": "406195700",
    "businessName": "HEALTHYU HOME CARE, INC",
    "contactEmail": "HEALTHYUHOME@GMAIL.COM",
    "categoryName": "HOME HEALTH AGENCY",
    "categoryCode": "HHA",
    "licenseStatus": "ACTIVE",
    "inService": true,
    "licenseNumber": "550007353",
    "licenseEffectiveDate": "11/12/2024",
    "licenseExpirationDate": "11/11/2025",
    "dataDate": "10/18/2025",
    "capacity": 0,
    "address": "2600 FOOTHILL BLVD, SUITE 301",
    "city": "LA CRESCENTA",
    "zip": "91214",
    "county": "LOS ANGELES",
    "phone": "(818) 405-9929",
    "lat": 34.221042,
    "lng": -118.235421
  },
  {
    "id": "630022071",
    "name": "HEALTHYU HOSPICE INC",
    "npi": null,
    "hcaiId": "406197863",
    "businessName": "HEALTHYU HOSPICE INC",
    "contactEmail": "HEALTHYUHOSPICE@GMAIL.COM",
    "categoryName": "HOSPICE",
    "categoryCode": "HOSPICE",
    "licenseStatus": "ACTIVE",
    "inService": true,
    "licenseNumber": "550007661",
    "licenseEffectiveDate": "12/21/2023",
    "licenseExpirationDate": "12/20/2025",
    "dataDate": "10/18/2025",
    "capacity": 0,
    "address": "2600 FOOTHILL BLVD, SUITE 303",
    "city": "LA CRESCENTA",
    "zip": "91214",
    "county": "LOS ANGELES",
    "phone": "(818) 330-5584",
    "lat": 34.221042,
    "lng": -118.235421
  },
  {
    "id": "630025852",
    "name": "HONOLULU HOME HEALTH, INC.",
    "npi": null,
    "hcaiId": null,
    "businessName": "HONOLULU HOME HEALTH, INC.",
    "contactEmail": "4HONOLULUHH@GMAIL.COM",
    "categoryName": "HOME HEALTH AGENCY",
    "categoryCode": "HHA",
    "licenseStatus": "ACTIVE",
    "inService": true,
    "licenseNumber": "550009390",
    "licenseEffectiveDate": "09/09/2025",
    "licenseExpirationDate": "09/08/2026",
    "dataDate": "10/18/2025",
    "capacity": 0,
    "address": "2956 HONOLULU AVE",
    "city": "GLENDALE",
    "zip": "91214",
    "county": "LOS ANGELES",
    "phone": "(747) 985-5046",
    "lat": 34.21352702,
    "lng": -118.243784
  },
  {
    "id": "980002434",
    "name": "INTERNATIONAL HOME HEALTHCARE, INC.",
    "npi": "1801917604",
    "hcaiId": "406196454",
    "businessName": "INTERNATIONAL HOME HEALTH CARE, INC.",
    "contactEmail": "JULIA@INTLHH.COM",
    "categoryName": "HOME HEALTH AGENCY",
    "categoryCode": "HHA",
    "licenseStatus": "ACTIVE",
    "inService": true,
    "licenseNumber": "980001541",
    "licenseEffectiveDate": "04/16/2025",
    "licenseExpirationDate": "04/15/2026",
    "dataDate": "10/18/2025",
    "capacity": 0,
    "address": "2626 FOOTHILL BLVD, SUITE 101",
    "city": "LA CRESCENTA",
    "zip": "91214",
    "county": "LOS ANGELES",
    "phone": "(213) 384-6731",
    "lat": 34.22169,
    "lng": -118.236366
  },
  {
    "id": "630022110",
    "name": "LA CANADA HOSPICE CARE, INC.",
    "npi": null,
    "hcaiId": "406190267",
    "businessName": "LA CANADA HOSPICE CARE, INC.",
    "contactEmail": "LACANADAHOSPICE@YAHOO.COM",
    "categoryName": "HOSPICE",
    "categoryCode": "HOSPICE",
    "licenseStatus": "ACTIVE",
    "inService": true,
    "licenseNumber": "550007546",
    "licenseEffectiveDate": "11/23/2023",
    "licenseExpirationDate": "11/22/2025",
    "dataDate": "10/18/2025",
    "capacity": 0,
    "address": "2930 HONOLULU AVE, SUITE 201",
    "city": "GLENDALE",
    "zip": "91214",
    "county": "LOS ANGELES",
    "phone": "(747) 297-2454",
    "lat": 34.212861,
    "lng": -118.243206
  },
  {
    "id": "920000031",
    "name": "LA CRESCENTA HEALTHCARE CENTER",
    "npi": "1699063370",
    "hcaiId": "206190821",
    "businessName": "VERDUGO VISTA OPERATING COMPANY, LP",
    "contactEmail": "JTABELLA@MARINERHEALTHCARE.COM",
    "categoryName": "SKILLED NURSING FACILITY",
    "categoryCode": "SNF",
    "licenseStatus": "ACTIVE",
    "inService": true,
    "licenseNumber": "920000078",
    "licenseEffectiveDate": "11/01/2025",
    "licenseExpirationDate": "10/31/2026",
    "dataDate": "10/18/2025",
    "capacity": 92,
    "address": "3050 MONTROSE AVE",
    "city": "LA CRESCENTA",
    "zip": "91214",
    "county": "LOS ANGELES",
    "phone": "(818) 236-3400",
    "lat": 34.219431,
    "lng": -118.2462705
  },
  {
    "id": "630015223",
    "name": "LA CRESCENTA HOSPICE CARE, CORP.",
    "npi": "1932526688",
    "hcaiId": "406190893",
    "businessName": "LA CRESCENTA HOSPICE CARE, CORP.",
    "contactEmail": "LACRESCENTAHOSPICE@YAHOO.COM",
    "categoryName": "HOSPICE",
    "categoryCode": "HOSPICE",
    "licenseStatus": "ACTIVE",
    "inService": true,
    "licenseNumber": "550003523",
    "licenseEffectiveDate": "05/24/2024",
    "licenseExpirationDate": "05/23/2026",
    "dataDate": "10/18/2025",
    "capacity": 0,
    "address": "3130 FOOTHILL BLVD, SUITE 11",
    "city": "LA CRESCENTA",
    "zip": "91214",
    "county": "LOS ANGELES",
    "phone": "(818) 482-9282",
    "lat": 34.22853,
    "lng": -118.247688
  },
  {
    "id": "630019507",
    "name": "LA DIRECT HOME HEALTH CARE, INC.",
    "npi": null,
    "hcaiId": "406192755",
    "businessName": "LA DIRECT HOME HEALTH CARE, INC.",
    "contactEmail": "LADIRECTHOMEHEALTHCARE@GMAIL.COM",
    "categoryName": "HOME HEALTH AGENCY",
    "categoryCode": "HHA",
    "licenseStatus": "ACTIVE",
    "inService": true,
    "licenseNumber": "550005620",
    "licenseEffectiveDate": "07/03/2025",
    "licenseExpirationDate": "07/02/2026",
    "dataDate": "10/18/2025",
    "capacity": 0,
    "address": "3959 FOOTHILL BLVD., SUITE 301",
    "city": "GLENDALE",
    "zip": "91214",
    "county": "LOS ANGELES",
    "phone": "(747) 264-1699",
    "lat": 34.18524,
    "lng": -118.4310495
  },
  {
    "id": "630025329",
    "name": "LEADER HOME HEALTH, INC.",
    "npi": null,
    "hcaiId": null,
    "businessName": "LEADER HOME HEALTH, INC.",
    "contactEmail": "LEADERHOMEHEALTH@GMAIL.COM",
    "categoryName": "HOME HEALTH AGENCY",
    "categoryCode": "HHA",
    "licenseStatus": "ACTIVE",
    "inService": true,
    "licenseNumber": "550008641",
    "licenseEffectiveDate": "07/07/2025",
    "licenseExpirationDate": "07/06/2026",
    "dataDate": "10/18/2025",
    "capacity": 0,
    "address": "2950 HONOLULU AVE, UNIT D",
    "city": "GLENDALE",
    "zip": "91214",
    "county": "LOS ANGELES",
    "phone": "(818) 275-3137",
    "lat": 34.213257,
    "lng": -118.2435525
  },
  {
    "id": "630022477",
    "name": "LIFESTYLE HOSPICE, INC",
    "npi": null,
    "hcaiId": "406193874",
    "businessName": "LIFESTYLE HOSPICE, INC",
    "contactEmail": "ELENA@COMPCARE.HEALTH",
    "categoryName": "HOSPICE",
    "categoryCode": "HOSPICE",
    "licenseStatus": "ACTIVE",
    "inService": true,
    "licenseNumber": "550007363",
    "licenseEffectiveDate": "12/03/2023",
    "licenseExpirationDate": "12/02/2025",
    "dataDate": "10/18/2025",
    "capacity": 0,
    "address": "2600 FOOTHILL BLVD, SUITE 110",
    "city": "LA CRESCENTA",
    "zip": "91214",
    "county": "LOS ANGELES",
    "phone": "(928) 607-3089",
    "lat": 34.221042,
    "lng": -118.235421
  },
  {
    "id": "630024226",
    "name": "LOS CARE HOMEHEALTH INC.",
    "npi": null,
    "hcaiId": "406198937",
    "businessName": "LOS CARE HOMEHEALTH INC.",
    "contactEmail": "LOSCAREHH@GMAIL.COM",
    "categoryName": "HOME HEALTH AGENCY",
    "categoryCode": "HHA",
    "licenseStatus": "ACTIVE",
    "inService": true,
    "licenseNumber": "550008558",
    "licenseEffectiveDate": "05/30/2025",
    "licenseExpirationDate": "05/29/2026",
    "dataDate": "10/18/2025",
    "capacity": 0,
    "address": "3206 HONOLULU AVE, SUITE A",
    "city": "LA CRESCENTA",
    "zip": "91214",
    "county": "LOS ANGELES",
    "phone": "(747) 255-7026",
    "lat": 34.220547,
    "lng": -118.2492135
  },
  {
    "id": "630028162",
    "name": "MAJESTIC HOME HEALTH CARE SERVICES INC.",
    "npi": null,
    "hcaiId": null,
    "businessName": "MAJESTIC HOME HEALTH CARE SERVICES INC.",
    "contactEmail": null,
    "categoryName": "HOME HEALTH AGENCY",
    "categoryCode": "HHA",
    "licenseStatus": "ACTIVE",
    "inService": true,
    "licenseNumber": "550009891",
    "licenseEffectiveDate": "07/14/2025",
    "licenseExpirationDate": "01/13/2026",
    "dataDate": "10/18/2025",
    "capacity": 0,
    "address": "3638 FOOTHILL BLVD",
    "city": "GLENDALE",
    "zip": "91214",
    "county": "LOS ANGELES",
    "phone": null,
    "lat": 34.23568441,
    "lng": -118.2589837
  },
  {
    "id": "630018761",
    "name": "MARQUIS HOME CARE, INC.",
    "npi": null,
    "hcaiId": "406192475",
    "businessName": "MARQUIS HOME CARE, INC.",
    "contactEmail": "ADMIN@MARQUISHCS.COM",
    "categoryName": "HOME HEALTH AGENCY",
    "categoryCode": "HHA",
    "licenseStatus": "ACTIVE",
    "inService": true,
    "licenseNumber": "550005353",
    "licenseEffectiveDate": "11/05/2025",
    "licenseExpirationDate": "03/12/2026",
    "dataDate": "10/18/2025",
    "capacity": 0,
    "address": "3131 FOOTHILL BLVD, SUITE F",
    "city": "LA CRESCENTA",
    "zip": "91214",
    "county": "LOS ANGELES",
    "phone": "(818) 949-8001",
    "lat": 34.229052,
    "lng": -118.2474315
  },
  {
    "id": "630018754",
    "name": "MODERN HOSPICE CARE",
    "npi": "1255899381",
    "hcaiId": "406192652",
    "businessName": "MODERN HOSPICE CARE, INC.",
    "contactEmail": "MODERNHOSPICE12@GMAIL.COM",
    "categoryName": "HOSPICE",
    "categoryCode": "HOSPICE",
    "licenseStatus": "ACTIVE",
    "inService": true,
    "licenseNumber": "550004936",
    "licenseEffectiveDate": "09/20/2023",
    "licenseExpirationDate": "09/19/2025",
    "dataDate": "10/18/2025",
    "capacity": 0,
    "address": "3639 FOOTHILL BLVD, SUITE 101",
    "city": "GLENDALE",
    "zip": "91214",
    "county": "LOS ANGELES",
    "phone": "(818) 330-9464",
    "lat": 34.23611201,
    "lng": -118.258791
  },
  {
    "id": "630028145",
    "name": "MONTROSE ADULT DAY HEALTH CARE CENTER",
    "npi": null,
    "hcaiId": null,
    "businessName": "MONTROSE ADHC, INC",
    "contactEmail": "CARE@MONTROSEADHC.COM",
    "categoryName": "ADULT DAY HEALTH CARE",
    "categoryCode": "ADHC",
    "licenseStatus": "ACTIVE",
    "inService": true,
    "licenseNumber": "550009900",
    "licenseEffectiveDate": "08/12/2025",
    "licenseExpirationDate": "07/15/2026",
    "dataDate": "10/18/2025",
    "capacity": 0,
    "address": "2925 HONOLULU AVE",
    "city": "LA CRESCENTA",
    "zip": "91214",
    "county": "LOS ANGELES",
    "phone": "(818) 481-9090",
    "lat": 34.213275,
    "lng": -118.2452093
  },
  {
    "id": "630020806",
    "name": "MONTROSE HOSPICE, INC",
    "npi": null,
    "hcaiId": "406196045",
    "businessName": "MONTROSE HOSPICE, INC",
    "contactEmail": "MONTROSEHOSPICE@YAHOO.COM",
    "categoryName": "HOSPICE",
    "categoryCode": "HOSPICE",
    "licenseStatus": "ACTIVE",
    "inService": true,
    "licenseNumber": "550006128",
    "licenseEffectiveDate": "03/17/2025",
    "licenseExpirationDate": "03/16/2027",
    "dataDate": "10/18/2025",
    "capacity": 0,
    "address": "2600 FOOTHILL BLVD, SUITE 209",
    "city": "LA CRESCENTA",
    "zip": "91214",
    "county": "LOS ANGELES",
    "phone": "(818) 330-9556",
    "lat": 34.221042,
    "lng": -118.235421
  },
  {
    "id": "630021397",
    "name": "MRR HOME HEALTH CARE, INC",
    "npi": null,
    "hcaiId": "406193419",
    "businessName": "MRR HOME HEALTH CARE, INC",
    "contactEmail": "MRR.HHC@GMAIL.COM",
    "categoryName": "HOME HEALTH AGENCY",
    "categoryCode": "HHA",
    "licenseStatus": "ACTIVE",
    "inService": true,
    "licenseNumber": "550006902",
    "licenseEffectiveDate": "10/01/2025",
    "licenseExpirationDate": "09/30/2026",
    "dataDate": "10/18/2025",
    "capacity": 0,
    "address": "3959 FOOTHILL BLVD, SUITE 210",
    "city": "LA CRESCENTA",
    "zip": "91214",
    "county": "LOS ANGELES",
    "phone": "(818) 330-9937",
    "lat": 34.240491,
    "lng": -118.2656115
  },
  {
    "id": "630022850",
    "name": "NOEL HOME HEALTH CARE, INC.",
    "npi": null,
    "hcaiId": "406195706",
    "businessName": "NOEL HOME HEALTH CARE, INC.",
    "contactEmail": "NOELHOMEHEALTHCAREINC@GMAIL.COM",
    "categoryName": "HOME HEALTH AGENCY",
    "categoryCode": "HHA",
    "licenseStatus": "ACTIVE",
    "inService": true,
    "licenseNumber": "550007458",
    "licenseEffectiveDate": "12/15/2024",
    "licenseExpirationDate": "12/14/2025",
    "dataDate": "10/18/2025",
    "capacity": 0,
    "address": "2505 FOOTHILL BLVD, SUITE A",
    "city": "LA CRESCENTA",
    "zip": "91214",
    "county": "LOS ANGELES",
    "phone": "(747) 777-4463",
    "lat": 34.220331,
    "lng": -118.232928
  },
  {
    "id": "630024483",
    "name": "POLAR BEAR HOME HEALTH, INC",
    "npi": null,
    "hcaiId": "406190027",
    "businessName": "POLAR BEAR HOME HEALTH, INC",
    "contactEmail": "POLARBEARINCLA@GMAIL.COM",
    "categoryName": "HOME HEALTH AGENCY",
    "categoryCode": "HHA",
    "licenseStatus": "ACTIVE",
    "inService": true,
    "licenseNumber": "550008694",
    "licenseEffectiveDate": "01/18/2025",
    "licenseExpirationDate": "01/17/2026",
    "dataDate": "10/18/2025",
    "capacity": 0,
    "address": "2950 HONOLULU AVE, UNIT C",
    "city": "LA CRESCENTA",
    "zip": "91214",
    "county": "LOS ANGELES",
    "phone": "(818) 275-3232",
    "lat": 34.213257,
    "lng": -118.2435525
  },
  {
    "id": "630021702",
    "name": "PRO HOSPICE CARE, INC.",
    "npi": null,
    "hcaiId": "406193747",
    "businessName": "PRO HOSPICE CARE, INC.",
    "contactEmail": "PROHOSPICECARE@YAHOO.COM",
    "categoryName": "HOSPICE",
    "categoryCode": "HOSPICE",
    "licenseStatus": "ACTIVE",
    "inService": true,
    "licenseNumber": "550006916",
    "licenseEffectiveDate": "10/01/2025",
    "licenseExpirationDate": "09/30/2027",
    "dataDate": "10/18/2025",
    "capacity": 0,
    "address": "3857 FOOTHILL BLVD, SUITE 22",
    "city": "GLENDALE",
    "zip": "91214",
    "county": "LOS ANGELES",
    "phone": "(626) 800-0121",
    "lat": 34.23923201,
    "lng": -118.263429
  },
  {
    "id": "630024130",
    "name": "RADIANT LIGHT HOME HEALTH, INC.",
    "npi": null,
    "hcaiId": "406195905",
    "businessName": "RADIANT LIGHT HOME HEALTH, INC.",
    "contactEmail": "RADIANTLIGHTHH@GMAIL.COM",
    "categoryName": "HOME HEALTH AGENCY",
    "categoryCode": "HHA",
    "licenseStatus": "ACTIVE",
    "inService": true,
    "licenseNumber": "550008105",
    "licenseEffectiveDate": "07/07/2025",
    "licenseExpirationDate": "07/06/2026",
    "dataDate": "10/18/2025",
    "capacity": 0,
    "address": "2600 FOOTHILL BLVD, SUITE 305",
    "city": "LA CRESCENTA",
    "zip": "91214",
    "county": "LOS ANGELES",
    "phone": "(818) 602-0350",
    "lat": 34.221042,
    "lng": -118.235421
  },
  {
    "id": "630024009",
    "name": "RESILIENCE HOME HEALTH CARE INC",
    "npi": null,
    "hcaiId": null,
    "businessName": "RESILIENCE HOME HEALTH CARE, INC.",
    "contactEmail": "RESILIENCEHOMEHEALTHCARE@GMAIL.COM",
    "categoryName": "HOME HEALTH AGENCY",
    "categoryCode": "HHA",
    "licenseStatus": "ACTIVE",
    "inService": true,
    "licenseNumber": "550009932",
    "licenseEffectiveDate": "08/14/2025",
    "licenseExpirationDate": "02/13/2026",
    "dataDate": "10/18/2025",
    "capacity": 0,
    "address": "3642 FOOTHILL BOULEVARD",
    "city": "GLENDALE",
    "zip": "91214",
    "county": "LOS ANGELES",
    "phone": "(747) 333-3223",
    "lat": 34.23578516,
    "lng": -118.2591496
  },
  {
    "id": "630026300",
    "name": "RESTART HOME HEALTH CARE INC",
    "npi": null,
    "hcaiId": null,
    "businessName": "RESTART HOME HEALTH CARE INC",
    "contactEmail": "RESTARTHHC@GMAIL.COM",
    "categoryName": "HOME HEALTH AGENCY",
    "categoryCode": "HHA",
    "licenseStatus": "ACTIVE",
    "inService": true,
    "licenseNumber": "550009260",
    "licenseEffectiveDate": "07/15/2025",
    "licenseExpirationDate": "07/14/2026",
    "dataDate": "10/18/2025",
    "capacity": 0,
    "address": "3959 FOOTHILL BLVD, SUITE 305",
    "city": "LA CRESCENTA",
    "zip": "91214",
    "county": "LOS ANGELES",
    "phone": "(818) 813-8342",
    "lat": 34.24043301,
    "lng": -118.265683
  },
  {
    "id": "980002426",
    "name": "ROYALE HOME HEALTH CARE, INC.",
    "npi": "1619961059",
    "hcaiId": "406196944",
    "businessName": "ROYALE HOME HEALTH CARE, INC.",
    "contactEmail": "INFO@ROYALEHH.COM",
    "categoryName": "HOME HEALTH AGENCY",
    "categoryCode": "HHA",
    "licenseStatus": "ACTIVE",
    "inService": true,
    "licenseNumber": "980001534",
    "licenseEffectiveDate": "05/23/2025",
    "licenseExpirationDate": "05/22/2026",
    "dataDate": "10/18/2025",
    "capacity": 0,
    "address": "2626 FOOTHILL BLVD, SUITE 280",
    "city": "LA CRESCENTA",
    "zip": "91214",
    "county": "LOS ANGELES",
    "phone": "(818) 369-7475",
    "lat": 34.2216193,
    "lng": -118.2364899
  },
  {
    "id": "630016760",
    "name": "SAMARITAN HOME HEALTH CARE INC",
    "npi": "1609225630",
    "hcaiId": "406190947",
    "businessName": "SAMARITAN HOME HEALTH CARE INC",
    "contactEmail": "SAMARITANHH@YAHOO.COM",
    "categoryName": "HOME HEALTH AGENCY",
    "categoryCode": "HHA",
    "licenseStatus": "ACTIVE",
    "inService": true,
    "licenseNumber": "550004243",
    "licenseEffectiveDate": "04/16/2025",
    "licenseExpirationDate": "04/15/2026",
    "dataDate": "10/18/2025",
    "capacity": 0,
    "address": "2600 FOOTHILL BLVD, SUITE 206",
    "city": "LA CRESCENTA",
    "zip": "91214",
    "county": "LOS ANGELES",
    "phone": "(818) 779-0762",
    "lat": 34.221042,
    "lng": -118.235421
  },
  {
    "id": "630014465",
    "name": "SERENE HOSPICE CARE, INC.",
    "npi": null,
    "hcaiId": "406198306",
    "businessName": "SERENE HOSPICE CARE, INC.",
    "contactEmail": "INFO@SERENEHOSPICECARE.COM",
    "categoryName": "HOSPICE",
    "categoryCode": "HOSPICE",
    "licenseStatus": "ACTIVE",
    "inService": true,
    "licenseNumber": "550002770",
    "licenseEffectiveDate": "07/11/2024",
    "licenseExpirationDate": "07/10/2026",
    "dataDate": "10/18/2025",
    "capacity": 0,
    "address": "3131 FOOTHILL BLVD, SUITE J",
    "city": "LA CRESCENTA",
    "zip": "91214",
    "county": "LOS ANGELES",
    "phone": "(818) 330-7779",
    "lat": 34.229052,
    "lng": -118.2474315
  },
  {
    "id": "630020925",
    "name": "SKILLED A1 HOME HEALTH INC.",
    "npi": null,
    "hcaiId": "406195525",
    "businessName": "SKILLED A1 HOME HEALTH INC.",
    "contactEmail": "SKILLEDA1HH@GMAIL.COM",
    "categoryName": "HOME HEALTH AGENCY",
    "categoryCode": "HHA",
    "licenseStatus": "ACTIVE",
    "inService": true,
    "licenseNumber": "550006889",
    "licenseEffectiveDate": "09/28/2025",
    "licenseExpirationDate": "09/27/2026",
    "dataDate": "10/18/2025",
    "capacity": 0,
    "address": "4250 PENNSYLVANIA AVE, SUITE 102",
    "city": "LA CRESCENTA",
    "zip": "91214",
    "county": "LOS ANGELES",
    "phone": "(818) 305-5352",
    "lat": 34.224183,
    "lng": -118.248372
  },
  {
    "id": "630022111",
    "name": "SOUL HOSPICE CARE, INC.",
    "npi": null,
    "hcaiId": "406196565",
    "businessName": "SOUL HOSPICE CARE, INC.",
    "contactEmail": "SOULHOSPICECARE@YAHOO.COM",
    "categoryName": "HOSPICE",
    "categoryCode": "HOSPICE",
    "licenseStatus": "ACTIVE",
    "inService": true,
    "licenseNumber": "550007660",
    "licenseEffectiveDate": "12/21/2023",
    "licenseExpirationDate": "12/20/2025",
    "dataDate": "10/18/2025",
    "capacity": 0,
    "address": "2930 HONOLULU AVE, SUITE 200",
    "city": "GLENDALE",
    "zip": "91214",
    "county": "LOS ANGELES",
    "phone": "(747) 203-0466",
    "lat": 34.212861,
    "lng": -118.243206
  },
  {
    "id": "630020016",
    "name": "SUNNY HOSPICE CARE, INC.",
    "npi": "1831725027",
    "hcaiId": "406192859",
    "businessName": "SUNNY HOSPICE CARE, INC.",
    "contactEmail": "SUNNYHOSPICEINC@GMAIL.COM",
    "categoryName": "HOSPICE",
    "categoryCode": "HOSPICE",
    "licenseStatus": "ACTIVE",
    "inService": true,
    "licenseNumber": "550005679",
    "licenseEffectiveDate": "08/18/2024",
    "licenseExpirationDate": "08/17/2026",
    "dataDate": "10/18/2025",
    "capacity": 0,
    "address": "3916 FOOTHILL BLVD, SUITE C",
    "city": "LA CRESCENTA",
    "zip": "91214",
    "county": "LOS ANGELES",
    "phone": "(818) 582-3019",
    "lat": 34.239186,
    "lng": -118.2649815
  },
  {
    "id": "630022472",
    "name": "TINY OASIS HOSPICE, INC",
    "npi": null,
    "hcaiId": "406194898",
    "businessName": "TINY OASIS HOSPICE, INC",
    "contactEmail": "TINYOASISHOSPICE@GMAIL.COM",
    "categoryName": "HOSPICE",
    "categoryCode": "HOSPICE",
    "licenseStatus": "ACTIVE",
    "inService": true,
    "licenseNumber": "550007271",
    "licenseEffectiveDate": "11/24/2023",
    "licenseExpirationDate": "11/23/2025",
    "dataDate": "10/18/2025",
    "capacity": 0,
    "address": "2600 FOOTHILL BLVD, SUITE 111",
    "city": "LA CRESCENTA",
    "zip": "91214",
    "county": "LOS ANGELES",
    "phone": "(747) 286-8362",
    "lat": 34.221042,
    "lng": -118.235421
  },
  {
    "id": "630026314",
    "name": "TOP PICK HOME HEALTH CARE, INC.",
    "npi": null,
    "hcaiId": "406190348",
    "businessName": "TOP PICK HOME HEALTH CARE, INC.",
    "contactEmail": "TOPPICKHHC@GMAIL.COM",
    "categoryName": "HOME HEALTH AGENCY",
    "categoryCode": "HHA",
    "licenseStatus": "ACTIVE",
    "inService": true,
    "licenseNumber": "550009085",
    "licenseEffectiveDate": "09/04/2025",
    "licenseExpirationDate": "04/21/2026",
    "dataDate": "10/18/2025",
    "capacity": 0,
    "address": "3959 FOOTHILL BLVD, SUITE 306",
    "city": "LA CRESCENTA",
    "zip": "91214",
    "county": "LOS ANGELES",
    "phone": "(818) 433-4167",
    "lat": 34.24043301,
    "lng": -118.265683
  },
  {
    "id": "630019582",
    "name": "TRANQUILITY CARE HOSPICE INC",
    "npi": "1346885134",
    "hcaiId": "406192435",
    "businessName": "TRANQUILITY CARE HOSPICE INC",
    "contactEmail": "TRANQUILITYCAREHOSPICE@GMAIL.COM",
    "categoryName": "HOSPICE",
    "categoryCode": "HOSPICE",
    "licenseStatus": "ACTIVE",
    "inService": true,
    "licenseNumber": "550005291",
    "licenseEffectiveDate": "02/12/2024",
    "licenseExpirationDate": "02/11/2026",
    "dataDate": "10/18/2025",
    "capacity": 0,
    "address": "3704 FOOTHILL BLVD",
    "city": "GLENDALE",
    "zip": "91214",
    "county": "LOS ANGELES",
    "phone": "(818) 330-9153",
    "lat": 34.236243,
    "lng": -118.259829
  },
  {
    "id": "630021285",
    "name": "TREASURE CARE HOSPICE, INC.",
    "npi": null,
    "hcaiId": "406193524",
    "businessName": "TREASURE CARE HOSPICE, INC.",
    "contactEmail": "TREASURECAREHOSPICE@GMAIL.COM",
    "categoryName": "HOSPICE",
    "categoryCode": "HOSPICE",
    "licenseStatus": "ACTIVE",
    "inService": true,
    "licenseNumber": "550006449",
    "licenseEffectiveDate": "06/23/2025",
    "licenseExpirationDate": "06/22/2027",
    "dataDate": "10/18/2025",
    "capacity": 0,
    "address": "4250 PENNSYLVANIA AVE, SUITE 203",
    "city": "LA CRESCENTA",
    "zip": "91214",
    "county": "LOS ANGELES",
    "phone": "(818) 369-7941",
    "lat": 34.2243,
    "lng": -118.248471
  },
  {
    "id": "630021804",
    "name": "UNITED HOME HEALTH, INC.",
    "npi": null,
    "hcaiId": "406193310",
    "businessName": "UNITED HOME HEALTH,INC.",
    "contactEmail": "UNITEDHOMEHEALTH8@GMAIL.COM",
    "categoryName": "HOME HEALTH AGENCY",
    "categoryCode": "HHA",
    "licenseStatus": "ACTIVE",
    "inService": true,
    "licenseNumber": "550007172",
    "licenseEffectiveDate": "11/11/2024",
    "licenseExpirationDate": "11/10/2025",
    "dataDate": "10/18/2025",
    "capacity": 0,
    "address": "3800 LA CRESCENTA AVE, SUITE 209",
    "city": "LA CRESCENTA",
    "zip": "91214",
    "county": "LOS ANGELES",
    "phone": "(818) 208-8884",
    "lat": 34.21151316,
    "lng": -118.2399433
  },
  {
    "id": "630021379",
    "name": "VALLEY STAR HOSPICE, INC",
    "npi": null,
    "hcaiId": "406193649",
    "businessName": "VALLEY STAR HOSPICE, INC.",
    "contactEmail": "VALLEYSTARHOSPICE@YAHOO.COM",
    "categoryName": "HOSPICE",
    "categoryCode": "HOSPICE",
    "licenseStatus": "ACTIVE",
    "inService": true,
    "licenseNumber": "550006933",
    "licenseEffectiveDate": "10/07/2025",
    "licenseExpirationDate": "10/06/2027",
    "dataDate": "10/18/2025",
    "capacity": 0,
    "address": "3130 FOOTHILL BLVD, UNIT 13",
    "city": "LA CRESCENTA",
    "zip": "91214",
    "county": "LOS ANGELES",
    "phone": "(818) 369-7987",
    "lat": 34.22853,
    "lng": -118.247688
  },
  {
    "id": "980001403",
    "name": "VERDUGO HILLS HOME CARE, INC.",
    "npi": "1467606582",
    "hcaiId": "406196810",
    "businessName": "VERDUGO HILLS HOME CARE, INC.",
    "contactEmail": "KATHERINEKU@VHHOMCARE.ORG",
    "categoryName": "HOME HEALTH AGENCY",
    "categoryCode": "HHA",
    "licenseStatus": "ACTIVE",
    "inService": true,
    "licenseNumber": "980000797",
    "licenseEffectiveDate": "03/03/2025",
    "licenseExpirationDate": "03/02/2026",
    "dataDate": "10/18/2025",
    "capacity": 0,
    "address": "2600 FOOTHILL BLVD, SUITE 201",
    "city": "LA CRESCENTA",
    "zip": "91214",
    "county": "LOS ANGELES",
    "phone": "(818) 542-6600",
    "lat": 34.220988,
    "lng": -118.235448
  },
  {
    "id": "630020658",
    "name": "WESTERN HOME HEALTH INC",
    "npi": null,
    "hcaiId": "406195574",
    "businessName": "WESTERN HOME HEALTH INC",
    "contactEmail": "WESTERNHHINC@GMAIL.COM",
    "categoryName": "HOME HEALTH AGENCY",
    "categoryCode": "HHA",
    "licenseStatus": "ACTIVE",
    "inService": true,
    "licenseNumber": "550007775",
    "licenseEffectiveDate": "12/16/2024",
    "licenseExpirationDate": "12/15/2025",
    "dataDate": "10/18/2025",
    "capacity": 0,
    "address": "2626 FOOTHILL BLVD, SUITE 210",
    "city": "LA CRESCENTA",
    "zip": "91214",
    "county": "LOS ANGELES",
    "phone": "(747) 231-1345",
    "lat": 34.22163902,
    "lng": -118.236534
  }
]