[
  {
    "id": "980001698",
    "name": "ALL CARE HOME HEALTH PROVIDER",
    "npi": "1154387926",
    "hcaiId": "406194844",
    "businessName": "ALL CARE HOME HEALTH PROVIDER",
    "contactEmail": "ALLCAREHH@AOL.COM",
    "categoryName": "HOME HEALTH AGENCY",
    "categoryCode": "HHA",
    "licenseStatus": "ACTIVE",
    "inService": true,
    "licenseNumber": "980000972",
    "licenseEffectiveDate": "02/09/2025",
    "licenseExpirationDate": "02/08/2026",
    "dataDate": "10/18/2025",
    "capacity": 0,
    "address": "100 W BROADWAY, SUITE 830",
    "city": "GLENDALE",
    "zip": "91210",
    "county": "LOS ANGELES",
    "phone": "(818) 241-2473",
    "lat": 34.146396,
    "lng": -118.257354
  },
  {
    "id": "980002433",
    "name": "ALL CARE HOSPICE",
    "npi": null,
    "hcaiId": "406196457",
    "businessName": "ALL CARE HOSPICE",
    "contactEmail": "ALLCAREHH@AOL.COM",
    "categoryName": "HOSPICE",
    "categoryCode": "HOSPICE",
    "licenseStatus": "ACTIVE",
    "inService": true,
    "licenseNumber": "980001540",
    "licenseEffectiveDate": "04/08/2024",
    "licenseExpirationDate": "04/07/2026",
    "dataDate": "10/18/2025",
    "capacity": 0,
    "address": "100 W BROADWAY, SUITE 810",
    "city": "GLENDALE",
    "zip": "91210",
    "county": "LOS ANGELES",
    "phone": "(818) 241-9108",
    "lat": 34.146396,
    "lng": -118.257354
  },
  {
    "id": "980001421",
    "name": "COMCARE HOME HEALTH, INC.",
    "npi": "1003872862",
    "hcaiId": "406194582",
    "businessName": "COMCARE HOME HEALTH, INC",
    "contactEmail": "CHOMEHEALTH@AOL.COM",
    "categoryName": "HOME HEALTH AGENCY",
    "categoryCode": "HHA",
    "licenseStatus": "ACTIVE",
    "inService": true,
    "licenseNumber": "980000798",
    "licenseEffectiveDate": "11/22/2025",
    "licenseExpirationDate": "11/21/2026",
    "dataDate": "10/18/2025",
    "capacity": 0,
    "address": "100 W BROADWAY, SUITE 800",
    "city": "GLENDALE",
    "zip": "91210",
    "county": "LOS ANGELES",
    "phone": "(818) 952-5164",
    "lat": 34.146099,
    "lng": -118.256805
  },
  {
    "id": "630026302",
    "name": "FIRST HOPE HOME HEALTH CARE, INC.",
    "npi": null,
    "hcaiId": null,
    "businessName": "FIRST HOPE HOME HEALTH CARE, INC.",
    "contactEmail": "FIRSTHOPEHH@GMAIL.COM",
    "categoryName": "HOME HEALTH AGENCY",
    "categoryCode": "HHA",
    "licenseStatus": "ACTIVE",
    "inService": true,
    "licenseNumber": "550009251",
    "licenseEffectiveDate": "07/03/2025",
    "licenseExpirationDate": "07/02/2026",
    "dataDate": "10/18/2025",
    "capacity": 0,
    "address": "100 W BROADWAY, SUITE 250",
    "city": "GLENDALE",
    "zip": "91210",
    "county": "LOS ANGELES",
    "phone": "(818) 697-0599",
    "lat": 34.146072,
    "lng": -118.257435
  }
]