[
  {
    "id": "630015582",
    "name": "360 HOME HEALTH AGENCY",
    "npi": "1104220623",
    "hcaiId": "406198215",
    "businessName": "360 HOME HEALTH AGENCY",
    "contactEmail": "360HHA@GMAIL.COM",
    "categoryName": "HOME HEALTH AGENCY",
    "categoryCode": "HHA",
    "licenseStatus": "ACTIVE",
    "inService": true,
    "licenseNumber": "550003412",
    "licenseEffectiveDate": "02/12/2025",
    "licenseExpirationDate": "02/11/2026",
    "dataDate": "10/18/2025",
    "capacity": 0,
    "address": "21133 VICTORY BLVD, SUITE 206",
    "city": "CANOGA PARK",
    "zip": "91303",
    "county": "LOS ANGELES",
    "phone": "(818) 888-0100",
    "lat": 34.18879399,
    "lng": -118.593694
  },
  {
    "id": "630019341",
    "name": "ACCENT HOME HEALTH, INC.",
    "npi": "1174174114",
    "hcaiId": "406192736",
    "businessName": "ACCENT HOME HEALTH, INC.",
    "contactEmail": "ACCENTHOMEHEALTHINC@GMAIL.COM",
    "categoryName": "HOME HEALTH AGENCY",
    "categoryCode": "HHA",
    "licenseStatus": "ACTIVE",
    "inService": true,
    "licenseNumber": "550005543",
    "licenseEffectiveDate": "06/12/2025",
    "licenseExpirationDate": "06/11/2026",
    "dataDate": "10/18/2025",
    "capacity": 0,
    "address": "20944 SHERMAN WAY, SUITE 116",
    "city": "CANOGA PARK",
    "zip": "91303",
    "county": "LOS ANGELES",
    "phone": "(818) 533-8844",
    "lat": 34.20072102,
    "lng": -118.590045
  },
  {
    "id": "630024740",
    "name": "AMELIORATE HOME HEALTH INC",
    "npi": null,
    "hcaiId": null,
    "businessName": "AMELIORATE HOME HEALTH INC",
    "contactEmail": "AMELIORATEHOMEHEALTH@GMAIL.COM",
    "categoryName": "HOME HEALTH AGENCY",
    "categoryCode": "HHA",
    "licenseStatus": "ACTIVE",
    "inService": true,
    "licenseNumber": "550009068",
    "licenseEffectiveDate": "04/01/2025",
    "licenseExpirationDate": "03/31/2026",
    "dataDate": "10/18/2025",
    "capacity": 0,
    "address": "21044 SHERMAN WAY, SUITE 224",
    "city": "CANOGA PARK",
    "zip": "91303",
    "county": "LOS ANGELES",
    "phone": "(818) 570-3473",
    "lat": 34.20071498,
    "lng": -118.59221
  },
  {
    "id": "630027728",
    "name": "AMERICAN HUMANITY HEALTHCARE INC.",
    "npi": null,
    "hcaiId": null,
    "businessName": "AMERICAN HUMANITY HEALTHCARE INC.",
    "contactEmail": "AMERICANHHINC@GMAIL.COM",
    "categoryName": "HOME HEALTH AGENCY",
    "categoryCode": "HHA",
    "licenseStatus": "ACTIVE",
    "inService": true,
    "licenseNumber": "550009812",
    "licenseEffectiveDate": "11/21/2025",
    "licenseExpirationDate": "05/20/2026",
    "dataDate": "10/18/2025",
    "capacity": 0,
    "address": "7301 TOPANGA CANYON BLVD, SUITE 302",
    "city": "CANOGA PARK",
    "zip": "91303",
    "county": "LOS ANGELES",
    "phone": "(747) 226-0039",
    "lat": 34.20322302,
    "lng": -118.606297
  },
  {
    "id": "630025091",
    "name": "AMERICAN STANDARD HOME HEALTH",
    "npi": null,
    "hcaiId": "406196301",
    "businessName": "AMERICAN STANDARD HOME HEALTH",
    "contactEmail": "AMERICANSTANDARDHOMEHEALTH@GMAIL.COM",
    "categoryName": "HOME HEALTH AGENCY",
    "categoryCode": "HHA",
    "licenseStatus": "ACTIVE",
    "inService": true,
    "licenseNumber": "550008456",
    "licenseEffectiveDate": "03/22/2025",
    "licenseExpirationDate": "03/21/2026",
    "dataDate": "10/18/2025",
    "capacity": 0,
    "address": "7335 TOPANGA CANYON BLVD, SUITE 202",
    "city": "CANOGA PARK",
    "zip": "91303",
    "county": "LOS ANGELES",
    "phone": "(747) 249-3502",
    "lat": 34.203906,
    "lng": -118.6061805
  },
  {
    "id": "630011321",
    "name": "ANGEL HEART HOME HEALTH CARE",
    "npi": "1164644894",
    "hcaiId": "406197197",
    "businessName": "ASANT HOME HEALTH CARE, INC.",
    "contactEmail": "JHELMERS@ANGELHEARTMED.COM",
    "categoryName": "HOME HEALTH AGENCY",
    "categoryCode": "HHA",
    "licenseStatus": "ACTIVE",
    "inService": true,
    "licenseNumber": "550000827",
    "licenseEffectiveDate": "12/05/2024",
    "licenseExpirationDate": "12/04/2025",
    "dataDate": "10/18/2025",
    "capacity": 0,
    "address": "7108 DE SOTO AVE, SUITE 200A",
    "city": "CANOGA PARK",
    "zip": "91303",
    "county": "LOS ANGELES",
    "phone": "(818) 646-1962",
    "lat": 34.19946101,
    "lng": -118.588101
  },
  {
    "id": "630026049",
    "name": "ANGELIC HOME HEALTH CARE, INC.",
    "npi": null,
    "hcaiId": null,
    "businessName": "ANGELIC HOME HEALTH CARE, INC.",
    "contactEmail": "ANGELICHOMEHEALTHCAREINC@GMAIL.COM",
    "categoryName": "HOME HEALTH AGENCY",
    "categoryCode": "HHA",
    "licenseStatus": "ACTIVE",
    "inService": true,
    "licenseNumber": "550008990",
    "licenseEffectiveDate": "03/01/2025",
    "licenseExpirationDate": "02/28/2026",
    "dataDate": "10/18/2025",
    "capacity": 0,
    "address": "22156 SHERMAN WAY, SUITE G1",
    "city": "CANOGA PARK",
    "zip": "91303",
    "county": "LOS ANGELES",
    "phone": "(747) 230-4029",
    "lat": 34.200738,
    "lng": -118.609983
  },
  {
    "id": "630025602",
    "name": "ARCHWOOD HOME HEALTH CARE",
    "npi": null,
    "hcaiId": "406197049",
    "businessName": "ARCHWOOD HOME HEALTH CARE",
    "contactEmail": "ARCHWOODHHC@GMAIL.COM",
    "categoryName": "HOME HEALTH AGENCY",
    "categoryCode": "HHA",
    "licenseStatus": "ACTIVE",
    "inService": true,
    "licenseNumber": "550008718",
    "licenseEffectiveDate": "08/29/2025",
    "licenseExpirationDate": "08/28/2026",
    "dataDate": "10/18/2025",
    "capacity": 0,
    "address": "6912 OWENSMOUTH AVE, SUITE 209",
    "city": "CANOGA PARK",
    "zip": "91303",
    "county": "LOS ANGELES",
    "phone": "(747) 216-8015",
    "lat": 34.195959,
    "lng": -118.601379
  },
  {
    "id": "630022426",
    "name": "ASAY HOME HEALTH, INC.",
    "npi": null,
    "hcaiId": "406195938",
    "businessName": "ASAY HOME HEALTH, INC.",
    "contactEmail": "ASAYCARE@GMAIL.COM",
    "categoryName": "HOME HEALTH AGENCY",
    "categoryCode": "HHA",
    "licenseStatus": "ACTIVE",
    "inService": true,
    "licenseNumber": "550008257",
    "licenseEffectiveDate": "12/13/2024",
    "licenseExpirationDate": "12/12/2025",
    "dataDate": "10/18/2025",
    "capacity": 0,
    "address": "7041 OWENSMOUTH AVE, SUITE 105-A",
    "city": "CANOGA PARK",
    "zip": "91303",
    "county": "LOS ANGELES",
    "phone": "(747) 242-1030",
    "lat": 34.198443,
    "lng": -118.6017255
  },
  {
    "id": "630021767",
    "name": "AYAS HOSPICE, INC.",
    "npi": null,
    "hcaiId": "406195175",
    "businessName": "AYAS HOSPICE, INC",
    "contactEmail": "AYASHOSPICE@GMAIL.COM",
    "categoryName": "HOSPICE",
    "categoryCode": "HOSPICE",
    "licenseStatus": "ACTIVE",
    "inService": true,
    "licenseNumber": "550007576",
    "licenseEffectiveDate": "12/18/2023",
    "licenseExpirationDate": "12/17/2025",
    "dataDate": "10/18/2025",
    "capacity": 0,
    "address": "7041 OWENSMOUTH AVE, SUITE 105-B",
    "city": "CANOGA PARK",
    "zip": "91303",
    "county": "LOS ANGELES",
    "phone": "(747) 242-1066",
    "lat": 34.198443,
    "lng": -118.6017255
  },
  {
    "id": "630021413",
    "name": "AYVA HOME HEALTH SERVICES INC",
    "npi": null,
    "hcaiId": "406193176",
    "businessName": "AYVA HOME HEALTH SERVICES INC",
    "contactEmail": "AYVAHEALTH@YAHOO.COM",
    "categoryName": "HOME HEALTH AGENCY",
    "categoryCode": "HHA",
    "licenseStatus": "ACTIVE",
    "inService": true,
    "licenseNumber": "550007050",
    "licenseEffectiveDate": "10/28/2025",
    "licenseExpirationDate": "10/27/2026",
    "dataDate": "10/18/2025",
    "capacity": 0,
    "address": "20944 SHERMAN WAY, SUITE 209",
    "city": "CANOGA PARK",
    "zip": "91303",
    "county": "LOS ANGELES",
    "phone": "(747) 242-1144",
    "lat": 34.200953,
    "lng": -118.58988
  },
  {
    "id": "630022018",
    "name": "BE WISE HOSPICE, INC.",
    "npi": null,
    "hcaiId": "406195717",
    "businessName": "BE WISE HOSPICE, INC",
    "contactEmail": "BEWISEHOSPICEINC@GMAIL.COM",
    "categoryName": "HOSPICE",
    "categoryCode": "HOSPICE",
    "licenseStatus": "ACTIVE",
    "inService": true,
    "licenseNumber": "550007688",
    "licenseEffectiveDate": "12/28/2023",
    "licenseExpirationDate": "12/27/2025",
    "dataDate": "10/18/2025",
    "capacity": 0,
    "address": "22148 SHERMAN WAY, SUITE 212",
    "city": "CANOGA PARK",
    "zip": "91303",
    "county": "LOS ANGELES",
    "phone": "(818) 300-4994",
    "lat": 34.200738,
    "lng": -118.6097355
  },
  {
    "id": "630022013",
    "name": "BEST HOPE HOSPICE, INC.",
    "npi": null,
    "hcaiId": "406195203",
    "businessName": "BEST HOPE HOSPICE, INC.",
    "contactEmail": "BESTHOPEHOSPICEINC@GMAIL.COM",
    "categoryName": "HOSPICE",
    "categoryCode": "HOSPICE",
    "licenseStatus": "ACTIVE",
    "inService": true,
    "licenseNumber": "550007478",
    "licenseEffectiveDate": "12/06/2023",
    "licenseExpirationDate": "12/05/2025",
    "dataDate": "10/18/2025",
    "capacity": 0,
    "address": "7301 TOPANGA CANYON BLVD, SUITE 301",
    "city": "CANOGA PARK",
    "zip": "91303",
    "county": "LOS ANGELES",
    "phone": "(310) 880-9317",
    "lat": 34.203015,
    "lng": -118.606167
  },
  {
    "id": "630015993",
    "name": "BLESSED CARE HOSPICE INC.",
    "npi": null,
    "hcaiId": "406197163",
    "businessName": "BLESSED CARE HOSPICE INC.",
    "contactEmail": "INFO@BLESSEDCAREHOSPICE.COM",
    "categoryName": "HOSPICE",
    "categoryCode": "HOSPICE",
    "licenseStatus": "ACTIVE",
    "inService": true,
    "licenseNumber": "550003311",
    "licenseEffectiveDate": "05/30/2024",
    "licenseExpirationDate": "11/29/2025",
    "dataDate": "10/18/2025",
    "capacity": 0,
    "address": "7301 TOPANGA CANYON BLVD, SUITE 359",
    "city": "CANOGA PARK",
    "zip": "91303",
    "county": "LOS ANGELES",
    "phone": "(310) 895-6694",
    "lat": 34.20322302,
    "lng": -118.606297
  },
  {
    "id": "630026502",
    "name": "BLUE WAVES HOME HEALTH CARE, INC.",
    "npi": null,
    "hcaiId": null,
    "businessName": "BLUE WAVES HOME HEALTH CARE, INC.",
    "contactEmail": "BLUEWAVESHOMEHEALTHCARE@GMAIL.COM",
    "categoryName": "HOME HEALTH AGENCY",
    "categoryCode": "HHA",
    "licenseStatus": "ACTIVE",
    "inService": true,
    "licenseNumber": "550009128",
    "licenseEffectiveDate": "05/10/2025",
    "licenseExpirationDate": "05/09/2026",
    "dataDate": "10/18/2025",
    "capacity": 0,
    "address": "7251 TOPANGA CANYON BLVD, SUITE B2",
    "city": "CANOGA PARK",
    "zip": "91303",
    "county": "LOS ANGELES",
    "phone": "(747) 444-4476",
    "lat": 34.202421,
    "lng": -118.606185
  },
  {
    "id": "630019674",
    "name": "CALSTATE HOSPICE, INC.",
    "npi": null,
    "hcaiId": "406192776",
    "businessName": "CALSTATE HOSPICE, INC.",
    "contactEmail": "CALSTATEHOSPICE@GMAIL.COM",
    "categoryName": "HOSPICE",
    "categoryCode": "HOSPICE",
    "licenseStatus": "ACTIVE",
    "inService": true,
    "licenseNumber": "550005523",
    "licenseEffectiveDate": "05/15/2022",
    "licenseExpirationDate": "05/14/2024",
    "dataDate": "10/18/2025",
    "capacity": 0,
    "address": "22048 SHERMAN WAY, SUITE 201",
    "city": "CANOGA PARK",
    "zip": "91303",
    "county": "LOS ANGELES",
    "phone": "(818) 745-0045",
    "lat": 34.200747,
    "lng": -118.607778
  },
  {
    "id": "920000083",
    "name": "CANYON OAKS NURSING AND REHABILITATION CENTER",
    "npi": "1548252620",
    "hcaiId": "206190131",
    "businessName": "GHC OF CANOGA PARK, LLC",
    "contactEmail": "GABRIELDAHER@LIFEGEN.NET",
    "categoryName": "SKILLED NURSING FACILITY",
    "categoryCode": "SNF",
    "licenseStatus": "ACTIVE",
    "inService": true,
    "licenseNumber": "920000014",
    "licenseEffectiveDate": "02/01/2025",
    "licenseExpirationDate": "01/25/2026",
    "dataDate": "10/18/2025",
    "capacity": 185,
    "address": "22029 SATICOY ST",
    "city": "CANOGA PARK",
    "zip": "91303",
    "county": "LOS ANGELES",
    "phone": "(818) 887-7050",
    "lat": 34.208451,
    "lng": -118.607184
  },
  {
    "id": "630018327",
    "name": "CAREMED HOSPICE INC",
    "npi": null,
    "hcaiId": "406193217",
    "businessName": "CAREMED HOSPICE INC",
    "contactEmail": "CAREMEDHOSPICE@GMAIL.COM",
    "categoryName": "HOSPICE",
    "categoryCode": "HOSPICE",
    "licenseStatus": "ACTIVE",
    "inService": true,
    "licenseNumber": "550006221",
    "licenseEffectiveDate": "04/21/2025",
    "licenseExpirationDate": "04/20/2027",
    "dataDate": "10/18/2025",
    "capacity": 0,
    "address": "22048 SHERMAN WAY, SUITE 309",
    "city": "CANOGA PARK",
    "zip": "91303",
    "county": "LOS ANGELES",
    "phone": "(818) 857-4958",
    "lat": 34.200747,
    "lng": -118.607778
  },
  {
    "id": "630011503",
    "name": "CARESS HOME HEALTH PROVIDERS, INC.",
    "npi": null,
    "hcaiId": "406197345",
    "businessName": "CARESS HOME HEALTH PROVIDERS, INC.",
    "contactEmail": "CARESS.HOMEHEALTH@YAHOO.COM",
    "categoryName": "HOME HEALTH AGENCY",
    "categoryCode": "HHA",
    "licenseStatus": "ACTIVE",
    "inService": true,
    "licenseNumber": "550000924",
    "licenseEffectiveDate": "03/19/2025",
    "licenseExpirationDate": "03/18/2026",
    "dataDate": "10/18/2025",
    "capacity": 0,
    "address": "22048 SHERMAN WAY, SUITE 302-303",
    "city": "CANOGA PARK",
    "zip": "91303",
    "county": "LOS ANGELES",
    "phone": "(818) 884-3855",
    "lat": 34.200747,
    "lng": -118.607778
  },
  {
    "id": "630026175",
    "name": "CLINICA MONSENOR OSCAR A. ROMERO - CANOGA PARK",
    "npi": null,
    "hcaiId": null,
    "businessName": "CLINICA MSR. OSCAR A ROMERO",
    "contactEmail": "CVAQUERANO@CLINICAROMERO.COM",
    "categoryName": "PRIMARY CARE CLINIC",
    "categoryCode": "FQHC/COMTYC",
    "licenseStatus": "ACTIVE",
    "inService": true,
    "licenseNumber": "960000308",
    "licenseEffectiveDate": "11/05/2025",
    "licenseExpirationDate": "11/04/2026",
    "dataDate": "10/18/2025",
    "capacity": 0,
    "address": "21013 SHERMAN WAY, SUITE #4 & 4A",
    "city": "CANOGA PARK",
    "zip": "91303",
    "county": "LOS ANGELES",
    "phone": "(818) 887-9697",
    "lat": 34.20198,
    "lng": -118.5916005
  },
  {
    "id": "630025022",
    "name": "EASY CHOICE HOME HEALTH CARE INC.",
    "npi": null,
    "hcaiId": "406196266",
    "businessName": "EASY CHOICE HOME HEALTH CARE INC.",
    "contactEmail": "EASYCHOICEHHA@GMAIL.COM",
    "categoryName": "HOME HEALTH AGENCY",
    "categoryCode": "HHA",
    "licenseStatus": "ACTIVE",
    "inService": true,
    "licenseNumber": "550008454",
    "licenseEffectiveDate": "03/27/2025",
    "licenseExpirationDate": "03/26/2026",
    "dataDate": "10/18/2025",
    "capacity": 0,
    "address": "6912 OWENSMOUTH AVE, SUITE 104",
    "city": "CANOGA PARK",
    "zip": "91303",
    "county": "LOS ANGELES",
    "phone": "(818) 835-9777",
    "lat": 34.195959,
    "lng": -118.601379
  },
  {
    "id": "630020115",
    "name": "EMINENT HOSPICE, INC.",
    "npi": null,
    "hcaiId": "406193934",
    "businessName": "EMINENT HOSPICE, INC.",
    "contactEmail": "EMINENTHOSPICEINC@GMAIL.COM",
    "categoryName": "HOSPICE",
    "categoryCode": "HOSPICE",
    "licenseStatus": "ACTIVE",
    "inService": true,
    "licenseNumber": "550007409",
    "licenseEffectiveDate": "12/09/2023",
    "licenseExpirationDate": "12/08/2025",
    "dataDate": "10/18/2025",
    "capacity": 0,
    "address": "7301 TOPANGA CANYON BLVD, SUITE 360",
    "city": "CANOGA PARK",
    "zip": "91303",
    "county": "LOS ANGELES",
    "phone": "(559) 421-7138",
    "lat": 34.203015,
    "lng": -118.606167
  },
  {
    "id": "630016287",
    "name": "EMPRESS HOSPICE INC",
    "npi": "1407239163",
    "hcaiId": "406190694",
    "businessName": "EMPRESS HOSPICE INC",
    "contactEmail": "GRACETOC@YAHOO.COM",
    "categoryName": "HOSPICE",
    "categoryCode": "HOSPICE",
    "licenseStatus": "ACTIVE",
    "inService": true,
    "licenseNumber": "550004127",
    "licenseEffectiveDate": "04/05/2024",
    "licenseExpirationDate": "04/04/2026",
    "dataDate": "10/18/2025",
    "capacity": 0,
    "address": "7301 TOPANGA CANYON BLVD, SUITE 370",
    "city": "CANOGA PARK",
    "zip": "91303",
    "county": "LOS ANGELES",
    "phone": "(818) 970-0441",
    "lat": 34.203015,
    "lng": -118.606167
  },
  {
    "id": "630017191",
    "name": "ENSURE HOME HEALTH CARE, INC.",
    "npi": null,
    "hcaiId": "406192440",
    "businessName": "ENSURE HOME HEALTH CARE, INC.",
    "contactEmail": "ENSUREHOMEHEALTHCARE@GMAIL.COM",
    "categoryName": "HOME HEALTH AGENCY",
    "categoryCode": "HHA",
    "licenseStatus": "ACTIVE",
    "inService": true,
    "licenseNumber": "550005466",
    "licenseEffectiveDate": "05/15/2025",
    "licenseExpirationDate": "05/14/2026",
    "dataDate": "10/18/2025",
    "capacity": 0,
    "address": "20944 SHERMAN WAY, SUITE 106",
    "city": "CANOGA PARK",
    "zip": "91303",
    "county": "LOS ANGELES",
    "phone": "(818) 805-9044",
    "lat": 34.20072,
    "lng": -118.5901425
  },
  {
    "id": "630014463",
    "name": "EVERLASTING HOSPICE, INC.",
    "npi": "1205105293",
    "hcaiId": "406191506",
    "businessName": "EVERLASTING HOSPICE, INC.",
    "contactEmail": "EVERLASTINGHOSPICE1772@GMAIL.COM",
    "categoryName": "HOSPICE",
    "categoryCode": "HOSPICE",
    "licenseStatus": "ACTIVE",
    "inService": true,
    "licenseNumber": "550002773",
    "licenseEffectiveDate": "07/11/2022",
    "licenseExpirationDate": "07/10/2024",
    "dataDate": "10/18/2025",
    "capacity": 0,
    "address": "21054 SHERMAN WAY, SUITE 305",
    "city": "CANOGA PARK",
    "zip": "91303",
    "county": "LOS ANGELES",
    "phone": "(818) 989-9545",
    "lat": 34.200846,
    "lng": -118.5924375
  },
  {
    "id": "630012825",
    "name": "EVERLOVING HOME HEALTH, INC.",
    "npi": "1366759292",
    "hcaiId": "406197503",
    "businessName": "EVERLOVING HOME HEALTH, INC.",
    "contactEmail": "SHAIDA@EVERLOVINGHOMEHEALTH.COM",
    "categoryName": "HOME HEALTH AGENCY",
    "categoryCode": "HHA",
    "licenseStatus": "ACTIVE",
    "inService": true,
    "licenseNumber": "550001588",
    "licenseEffectiveDate": "03/15/2023",
    "licenseExpirationDate": "03/14/2024",
    "dataDate": "10/18/2025",
    "capacity": 0,
    "address": "6930 OWENSMOUTH AVE, SUITE 300",
    "city": "CANOGA PARK",
    "zip": "91303",
    "county": "LOS ANGELES",
    "phone": "(818) 564-4718",
    "lat": 34.196553,
    "lng": -118.6012755
  },
  {
    "id": "630015746",
    "name": "EVERLOVING HOSPICE INC.",
    "npi": "1265858724",
    "hcaiId": "406198419",
    "businessName": "EVERLOVING HOSPICE INC.",
    "contactEmail": "SHAIDA@EVERLOVINGHOMEHEALTH.COM",
    "categoryName": "HOSPICE",
    "categoryCode": "HOSPICE",
    "licenseStatus": "ACTIVE",
    "inService": true,
    "licenseNumber": "550003878",
    "licenseEffectiveDate": "05/09/2023",
    "licenseExpirationDate": "05/08/2025",
    "dataDate": "10/18/2025",
    "capacity": 0,
    "address": "6930 OWENSMOUTH AVE, SUITE 202",
    "city": "CANOGA PARK",
    "zip": "91303",
    "county": "LOS ANGELES",
    "phone": "(818) 479-7777",
    "lat": 34.196553,
    "lng": -118.6012755
  },
  {
    "id": "630020937",
    "name": "EVOLVE HOME HEALTH",
    "npi": null,
    "hcaiId": "406193409",
    "businessName": "EVOLVE HOME HEALTH",
    "contactEmail": "EVOLVEHOMEHEALTH@GMAIL.COM",
    "categoryName": "HOME HEALTH AGENCY",
    "categoryCode": "HHA",
    "licenseStatus": "ACTIVE",
    "inService": true,
    "licenseNumber": "550007100",
    "licenseEffectiveDate": "10/13/2024",
    "licenseExpirationDate": "10/12/2025",
    "dataDate": "10/18/2025",
    "capacity": 0,
    "address": "22048 SHERMAN WAY, SUITE 313",
    "city": "CANOGA PARK",
    "zip": "91303",
    "county": "LOS ANGELES",
    "phone": "(747) 230-4215",
    "lat": 34.200747,
    "lng": -118.607778
  },
  {
    "id": "630021431",
    "name": "FAMILY AID HOSPICE & PALLIATIVE CARE INC",
    "npi": null,
    "hcaiId": "406193936",
    "businessName": "FAMILY AID HOSPICE & PALLIATIVE CARE INC",
    "contactEmail": "FAMILYAIDHOSPICE@GMAIL.COM",
    "categoryName": "HOSPICE",
    "categoryCode": "HOSPICE",
    "licenseStatus": "ACTIVE",
    "inService": true,
    "licenseNumber": "550007080",
    "licenseEffectiveDate": "10/29/2025",
    "licenseExpirationDate": "10/28/2027",
    "dataDate": "10/18/2025",
    "capacity": 0,
    "address": "7345 TOPANGA CANYON BLVD, SUITE 120",
    "city": "CANOGA PARK",
    "zip": "91303",
    "county": "LOS ANGELES",
    "phone": "(747) 900-5441",
    "lat": 34.204131,
    "lng": -118.605993
  },
  {
    "id": "630020265",
    "name": "GOLDEN LIFE HOME HEALTH, INC.",
    "npi": null,
    "hcaiId": "406193041",
    "businessName": "GOLDEN LIFE HOME HEALTH, INC.",
    "contactEmail": "GOLDENLIFEHOMEH@GMAIL.COM",
    "categoryName": "HOME HEALTH AGENCY",
    "categoryCode": "HHA",
    "licenseStatus": "ACTIVE",
    "inService": true,
    "licenseNumber": "550006161",
    "licenseEffectiveDate": "03/19/2025",
    "licenseExpirationDate": "03/18/2026",
    "dataDate": "10/18/2025",
    "capacity": 0,
    "address": "7301 TOPANGA CANYON BLVD, #355",
    "city": "CANOGA PARK",
    "zip": "91303",
    "county": "LOS ANGELES",
    "phone": "(818) 421-2111",
    "lat": 34.203015,
    "lng": -118.606167
  },
  {
    "id": "630025179",
    "name": "GOLDEN STATE HOME HEALTH AGENCY",
    "npi": null,
    "hcaiId": null,
    "businessName": "GOLDEN STATE HOME HEALTH AGENCY, INC.",
    "contactEmail": "GOLDENHHA@GMAIL.COM",
    "categoryName": "HOME HEALTH AGENCY",
    "categoryCode": "HHA",
    "licenseStatus": "ACTIVE",
    "inService": true,
    "licenseNumber": "550008352",
    "licenseEffectiveDate": "01/26/2025",
    "licenseExpirationDate": "01/25/2026",
    "dataDate": "10/18/2025",
    "capacity": 0,
    "address": "21133 VICTORY BLVD, SUITE 203",
    "city": "CANOGA PARK",
    "zip": "91303",
    "county": "LOS ANGELES",
    "phone": "(818) 835-9888",
    "lat": 34.188831,
    "lng": -118.5936345
  },
  {
    "id": "630026031",
    "name": "GOODLIFE HHA, INC.",
    "npi": null,
    "hcaiId": null,
    "businessName": "GOODLIFE HHA, INC.",
    "contactEmail": "GOODLIFEHHA91@GMAIL.COM",
    "categoryName": "HOME HEALTH AGENCY",
    "categoryCode": "HHA",
    "licenseStatus": "ACTIVE",
    "inService": true,
    "licenseNumber": "550009116",
    "licenseEffectiveDate": "05/09/2025",
    "licenseExpirationDate": "05/08/2026",
    "dataDate": "10/18/2025",
    "capacity": 0,
    "address": "20944 SHERMAN WAY, SUITE 216",
    "city": "CANOGA PARK",
    "zip": "91303",
    "county": "LOS ANGELES",
    "phone": "(818) 221-1241",
    "lat": 34.200855,
    "lng": -118.5898815
  },
  {
    "id": "630013152",
    "name": "GREAT CHOICE HOSPICE, INC.",
    "npi": "1063979797",
    "hcaiId": "406197795",
    "businessName": "GREAT CHOICE HOSPICE, INC.",
    "contactEmail": "GREATCHOICEHOSPICE@GMAIL.COM",
    "categoryName": "HOSPICE",
    "categoryCode": "HOSPICE",
    "licenseStatus": "ACTIVE",
    "inService": true,
    "licenseNumber": "550002209",
    "licenseEffectiveDate": "10/09/2022",
    "licenseExpirationDate": "10/08/2024",
    "dataDate": "10/18/2025",
    "capacity": 0,
    "address": "22222 SHERMAN WAY, SUITE 102",
    "city": "CANOGA PARK",
    "zip": "91303",
    "county": "LOS ANGELES",
    "phone": "(747) 999-5655",
    "lat": 34.200729,
    "lng": -118.6113105
  },
  {
    "id": "630026666",
    "name": "GREATER VALLEY HOME HEALTH, INC.",
    "npi": null,
    "hcaiId": null,
    "businessName": "GREATER VALLEY HOME HEALTH, INC.",
    "contactEmail": "GREATERVALLEYHOMEHEALTH@GMAIL.COM",
    "categoryName": "HOME HEALTH AGENCY",
    "categoryCode": "HHA",
    "licenseStatus": "ACTIVE",
    "inService": true,
    "licenseNumber": "550009109",
    "licenseEffectiveDate": "05/02/2025",
    "licenseExpirationDate": "05/01/2026",
    "dataDate": "10/18/2025",
    "capacity": 0,
    "address": "20944 SHERMAN WAY, SUITE 206B",
    "city": "CANOGA PARK",
    "zip": "91303",
    "county": "LOS ANGELES",
    "phone": "(747) 207-1797",
    "lat": 34.200855,
    "lng": -118.5898815
  },
  {
    "id": "630027965",
    "name": "HEALTH UNION HOME HEALTH INC",
    "npi": null,
    "hcaiId": null,
    "businessName": "HEALTH UNION HOME HEALTH INC",
    "contactEmail": "HEALTHUNION985@GMAIL.COM",
    "categoryName": "HOME HEALTH AGENCY",
    "categoryCode": "HHA",
    "licenseStatus": "ACTIVE",
    "inService": true,
    "licenseNumber": "550009907",
    "licenseEffectiveDate": "08/01/2025",
    "licenseExpirationDate": "01/31/2026",
    "dataDate": "10/18/2025",
    "capacity": 0,
    "address": "7301 TOPANGA CANYON BLVD, SUITE 351",
    "city": "CANOGA PARK",
    "zip": "91303",
    "county": "LOS ANGELES",
    "phone": "(747) 273-0548",
    "lat": 34.20322302,
    "lng": -118.606297
  },
  {
    "id": "630025775",
    "name": "HELP TO HEAL HHC, INC.",
    "npi": null,
    "hcaiId": "406190058",
    "businessName": "HELP TO HEAL HHC, INC.",
    "contactEmail": "HELPTOHEALHHC@GMAIL.COM",
    "categoryName": "HOME HEALTH AGENCY",
    "categoryCode": "HHA",
    "licenseStatus": "ACTIVE",
    "inService": true,
    "licenseNumber": "550008886",
    "licenseEffectiveDate": "01/04/2025",
    "licenseExpirationDate": "01/03/2026",
    "dataDate": "10/18/2025",
    "capacity": 0,
    "address": "22122 SHERMAN WAY, SUITE 307",
    "city": "CANOGA PARK",
    "zip": "91303",
    "county": "LOS ANGELES",
    "phone": "(747) 577-9005",
    "lat": 34.200729,
    "lng": -118.6089795
  },
  {
    "id": "630025567",
    "name": "HOPE PLUS HEALTH CARE",
    "npi": null,
    "hcaiId": "406190101",
    "businessName": "HOPE PLUS HEALTH CARE",
    "contactEmail": "HOPEPLUSHC@GMAIL.COM",
    "categoryName": "HOME HEALTH AGENCY",
    "categoryCode": "HHA",
    "licenseStatus": "ACTIVE",
    "inService": true,
    "licenseNumber": "550008857",
    "licenseEffectiveDate": "11/15/2024",
    "licenseExpirationDate": "11/14/2025",
    "dataDate": "10/18/2025",
    "capacity": 0,
    "address": "21044 SHERMAN WAY, SUITE 230",
    "city": "CANOGA PARK",
    "zip": "91303",
    "county": "LOS ANGELES",
    "phone": "(747) 724-2074",
    "lat": 34.200846,
    "lng": -118.5920595
  },
  {
    "id": "630014788",
    "name": "HOSPICE GROUP OF SOUTHERN CALIFORNIA, INC.",
    "npi": null,
    "hcaiId": "406198474",
    "businessName": "HOSPICE GROUP OF SOUTHERN CALIFORNIA, INC.",
    "contactEmail": "HOSPICEGROUPOFSOUTHERNCA@GMAIL.COM",
    "categoryName": "HOSPICE",
    "categoryCode": "HOSPICE",
    "licenseStatus": "ACTIVE",
    "inService": true,
    "licenseNumber": "550003122",
    "licenseEffectiveDate": "06/04/2023",
    "licenseExpirationDate": "06/03/2025",
    "dataDate": "10/18/2025",
    "capacity": 0,
    "address": "7041 OWENSMOUTH AVE, SUITE 202",
    "city": "CANOGA PARK",
    "zip": "91303",
    "county": "LOS ANGELES",
    "phone": "(818) 337-2628",
    "lat": 34.198569,
    "lng": -118.601901
  },
  {
    "id": "630025218",
    "name": "IHOME HEALTH SOLUTIONS",
    "npi": null,
    "hcaiId": "406196230",
    "businessName": "IHOME HEALTH SOLUTIONS",
    "contactEmail": "IHOMEHEALTHSOLUTIONS@GMAIL.COM",
    "categoryName": "HOME HEALTH AGENCY",
    "categoryCode": "HHA",
    "licenseStatus": "ACTIVE",
    "inService": true,
    "licenseNumber": "550008407",
    "licenseEffectiveDate": "02/21/2025",
    "licenseExpirationDate": "02/20/2026",
    "dataDate": "10/18/2025",
    "capacity": 0,
    "address": "21054 SHERMAN WAY, SUITE 310",
    "city": "CANOGA PARK",
    "zip": "91303",
    "county": "LOS ANGELES",
    "phone": "(800) 484-3637",
    "lat": 34.200846,
    "lng": -118.5924375
  },
  {
    "id": "630017929",
    "name": "INFINITY HOMECARE AGENCY, INC.",
    "npi": "1245735786",
    "hcaiId": "406191605",
    "businessName": "INFINITY HOMECARE AGENCY, INC.",
    "contactEmail": "INFINITYHOMECAREAGENCY@GMAIL.COM",
    "categoryName": "HOME HEALTH AGENCY",
    "categoryCode": "HHA",
    "licenseStatus": "ACTIVE",
    "inService": true,
    "licenseNumber": "550004644",
    "licenseEffectiveDate": "04/05/2025",
    "licenseExpirationDate": "04/04/2026",
    "dataDate": "10/18/2025",
    "capacity": 0,
    "address": "7050 OWENSMOUTH AVE, SUITE 210",
    "city": "CANOGA PARK",
    "zip": "91303",
    "county": "LOS ANGELES",
    "phone": "(818) 912-6611",
    "lat": 34.198803,
    "lng": -118.6013745
  },
  {
    "id": "630022404",
    "name": "KAELIN'S HOME HEALTH, INC",
    "npi": null,
    "hcaiId": "406195789",
    "businessName": "KAELIN'S HOME HEALTH, INC",
    "contactEmail": "CHRISTINE.KAELINSHOMEHEALTHINC@GMAIL.COM",
    "categoryName": "HOME HEALTH AGENCY",
    "categoryCode": "HHA",
    "licenseStatus": "ACTIVE",
    "inService": true,
    "licenseNumber": "550007818",
    "licenseEffectiveDate": "01/24/2025",
    "licenseExpirationDate": "01/23/2026",
    "dataDate": "10/18/2025",
    "capacity": 0,
    "address": "7301 TOPANGA CANYON BLVD, SUITE 375",
    "city": "CANOGA PARK",
    "zip": "91303",
    "county": "LOS ANGELES",
    "phone": "(818) 860-4004",
    "lat": 34.203015,
    "lng": -118.606167
  },
  {
    "id": "630019226",
    "name": "KINDRED HEART HOSPICE, INC.",
    "npi": null,
    "hcaiId": "406195332",
    "businessName": "KINDRED HEART HOSPICE, INC.",
    "contactEmail": "HVELASQUEZ2018@YAHOO.COM",
    "categoryName": "HOSPICE",
    "categoryCode": "HOSPICE",
    "licenseStatus": "ACTIVE",
    "inService": true,
    "licenseNumber": "550006199",
    "licenseEffectiveDate": "03/19/2025",
    "licenseExpirationDate": "03/18/2027",
    "dataDate": "10/18/2025",
    "capacity": 0,
    "address": "7108 DE SOTO AVE, SUITE 207F",
    "city": "CANOGA PARK",
    "zip": "91303",
    "county": "LOS ANGELES",
    "phone": "(310) 895-6694",
    "lat": 34.199397,
    "lng": -118.588248
  },
  {
    "id": "630019416",
    "name": "LA HOME HEALTH AGENCY",
    "npi": null,
    "hcaiId": "406192825",
    "businessName": "LA HOME HEALTH AGENCY",
    "contactEmail": "LAHOMEHA@GMAIL.COM",
    "categoryName": "HOME HEALTH AGENCY",
    "categoryCode": "HHA",
    "licenseStatus": "ACTIVE",
    "inService": true,
    "licenseNumber": "550005703",
    "licenseEffectiveDate": "09/02/2025",
    "licenseExpirationDate": "09/01/2026",
    "dataDate": "10/18/2025",
    "capacity": 0,
    "address": "21133 VICTORY BLVD, SUITE 215",
    "city": "CANOGA PARK",
    "zip": "91303",
    "county": "LOS ANGELES",
    "phone": "(818) 888-8980",
    "lat": 34.188831,
    "lng": -118.5936345
  },
  {
    "id": "630021019",
    "name": "LA LOVING CARE HOME HEALTH",
    "npi": null,
    "hcaiId": "406193298",
    "businessName": "AMG HOME HEALTH, INC",
    "contactEmail": "INFO@LALOVINGCAREHOMEHEALTH.COM",
    "categoryName": "HOME HEALTH AGENCY",
    "categoryCode": "HHA",
    "licenseStatus": "ACTIVE",
    "inService": true,
    "licenseNumber": "550007108",
    "licenseEffectiveDate": "11/09/2025",
    "licenseExpirationDate": "11/08/2026",
    "dataDate": "10/18/2025",
    "capacity": 0,
    "address": "6911 TOPANGA CANYON BLVD, SUITE 202",
    "city": "CANOGA PARK",
    "zip": "91303",
    "county": "LOS ANGELES",
    "phone": "(818) 835-9889",
    "lat": 34.19588998,
    "lng": -118.606228
  },
  {
    "id": "630024892",
    "name": "LA UNITED HOME HEALTH CARE, INC.",
    "npi": null,
    "hcaiId": "406197616",
    "businessName": "LA UNITED HOME HEALTH CARE, INC.",
    "contactEmail": "LAUHHCI@GMAIL.COM",
    "categoryName": "HOME HEALTH AGENCY",
    "categoryCode": "HHA",
    "licenseStatus": "ACTIVE",
    "inService": true,
    "licenseNumber": "550008244",
    "licenseEffectiveDate": "08/20/2025",
    "licenseExpirationDate": "11/29/2025",
    "dataDate": "10/18/2025",
    "capacity": 0,
    "address": "22048 SHERMAN WAY, SUITE 101",
    "city": "CANOGA PARK",
    "zip": "91303",
    "county": "LOS ANGELES",
    "phone": "(818) 230-7230",
    "lat": 34.20068678,
    "lng": -118.6076977
  },
  {
    "id": "630019224",
    "name": "LAND OF PEACE HOSPICE",
    "npi": null,
    "hcaiId": "406194647",
    "businessName": "LAND OF PEACE HOSPICE",
    "contactEmail": "LANDOFPEACEHOSPICE@GMAIL.COM",
    "categoryName": "HOSPICE",
    "categoryCode": "HOSPICE",
    "licenseStatus": "ACTIVE",
    "inService": true,
    "licenseNumber": "550005910",
    "licenseEffectiveDate": "12/09/2024",
    "licenseExpirationDate": "12/08/2026",
    "dataDate": "10/18/2025",
    "capacity": 0,
    "address": "7301 TOPANGA CANYON BLVD, SUITE 324",
    "city": "CANOGA PARK",
    "zip": "91303",
    "county": "LOS ANGELES",
    "phone": "(818) 402-6276",
    "lat": 34.203015,
    "lng": -118.606167
  },
  {
    "id": "630020398",
    "name": "LOVE AND PEACE HOSPICE, INC",
    "npi": "1477170561",
    "hcaiId": "406192999",
    "businessName": "LOVE AND PEACE HOSPICE, INC.",
    "contactEmail": "LOVEANDPEACEHOSPICEINC@GMAIL.COM",
    "categoryName": "HOSPICE",
    "categoryCode": "HOSPICE",
    "licenseStatus": "ACTIVE",
    "inService": true,
    "licenseNumber": "550005877",
    "licenseEffectiveDate": "11/30/2024",
    "licenseExpirationDate": "11/29/2026",
    "dataDate": "10/18/2025",
    "capacity": 0,
    "address": "22048 SHERMAN WAY, SUITE 312",
    "city": "CANOGA PARK",
    "zip": "91303",
    "county": "LOS ANGELES",
    "phone": "(818) 912-6607",
    "lat": 34.200747,
    "lng": -118.607778
  },
  {
    "id": "630018344",
    "name": "LOVE HOME HEALTH AGENCY INC.",
    "npi": null,
    "hcaiId": "406193057",
    "businessName": "LOVE HOME HEALTH AGENCY INC.",
    "contactEmail": "INFO@LOVEHOMEHEALTHAGENCY.COM",
    "categoryName": "HOME HEALTH AGENCY",
    "categoryCode": "HHA",
    "licenseStatus": "ACTIVE",
    "inService": true,
    "licenseNumber": "550006092",
    "licenseEffectiveDate": "09/19/2025",
    "licenseExpirationDate": "03/07/2026",
    "dataDate": "10/18/2025",
    "capacity": 0,
    "address": "22222 SHERMAN WAY, SUITE 207",
    "city": "CANOGA PARK",
    "zip": "91303",
    "county": "LOS ANGELES",
    "phone": "(424) 317-5020",
    "lat": 34.20042811,
    "lng": -118.6111607
  },
  {
    "id": "630011406",
    "name": "LOVECARE HOME HEALTH, INC.",
    "npi": null,
    "hcaiId": "406196734",
    "businessName": "LOVECARE HOME HEALTH, INC.",
    "contactEmail": "LCHHNURSING@SBCGLOBAL.NET",
    "categoryName": "HOME HEALTH AGENCY",
    "categoryCode": "HHA",
    "licenseStatus": "ACTIVE",
    "inService": true,
    "licenseNumber": "550000780",
    "licenseEffectiveDate": "11/14/2025",
    "licenseExpirationDate": "11/13/2026",
    "dataDate": "10/18/2025",
    "capacity": 0,
    "address": "22048 SHERMAN WAY, SUITE 316",
    "city": "CANOGA PARK",
    "zip": "91303",
    "county": "LOS ANGELES",
    "phone": "(818) 992-6158",
    "lat": 34.200747,
    "lng": -118.607778
  },
  {
    "id": "630015312",
    "name": "LUCKY PALLIATIVE SERVICES INCORPORATED",
    "npi": "1699106120",
    "hcaiId": "406198351",
    "businessName": "LUCKY PALLIATIVE SERVICES, INC.",
    "contactEmail": "LUCKYPALLIATIVE@YAHOO.COM",
    "categoryName": "HOSPICE",
    "categoryCode": "HOSPICE",
    "licenseStatus": "ACTIVE",
    "inService": true,
    "licenseNumber": "550003748",
    "licenseEffectiveDate": "12/13/2024",
    "licenseExpirationDate": "12/12/2026",
    "dataDate": "10/18/2025",
    "capacity": 0,
    "address": "20944 SHERMAN WAY, UNIT 204",
    "city": "CANOGA PARK",
    "zip": "91303",
    "county": "LOS ANGELES",
    "phone": "(818) 207-9954",
    "lat": 34.20072,
    "lng": -118.5901425
  },
  {
    "id": "630020114",
    "name": "LUMINERE HOSPICE, INC",
    "npi": null,
    "hcaiId": "406195333",
    "businessName": "LUMINERE HOSPICE, INC",
    "contactEmail": "LUMINEREHOSPICE@GMAIL.COM",
    "categoryName": "HOSPICE",
    "categoryCode": "HOSPICE",
    "licenseStatus": "ACTIVE",
    "inService": true,
    "licenseNumber": "550006334",
    "licenseEffectiveDate": "05/11/2025",
    "licenseExpirationDate": "05/10/2027",
    "dataDate": "10/18/2025",
    "capacity": 0,
    "address": "7301 TOPANGA CANYON BLVD, SUITE 356",
    "city": "CANOGA PARK",
    "zip": "91303",
    "county": "LOS ANGELES",
    "phone": "(818) 436-2170",
    "lat": 34.203015,
    "lng": -118.606167
  },
  {
    "id": "630024948",
    "name": "LUNA MEDCARE HOME HEALTH SERVICES",
    "npi": null,
    "hcaiId": "406196261",
    "businessName": "LUNA MEDCARE HOME HEALTH SERVICES",
    "contactEmail": "LUNAHOMEHEALTHINC@GMAIL.COM",
    "categoryName": "HOME HEALTH AGENCY",
    "categoryCode": "HHA",
    "licenseStatus": "ACTIVE",
    "inService": true,
    "licenseNumber": "550008455",
    "licenseEffectiveDate": "03/27/2025",
    "licenseExpirationDate": "03/26/2026",
    "dataDate": "10/18/2025",
    "capacity": 0,
    "address": "7050 OWENSMOUTH AVE, SUITE 206",
    "city": "CANOGA PARK",
    "zip": "91303",
    "county": "LOS ANGELES",
    "phone": "(818) 561-9614",
    "lat": 34.198803,
    "lng": -118.6013745
  },
  {
    "id": "630020712",
    "name": "MALTA HOME HEALTH",
    "npi": null,
    "hcaiId": "406193256",
    "businessName": "MALTA HOME HEALTH",
    "contactEmail": "MALTAHOMEHEALTH@GMAIL.COM",
    "categoryName": "HOME HEALTH AGENCY",
    "categoryCode": "HHA",
    "licenseStatus": "ACTIVE",
    "inService": true,
    "licenseNumber": "550006795",
    "licenseEffectiveDate": "05/01/2025",
    "licenseExpirationDate": "04/30/2026",
    "dataDate": "10/18/2025",
    "capacity": 0,
    "address": "7257 VASSAR AVE, UNIT 200A",
    "city": "CANOGA PARK",
    "zip": "91303",
    "county": "LOS ANGELES",
    "phone": "(818) 531-5751",
    "lat": 34.202637,
    "lng": -118.604646
  },
  {
    "id": "630020715",
    "name": "MALTA HOSPICE CARE",
    "npi": null,
    "hcaiId": "406193758",
    "businessName": "MALTA HOSPICE CARE",
    "contactEmail": "MALTAHOSPICECARE@GMAIL.COM",
    "categoryName": "HOSPICE",
    "categoryCode": "HOSPICE",
    "licenseStatus": "ACTIVE",
    "inService": true,
    "licenseNumber": "550006543",
    "licenseEffectiveDate": "07/08/2025",
    "licenseExpirationDate": "07/07/2027",
    "dataDate": "10/18/2025",
    "capacity": 0,
    "address": "7257 VASSAR AVE, UNIT 200",
    "city": "CANOGA PARK",
    "zip": "91303",
    "county": "LOS ANGELES",
    "phone": "(818) 531-5751",
    "lat": 34.202655,
    "lng": -118.6046865
  },
  {
    "id": "630020286",
    "name": "MARATHON HOSPICE CARE INC.",
    "npi": null,
    "hcaiId": "406196129",
    "businessName": "MARATHON HOSPICE CARE INC.",
    "contactEmail": "MARATHONHOSPICECAREINC@GMAIL.COM",
    "categoryName": "HOSPICE",
    "categoryCode": "HOSPICE",
    "licenseStatus": "ACTIVE",
    "inService": true,
    "licenseNumber": "550006027",
    "licenseEffectiveDate": "01/08/2025",
    "licenseExpirationDate": "01/07/2027",
    "dataDate": "10/18/2025",
    "capacity": 0,
    "address": "20944 SHERMAN WAY, SUITE 211",
    "city": "CANOGA PARK",
    "zip": "91303",
    "county": "LOS ANGELES",
    "phone": "(818) 963-7578",
    "lat": 34.20072102,
    "lng": -118.590045
  },
  {
    "id": "630024363",
    "name": "MEDLITE HOME HEALTH, INC.",
    "npi": null,
    "hcaiId": "406190087",
    "businessName": "MEDLITE HOME HEALTH, INC.",
    "contactEmail": "MEDLITEHHC@GMAIL.COM",
    "categoryName": "HOME HEALTH AGENCY",
    "categoryCode": "HHA",
    "licenseStatus": "ACTIVE",
    "inService": true,
    "licenseNumber": "550008354",
    "licenseEffectiveDate": "04/17/2025",
    "licenseExpirationDate": "01/08/2026",
    "dataDate": "10/18/2025",
    "capacity": 0,
    "address": "7316 DEERING AVE, SUITE 102",
    "city": "CANOGA PARK",
    "zip": "91303",
    "county": "LOS ANGELES",
    "phone": "(747) 247-0406",
    "lat": 34.20351,
    "lng": -118.596474
  },
  {
    "id": "630011132",
    "name": "MIRAFAITH HOSPICE, INC.",
    "npi": null,
    "hcaiId": "406196982",
    "businessName": "MIRAFAITH HOSPICE, INC.",
    "contactEmail": "ADMIN@MIRAFAITH.COM",
    "categoryName": "HOSPICE",
    "categoryCode": "HOSPICE",
    "licenseStatus": "ACTIVE",
    "inService": true,
    "licenseNumber": "550000508",
    "licenseEffectiveDate": "02/11/2025",
    "licenseExpirationDate": "02/10/2027",
    "dataDate": "10/18/2025",
    "capacity": 0,
    "address": "7301 TOPANGA CANYON BLVD, SUITE 385",
    "city": "CANOGA PARK",
    "zip": "91303",
    "county": "LOS ANGELES",
    "phone": "(818) 951-9040",
    "lat": 34.203015,
    "lng": -118.606167
  },
  {
    "id": "630015979",
    "name": "MOUNT OLIVES HOSPICE",
    "npi": "1528468238",
    "hcaiId": "406190837",
    "businessName": "MOUNT OLIVES HOSPICE",
    "contactEmail": "MOH@MOUNTOLIVESHOSPICE.COM",
    "categoryName": "HOSPICE",
    "categoryCode": "HOSPICE",
    "licenseStatus": "ACTIVE",
    "inService": true,
    "licenseNumber": "550004052",
    "licenseEffectiveDate": "10/09/2024",
    "licenseExpirationDate": "08/20/2025",
    "dataDate": "10/18/2025",
    "capacity": 0,
    "address": "22148 SHERMAN WAY, SUITE 101",
    "city": "CANOGA PARK",
    "zip": "91303",
    "county": "LOS ANGELES",
    "phone": "(888) 315-1993",
    "lat": 34.20072299,
    "lng": -118.609827
  },
  {
    "id": "960001992",
    "name": "NORTHEAST VALLEY HEALTH CORPORATION, LAC-CANOGA PARK HEALTH CENTER",
    "npi": null,
    "hcaiId": "306194809",
    "businessName": "NORTHEAST VALLEY HEALTH CORPORATION",
    "contactEmail": "MARGARITATORRES@NEVHC.ORG",
    "categoryName": "PRIMARY CARE CLINIC",
    "categoryCode": "COMTYC",
    "licenseStatus": "ACTIVE",
    "inService": true,
    "licenseNumber": "550000755",
    "licenseEffectiveDate": "04/17/2025",
    "licenseExpirationDate": "04/16/2026",
    "dataDate": "10/18/2025",
    "capacity": 0,
    "address": "7107 REMMET AVE",
    "city": "CANOGA PARK",
    "zip": "91303",
    "county": "LOS ANGELES",
    "phone": "(818) 340-3570",
    "lat": 34.199415,
    "lng": -118.6005735
  },
  {
    "id": "630024468",
    "name": "OCEANSIDE HOME HEALTH, INC.",
    "npi": null,
    "hcaiId": "406197032",
    "businessName": "OCEANSIDE HOME HEALTH, INC.",
    "contactEmail": "LSR.OCEANSIDE.HHA@GMAIL.COM",
    "categoryName": "HOME HEALTH AGENCY",
    "categoryCode": "HHA",
    "licenseStatus": "ACTIVE",
    "inService": true,
    "licenseNumber": "550008385",
    "licenseEffectiveDate": "04/03/2025",
    "licenseExpirationDate": "01/31/2026",
    "dataDate": "10/18/2025",
    "capacity": 0,
    "address": "7301 TOPANGA CANYON BLVD, SUITE 352",
    "city": "CANOGA PARK",
    "zip": "91303",
    "county": "LOS ANGELES",
    "phone": "(818) 386-8442",
    "lat": 34.20325432,
    "lng": -118.6062977
  },
  {
    "id": "630020625",
    "name": "ONE CARE HOSPICE, INC",
    "npi": null,
    "hcaiId": "406194863",
    "businessName": "ONE CARE HOSPICE,INC",
    "contactEmail": "ONECAREHOSPICEINC@GMAIL.COM",
    "categoryName": "HOSPICE",
    "categoryCode": "HOSPICE",
    "licenseStatus": "ACTIVE",
    "inService": true,
    "licenseNumber": "550006855",
    "licenseEffectiveDate": "09/09/2025",
    "licenseExpirationDate": "09/08/2027",
    "dataDate": "10/18/2025",
    "capacity": 0,
    "address": "7251 OWENSMOUTH AVE, #7",
    "city": "CANOGA PARK",
    "zip": "91303",
    "county": "LOS ANGELES",
    "phone": "(818) 436-2940",
    "lat": 34.202502,
    "lng": -118.6017345
  },
  {
    "id": "630020087",
    "name": "OPTION HOSPICE, INC",
    "npi": null,
    "hcaiId": "406195261",
    "businessName": "OPTION HOSPICE, INC.",
    "contactEmail": "INFINITYCONSULTANCY284@GMAIL.COM",
    "categoryName": "HOSPICE",
    "categoryCode": "HOSPICE",
    "licenseStatus": "ACTIVE",
    "inService": true,
    "licenseNumber": "550007425",
    "licenseEffectiveDate": "12/09/2023",
    "licenseExpirationDate": "12/08/2025",
    "dataDate": "10/18/2025",
    "capacity": 0,
    "address": "7301 TOPANGA CANYON BLVD, SUITE 358",
    "city": "CANOGA PARK",
    "zip": "91303",
    "county": "LOS ANGELES",
    "phone": "(818) 436-2288",
    "lat": 34.203015,
    "lng": -118.606167
  },
  {
    "id": "960000196",
    "name": "PLANNED PARENTHOOD LOS ANGELES-CANOGA PARK CENTER",
    "npi": null,
    "hcaiId": "306190621",
    "businessName": "PLANNED PARENTHOOD LOS ANGELES",
    "contactEmail": "BRENDA.GUERRERO@PP-LA.ORG",
    "categoryName": "PRIMARY CARE CLINIC",
    "categoryCode": "COMTYC",
    "licenseStatus": "ACTIVE",
    "inService": true,
    "licenseNumber": "960000137",
    "licenseEffectiveDate": "11/01/2025",
    "licenseExpirationDate": "10/31/2026",
    "dataDate": "10/18/2025",
    "capacity": 0,
    "address": "21001 SHERMAN WAY, SUITE 9",
    "city": "CANOGA PARK",
    "zip": "91303",
    "county": "LOS ANGELES",
    "phone": "(213) 284-3200",
    "lat": 34.201971,
    "lng": -118.5908535
  },
  {
    "id": "630026891",
    "name": "PROSHIELD HOME HEALTH SERVICES, INC",
    "npi": null,
    "hcaiId": null,
    "businessName": "PROSHIELD HOME HEALTH SERVICES, INC",
    "contactEmail": "PROSHIELDHHC@GMAIL.COM",
    "categoryName": "HOME HEALTH AGENCY",
    "categoryCode": "HHA",
    "licenseStatus": "ACTIVE",
    "inService": true,
    "licenseNumber": "550009467",
    "licenseEffectiveDate": "09/23/2025",
    "licenseExpirationDate": "09/22/2026",
    "dataDate": "10/18/2025",
    "capacity": 0,
    "address": "7316 DEERING AVE, SUITE 201",
    "city": "CANOGA PARK",
    "zip": "91303",
    "county": "LOS ANGELES",
    "phone": "(213) 776-3778",
    "lat": 34.203329,
    "lng": -118.596321
  },
  {
    "id": "630019983",
    "name": "PURE HEART HOSPICE, INC",
    "npi": null,
    "hcaiId": "406193142",
    "businessName": "PURE HEART HOSPICE, INC",
    "contactEmail": "HOSPICEPUREHEART@GMAIL.COM",
    "categoryName": "HOSPICE",
    "categoryCode": "HOSPICE",
    "licenseStatus": "ACTIVE",
    "inService": true,
    "licenseNumber": "550006566",
    "licenseEffectiveDate": "05/24/2023",
    "licenseExpirationDate": "05/23/2025",
    "dataDate": "10/18/2025",
    "capacity": 0,
    "address": "7301 TOPANGA CANYON BLVD, SUITE 357",
    "city": "CANOGA PARK",
    "zip": "91303",
    "county": "LOS ANGELES",
    "phone": "(818) 436-2261",
    "lat": 34.203015,
    "lng": -118.606167
  },
  {
    "id": "630026614",
    "name": "RAY SUNNETIC HOME HEALTH CARE, INC.",
    "npi": null,
    "hcaiId": null,
    "businessName": "RAY SUNNETIC HOME HEALTH CARE, INC.",
    "contactEmail": "RAYSUNNETIC@GMAIL.COM",
    "categoryName": "HOME HEALTH AGENCY",
    "categoryCode": "HHA",
    "licenseStatus": "ACTIVE",
    "inService": true,
    "licenseNumber": "550009124",
    "licenseEffectiveDate": "05/10/2025",
    "licenseExpirationDate": "05/09/2026",
    "dataDate": "10/18/2025",
    "capacity": 0,
    "address": "7251 TOPANGA CANYON BLVD, SUITE C3",
    "city": "CANOGA PARK",
    "zip": "91303",
    "county": "LOS ANGELES",
    "phone": "(747) 877-2732",
    "lat": 34.202421,
    "lng": -118.606185
  },
  {
    "id": "630014340",
    "name": "REGENT HOSPICE, INC.",
    "npi": null,
    "hcaiId": "406198264",
    "businessName": "REGENT HOSPICE, INC.",
    "contactEmail": "DLOMBARDS@YAHOO.COM",
    "categoryName": "HOSPICE",
    "categoryCode": "HOSPICE",
    "licenseStatus": "ACTIVE",
    "inService": true,
    "licenseNumber": "550002667",
    "licenseEffectiveDate": "05/02/2024",
    "licenseExpirationDate": "05/01/2026",
    "dataDate": "10/18/2025",
    "capacity": 0,
    "address": "22048 SHERMAN WAY, SUITE 103",
    "city": "CANOGA PARK",
    "zip": "91303",
    "county": "LOS ANGELES",
    "phone": "(818) 280-4566",
    "lat": 34.200747,
    "lng": -118.607778
  },
  {
    "id": "630016108",
    "name": "ROYAL CONGREGATE LIVING, LLC",
    "npi": null,
    "hcaiId": "206190113",
    "businessName": "ROYAL CONGREGATE LIVING, LLC",
    "contactEmail": "SAMUEL@ROYALCLHF.COM",
    "categoryName": "CONGREGATE LIVING HEALTH FACILITY",
    "categoryCode": "CLHF",
    "licenseStatus": "ACTIVE",
    "inService": true,
    "licenseNumber": "550004373",
    "licenseEffectiveDate": "09/25/2025",
    "licenseExpirationDate": "09/24/2026",
    "dataDate": "10/18/2025",
    "capacity": 18,
    "address": "7354 DE SOTO AVE",
    "city": "CANOGA PARK",
    "zip": "91303",
    "county": "LOS ANGELES",
    "phone": "(818) 704-5888",
    "lat": 34.204473,
    "lng": -118.588068
  },
  {
    "id": "630021434",
    "name": "SAFE MISSION HOSPICE & PALLIATIVE CARE INC",
    "npi": null,
    "hcaiId": "406193848",
    "businessName": "SAFE MISSION HOSPICE & PALLIATIVE CARE INC",
    "contactEmail": "SAFEMISSIONHOSPICE@GMAIL.COM",
    "categoryName": "HOSPICE",
    "categoryCode": "HOSPICE",
    "licenseStatus": "ACTIVE",
    "inService": true,
    "licenseNumber": "550007371",
    "licenseEffectiveDate": "12/01/2023",
    "licenseExpirationDate": "11/30/2025",
    "dataDate": "10/18/2025",
    "capacity": 0,
    "address": "7345 TOPANGA CANYON BLVD, SUITE 230",
    "city": "CANOGA PARK",
    "zip": "91303",
    "county": "LOS ANGELES",
    "phone": "(818) 538-5514",
    "lat": 34.204131,
    "lng": -118.605993
  },
  {
    "id": "630019046",
    "name": "SEASIDE HOMEHEALTH, INC.",
    "npi": null,
    "hcaiId": "406192504",
    "businessName": "SEASIDE HOMEHEALTH, INC.",
    "contactEmail": "SEASIDEHHC@GMAIL.COM",
    "categoryName": "HOME HEALTH AGENCY",
    "categoryCode": "HHA",
    "licenseStatus": "ACTIVE",
    "inService": true,
    "licenseNumber": "550005494",
    "licenseEffectiveDate": "06/05/2025",
    "licenseExpirationDate": "06/04/2026",
    "dataDate": "10/18/2025",
    "capacity": 0,
    "address": "7301 TOPANGA CANYON BLVD, SUITE 303",
    "city": "CANOGA PARK",
    "zip": "91303",
    "county": "LOS ANGELES",
    "phone": "(747) 888-4844",
    "lat": 34.203015,
    "lng": -118.606167
  },
  {
    "id": "630025090",
    "name": "SELECTCARE HOME HEALTH",
    "npi": null,
    "hcaiId": "406196405",
    "businessName": "SELECTCARE HOME HEALTH",
    "contactEmail": "SELECTCAREHOME@GMAIL.COM",
    "categoryName": "HOME HEALTH AGENCY",
    "categoryCode": "HHA",
    "licenseStatus": "ACTIVE",
    "inService": true,
    "licenseNumber": "550008466",
    "licenseEffectiveDate": "03/28/2025",
    "licenseExpirationDate": "03/27/2026",
    "dataDate": "10/18/2025",
    "capacity": 0,
    "address": "7335 TOPANGA CANYON BLVD, SUITE 201",
    "city": "CANOGA PARK",
    "zip": "91303",
    "county": "LOS ANGELES",
    "phone": "(747) 800-2151",
    "lat": 34.203906,
    "lng": -118.6061805
  },
  {
    "id": "630027355",
    "name": "SHINE CARE HOME HEALTH, INC.",
    "npi": null,
    "hcaiId": null,
    "businessName": "SHINE CARE HOME HEALTH,INC.",
    "contactEmail": "SHINECAREHOMEHEALTH@GMAIL.COM",
    "categoryName": "HOME HEALTH AGENCY",
    "categoryCode": "HHA",
    "licenseStatus": "ACTIVE",
    "inService": true,
    "licenseNumber": "550009437",
    "licenseEffectiveDate": "04/14/2025",
    "licenseExpirationDate": "10/13/2025",
    "dataDate": "10/18/2025",
    "capacity": 0,
    "address": "22048 SHERMAN WAY, SUITE 216",
    "city": "CANOGA PARK",
    "zip": "91303",
    "county": "LOS ANGELES",
    "phone": "(818) 807-0087",
    "lat": 34.20072198,
    "lng": -118.60776
  },
  {
    "id": "630014011",
    "name": "SILVER YEARS HEALTHCARE, INC.",
    "npi": "1629324504",
    "hcaiId": "406198202",
    "businessName": "SILVER YEARS HEALTHCARE, INC.",
    "contactEmail": "GELAREHROSTAMY@GMAIL.COM",
    "categoryName": "HOSPICE",
    "categoryCode": "HOSPICE",
    "licenseStatus": "ACTIVE",
    "inService": true,
    "licenseNumber": "550002593",
    "licenseEffectiveDate": "03/06/2022",
    "licenseExpirationDate": "03/05/2024",
    "dataDate": "10/18/2025",
    "capacity": 0,
    "address": "6930 OWENSMOUTH AVE, SUITE 201",
    "city": "CANOGA PARK",
    "zip": "91303",
    "county": "LOS ANGELES",
    "phone": "(818) 609-0303",
    "lat": 34.196553,
    "lng": -118.6012755
  },
  {
    "id": "630027912",
    "name": "SMARTCARE COMMUNITY CLINIC INC",
    "npi": null,
    "hcaiId": null,
    "businessName": "SMARTCARE COMMUNITY CLINIC INC",
    "contactEmail": null,
    "categoryName": "PRIMARY CARE CLINIC",
    "categoryCode": "COMTYC",
    "licenseStatus": "ACTIVE",
    "inService": true,
    "licenseNumber": "550009768",
    "licenseEffectiveDate": "04/10/2025",
    "licenseExpirationDate": "10/09/2025",
    "dataDate": "10/18/2025",
    "capacity": 0,
    "address": "7018 OWENSMOUTH AVE, SUITE 101",
    "city": "CANOGA PARK",
    "zip": "91303",
    "county": "LOS ANGELES",
    "phone": null,
    "lat": 34.19794799,
    "lng": -118.601305
  },
  {
    "id": "630019435",
    "name": "SOCIAL HOME HEALTH CARE, INC.",
    "npi": null,
    "hcaiId": "406192744",
    "businessName": "SOCIAL HOME HEALTH CARE, INC.",
    "contactEmail": "SOCIALHOMEHEALTH@GMAIL.COM",
    "categoryName": "HOME HEALTH AGENCY",
    "categoryCode": "HHA",
    "licenseStatus": "ACTIVE",
    "inService": true,
    "licenseNumber": "550005628",
    "licenseEffectiveDate": "07/28/2025",
    "licenseExpirationDate": "07/27/2026",
    "dataDate": "10/18/2025",
    "capacity": 0,
    "address": "7316 DEERING AVE, SUITE 103",
    "city": "CANOGA PARK",
    "zip": "91303",
    "county": "LOS ANGELES",
    "phone": "(818) 834-0332",
    "lat": 34.203329,
    "lng": -118.596321
  },
  {
    "id": "630021584",
    "name": "ST. JAMES HOSPICE, INC.",
    "npi": null,
    "hcaiId": "406193685",
    "businessName": "ST. JAMES HOSPICE, INC.",
    "contactEmail": "STJAMESHOSPICE@GMAIL.COM",
    "categoryName": "HOSPICE",
    "categoryCode": "HOSPICE",
    "licenseStatus": "ACTIVE",
    "inService": true,
    "licenseNumber": "550006881",
    "licenseEffectiveDate": "09/02/2025",
    "licenseExpirationDate": "09/23/2025",
    "dataDate": "10/18/2025",
    "capacity": 0,
    "address": "7050 OWENSMOUTH AVE, SUITE 209",
    "city": "CANOGA PARK",
    "zip": "91303",
    "county": "LOS ANGELES",
    "phone": "(323) 645-1141",
    "lat": 34.19881708,
    "lng": -118.6014754
  },
  {
    "id": "630027358",
    "name": "SUNSHINE HOME HEALTH AGENCIES INC",
    "npi": null,
    "hcaiId": null,
    "businessName": "SUNSHINE HOME HEALTH AGENCIES INC",
    "contactEmail": "SUNSHINELOVINGCAREHH@GMAIL.COM",
    "categoryName": "HOME HEALTH AGENCY",
    "categoryCode": "HHA",
    "licenseStatus": "ACTIVE",
    "inService": true,
    "licenseNumber": "550009748",
    "licenseEffectiveDate": "09/14/2025",
    "licenseExpirationDate": "03/13/2026",
    "dataDate": "10/18/2025",
    "capacity": 0,
    "address": "6901 TOPANGA CANYON BLVD, #203",
    "city": "CANOGA PARK",
    "zip": "91303",
    "county": "LOS ANGELES",
    "phone": "(818) 493-9320",
    "lat": 34.195713,
    "lng": -118.606251
  },
  {
    "id": "630026338",
    "name": "SUPREME HOME HEALTH SERVICES",
    "npi": null,
    "hcaiId": null,
    "businessName": "SUPREME HOME HEALTH SERVICES",
    "contactEmail": "SUPREMEHHINC@GMAIL.COM",
    "categoryName": "HOME HEALTH AGENCY",
    "categoryCode": "HHA",
    "licenseStatus": "ACTIVE",
    "inService": true,
    "licenseNumber": "550009493",
    "licenseEffectiveDate": "10/16/2025",
    "licenseExpirationDate": "10/15/2026",
    "dataDate": "10/18/2025",
    "capacity": 0,
    "address": "21044 SHERMAN WAY, SUITE 232",
    "city": "CANOGA PARK",
    "zip": "91303",
    "county": "LOS ANGELES",
    "phone": "(818) 395-4620",
    "lat": 34.200846,
    "lng": -118.5920595
  },
  {
    "id": "630025088",
    "name": "SWEET SUNSHINE HOME HEALTH",
    "npi": null,
    "hcaiId": "406197932",
    "businessName": "SWEET SUNSHINE HOME HEALTH",
    "contactEmail": "SWEETSUNSHINEHOMEHEALTH@GMAIL.COM",
    "categoryName": "HOME HEALTH AGENCY",
    "categoryCode": "HHA",
    "licenseStatus": "ACTIVE",
    "inService": true,
    "licenseNumber": "550008514",
    "licenseEffectiveDate": "04/24/2025",
    "licenseExpirationDate": "04/23/2026",
    "dataDate": "10/18/2025",
    "capacity": 0,
    "address": "7335 TOPANGA CANYON BLVD, SUITE 205",
    "city": "CANOGA PARK",
    "zip": "91303",
    "county": "LOS ANGELES",
    "phone": "(747) 777-4431",
    "lat": 34.203906,
    "lng": -118.6061805
  },
  {
    "id": "630019860",
    "name": "THE CROSSROADS HOSPICE, INC.",
    "npi": null,
    "hcaiId": "406195331",
    "businessName": "THE CROSSROADS HOSPICE, INC.",
    "contactEmail": "CROSSROADS2019@YAHOO.COM",
    "categoryName": "HOSPICE",
    "categoryCode": "HOSPICE",
    "licenseStatus": "ACTIVE",
    "inService": true,
    "licenseNumber": "550006336",
    "licenseEffectiveDate": "05/21/2025",
    "licenseExpirationDate": "05/20/2027",
    "dataDate": "10/18/2025",
    "capacity": 0,
    "address": "7108 DE SOTO AVE, SUITE 204C",
    "city": "CANOGA PARK",
    "zip": "91303",
    "county": "LOS ANGELES",
    "phone": "(714) 642-8119",
    "lat": 34.199397,
    "lng": -118.588248
  },
  {
    "id": "630026992",
    "name": "TODOS PARA LA SALUD FQHC LOOK-ALIKE COMMUNITY CLINIC",
    "npi": null,
    "hcaiId": null,
    "businessName": "TODOS PARA LA SALUD",
    "contactEmail": null,
    "categoryName": "PRIMARY CARE CLINIC",
    "categoryCode": "COMTYC",
    "licenseStatus": "ACTIVE",
    "inService": true,
    "licenseNumber": "550003902",
    "licenseEffectiveDate": "06/19/2025",
    "licenseExpirationDate": "06/18/2026",
    "dataDate": "10/18/2025",
    "capacity": 0,
    "address": "22030 SHERMAN WAY, SUITE 211",
    "city": "CANOGA PARK",
    "zip": "91303",
    "county": "LOS ANGELES",
    "phone": null,
    "lat": 34.200846,
    "lng": -118.6068105
  },
  {
    "id": "630015614",
    "name": "TRUE CARE HOME HEALTH SERVICES, INC.",
    "npi": "1033515838",
    "hcaiId": "406198252",
    "businessName": "TRUE CARE HOME HEALTH SERVICES, INC.",
    "contactEmail": "INFO@TRUECAREHH.COM",
    "categoryName": "HOME HEALTH AGENCY",
    "categoryCode": "HHA",
    "licenseStatus": "ACTIVE",
    "inService": true,
    "licenseNumber": "550003378",
    "licenseEffectiveDate": "01/15/2025",
    "licenseExpirationDate": "01/14/2026",
    "dataDate": "10/18/2025",
    "capacity": 0,
    "address": "7355 TOPANGA CANYON BLVD., SUITE 221",
    "city": "CANOGA PARK",
    "zip": "91303",
    "county": "LOS ANGELES",
    "phone": "(818) 452-4346",
    "lat": 34.204419,
    "lng": -118.6061895
  },
  {
    "id": "630015615",
    "name": "TRUE CARE HOSPICE SOUTHERN CALIFORNIA, INC.",
    "npi": "1124424411",
    "hcaiId": "406191279",
    "businessName": "TRUE CARE HOSPICE SOUTHERN CALIFORNIA, INC.",
    "contactEmail": "TCHSOCAL@GMAIL.COM",
    "categoryName": "HOSPICE",
    "categoryCode": "HOSPICE",
    "licenseStatus": "ACTIVE",
    "inService": true,
    "licenseNumber": "550003377",
    "licenseEffectiveDate": "01/15/2024",
    "licenseExpirationDate": "01/14/2026",
    "dataDate": "10/18/2025",
    "capacity": 0,
    "address": "7355 TOPANGA CANYON BLVD., SUITE 201",
    "city": "CANOGA PARK",
    "zip": "91303",
    "county": "LOS ANGELES",
    "phone": "(818) 405-0042",
    "lat": 34.204419,
    "lng": -118.6061895
  },
  {
    "id": "630012599",
    "name": "TRUE CARE HOSPICE, INC.",
    "npi": "1215268099",
    "hcaiId": "406197549",
    "businessName": "TRUE CARE HOSPICE, INC.",
    "contactEmail": "FLORINA.FINKELSTEIN@TRUECAREHEALTHSERVICES.COM",
    "categoryName": "HOSPICE",
    "categoryCode": "HOSPICE",
    "licenseStatus": "ACTIVE",
    "inService": true,
    "licenseNumber": "550001492",
    "licenseEffectiveDate": "01/18/2025",
    "licenseExpirationDate": "01/17/2027",
    "dataDate": "10/18/2025",
    "capacity": 0,
    "address": "7355 TOPANGA CANYON BLVD, SUITE 100",
    "city": "CANOGA PARK",
    "zip": "91303",
    "county": "LOS ANGELES",
    "phone": "(818) 762-7171",
    "lat": 34.204419,
    "lng": -118.6061895
  },
  {
    "id": "630011961",
    "name": "VALROSE HOME HEALTH, INC.",
    "npi": "1982877783",
    "hcaiId": "406197259",
    "businessName": "VALROSE HOME HEALTH, INC.",
    "contactEmail": "VALROSEHOMEHEALTH@YAHOO.COM",
    "categoryName": "HOME HEALTH AGENCY",
    "categoryCode": "HHA",
    "licenseStatus": "ACTIVE",
    "inService": true,
    "licenseNumber": "550001005",
    "licenseEffectiveDate": "04/10/2025",
    "licenseExpirationDate": "04/09/2026",
    "dataDate": "10/18/2025",
    "capacity": 0,
    "address": "22148 SHERMAN WAY, SUITE 202",
    "city": "CANOGA PARK",
    "zip": "91303",
    "county": "LOS ANGELES",
    "phone": "(818) 932-0542",
    "lat": 34.200711,
    "lng": -118.60983
  },
  {
    "id": "630018860",
    "name": "VEGA HOSPICE, INC.",
    "npi": "1487117800",
    "hcaiId": "406191819",
    "businessName": "VEGA HOSPICE, INC.",
    "contactEmail": "VEGAHOSPICE@GMAIL.COM",
    "categoryName": "HOSPICE",
    "categoryCode": "HOSPICE",
    "licenseStatus": "ACTIVE",
    "inService": true,
    "licenseNumber": "550004913",
    "licenseEffectiveDate": "08/30/2025",
    "licenseExpirationDate": "08/29/2027",
    "dataDate": "10/18/2025",
    "capacity": 0,
    "address": "22148 SHERMAN WAY, SUITE 103",
    "city": "CANOGA PARK",
    "zip": "91303",
    "county": "LOS ANGELES",
    "phone": "(747) 200-5446",
    "lat": 34.200738,
    "lng": -118.6097355
  },
  {
    "id": "630019656",
    "name": "VERITAS HOSPICE, INC.",
    "npi": null,
    "hcaiId": "406195329",
    "businessName": "VERITAS HOSPICE, INC.",
    "contactEmail": "VERITASHOSPICE@YAHOO.COM",
    "categoryName": "HOSPICE",
    "categoryCode": "HOSPICE",
    "licenseStatus": "ACTIVE",
    "inService": true,
    "licenseNumber": "550005802",
    "licenseEffectiveDate": "10/15/2024",
    "licenseExpirationDate": "10/14/2026",
    "dataDate": "10/18/2025",
    "capacity": 0,
    "address": "7108 DE SOTO AVE, SUITE 207A",
    "city": "CANOGA PARK",
    "zip": "91303",
    "county": "LOS ANGELES",
    "phone": "(323) 742-4529",
    "lat": 34.199397,
    "lng": -118.588248
  },
  {
    "id": "630018830",
    "name": "VERONA HOME HEALTH, INC.",
    "npi": null,
    "hcaiId": "406192683",
    "businessName": "VERONA HOME HEALTH, INC.",
    "contactEmail": "VERONAHHI@GMAIL.COM",
    "categoryName": "HOME HEALTH AGENCY",
    "categoryCode": "HHA",
    "licenseStatus": "ACTIVE",
    "inService": true,
    "licenseNumber": "550005558",
    "licenseEffectiveDate": "01/24/2025",
    "licenseExpirationDate": "01/23/2026",
    "dataDate": "10/18/2025",
    "capacity": 0,
    "address": "21054 SHERMAN WAY, SUITE 210",
    "city": "CANOGA PARK",
    "zip": "91303",
    "county": "LOS ANGELES",
    "phone": "(747) 888-3172",
    "lat": 34.200846,
    "lng": -118.5924375
  },
  {
    "id": "630025092",
    "name": "VISTA HOME HEALTH",
    "npi": null,
    "hcaiId": "406196337",
    "businessName": "VISTA HOME HEALTH",
    "contactEmail": "VISTAHOMEHEALTH0@GMAIL.COM",
    "categoryName": "HOME HEALTH AGENCY",
    "categoryCode": "HHA",
    "licenseStatus": "ACTIVE",
    "inService": true,
    "licenseNumber": "550008465",
    "licenseEffectiveDate": "03/28/2025",
    "licenseExpirationDate": "03/27/2026",
    "dataDate": "10/18/2025",
    "capacity": 0,
    "address": "7335 TOPANGA CANYON BLVD, SUITE 200",
    "city": "CANOGA PARK",
    "zip": "91303",
    "county": "LOS ANGELES",
    "phone": "(747) 777-4586",
    "lat": 34.203906,
    "lng": -118.6061805
  },
  {
    "id": "630018294",
    "name": "WARMCARE HOME HEALTH, INC.",
    "npi": "1215410154",
    "hcaiId": "406192164",
    "businessName": "WARMCARE HOME HEALTH, INC.",
    "contactEmail": "WARMCARE7@GMAIL.COM",
    "categoryName": "HOME HEALTH AGENCY",
    "categoryCode": "HHA",
    "licenseStatus": "ACTIVE",
    "inService": true,
    "licenseNumber": "550004818",
    "licenseEffectiveDate": "08/02/2025",
    "licenseExpirationDate": "08/01/2026",
    "dataDate": "10/18/2025",
    "capacity": 0,
    "address": "22048 SHERMAN WAY, SUITE 217",
    "city": "CANOGA PARK",
    "zip": "91303",
    "county": "LOS ANGELES",
    "phone": "(818) 539-4456",
    "lat": 34.200747,
    "lng": -118.607778
  },
  {
    "id": "630020972",
    "name": "WELBY WAY HOME, LLC",
    "npi": null,
    "hcaiId": "406195988",
    "businessName": "WELBY WAY HOME, LLC",
    "contactEmail": "OFFICE@WELVYHOSPICE.ORG",
    "categoryName": "HOSPICE",
    "categoryCode": "HOSPICE",
    "licenseStatus": "ACTIVE",
    "inService": true,
    "licenseNumber": "550006631",
    "licenseEffectiveDate": "08/04/2025",
    "licenseExpirationDate": "08/03/2027",
    "dataDate": "10/18/2025",
    "capacity": 0,
    "address": "6912 OWENSMOUTH AVE, SUITE 218",
    "city": "CANOGA PARK",
    "zip": "91303",
    "county": "LOS ANGELES",
    "phone": "(310) 614-3640",
    "lat": 34.19599798,
    "lng": -118.601304
  },
  {
    "id": "630024683",
    "name": "WEST HILLS ADHC",
    "npi": null,
    "hcaiId": null,
    "businessName": "WEST HILLS ADULT DAY HEALTH CARE CENTER LLC",
    "contactEmail": "WESTHILLSADHC@GMAIL.COM",
    "categoryName": "ADULT DAY HEALTH CARE",
    "categoryCode": "ADHC",
    "licenseStatus": "ACTIVE",
    "inService": true,
    "licenseNumber": "550007843",
    "licenseEffectiveDate": "01/28/2025",
    "licenseExpirationDate": "01/27/2026",
    "dataDate": "10/18/2025",
    "capacity": 0,
    "address": "22104 SHERMAN WAY",
    "city": "CANOGA PARK",
    "zip": "91303",
    "county": "LOS ANGELES",
    "phone": "(818) 482-6793",
    "lat": 34.200738,
    "lng": -118.6084035
  },
  {
    "id": "630015643",
    "name": "WICARE HOME HEALTH LLC",
    "npi": "1750781472",
    "hcaiId": "406193267",
    "businessName": "WICARE LLC",
    "contactEmail": "WICARELLC@GMAIL.COM",
    "categoryName": "HOME HEALTH AGENCY",
    "categoryCode": "HHA",
    "licenseStatus": "ACTIVE",
    "inService": true,
    "licenseNumber": "550003161",
    "licenseEffectiveDate": "07/22/2025",
    "licenseExpirationDate": "07/21/2026",
    "dataDate": "10/18/2025",
    "capacity": 0,
    "address": "7050 OWENSMOUTH AVE, SUITE 211",
    "city": "CANOGA PARK",
    "zip": "91303",
    "county": "LOS ANGELES",
    "phone": "(805) 578-2273",
    "lat": 34.198803,
    "lng": -118.6013745
  },
  {
    "id": "630026456",
    "name": "YOUR HEALTH, OUR PRIORITY HOME HEALTH",
    "npi": null,
    "hcaiId": null,
    "businessName": "YOUR HEALTH, OUR PRIORITY HOME HEALTH",
    "contactEmail": "YOURHEALTHOURPRIORITYHH@GMAIL.COM",
    "categoryName": "HOME HEALTH AGENCY",
    "categoryCode": "HHA",
    "licenseStatus": "ACTIVE",
    "inService": true,
    "licenseNumber": "550009463",
    "licenseEffectiveDate": "03/09/2025",
    "licenseExpirationDate": "09/08/2025",
    "dataDate": "10/18/2025",
    "capacity": 0,
    "address": "7050 OWENSMOUTH AVE, SUITE 225",
    "city": "CANOGA PARK",
    "zip": "91303",
    "county": "LOS ANGELES",
    "phone": "(800) 484-7072",
    "lat": 34.198803,
    "lng": -118.6013745
  }
]