[
  {
    "id": "630020476",
    "name": "A PLUS HOME HEALTH SERVICES INC",
    "npi": null,
    "hcaiId": "406193253",
    "businessName": "A PLUS HOME HEALTH SERVICES INC",
    "contactEmail": "APLUSHOMEHEALTHSERVICES@GMAIL.COM",
    "categoryName": "HOME HEALTH AGENCY",
    "categoryCode": "HHA",
    "licenseStatus": "ACTIVE",
    "inService": true,
    "licenseNumber": "550006776",
    "licenseEffectiveDate": "05/21/2025",
    "licenseExpirationDate": "05/20/2026",
    "dataDate": "10/18/2025",
    "capacity": 0,
    "address": "28310 ROADSIDE DR, SUITE 239",
    "city": "AGOURA HILLS",
    "zip": "91301",
    "county": "LOS ANGELES",
    "phone": "(818) 254-9448",
    "lat": 34.142517,
    "lng": -118.743507
  },
  {
    "id": "630026770",
    "name": "A TEAM HOME HEALTH SERVICES",
    "npi": null,
    "hcaiId": null,
    "businessName": "A TEAM HOME HEALTH SERVICES",
    "contactEmail": "ATEAMHHSERVICES@GMAIL.COM",
    "categoryName": "HOME HEALTH AGENCY",
    "categoryCode": "HHA",
    "licenseStatus": "ACTIVE",
    "inService": true,
    "licenseNumber": "550009341",
    "licenseEffectiveDate": "08/12/2025",
    "licenseExpirationDate": "08/11/2026",
    "dataDate": "10/18/2025",
    "capacity": 0,
    "address": "28310 ROADSIDE DR, SUITE 145",
    "city": "AGOURA HILLS",
    "zip": "91301",
    "county": "LOS ANGELES",
    "phone": "(800) 353-0616",
    "lat": 34.142364,
    "lng": -118.743291
  },
  {
    "id": "630020777",
    "name": "AFFINITY HEALTHCARE RESOURCES",
    "npi": null,
    "hcaiId": "406194683",
    "businessName": "NURSES CHOICE HOSPICE CARE, INC.",
    "contactEmail": "INFO@AFFINITYHCR.COM",
    "categoryName": "HOSPICE",
    "categoryCode": "HOSPICE",
    "licenseStatus": "ACTIVE",
    "inService": true,
    "licenseNumber": "550006755",
    "licenseEffectiveDate": "08/26/2025",
    "licenseExpirationDate": "08/25/2027",
    "dataDate": "10/18/2025",
    "capacity": 0,
    "address": "5236 COLODNY DR, SUITE 206A",
    "city": "AGOURA HILLS",
    "zip": "91301",
    "county": "LOS ANGELES",
    "phone": "(818) 806-0111",
    "lat": 34.143903,
    "lng": -118.742301
  },
  {
    "id": "630022229",
    "name": "AFFINITY HOME HEALTH RESOURCES",
    "npi": null,
    "hcaiId": "406195419",
    "businessName": "ASTER HOME HEALTH, INC.",
    "contactEmail": "ASTERHOMEHEALTHINC@GMAIL.COM",
    "categoryName": "HOME HEALTH AGENCY",
    "categoryCode": "HHA",
    "licenseStatus": "ACTIVE",
    "inService": true,
    "licenseNumber": "550007872",
    "licenseEffectiveDate": "03/01/2025",
    "licenseExpirationDate": "02/28/2026",
    "dataDate": "10/18/2025",
    "capacity": 0,
    "address": "5236 COLODNY DR, SUITE 205",
    "city": "AGOURA HILLS",
    "zip": "91301",
    "county": "LOS ANGELES",
    "phone": "(747) 201-7607",
    "lat": 34.143903,
    "lng": -118.742301
  },
  {
    "id": "630019191",
    "name": "ALL STAR PHOENIX INC.",
    "npi": "1083260897",
    "hcaiId": "406192431",
    "businessName": "ALL STAR PHOENIX INC.",
    "contactEmail": "ALLSTARPHOENIXINC@GMAIL.COM",
    "categoryName": "HOME HEALTH AGENCY",
    "categoryCode": "HHA",
    "licenseStatus": "ACTIVE",
    "inService": true,
    "licenseNumber": "550005322",
    "licenseEffectiveDate": "02/26/2025",
    "licenseExpirationDate": "02/25/2026",
    "dataDate": "10/18/2025",
    "capacity": 0,
    "address": "30125 AGOURA RD, SUITE 2E",
    "city": "AGOURA HILLS",
    "zip": "91301",
    "county": "LOS ANGELES",
    "phone": "(818) 488-9299",
    "lat": 34.14560401,
    "lng": -118.77873
  },
  {
    "id": "630017769",
    "name": "CENTURION SURGICAL CENTER, INC.",
    "npi": "1801346309",
    "hcaiId": null,
    "businessName": null,
    "contactEmail": "K33129@YAHOO.COM",
    "categoryName": "SURGICAL CLINIC",
    "categoryCode": "ASC",
    "licenseStatus": null,
    "inService": null,
    "licenseNumber": null,
    "licenseEffectiveDate": null,
    "licenseExpirationDate": null,
    "dataDate": "10/18/2025",
    "capacity": 0,
    "address": "30200 AGOURA ROAD, SUITE 160",
    "city": "AGOURA HILLS",
    "zip": "91301",
    "county": "LOS ANGELES",
    "phone": "(818) 597-1278",
    "lat": 34.14508866,
    "lng": -118.7820582
  },
  {
    "id": "630017198",
    "name": "CLEMENTINE MALIBU LAKE",
    "npi": null,
    "hcaiId": "206190991",
    "businessName": "MONTE NIDO LAKE VISTA, LLC",
    "contactEmail": "ASERVICE@MONTENIDOAFFILIATES.COM",
    "categoryName": "CONGREGATE LIVING HEALTH FACILITY",
    "categoryCode": "CLHF",
    "licenseStatus": "ACTIVE",
    "inService": true,
    "licenseNumber": "550004030",
    "licenseEffectiveDate": "11/28/2024",
    "licenseExpirationDate": "11/27/2025",
    "dataDate": "10/18/2025",
    "capacity": 8,
    "address": "29470 LAKE VISTA DR",
    "city": "AGOURA HILLS",
    "zip": "91301",
    "county": "LOS ANGELES",
    "phone": "(315) 523-4943",
    "lat": 34.10889681,
    "lng": -118.7678719
  },
  {
    "id": "630020748",
    "name": "EXCLUSIVE HOSPICE CARE, INC.",
    "npi": null,
    "hcaiId": "406193663",
    "businessName": "EXCLUSIVE HOSPICE CARE, INC.",
    "contactEmail": "EXCLUSIVEHOSPICE@YAHOO.COM",
    "categoryName": "HOSPICE",
    "categoryCode": "HOSPICE",
    "licenseStatus": "ACTIVE",
    "inService": true,
    "licenseNumber": "550006879",
    "licenseEffectiveDate": "07/16/2024",
    "licenseExpirationDate": "09/29/2025",
    "dataDate": "10/18/2025",
    "capacity": 0,
    "address": "30101 AGOURA CT, SUITE 123",
    "city": "AGOURA HILLS",
    "zip": "91301",
    "county": "LOS ANGELES",
    "phone": "(747) 255-1711",
    "lat": 34.146307,
    "lng": -118.777514
  },
  {
    "id": "630025670",
    "name": "EXTENDED LIFE HOME HEALTH",
    "npi": null,
    "hcaiId": "406190070",
    "businessName": "EXTENDED LIFE HOME HEALTH",
    "contactEmail": "EXTENDEDLIFEHH@GMAIL.COM",
    "categoryName": "HOME HEALTH AGENCY",
    "categoryCode": "HHA",
    "licenseStatus": "ACTIVE",
    "inService": true,
    "licenseNumber": "550008853",
    "licenseEffectiveDate": "12/15/2024",
    "licenseExpirationDate": "12/14/2025",
    "dataDate": "10/18/2025",
    "capacity": 0,
    "address": "28310 ROADSIDE DR, SUITE 138",
    "city": "AGOURA HILLS",
    "zip": "91301",
    "county": "LOS ANGELES",
    "phone": "(800) 273-2585",
    "lat": 34.142364,
    "lng": -118.743291
  },
  {
    "id": "630020243",
    "name": "HEALING HALO HOSPICE AND PALLIATIVE CARE, INC",
    "npi": "1891310470",
    "hcaiId": "406192922",
    "businessName": "HEALING HALO HOSPICE AND PALLIATIVE CARE, INC.",
    "contactEmail": "HEALINGHALOHOSPICE@GMAIL.COM",
    "categoryName": "HOSPICE",
    "categoryCode": "HOSPICE",
    "licenseStatus": "ACTIVE",
    "inService": true,
    "licenseNumber": "550005755",
    "licenseEffectiveDate": "09/14/2024",
    "licenseExpirationDate": "09/13/2026",
    "dataDate": "10/18/2025",
    "capacity": 0,
    "address": "30101 AGOURA CT, SUITE 234",
    "city": "AGOURA HILLS",
    "zip": "91301",
    "county": "LOS ANGELES",
    "phone": "(818) 927-0008",
    "lat": 34.146522,
    "lng": -118.778256
  },
  {
    "id": "630020861",
    "name": "MALIBU HOME HEALTH, INC.",
    "npi": null,
    "hcaiId": "406193331",
    "businessName": "MALIBU HOME HEALTH INC.",
    "contactEmail": "MALIBUHHHA@GMAIL.COM",
    "categoryName": "HOME HEALTH AGENCY",
    "categoryCode": "HHA",
    "licenseStatus": "ACTIVE",
    "inService": true,
    "licenseNumber": "550007171",
    "licenseEffectiveDate": "11/12/2024",
    "licenseExpirationDate": "11/11/2025",
    "dataDate": "10/18/2025",
    "capacity": 0,
    "address": "30125 AGOURA RD, SUITE F",
    "city": "AGOURA HILLS",
    "zip": "91301",
    "county": "LOS ANGELES",
    "phone": "(424) 388-8808",
    "lat": 34.14567501,
    "lng": -118.779377
  },
  {
    "id": "630021213",
    "name": "MALIBU HOSPICE, INC",
    "npi": null,
    "hcaiId": "406194926",
    "businessName": "MALIBU HOSPICE, INC",
    "contactEmail": "HOSPICEMALIBU@GMAIL.COM",
    "categoryName": "HOSPICE",
    "categoryCode": "HOSPICE",
    "licenseStatus": "ACTIVE",
    "inService": true,
    "licenseNumber": "550007066",
    "licenseEffectiveDate": "10/28/2023",
    "licenseExpirationDate": "10/27/2025",
    "dataDate": "10/18/2025",
    "capacity": 0,
    "address": "30101 AGOURA CT, SUITE 236A",
    "city": "AGOURA HILLS",
    "zip": "91301",
    "county": "LOS ANGELES",
    "phone": "(424) 325-8231",
    "lat": 34.146522,
    "lng": -118.778256
  },
  {
    "id": "630025879",
    "name": "MINDFUL HOME HEALTH",
    "npi": null,
    "hcaiId": null,
    "businessName": "MINDFUL HOME HEALTH",
    "contactEmail": "4MINDFULHH@GMAIL.COM",
    "categoryName": "HOME HEALTH AGENCY",
    "categoryCode": "HHA",
    "licenseStatus": "ACTIVE",
    "inService": true,
    "licenseNumber": "550009207",
    "licenseEffectiveDate": "06/17/2025",
    "licenseExpirationDate": "06/16/2026",
    "dataDate": "10/18/2025",
    "capacity": 0,
    "address": "28720 ROADSIDE DR, SUITE 333",
    "city": "AGOURA HILLS",
    "zip": "91301",
    "county": "LOS ANGELES",
    "phone": "(866) 806-7111",
    "lat": 34.143444,
    "lng": -118.751931
  },
  {
    "id": "630011175",
    "name": "MONTE NIDO - LAKE VISTA, LLC",
    "npi": null,
    "hcaiId": "206197144",
    "businessName": "MONTE NIDO LAKE VISTA, LLC",
    "contactEmail": "ASERVICE@MONTENIDOAFFILIATES.COM",
    "categoryName": "CONGREGATE LIVING HEALTH FACILITY",
    "categoryCode": "CLHF",
    "licenseStatus": "ACTIVE",
    "inService": true,
    "licenseNumber": "550000662",
    "licenseEffectiveDate": "02/05/2025",
    "licenseExpirationDate": "02/04/2026",
    "dataDate": "10/18/2025",
    "capacity": 12,
    "address": "28855 LAKE VISTA DR",
    "city": "AGOURA HILLS",
    "zip": "91301",
    "county": "LOS ANGELES",
    "phone": "(315) 523-4943",
    "lat": 34.111467,
    "lng": -118.7518275
  },
  {
    "id": "630021733",
    "name": "OPEN HEART HOSPICE, INC.",
    "npi": null,
    "hcaiId": "406195985",
    "businessName": "OPEN HEART HOSPICE, INC.",
    "contactEmail": "OPENHEARTHOSPICEINC@GMAIL.COM",
    "categoryName": "HOSPICE",
    "categoryCode": "HOSPICE",
    "licenseStatus": "ACTIVE",
    "inService": true,
    "licenseNumber": "550007500",
    "licenseEffectiveDate": "12/19/2023",
    "licenseExpirationDate": "12/18/2025",
    "dataDate": "10/18/2025",
    "capacity": 0,
    "address": "30495 CANWOOD ST, SUITE 209",
    "city": "AGOURA HILLS",
    "zip": "91301",
    "county": "LOS ANGELES",
    "phone": "(747) 777-3033",
    "lat": 34.147359,
    "lng": -118.78533
  },
  {
    "id": "630026972",
    "name": "PERSONALIZED HOME HEALTH CARE, INC.",
    "npi": null,
    "hcaiId": null,
    "businessName": "PERSONALIZED HOME HEALTH CARE, INC.",
    "contactEmail": "PERSONALIZEDHHC@GMAIL.COM",
    "categoryName": "HOME HEALTH AGENCY",
    "categoryCode": "HHA",
    "licenseStatus": "ACTIVE",
    "inService": true,
    "licenseNumber": "550009657",
    "licenseEffectiveDate": "08/17/2025",
    "licenseExpirationDate": "02/16/2026",
    "dataDate": "10/18/2025",
    "capacity": 0,
    "address": "28035 DOROTHY DR, SUITE 200A",
    "city": "AGOURA HILLS",
    "zip": "91301",
    "county": "LOS ANGELES",
    "phone": "(818) 492-7202",
    "lat": 34.142459,
    "lng": -118.737437
  },
  {
    "id": "930000864",
    "name": "PLASTIC SURGERY CENTER - AGOURA HILLS",
    "npi": null,
    "hcaiId": null,
    "businessName": null,
    "contactEmail": "NONE@DHS.CA.GOV",
    "categoryName": "SURGICAL CLINIC",
    "categoryCode": "ASC",
    "licenseStatus": null,
    "inService": null,
    "licenseNumber": null,
    "licenseEffectiveDate": null,
    "licenseExpirationDate": null,
    "dataDate": "10/18/2025",
    "capacity": 0,
    "address": "28222 AGOURA RD, SUITE 101",
    "city": "AGOURA HILLS",
    "zip": "91301",
    "county": "LOS ANGELES",
    "phone": "(818) 991-6436",
    "lat": 34.140546,
    "lng": -118.741833
  },
  {
    "id": "630024915",
    "name": "RELIABLE HOME HEALTHCARE SERVICES",
    "npi": null,
    "hcaiId": null,
    "businessName": "RELIABLE CARE, LLC",
    "contactEmail": "GMENDELSON@RELIABLE-HHA.COM",
    "categoryName": "HOME HEALTH AGENCY",
    "categoryCode": "HHA",
    "licenseStatus": "ACTIVE",
    "inService": true,
    "licenseNumber": "550008431",
    "licenseEffectiveDate": "03/06/2025",
    "licenseExpirationDate": "03/05/2026",
    "dataDate": "10/18/2025",
    "capacity": 0,
    "address": "28310 ROADSIDE DR, SUITE 122",
    "city": "AGOURA HILLS",
    "zip": "91301",
    "county": "LOS ANGELES",
    "phone": "(818) 698-1808",
    "lat": 34.142364,
    "lng": -118.743291
  },
  {
    "id": "630017987",
    "name": "RIDGE SURGICAL CENTER",
    "npi": "1194175117",
    "hcaiId": null,
    "businessName": null,
    "contactEmail": "ASCGLOBAL1010@GMAIL.COM",
    "categoryName": "SURGICAL CLINIC",
    "categoryCode": "ASC",
    "licenseStatus": null,
    "inService": null,
    "licenseNumber": null,
    "licenseEffectiveDate": null,
    "licenseExpirationDate": null,
    "dataDate": "10/18/2025",
    "capacity": 0,
    "address": "30300 AGOURA RD, SUITE B160",
    "city": "AGOURA HILLS",
    "zip": "91301",
    "county": "LOS ANGELES",
    "phone": "(818) 889-1858",
    "lat": 34.14517121,
    "lng": -118.7832545
  },
  {
    "id": "630020669",
    "name": "SONORA HOME HEALTH",
    "npi": null,
    "hcaiId": "406195998",
    "businessName": "SONORA HOME HEALTH",
    "contactEmail": "SAFEWAYHHC@GMAIL.COM",
    "categoryName": "HOME HEALTH AGENCY",
    "categoryCode": "HHA",
    "licenseStatus": "ACTIVE",
    "inService": true,
    "licenseNumber": "550008357",
    "licenseEffectiveDate": "12/13/2024",
    "licenseExpirationDate": "12/12/2025",
    "dataDate": "10/18/2025",
    "capacity": 0,
    "address": "28310 ROADSIDE DR, SUITE 236",
    "city": "AGOURA HILLS",
    "zip": "91301",
    "county": "LOS ANGELES",
    "phone": "(805) 324-6030",
    "lat": 34.14247899,
    "lng": -118.743313
  },
  {
    "id": "630020666",
    "name": "SONORA HOSPICE",
    "npi": null,
    "hcaiId": "406193947",
    "businessName": "SONORA HOSPICE",
    "contactEmail": "HOSPICESONORA@GMAIL.COM",
    "categoryName": "HOSPICE",
    "categoryCode": "HOSPICE",
    "licenseStatus": "ACTIVE",
    "inService": true,
    "licenseNumber": "550007046",
    "licenseEffectiveDate": "10/07/2025",
    "licenseExpirationDate": "10/06/2027",
    "dataDate": "10/18/2025",
    "capacity": 0,
    "address": "28310 ROADSIDE DR, SUITE 235",
    "city": "AGOURA HILLS",
    "zip": "91301",
    "county": "LOS ANGELES",
    "phone": "(805) 494-8077",
    "lat": 34.14247899,
    "lng": -118.743313
  },
  {
    "id": "630021311",
    "name": "SOUL CARE HOME HEALTH",
    "npi": null,
    "hcaiId": "406193370",
    "businessName": "SOUL CARE HOME HEALTH",
    "contactEmail": "SOULCAREHOMEHEALTH@GMAIL.COM",
    "categoryName": "HOME HEALTH AGENCY",
    "categoryCode": "HHA",
    "licenseStatus": "ACTIVE",
    "inService": true,
    "licenseNumber": "550007126",
    "licenseEffectiveDate": "10/25/2024",
    "licenseExpirationDate": "10/24/2025",
    "dataDate": "10/18/2025",
    "capacity": 0,
    "address": "30851 AGOURA RD, SUITE 111",
    "city": "AGOURA HILLS",
    "zip": "91301",
    "county": "LOS ANGELES",
    "phone": "(818) 564-4515",
    "lat": 34.14549702,
    "lng": -118.792889
  },
  {
    "id": "630012743",
    "name": "SOUTH VALLEY HOSPICE SERVICES, INC.",
    "npi": "1871672303",
    "hcaiId": "406197544",
    "businessName": "SOUTH VALLEY HOSPICE SERVICES, INC.",
    "contactEmail": "ESOTOMAYOR@SVHOSPICE.COM",
    "categoryName": "HOSPICE",
    "categoryCode": "HOSPICE",
    "licenseStatus": "ACTIVE",
    "inService": true,
    "licenseNumber": "550001513",
    "licenseEffectiveDate": "03/18/2025",
    "licenseExpirationDate": "03/17/2027",
    "dataDate": "10/18/2025",
    "capacity": 0,
    "address": "30851 AGOURA RD, SUITE 105",
    "city": "AGOURA HILLS",
    "zip": "91301",
    "county": "LOS ANGELES",
    "phone": "(818) 227-0070",
    "lat": 34.145505,
    "lng": -118.7928675
  },
  {
    "id": "630014212",
    "name": "UNIQUE CARE LOS ANGELES HOME HEALTH CARE, INC.",
    "npi": null,
    "hcaiId": "406197945",
    "businessName": "UNIQUE CARE LOS ANGELES HOME HEALTH CARE, INC.",
    "contactEmail": "UCLAHHC@YAHOO.COM",
    "categoryName": "HOME HEALTH AGENCY",
    "categoryCode": "HHA",
    "licenseStatus": "ACTIVE",
    "inService": true,
    "licenseNumber": "550002616",
    "licenseEffectiveDate": "02/20/2025",
    "licenseExpirationDate": "02/19/2026",
    "dataDate": "10/18/2025",
    "capacity": 0,
    "address": "30423 CANWOOD ST, SUITE 225",
    "city": "AGOURA HILLS",
    "zip": "91301",
    "county": "LOS ANGELES",
    "phone": "(818) 871-9518",
    "lat": 34.147656,
    "lng": -118.784178
  },
  {
    "id": "630015324",
    "name": "UNIQUE CARE LOS ANGELES HOSPICE, INC.",
    "npi": "1114339041",
    "hcaiId": "406198444",
    "businessName": "UNIQUE CARE LOS ANGELES HOSPICE, INC.",
    "contactEmail": "UCLAH@YAHOO.COM",
    "categoryName": "HOSPICE",
    "categoryCode": "HOSPICE",
    "licenseStatus": "ACTIVE",
    "inService": true,
    "licenseNumber": "550003829",
    "licenseEffectiveDate": "04/04/2025",
    "licenseExpirationDate": "04/03/2027",
    "dataDate": "10/18/2025",
    "capacity": 0,
    "address": "30423 CANWOOD ST, SUITE 226",
    "city": "AGOURA HILLS",
    "zip": "91301",
    "county": "LOS ANGELES",
    "phone": "(818) 878-9440",
    "lat": 34.147656,
    "lng": -118.784178
  },
  {
    "id": "630021734",
    "name": "US HOSPICE CO",
    "npi": null,
    "hcaiId": "406193938",
    "businessName": "US HOSPICE CO",
    "contactEmail": "INFO@USHOSPICE.CO",
    "categoryName": "HOSPICE",
    "categoryCode": "HOSPICE",
    "licenseStatus": "ACTIVE",
    "inService": true,
    "licenseNumber": "550007415",
    "licenseEffectiveDate": "12/10/2023",
    "licenseExpirationDate": "12/09/2025",
    "dataDate": "10/18/2025",
    "capacity": 0,
    "address": "30495 CANWOOD ST, SUITE 204",
    "city": "AGOURA HILLS",
    "zip": "91301",
    "county": "LOS ANGELES",
    "phone": "(747) 777-3353",
    "lat": 34.147359,
    "lng": -118.78533
  }
]