[
  {
    "id": "630013044",
    "name": "ACTIVE PLUS HOME HEALTH CARE, INC.",
    "npi": "1205141504",
    "hcaiId": "406197604",
    "businessName": "ACTIVE PLUS HOME HEALTH CARE, INC.",
    "contactEmail": "ZAD@HELEN.HEALTH",
    "categoryName": "HOME HEALTH AGENCY",
    "categoryCode": "HHA",
    "licenseStatus": "ACTIVE",
    "inService": true,
    "licenseNumber": "550001706",
    "licenseEffectiveDate": "07/03/2025",
    "licenseExpirationDate": "07/02/2026",
    "dataDate": "10/18/2025",
    "capacity": 0,
    "address": "4766 PARK GRANADA, SUITE 214",
    "city": "CALABASAS",
    "zip": "91302",
    "county": "LOS ANGELES",
    "phone": "(818) 577-0833",
    "lat": 34.153938,
    "lng": -118.641051
  },
  {
    "id": "980001824",
    "name": "ANCESTRAL HOME HEALTH CARE PROVIDER, INC.",
    "npi": null,
    "hcaiId": "406195100",
    "businessName": "ANCESTRAL HOME HEALTH CARE PROVIDER, INC.",
    "contactEmail": "EVELYN@ANCESTRALHOMEHEALTH.COM",
    "categoryName": "HOME HEALTH AGENCY",
    "categoryCode": "HHA",
    "licenseStatus": "ACTIVE",
    "inService": true,
    "licenseNumber": "980001129",
    "licenseEffectiveDate": "03/19/2025",
    "licenseExpirationDate": "03/18/2026",
    "dataDate": "10/18/2025",
    "capacity": 0,
    "address": "5146 DOUGLAS FIR RD, SUITE 101",
    "city": "CALABASAS",
    "zip": "91302",
    "county": "LOS ANGELES",
    "phone": "(818) 789-5888",
    "lat": 34.157417,
    "lng": -118.648261
  },
  {
    "id": "630024676",
    "name": "ARDEN HOME HEALTH INC",
    "npi": null,
    "hcaiId": "406195633",
    "businessName": "ARDEN HOME HEALTH INC",
    "contactEmail": "MALICA@ACTIVEPLUSHOMEHEALTH.COM",
    "categoryName": "HOME HEALTH AGENCY",
    "categoryCode": "HHA",
    "licenseStatus": "ACTIVE",
    "inService": true,
    "licenseNumber": "550008183",
    "licenseEffectiveDate": "10/06/2025",
    "licenseExpirationDate": "10/05/2026",
    "dataDate": "10/18/2025",
    "capacity": 0,
    "address": "4766 PARK GRANADA, SUITE 214-B",
    "city": "CALABASAS",
    "zip": "91302",
    "county": "LOS ANGELES",
    "phone": "(747) 207-2277",
    "lat": 34.15394333,
    "lng": -118.6410323
  },
  {
    "id": "630025276",
    "name": "CALABASAS SURGERY CENTER LLC",
    "npi": null,
    "hcaiId": null,
    "businessName": null,
    "contactEmail": "JESSICA@ADVANTAGEHEALTHCARESYSTEMS.ORG",
    "categoryName": "SURGICAL CLINIC",
    "categoryCode": "ASC",
    "licenseStatus": null,
    "inService": null,
    "licenseNumber": null,
    "licenseEffectiveDate": null,
    "licenseExpirationDate": null,
    "dataDate": "10/18/2025",
    "capacity": 0,
    "address": "23621 PARK SORRENTO, SUITE 100",
    "city": "CALABASAS",
    "zip": "91302",
    "county": "LOS ANGELES",
    "phone": "(714) 747-1253",
    "lat": 34.15531878,
    "lng": -118.6414439
  },
  {
    "id": "630017690",
    "name": "CALAID HOME HEALTHCARE, LLC",
    "npi": "1427569847",
    "hcaiId": "406191882",
    "businessName": "CALAID HOME HEALTHCARE, LLC",
    "contactEmail": "INFO@CALAIDHEALTH.COM",
    "categoryName": "HOME HEALTH AGENCY",
    "categoryCode": "HHA",
    "licenseStatus": "ACTIVE",
    "inService": true,
    "licenseNumber": "550004583",
    "licenseEffectiveDate": "03/02/2023",
    "licenseExpirationDate": "03/01/2024",
    "dataDate": "10/18/2025",
    "capacity": 0,
    "address": "4766 PARK GRANADA, SUITE 206",
    "city": "CALABASAS",
    "zip": "91302",
    "county": "LOS ANGELES",
    "phone": "(818) 280-5585",
    "lat": 34.15395901,
    "lng": -118.64105
  },
  {
    "id": "630013794",
    "name": "COMFORTING CARE SERVICES",
    "npi": null,
    "hcaiId": "406198017",
    "businessName": "COMFORTING CARE SERVICES",
    "contactEmail": "COMFORTINGCS@GMAIL.COM",
    "categoryName": "HOSPICE",
    "categoryCode": "HOSPICE",
    "licenseStatus": "ACTIVE",
    "inService": true,
    "licenseNumber": "550002440",
    "licenseEffectiveDate": "09/16/2025",
    "licenseExpirationDate": "09/15/2027",
    "dataDate": "10/18/2025",
    "capacity": 0,
    "address": "4766 PARK GRANADA, SUITE 209",
    "city": "CALABASAS",
    "zip": "91302",
    "county": "LOS ANGELES",
    "phone": "(818) 781-8111",
    "lat": 34.153938,
    "lng": -118.641051
  },
  {
    "id": "630014715",
    "name": "DIVINE GRACE HOSPICE, INC.",
    "npi": "1033549936",
    "hcaiId": "406198507",
    "businessName": "DIVINE GRACE HOSPICE, INC.",
    "contactEmail": "DIVINEGRACEHOSPICE@GMAIL.COM",
    "categoryName": "HOSPICE",
    "categoryCode": "HOSPICE",
    "licenseStatus": "ACTIVE",
    "inService": true,
    "licenseNumber": "550003210",
    "licenseEffectiveDate": "08/25/2025",
    "licenseExpirationDate": "08/24/2027",
    "dataDate": "10/18/2025",
    "capacity": 0,
    "address": "4766 PARK GRANADA, SUITE 112",
    "city": "CALABASAS",
    "zip": "91302",
    "county": "LOS ANGELES",
    "phone": "(626) 261-4565",
    "lat": 34.153938,
    "lng": -118.641051
  },
  {
    "id": "930001598",
    "name": "EDEN SURGICAL CENTER",
    "npi": null,
    "hcaiId": null,
    "businessName": null,
    "contactEmail": "ADAM@EDENSURGICAL.COM",
    "categoryName": "SURGICAL CLINIC",
    "categoryCode": "ASC",
    "licenseStatus": null,
    "inService": null,
    "licenseNumber": null,
    "licenseEffectiveDate": null,
    "licenseExpirationDate": null,
    "dataDate": "10/18/2025",
    "capacity": 0,
    "address": "23951 CRAFTSMAN RD",
    "city": "CALABASAS",
    "zip": "91302",
    "county": "LOS ANGELES",
    "phone": "(818) 444-4244",
    "lat": 34.156287,
    "lng": -118.649097
  },
  {
    "id": "980002183",
    "name": "INTRA CARE HOME HEALTH SFV INC.",
    "npi": "1578516522",
    "hcaiId": "406196719",
    "businessName": "INTRA CARE HOME HEALTH SFV INC.",
    "contactEmail": "INTRACARESFV@INTRACAREINC.COM",
    "categoryName": "HOME HEALTH AGENCY",
    "categoryCode": "HHA",
    "licenseStatus": "ACTIVE",
    "inService": true,
    "licenseNumber": "980001307",
    "licenseEffectiveDate": "12/11/2024",
    "licenseExpirationDate": "12/10/2025",
    "dataDate": "10/18/2025",
    "capacity": 0,
    "address": "26635 AGOURA RD, SUITE 111",
    "city": "CALABASAS",
    "zip": "91302",
    "county": "LOS ANGELES",
    "phone": "(818) 609-8884",
    "lat": 34.141887,
    "lng": -118.7039475
  },
  {
    "id": "980002290",
    "name": "MEDQUEST HEALTH SERVICES, INC.",
    "npi": "1831189034",
    "hcaiId": "406196321",
    "businessName": "MEDQUEST HEALTH SERVICES, INC.",
    "contactEmail": "ELIZABETH@MEDQUESTCARE.COM",
    "categoryName": "HOME HEALTH AGENCY",
    "categoryCode": "HHA",
    "licenseStatus": "ACTIVE",
    "inService": true,
    "licenseNumber": "980001405",
    "licenseEffectiveDate": "08/20/2025",
    "licenseExpirationDate": "08/19/2026",
    "dataDate": "10/18/2025",
    "capacity": 0,
    "address": "23945 CALABASAS RD, SUITE 107",
    "city": "CALABASAS",
    "zip": "91302",
    "county": "LOS ANGELES",
    "phone": "(818) 975-8206",
    "lat": 34.153763,
    "lng": -118.649328
  },
  {
    "id": "980002506",
    "name": "MONTE NIDO RESIDENTIAL CENTER, LLC",
    "npi": null,
    "hcaiId": "206196531",
    "businessName": "MONTE NIDO RESIDENTIAL CENTER, LLC",
    "contactEmail": "ASERVICE@MONTENIDOAFFILIATES.COM",
    "categoryName": "CONGREGATE LIVING HEALTH FACILITY",
    "categoryCode": "CLHF",
    "licenseStatus": "ACTIVE",
    "inService": true,
    "licenseNumber": "980001603",
    "licenseEffectiveDate": "12/15/2024",
    "licenseExpirationDate": "12/14/2025",
    "dataDate": "10/18/2025",
    "capacity": 6,
    "address": "514 LIVE OAK CIRCLE DR",
    "city": "CALABASAS",
    "zip": "91302",
    "county": "LOS ANGELES",
    "phone": "(516) 376-1373",
    "lat": 34.078905,
    "lng": -118.697526
  },
  {
    "id": "630021694",
    "name": "ZEPHYR HOSPICE AND PALLIATIVE CARE INC",
    "npi": null,
    "hcaiId": null,
    "businessName": "ZEPHYR HOSPICE AND PALLIATIVE CARE INC",
    "contactEmail": "ZEPHYRHOSPICEPC@GMAIL.COM",
    "categoryName": "HOSPICE",
    "categoryCode": "HOSPICE",
    "licenseStatus": "ACTIVE",
    "inService": true,
    "licenseNumber": "550007198",
    "licenseEffectiveDate": "11/11/2021",
    "licenseExpirationDate": "11/10/2023",
    "dataDate": "10/18/2025",
    "capacity": 0,
    "address": "23875 VENTURA BLVD, SUITE 203",
    "city": "CALABASAS",
    "zip": "91302",
    "county": "LOS ANGELES",
    "phone": "(818) 912-6532",
    "lat": 34.155954,
    "lng": -118.64745
  }
]