[
  {
    "id": "980001357",
    "name": "ACCENTCARE UCLA HEALTH, LLC",
    "npi": "1710416136",
    "hcaiId": "406194459",
    "businessName": "ACCENTCARE UCLA HEALTH, LLC",
    "contactEmail": "JAHOBBS@ACCENTCARE.COM",
    "categoryName": "HOME HEALTH AGENCY",
    "categoryCode": "HHA",
    "licenseStatus": "ACTIVE",
    "inService": true,
    "licenseNumber": "980000746",
    "licenseEffectiveDate": "01/15/2025",
    "licenseExpirationDate": "11/30/2025",
    "dataDate": "10/18/2025",
    "capacity": 0,
    "address": "8521 FALLBROOK AVE, SUITE 360",
    "city": "WEST HILLS",
    "zip": "91304",
    "county": "LOS ANGELES",
    "phone": "(818) 480-9300",
    "lat": 34.22370801,
    "lng": -118.62786
  },
  {
    "id": "630019330",
    "name": "AMERICA'S BEST CARE",
    "npi": null,
    "hcaiId": "406192817",
    "businessName": "AMERICA'S BEST CARE",
    "contactEmail": "AMERICASBESTCAREHHA@GMAIL.COM",
    "categoryName": "HOME HEALTH AGENCY",
    "categoryCode": "HHA",
    "licenseStatus": "ACTIVE",
    "inService": true,
    "licenseNumber": "550005660",
    "licenseEffectiveDate": "08/14/2025",
    "licenseExpirationDate": "08/13/2026",
    "dataDate": "10/18/2025",
    "capacity": 0,
    "address": "8937 DE SOTO AVE, UNIT 200",
    "city": "CANOGA PARK",
    "zip": "91304",
    "county": "LOS ANGELES",
    "phone": "(888) 608-0838",
    "lat": 34.232706,
    "lng": -118.588725
  },
  {
    "id": "630025107",
    "name": "APOSTLES CREED HOME HEALTH CARE",
    "npi": null,
    "hcaiId": "406190173",
    "businessName": "APOSTLES CREED HOME HEALTH CARE",
    "contactEmail": "APOSTLESCREEDHHC@GMAIL.COM",
    "categoryName": "HOME HEALTH AGENCY",
    "categoryCode": "HHA",
    "licenseStatus": "ACTIVE",
    "inService": true,
    "licenseNumber": "550008339",
    "licenseEffectiveDate": "01/05/2024",
    "licenseExpirationDate": "01/04/2025",
    "dataDate": "10/18/2025",
    "capacity": 0,
    "address": "8374 TOPANGA CANYON BLVD, SUITE 211",
    "city": "WEST HILLS",
    "zip": "91304",
    "county": "LOS ANGELES",
    "phone": "(818) 858-3991",
    "lat": 34.22210899,
    "lng": -118.605357
  },
  {
    "id": "630018087",
    "name": "BRIGHT LIGHT HOSPICE, INC.",
    "npi": "1528568870",
    "hcaiId": "406191816",
    "businessName": "BRIGHT LIGHT HOSPICE, INC.",
    "contactEmail": "BRIGHTLIGHTHOSPICE@GMAIL.COM",
    "categoryName": "HOSPICE",
    "categoryCode": "HOSPICE",
    "licenseStatus": "ACTIVE",
    "inService": true,
    "licenseNumber": "550004861",
    "licenseEffectiveDate": "10/12/2021",
    "licenseExpirationDate": "08/12/2023",
    "dataDate": "10/18/2025",
    "capacity": 0,
    "address": "8374 TOPANGA CANYON BLVD, SUITE 202",
    "city": "CANOGA PARK",
    "zip": "91304",
    "county": "LOS ANGELES",
    "phone": "(747) 288-6800",
    "lat": 34.22217944,
    "lng": -118.6059431
  },
  {
    "id": "960001949",
    "name": "BURTON HOME",
    "npi": "1073941118",
    "hcaiId": null,
    "businessName": "EXCEL-CARE SERVICES, INC.",
    "contactEmail": "CATURAY0974@ATT.NET",
    "categoryName": "INTERMEDIATE CARE FACILITY-DD/H/N/CN/IID",
    "categoryCode": "ICFDDH",
    "licenseStatus": "ACTIVE",
    "inService": true,
    "licenseNumber": "960000938",
    "licenseEffectiveDate": "05/16/2025",
    "licenseExpirationDate": "05/15/2026",
    "dataDate": "10/18/2025",
    "capacity": 6,
    "address": "22720 BURTON ST",
    "city": "WEST HILLS",
    "zip": "91304",
    "county": "LOS ANGELES",
    "phone": "(818) 857-0115",
    "lat": 34.218249,
    "lng": -118.622103
  },
  {
    "id": "630026040",
    "name": "CARE & COMFORT HOME HEALTH INC",
    "npi": null,
    "hcaiId": null,
    "businessName": "CARE & COMFORT HOME HEALTH INC",
    "contactEmail": "CARECOMFORTHEALTH07@GMAIL.COM",
    "categoryName": "HOME HEALTH AGENCY",
    "categoryCode": "HHA",
    "licenseStatus": "ACTIVE",
    "inService": true,
    "licenseNumber": "550009312",
    "licenseEffectiveDate": "02/02/2025",
    "licenseExpirationDate": "08/01/2025",
    "dataDate": "10/18/2025",
    "capacity": 0,
    "address": "8374 TOPANGA CANYON BLVD, SUITE 209",
    "city": "CANOGA PARK",
    "zip": "91304",
    "county": "LOS ANGELES",
    "phone": "(818) 497-6449",
    "lat": 34.22217944,
    "lng": -118.6059431
  },
  {
    "id": "630020780",
    "name": "CARE AND COMFORT HOSPICE, INC.",
    "npi": null,
    "hcaiId": "406194835",
    "businessName": "CARE AND COMFORT HOSPICE, INC.",
    "contactEmail": "CAREANDCOMFORTHOSPICEINC2020@GMAIL.COM",
    "categoryName": "HOSPICE",
    "categoryCode": "HOSPICE",
    "licenseStatus": "ACTIVE",
    "inService": true,
    "licenseNumber": "550006837",
    "licenseEffectiveDate": "09/21/2025",
    "licenseExpirationDate": "09/20/2027",
    "dataDate": "10/18/2025",
    "capacity": 0,
    "address": "8374 TOPANGA CANYON BLVD, SUITE 213",
    "city": "CANOGA PARK",
    "zip": "91304",
    "county": "LOS ANGELES",
    "phone": "(818) 854-6525",
    "lat": 34.22217943,
    "lng": -118.6059431
  },
  {
    "id": "630020432",
    "name": "DELTA HOSPICE, INC.",
    "npi": null,
    "hcaiId": "406196744",
    "businessName": "DELTA HOSPICE, INC.",
    "contactEmail": "DELTAHOSPICEINC@GMAIL.COM",
    "categoryName": "HOSPICE",
    "categoryCode": "HOSPICE",
    "licenseStatus": "ACTIVE",
    "inService": true,
    "licenseNumber": "550006495",
    "licenseEffectiveDate": "06/26/2023",
    "licenseExpirationDate": "06/25/2025",
    "dataDate": "10/18/2025",
    "capacity": 0,
    "address": "8921 DE SOTO AVE, SUITE 202",
    "city": "CANOGA PARK",
    "zip": "91304",
    "county": "LOS ANGELES",
    "phone": "(747) 832-2005",
    "lat": 34.23237995,
    "lng": -118.5885803
  },
  {
    "id": "630022125",
    "name": "LIFELONG HOSPICE CARE, INC.",
    "npi": null,
    "hcaiId": "406195075",
    "businessName": "LIFELONG HOSPICE CARE, INC.",
    "contactEmail": "LIFELONGCARE1@GMAIL.COM",
    "categoryName": "HOSPICE",
    "categoryCode": "HOSPICE",
    "licenseStatus": "ACTIVE",
    "inService": true,
    "licenseNumber": "550007577",
    "licenseEffectiveDate": "12/15/2023",
    "licenseExpirationDate": "12/14/2025",
    "dataDate": "10/18/2025",
    "capacity": 0,
    "address": "8399 TOPANGA CANYON BLVD, SUITE 308",
    "city": "CANOGA PARK",
    "zip": "91304",
    "county": "LOS ANGELES",
    "phone": "(747) 282-0738",
    "lat": 34.221798,
    "lng": -118.606743
  },
  {
    "id": "630019765",
    "name": "LUNA HOSPICE, INC.",
    "npi": null,
    "hcaiId": "406194801",
    "businessName": "LUNA HOSPICE, INC.",
    "contactEmail": "LUNAHOSPICE@YAHOO.COM",
    "categoryName": "HOSPICE",
    "categoryCode": "HOSPICE",
    "licenseStatus": "ACTIVE",
    "inService": true,
    "licenseNumber": "550006207",
    "licenseEffectiveDate": "12/08/2024",
    "licenseExpirationDate": "12/07/2026",
    "dataDate": "10/18/2025",
    "capacity": 0,
    "address": "8374 TOPANGA CANYON BLVD, SUITE 212",
    "city": "CANOGA PARK",
    "zip": "91304",
    "county": "LOS ANGELES",
    "phone": "(818) 616-4616",
    "lat": 34.22211302,
    "lng": -118.605369
  },
  {
    "id": "060001931",
    "name": "MOUNTAINVIEW ADULT DAY HEALTH CARE",
    "npi": null,
    "hcaiId": null,
    "businessName": "MOUNTAINVIEW ADHC INC.",
    "contactEmail": "MOUNTAINVIEWADHC@MSN.COM",
    "categoryName": "ADULT DAY HEALTH CARE",
    "categoryCode": "ADHC",
    "licenseStatus": "ACTIVE",
    "inService": true,
    "licenseNumber": "060000748",
    "licenseEffectiveDate": "11/06/2025",
    "licenseExpirationDate": "11/05/2026",
    "dataDate": "10/18/2025",
    "capacity": 0,
    "address": "23751 ROSCOE BLVD # 23757",
    "city": "CANOGA PARK",
    "zip": "91304",
    "county": "LOS ANGELES",
    "phone": "(818) 999-9234",
    "lat": 34.21962,
    "lng": -118.6449885
  },
  {
    "id": "630015943",
    "name": "ONE & ONLY CONGREGATE LIVING",
    "npi": null,
    "hcaiId": "206191369",
    "businessName": "ONE & ONLY CONGREGATE LIVING",
    "contactEmail": "SILICA.D.BUNGABONG@GMAIL.COM",
    "categoryName": "CONGREGATE LIVING HEALTH FACILITY",
    "categoryCode": "CLHF",
    "licenseStatus": "ACTIVE",
    "inService": true,
    "licenseNumber": "550004108",
    "licenseEffectiveDate": "12/09/2024",
    "licenseExpirationDate": "12/08/2025",
    "dataDate": "10/18/2025",
    "capacity": 6,
    "address": "23296 COHASSET ST",
    "city": "WEST HILLS",
    "zip": "91304",
    "county": "LOS ANGELES",
    "phone": "(818) 456-4337",
    "lat": 34.205742,
    "lng": -118.636992
  },
  {
    "id": "630027834",
    "name": "OPTIMUM HOME HEALTH SERVICES INC",
    "npi": null,
    "hcaiId": null,
    "businessName": "OPTIMUM HOME HEALTH SERVICES INC",
    "contactEmail": null,
    "categoryName": "HOME HEALTH AGENCY",
    "categoryCode": "HHA",
    "licenseStatus": "ACTIVE",
    "inService": true,
    "licenseNumber": "550009799",
    "licenseEffectiveDate": "11/14/2025",
    "licenseExpirationDate": "05/13/2026",
    "dataDate": "10/18/2025",
    "capacity": 0,
    "address": "8374 TOPANGA CANYON BLVD, UNIT 210",
    "city": "CANOGA PARK",
    "zip": "91304",
    "county": "LOS ANGELES",
    "phone": "(747) 230-4316",
    "lat": 34.22210899,
    "lng": -118.605357
  },
  {
    "id": "630026335",
    "name": "PRESTIGIOUS HOME HEALTHCARE, INC.",
    "npi": null,
    "hcaiId": null,
    "businessName": "PRESTIGIOUS HOME HEALTHCARE, INC.",
    "contactEmail": "PRESTIGIOUSHHC1@GMAIL.COM",
    "categoryName": "HOME HEALTH AGENCY",
    "categoryCode": "HHA",
    "licenseStatus": "ACTIVE",
    "inService": true,
    "licenseNumber": "550009361",
    "licenseEffectiveDate": "03/10/2025",
    "licenseExpirationDate": "09/09/2025",
    "dataDate": "10/18/2025",
    "capacity": 0,
    "address": "20925 ROSCOE BLVD, SUITE 2",
    "city": "CANOGA PARK",
    "zip": "91304",
    "county": "LOS ANGELES",
    "phone": "(818) 483-8005",
    "lat": 34.220601,
    "lng": -118.5894945
  },
  {
    "id": "630025287",
    "name": "ST. JUDE HOME HEALTH CARE",
    "npi": null,
    "hcaiId": null,
    "businessName": "ST. JUDE HOME HEALTH CARE",
    "contactEmail": "VR322_3@YAHOO.COM",
    "categoryName": "HOME HEALTH AGENCY",
    "categoryCode": "HHA",
    "licenseStatus": "ACTIVE",
    "inService": true,
    "licenseNumber": "550009485",
    "licenseEffectiveDate": "11/06/2025",
    "licenseExpirationDate": "11/05/2026",
    "dataDate": "10/18/2025",
    "capacity": 0,
    "address": "20937 ROSCOE BLVD, UNIT 1",
    "city": "CANOGA PARK",
    "zip": "91304",
    "county": "LOS ANGELES",
    "phone": "(747) 264-0548",
    "lat": 34.22050101,
    "lng": -118.589715
  },
  {
    "id": "630014469",
    "name": "THE VILLAS AT TOPANGA TERRACE",
    "npi": null,
    "hcaiId": "206197932",
    "businessName": "THE VILLAS AT TOPANGA TERRACE",
    "contactEmail": "LHEVER@TOPANGATERRACE.COM",
    "categoryName": "CONGREGATE LIVING HEALTH FACILITY",
    "categoryCode": "CLHF",
    "licenseStatus": "ACTIVE",
    "inService": true,
    "licenseNumber": "550002596",
    "licenseEffectiveDate": "09/17/2025",
    "licenseExpirationDate": "03/02/2026",
    "dataDate": "10/18/2025",
    "capacity": 13,
    "address": "22123 ROSCOE BLVD",
    "city": "WEST HILLS",
    "zip": "91304",
    "county": "LOS ANGELES",
    "phone": "(818) 883-7292",
    "lat": 34.220743,
    "lng": -118.60881
  },
  {
    "id": "960002859",
    "name": "TLC COMMUNITY HOUSE",
    "npi": "1093924888",
    "hcaiId": null,
    "businessName": "THERAPEUTIC LIVING CENTERS FOR THE BLIND, INC.",
    "contactEmail": "AJORDAN@TLC4BLIND.ORG",
    "categoryName": "INTERMEDIATE CARE FACILITY-DD/H/N/CN/IID",
    "categoryCode": "ICFDDH",
    "licenseStatus": "ACTIVE",
    "inService": true,
    "licenseNumber": "960001431",
    "licenseEffectiveDate": "06/11/2025",
    "licenseExpirationDate": "06/10/2026",
    "dataDate": "10/18/2025",
    "capacity": 6,
    "address": "23710 COMMUNITY ST",
    "city": "CANOGA PARK",
    "zip": "91304",
    "county": "LOS ANGELES",
    "phone": "(818) 314-8254",
    "lat": 34.221447,
    "lng": -118.644129
  },
  {
    "id": "920000091",
    "name": "TOPANGA TERRACE",
    "npi": "1184620171",
    "hcaiId": "206190786",
    "businessName": "22125 ROSCOE CORP.",
    "contactEmail": "LHEVER@TOPANGATERRACE.COM",
    "categoryName": "SKILLED NURSING FACILITY",
    "categoryCode": "SNF",
    "licenseStatus": "ACTIVE",
    "inService": true,
    "licenseNumber": "920000075",
    "licenseEffectiveDate": "11/01/2025",
    "licenseExpirationDate": "10/31/2026",
    "dataDate": "10/18/2025",
    "capacity": 112,
    "address": "22125 ROSCOE BLVD",
    "city": "CANOGA PARK",
    "zip": "91304",
    "county": "LOS ANGELES",
    "phone": "(818) 883-7292",
    "lat": 34.220196,
    "lng": -118.6088625
  },
  {
    "id": "920000082",
    "name": "WEST HILLS HEALTH AND REHABILITATION CENTER",
    "npi": "1487734935",
    "hcaiId": "206190086",
    "businessName": "CANOGA HEALTHCARE LLC",
    "contactEmail": "FAC56ADMIN@LONGWOODMGMT.COM",
    "categoryName": "SKILLED NURSING FACILITY",
    "categoryCode": "SNF",
    "licenseStatus": "ACTIVE",
    "inService": true,
    "licenseNumber": "920000009",
    "licenseEffectiveDate": "11/01/2025",
    "licenseExpirationDate": "10/31/2026",
    "dataDate": "10/18/2025",
    "capacity": 145,
    "address": "7940 TOPANGA CANYON BLVD",
    "city": "CANOGA PARK",
    "zip": "91304",
    "county": "LOS ANGELES",
    "phone": "(818) 347-3800",
    "lat": 34.214571,
    "lng": -118.6057395
  }
]