[
  {
    "id": "630015522",
    "name": "ADASTRA HEALTH CARE - ORION CENTER",
    "npi": null,
    "hcaiId": "206198486",
    "businessName": "ADASTRA HEALTH CARE, INC",
    "contactEmail": "MASTOVELLA@YAHOO.COM",
    "categoryName": "CONGREGATE LIVING HEALTH FACILITY",
    "categoryCode": "CLHF",
    "licenseStatus": "ACTIVE",
    "inService": true,
    "licenseNumber": "550003791",
    "licenseEffectiveDate": "02/07/2025",
    "licenseExpirationDate": "02/06/2026",
    "dataDate": "10/18/2025",
    "capacity": 6,
    "address": "20453 ELKWOOD ST",
    "city": "WINNETKA",
    "zip": "91306",
    "county": "LOS ANGELES",
    "phone": "(323) 327-8554",
    "lat": 34.212501,
    "lng": -118.57896
  },
  {
    "id": "630026936",
    "name": "ALWAYS THERE HOME HEALTH INC",
    "npi": null,
    "hcaiId": null,
    "businessName": "ALWAYS THERE HOME HEALTH INC",
    "contactEmail": "CAHOMEHEALTHINC@GMAIL.COM",
    "categoryName": "HOME HEALTH AGENCY",
    "categoryCode": "HHA",
    "licenseStatus": "ACTIVE",
    "inService": true,
    "licenseNumber": "550009454",
    "licenseEffectiveDate": "10/16/2025",
    "licenseExpirationDate": "10/15/2026",
    "dataDate": "10/18/2025",
    "capacity": 0,
    "address": "20832 ROSCOE BLVD, SUITE 218",
    "city": "WINNETKA",
    "zip": "91306",
    "county": "LOS ANGELES",
    "phone": "(747) 202-3753",
    "lat": 34.21990186,
    "lng": -118.5876614
  },
  {
    "id": "630021356",
    "name": "ANGEL LOVE HOSPICE, INC.",
    "npi": null,
    "hcaiId": "406194959",
    "businessName": "ANGEL LOVE HOSPICE, INC.",
    "contactEmail": "ANGELLOVEHOSPICE@GMAIL.COM",
    "categoryName": "HOSPICE",
    "categoryCode": "HOSPICE",
    "licenseStatus": "ACTIVE",
    "inService": true,
    "licenseNumber": "550007053",
    "licenseEffectiveDate": "10/15/2023",
    "licenseExpirationDate": "10/14/2025",
    "dataDate": "10/18/2025",
    "capacity": 0,
    "address": "20847 SHERMAN WAY, SUITE 246",
    "city": "WINNETKA",
    "zip": "91306",
    "county": "LOS ANGELES",
    "phone": "(480) 233-7051",
    "lat": 34.20141998,
    "lng": -118.587888
  },
  {
    "id": "630018191",
    "name": "AURORA CARE",
    "npi": null,
    "hcaiId": "206190244",
    "businessName": "PETIT AVE INC",
    "contactEmail": "INFO@AURORACLHF.COM",
    "categoryName": "CONGREGATE LIVING HEALTH FACILITY",
    "categoryCode": "CLHF",
    "licenseStatus": "ACTIVE",
    "inService": true,
    "licenseNumber": "550005603",
    "licenseEffectiveDate": "02/24/2025",
    "licenseExpirationDate": "02/23/2026",
    "dataDate": "10/18/2025",
    "capacity": 6,
    "address": "6719 QUAKERTOWN AVE",
    "city": "WINNETKA",
    "zip": "91306",
    "county": "LOS ANGELES",
    "phone": "(747) 204-4170",
    "lat": 34.192674,
    "lng": -118.570131
  },
  {
    "id": "630026520",
    "name": "AVL HOME HEALTH CARE, INC",
    "npi": null,
    "hcaiId": null,
    "businessName": "AVL HOME HEALTH CARE, INC",
    "contactEmail": "AVLHOMEHEALTHCARE@GMAIL.COM",
    "categoryName": "HOME HEALTH AGENCY",
    "categoryCode": "HHA",
    "licenseStatus": "ACTIVE",
    "inService": true,
    "licenseNumber": "550009089",
    "licenseEffectiveDate": "04/24/2025",
    "licenseExpirationDate": "04/23/2026",
    "dataDate": "10/18/2025",
    "capacity": 0,
    "address": "19801 VANOWEN ST, UNIT A-1",
    "city": "CANOGA PARK",
    "zip": "91306",
    "county": "LOS ANGELES",
    "phone": "(747) 666-0138",
    "lat": 34.19438501,
    "lng": -118.564537
  },
  {
    "id": "630018901",
    "name": "BLUE OCEAN HOSPICE, INC.",
    "npi": null,
    "hcaiId": "406195200",
    "businessName": "BLUE OCEAN HOSPICE, INC.",
    "contactEmail": "BLUEOCEANHOSPICE@GMAIL.COM",
    "categoryName": "HOSPICE",
    "categoryCode": "HOSPICE",
    "licenseStatus": "ACTIVE",
    "inService": true,
    "licenseNumber": "550007575",
    "licenseEffectiveDate": "12/15/2023",
    "licenseExpirationDate": "12/14/2025",
    "dataDate": "10/18/2025",
    "capacity": 0,
    "address": "19725 SHERMAN WAY, SUITE 295G",
    "city": "WINNETKA",
    "zip": "91306",
    "county": "LOS ANGELES",
    "phone": "(818) 572-3495",
    "lat": 34.201296,
    "lng": -118.5631335
  },
  {
    "id": "960002222",
    "name": "EL PROYECTO DEL BARRIO, INC. - WINNETKA CLINIC",
    "npi": "1538130893",
    "hcaiId": "306195042",
    "businessName": "EL PROYECTO DEL BARRIO, INC.",
    "contactEmail": "MCHACON@ELPROYECTO.ORG",
    "categoryName": "PRIMARY CARE CLINIC",
    "categoryCode": "COMTYC",
    "licenseStatus": "ACTIVE",
    "inService": true,
    "licenseNumber": "550002824",
    "licenseEffectiveDate": "09/26/2025",
    "licenseExpirationDate": "09/25/2026",
    "dataDate": "10/18/2025",
    "capacity": 0,
    "address": "20800 SHERMAN WAY",
    "city": "WINNETKA",
    "zip": "91306",
    "county": "LOS ANGELES",
    "phone": "(818) 883-2273",
    "lat": 34.20063,
    "lng": -118.5864885
  },
  {
    "id": "630021040",
    "name": "ELBRUS HOSPICE INC",
    "npi": null,
    "hcaiId": "406195158",
    "businessName": "ELBRUS HOSPICE INC",
    "contactEmail": "ELBRUSHOSPICEINC@GMAIL.COM",
    "categoryName": "HOSPICE",
    "categoryCode": "HOSPICE",
    "licenseStatus": "ACTIVE",
    "inService": true,
    "licenseNumber": "550007602",
    "licenseEffectiveDate": "12/21/2023",
    "licenseExpirationDate": "12/20/2025",
    "dataDate": "10/18/2025",
    "capacity": 0,
    "address": "19725 SHERMAN WAY, SUITE 310",
    "city": "WINNETKA",
    "zip": "91306",
    "county": "LOS ANGELES",
    "phone": "(626) 414-2142",
    "lat": 34.201296,
    "lng": -118.5631335
  },
  {
    "id": "630014798",
    "name": "FLORENCE HOSPICE LLC",
    "npi": "1417388943",
    "hcaiId": "406195520",
    "businessName": "FLORENCE HOSPICE, LLC",
    "contactEmail": "INFO@FLORENCEHOSPICE.ORG",
    "categoryName": "HOSPICE",
    "categoryCode": "HOSPICE",
    "licenseStatus": "ACTIVE",
    "inService": true,
    "licenseNumber": "550002732",
    "licenseEffectiveDate": "07/03/2024",
    "licenseExpirationDate": "07/02/2026",
    "dataDate": "10/18/2025",
    "capacity": 0,
    "address": "20847 SHERMAN WAY, SUITE 310",
    "city": "WINNETKA",
    "zip": "91306",
    "county": "LOS ANGELES",
    "phone": "(818) 697-4477",
    "lat": 34.20141998,
    "lng": -118.587888
  },
  {
    "id": "060001911",
    "name": "GENESIS II ADULT DAY HEALTH CARE",
    "npi": null,
    "hcaiId": null,
    "businessName": "ASB ASSOCIATES, INC.",
    "contactEmail": "GENESIS.CBAS@GMAIL.COM",
    "categoryName": "ADULT DAY HEALTH CARE",
    "categoryCode": "ADHC",
    "licenseStatus": "ACTIVE",
    "inService": true,
    "licenseNumber": "060000728",
    "licenseEffectiveDate": "11/06/2024",
    "licenseExpirationDate": "11/05/2025",
    "dataDate": "10/18/2025",
    "capacity": 0,
    "address": "20215 SATICOY ST",
    "city": "CANOGA PARK",
    "zip": "91306",
    "county": "LOS ANGELES",
    "phone": "(818) 882-2829",
    "lat": 34.208757,
    "lng": -118.573713
  },
  {
    "id": "630020471",
    "name": "GENTLE HOSPICE CARE, INC.",
    "npi": null,
    "hcaiId": "406193466",
    "businessName": "GENTLE HOSPICE CARE, INC.",
    "contactEmail": "GENTLEHOSPICECAREINC@GMAIL.COM",
    "categoryName": "HOSPICE",
    "categoryCode": "HOSPICE",
    "licenseStatus": "ACTIVE",
    "inService": true,
    "licenseNumber": "550006682",
    "licenseEffectiveDate": "07/12/2025",
    "licenseExpirationDate": "07/11/2027",
    "dataDate": "10/18/2025",
    "capacity": 0,
    "address": "19725 SHERMAN WAY, SUITE 295F",
    "city": "WINNETKA",
    "zip": "91306",
    "county": "LOS ANGELES",
    "phone": "(602) 654-3573",
    "lat": 34.201296,
    "lng": -118.5631335
  },
  {
    "id": "630020183",
    "name": "GOLDEN SKY HOSPICE, INC.",
    "npi": null,
    "hcaiId": "406195330",
    "businessName": "GOLDEN SKY HOSPICE, INC.",
    "contactEmail": "GOLDENSKYHOSPICE@GMAIL.COM",
    "categoryName": "HOSPICE",
    "categoryCode": "HOSPICE",
    "licenseStatus": "ACTIVE",
    "inService": true,
    "licenseNumber": "550006389",
    "licenseEffectiveDate": "05/18/2025",
    "licenseExpirationDate": "05/17/2027",
    "dataDate": "10/18/2025",
    "capacity": 0,
    "address": "20847 SHERMAN WAY, SUITE 220",
    "city": "WINNETKA",
    "zip": "91306",
    "county": "LOS ANGELES",
    "phone": "(818) 805-0831",
    "lat": 34.20141998,
    "lng": -118.587888
  },
  {
    "id": "630026967",
    "name": "HEALING TOUCH INC.",
    "npi": null,
    "hcaiId": null,
    "businessName": "HEALING TOUCH INC.",
    "contactEmail": "4HEALINGTOUCHINC@GMAIL.COM",
    "categoryName": "HOME HEALTH AGENCY",
    "categoryCode": "HHA",
    "licenseStatus": "ACTIVE",
    "inService": true,
    "licenseNumber": "550009627",
    "licenseEffectiveDate": "08/17/2025",
    "licenseExpirationDate": "02/16/2026",
    "dataDate": "10/18/2025",
    "capacity": 0,
    "address": "20246 SATICOY ST, SUITE 210",
    "city": "WINNETKA",
    "zip": "91306",
    "county": "LOS ANGELES",
    "phone": "(818) 275-8755",
    "lat": 34.208118,
    "lng": -118.5747705
  },
  {
    "id": "920000068",
    "name": "HOLIDAY MANOR CARE CENTER",
    "npi": "1710082193",
    "hcaiId": "206190377",
    "businessName": "SELA HEALTHCARE, INC.",
    "contactEmail": "ADMINISTRATOR@CANYONVISTAPA.COM",
    "categoryName": "SKILLED NURSING FACILITY",
    "categoryCode": "SNF",
    "licenseStatus": "ACTIVE",
    "inService": true,
    "licenseNumber": "920000041",
    "licenseEffectiveDate": "04/22/2025",
    "licenseExpirationDate": "04/21/2026",
    "dataDate": "10/18/2025",
    "capacity": 94,
    "address": "20554 ROSCOE BLVD",
    "city": "WINNETKA",
    "zip": "91306",
    "county": "LOS ANGELES",
    "phone": "(818) 341-9800",
    "lat": 34.219368,
    "lng": -118.5816195
  },
  {
    "id": "630020033",
    "name": "HOPEFUL HEARTS HOSPICE, INC",
    "npi": null,
    "hcaiId": "406194628",
    "businessName": "HOPEFUL HEARTS HOSPICE, INC",
    "contactEmail": "HOPEFULHEARTSHOSPICE@GMAIL.COM",
    "categoryName": "HOSPICE",
    "categoryCode": "HOSPICE",
    "licenseStatus": "ACTIVE",
    "inService": true,
    "licenseNumber": "550006103",
    "licenseEffectiveDate": "02/18/2025",
    "licenseExpirationDate": "02/17/2027",
    "dataDate": "10/18/2025",
    "capacity": 0,
    "address": "20246 SATICOY ST, SUITE 203",
    "city": "WINNETKA",
    "zip": "91306",
    "county": "LOS ANGELES",
    "phone": "(818) 860-2891",
    "lat": 34.208118,
    "lng": -118.5747705
  },
  {
    "id": "630023255",
    "name": "HORIZON CMHC",
    "npi": null,
    "hcaiId": null,
    "businessName": null,
    "contactEmail": "HELP@HORIZONCMHC.COM",
    "categoryName": "PSYCHOLOGY CLINIC",
    "categoryCode": "CMHC",
    "licenseStatus": null,
    "inService": null,
    "licenseNumber": null,
    "licenseEffectiveDate": null,
    "licenseExpirationDate": null,
    "dataDate": "10/18/2025",
    "capacity": 0,
    "address": "20201 SHERMAN WAY, SUITE 109",
    "city": "WINNETKA",
    "zip": "91306",
    "county": "LOS ANGELES",
    "phone": "(818) 527-1618",
    "lat": 34.201854,
    "lng": -118.573083
  },
  {
    "id": "960002204",
    "name": "J-J EXCELCARE HOME 2",
    "npi": "1114132008",
    "hcaiId": null,
    "businessName": "J-J QUAL-ZERV, INC.",
    "contactEmail": "CATURAY0974@ATT.NET",
    "categoryName": "INTERMEDIATE CARE FACILITY-DD/H/N/CN/IID",
    "categoryCode": "ICFDDH",
    "licenseStatus": "ACTIVE",
    "inService": true,
    "licenseNumber": "960001041",
    "licenseEffectiveDate": "01/01/2025",
    "licenseExpirationDate": "12/31/2025",
    "dataDate": "10/18/2025",
    "capacity": 6,
    "address": "20318 STRATHERN ST",
    "city": "WINNETKA",
    "zip": "91306",
    "county": "LOS ANGELES",
    "phone": "(818) 349-5141",
    "lat": 34.2153,
    "lng": -118.575999
  },
  {
    "id": "630022220",
    "name": "MEADOW HOSPICE",
    "npi": null,
    "hcaiId": "406195072",
    "businessName": "MEADOW HOSPICE",
    "contactEmail": "MEADOWHOSPICE@GMAIL.COM",
    "categoryName": "HOSPICE",
    "categoryCode": "HOSPICE",
    "licenseStatus": "ACTIVE",
    "inService": true,
    "licenseNumber": "550007483",
    "licenseEffectiveDate": "10/01/2024",
    "licenseExpirationDate": "12/16/2025",
    "dataDate": "10/18/2025",
    "capacity": 0,
    "address": "20246 SATICOY ST, #202",
    "city": "WINNETKA",
    "zip": "91306",
    "county": "LOS ANGELES",
    "phone": "(747) 217-2452",
    "lat": 34.20809806,
    "lng": -118.5747919
  },
  {
    "id": "630022065",
    "name": "NATIONAL HOSPICE, INC.",
    "npi": null,
    "hcaiId": "406197666",
    "businessName": "NATIONAL HOSPICE, INC.",
    "contactEmail": "NAT.HOSPICE@GMAIL.COM",
    "categoryName": "HOSPICE",
    "categoryCode": "HOSPICE",
    "licenseStatus": "ACTIVE",
    "inService": true,
    "licenseNumber": "550007403",
    "licenseEffectiveDate": "12/07/2023",
    "licenseExpirationDate": "12/06/2025",
    "dataDate": "10/18/2025",
    "capacity": 0,
    "address": "7545 WINNETKA AVE, UNIT A",
    "city": "WINNETKA",
    "zip": "91306",
    "county": "LOS ANGELES",
    "phone": "(747) 285-2100",
    "lat": 34.207146,
    "lng": -118.571202
  },
  {
    "id": "630021130",
    "name": "NEW SPRING HOSPICE CARE, INC.",
    "npi": null,
    "hcaiId": "406197722",
    "businessName": "NEW SPRING HOSPICE CARE, INC.",
    "contactEmail": "NEWSPRINGHC@GMAIL.COM",
    "categoryName": "HOSPICE",
    "categoryCode": "HOSPICE",
    "licenseStatus": "ACTIVE",
    "inService": true,
    "licenseNumber": "550007286",
    "licenseEffectiveDate": "11/20/2023",
    "licenseExpirationDate": "11/19/2025",
    "dataDate": "10/18/2025",
    "capacity": 0,
    "address": "20246 SATICOY ST, UNIT 207",
    "city": "WINNETKA",
    "zip": "91306",
    "county": "LOS ANGELES",
    "phone": "(818) 818-5444",
    "lat": 34.208118,
    "lng": -118.5747705
  },
  {
    "id": "630020619",
    "name": "NU CARE HOSPICE, INC.",
    "npi": null,
    "hcaiId": "406193277",
    "businessName": "NU CARE HOSPICE, INC.",
    "contactEmail": "NUCARE.HOSPICE@OUTLOOK.COM",
    "categoryName": "HOSPICE",
    "categoryCode": "HOSPICE",
    "licenseStatus": "ACTIVE",
    "inService": true,
    "licenseNumber": "550007166",
    "licenseEffectiveDate": "07/09/2025",
    "licenseExpirationDate": "11/01/2025",
    "dataDate": "10/18/2025",
    "capacity": 0,
    "address": "20246 SATICOY ST, SUITE 204",
    "city": "WINNETKA",
    "zip": "91306",
    "county": "LOS ANGELES",
    "phone": "(747) 202-0514",
    "lat": 34.20792401,
    "lng": -118.574767
  },
  {
    "id": "630020063",
    "name": "NUERA HOSPICE INC",
    "npi": null,
    "hcaiId": "406196069",
    "businessName": "NUERA HOSPICE INC",
    "contactEmail": "JACK@NUERAHOSPICE.COM",
    "categoryName": "HOSPICE",
    "categoryCode": "HOSPICE",
    "licenseStatus": "ACTIVE",
    "inService": true,
    "licenseNumber": "550006749",
    "licenseEffectiveDate": "09/03/2025",
    "licenseExpirationDate": "09/02/2027",
    "dataDate": "10/18/2025",
    "capacity": 0,
    "address": "19725 SHERMAN WAY, SUITE 220",
    "city": "CANOGA PARK",
    "zip": "91306",
    "county": "LOS ANGELES",
    "phone": "(747) 202-0998",
    "lat": 34.201296,
    "lng": -118.5631335
  },
  {
    "id": "630024821",
    "name": "NUVIDA HOME HEALTH CARE, INC.",
    "npi": null,
    "hcaiId": "406197615",
    "businessName": "NUVIDA HOME HEALTH CARE, INC.",
    "contactEmail": "NUVIDAHHC@GMAIL.COM",
    "categoryName": "HOME HEALTH AGENCY",
    "categoryCode": "HHA",
    "licenseStatus": "ACTIVE",
    "inService": true,
    "licenseNumber": "550008239",
    "licenseEffectiveDate": "11/30/2024",
    "licenseExpirationDate": "11/29/2025",
    "dataDate": "10/18/2025",
    "capacity": 0,
    "address": "19725 SHERMAN WAY, SUITE 370",
    "city": "WINNETKA",
    "zip": "91306",
    "county": "LOS ANGELES",
    "phone": "(747) 244-3377",
    "lat": 34.201296,
    "lng": -118.5631335
  },
  {
    "id": "630011437",
    "name": "PACIFIC COAST HOME HEALTH SERVICES",
    "npi": null,
    "hcaiId": "406197289",
    "businessName": "JB&MM CONSULTING SERVICES, LLC",
    "contactEmail": "PACIFICCOASTHOMEHEALTH@YAHOO.COM",
    "categoryName": "HOME HEALTH AGENCY",
    "categoryCode": "HHA",
    "licenseStatus": "ACTIVE",
    "inService": true,
    "licenseNumber": "550000988",
    "licenseEffectiveDate": "04/03/2025",
    "licenseExpirationDate": "04/02/2026",
    "dataDate": "10/18/2025",
    "capacity": 0,
    "address": "19725 SHERMAN WAY, SUITE 282",
    "city": "WINNETKA",
    "zip": "91306",
    "county": "LOS ANGELES",
    "phone": "(818) 748-3348",
    "lat": 34.201296,
    "lng": -118.5631335
  },
  {
    "id": "630019058",
    "name": "PERPETUAL HELP HOSPICE, INC.",
    "npi": null,
    "hcaiId": "406193634",
    "businessName": "PERPETUAL HELP HOSPICE, INC.",
    "contactEmail": "HOSPICEPERPETUALHELP@GMAIL.COM",
    "categoryName": "HOSPICE",
    "categoryCode": "HOSPICE",
    "licenseStatus": "ACTIVE",
    "inService": true,
    "licenseNumber": "550006451",
    "licenseEffectiveDate": "06/12/2025",
    "licenseExpirationDate": "06/11/2027",
    "dataDate": "10/18/2025",
    "capacity": 0,
    "address": "20847 SHERMAN WAY, SUITE 249",
    "city": "WINNETKA",
    "zip": "91306",
    "county": "LOS ANGELES",
    "phone": "(818) 963-7627",
    "lat": 34.20141998,
    "lng": -118.587888
  },
  {
    "id": "630022069",
    "name": "PERSONALIZED HOME HEALTH CARE",
    "npi": null,
    "hcaiId": "406193822",
    "businessName": "PERSONALIZED HOME HEALTH CARE",
    "contactEmail": "PERSONALIZEDHOMEHEALTHCARE@GMAIL.COM",
    "categoryName": "HOME HEALTH AGENCY",
    "categoryCode": "HHA",
    "licenseStatus": "ACTIVE",
    "inService": true,
    "licenseNumber": "550007287",
    "licenseEffectiveDate": "10/16/2025",
    "licenseExpirationDate": "10/15/2026",
    "dataDate": "10/18/2025",
    "capacity": 0,
    "address": "20061 SATICOY ST, SUITE 202",
    "city": "WINNETKA",
    "zip": "91306",
    "county": "LOS ANGELES",
    "phone": "(747) 244-5487",
    "lat": 34.208478,
    "lng": -118.570716
  },
  {
    "id": "630028354",
    "name": "PREMIER ADULT DAY HEALTH CARE CENTER",
    "npi": null,
    "hcaiId": null,
    "businessName": "PREMIER ADULT DAY HEALTH CARE INC.",
    "contactEmail": "PREMIERADULTDAYCARE@GMAIL.COM",
    "categoryName": "ADULT DAY HEALTH CARE",
    "categoryCode": "ADHC",
    "licenseStatus": "ACTIVE",
    "inService": true,
    "licenseNumber": "550010008",
    "licenseEffectiveDate": "11/05/2025",
    "licenseExpirationDate": "11/04/2026",
    "dataDate": "10/18/2025",
    "capacity": 0,
    "address": "20825 SHERMAN WAY",
    "city": "WINNETKA",
    "zip": "91306",
    "county": "LOS ANGELES",
    "phone": "(777) 747-4314",
    "lat": 34.20142099,
    "lng": -118.587218
  },
  {
    "id": "630018903",
    "name": "RADIANT HOSPICE, INC.",
    "npi": null,
    "hcaiId": "406196187",
    "businessName": "RADIANT HOSPICE, INC.",
    "contactEmail": "RADIANTHOSPICE@GMAIL.COM",
    "categoryName": "HOSPICE",
    "categoryCode": "HOSPICE",
    "licenseStatus": "ACTIVE",
    "inService": true,
    "licenseNumber": "550005881",
    "licenseEffectiveDate": "11/17/2024",
    "licenseExpirationDate": "11/16/2026",
    "dataDate": "10/18/2025",
    "capacity": 0,
    "address": "19725 SHERMAN WAY, SUITE 295D",
    "city": "WINNETKA",
    "zip": "91306",
    "county": "LOS ANGELES",
    "phone": "(818) 305-6917",
    "lat": 34.201296,
    "lng": -118.5631335
  },
  {
    "id": "630021289",
    "name": "SAINT MARIAM HOSPICE SERVICES INC",
    "npi": null,
    "hcaiId": "406193324",
    "businessName": "SAINT MARIAM HOSPICE SERVICES INC",
    "contactEmail": "STMARIAMHOSPICEINC@GMAIL.COM",
    "categoryName": "HOSPICE",
    "categoryCode": "HOSPICE",
    "licenseStatus": "ACTIVE",
    "inService": true,
    "licenseNumber": "550007124",
    "licenseEffectiveDate": "10/16/2025",
    "licenseExpirationDate": "10/15/2027",
    "dataDate": "10/18/2025",
    "capacity": 0,
    "address": "19725 SHERMAN WAY, SUITE 100",
    "city": "WINNETKA",
    "zip": "91306",
    "county": "LOS ANGELES",
    "phone": "(747) 206-5082",
    "lat": 34.201296,
    "lng": -118.5631335
  },
  {
    "id": "630027031",
    "name": "SKY HEALTH CARE MANAGEMENT, INC",
    "npi": null,
    "hcaiId": null,
    "businessName": "SKY HEALTH CARE MANAGEMENT, INC",
    "contactEmail": "SKYHEALTHCAREMANGEMENT@GMAIL.COM",
    "categoryName": "HOME HEALTH AGENCY",
    "categoryCode": "HHA",
    "licenseStatus": "ACTIVE",
    "inService": true,
    "licenseNumber": "550009656",
    "licenseEffectiveDate": "08/25/2025",
    "licenseExpirationDate": "02/24/2026",
    "dataDate": "10/18/2025",
    "capacity": 0,
    "address": "20832 ROSCOE BLVD, SUITE 211",
    "city": "WINNETKA",
    "zip": "91306",
    "county": "LOS ANGELES",
    "phone": "(818) 451-5630",
    "lat": 34.21990186,
    "lng": -118.5876614
  },
  {
    "id": "630025904",
    "name": "STARLINE HOME HEALTH CARE INC",
    "npi": null,
    "hcaiId": "406190262",
    "businessName": "STARLINE HOME HEALTH CARE INC",
    "contactEmail": "STARLINEHOMEHEALTH@GMAIL.COM",
    "categoryName": "HOME HEALTH AGENCY",
    "categoryCode": "HHA",
    "licenseStatus": "ACTIVE",
    "inService": true,
    "licenseNumber": "550008973",
    "licenseEffectiveDate": "02/28/2025",
    "licenseExpirationDate": "02/27/2026",
    "dataDate": "10/18/2025",
    "capacity": 0,
    "address": "20061 SATICOY ST, SUITE 206",
    "city": "WINNETKA",
    "zip": "91306",
    "county": "LOS ANGELES",
    "phone": "(818) 478-7961",
    "lat": 34.208478,
    "lng": -118.570716
  },
  {
    "id": "630021133",
    "name": "SUN CITY HOME HEALTH CARE, INC.",
    "npi": null,
    "hcaiId": "406195571",
    "businessName": "SUN CITY HOME HEALTH CARE, INC.",
    "contactEmail": "SUNCITYHHC@GMAIL.COM",
    "categoryName": "HOME HEALTH AGENCY",
    "categoryCode": "HHA",
    "licenseStatus": "ACTIVE",
    "inService": true,
    "licenseNumber": "550007812",
    "licenseEffectiveDate": "12/13/2024",
    "licenseExpirationDate": "12/12/2025",
    "dataDate": "10/18/2025",
    "capacity": 0,
    "address": "20246 SATICOY ST, UNIT 208",
    "city": "WINNETKA",
    "zip": "91306",
    "county": "LOS ANGELES",
    "phone": "(818) 818-5505",
    "lat": 34.208118,
    "lng": -118.5747705
  },
  {
    "id": "960002356",
    "name": "SUNBURST CARE CENTER - WINNETKA",
    "npi": "1639387731",
    "hcaiId": null,
    "businessName": null,
    "contactEmail": "VIRGINIA.RASO@YAHOO.COM",
    "categoryName": "INTERMEDIATE CARE FACILITY-DD/H/N/CN/IID",
    "categoryCode": "ICFDDH",
    "licenseStatus": "ACTIVE",
    "inService": true,
    "licenseNumber": "960001081",
    "licenseEffectiveDate": "01/29/2025",
    "licenseExpirationDate": "01/28/2026",
    "dataDate": "10/18/2025",
    "capacity": 6,
    "address": "19815 ARMINTA ST",
    "city": "WINNETKA",
    "zip": "91306",
    "county": "LOS ANGELES",
    "phone": "(818) 298-1450",
    "lat": 34.21341,
    "lng": -118.5648885
  },
  {
    "id": "630019856",
    "name": "SUNRAY HOSPICE, INC.",
    "npi": null,
    "hcaiId": "406193945",
    "businessName": "SUNRAY HOSPICE, INC",
    "contactEmail": "SUNRAYHOSPICE@GMAIL.COM",
    "categoryName": "HOSPICE",
    "categoryCode": "HOSPICE",
    "licenseStatus": "ACTIVE",
    "inService": true,
    "licenseNumber": "550007337",
    "licenseEffectiveDate": "11/23/2023",
    "licenseExpirationDate": "11/22/2025",
    "dataDate": "10/18/2025",
    "capacity": 0,
    "address": "19725 SHERMAN WAY, SUITE 295K",
    "city": "WINNETKA",
    "zip": "91306",
    "county": "LOS ANGELES",
    "phone": "(818) 572-3495",
    "lat": 34.201296,
    "lng": -118.5631335
  },
  {
    "id": "630025864",
    "name": "TBL HOME HEALTH CARE, INC.",
    "npi": null,
    "hcaiId": null,
    "businessName": "TBL HOME HEALTH CARE, INC.",
    "contactEmail": "4TBLHHC@GMAIL.COM",
    "categoryName": "HOME HEALTH AGENCY",
    "categoryCode": "HHA",
    "licenseStatus": "ACTIVE",
    "inService": true,
    "licenseNumber": "550008962",
    "licenseEffectiveDate": "02/05/2025",
    "licenseExpirationDate": "02/04/2026",
    "dataDate": "10/18/2025",
    "capacity": 0,
    "address": "19725 SHERMAN WAY, SUITE 290",
    "city": "WINNETKA",
    "zip": "91306",
    "county": "LOS ANGELES",
    "phone": "(818) 213-2955",
    "lat": 34.201296,
    "lng": -118.5631335
  },
  {
    "id": "630020490",
    "name": "UNITY HOSPICE, INC.",
    "npi": null,
    "hcaiId": "406193937",
    "businessName": "UNITY HOSPICE INC",
    "contactEmail": "UNITYHOSPICEINC@GMAIL.COM",
    "categoryName": "HOSPICE",
    "categoryCode": "HOSPICE",
    "licenseStatus": "ACTIVE",
    "inService": true,
    "licenseNumber": "550007234",
    "licenseEffectiveDate": "11/18/2023",
    "licenseExpirationDate": "11/17/2025",
    "dataDate": "10/18/2025",
    "capacity": 0,
    "address": "19725 SHERMAN WAY, SUITE 295 I",
    "city": "WINNETKA",
    "zip": "91306",
    "county": "LOS ANGELES",
    "phone": "(818) 572-3495",
    "lat": 34.201296,
    "lng": -118.5631335
  },
  {
    "id": "060001832",
    "name": "VALLEY VILLAGE",
    "npi": null,
    "hcaiId": null,
    "businessName": "VALLEY VILLAGE",
    "contactEmail": "AMIERA.MEDRANO@VVC.ORG",
    "categoryName": "ADULT DAY HEALTH CARE",
    "categoryCode": "ADHC",
    "licenseStatus": "ACTIVE",
    "inService": true,
    "licenseNumber": "060000649",
    "licenseEffectiveDate": "03/08/2025",
    "licenseExpirationDate": "03/07/2026",
    "dataDate": "10/18/2025",
    "capacity": 0,
    "address": "20835 SHERMAN WAY",
    "city": "WINNETKA",
    "zip": "91306",
    "county": "LOS ANGELES",
    "phone": null,
    "lat": 34.201485,
    "lng": -118.5875595
  },
  {
    "id": "960001274",
    "name": "VALLEY VILLAGE PARTHENIA HOUSE",
    "npi": "1578615738",
    "hcaiId": null,
    "businessName": "VALLEY VILLAGE",
    "contactEmail": "SUSIE@VVC.ORG",
    "categoryName": "INTERMEDIATE CARE FACILITY-DD/H/N/CN/IID",
    "categoryCode": "ICFDDH",
    "licenseStatus": "ACTIVE",
    "inService": true,
    "licenseNumber": "960000660",
    "licenseEffectiveDate": "12/11/2024",
    "licenseExpirationDate": "12/10/2025",
    "dataDate": "10/18/2025",
    "capacity": 6,
    "address": "20422 PARTHENIA ST",
    "city": "WINNETKA",
    "zip": "91306",
    "county": "LOS ANGELES",
    "phone": "(818) 587-9450",
    "lat": 34.227882,
    "lng": -118.5783345
  },
  {
    "id": "630016015",
    "name": "WEST VALLEY CONGREGATE HEALTH LIVING, INC.",
    "npi": null,
    "hcaiId": "206198347",
    "businessName": "WEST VALLEY CONGREGATE HEALTH LIVING, INC.",
    "contactEmail": "WESTVALLEYHEALTH@YAHOO.COM",
    "categoryName": "CONGREGATE LIVING HEALTH FACILITY",
    "categoryCode": "CLHF",
    "licenseStatus": "ACTIVE",
    "inService": true,
    "licenseNumber": "550003507",
    "licenseEffectiveDate": "05/13/2024",
    "licenseExpirationDate": "05/12/2025",
    "dataDate": "10/18/2025",
    "capacity": 6,
    "address": "8035 OAKDALE AVE",
    "city": "WINNETKA",
    "zip": "91306",
    "county": "LOS ANGELES",
    "phone": "(818) 349-1688",
    "lat": 34.216542,
    "lng": -118.5669405
  },
  {
    "id": "630020484",
    "name": "ZEN HOSPICE CARE, INC.",
    "npi": null,
    "hcaiId": "406193798",
    "businessName": "ZEN HOSPICE CARE, INC.",
    "contactEmail": "ZENHOSPICECAREINC@GMAIL.COM",
    "categoryName": "HOSPICE",
    "categoryCode": "HOSPICE",
    "licenseStatus": "ACTIVE",
    "inService": true,
    "licenseNumber": "550006756",
    "licenseEffectiveDate": "08/04/2023",
    "licenseExpirationDate": "08/03/2025",
    "dataDate": "10/18/2025",
    "capacity": 0,
    "address": "19725 SHERMAN WAY, SUITE 295 E",
    "city": "WINNETKA",
    "zip": "91306",
    "county": "LOS ANGELES",
    "phone": "(747) 233-5588",
    "lat": 34.201296,
    "lng": -118.5631335
  }
]