[
  {
    "id": "630019049",
    "name": "ALLIED HOSPICE CARE, INC.",
    "npi": null,
    "hcaiId": "406192424",
    "businessName": "ALLIED HOSPICE CARE, INC.",
    "contactEmail": "ALLIEDHOSPICECAREINC@GMAIL.COM",
    "categoryName": "HOSPICE",
    "categoryCode": "HOSPICE",
    "licenseStatus": "ACTIVE",
    "inService": true,
    "licenseNumber": "550005287",
    "licenseEffectiveDate": "02/15/2024",
    "licenseExpirationDate": "02/14/2026",
    "dataDate": "10/18/2025",
    "capacity": 0,
    "address": "21757 DEVONSHIRE ST, UNIT 12",
    "city": "CHATSWORTH",
    "zip": "91311",
    "county": "LOS ANGELES",
    "phone": "(818) 280-5331",
    "lat": 34.257411,
    "lng": -118.603611
  },
  {
    "id": "630022391",
    "name": "ALPHAMED HOME HEALTH",
    "npi": null,
    "hcaiId": "406195957",
    "businessName": "ALPHAMED HOME HEALTH",
    "contactEmail": "ALPHAMEDHOMEHEALTH@YAHOO.COM",
    "categoryName": "HOME HEALTH AGENCY",
    "categoryCode": "HHA",
    "licenseStatus": "ACTIVE",
    "inService": true,
    "licenseNumber": "550007861",
    "licenseEffectiveDate": "02/22/2025",
    "licenseExpirationDate": "02/21/2026",
    "dataDate": "10/18/2025",
    "capacity": 0,
    "address": "21601 DEVONSHIRE ST, SUITE 300",
    "city": "CHATSWORTH",
    "zip": "91311",
    "county": "LOS ANGELES",
    "phone": "(818) 280-3747",
    "lat": 34.257861,
    "lng": -118.5999255
  },
  {
    "id": "630025009",
    "name": "AMERICO HOME HEALTH AGENCY INC.",
    "npi": null,
    "hcaiId": null,
    "businessName": "AMERICO HOME HEALTH AGENCY INC.",
    "contactEmail": "AMERICOHOMEHEALTH@GMAIL.COM",
    "categoryName": "HOME HEALTH AGENCY",
    "categoryCode": "HHA",
    "licenseStatus": "ACTIVE",
    "inService": true,
    "licenseNumber": "550009143",
    "licenseEffectiveDate": "05/17/2025",
    "licenseExpirationDate": "05/16/2026",
    "dataDate": "10/18/2025",
    "capacity": 0,
    "address": "21818 CRAGGY VIEW ST, UNIT 106",
    "city": "CHATSWORTH",
    "zip": "91311",
    "county": "LOS ANGELES",
    "phone": "(818) 396-1868",
    "lat": 34.2549944,
    "lng": -118.6046218
  },
  {
    "id": "630021831",
    "name": "ANGEL'S VISIT HOME HEALTH",
    "npi": null,
    "hcaiId": "406193343",
    "businessName": "ANGEL'S VISIT HOME HEALTH",
    "contactEmail": "ANGELSVISITHOMEHEALTH@GMAIL.COM",
    "categoryName": "HOME HEALTH AGENCY",
    "categoryCode": "HHA",
    "licenseStatus": "ACTIVE",
    "inService": true,
    "licenseNumber": "550006949",
    "licenseEffectiveDate": "10/07/2025",
    "licenseExpirationDate": "10/06/2026",
    "dataDate": "10/18/2025",
    "capacity": 0,
    "address": "21006 DEVONSHIRE ST, SUITE 205",
    "city": "CHATSWORTH",
    "zip": "91311",
    "county": "LOS ANGELES",
    "phone": "(747) 224-0856",
    "lat": 34.256817,
    "lng": -118.5913485
  },
  {
    "id": "630021099",
    "name": "ANGEL'S VISIT HOSPICE",
    "npi": null,
    "hcaiId": "406193530",
    "businessName": "ANGEL'S VISIT HOSPICE",
    "contactEmail": "ANGELSVISITHOSPICE@GMAIL.COM",
    "categoryName": "HOSPICE",
    "categoryCode": "HOSPICE",
    "licenseStatus": "ACTIVE",
    "inService": true,
    "licenseNumber": "550006494",
    "licenseEffectiveDate": "07/02/2025",
    "licenseExpirationDate": "07/01/2027",
    "dataDate": "10/18/2025",
    "capacity": 0,
    "address": "21006 DEVONSHIRE ST, SUITE 203",
    "city": "CHATSWORTH",
    "zip": "91311",
    "county": "LOS ANGELES",
    "phone": "(818) 626-9222",
    "lat": 34.256817,
    "lng": -118.5913485
  },
  {
    "id": "630025407",
    "name": "AREV HOME HEALTH SERVICES, INC.",
    "npi": null,
    "hcaiId": "406190106",
    "businessName": "AREV HOME HEALTH SERVICES, INC.",
    "contactEmail": "AREVHHS@GMAIL.COM",
    "categoryName": "HOME HEALTH AGENCY",
    "categoryCode": "HHA",
    "licenseStatus": "ACTIVE",
    "inService": true,
    "licenseNumber": "550008567",
    "licenseEffectiveDate": "06/02/2025",
    "licenseExpirationDate": "06/01/2026",
    "dataDate": "10/18/2025",
    "capacity": 0,
    "address": "21757 DEVONSHIRE ST, SUITE 7",
    "city": "CHATSWORTH",
    "zip": "91311",
    "county": "LOS ANGELES",
    "phone": "(818) 251-7075",
    "lat": 34.257411,
    "lng": -118.603611
  },
  {
    "id": "630023950",
    "name": "ARMMED",
    "npi": null,
    "hcaiId": "406195355",
    "businessName": "ARMMED",
    "contactEmail": "ARMMEDCORP@GMAIL.COM",
    "categoryName": "HOME HEALTH AGENCY",
    "categoryCode": "HHA",
    "licenseStatus": "ACTIVE",
    "inService": true,
    "licenseNumber": "550007982",
    "licenseEffectiveDate": "05/13/2025",
    "licenseExpirationDate": "05/12/2026",
    "dataDate": "10/18/2025",
    "capacity": 0,
    "address": "9420 TOPANGA CANYON BLVD, SUITE 209",
    "city": "CHATSWORTH",
    "zip": "91311",
    "county": "LOS ANGELES",
    "phone": "(747) 774-7004",
    "lat": 34.24190585,
    "lng": -118.6061609
  },
  {
    "id": "630019966",
    "name": "AVALON HOSPICE CARE, INC.",
    "npi": "1942836671",
    "hcaiId": "406196054",
    "businessName": "AVALON HOSPICE CARE, INC",
    "contactEmail": "AVALONHOSPICECARE@GMAIL.COM",
    "categoryName": "HOSPICE",
    "categoryCode": "HOSPICE",
    "licenseStatus": "ACTIVE",
    "inService": true,
    "licenseNumber": "550006024",
    "licenseEffectiveDate": "01/28/2025",
    "licenseExpirationDate": "01/27/2027",
    "dataDate": "10/18/2025",
    "capacity": 0,
    "address": "20945 DEVONSHIRE ST, SUITE 101B",
    "city": "CHATSWORTH",
    "zip": "91311",
    "county": "LOS ANGELES",
    "phone": "(909) 457-7477",
    "lat": 34.25754802,
    "lng": -118.590195
  },
  {
    "id": "630018365",
    "name": "BEACHWOOD HOME HEALTH",
    "npi": null,
    "hcaiId": "406192125",
    "businessName": "BEACHWOOD HOME HEALTH",
    "contactEmail": "BEACHWOODHOMEHEALTH@OUTLOOK.COM",
    "categoryName": "HOME HEALTH AGENCY",
    "categoryCode": "HHA",
    "licenseStatus": "ACTIVE",
    "inService": true,
    "licenseNumber": "550005126",
    "licenseEffectiveDate": "03/24/2025",
    "licenseExpirationDate": "11/25/2025",
    "dataDate": "10/18/2025",
    "capacity": 0,
    "address": "21049 DEVONSHIRE ST, SUITE 103B",
    "city": "CHATSWORTH",
    "zip": "91311",
    "county": "LOS ANGELES",
    "phone": "(818) 363-6477",
    "lat": 34.257411,
    "lng": -118.5924825
  },
  {
    "id": "630019001",
    "name": "BEST PALLIATIVE HOSPICE CARE, INC",
    "npi": "1295293629",
    "hcaiId": "406192076",
    "businessName": "BEST PALLIATIVE HOSPICE CARE, INC",
    "contactEmail": "ADMIN@BPHOSPICECARE.COM",
    "categoryName": "HOSPICE",
    "categoryCode": "HOSPICE",
    "licenseStatus": "ACTIVE",
    "inService": true,
    "licenseNumber": "550005109",
    "licenseEffectiveDate": "11/18/2023",
    "licenseExpirationDate": "11/17/2025",
    "dataDate": "10/18/2025",
    "capacity": 0,
    "address": "21220 DEVONSHIRE ST, SUITE 201",
    "city": "CHATSWORTH",
    "zip": "91311",
    "county": "LOS ANGELES",
    "phone": "(818) 280-3857",
    "lat": 34.256916,
    "lng": -118.594485
  },
  {
    "id": "630013911",
    "name": "BLUE BUTTERFLY HOSPICE, INC.",
    "npi": "1093081788",
    "hcaiId": "406198084",
    "businessName": "BLUE BUTTERFLY HOSPICE, INC.",
    "contactEmail": "BLUEBUTTERFLYHOSPICE@LIVE.COM",
    "categoryName": "HOSPICE",
    "categoryCode": "HOSPICE",
    "licenseStatus": "ACTIVE",
    "inService": true,
    "licenseNumber": "550002469",
    "licenseEffectiveDate": "10/15/2023",
    "licenseExpirationDate": "10/14/2025",
    "dataDate": "10/18/2025",
    "capacity": 0,
    "address": "21049 DEVONSHIRE ST, SUITE 103A",
    "city": "CHATSWORTH",
    "zip": "91311",
    "county": "LOS ANGELES",
    "phone": "(818) 701-0979",
    "lat": 34.257411,
    "lng": -118.5924825
  },
  {
    "id": "630027570",
    "name": "BLUE DIAMOND HOME HEALTH INC",
    "npi": null,
    "hcaiId": null,
    "businessName": "BLUE DIAMOND HOME HEALTH INC",
    "contactEmail": "BDHOMEHEALTHINC@GMAIL.COM",
    "categoryName": "HOME HEALTH AGENCY",
    "categoryCode": "HHA",
    "licenseStatus": "ACTIVE",
    "inService": true,
    "licenseNumber": "550009688",
    "licenseEffectiveDate": "09/13/2025",
    "licenseExpirationDate": "03/12/2026",
    "dataDate": "10/18/2025",
    "capacity": 0,
    "address": "22024 LASSEN ST, SUITE 117",
    "city": "CHATSWORTH",
    "zip": "91311",
    "county": "LOS ANGELES",
    "phone": "(424) 240-4444",
    "lat": 34.24933798,
    "lng": -118.606937
  },
  {
    "id": "630021517",
    "name": "BRIGHT MOON HOSPICE INC",
    "npi": null,
    "hcaiId": "406193313",
    "businessName": "BRIGHT MOON HOSPICE INC",
    "contactEmail": "BRIGHTMOONHOSPICE@GMAIL.COM",
    "categoryName": "HOSPICE",
    "categoryCode": "HOSPICE",
    "licenseStatus": "ACTIVE",
    "inService": true,
    "licenseNumber": "550007118",
    "licenseEffectiveDate": "11/05/2023",
    "licenseExpirationDate": "11/04/2025",
    "dataDate": "10/18/2025",
    "capacity": 0,
    "address": "9420 TOPANGA CANYON BLVD, SUITE 208 A",
    "city": "CHATSWORTH",
    "zip": "91311",
    "county": "LOS ANGELES",
    "phone": "(747) 255-8496",
    "lat": 34.24148301,
    "lng": -118.604545
  },
  {
    "id": "630021531",
    "name": "BRIGHT SOURCE HOSPICE LLC",
    "npi": null,
    "hcaiId": "406193355",
    "businessName": "BRIGHT SOURCE HOSPICE LLC",
    "contactEmail": "INFO@BRIGHTSOURCEHOSPICE.COM",
    "categoryName": "HOSPICE",
    "categoryCode": "HOSPICE",
    "licenseStatus": "ACTIVE",
    "inService": true,
    "licenseNumber": "550006955",
    "licenseEffectiveDate": "10/04/2025",
    "licenseExpirationDate": "10/03/2027",
    "dataDate": "10/18/2025",
    "capacity": 0,
    "address": "22024 LASSEN ST, OFFICE 113",
    "city": "CHATSWORTH",
    "zip": "91311",
    "county": "LOS ANGELES",
    "phone": "(310) 500-0237",
    "lat": 34.249419,
    "lng": -118.6068645
  },
  {
    "id": "630020266",
    "name": "CALM CARE HOSPICE, INC.",
    "npi": null,
    "hcaiId": "406194787",
    "businessName": "CALM CARE HOSPICE, INC.",
    "contactEmail": "CALMCAREHOSPICE@YAHOO.COM",
    "categoryName": "HOSPICE",
    "categoryCode": "HOSPICE",
    "licenseStatus": "ACTIVE",
    "inService": true,
    "licenseNumber": "550006172",
    "licenseEffectiveDate": "03/23/2025",
    "licenseExpirationDate": "03/22/2027",
    "dataDate": "10/18/2025",
    "capacity": 0,
    "address": "21405 DEVONSHIRE ST, SUITE 223",
    "city": "CHATSWORTH",
    "zip": "91311",
    "county": "LOS ANGELES",
    "phone": "(747) 262-5353",
    "lat": 34.257402,
    "lng": -118.597599
  },
  {
    "id": "630021016",
    "name": "CARE PARTNERS HOSPICE INC",
    "npi": null,
    "hcaiId": "406193552",
    "businessName": "CARE PARTNERS HOSPICE, INC",
    "contactEmail": "CPHOSPICEOFFICE@GMAIL.COM",
    "categoryName": "HOSPICE",
    "categoryCode": "HOSPICE",
    "licenseStatus": "ACTIVE",
    "inService": true,
    "licenseNumber": "550006593",
    "licenseEffectiveDate": "11/17/2025",
    "licenseExpirationDate": "07/22/2027",
    "dataDate": "10/18/2025",
    "capacity": 0,
    "address": "9560 TOPANGA CANYON BLVD, UNIT 102",
    "city": "CHATSWORTH",
    "zip": "91311",
    "county": "LOS ANGELES",
    "phone": "(818) 285-8157",
    "lat": 34.244181,
    "lng": -118.605906
  },
  {
    "id": "920000084",
    "name": "CHATSWORTH PARK HEALTH CARE CENTER",
    "npi": "1881307346",
    "hcaiId": "206190166",
    "businessName": "STARBURST HEALTHCARE, INC.",
    "contactEmail": "KAMEZQUITA@ENSIGNSERVICES.NET",
    "categoryName": "SKILLED NURSING FACILITY",
    "categoryCode": "SNF",
    "licenseStatus": "ACTIVE",
    "inService": true,
    "licenseNumber": "920000020",
    "licenseEffectiveDate": "01/05/2025",
    "licenseExpirationDate": "01/04/2026",
    "dataDate": "10/18/2025",
    "capacity": 128,
    "address": "10610 OWENSMOUTH AVE",
    "city": "CHATSWORTH",
    "zip": "91311",
    "county": "LOS ANGELES",
    "phone": "(818) 882-3200",
    "lat": 34.26309,
    "lng": -118.601118
  },
  {
    "id": "630021083",
    "name": "CITY HOME HEALTH CARE, INC",
    "npi": null,
    "hcaiId": "406193404",
    "businessName": "CITY HOME HEALTH CARE, INC",
    "contactEmail": "CITYHHCINC@GMAIL.COM",
    "categoryName": "HOME HEALTH AGENCY",
    "categoryCode": "HHA",
    "licenseStatus": "ACTIVE",
    "inService": true,
    "licenseNumber": "550007154",
    "licenseEffectiveDate": "11/15/2024",
    "licenseExpirationDate": "11/14/2025",
    "dataDate": "10/18/2025",
    "capacity": 0,
    "address": "21106 DEVONSHIRE ST",
    "city": "CHATSWORTH",
    "zip": "91311",
    "county": "LOS ANGELES",
    "phone": "(818) 519-8181",
    "lat": 34.257051,
    "lng": -118.5933015
  },
  {
    "id": "630019828",
    "name": "COMPETENT HOSPICE INC",
    "npi": "1134767221",
    "hcaiId": "406194750",
    "businessName": "COMPETENT HOSPICE INC",
    "contactEmail": "COMPETENTHOSPICEINC@GMAIL.COM",
    "categoryName": "HOSPICE",
    "categoryCode": "HOSPICE",
    "licenseStatus": "ACTIVE",
    "inService": true,
    "licenseNumber": "550006362",
    "licenseEffectiveDate": "09/19/2023",
    "licenseExpirationDate": "05/03/2025",
    "dataDate": "10/18/2025",
    "capacity": 0,
    "address": "21021 DEVONSHIRE ST, SUITE 205",
    "city": "CHATSWORTH",
    "zip": "91311",
    "county": "LOS ANGELES",
    "phone": "(818) 646-1900",
    "lat": 34.25750699,
    "lng": -118.591684
  },
  {
    "id": "630022243",
    "name": "DAILY SUPPORT HOSPICE, INC.",
    "npi": null,
    "hcaiId": "406195166",
    "businessName": "DAILY SUPPORT HOSPICE, INC.",
    "contactEmail": "DAILY.HEALTHSERVICES@MAIL.COM",
    "categoryName": "HOSPICE",
    "categoryCode": "HOSPICE",
    "licenseStatus": "ACTIVE",
    "inService": true,
    "licenseNumber": "550007499",
    "licenseEffectiveDate": "12/18/2023",
    "licenseExpirationDate": "12/17/2025",
    "dataDate": "10/18/2025",
    "capacity": 0,
    "address": "21405 DEVONSHIRE ST, SUITE #211",
    "city": "CHATSWORTH",
    "zip": "91311",
    "county": "LOS ANGELES",
    "phone": "(747) 292-9094",
    "lat": 34.257402,
    "lng": -118.597599
  },
  {
    "id": "630019414",
    "name": "DEVINE HOSPICE CARE, INC.",
    "npi": null,
    "hcaiId": "406192935",
    "businessName": "DEVINE HOSPICE CARE, INC.",
    "contactEmail": "DEVINEHOSPICEINC@GMAIL.COM",
    "categoryName": "HOSPICE",
    "categoryCode": "HOSPICE",
    "licenseStatus": "ACTIVE",
    "inService": true,
    "licenseNumber": "550005772",
    "licenseEffectiveDate": "09/18/2024",
    "licenseExpirationDate": "09/17/2026",
    "dataDate": "10/18/2025",
    "capacity": 0,
    "address": "20945 DEVONSHIRE ST, SUITE 201-C",
    "city": "CHATSWORTH",
    "zip": "91311",
    "county": "LOS ANGELES",
    "phone": "(818) 616-3032",
    "lat": 34.257546,
    "lng": -118.5902865
  },
  {
    "id": "630025661",
    "name": "EDELWEISS HOME HEALTH",
    "npi": null,
    "hcaiId": "406190071",
    "businessName": "EDELWEISS HOME HEALTH",
    "contactEmail": "EDELWEISSHOSPICE@GMAIL.COM",
    "categoryName": "HOME HEALTH AGENCY",
    "categoryCode": "HHA",
    "licenseStatus": "ACTIVE",
    "inService": true,
    "licenseNumber": "550008851",
    "licenseEffectiveDate": "12/06/2024",
    "licenseExpirationDate": "12/05/2025",
    "dataDate": "10/18/2025",
    "capacity": 0,
    "address": "21405 DEVONSHIRE ST, SUITE 214",
    "city": "CHATSWORTH",
    "zip": "91311",
    "county": "LOS ANGELES",
    "phone": "(818) 927-7931",
    "lat": 34.257402,
    "lng": -118.597599
  },
  {
    "id": "630023888",
    "name": "ELITE COMFORT HOME HEALTH CARE",
    "npi": null,
    "hcaiId": "406195229",
    "businessName": "ELITE COMFORT HOME HEALTH CARE",
    "contactEmail": "HOMEHEALTHELITE@GMAIL.COM",
    "categoryName": "HOME HEALTH AGENCY",
    "categoryCode": "HHA",
    "licenseStatus": "ACTIVE",
    "inService": true,
    "licenseNumber": "550007938",
    "licenseEffectiveDate": "04/06/2025",
    "licenseExpirationDate": "04/05/2026",
    "dataDate": "10/18/2025",
    "capacity": 0,
    "address": "21405 DEVONSHIRE ST, SUITE 221",
    "city": "CHATSWORTH",
    "zip": "91311",
    "county": "LOS ANGELES",
    "phone": "(747) 444-1303",
    "lat": 34.257402,
    "lng": -118.597599
  },
  {
    "id": "630018397",
    "name": "EMPRESS HEALTHCARE INC",
    "npi": null,
    "hcaiId": "406196636",
    "businessName": "EMPRESS HEALTHCARE INC",
    "contactEmail": "CONTACTUS@EMPRESSHEALTHCARE.COM",
    "categoryName": "HOME HEALTH AGENCY",
    "categoryCode": "HHA",
    "licenseStatus": "ACTIVE",
    "inService": true,
    "licenseNumber": "550005904",
    "licenseEffectiveDate": "12/12/2024",
    "licenseExpirationDate": "12/11/2025",
    "dataDate": "10/18/2025",
    "capacity": 0,
    "address": "9520 TOPANGA CANYON BLVD, SUITE 201",
    "city": "CHATSWORTH",
    "zip": "91311",
    "county": "LOS ANGELES",
    "phone": "(818) 285-8269",
    "lat": 34.244307,
    "lng": -118.606107
  },
  {
    "id": "630021049",
    "name": "ENLIGHTEN HOSPICE, LLC",
    "npi": null,
    "hcaiId": "406195915",
    "businessName": "ENLIGHTEN HOSPICE, LLC",
    "contactEmail": "ENLIGHTENHOSPICE@GMAIL.COM",
    "categoryName": "HOSPICE",
    "categoryCode": "HOSPICE",
    "licenseStatus": "ACTIVE",
    "inService": true,
    "licenseNumber": "550006365",
    "licenseEffectiveDate": "06/04/2025",
    "licenseExpirationDate": "06/03/2027",
    "dataDate": "10/18/2025",
    "capacity": 0,
    "address": "22024 LASSEN ST, SUITE 110",
    "city": "CHATSWORTH",
    "zip": "91311",
    "county": "LOS ANGELES",
    "phone": "(747) 200-7256",
    "lat": 34.249419,
    "lng": -118.6068645
  },
  {
    "id": "630020025",
    "name": "ENSEGUIDA HOSPICE CARE, INC",
    "npi": null,
    "hcaiId": "406193461",
    "businessName": "ENSEGUIDA HOSPICE CARE, INC.",
    "contactEmail": "ENSEGUIDAHOSPICE@GMAIL.COM",
    "categoryName": "HOSPICE",
    "categoryCode": "HOSPICE",
    "licenseStatus": "ACTIVE",
    "inService": true,
    "licenseNumber": "550006687",
    "licenseEffectiveDate": "08/20/2025",
    "licenseExpirationDate": "08/19/2027",
    "dataDate": "10/18/2025",
    "capacity": 0,
    "address": "20945 DEVONSHIRE ST, SUITE 105",
    "city": "CHATSWORTH",
    "zip": "91311",
    "county": "LOS ANGELES",
    "phone": "(747) 237-7018",
    "lat": 34.257546,
    "lng": -118.5902865
  },
  {
    "id": "630026403",
    "name": "FAITHFUL HANDS HOME HEALTH",
    "npi": null,
    "hcaiId": null,
    "businessName": "FAITHFUL HANDS HOME HEALTH",
    "contactEmail": "FAITHFULHANDSHH@GMAIL.COM",
    "categoryName": "HOME HEALTH AGENCY",
    "categoryCode": "HHA",
    "licenseStatus": "ACTIVE",
    "inService": true,
    "licenseNumber": "550009401",
    "licenseEffectiveDate": "09/09/2025",
    "licenseExpirationDate": "09/08/2026",
    "dataDate": "10/18/2025",
    "capacity": 0,
    "address": "22024 LASSEN ST, SUITE 106",
    "city": "CHATSWORTH",
    "zip": "91311",
    "county": "LOS ANGELES",
    "phone": "(800) 484-9080",
    "lat": 34.249419,
    "lng": -118.6068645
  },
  {
    "id": "630026124",
    "name": "FIRST CHOICE HOME HEALTH SERVICES, INC.",
    "npi": null,
    "hcaiId": null,
    "businessName": "FIRST CHOICE HOME HEALTH SERVICES, INC.",
    "contactEmail": "1CHOICEHHS@GMAIL.COM",
    "categoryName": "HOME HEALTH AGENCY",
    "categoryCode": "HHA",
    "licenseStatus": "ACTIVE",
    "inService": true,
    "licenseNumber": "550009303",
    "licenseEffectiveDate": "07/08/2025",
    "licenseExpirationDate": "07/07/2026",
    "dataDate": "10/18/2025",
    "capacity": 0,
    "address": "20953 DEVONSHIRE ST, SUITE 4",
    "city": "CHATSWORTH",
    "zip": "91311",
    "county": "LOS ANGELES",
    "phone": "(818) 975-8360",
    "lat": 34.25767701,
    "lng": -118.590492
  },
  {
    "id": "060002087",
    "name": "FOREVER YOUNG ADULT DAY HEALTH CARE CENTER",
    "npi": null,
    "hcaiId": null,
    "businessName": "PERSIAN-AMERICAN ADULT DAY HEALTH CARE CENTER, INC",
    "contactEmail": "TOMASIAN2003@YAHOO.COM",
    "categoryName": "ADULT DAY HEALTH CARE",
    "categoryCode": "ADHC",
    "licenseStatus": "ACTIVE",
    "inService": true,
    "licenseNumber": "060000852",
    "licenseEffectiveDate": "01/21/2025",
    "licenseExpirationDate": "01/20/2026",
    "dataDate": "10/18/2025",
    "capacity": 0,
    "address": "9820 TOPANGA CANYON BLVD",
    "city": "CHATSWORTH",
    "zip": "91311",
    "county": "LOS ANGELES",
    "phone": "(818) 456-9806",
    "lat": 34.24905,
    "lng": -118.605825
  },
  {
    "id": "630017986",
    "name": "FRONTLINE HOME HEALTH",
    "npi": null,
    "hcaiId": "406191875",
    "businessName": "BEST EVER HOME HEALTH INC",
    "contactEmail": "BESTEVER.HOMEHEALTH@GMAIL.COM",
    "categoryName": "HOME HEALTH AGENCY",
    "categoryCode": "HHA",
    "licenseStatus": "ACTIVE",
    "inService": true,
    "licenseNumber": "550004620",
    "licenseEffectiveDate": "03/23/2025",
    "licenseExpirationDate": "03/22/2026",
    "dataDate": "10/18/2025",
    "capacity": 0,
    "address": "21757 DEVONSHIRE ST, UNIT 6",
    "city": "CHATSWORTH",
    "zip": "91311",
    "county": "LOS ANGELES",
    "phone": "(747) 237-7500",
    "lat": 34.257411,
    "lng": -118.603611
  },
  {
    "id": "630011256",
    "name": "GENTLE HOME HEALTH CARE, INC",
    "npi": "1891913356",
    "hcaiId": "406197177",
    "businessName": "GENTLE HOME HEALTH CARE, INC",
    "contactEmail": "GENTLEHHC@GMAIL.COM",
    "categoryName": "HOME HEALTH AGENCY",
    "categoryCode": "HHA",
    "licenseStatus": "ACTIVE",
    "inService": true,
    "licenseNumber": "550000781",
    "licenseEffectiveDate": "01/17/2025",
    "licenseExpirationDate": "01/16/2026",
    "dataDate": "10/18/2025",
    "capacity": 0,
    "address": "21104 DEVONSHIRE ST",
    "city": "CHATSWORTH",
    "zip": "91311",
    "county": "LOS ANGELES",
    "phone": "(818) 754-1773",
    "lat": 34.257042,
    "lng": -118.593261
  },
  {
    "id": "630013580",
    "name": "GOLDEN OAKS HOSPICE, INC.",
    "npi": null,
    "hcaiId": "406197800",
    "businessName": "GOLDEN OAKS HOSPICE, INC.",
    "contactEmail": "CLYDEGOMEZ@GOLDENOAKSHOSPICE.ORG",
    "categoryName": "HOSPICE",
    "categoryCode": "HOSPICE",
    "licenseStatus": "ACTIVE",
    "inService": true,
    "licenseNumber": "550002182",
    "licenseEffectiveDate": "12/27/2024",
    "licenseExpirationDate": "12/26/2026",
    "dataDate": "10/18/2025",
    "capacity": 0,
    "address": "21021 DEVONSHIRE ST, SUITE 108",
    "city": "CHATSWORTH",
    "zip": "91311",
    "county": "LOS ANGELES",
    "phone": "(818) 701-7141",
    "lat": 34.257429,
    "lng": -118.591542
  },
  {
    "id": "630019853",
    "name": "GOLDEN STATE HOSPICE",
    "npi": null,
    "hcaiId": "406192602",
    "businessName": "GOLDEN STATE HOSPICE",
    "contactEmail": "GOLDENSTATEHOSPICE21@YAHOO.COM",
    "categoryName": "HOSPICE",
    "categoryCode": "HOSPICE",
    "licenseStatus": "ACTIVE",
    "inService": true,
    "licenseNumber": "550005483",
    "licenseEffectiveDate": "05/18/2024",
    "licenseExpirationDate": "05/17/2026",
    "dataDate": "10/18/2025",
    "capacity": 0,
    "address": "20945 DEVONSHIRE ST, SUITE 206",
    "city": "CHATSWORTH",
    "zip": "91311",
    "county": "LOS ANGELES",
    "phone": "(818) 678-9835",
    "lat": 34.257546,
    "lng": -118.5902865
  },
  {
    "id": "630018983",
    "name": "GOOD LIFE PALLIATIVE CARE",
    "npi": "1801452180",
    "hcaiId": "406191834",
    "businessName": "GOOD LIFE PALLIATIVE CARE",
    "contactEmail": "EMAIL@GOODLIFEPALLIATIVE.COM",
    "categoryName": "HOSPICE",
    "categoryCode": "HOSPICE",
    "licenseStatus": "ACTIVE",
    "inService": true,
    "licenseNumber": "550004903",
    "licenseEffectiveDate": "08/27/2025",
    "licenseExpirationDate": "08/26/2027",
    "dataDate": "10/18/2025",
    "capacity": 0,
    "address": "20953 DEVONSHIRE ST, SUITE 8A",
    "city": "CHATSWORTH",
    "zip": "91311",
    "county": "LOS ANGELES",
    "phone": "(818) 280-3746",
    "lat": 34.257402,
    "lng": -118.590399
  },
  {
    "id": "630008481",
    "name": "HAPPY HEALTH CARE, INC.",
    "npi": "1851584981",
    "hcaiId": "406196862",
    "businessName": "HAPPY HEALTH CARE, INC.",
    "contactEmail": "HAPPYHEALTHCARE@HHCHEALTHCARE.NET",
    "categoryName": "HOME HEALTH AGENCY",
    "categoryCode": "HHA",
    "licenseStatus": "ACTIVE",
    "inService": true,
    "licenseNumber": "550000321",
    "licenseEffectiveDate": "11/22/2024",
    "licenseExpirationDate": "11/21/2025",
    "dataDate": "10/18/2025",
    "capacity": 0,
    "address": "20945 DEVONSHIRE ST, SUITE 106",
    "city": "CHATSWORTH",
    "zip": "91311",
    "county": "LOS ANGELES",
    "phone": "(818) 884-6100",
    "lat": 34.257546,
    "lng": -118.5902865
  },
  {
    "id": "630026806",
    "name": "HIGH STAR HOME HEALTH",
    "npi": null,
    "hcaiId": null,
    "businessName": "HIGH STAR HOME HEALTH",
    "contactEmail": "HIGHSTARHOMEHEALTH@GMAIL.COM",
    "categoryName": "HOME HEALTH AGENCY",
    "categoryCode": "HHA",
    "licenseStatus": "ACTIVE",
    "inService": true,
    "licenseNumber": "550009305",
    "licenseEffectiveDate": "08/12/2025",
    "licenseExpirationDate": "08/11/2026",
    "dataDate": "10/18/2025",
    "capacity": 0,
    "address": "22024 LASSEN ST, SUITE 121",
    "city": "CHATSWORTH",
    "zip": "91311",
    "county": "LOS ANGELES",
    "phone": "(800) 551-0878",
    "lat": 34.249419,
    "lng": -118.6068645
  },
  {
    "id": "630019685",
    "name": "HIGHLAND HOSPICE, INC.",
    "npi": null,
    "hcaiId": "406192835",
    "businessName": "HIGHLAND HOSPICE, INC.",
    "contactEmail": "INFO@HIGHLANDHOSPICECARE.NET",
    "categoryName": "HOSPICE",
    "categoryCode": "HOSPICE",
    "licenseStatus": "ACTIVE",
    "inService": true,
    "licenseNumber": "550005637",
    "licenseEffectiveDate": "08/04/2024",
    "licenseExpirationDate": "08/03/2026",
    "dataDate": "10/18/2025",
    "capacity": 0,
    "address": "21220 DEVONSHIRE ST, SUITE 211",
    "city": "CHATSWORTH",
    "zip": "91311",
    "county": "LOS ANGELES",
    "phone": "(818) 962-8489",
    "lat": 34.25691401,
    "lng": -118.594494
  },
  {
    "id": "630019894",
    "name": "HIRAYA HEALTHCARE INC",
    "npi": null,
    "hcaiId": "406195573",
    "businessName": "HIRAYA HEALTHCARE INC",
    "contactEmail": "CONTACTUS@HIRAYAHEALTHCARE.COM",
    "categoryName": "HOME HEALTH AGENCY",
    "categoryCode": "HHA",
    "licenseStatus": "ACTIVE",
    "inService": true,
    "licenseNumber": "550007781",
    "licenseEffectiveDate": "12/04/2024",
    "licenseExpirationDate": "12/03/2025",
    "dataDate": "10/18/2025",
    "capacity": 0,
    "address": "21220 DEVONSHIRE ST, SUITE 210",
    "city": "CHATSWORTH",
    "zip": "91311",
    "county": "LOS ANGELES",
    "phone": "(818) 998-3855",
    "lat": 34.256916,
    "lng": -118.594485
  },
  {
    "id": "630026422",
    "name": "HOLLY HOME HEALTH SERVICES, INC.",
    "npi": null,
    "hcaiId": null,
    "businessName": "HOLLY HOME HEALTH SERVICES, INC.",
    "contactEmail": "HOLLYHOMEHEALTHSERVICES@GMAIL.COM",
    "categoryName": "HOME HEALTH AGENCY",
    "categoryCode": "HHA",
    "licenseStatus": "ACTIVE",
    "inService": true,
    "licenseNumber": "550009871",
    "licenseEffectiveDate": "06/23/2025",
    "licenseExpirationDate": "12/22/2025",
    "dataDate": "10/18/2025",
    "capacity": 0,
    "address": "21006 DEVONSHIRE ST, SUITE 207",
    "city": "CHATSWORTH",
    "zip": "91311",
    "county": "LOS ANGELES",
    "phone": "(562) 471-8415",
    "lat": 34.256817,
    "lng": -118.5913485
  },
  {
    "id": "630025312",
    "name": "HOME HEALTH OF VENTURA INC",
    "npi": null,
    "hcaiId": null,
    "businessName": "HOME HEALTH OF VENTURA INC",
    "contactEmail": "HHEALTHVENTURA@GMAIL.COM",
    "categoryName": "HOME HEALTH AGENCY",
    "categoryCode": "HHA",
    "licenseStatus": "ACTIVE",
    "inService": true,
    "licenseNumber": "550008563",
    "licenseEffectiveDate": "06/03/2025",
    "licenseExpirationDate": "05/23/2026",
    "dataDate": "10/18/2025",
    "capacity": 0,
    "address": "9420 TOPANGA CANYON BLVD, SUITE 202",
    "city": "CHATSWORTH",
    "zip": "91311",
    "county": "LOS ANGELES",
    "phone": "(626) 655-8702",
    "lat": 34.278336,
    "lng": -118.8751725
  },
  {
    "id": "980002500",
    "name": "IDEAL CARE HOME HEALTH, INC.",
    "npi": null,
    "hcaiId": "406196853",
    "businessName": "IDEAL CARE HOME HEALTH, INC.",
    "contactEmail": "CLYDEGOMEZ@IDEALCAREHOMEHEALTH.COM",
    "categoryName": "HOME HEALTH AGENCY",
    "categoryCode": "HHA",
    "licenseStatus": "ACTIVE",
    "inService": true,
    "licenseNumber": "980001599",
    "licenseEffectiveDate": "11/09/2024",
    "licenseExpirationDate": "11/08/2025",
    "dataDate": "10/18/2025",
    "capacity": 0,
    "address": "21021 DEVONSHIRE ST, SUITE 204",
    "city": "CHATSWORTH",
    "zip": "91311",
    "county": "LOS ANGELES",
    "phone": "(818) 882-1178",
    "lat": 34.25751,
    "lng": -118.5916725
  },
  {
    "id": "630018468",
    "name": "INSTANT HOME HEALTH CARE, INC.",
    "npi": "1457822603",
    "hcaiId": "406192454",
    "businessName": "INSTANT HOME HEALTH CARE, INC.",
    "contactEmail": "INSTANTHHA@YAHOO.COM",
    "categoryName": "HOME HEALTH AGENCY",
    "categoryCode": "HHA",
    "licenseStatus": "ACTIVE",
    "inService": true,
    "licenseNumber": "550005253",
    "licenseEffectiveDate": "01/28/2025",
    "licenseExpirationDate": "01/27/2026",
    "dataDate": "10/18/2025",
    "capacity": 0,
    "address": "21032 DEVONSHIRE ST, SUITE 206",
    "city": "CHATSWORTH",
    "zip": "91311",
    "county": "LOS ANGELES",
    "phone": "(818) 527-1180",
    "lat": 34.256799,
    "lng": -118.5918435
  },
  {
    "id": "630020996",
    "name": "KARIN HOMEHEALTH CARE, INC.",
    "npi": null,
    "hcaiId": "406196051",
    "businessName": "KARIN HOMEHEALTH CARE, INC.",
    "contactEmail": "KARINHOMEHEALTHCARE@GMAIL.COM",
    "categoryName": "HOME HEALTH AGENCY",
    "categoryCode": "HHA",
    "licenseStatus": "ACTIVE",
    "inService": true,
    "licenseNumber": "550006523",
    "licenseEffectiveDate": "07/06/2025",
    "licenseExpirationDate": "07/05/2026",
    "dataDate": "10/18/2025",
    "capacity": 0,
    "address": "21049 DEVONSHIRE ST, SUITE 105A",
    "city": "CHATSWORTH",
    "zip": "91311",
    "county": "LOS ANGELES",
    "phone": "(747) 244-3370",
    "lat": 34.257411,
    "lng": -118.5924825
  },
  {
    "id": "630027172",
    "name": "KARINA HOME HEALTH CARE, INC.",
    "npi": null,
    "hcaiId": null,
    "businessName": "KARINA HOME HEALTH CARE, INC.",
    "contactEmail": "KARINAHOMEHEALTH@GMAIL.COM",
    "categoryName": "HOME HEALTH AGENCY",
    "categoryCode": "HHA",
    "licenseStatus": "ACTIVE",
    "inService": true,
    "licenseNumber": "550009689",
    "licenseEffectiveDate": "08/28/2025",
    "licenseExpirationDate": "02/27/2026",
    "dataDate": "10/18/2025",
    "capacity": 0,
    "address": "22024 LASSEN ST, SUITE 108",
    "city": "CHATSWORTH",
    "zip": "91311",
    "county": "LOS ANGELES",
    "phone": "(747) 356-0202",
    "lat": 34.24933798,
    "lng": -118.606937
  },
  {
    "id": "630022399",
    "name": "LAKEVIEW HOME HEALTH CARE",
    "npi": null,
    "hcaiId": "406196250",
    "businessName": "LAKEVIEW HOME HEALTH CARE",
    "contactEmail": "LAKEVIEWHHC1@GMAIL.COM",
    "categoryName": "HOME HEALTH AGENCY",
    "categoryCode": "HHA",
    "licenseStatus": "ACTIVE",
    "inService": true,
    "licenseNumber": "550008439",
    "licenseEffectiveDate": "03/07/2025",
    "licenseExpirationDate": "03/06/2026",
    "dataDate": "10/18/2025",
    "capacity": 0,
    "address": "21405 DEVONSHIRE ST, SUITE 206",
    "city": "CHATSWORTH",
    "zip": "91311",
    "county": "LOS ANGELES",
    "phone": "(747) 202-3579",
    "lat": 34.257402,
    "lng": -118.597599
  },
  {
    "id": "630016906",
    "name": "LINX HOME HEALTH CARE",
    "npi": "1336595453",
    "hcaiId": "406191329",
    "businessName": "LINXHEALTHCARE",
    "contactEmail": "INFO@LINXHEALTHCARE.COM",
    "categoryName": "HOME HEALTH AGENCY",
    "categoryCode": "HHA",
    "licenseStatus": "ACTIVE",
    "inService": true,
    "licenseNumber": "550004315",
    "licenseEffectiveDate": "05/19/2025",
    "licenseExpirationDate": "05/18/2026",
    "dataDate": "10/18/2025",
    "capacity": 0,
    "address": "21006 DEVONSHIRE STREET, SUITE 210",
    "city": "CHATSWORTH",
    "zip": "91311",
    "county": "LOS ANGELES",
    "phone": "(818) 477-4057",
    "lat": 34.256817,
    "lng": -118.5913485
  },
  {
    "id": "630027072",
    "name": "LIVEHELP HOME CARE",
    "npi": null,
    "hcaiId": null,
    "businessName": "LIVEHELP HOME CARE",
    "contactEmail": "MANE@HOSPICEHHA.COM",
    "categoryName": "HOME HEALTH AGENCY",
    "categoryCode": "HHA",
    "licenseStatus": "ACTIVE",
    "inService": true,
    "licenseNumber": "550009577",
    "licenseEffectiveDate": "06/19/2025",
    "licenseExpirationDate": "12/18/2025",
    "dataDate": "10/18/2025",
    "capacity": 0,
    "address": "21757 DEVONSHIRE ST, SUITE 9",
    "city": "CHATSWORTH",
    "zip": "91311",
    "county": "LOS ANGELES",
    "phone": "(818) 807-5640",
    "lat": 34.25752899,
    "lng": -118.603596
  },
  {
    "id": "630018496",
    "name": "MEDICUS HOME HEALTH AGENCY",
    "npi": null,
    "hcaiId": "406192108",
    "businessName": "MEDICUS HOME HEALTH AGENCY",
    "contactEmail": "MEDICUSHHA@YAHOO.COM",
    "categoryName": "HOME HEALTH AGENCY",
    "categoryCode": "HHA",
    "licenseStatus": "ACTIVE",
    "inService": true,
    "licenseNumber": "550005177",
    "licenseEffectiveDate": "12/14/2024",
    "licenseExpirationDate": "12/13/2025",
    "dataDate": "10/18/2025",
    "capacity": 0,
    "address": "21032 DEVONSHIRE ST, UNIT 202B",
    "city": "CHATSWORTH",
    "zip": "91311",
    "county": "LOS ANGELES",
    "phone": "(818) 477-2995",
    "lat": 34.256799,
    "lng": -118.5918435
  },
  {
    "id": "630014582",
    "name": "METRO MEDICAL SERVICES, INC.",
    "npi": "1326480617",
    "hcaiId": "406197976",
    "businessName": "METRO MEDICAL SERVICES, INC.",
    "contactEmail": "METROMEDICALSERVICES1551@GMAIL.COM",
    "categoryName": "HOSPICE",
    "categoryCode": "HOSPICE",
    "licenseStatus": "ACTIVE",
    "inService": true,
    "licenseNumber": "550002881",
    "licenseEffectiveDate": "11/06/2024",
    "licenseExpirationDate": "11/05/2026",
    "dataDate": "10/18/2025",
    "capacity": 0,
    "address": "9420 TOPANGA CANYON BLVD, SUITE 207",
    "city": "CHATSWORTH",
    "zip": "91311",
    "county": "LOS ANGELES",
    "phone": "(818) 546-8662",
    "lat": 34.24134978,
    "lng": -118.6061021
  },
  {
    "id": "630020113",
    "name": "MOUNTAINSIDE HOSPICE AND PALLIATIVE CARE, INC.",
    "npi": null,
    "hcaiId": "406196761",
    "businessName": "MOUNTAINSIDE HOSPICE AND PALLIATIVE CARE, INC.",
    "contactEmail": "MOUNTAINSIDEHOSPICE@GMAIL.COM",
    "categoryName": "HOSPICE",
    "categoryCode": "HOSPICE",
    "licenseStatus": "ACTIVE",
    "inService": true,
    "licenseNumber": "550006368",
    "licenseEffectiveDate": "05/14/2025",
    "licenseExpirationDate": "05/13/2027",
    "dataDate": "10/18/2025",
    "capacity": 0,
    "address": "20955 DEVONSHIRE ST, SUITE A",
    "city": "CHATSWORTH",
    "zip": "91311",
    "county": "LOS ANGELES",
    "phone": "(818) 818-5009",
    "lat": 34.25767701,
    "lng": -118.590492
  },
  {
    "id": "630013245",
    "name": "NEURORESTORATIVE CALIFORNIA",
    "npi": null,
    "hcaiId": "206197615",
    "businessName": "CAREMERIDIAN, LLC",
    "contactEmail": "AIDA.TORRES@SEVITAHEALTH.COM",
    "categoryName": "CONGREGATE LIVING HEALTH FACILITY",
    "categoryCode": "CLHF",
    "licenseStatus": "ACTIVE",
    "inService": true,
    "licenseNumber": "550001742",
    "licenseEffectiveDate": "11/30/2024",
    "licenseExpirationDate": "11/29/2025",
    "dataDate": "10/18/2025",
    "capacity": 6,
    "address": "10035 OSO AVE",
    "city": "CHATSWORTH",
    "zip": "91311",
    "county": "LOS ANGELES",
    "phone": null,
    "lat": 34.252884,
    "lng": -118.575414
  },
  {
    "id": "630015109",
    "name": "NEURORESTORATIVE CALIFORNIA",
    "npi": null,
    "hcaiId": "206198133",
    "businessName": "CAREMERIDIAN, LLC",
    "contactEmail": "LYDIA.CHOWA@SEVITAHEALTH.COM",
    "categoryName": "CONGREGATE LIVING HEALTH FACILITY",
    "categoryCode": "CLHF",
    "licenseStatus": "ACTIVE",
    "inService": true,
    "licenseNumber": "550003257",
    "licenseEffectiveDate": "10/07/2025",
    "licenseExpirationDate": "10/06/2026",
    "dataDate": "10/18/2025",
    "capacity": 6,
    "address": "10339 OSO AVE",
    "city": "CHATSWORTH",
    "zip": "91311",
    "county": "LOS ANGELES",
    "phone": "(818) 739-1776",
    "lat": 34.258914,
    "lng": -118.575639
  },
  {
    "id": "980000764",
    "name": "NEW START CLHF'S INDEPENDENT TRAINING CENTERS -  BERMUDA HOUSE",
    "npi": "1588295224",
    "hcaiId": "206194079",
    "businessName": "NEW START CLHF'S INDEPENDENT TRAINING CENTERS",
    "contactEmail": "MWILLIAMS@NEWSTARTHOMECARE.COM",
    "categoryName": "CONGREGATE LIVING HEALTH FACILITY",
    "categoryCode": "CLHF",
    "licenseStatus": "ACTIVE",
    "inService": true,
    "licenseNumber": "980000431",
    "licenseEffectiveDate": "01/28/2025",
    "licenseExpirationDate": "01/27/2026",
    "dataDate": "10/18/2025",
    "capacity": 6,
    "address": "19640 BERMUDA ST",
    "city": "CHATSWORTH",
    "zip": "91311",
    "county": "LOS ANGELES",
    "phone": "(818) 422-5947",
    "lat": 34.264917,
    "lng": -118.562013
  },
  {
    "id": "980000944",
    "name": "NEW START CLHF'S INDEPENDENT TRAINING CENTERS - LARAMIE HOUSE",
    "npi": null,
    "hcaiId": "206194400",
    "businessName": "NEW START CLHF'S INDEPENDENT TRAINING CENTERS",
    "contactEmail": "SIAN@NEWSTARTCLHFS.COM",
    "categoryName": "CONGREGATE LIVING HEALTH FACILITY",
    "categoryCode": "CLHF",
    "licenseStatus": "ACTIVE",
    "inService": true,
    "licenseNumber": "980000679",
    "licenseEffectiveDate": "01/28/2025",
    "licenseExpirationDate": "01/27/2026",
    "dataDate": "10/18/2025",
    "capacity": 6,
    "address": "10318 LARAMIE AVE",
    "city": "CHATSWORTH",
    "zip": "91311",
    "county": "LOS ANGELES",
    "phone": "(818) 606-1611",
    "lat": 34.258014,
    "lng": -118.5725115
  },
  {
    "id": "630017607",
    "name": "NUMBER 1 HOME HEALTH CARE, INC.",
    "npi": "1922517895",
    "hcaiId": "406191540",
    "businessName": "NUMBER 1 HOME HEALTH CARE, INC.",
    "contactEmail": "NUMBER1HOMEHEALTH@GMAIL.COM",
    "categoryName": "HOME HEALTH AGENCY",
    "categoryCode": "HHA",
    "licenseStatus": "ACTIVE",
    "inService": true,
    "licenseNumber": "550004520",
    "licenseEffectiveDate": "01/14/2025",
    "licenseExpirationDate": "01/13/2026",
    "dataDate": "10/18/2025",
    "capacity": 0,
    "address": "21818 CRAGGY VIEW ST, SUITE 204",
    "city": "CHATSWORTH",
    "zip": "91311",
    "county": "LOS ANGELES",
    "phone": "(818) 280-3078",
    "lat": 34.254954,
    "lng": -118.604574
  },
  {
    "id": "630015556",
    "name": "NURSECARE HOME HEALTH, INC.",
    "npi": "1629470299",
    "hcaiId": "406198239",
    "businessName": "NURSECARE HOME HEALTH, INC.",
    "contactEmail": "NURSECAREHOMEHEALTH@GMAIL.COM",
    "categoryName": "HOME HEALTH AGENCY",
    "categoryCode": "HHA",
    "licenseStatus": "ACTIVE",
    "inService": true,
    "licenseNumber": "550003222",
    "licenseEffectiveDate": "09/16/2023",
    "licenseExpirationDate": "09/15/2024",
    "dataDate": "10/18/2025",
    "capacity": 0,
    "address": "21000 DEVONSHIRE STREET, #102C",
    "city": "CHATSWORTH",
    "zip": "91311",
    "county": "LOS ANGELES",
    "phone": "(818) 725-2683",
    "lat": 34.25697,
    "lng": -118.59102
  },
  {
    "id": "630024151",
    "name": "ODYSSEY HOME HEALTH CARE, INC.",
    "npi": null,
    "hcaiId": "406195828",
    "businessName": "ODYSSEY HOME HEALTH CARE, INC.",
    "contactEmail": "ODYSSEYHHC@YAHOO.COM",
    "categoryName": "HOME HEALTH AGENCY",
    "categoryCode": "HHA",
    "licenseStatus": "ACTIVE",
    "inService": true,
    "licenseNumber": "550007942",
    "licenseEffectiveDate": "04/06/2025",
    "licenseExpirationDate": "04/05/2026",
    "dataDate": "10/18/2025",
    "capacity": 0,
    "address": "21032 DEVONSHIRE ST, SUITE 205",
    "city": "CHATSWORTH",
    "zip": "91311",
    "county": "LOS ANGELES",
    "phone": "(818) 527-1117",
    "lat": 34.256799,
    "lng": -118.5918435
  },
  {
    "id": "630011670",
    "name": "OPTION ONE HOME CARE, INC.",
    "npi": "1306029418",
    "hcaiId": "406197291",
    "businessName": "OPTION ONE HOME CARE, INC.",
    "contactEmail": "OPTIONONEHOMECARE@YAHOO.COM",
    "categoryName": "HOME HEALTH AGENCY",
    "categoryCode": "HHA",
    "licenseStatus": "ACTIVE",
    "inService": true,
    "licenseNumber": "550001039",
    "licenseEffectiveDate": "04/09/2025",
    "licenseExpirationDate": "04/08/2026",
    "dataDate": "10/18/2025",
    "capacity": 0,
    "address": "10120 CANOGA AVE, SUITE 200",
    "city": "CHATSWORTH",
    "zip": "91311",
    "county": "LOS ANGELES",
    "phone": "(818) 719-8622",
    "lat": 34.254252,
    "lng": -118.597131
  },
  {
    "id": "630020109",
    "name": "PACIFIC COAST HOSPICE INC",
    "npi": null,
    "hcaiId": null,
    "businessName": "PACIFIC COAST HOSPICE INC",
    "contactEmail": "PACIFICCOASTHSI@GMAIL.COM",
    "categoryName": "HOSPICE",
    "categoryCode": "HOSPICE",
    "licenseStatus": "ACTIVE",
    "inService": true,
    "licenseNumber": "550006104",
    "licenseEffectiveDate": "02/20/2025",
    "licenseExpirationDate": "02/19/2027",
    "dataDate": "10/18/2025",
    "capacity": 0,
    "address": "20953 DEVONSHIRE ST, SUITE 8B",
    "city": "CHATSWORTH",
    "zip": "91311",
    "county": "LOS ANGELES",
    "phone": "(310) 877-8067",
    "lat": 34.257402,
    "lng": -118.590399
  },
  {
    "id": "980001578",
    "name": "PARAMOUNT HOME HEALTH SERVICES",
    "npi": "1427170513",
    "hcaiId": "406194755",
    "businessName": "PARAMOUNT HOME HEALTH SERVICES",
    "contactEmail": "ADMIN@PRHOMEHEALTH.COM",
    "categoryName": "HOME HEALTH AGENCY",
    "categoryCode": "HHA",
    "licenseStatus": "ACTIVE",
    "inService": true,
    "licenseNumber": "980000918",
    "licenseEffectiveDate": "11/17/2024",
    "licenseExpirationDate": "11/16/2025",
    "dataDate": "10/18/2025",
    "capacity": 0,
    "address": "9420 TOPANGA CANYON BLVD, SUITE 202",
    "city": "CHATSWORTH",
    "zip": "91311",
    "county": "LOS ANGELES",
    "phone": "(818) 818-6573",
    "lat": 34.24134978,
    "lng": -118.6061021
  },
  {
    "id": "630027573",
    "name": "PLATINUM LIFE HOME CARE INC",
    "npi": null,
    "hcaiId": null,
    "businessName": "PLATINUM LIFE HOME CARE INC",
    "contactEmail": "PLATINUMLIFEHC@GMAIL.COM",
    "categoryName": "HOME HEALTH AGENCY",
    "categoryCode": "HHA",
    "licenseStatus": "ACTIVE",
    "inService": true,
    "licenseNumber": "550009709",
    "licenseEffectiveDate": "09/07/2025",
    "licenseExpirationDate": "03/06/2026",
    "dataDate": "10/18/2025",
    "capacity": 0,
    "address": "22024 LASSEN ST, SUITE 116",
    "city": "CHATSWORTH",
    "zip": "91311",
    "county": "LOS ANGELES",
    "phone": "(818) 292-5680",
    "lat": 34.24933798,
    "lng": -118.606937
  },
  {
    "id": "630020176",
    "name": "PROVITAL CARE, INC.",
    "npi": null,
    "hcaiId": "406193021",
    "businessName": "PROVITAL CARE, INC.",
    "contactEmail": "PROVITALCAREINC@GMAIL.COM",
    "categoryName": "HOME HEALTH AGENCY",
    "categoryCode": "HHA",
    "licenseStatus": "ACTIVE",
    "inService": true,
    "licenseNumber": "550005796",
    "licenseEffectiveDate": "10/06/2025",
    "licenseExpirationDate": "10/05/2026",
    "dataDate": "10/18/2025",
    "capacity": 0,
    "address": "20953 DEVONSHIRE ST, SUITE 6",
    "city": "CHATSWORTH",
    "zip": "91311",
    "county": "LOS ANGELES",
    "phone": "(747) 282-1555",
    "lat": 34.257402,
    "lng": -118.590399
  },
  {
    "id": "630019857",
    "name": "PULSE HOME HEALTH SERVICES, INC.",
    "npi": null,
    "hcaiId": "406194807",
    "businessName": "PULSE HOME HEALTH SERVICES, INC.",
    "contactEmail": "PULSEHHSERVICES@GMAIL.COM",
    "categoryName": "HOME HEALTH AGENCY",
    "categoryCode": "HHA",
    "licenseStatus": "ACTIVE",
    "inService": true,
    "licenseNumber": "550005982",
    "licenseEffectiveDate": "01/15/2025",
    "licenseExpirationDate": "01/14/2026",
    "dataDate": "10/18/2025",
    "capacity": 0,
    "address": "21032 DEVONSHIRE ST, UNIT 208",
    "city": "CHATSWORTH",
    "zip": "91311",
    "county": "LOS ANGELES",
    "phone": "(818) 812-9293",
    "lat": 34.256799,
    "lng": -118.5918435
  },
  {
    "id": "630020344",
    "name": "REPOSE HOSPICE CARE, INC.",
    "npi": null,
    "hcaiId": "406196742",
    "businessName": "REPOSE HOSPICE CARE, INC.",
    "contactEmail": "REPOSEHOSPICECARE@GMAIL.COM",
    "categoryName": "HOSPICE",
    "categoryCode": "HOSPICE",
    "licenseStatus": "ACTIVE",
    "inService": true,
    "licenseNumber": "550006403",
    "licenseEffectiveDate": "06/08/2025",
    "licenseExpirationDate": "06/07/2027",
    "dataDate": "10/18/2025",
    "capacity": 0,
    "address": "22024 LASSEN ST, SUITE 109",
    "city": "CHATSWORTH",
    "zip": "91311",
    "county": "LOS ANGELES",
    "phone": "(747) 777-2628",
    "lat": 34.249419,
    "lng": -118.6068645
  },
  {
    "id": "630012978",
    "name": "S & E COMFORT CARE LLC",
    "npi": "1821469883",
    "hcaiId": null,
    "businessName": "S & E COMFORT CARE, LLC",
    "contactEmail": "SANDECOMFORTCARE@GMAIL.COM",
    "categoryName": "INTERMEDIATE CARE FACILITY-DD/H/N/CN/IID",
    "categoryCode": "ICFDDH",
    "licenseStatus": "ACTIVE",
    "inService": true,
    "licenseNumber": "550001611",
    "licenseEffectiveDate": "07/12/2025",
    "licenseExpirationDate": "07/11/2026",
    "dataDate": "10/18/2025",
    "capacity": 6,
    "address": "20619 ROMAR STREET",
    "city": "CHATSWORTH",
    "zip": "91311",
    "county": "LOS ANGELES",
    "phone": "(818) 626-9213",
    "lat": 34.254837,
    "lng": -118.582596
  },
  {
    "id": "630015571",
    "name": "SERENE HOSPICE, LLC",
    "npi": "1225444193",
    "hcaiId": "406190861",
    "businessName": "SERENE HOSPICE, LLC",
    "contactEmail": "SERENEHOSPICEHSI@GMAIL.COM",
    "categoryName": "HOSPICE",
    "categoryCode": "HOSPICE",
    "licenseStatus": "ACTIVE",
    "inService": true,
    "licenseNumber": "550004051",
    "licenseEffectiveDate": "12/15/2023",
    "licenseExpirationDate": "12/14/2025",
    "dataDate": "10/18/2025",
    "capacity": 0,
    "address": "20953 DEVONSHIRE ST, SUITE 5",
    "city": "CHATSWORTH",
    "zip": "91311",
    "county": "LOS ANGELES",
    "phone": "(818) 717-7600",
    "lat": 34.257402,
    "lng": -118.590399
  },
  {
    "id": "630019601",
    "name": "SMART CHOICE HOSPICE INC",
    "npi": "1891332557",
    "hcaiId": "406192596",
    "businessName": "SMART CHOICE HOSPICE INC",
    "contactEmail": "SMARTCHOICEHOSPICEINC@GMAIL.COM",
    "categoryName": "HOSPICE",
    "categoryCode": "HOSPICE",
    "licenseStatus": "ACTIVE",
    "inService": true,
    "licenseNumber": "550005388",
    "licenseEffectiveDate": "03/09/2024",
    "licenseExpirationDate": "03/08/2026",
    "dataDate": "10/18/2025",
    "capacity": 0,
    "address": "20945 DEVONSHIRE ST, SUITE 103",
    "city": "CHATSWORTH",
    "zip": "91311",
    "county": "LOS ANGELES",
    "phone": "(818) 369-6456",
    "lat": 34.25754802,
    "lng": -118.590195
  },
  {
    "id": "630017674",
    "name": "SMART HOME HEALTH CARE SERVICES, INC.",
    "npi": null,
    "hcaiId": "406191989",
    "businessName": "SMART HOME HEALTH CARE SERVICES, INC.",
    "contactEmail": "SMARTHOMEHEALTH@GMAIL.COM",
    "categoryName": "HOME HEALTH AGENCY",
    "categoryCode": "HHA",
    "licenseStatus": "ACTIVE",
    "inService": true,
    "licenseNumber": "550004994",
    "licenseEffectiveDate": "09/30/2024",
    "licenseExpirationDate": "09/29/2025",
    "dataDate": "10/18/2025",
    "capacity": 0,
    "address": "21220 DEVONSHIRE ST, SUITE 206",
    "city": "CHATSWORTH",
    "zip": "91311",
    "county": "LOS ANGELES",
    "phone": "(818) 701-3040",
    "lat": 34.256916,
    "lng": -118.594485
  },
  {
    "id": "630021357",
    "name": "SPECIALTY HOSPICE CARE",
    "npi": null,
    "hcaiId": "406194978",
    "businessName": "OPTUMA CARE SERVICES INC",
    "contactEmail": "LA.SPECIALTYHOSPICE@GMAIL.COM",
    "categoryName": "HOSPICE",
    "categoryCode": "HOSPICE",
    "licenseStatus": "ACTIVE",
    "inService": true,
    "licenseNumber": "550007043",
    "licenseEffectiveDate": "08/23/2023",
    "licenseExpirationDate": "08/22/2025",
    "dataDate": "10/18/2025",
    "capacity": 0,
    "address": "9909 CANOGA AVE, SUITE H",
    "city": "CHATSWORTH",
    "zip": "91311",
    "county": "LOS ANGELES",
    "phone": "(877) 503-7700",
    "lat": 34.2504,
    "lng": -118.5974775
  },
  {
    "id": "630020704",
    "name": "SPRINGFIELD HOSPICE SERVICES, INC.",
    "npi": null,
    "hcaiId": "406193239",
    "businessName": "SPRINGFIELD HOSPICE SERVICES, INC",
    "contactEmail": "SPRINGFIELDHOSPICE@GMAIL.COM",
    "categoryName": "HOSPICE",
    "categoryCode": "HOSPICE",
    "licenseStatus": "ACTIVE",
    "inService": true,
    "licenseNumber": "550006271",
    "licenseEffectiveDate": "05/10/2025",
    "licenseExpirationDate": "05/09/2027",
    "dataDate": "10/18/2025",
    "capacity": 0,
    "address": "9420 TOPANGA CANYON BLVD, SUITE 208",
    "city": "CHATSWORTH",
    "zip": "91311",
    "county": "LOS ANGELES",
    "phone": "(818) 518-8233",
    "lat": 34.24148301,
    "lng": -118.604545
  },
  {
    "id": "630021820",
    "name": "SS HOSPICE CARE, INC.",
    "npi": null,
    "hcaiId": "406197820",
    "businessName": "SS HOSPICE CARE, INC.",
    "contactEmail": "SSHOSPICECARE@GMAIL.COM",
    "categoryName": "HOSPICE",
    "categoryCode": "HOSPICE",
    "licenseStatus": "ACTIVE",
    "inService": true,
    "licenseNumber": "550007662",
    "licenseEffectiveDate": "05/28/2025",
    "licenseExpirationDate": "12/19/2025",
    "dataDate": "10/18/2025",
    "capacity": 0,
    "address": "21405 DEVONSHIRE ST, SUITE 225",
    "city": "CHATSWORTH",
    "zip": "91311",
    "county": "LOS ANGELES",
    "phone": "(747) 735-5151",
    "lat": 34.25788199,
    "lng": -118.598077
  },
  {
    "id": "920000092",
    "name": "STONEY POINT HEALTHCARE CENTER",
    "npi": "1831573856",
    "hcaiId": "206190165",
    "businessName": "CUCUMBER HOLDINGS, LLC",
    "contactEmail": "EDWARDO.AGUINAGA@WESTVALLEYHC.COM",
    "categoryName": "SKILLED NURSING FACILITY",
    "categoryCode": "SNF",
    "licenseStatus": "ACTIVE",
    "inService": true,
    "licenseNumber": "920000019",
    "licenseEffectiveDate": "12/01/2024",
    "licenseExpirationDate": "11/30/2025",
    "dataDate": "10/18/2025",
    "capacity": 132,
    "address": "21820 CRAGGY VIEW ST.",
    "city": "CHATSWORTH",
    "zip": "91311",
    "county": "LOS ANGELES",
    "phone": "(818) 590-0783",
    "lat": 34.254981,
    "lng": -118.604979
  },
  {
    "id": "960001678",
    "name": "TLC - DEVONSHIRE HOUSE",
    "npi": "1609085430",
    "hcaiId": null,
    "businessName": "THERAPEUTIC LIVING CENTERS FOR THE BLIND, INC.",
    "contactEmail": "AJORDAN@TLC4BLIND.ORG",
    "categoryName": "INTERMEDIATE CARE FACILITY-DD/H/N/CN/IID",
    "categoryCode": "ICFDDH",
    "licenseStatus": "ACTIVE",
    "inService": true,
    "licenseNumber": "960000863",
    "licenseEffectiveDate": "03/16/2025",
    "licenseExpirationDate": "03/15/2026",
    "dataDate": "10/18/2025",
    "capacity": 6,
    "address": "20619 DEVONSHIRE ST",
    "city": "CHATSWORTH",
    "zip": "91311",
    "county": "LOS ANGELES",
    "phone": "(818) 314-8254",
    "lat": 34.25731072,
    "lng": -118.5828651
  },
  {
    "id": "630020404",
    "name": "TOP LINE HOSPICE CARE, INC",
    "npi": null,
    "hcaiId": "406197823",
    "businessName": "TOP LINE HOSPICE CARE, INC",
    "contactEmail": "TOPLINEHOSPICE@GMAIL.COM",
    "categoryName": "HOSPICE",
    "categoryCode": "HOSPICE",
    "licenseStatus": "ACTIVE",
    "inService": true,
    "licenseNumber": "550007281",
    "licenseEffectiveDate": "10/28/2025",
    "licenseExpirationDate": "11/22/2025",
    "dataDate": "10/18/2025",
    "capacity": 0,
    "address": "22024 LASSEN ST, SUITE 112",
    "city": "CHATSWORTH",
    "zip": "91311",
    "county": "LOS ANGELES",
    "phone": "(818) 484-8898",
    "lat": 34.249338,
    "lng": -118.6069365
  },
  {
    "id": "630014649",
    "name": "TRI VALLEY HOSPICE CARE, INC.",
    "npi": "1518205871",
    "hcaiId": "406198198",
    "businessName": "TRI VALLEY HOSPICE CARE, INC.",
    "contactEmail": "TRIVALLEYHOSPICECARE@YAHOO.COM",
    "categoryName": "HOSPICE",
    "categoryCode": "HOSPICE",
    "licenseStatus": "ACTIVE",
    "inService": true,
    "licenseNumber": "550002910",
    "licenseEffectiveDate": "12/02/2024",
    "licenseExpirationDate": "12/01/2026",
    "dataDate": "10/18/2025",
    "capacity": 0,
    "address": "10120 CANOGA AVE, SUITE 100",
    "city": "CHATSWORTH",
    "zip": "91311",
    "county": "LOS ANGELES",
    "phone": "(818) 773-0122",
    "lat": 34.254252,
    "lng": -118.597131
  },
  {
    "id": "630018094",
    "name": "ULTIMATE HEALTH HOME CARE, INC",
    "npi": null,
    "hcaiId": "406190309",
    "businessName": "ULTIMATE HEALTH HOME CARE, INC",
    "contactEmail": "HOMEHEALTHULTIMATE@GMAIL.COM",
    "categoryName": "HOME HEALTH AGENCY",
    "categoryCode": "HHA",
    "licenseStatus": "ACTIVE",
    "inService": true,
    "licenseNumber": "550008469",
    "licenseEffectiveDate": "03/15/2025",
    "licenseExpirationDate": "03/14/2026",
    "dataDate": "10/18/2025",
    "capacity": 0,
    "address": "21601 DEVONSHIRE ST, SUITE 328",
    "city": "CHATSWORTH",
    "zip": "91311",
    "county": "LOS ANGELES",
    "phone": "(818) 477-2548",
    "lat": 34.257861,
    "lng": -118.5999255
  },
  {
    "id": "630020293",
    "name": "UNIQUE CARE PLUS INC.",
    "npi": null,
    "hcaiId": "406193825",
    "businessName": "UNIQUE CARE PLUS INC.",
    "contactEmail": "UCPHHS@GMAIL.COM",
    "categoryName": "HOME HEALTH AGENCY",
    "categoryCode": "HHA",
    "licenseStatus": "ACTIVE",
    "inService": true,
    "licenseNumber": "550005775",
    "licenseEffectiveDate": "10/01/2025",
    "licenseExpirationDate": "09/30/2026",
    "dataDate": "10/18/2025",
    "capacity": 0,
    "address": "21405 DEVONSHIRE ST, SUITE 224",
    "city": "CHATSWORTH",
    "zip": "91311",
    "county": "LOS ANGELES",
    "phone": "(747) 249-5100",
    "lat": 34.25788199,
    "lng": -118.598077
  },
  {
    "id": "630016202",
    "name": "VALLEY HEART HOSPICE CARE, INC.",
    "npi": "1164803318",
    "hcaiId": "406198530",
    "businessName": "VALLEY HEART HOSPICE CARE INC",
    "contactEmail": "VALLEYHEARTHOSPICE@GMAIL.COM",
    "categoryName": "HOSPICE",
    "categoryCode": "HOSPICE",
    "licenseStatus": "ACTIVE",
    "inService": true,
    "licenseNumber": "550004002",
    "licenseEffectiveDate": "10/28/2025",
    "licenseExpirationDate": "10/27/2027",
    "dataDate": "10/18/2025",
    "capacity": 0,
    "address": "20953 DEVONSHIRE ST, SUITE 3B",
    "city": "CHATSWORTH",
    "zip": "91311",
    "county": "LOS ANGELES",
    "phone": "(818) 455-4363",
    "lat": 34.257402,
    "lng": -118.590399
  },
  {
    "id": "960001770",
    "name": "VALLEY VILLAGE COZYCROFT HOUSE",
    "npi": "1598817355",
    "hcaiId": null,
    "businessName": "VALLEY VILLAGE",
    "contactEmail": "SUSIE@VVC.ORG",
    "categoryName": "INTERMEDIATE CARE FACILITY-DD/H/N/CN/IID",
    "categoryCode": "ICFDDH",
    "licenseStatus": "ACTIVE",
    "inService": true,
    "licenseNumber": "960000853",
    "licenseEffectiveDate": "04/05/2025",
    "licenseExpirationDate": "04/04/2026",
    "dataDate": "10/18/2025",
    "capacity": 6,
    "address": "10116 COZYCROFT AVE",
    "city": "CHATSWORTH",
    "zip": "91311",
    "county": "LOS ANGELES",
    "phone": "(818) 587-9450",
    "lat": 34.254198,
    "lng": -118.581588
  },
  {
    "id": "960001895",
    "name": "VALLEY VILLAGE LE MARSH HOUSE",
    "npi": "1689727315",
    "hcaiId": null,
    "businessName": "VALLEY VILLAGE",
    "contactEmail": "SUSIE@VVC.ORG",
    "categoryName": "INTERMEDIATE CARE FACILITY-DD/H/N/CN/IID",
    "categoryCode": "ICFDDH",
    "licenseStatus": "ACTIVE",
    "inService": true,
    "licenseNumber": "960000907",
    "licenseEffectiveDate": "06/09/2025",
    "licenseExpirationDate": "06/08/2026",
    "dataDate": "10/18/2025",
    "capacity": 6,
    "address": "20661 LEMARSH ST",
    "city": "CHATSWORTH",
    "zip": "91311",
    "county": "LOS ANGELES",
    "phone": "(818) 587-9450",
    "lat": 34.255692,
    "lng": -118.583982
  },
  {
    "id": "960000883",
    "name": "VALLEY VILLAGE LURLINE HOUSE",
    "npi": "1245381961",
    "hcaiId": null,
    "businessName": "VALLEY VILLAGE",
    "contactEmail": "SUSIE@VVC.ORG",
    "categoryName": "INTERMEDIATE CARE FACILITY-DD/H/N/CN/IID",
    "categoryCode": "ICFDDH",
    "licenseStatus": "ACTIVE",
    "inService": true,
    "licenseNumber": "960000483",
    "licenseEffectiveDate": "12/21/2024",
    "licenseExpirationDate": "12/20/2025",
    "dataDate": "10/18/2025",
    "capacity": 6,
    "address": "10415 LURLINE AVE",
    "city": "CHATSWORTH",
    "zip": "91311",
    "county": "LOS ANGELES",
    "phone": "(818) 773-2058",
    "lat": 34.259571,
    "lng": -118.5845085
  },
  {
    "id": "960001450",
    "name": "VALLEY VILLAGE VARIEL HOUSE",
    "npi": "1902957756",
    "hcaiId": null,
    "businessName": "VALLEY VILLAGE",
    "contactEmail": "MIRNA@VVC.ORG",
    "categoryName": "INTERMEDIATE CARE FACILITY-DD/H/N/CN/IID",
    "categoryCode": "ICFDDH",
    "licenseStatus": "ACTIVE",
    "inService": true,
    "licenseNumber": "960000744",
    "licenseEffectiveDate": "11/27/2024",
    "licenseExpirationDate": "11/26/2025",
    "dataDate": "10/18/2025",
    "capacity": 6,
    "address": "10141 VARIEL AVE",
    "city": "CHATSWORTH",
    "zip": "91311",
    "county": "LOS ANGELES",
    "phone": "(818) 773-2028",
    "lat": 34.254882,
    "lng": -118.593243
  },
  {
    "id": "630023467",
    "name": "VIOLET HOME HEALTH CARE",
    "npi": null,
    "hcaiId": "406195236",
    "businessName": "VIOLET HOME HEALTH CARE",
    "contactEmail": "VIOLETHOMEHEALTH@GMAIL.COM",
    "categoryName": "HOME HEALTH AGENCY",
    "categoryCode": "HHA",
    "licenseStatus": "ACTIVE",
    "inService": true,
    "licenseNumber": "550007923",
    "licenseEffectiveDate": "04/03/2025",
    "licenseExpirationDate": "03/30/2026",
    "dataDate": "10/18/2025",
    "capacity": 0,
    "address": "9420 TOPANGA CANYON BLVD, SUITE 207B",
    "city": "CHATSWORTH",
    "zip": "91311",
    "county": "LOS ANGELES",
    "phone": "(747) 444-3679",
    "lat": 34.24148301,
    "lng": -118.604545
  },
  {
    "id": "630019905",
    "name": "WISDOM HOME HEALTH, INC",
    "npi": null,
    "hcaiId": "406192905",
    "businessName": "WISDOM HOME HEALTH, INC.",
    "contactEmail": "WISDOMHOMEHEALTHINC@GMAIL.COM",
    "categoryName": "HOME HEALTH AGENCY",
    "categoryCode": "HHA",
    "licenseStatus": "ACTIVE",
    "inService": true,
    "licenseNumber": "550005790",
    "licenseEffectiveDate": "10/08/2024",
    "licenseExpirationDate": "10/07/2025",
    "dataDate": "10/18/2025",
    "capacity": 0,
    "address": "21032 DEVONSHIRE ST, UNIT 212",
    "city": "CHATSWORTH",
    "zip": "91311",
    "county": "LOS ANGELES",
    "phone": "(818) 280-3617",
    "lat": 34.256799,
    "lng": -118.5918435
  }
]