[
  {
    "id": "630025203",
    "name": "AQUA HOME HEALTH CARE, INC.",
    "npi": null,
    "hcaiId": "406196206",
    "businessName": "AQUA HOME HEALTH CARE, INC.",
    "contactEmail": "AQUAHOMEHEALTHAGENCY@GMAIL.COM",
    "categoryName": "HOME HEALTH AGENCY",
    "categoryCode": "HHA",
    "licenseStatus": "ACTIVE",
    "inService": true,
    "licenseNumber": "550008401",
    "licenseEffectiveDate": "02/23/2025",
    "licenseExpirationDate": "02/22/2026",
    "dataDate": "10/18/2025",
    "capacity": 0,
    "address": "5535 N BALBOA BLVD, SUITE 103",
    "city": "ENCINO",
    "zip": "91316",
    "county": "LOS ANGELES",
    "phone": "(747) 800-3871",
    "lat": 34.171191,
    "lng": -118.50129
  },
  {
    "id": "630021841",
    "name": "ARIA HEALTH HOME CARE INC.",
    "npi": null,
    "hcaiId": "406193348",
    "businessName": "ARIA HEALTH HOME CARE INC.",
    "contactEmail": "INFO@ARIAHEALTHHOMECARE.COM",
    "categoryName": "HOME HEALTH AGENCY",
    "categoryCode": "HHA",
    "licenseStatus": "ACTIVE",
    "inService": true,
    "licenseNumber": "550007144",
    "licenseEffectiveDate": "11/09/2024",
    "licenseExpirationDate": "11/08/2025",
    "dataDate": "10/18/2025",
    "capacity": 0,
    "address": "17941 VENTURA BLVD, SUITE 206",
    "city": "ENCINO",
    "zip": "91316",
    "county": "LOS ANGELES",
    "phone": "(747) 444-4133",
    "lat": 34.16427,
    "lng": -118.5233175
  },
  {
    "id": "630019020",
    "name": "ART OF HOSPICE, INC.",
    "npi": "1851958516",
    "hcaiId": "406191941",
    "businessName": "ART OF HOSPICE, INC.",
    "contactEmail": "ARTOFHOSPICE@YAHOO.COM",
    "categoryName": "HOSPICE",
    "categoryCode": "HOSPICE",
    "licenseStatus": "ACTIVE",
    "inService": true,
    "licenseNumber": "550004983",
    "licenseEffectiveDate": "10/11/2025",
    "licenseExpirationDate": "10/10/2027",
    "dataDate": "10/18/2025",
    "capacity": 0,
    "address": "6345 BALBOA BLVD, SUITE 195",
    "city": "ENCINO",
    "zip": "91316",
    "county": "LOS ANGELES",
    "phone": "(747) 265-6510",
    "lat": 34.186279,
    "lng": -118.503045
  },
  {
    "id": "630018258",
    "name": "AVICENNA HOME HEALTH, INC.",
    "npi": null,
    "hcaiId": "406192448",
    "businessName": "AVICENNA HOME HEALTH, INC.",
    "contactEmail": "AVICENNA.HHC@GMAIL.COM",
    "categoryName": "HOME HEALTH AGENCY",
    "categoryCode": "HHA",
    "licenseStatus": "ACTIVE",
    "inService": true,
    "licenseNumber": "550005310",
    "licenseEffectiveDate": "03/01/2025",
    "licenseExpirationDate": "02/28/2026",
    "dataDate": "10/18/2025",
    "capacity": 0,
    "address": "17915 VENTURA BLVD, SUITE 222",
    "city": "ENCINO",
    "zip": "91316",
    "county": "LOS ANGELES",
    "phone": "(323) 559-7915",
    "lat": 34.164603,
    "lng": -118.52271
  },
  {
    "id": "630018221",
    "name": "BEAUTIFUL LIFE HOME HEALTH CARE, INC.",
    "npi": null,
    "hcaiId": "406183156",
    "businessName": "BEAUTIFUL LIFE HOME HEALTH CARE, INC.",
    "contactEmail": "BLIFEHH@YAHOO.COM",
    "categoryName": "HOME HEALTH AGENCY",
    "categoryCode": "HHA",
    "licenseStatus": "ACTIVE",
    "inService": true,
    "licenseNumber": "550006311",
    "licenseEffectiveDate": "05/19/2025",
    "licenseExpirationDate": "05/18/2026",
    "dataDate": "10/18/2025",
    "capacity": 0,
    "address": "17915 VENTURA BLVD, SUITE 206",
    "city": "ENCINO",
    "zip": "91316",
    "county": "LOS ANGELES",
    "phone": "(818) 578-5098",
    "lat": 34.164603,
    "lng": -118.52271
  },
  {
    "id": "630021222",
    "name": "BEST LEVEL HOSPICE, INC",
    "npi": null,
    "hcaiId": "406193436",
    "businessName": "BEST LEVEL HOSPICE, INC",
    "contactEmail": "BESTLEVELHOSPICE@YAHOO.COM",
    "categoryName": "HOSPICE",
    "categoryCode": "HOSPICE",
    "licenseStatus": "ACTIVE",
    "inService": true,
    "licenseNumber": "550006667",
    "licenseEffectiveDate": "08/12/2025",
    "licenseExpirationDate": "08/11/2027",
    "dataDate": "10/18/2025",
    "capacity": 0,
    "address": "17337 VENTURA BLVD, SUITE #303",
    "city": "ENCINO",
    "zip": "91316",
    "county": "LOS ANGELES",
    "phone": "(747) 208-9744",
    "lat": 34.16136999,
    "lng": -118.510777
  },
  {
    "id": "630018220",
    "name": "BEST LIFE HOME HEALTH CARE, INC.",
    "npi": null,
    "hcaiId": "406194728",
    "businessName": "BEST LIFE HOME HEALTH CARE, INC.",
    "contactEmail": "BESTLIFEHHC@GMAIL.COM",
    "categoryName": "HOME HEALTH AGENCY",
    "categoryCode": "HHA",
    "licenseStatus": "ACTIVE",
    "inService": true,
    "licenseNumber": "550006072",
    "licenseEffectiveDate": "02/27/2025",
    "licenseExpirationDate": "02/26/2026",
    "dataDate": "10/18/2025",
    "capacity": 0,
    "address": "17915 VENTURA BLVD, SUITE 212",
    "city": "ENCINO",
    "zip": "91316",
    "county": "LOS ANGELES",
    "phone": "(818) 600-8192",
    "lat": 34.164603,
    "lng": -118.52271
  },
  {
    "id": "630017067",
    "name": "BEVERLY HEALING HOME CARE, INC.",
    "npi": "1477003648",
    "hcaiId": "406190940",
    "businessName": "BEVERLY HEALING HOME CARE, INC.",
    "contactEmail": "BEVERLYHOMECAREINC@GMAIL.COM",
    "categoryName": "HOME HEALTH AGENCY",
    "categoryCode": "HHA",
    "licenseStatus": "ACTIVE",
    "inService": true,
    "licenseNumber": "550004241",
    "licenseEffectiveDate": "05/14/2025",
    "licenseExpirationDate": "05/13/2026",
    "dataDate": "10/18/2025",
    "capacity": 0,
    "address": "17929 VENTURA BLVD., SUITE #6, SUITE #6",
    "city": "ENCINO",
    "zip": "91316",
    "county": "LOS ANGELES",
    "phone": "(818) 478-7178",
    "lat": 34.164603,
    "lng": -118.52271
  },
  {
    "id": "630016007",
    "name": "BREEZE OF LIFE, INC.",
    "npi": null,
    "hcaiId": "406190228",
    "businessName": "BREEZE OF LIFE, INC.",
    "contactEmail": "BREEZEOFLIFEINC@GMAIL.COM",
    "categoryName": "HOSPICE",
    "categoryCode": "HOSPICE",
    "licenseStatus": "ACTIVE",
    "inService": true,
    "licenseNumber": "550003526",
    "licenseEffectiveDate": "11/14/2024",
    "licenseExpirationDate": "05/24/2026",
    "dataDate": "10/18/2025",
    "capacity": 0,
    "address": "17003 VENTURA BLVD, SUITE 206",
    "city": "ENCINO",
    "zip": "91316",
    "county": "LOS ANGELES",
    "phone": "(818) 396-5776",
    "lat": 34.15991106,
    "lng": -118.5036524
  },
  {
    "id": "630014965",
    "name": "CALIFORNIA HEALTHCARE MANAGEMENT GROUP, INC.",
    "npi": "1316368954",
    "hcaiId": "406198178",
    "businessName": "CALIFORNIA HEALTHCARE MANAGEMENT GROUP, INC.",
    "contactEmail": "CAHMGMT@GMAIL.COM",
    "categoryName": "HOME HEALTH AGENCY",
    "categoryCode": "HHA",
    "licenseStatus": "ACTIVE",
    "inService": true,
    "licenseNumber": "550003231",
    "licenseEffectiveDate": "08/25/2025",
    "licenseExpirationDate": "08/24/2026",
    "dataDate": "10/18/2025",
    "capacity": 0,
    "address": "17337 VENTURA BLVD, SUITE 202",
    "city": "ENCINO",
    "zip": "91316",
    "county": "LOS ANGELES",
    "phone": "(818) 783-4427",
    "lat": 34.16136999,
    "lng": -118.510777
  },
  {
    "id": "630025983",
    "name": "CAREUP HOME HEALTH INC",
    "npi": null,
    "hcaiId": "406190201",
    "businessName": "CAREUP HOME HEALTH INC",
    "contactEmail": "CAREUPHH@YAHOO.COM",
    "categoryName": "HOME HEALTH AGENCY",
    "categoryCode": "HHA",
    "licenseStatus": "ACTIVE",
    "inService": true,
    "licenseNumber": "550008940",
    "licenseEffectiveDate": "02/12/2025",
    "licenseExpirationDate": "02/11/2026",
    "dataDate": "10/18/2025",
    "capacity": 0,
    "address": "17547 VENTURA BLVD, SUITE 303B",
    "city": "ENCINO",
    "zip": "91316",
    "county": "LOS ANGELES",
    "phone": "(818) 722-3994",
    "lat": 34.162074,
    "lng": -118.5158205
  },
  {
    "id": "630015475",
    "name": "COLONIAL HOSPICE CARE, INC.",
    "npi": null,
    "hcaiId": "406190946",
    "businessName": "COLONIAL HOSPICE CARE, INC.",
    "contactEmail": "COLONIALHOSPICECARE@GMAIL.COM",
    "categoryName": "HOSPICE",
    "categoryCode": "HOSPICE",
    "licenseStatus": "ACTIVE",
    "inService": true,
    "licenseNumber": "550003425",
    "licenseEffectiveDate": "04/26/2024",
    "licenseExpirationDate": "02/22/2026",
    "dataDate": "10/18/2025",
    "capacity": 0,
    "address": "17525 VENTURA BLVD, SUITE # 105",
    "city": "ENCINO",
    "zip": "91316",
    "county": "LOS ANGELES",
    "phone": "(818) 861-7671",
    "lat": 34.161975,
    "lng": -118.515278
  },
  {
    "id": "630015363",
    "name": "COMFORT HOSPICE CARE",
    "npi": "1952717480",
    "hcaiId": "406191070",
    "businessName": "A-1 HOSPICE CARE CENTER 4 U, INC.",
    "contactEmail": "A1HOSPICECARE@GMAIL.COM",
    "categoryName": "HOSPICE",
    "categoryCode": "HOSPICE",
    "licenseStatus": "ACTIVE",
    "inService": true,
    "licenseNumber": "550003623",
    "licenseEffectiveDate": "07/21/2024",
    "licenseExpirationDate": "07/20/2026",
    "dataDate": "10/18/2025",
    "capacity": 0,
    "address": "6345 BALBOA BLVD, SUITE 168",
    "city": "ENCINO",
    "zip": "91316",
    "county": "LOS ANGELES",
    "phone": "(818) 296-8586",
    "lat": 34.186266,
    "lng": -118.5031845
  },
  {
    "id": "630021122",
    "name": "DEDICATED HOME HEALTH CARE, INC.",
    "npi": null,
    "hcaiId": "406195687",
    "businessName": "DEDICATED HOME HEALTH CARE, INC.",
    "contactEmail": "INFO@DEDICATEDHHCARE.COM",
    "categoryName": "HOME HEALTH AGENCY",
    "categoryCode": "HHA",
    "licenseStatus": "ACTIVE",
    "inService": true,
    "licenseNumber": "550006536",
    "licenseEffectiveDate": "07/09/2025",
    "licenseExpirationDate": "07/08/2026",
    "dataDate": "10/18/2025",
    "capacity": 0,
    "address": "17815 VENTURA BLVD, SUITE 211",
    "city": "ENCINO",
    "zip": "91316",
    "county": "LOS ANGELES",
    "phone": "(818) 654-6500",
    "lat": 34.16328,
    "lng": -118.5207705
  },
  {
    "id": "630018911",
    "name": "EISNER HEALTH OPTOMETRY AT ENCINO",
    "npi": null,
    "hcaiId": null,
    "businessName": null,
    "contactEmail": null,
    "categoryName": "PRIMARY CARE CLINIC",
    "categoryCode": "COMTYC",
    "licenseStatus": null,
    "inService": null,
    "licenseNumber": null,
    "licenseEffectiveDate": null,
    "licenseExpirationDate": null,
    "dataDate": "10/18/2025",
    "capacity": 0,
    "address": "5400 BALBOA BLVD, SUITE 131",
    "city": "ENCINO",
    "zip": "91316",
    "county": "LOS ANGELES",
    "phone": null,
    "lat": 34.16931,
    "lng": -118.500489
  },
  {
    "id": "630011669",
    "name": "ELEGANCE HEALTHCARE, INC.",
    "npi": "1396117982",
    "hcaiId": "406197368",
    "businessName": "ELEGANCE HEALTHCARE, INC.",
    "contactEmail": "ELEGANCEHEALTH@GMAIL.COM",
    "categoryName": "HOME HEALTH AGENCY",
    "categoryCode": "HHA",
    "licenseStatus": "ACTIVE",
    "inService": true,
    "licenseNumber": "550001220",
    "licenseEffectiveDate": "04/13/2025",
    "licenseExpirationDate": "04/12/2026",
    "dataDate": "10/18/2025",
    "capacity": 0,
    "address": "6345 BALBOA BLVD, SUITE 155",
    "city": "ENCINO",
    "zip": "91316",
    "county": "LOS ANGELES",
    "phone": "(818) 581-4700",
    "lat": 34.186266,
    "lng": -118.5031845
  },
  {
    "id": "630025341",
    "name": "ELIT HOME HEALTH CARE, INC.",
    "npi": null,
    "hcaiId": "406196563",
    "businessName": "ELIT HOME HEALTH CARE, INC.",
    "contactEmail": "ELITHHCI@GMAIL.COM",
    "categoryName": "HOME HEALTH AGENCY",
    "categoryCode": "HHA",
    "licenseStatus": "ACTIVE",
    "inService": true,
    "licenseNumber": "550008555",
    "licenseEffectiveDate": "07/09/2025",
    "licenseExpirationDate": "05/31/2026",
    "dataDate": "10/18/2025",
    "capacity": 0,
    "address": "17000 VENTURA BLVD, SUITE 206",
    "city": "ENCINO",
    "zip": "91316",
    "county": "LOS ANGELES",
    "phone": "(818) 616-1014",
    "lat": 34.15944199,
    "lng": -118.503538
  },
  {
    "id": "060001838",
    "name": "ENCINO ADULT DAY HEALTH CARE CENTER",
    "npi": null,
    "hcaiId": null,
    "businessName": "GALLA CORPORATION",
    "contactEmail": "ENCINOADHC@AOL.COM",
    "categoryName": "ADULT DAY HEALTH CARE",
    "categoryCode": "ADHC",
    "licenseStatus": "ACTIVE",
    "inService": true,
    "licenseNumber": "060000655",
    "licenseEffectiveDate": "12/22/2024",
    "licenseExpirationDate": "12/21/2025",
    "dataDate": "10/18/2025",
    "capacity": 0,
    "address": "17815 VENTURA BLVD",
    "city": "ENCINO",
    "zip": "91316",
    "county": "LOS ANGELES",
    "phone": "(818) 774-2173",
    "lat": 34.16328,
    "lng": -118.5207705
  },
  {
    "id": "630012270",
    "name": "ENCINO DERMASURGERY AMBULATORY CENTER",
    "npi": "1326182411",
    "hcaiId": null,
    "businessName": null,
    "contactEmail": null,
    "categoryName": "SURGICAL CLINIC",
    "categoryCode": "ASC",
    "licenseStatus": null,
    "inService": null,
    "licenseNumber": null,
    "licenseEffectiveDate": null,
    "licenseExpirationDate": null,
    "dataDate": "10/18/2025",
    "capacity": 0,
    "address": "5400 BALBOA BLVD, SUITE 220",
    "city": "ENCINO",
    "zip": "91316",
    "county": "LOS ANGELES",
    "phone": null,
    "lat": 34.16931,
    "lng": -118.500489
  },
  {
    "id": "630024526",
    "name": "ENCINO HOME, INC.",
    "npi": null,
    "hcaiId": "406195993",
    "businessName": "ENCINO HOME, INC.",
    "contactEmail": "ENCINOHOMEHHC@GMAIL.COM",
    "categoryName": "HOME HEALTH AGENCY",
    "categoryCode": "HHA",
    "licenseStatus": "ACTIVE",
    "inService": true,
    "licenseNumber": "550008325",
    "licenseEffectiveDate": "06/19/2023",
    "licenseExpirationDate": "12/18/2023",
    "dataDate": "10/18/2025",
    "capacity": 0,
    "address": "18075 VENTURA BLVD, SUITE 110",
    "city": "ENCINO",
    "zip": "91316",
    "county": "LOS ANGELES",
    "phone": "(818) 666-8039",
    "lat": 34.165431,
    "lng": -118.526598
  },
  {
    "id": "630020425",
    "name": "ENCINO VALLEY HOSPICE, INC",
    "npi": null,
    "hcaiId": "406197672",
    "businessName": "ENCINO VALLEY HOSPICE, INC",
    "contactEmail": "ENCINOVALLEYHOSPICEINC@GMAIL.COM",
    "categoryName": "HOSPICE",
    "categoryCode": "HOSPICE",
    "licenseStatus": "ACTIVE",
    "inService": true,
    "licenseNumber": "550006157",
    "licenseEffectiveDate": "03/12/2025",
    "licenseExpirationDate": "03/11/2027",
    "dataDate": "10/18/2025",
    "capacity": 0,
    "address": "18075 VENTURA BLVD, SUITE 227",
    "city": "ENCINO",
    "zip": "91316",
    "county": "LOS ANGELES",
    "phone": "(818) 857-5123",
    "lat": 34.165431,
    "lng": -118.526598
  },
  {
    "id": "630025978",
    "name": "FAIR CHOICE HEALTHCARE",
    "npi": null,
    "hcaiId": "406190336",
    "businessName": "FAIR CHOICE HEALTHCARE",
    "contactEmail": "FAIRCHOICEHC@GMAIL.COM",
    "categoryName": "HOME HEALTH AGENCY",
    "categoryCode": "HHA",
    "licenseStatus": "ACTIVE",
    "inService": true,
    "licenseNumber": "550009078",
    "licenseEffectiveDate": "04/22/2025",
    "licenseExpirationDate": "04/21/2026",
    "dataDate": "10/18/2025",
    "capacity": 0,
    "address": "17779 VENTURA BLVD, SUITE 203",
    "city": "ENCINO",
    "zip": "91316",
    "county": "LOS ANGELES",
    "phone": "(818) 945-6432",
    "lat": 34.163073,
    "lng": -118.5198165
  },
  {
    "id": "630012621",
    "name": "FAITH & HOPE HOME HEALTH, INC.",
    "npi": "1174854772",
    "hcaiId": "406197505",
    "businessName": "FAITH & HOPE HOME HEALTH, INC.",
    "contactEmail": "FHHHEALTH@GMAIL.COM",
    "categoryName": "HOME HEALTH AGENCY",
    "categoryCode": "HHA",
    "licenseStatus": "ACTIVE",
    "inService": true,
    "licenseNumber": "550001460",
    "licenseEffectiveDate": "11/12/2024",
    "licenseExpirationDate": "11/11/2025",
    "dataDate": "10/18/2025",
    "capacity": 0,
    "address": "5435 BALBOA BLVD, SUITE 110",
    "city": "ENCINO",
    "zip": "91316",
    "county": "LOS ANGELES",
    "phone": "(818) 920-8482",
    "lat": 34.170048,
    "lng": -118.501911
  },
  {
    "id": "630025285",
    "name": "FIRST MED HOME HEALTH CARE, INC.",
    "npi": null,
    "hcaiId": "406198133",
    "businessName": "FIRST MED HOME HEALTH CARE, INC.",
    "contactEmail": "FIRSTMEDHOMEHEALTHCARE@GMAIL.COM",
    "categoryName": "HOME HEALTH AGENCY",
    "categoryCode": "HHA",
    "licenseStatus": "ACTIVE",
    "inService": true,
    "licenseNumber": "550008762",
    "licenseEffectiveDate": "09/20/2025",
    "licenseExpirationDate": "09/19/2026",
    "dataDate": "10/18/2025",
    "capacity": 0,
    "address": "17941 VENTURA BLVD, SUITE 209",
    "city": "ENCINO",
    "zip": "91316",
    "county": "LOS ANGELES",
    "phone": "(818) 588-4940",
    "lat": 34.16427,
    "lng": -118.5233175
  },
  {
    "id": "630023454",
    "name": "GLENBURB HOME HEALTH INC.",
    "npi": null,
    "hcaiId": "406195504",
    "businessName": "GLENBURB HOME HEALTH INC.",
    "contactEmail": "GLENBURBHOME@GMAIL.COM",
    "categoryName": "HOME HEALTH AGENCY",
    "categoryCode": "HHA",
    "licenseStatus": "ACTIVE",
    "inService": true,
    "licenseNumber": "550008125",
    "licenseEffectiveDate": "08/18/2025",
    "licenseExpirationDate": "08/17/2026",
    "dataDate": "10/18/2025",
    "capacity": 0,
    "address": "17000 VENTURA BLVD, SUITE 207",
    "city": "ENCINO",
    "zip": "91316",
    "county": "LOS ANGELES",
    "phone": "(818) 616-9800",
    "lat": 34.15944199,
    "lng": -118.503538
  },
  {
    "id": "630027157",
    "name": "GREAT HOME HEALTH CARE INC",
    "npi": null,
    "hcaiId": null,
    "businessName": "GREAT HOME HEALTH CARE INC",
    "contactEmail": null,
    "categoryName": "HOME HEALTH AGENCY",
    "categoryCode": "HHA",
    "licenseStatus": "ACTIVE",
    "inService": true,
    "licenseNumber": "550009506",
    "licenseEffectiveDate": "11/06/2025",
    "licenseExpirationDate": "11/05/2026",
    "dataDate": "10/18/2025",
    "capacity": 0,
    "address": "17141 VENTURA BLVD, SUITE 208",
    "city": "ENCINO",
    "zip": "91316",
    "county": "LOS ANGELES",
    "phone": "(818) 387-8964",
    "lat": 34.16094901,
    "lng": -118.506868
  },
  {
    "id": "630025672",
    "name": "HUMAN CONNECTION HEALTHCARE",
    "npi": null,
    "hcaiId": null,
    "businessName": "HUMAN CONNECTION HEALTHCARE",
    "contactEmail": "HUMANCHHC@GMAIL.COM",
    "categoryName": "HOME HEALTH AGENCY",
    "categoryCode": "HHA",
    "licenseStatus": "ACTIVE",
    "inService": true,
    "licenseNumber": "550008672",
    "licenseEffectiveDate": "01/11/2024",
    "licenseExpirationDate": "07/10/2024",
    "dataDate": "10/18/2025",
    "capacity": 0,
    "address": "5535 BALBOA BLVD, SUITE 204A",
    "city": "ENCINO",
    "zip": "91316",
    "county": "LOS ANGELES",
    "phone": "(818) 945-8258",
    "lat": 34.171191,
    "lng": -118.50129
  },
  {
    "id": "630013395",
    "name": "IN GREAT HANDS, INC.",
    "npi": null,
    "hcaiId": "406198024",
    "businessName": "IN GREAT HANDS, INC.",
    "contactEmail": "INGREATHANDSINC@GMAIL.COM",
    "categoryName": "HOSPICE",
    "categoryCode": "HOSPICE",
    "licenseStatus": "ACTIVE",
    "inService": true,
    "licenseNumber": "550002242",
    "licenseEffectiveDate": "04/02/2025",
    "licenseExpirationDate": "04/01/2027",
    "dataDate": "10/18/2025",
    "capacity": 0,
    "address": "5435 BALBOA BLVD, SUITE 115",
    "city": "ENCINO",
    "zip": "91316",
    "county": "LOS ANGELES",
    "phone": "(818) 521-1418",
    "lat": 34.170048,
    "lng": -118.501911
  },
  {
    "id": "630019413",
    "name": "LIFE HOME HEALTH SERVICES INC",
    "npi": null,
    "hcaiId": "406195334",
    "businessName": "LIFE HOME HEALTH SERVICES INC",
    "contactEmail": "ALEXK@LIFEHOMEHEALTHSERVICES.COM",
    "categoryName": "HOME HEALTH AGENCY",
    "categoryCode": "HHA",
    "licenseStatus": "ACTIVE",
    "inService": true,
    "licenseNumber": "550005957",
    "licenseEffectiveDate": "12/29/2022",
    "licenseExpirationDate": "12/28/2023",
    "dataDate": "10/18/2025",
    "capacity": 0,
    "address": "17337 VENTURA BLVD, SUITE 304",
    "city": "ENCINO",
    "zip": "91316",
    "county": "LOS ANGELES",
    "phone": "(747) 233-1116",
    "lat": 34.161174,
    "lng": -118.5107445
  },
  {
    "id": "630014986",
    "name": "LIFE TREE HOSPICE, INC.",
    "npi": "1790103695",
    "hcaiId": "406191499",
    "businessName": "LIFE TREE HOSPICE, INC.",
    "contactEmail": "TARON@MACGROUPANDASSOCIATES.COM",
    "categoryName": "HOSPICE",
    "categoryCode": "HOSPICE",
    "licenseStatus": "ACTIVE",
    "inService": true,
    "licenseNumber": "550003164",
    "licenseEffectiveDate": "06/04/2025",
    "licenseExpirationDate": "06/03/2027",
    "dataDate": "10/18/2025",
    "capacity": 0,
    "address": "17779 VENTURA BLVD, SUITE 202",
    "city": "ENCINO",
    "zip": "91316",
    "county": "LOS ANGELES",
    "phone": "(818) 271-9299",
    "lat": 34.163073,
    "lng": -118.5198165
  },
  {
    "id": "630015259",
    "name": "LM HOME HEALTH CARE SERVICES, INC.",
    "npi": "1902218910",
    "hcaiId": "406198226",
    "businessName": "LM HOME HEALTH CARE SERVICES, INC.",
    "contactEmail": "LMAL7@YAHOO.COM",
    "categoryName": "HOME HEALTH AGENCY",
    "categoryCode": "HHA",
    "licenseStatus": "ACTIVE",
    "inService": true,
    "licenseNumber": "550003486",
    "licenseEffectiveDate": "04/05/2025",
    "licenseExpirationDate": "04/04/2026",
    "dataDate": "10/18/2025",
    "capacity": 0,
    "address": "17777 VENTURA BLVD, SUITE 240",
    "city": "ENCINO",
    "zip": "91316",
    "county": "LOS ANGELES",
    "phone": "(818) 669-6026",
    "lat": 34.163037,
    "lng": -118.5199335
  },
  {
    "id": "630022271",
    "name": "LOVA HOSPICE INC",
    "npi": null,
    "hcaiId": "406195746",
    "businessName": "LOVA HOSPICE INC",
    "contactEmail": "LOVAHOSPICE@GMAIL.COM",
    "categoryName": "HOSPICE",
    "categoryCode": "HOSPICE",
    "licenseStatus": "ACTIVE",
    "inService": true,
    "licenseNumber": "550007726",
    "licenseEffectiveDate": "04/22/2025",
    "licenseExpirationDate": "12/07/2025",
    "dataDate": "10/18/2025",
    "capacity": 0,
    "address": "18075 VENTURA BLVD, SUITE 124",
    "city": "ENCINO",
    "zip": "91316",
    "county": "LOS ANGELES",
    "phone": "(888) 407-7552",
    "lat": 34.165607,
    "lng": -118.526558
  },
  {
    "id": "630024896",
    "name": "MAJOR CARE HOME HEALTH, INC.",
    "npi": null,
    "hcaiId": "406197700",
    "businessName": "MAJOR CARE HOME HEALTH, INC.",
    "contactEmail": "MAJORCAREHH@GMAIL.COM",
    "categoryName": "HOME HEALTH AGENCY",
    "categoryCode": "HHA",
    "licenseStatus": "ACTIVE",
    "inService": true,
    "licenseNumber": "550008266",
    "licenseEffectiveDate": "11/23/2025",
    "licenseExpirationDate": "11/22/2026",
    "dataDate": "10/18/2025",
    "capacity": 0,
    "address": "17915 VENTURA BLVD, SUITE 226",
    "city": "ENCINO",
    "zip": "91316",
    "county": "LOS ANGELES",
    "phone": "(818) 553-3330",
    "lat": 34.164603,
    "lng": -118.52271
  },
  {
    "id": "630012404",
    "name": "MATRIX HOME HEALTH",
    "npi": null,
    "hcaiId": "406197408",
    "businessName": "MATRIX HEALTH PROMOTION",
    "contactEmail": "MIMI_HAKAMI@YAHOO.COM",
    "categoryName": "HOME HEALTH AGENCY",
    "categoryCode": "HHA",
    "licenseStatus": "ACTIVE",
    "inService": true,
    "licenseNumber": "550001303",
    "licenseEffectiveDate": "06/16/2025",
    "licenseExpirationDate": "06/15/2026",
    "dataDate": "10/18/2025",
    "capacity": 0,
    "address": "17141 VENTURA BLVD, SUITE 204",
    "city": "ENCINO",
    "zip": "91316",
    "county": "LOS ANGELES",
    "phone": "(818) 343-7800",
    "lat": 34.160607,
    "lng": -118.5068115
  },
  {
    "id": "630014462",
    "name": "MATRIX HOSPICE INC.",
    "npi": null,
    "hcaiId": "406198014",
    "businessName": "MATRIX HOSPICE INC.",
    "contactEmail": "MIMI_HAKAMI@YAHOO.COM",
    "categoryName": "HOSPICE",
    "categoryCode": "HOSPICE",
    "licenseStatus": "ACTIVE",
    "inService": true,
    "licenseNumber": "550002774",
    "licenseEffectiveDate": "07/11/2024",
    "licenseExpirationDate": "07/10/2026",
    "dataDate": "10/18/2025",
    "capacity": 0,
    "address": "17141 VENTURA BLVD, SUITE 205",
    "city": "ENCINO",
    "zip": "91316",
    "county": "LOS ANGELES",
    "phone": "(310) 997-2549",
    "lat": 34.160607,
    "lng": -118.5068115
  },
  {
    "id": "630020941",
    "name": "MEDISTAR HOSPICE",
    "npi": null,
    "hcaiId": "406195145",
    "businessName": "MEDISTAR HOSPICE",
    "contactEmail": "MEDISTARHOSPICE@GMAIL.COM",
    "categoryName": "HOSPICE",
    "categoryCode": "HOSPICE",
    "licenseStatus": "ACTIVE",
    "inService": true,
    "licenseNumber": "550007082",
    "licenseEffectiveDate": "10/13/2025",
    "licenseExpirationDate": "10/12/2027",
    "dataDate": "10/18/2025",
    "capacity": 0,
    "address": "17547 VENTURA BLVD, SUITE 205",
    "city": "ENCINO",
    "zip": "91316",
    "county": "LOS ANGELES",
    "phone": "(818) 635-3501",
    "lat": 34.162074,
    "lng": -118.5158205
  },
  {
    "id": "630019150",
    "name": "MEDLIGHT HOME HEALTH CARE INC.",
    "npi": null,
    "hcaiId": "406192806",
    "businessName": "MEDLIGHT HOME HEALTH CARE INC.",
    "contactEmail": "MEDLIGHTHOMECARE@YAHOO.COM",
    "categoryName": "HOME HEALTH AGENCY",
    "categoryCode": "HHA",
    "licenseStatus": "ACTIVE",
    "inService": true,
    "licenseNumber": "550005693",
    "licenseEffectiveDate": "07/03/2023",
    "licenseExpirationDate": "07/02/2024",
    "dataDate": "10/18/2025",
    "capacity": 0,
    "address": "17327 VENTURA BLVD, SUITE 310",
    "city": "ENCINO",
    "zip": "91316",
    "county": "LOS ANGELES",
    "phone": "(747) 212-1117",
    "lat": 34.161363,
    "lng": -118.5107805
  },
  {
    "id": "630021546",
    "name": "NARINAS HOSPICE SERVICES",
    "npi": null,
    "hcaiId": "406193375",
    "businessName": "NARINAS HOSPICE SERVICES",
    "contactEmail": "NARINASHOSPICESERVICES@GMAIL.COM",
    "categoryName": "HOSPICE",
    "categoryCode": "HOSPICE",
    "licenseStatus": "ACTIVE",
    "inService": true,
    "licenseNumber": "550006971",
    "licenseEffectiveDate": "09/23/2025",
    "licenseExpirationDate": "10/07/2025",
    "dataDate": "10/18/2025",
    "capacity": 0,
    "address": "17000 VENTURA BLVD, SUITE 200A",
    "city": "ENCINO",
    "zip": "91316",
    "county": "LOS ANGELES",
    "phone": "(424) 666-9889",
    "lat": 34.1597237,
    "lng": -118.5033647
  },
  {
    "id": "630021947",
    "name": "NU CARE HOME HEALTH, INC.",
    "npi": null,
    "hcaiId": "406195771",
    "businessName": "NU CARE HOME HEALTH, INC.",
    "contactEmail": "ADMIN@NUCAREHH.COM",
    "categoryName": "HOME HEALTH AGENCY",
    "categoryCode": "HHA",
    "licenseStatus": "ACTIVE",
    "inService": true,
    "licenseNumber": "550007796",
    "licenseEffectiveDate": "01/21/2025",
    "licenseExpirationDate": "01/20/2026",
    "dataDate": "10/18/2025",
    "capacity": 0,
    "address": "5435 BALBOA BLVD, SUITE 206",
    "city": "ENCINO",
    "zip": "91316",
    "county": "LOS ANGELES",
    "phone": "(909) 289-5047",
    "lat": 34.170048,
    "lng": -118.501911
  },
  {
    "id": "630024622",
    "name": "ONE STOP HOME HEALTH CARE, INC.",
    "npi": null,
    "hcaiId": "406197556",
    "businessName": "ONE STOP HOME HEALTH CARE, INC.",
    "contactEmail": "ONESTOPHOMEHEALTHINC@GMAIL.COM",
    "categoryName": "HOME HEALTH AGENCY",
    "categoryCode": "HHA",
    "licenseStatus": "ACTIVE",
    "inService": true,
    "licenseNumber": "550008740",
    "licenseEffectiveDate": "03/22/2024",
    "licenseExpirationDate": "09/21/2024",
    "dataDate": "10/18/2025",
    "capacity": 0,
    "address": "17000 VENTURA BLVD, SUITE 208",
    "city": "ENCINO",
    "zip": "91316",
    "county": "LOS ANGELES",
    "phone": "(747) 264-1800",
    "lat": 34.15959,
    "lng": -118.503549
  },
  {
    "id": "980002454",
    "name": "PACIFIC HOSPICE CARE CORPORATION",
    "npi": null,
    "hcaiId": "406196985",
    "businessName": "PACIFIC HOSPICE CARE CORPORATION",
    "contactEmail": "PHC.INC01@GMAIL.COM",
    "categoryName": "HOSPICE",
    "categoryCode": "HOSPICE",
    "licenseStatus": "ACTIVE",
    "inService": true,
    "licenseNumber": "980001560",
    "licenseEffectiveDate": "06/04/2023",
    "licenseExpirationDate": "06/03/2025",
    "dataDate": "10/18/2025",
    "capacity": 0,
    "address": "17141 VENTURA BLVD, SUITE 201",
    "city": "ENCINO",
    "zip": "91316",
    "county": "LOS ANGELES",
    "phone": "(213) 382-3835",
    "lat": 34.160607,
    "lng": -118.5068115
  },
  {
    "id": "630021503",
    "name": "PERSONAL TOUCH HOSPICE CARE, INC",
    "npi": null,
    "hcaiId": "406193492",
    "businessName": "PERSONAL TOUCH HOSPICE CARE, INC",
    "contactEmail": "PERSONALTOUCHHOSPICECAREINC@GMAIL.COM",
    "categoryName": "HOSPICE",
    "categoryCode": "HOSPICE",
    "licenseStatus": "ACTIVE",
    "inService": true,
    "licenseNumber": "550006705",
    "licenseEffectiveDate": "08/20/2025",
    "licenseExpirationDate": "08/19/2027",
    "dataDate": "10/18/2025",
    "capacity": 0,
    "address": "17547 VENTURA BLVD, SUITE 302A",
    "city": "ENCINO",
    "zip": "91316",
    "county": "LOS ANGELES",
    "phone": "(747) 200-9785",
    "lat": 34.162068,
    "lng": -118.515684
  },
  {
    "id": "630027078",
    "name": "PRIME SURGICAL CENTER OF ENCINO",
    "npi": null,
    "hcaiId": null,
    "businessName": null,
    "contactEmail": null,
    "categoryName": "SURGICAL CLINIC",
    "categoryCode": "ASC",
    "licenseStatus": null,
    "inService": null,
    "licenseNumber": null,
    "licenseEffectiveDate": null,
    "licenseExpirationDate": null,
    "dataDate": "10/18/2025",
    "capacity": 0,
    "address": "5353 BALBOA BLVD, SUITE 300",
    "city": "ENCINO",
    "zip": "91316",
    "county": "LOS ANGELES",
    "phone": null,
    "lat": 34.16906399,
    "lng": -118.502077
  },
  {
    "id": "630018188",
    "name": "RECOVER HOME HEALTH",
    "npi": null,
    "hcaiId": "406191785",
    "businessName": "RECOVER HOME HEALTH",
    "contactEmail": "RECOVERHH@GMAIL.COM",
    "categoryName": "HOME HEALTH AGENCY",
    "categoryCode": "HHA",
    "licenseStatus": "ACTIVE",
    "inService": true,
    "licenseNumber": "550004914",
    "licenseEffectiveDate": "09/09/2025",
    "licenseExpirationDate": "09/08/2026",
    "dataDate": "10/18/2025",
    "capacity": 0,
    "address": "17547 VENTURA BLVD, SUITE 202",
    "city": "ENCINO",
    "zip": "91316",
    "county": "LOS ANGELES",
    "phone": "(818) 358-8833",
    "lat": 34.162068,
    "lng": -118.515684
  },
  {
    "id": "630027608",
    "name": "ROPHE HEALTHCARE INC",
    "npi": null,
    "hcaiId": null,
    "businessName": "ROPHE HEALTHCARE INC",
    "contactEmail": "NELLY_CLARE@YAHOO.COM",
    "categoryName": "HOME HEALTH AGENCY",
    "categoryCode": "HHA",
    "licenseStatus": "ACTIVE",
    "inService": true,
    "licenseNumber": "550009700",
    "licenseEffectiveDate": "09/14/2025",
    "licenseExpirationDate": "03/13/2026",
    "dataDate": "10/18/2025",
    "capacity": 0,
    "address": "17337 VENTURA BLVD, SUITE 106",
    "city": "ENCINO",
    "zip": "91316",
    "county": "LOS ANGELES",
    "phone": "(818) 942-4603",
    "lat": 34.16136999,
    "lng": -118.510777
  },
  {
    "id": "630024246",
    "name": "SKILLED SERVICES HOME HEALTH",
    "npi": null,
    "hcaiId": "406197669",
    "businessName": "SKILLED SERVICES HOME HEALTH",
    "contactEmail": "SKILLEDSERVICESHOMEHEALTH@GMAIL.COM",
    "categoryName": "HOME HEALTH AGENCY",
    "categoryCode": "HHA",
    "licenseStatus": "ACTIVE",
    "inService": true,
    "licenseNumber": "550008230",
    "licenseEffectiveDate": "11/15/2024",
    "licenseExpirationDate": "11/14/2025",
    "dataDate": "10/18/2025",
    "capacity": 0,
    "address": "17200 VENTURA BLVD, SUITE #128",
    "city": "ENCINO",
    "zip": "91316",
    "county": "LOS ANGELES",
    "phone": "(818) 967-0386",
    "lat": 34.160346,
    "lng": -118.5076935
  },
  {
    "id": "980002478",
    "name": "SKIRBALL HOSPICE",
    "npi": null,
    "hcaiId": "406196964",
    "businessName": "JHA GERIATRIC SERVICES, INC.",
    "contactEmail": "ZOYA.VLADIMIRSKAYA@JHA.ORG",
    "categoryName": "HOSPICE",
    "categoryCode": "HOSPICE",
    "licenseStatus": "ACTIVE",
    "inService": true,
    "licenseNumber": "980001583",
    "licenseEffectiveDate": "06/21/2025",
    "licenseExpirationDate": "06/20/2027",
    "dataDate": "10/18/2025",
    "capacity": 0,
    "address": "6345 BALBOA BLVD, SUITE 315",
    "city": "ENCINO",
    "zip": "91316",
    "county": "LOS ANGELES",
    "phone": "(818) 774-3040",
    "lat": 34.186266,
    "lng": -118.5031845
  },
  {
    "id": "930001389",
    "name": "SOUTH VALLEY DIALYSIS",
    "npi": "1386843878",
    "hcaiId": "306194545",
    "businessName": "TOTAL RENAL CARE, INC.",
    "contactEmail": "CAL_C@DAVITA.COM",
    "categoryName": "CHRONIC DIALYSIS CLINIC",
    "categoryCode": "ESRD/CDC",
    "licenseStatus": "ACTIVE",
    "inService": true,
    "licenseNumber": "930000784",
    "licenseEffectiveDate": "11/01/2025",
    "licenseExpirationDate": "10/31/2026",
    "dataDate": "10/18/2025",
    "capacity": 25,
    "address": "17815 VENTURA BLVD, SUITE 100",
    "city": "ENCINO",
    "zip": "91316",
    "county": "LOS ANGELES",
    "phone": "(818) 757-4520",
    "lat": 34.16328,
    "lng": -118.5207705
  },
  {
    "id": "630027733",
    "name": "SOUTHERN CALIFORNIA STONE CENTER",
    "npi": null,
    "hcaiId": null,
    "businessName": null,
    "contactEmail": "CEO_LLAVANES@SANTEHEALTHPARTNERS.COM",
    "categoryName": "SURGICAL CLINIC",
    "categoryCode": "ASC",
    "licenseStatus": null,
    "inService": null,
    "licenseNumber": null,
    "licenseEffectiveDate": null,
    "licenseExpirationDate": null,
    "dataDate": "10/18/2025",
    "capacity": 0,
    "address": "5400 BALBOA BLVD, SUITE 111",
    "city": "ENCINO",
    "zip": "91316",
    "county": "LOS ANGELES",
    "phone": "(818) 453-2986",
    "lat": 34.16928599,
    "lng": -118.500521
  },
  {
    "id": "630026032",
    "name": "SUNNY DAY HOME HEALTH INC",
    "npi": null,
    "hcaiId": null,
    "businessName": "SUNNY DAY HOME HEALTH INC.",
    "contactEmail": "SUNNYDAYHH99@GMAIL.COM",
    "categoryName": "HOME HEALTH AGENCY",
    "categoryCode": "HHA",
    "licenseStatus": "ACTIVE",
    "inService": true,
    "licenseNumber": "550009127",
    "licenseEffectiveDate": "05/10/2025",
    "licenseExpirationDate": "05/09/2026",
    "dataDate": "10/18/2025",
    "capacity": 0,
    "address": "17547 VENTURA BLVD, SUITE 303",
    "city": "ENCINO",
    "zip": "91316",
    "county": "LOS ANGELES",
    "phone": "(747) 977-6520",
    "lat": 34.162074,
    "lng": -118.5158205
  },
  {
    "id": "630007661",
    "name": "SUPPORTIVE HOME HEALTH CARE CORPORATION",
    "npi": null,
    "hcaiId": "406196973",
    "businessName": "SUPPORTIVE HOME HEALTH CARE CORPORATION",
    "contactEmail": "SUPORTIVEHC@SBCGLOBAL.NET",
    "categoryName": "HOME HEALTH AGENCY",
    "categoryCode": "HHA",
    "licenseStatus": "ACTIVE",
    "inService": true,
    "licenseNumber": "550000390",
    "licenseEffectiveDate": "12/21/2024",
    "licenseExpirationDate": "12/20/2025",
    "dataDate": "10/18/2025",
    "capacity": 0,
    "address": "17141 VENTURA BLVD, SUITE 206",
    "city": "ENCINO",
    "zip": "91316",
    "county": "LOS ANGELES",
    "phone": "(213) 383-1188",
    "lat": 34.160607,
    "lng": -118.5068115
  },
  {
    "id": "630021380",
    "name": "THOUGHTFUL HOME HEALTH, INC.",
    "npi": null,
    "hcaiId": "406193350",
    "businessName": "THOUGHTFUL HOME HEALTH, INC.",
    "contactEmail": "THOUGHTFULHH@GMAIL.COM",
    "categoryName": "HOME HEALTH AGENCY",
    "categoryCode": "HHA",
    "licenseStatus": "ACTIVE",
    "inService": true,
    "licenseNumber": "550006943",
    "licenseEffectiveDate": "10/11/2025",
    "licenseExpirationDate": "10/10/2026",
    "dataDate": "10/18/2025",
    "capacity": 0,
    "address": "17000 VENTURA BLVD, SUITE 209",
    "city": "ENCINO",
    "zip": "91316",
    "county": "LOS ANGELES",
    "phone": "(818) 650-8099",
    "lat": 34.15944199,
    "lng": -118.503538
  },
  {
    "id": "630019037",
    "name": "TRICARE HOME HEALTH, LLC",
    "npi": null,
    "hcaiId": "406195916",
    "businessName": "TRICARE HOME HEALTH, LLC",
    "contactEmail": "TRICAREHHLLC@GMAIL.COM",
    "categoryName": "HOME HEALTH AGENCY",
    "categoryCode": "HHA",
    "licenseStatus": "ACTIVE",
    "inService": true,
    "licenseNumber": "550006017",
    "licenseEffectiveDate": "02/09/2025",
    "licenseExpirationDate": "02/08/2026",
    "dataDate": "10/18/2025",
    "capacity": 0,
    "address": "17915 VENTURA BLVD, SUITE 204",
    "city": "ENCINO",
    "zip": "91316",
    "county": "LOS ANGELES",
    "phone": "(818) 600-8978",
    "lat": 34.164603,
    "lng": -118.52271
  },
  {
    "id": "630015180",
    "name": "VALLEY HILLS HOME HEALTH CARE, INC.",
    "npi": "1659790939",
    "hcaiId": "406198241",
    "businessName": "VALLEY HILLS HOME HEALTH CARE, INC.",
    "contactEmail": "VALLEYHILLSHHC@GMAIL.COM",
    "categoryName": "HOME HEALTH AGENCY",
    "categoryCode": "HHA",
    "licenseStatus": "ACTIVE",
    "inService": true,
    "licenseNumber": "550003242",
    "licenseEffectiveDate": "09/24/2025",
    "licenseExpirationDate": "09/23/2026",
    "dataDate": "10/18/2025",
    "capacity": 0,
    "address": "17915 VENTURA BLVD, SUITE 220",
    "city": "ENCINO",
    "zip": "91316",
    "county": "LOS ANGELES",
    "phone": "(818) 938-9175",
    "lat": 34.164603,
    "lng": -118.52271
  },
  {
    "id": "630015750",
    "name": "VEROMA HOME HEALTH, INC.",
    "npi": "1760886196",
    "hcaiId": "406564288",
    "businessName": "VEROMA HOME HEALTH, INC.",
    "contactEmail": "VEROMAHH@GMAIL.COM",
    "categoryName": "HOME HEALTH AGENCY",
    "categoryCode": "HHA",
    "licenseStatus": "ACTIVE",
    "inService": true,
    "licenseNumber": "550003645",
    "licenseEffectiveDate": "07/11/2025",
    "licenseExpirationDate": "07/10/2026",
    "dataDate": "10/18/2025",
    "capacity": 0,
    "address": "17915 VENTURA BLVD, SUITE 210",
    "city": "ENCINO",
    "zip": "91316",
    "county": "LOS ANGELES",
    "phone": "(818) 457-4453",
    "lat": 34.164603,
    "lng": -118.52271
  },
  {
    "id": "630019858",
    "name": "VIVO HOSPICE, INC.",
    "npi": "1841822145",
    "hcaiId": "406196038",
    "businessName": "VIVO HOSPICE, INC.",
    "contactEmail": "VIVOHOSPICE@GMAIL.COM",
    "categoryName": "HOSPICE",
    "categoryCode": "HOSPICE",
    "licenseStatus": "ACTIVE",
    "inService": true,
    "licenseNumber": "550005914",
    "licenseEffectiveDate": "11/29/2024",
    "licenseExpirationDate": "11/28/2026",
    "dataDate": "10/18/2025",
    "capacity": 0,
    "address": "5535 BALBOA BLVD, SUITE 104",
    "city": "ENCINO",
    "zip": "91316",
    "county": "LOS ANGELES",
    "phone": "(424) 672-2626",
    "lat": 34.17162999,
    "lng": -118.501409
  },
  {
    "id": "630015506",
    "name": "WEST VALLEY HOME HEALTH CARE, INC.",
    "npi": "1518376409",
    "hcaiId": "406198183",
    "businessName": "WEST VALLEY HOME HEALTH CARE, INC.",
    "contactEmail": "WESTVALLEYHH@YAHOO.COM",
    "categoryName": "HOME HEALTH AGENCY",
    "categoryCode": "HHA",
    "licenseStatus": "ACTIVE",
    "inService": true,
    "licenseNumber": "550003362",
    "licenseEffectiveDate": "01/04/2025",
    "licenseExpirationDate": "01/03/2026",
    "dataDate": "10/18/2025",
    "capacity": 0,
    "address": "17915 VENTURA BLVD., SUITE 200",
    "city": "ENCINO",
    "zip": "91316",
    "county": "LOS ANGELES",
    "phone": "(818) 344-9844",
    "lat": 34.164603,
    "lng": -118.52271
  },
  {
    "id": "630019344",
    "name": "WHITE OAK HOSPICE",
    "npi": null,
    "hcaiId": "406194812",
    "businessName": "WHITE OAK HOSPICE",
    "contactEmail": "WTHOSPICECARE@GMAIL.COM",
    "categoryName": "HOSPICE",
    "categoryCode": "HOSPICE",
    "licenseStatus": "ACTIVE",
    "inService": true,
    "licenseNumber": "550005912",
    "licenseEffectiveDate": "12/11/2024",
    "licenseExpirationDate": "12/10/2026",
    "dataDate": "10/18/2025",
    "capacity": 0,
    "address": "17547 VENTURA BLVD, SUITE 107A",
    "city": "ENCINO",
    "zip": "91316",
    "county": "LOS ANGELES",
    "phone": "(818) 877-7545",
    "lat": 34.162074,
    "lng": -118.5158205
  },
  {
    "id": "630020944",
    "name": "ZIVA HOME HEALTH CARE, INC.",
    "npi": null,
    "hcaiId": "406195636",
    "businessName": "ZIVA HOME HEALTH CARE, INC.",
    "contactEmail": "ADMINISTRATOR@ZIVAHOMEHEALTH.COM",
    "categoryName": "HOME HEALTH AGENCY",
    "categoryCode": "HHA",
    "licenseStatus": "ACTIVE",
    "inService": true,
    "licenseNumber": "550008180",
    "licenseEffectiveDate": "04/05/2023",
    "licenseExpirationDate": "10/04/2023",
    "dataDate": "10/18/2025",
    "capacity": 0,
    "address": "17929 VENTURA BLVD, SUITE 7",
    "city": "ENCINO",
    "zip": "91316",
    "county": "LOS ANGELES",
    "phone": "(818) 839-8039",
    "lat": 34.164603,
    "lng": -118.52271
  }
]