[
  {
    "id": "630021030",
    "name": "7 ANGELES HOSPICE, INC",
    "npi": null,
    "hcaiId": "406194656",
    "businessName": "7 ANGELS HOSPICE, INC",
    "contactEmail": "7ANGELSHOSPICE@GMAIL.COM",
    "categoryName": "HOSPICE",
    "categoryCode": "HOSPICE",
    "licenseStatus": "ACTIVE",
    "inService": true,
    "licenseNumber": "550007256",
    "licenseEffectiveDate": "06/06/2025",
    "licenseExpirationDate": "11/18/2025",
    "dataDate": "10/18/2025",
    "capacity": 0,
    "address": "9221 CORBIN AVE, SUITE 215",
    "city": "NORTHRIDGE",
    "zip": "91324",
    "county": "LOS ANGELES",
    "phone": "(747) 247-3318",
    "lat": 34.23785599,
    "lng": -118.5629288
  },
  {
    "id": "630019207",
    "name": "7 DAYS HOSPICE CARE",
    "npi": "1255992707",
    "hcaiId": "406192015",
    "businessName": "7 DAYS HOSPICE CARE",
    "contactEmail": "SEVENDAYSHC@YAHOO.COM",
    "categoryName": "HOSPICE",
    "categoryCode": "HOSPICE",
    "licenseStatus": "ACTIVE",
    "inService": true,
    "licenseNumber": "550005017",
    "licenseEffectiveDate": "10/23/2021",
    "licenseExpirationDate": "10/22/2023",
    "dataDate": "10/18/2025",
    "capacity": 0,
    "address": "9017 RESEDA BLVD, SUITE 203",
    "city": "NORTHRIDGE",
    "zip": "91324",
    "county": "LOS ANGELES",
    "phone": "(818) 539-5050",
    "lat": 34.234155,
    "lng": -118.5364845
  },
  {
    "id": "630020495",
    "name": "A GRADE HOSPICE AND PALLIATIVE CARE, INC.",
    "npi": null,
    "hcaiId": "406197170",
    "businessName": "A GRADE HOSPICE AND PALLIATIVE CARE INC",
    "contactEmail": "AGRADEHP@GMAIL.COM",
    "categoryName": "HOSPICE",
    "categoryCode": "HOSPICE",
    "licenseStatus": "ACTIVE",
    "inService": true,
    "licenseNumber": "550006328",
    "licenseEffectiveDate": "05/28/2023",
    "licenseExpirationDate": "05/27/2025",
    "dataDate": "10/18/2025",
    "capacity": 0,
    "address": "8700 RESEDA BLVD, SUITE 202E",
    "city": "NORTHRIDGE",
    "zip": "91324",
    "county": "LOS ANGELES",
    "phone": "(818) 646-3000",
    "lat": 34.22955857,
    "lng": -118.5360311
  },
  {
    "id": "630019422",
    "name": "A1KARE HOSPICE & PALLIATIVE CARE INC",
    "npi": null,
    "hcaiId": "406192574",
    "businessName": "A1KARE HOSPICE & PALLIATIVE CARE INC",
    "contactEmail": "A1KAREHEALTH@GMAIL.COM",
    "categoryName": "HOSPICE",
    "categoryCode": "HOSPICE",
    "licenseStatus": "ACTIVE",
    "inService": true,
    "licenseNumber": "550005301",
    "licenseEffectiveDate": "02/11/2024",
    "licenseExpirationDate": "02/10/2026",
    "dataDate": "10/18/2025",
    "capacity": 0,
    "address": "8300 TAMPA AVE, SUITE G",
    "city": "NORTHRIDGE",
    "zip": "91324",
    "county": "LOS ANGELES",
    "phone": "(818) 334-2040",
    "lat": 34.220691,
    "lng": -118.5531795
  },
  {
    "id": "630011918",
    "name": "AASTA HOME HEALTH",
    "npi": "1336316215",
    "hcaiId": "406197262",
    "businessName": "MONTEBELLO HOME HEALTH CARE, INC.",
    "contactEmail": "AASTAHH@AASTAHEALTH.COM",
    "categoryName": "HOME HEALTH AGENCY",
    "categoryCode": "HHA",
    "licenseStatus": "ACTIVE",
    "inService": true,
    "licenseNumber": "550001003",
    "licenseEffectiveDate": "05/23/2024",
    "licenseExpirationDate": "05/22/2025",
    "dataDate": "10/18/2025",
    "capacity": 0,
    "address": "19350 BUSINESS CENTER DR, SUITE 200",
    "city": "NORTHRIDGE",
    "zip": "91324",
    "county": "LOS ANGELES",
    "phone": "(818) 701-7200",
    "lat": 34.230942,
    "lng": -118.5553575
  },
  {
    "id": "630014347",
    "name": "AASTA HOSPICE",
    "npi": "1871937227",
    "hcaiId": "406198031",
    "businessName": "KUMAR LIFECARE HOSPICE, INC.",
    "contactEmail": "NANDINI@AASTAHEALTH.COM",
    "categoryName": "HOSPICE",
    "categoryCode": "HOSPICE",
    "licenseStatus": "ACTIVE",
    "inService": true,
    "licenseNumber": "550002682",
    "licenseEffectiveDate": "04/25/2024",
    "licenseExpirationDate": "04/24/2026",
    "dataDate": "10/18/2025",
    "capacity": 0,
    "address": "19350 BUSINESS CENTER DR, SUITE 112",
    "city": "NORTHRIDGE",
    "zip": "91324",
    "county": "LOS ANGELES",
    "phone": "(818) 317-9520",
    "lat": 34.230942,
    "lng": -118.5553575
  },
  {
    "id": "630019408",
    "name": "ADK HOME HEALTH INC.",
    "npi": "1710528369",
    "hcaiId": "406192522",
    "businessName": "ADK HOME HEALTH INC.",
    "contactEmail": "HELLO@ADKHOMEHEALTH.COM",
    "categoryName": "HOME HEALTH AGENCY",
    "categoryCode": "HHA",
    "licenseStatus": "ACTIVE",
    "inService": true,
    "licenseNumber": "550005470",
    "licenseEffectiveDate": "05/19/2025",
    "licenseExpirationDate": "05/18/2026",
    "dataDate": "10/18/2025",
    "capacity": 0,
    "address": "8300 TAMPA AVE, SUITE F",
    "city": "NORTHRIDGE",
    "zip": "91324",
    "county": "LOS ANGELES",
    "phone": "(818) 334-5307",
    "lat": 34.220691,
    "lng": -118.5531795
  },
  {
    "id": "630026101",
    "name": "ADVENT HEALTH HOME CARE SERVICES",
    "npi": null,
    "hcaiId": null,
    "businessName": "ADVENT HEALTH HOME CARE SERVICES",
    "contactEmail": "ADVENTHHC@GMAIL.COM",
    "categoryName": "HOME HEALTH AGENCY",
    "categoryCode": "HHA",
    "licenseStatus": "ACTIVE",
    "inService": true,
    "licenseNumber": "550009248",
    "licenseEffectiveDate": "07/08/2025",
    "licenseExpirationDate": "07/07/2026",
    "dataDate": "10/18/2025",
    "capacity": 0,
    "address": "8932 RESEDA BLVD, SUITE 102",
    "city": "NORTHRIDGE",
    "zip": "91324",
    "county": "LOS ANGELES",
    "phone": "(818) 724-9900",
    "lat": 34.232922,
    "lng": -118.535886
  },
  {
    "id": "630016522",
    "name": "AINO HOME HEALTH, INC.",
    "npi": "1215392733",
    "hcaiId": "406190685",
    "businessName": "AINO HOME HEALTH, INC.",
    "contactEmail": "AIKNOWHEALTHCARE@GMAIL.COM",
    "categoryName": "HOME HEALTH AGENCY",
    "categoryCode": "HHA",
    "licenseStatus": "ACTIVE",
    "inService": true,
    "licenseNumber": "550004124",
    "licenseEffectiveDate": "01/27/2025",
    "licenseExpirationDate": "01/26/2026",
    "dataDate": "10/18/2025",
    "capacity": 0,
    "address": "9010 CORBIN AVE, UNIT 4A",
    "city": "NORTHRIDGE",
    "zip": "91324",
    "county": "LOS ANGELES",
    "phone": "(818) 392-8992",
    "lat": 34.234443,
    "lng": -118.560771
  },
  {
    "id": "630026055",
    "name": "ALL LIFE HOME HEALTH INC.",
    "npi": null,
    "hcaiId": null,
    "businessName": "ALL LIFE HOME HEALTH INC.",
    "contactEmail": "ALLLIFEHOMEHEALTH@YAHOO.COM",
    "categoryName": "HOME HEALTH AGENCY",
    "categoryCode": "HHA",
    "licenseStatus": "ACTIVE",
    "inService": true,
    "licenseNumber": "550009458",
    "licenseEffectiveDate": "09/10/2025",
    "licenseExpirationDate": "09/09/2026",
    "dataDate": "10/18/2025",
    "capacity": 0,
    "address": "9029 RESEDA BLVD, SUITE 210B",
    "city": "NORTHRIDGE",
    "zip": "91324",
    "county": "LOS ANGELES",
    "phone": "(747) 800-3810",
    "lat": 34.234578,
    "lng": -118.536345
  },
  {
    "id": "630026138",
    "name": "ALMERIA HOME HEALTH, INC.",
    "npi": null,
    "hcaiId": null,
    "businessName": "ALMERIA HOME HEALTH, INC.",
    "contactEmail": "ALMERIAHOMEHEALTH@GMAIL.COM",
    "categoryName": "HOME HEALTH AGENCY",
    "categoryCode": "HHA",
    "licenseStatus": "ACTIVE",
    "inService": true,
    "licenseNumber": "550009968",
    "licenseEffectiveDate": "09/11/2025",
    "licenseExpirationDate": "03/10/2026",
    "dataDate": "10/18/2025",
    "capacity": 0,
    "address": "8363 RESEDA BLVD, SUITE 200A",
    "city": "NORTHRIDGE",
    "zip": "91324",
    "county": "LOS ANGELES",
    "phone": "(747) 346-0006",
    "lat": 34.22253656,
    "lng": -118.5367466
  },
  {
    "id": "630020099",
    "name": "BEST CHOICE HOSPICE SERVICE, INC.",
    "npi": null,
    "hcaiId": "406192787",
    "businessName": "BEST CHOICE HOSPICE SERVICE, INC.",
    "contactEmail": "BESTCHOICEHOSPICE2022@GMAIL.COM",
    "categoryName": "HOSPICE",
    "categoryCode": "HOSPICE",
    "licenseStatus": "ACTIVE",
    "inService": true,
    "licenseNumber": "550005577",
    "licenseEffectiveDate": "07/02/2024",
    "licenseExpirationDate": "07/01/2026",
    "dataDate": "10/18/2025",
    "capacity": 0,
    "address": "8700 RESEDA BLVD, SUITE 216",
    "city": "NORTHRIDGE",
    "zip": "91324",
    "county": "LOS ANGELES",
    "phone": null,
    "lat": 34.22998999,
    "lng": -118.535693
  },
  {
    "id": "630019531",
    "name": "BEST MATCH HOME HEALTH INC",
    "npi": null,
    "hcaiId": "406192757",
    "businessName": "BEST MATCH HOME HEALTH INC",
    "contactEmail": "INFO@BESTMATCHHOMEHEALTH.COM",
    "categoryName": "HOME HEALTH AGENCY",
    "categoryCode": "HHA",
    "licenseStatus": "ACTIVE",
    "inService": true,
    "licenseNumber": "550005626",
    "licenseEffectiveDate": "07/23/2025",
    "licenseExpirationDate": "07/22/2026",
    "dataDate": "10/18/2025",
    "capacity": 0,
    "address": "9003 RESEDA BLVD, SUITE 202B",
    "city": "NORTHRIDGE",
    "zip": "91324",
    "county": "LOS ANGELES",
    "phone": "(818) 350-2597",
    "lat": 34.23388402,
    "lng": -118.536478
  },
  {
    "id": "630026369",
    "name": "BNM HOME HEALTH AGENCY",
    "npi": null,
    "hcaiId": null,
    "businessName": "BNM HOME HEALTH AGENCY",
    "contactEmail": "BNMHOMEHEALTH@GMAIL.COM",
    "categoryName": "HOME HEALTH AGENCY",
    "categoryCode": "HHA",
    "licenseStatus": "ACTIVE",
    "inService": true,
    "licenseNumber": "550009543",
    "licenseEffectiveDate": "05/19/2025",
    "licenseExpirationDate": "11/18/2025",
    "dataDate": "10/18/2025",
    "capacity": 0,
    "address": "8619 RESEDA BLVD, SUITE 301B",
    "city": "NORTHRIDGE",
    "zip": "91324",
    "county": "LOS ANGELES",
    "phone": "(818) 835-0117",
    "lat": 34.226973,
    "lng": -118.5363405
  },
  {
    "id": "630020811",
    "name": "BRAVO HOSPICE AND PALLIATIVE CARE",
    "npi": null,
    "hcaiId": "406193577",
    "businessName": "BRAVO HOSPICE & PALLIATIVE CARE",
    "contactEmail": "BRAVOCAREINC@GMAIL.COM",
    "categoryName": "HOSPICE",
    "categoryCode": "HOSPICE",
    "licenseStatus": "ACTIVE",
    "inService": true,
    "licenseNumber": "550006487",
    "licenseEffectiveDate": "06/22/2025",
    "licenseExpirationDate": "06/21/2027",
    "dataDate": "10/18/2025",
    "capacity": 0,
    "address": "18531 ROSCOE BLVD, SUITE 204",
    "city": "NORTHRIDGE",
    "zip": "91324",
    "county": "LOS ANGELES",
    "phone": "(818) 626-9151",
    "lat": 34.221123,
    "lng": -118.5372495
  },
  {
    "id": "630017684",
    "name": "BRIGHTSIDE HOME HEALTH CARE INC.",
    "npi": null,
    "hcaiId": "406191778",
    "businessName": "BRIGHTSIDE HOME HEALTH CARE INC.",
    "contactEmail": "BRIGHTSIDEHHC@GMAIL.COM",
    "categoryName": "HOME HEALTH AGENCY",
    "categoryCode": "HHA",
    "licenseStatus": "ACTIVE",
    "inService": true,
    "licenseNumber": "550004878",
    "licenseEffectiveDate": "08/24/2025",
    "licenseExpirationDate": "08/23/2026",
    "dataDate": "10/18/2025",
    "capacity": 0,
    "address": "8949 RESEDA BLVD, #203",
    "city": "NORTHRIDGE",
    "zip": "91324",
    "county": "LOS ANGELES",
    "phone": "(818) 453-4053",
    "lat": 34.233246,
    "lng": -118.5366375
  },
  {
    "id": "630020453",
    "name": "CALIFORNIA DREAM HOME HEALTH, INC.",
    "npi": null,
    "hcaiId": "406193042",
    "businessName": "CALIFORNIA DREAM HOME HEALTH, INC.",
    "contactEmail": "CALDREAMHOMEHEALTH@GMAIL.COM",
    "categoryName": "HOME HEALTH AGENCY",
    "categoryCode": "HHA",
    "licenseStatus": "ACTIVE",
    "inService": true,
    "licenseNumber": "550006160",
    "licenseEffectiveDate": "03/18/2025",
    "licenseExpirationDate": "03/17/2026",
    "dataDate": "10/18/2025",
    "capacity": 0,
    "address": "8345 RESEDA BLVD, SUITE 204",
    "city": "NORTHRIDGE",
    "zip": "91324",
    "county": "LOS ANGELES",
    "phone": "(818) 527-1398",
    "lat": 34.222068,
    "lng": -118.5362865
  },
  {
    "id": "630025559",
    "name": "CALMING HOME HEALTH, INC.",
    "npi": null,
    "hcaiId": "406190323",
    "businessName": "CALMING HOME HEALTH, INC.",
    "contactEmail": "CALMINGHH@GMAIL.COM",
    "categoryName": "HOME HEALTH AGENCY",
    "categoryCode": "HHA",
    "licenseStatus": "ACTIVE",
    "inService": true,
    "licenseNumber": "550008895",
    "licenseEffectiveDate": "10/27/2025",
    "licenseExpirationDate": "10/26/2026",
    "dataDate": "10/18/2025",
    "capacity": 0,
    "address": "8847 WILBUR AVE, SUITE 204",
    "city": "NORTHRIDGE",
    "zip": "91324",
    "county": "LOS ANGELES",
    "phone": "(424) 444-5545",
    "lat": 34.231329,
    "lng": -118.545309
  },
  {
    "id": "630025200",
    "name": "CARE SOURCE HOME HEALTH CARE INC",
    "npi": null,
    "hcaiId": "406196505",
    "businessName": "CARE SOURCE HOME HEALTH CARE INC",
    "contactEmail": "CARESOURCEHHC@GMAIL.COM",
    "categoryName": "HOME HEALTH AGENCY",
    "categoryCode": "HHA",
    "licenseStatus": "ACTIVE",
    "inService": true,
    "licenseNumber": "550008505",
    "licenseEffectiveDate": "05/03/2025",
    "licenseExpirationDate": "05/02/2026",
    "dataDate": "10/18/2025",
    "capacity": 0,
    "address": "9017 RESEDA BLVD, SUITE 205",
    "city": "NORTHRIDGE",
    "zip": "91324",
    "county": "LOS ANGELES",
    "phone": "(424) 600-3335",
    "lat": 34.234155,
    "lng": -118.5364845
  },
  {
    "id": "630023426",
    "name": "CARING HANDS HOME HEALTH INC",
    "npi": null,
    "hcaiId": "406196528",
    "businessName": "CARING HANDS HOME HEALTH INC",
    "contactEmail": "CARINGHANDSHH.INC@GMAIL.COM",
    "categoryName": "HOME HEALTH AGENCY",
    "categoryCode": "HHA",
    "licenseStatus": "ACTIVE",
    "inService": true,
    "licenseNumber": "550008167",
    "licenseEffectiveDate": "10/03/2025",
    "licenseExpirationDate": "10/02/2026",
    "dataDate": "10/18/2025",
    "capacity": 0,
    "address": "8345 RESEDA BLVD, SUITE 206",
    "city": "NORTHRIDGE",
    "zip": "91324",
    "county": "LOS ANGELES",
    "phone": "(747) 258-8683",
    "lat": 34.222068,
    "lng": -118.5362865
  },
  {
    "id": "630025344",
    "name": "CELEBRATED HOME HEALTH, INC.",
    "npi": null,
    "hcaiId": "406197428",
    "businessName": "CELEBRATED HOME HEALTH,INC.",
    "contactEmail": "CELEBRATEDHH@GMAIL.COM",
    "categoryName": "HOME HEALTH AGENCY",
    "categoryCode": "HHA",
    "licenseStatus": "ACTIVE",
    "inService": true,
    "licenseNumber": "550008578",
    "licenseEffectiveDate": "06/08/2024",
    "licenseExpirationDate": "06/07/2025",
    "dataDate": "10/18/2025",
    "capacity": 0,
    "address": "8932 RESEDA BLVD, SUITE 101",
    "city": "NORTHRIDGE",
    "zip": "91324",
    "county": "LOS ANGELES",
    "phone": "(800) 251-5441",
    "lat": 34.232922,
    "lng": -118.535886
  },
  {
    "id": "980001087",
    "name": "COLBY CARE HOME HEALTH, INC.",
    "npi": "1841545241",
    "hcaiId": "406194209",
    "businessName": "COLBY CARE HOME HEALTH, INC.",
    "contactEmail": "COLBYCAREHOMEHEALTH@YAHOO.COM",
    "categoryName": "HOME HEALTH AGENCY",
    "categoryCode": "HHA",
    "licenseStatus": "ACTIVE",
    "inService": true,
    "licenseNumber": "980000601",
    "licenseEffectiveDate": "09/16/2025",
    "licenseExpirationDate": "07/09/2026",
    "dataDate": "10/18/2025",
    "capacity": 0,
    "address": "19531 PARTHENIA ST, SUITE B",
    "city": "NORTHRIDGE",
    "zip": "91324",
    "county": "LOS ANGELES",
    "phone": "(818) 349-3919",
    "lat": 34.228971,
    "lng": -118.558989
  },
  {
    "id": "630018236",
    "name": "COLORADO RIVER HOME HEALTH",
    "npi": null,
    "hcaiId": "406362614",
    "businessName": "COLORADO RIVER HOME HEALTH",
    "contactEmail": "COLORADORIVERHH@YAHOO.COM",
    "categoryName": "HOME HEALTH AGENCY",
    "categoryCode": "HHA",
    "licenseStatus": "ACTIVE",
    "inService": true,
    "licenseNumber": "550004837",
    "licenseEffectiveDate": "08/05/2025",
    "licenseExpirationDate": "07/31/2026",
    "dataDate": "10/18/2025",
    "capacity": 0,
    "address": "9003 RESEDA BLVD, SUITE 208",
    "city": "NORTHRIDGE",
    "zip": "91324",
    "county": "LOS ANGELES",
    "phone": "(919) 278-8343",
    "lat": 34.2339934,
    "lng": -118.5390992
  },
  {
    "id": "630018519",
    "name": "CONNECT HEALTHCARE LLC",
    "npi": null,
    "hcaiId": "406192677",
    "businessName": "CONNECT HEALTHCARE LLC",
    "contactEmail": "CONNECTHEALTHCARELLC@GMAIL.COM",
    "categoryName": "HOME HEALTH AGENCY",
    "categoryCode": "HHA",
    "licenseStatus": "ACTIVE",
    "inService": true,
    "licenseNumber": "550005622",
    "licenseEffectiveDate": "07/31/2024",
    "licenseExpirationDate": "07/30/2025",
    "dataDate": "10/18/2025",
    "capacity": 0,
    "address": "9700 RESEDA BLVD, SUITE 201",
    "city": "NORTHRIDGE",
    "zip": "91324",
    "county": "LOS ANGELES",
    "phone": "(818) 280-3850",
    "lat": 34.246728,
    "lng": -118.535868
  },
  {
    "id": "630016592",
    "name": "CONSTELLATION HOME HEALTH SERVICES, LLC",
    "npi": "1740649045",
    "hcaiId": "406198538",
    "businessName": "CONSTELLATION HOME HEALTH SERVICES, LLC",
    "contactEmail": "INFO@CONSTELLATIONHOMEHEALTH.COM",
    "categoryName": "HOME HEALTH AGENCY",
    "categoryCode": "HHA",
    "licenseStatus": "ACTIVE",
    "inService": true,
    "licenseNumber": "550004008",
    "licenseEffectiveDate": "11/09/2025",
    "licenseExpirationDate": "11/08/2026",
    "dataDate": "10/18/2025",
    "capacity": 0,
    "address": "9045 CORBIN AVENUE, SUITE 301",
    "city": "NORTHRIDGE",
    "zip": "91324",
    "county": "LOS ANGELES",
    "phone": "(818) 772-8881",
    "lat": 34.23492953,
    "lng": -118.5623674
  },
  {
    "id": "630025732",
    "name": "CREST HEALTH SERVICES, INC.",
    "npi": null,
    "hcaiId": "406198172",
    "businessName": "CREST HEALTH SERVICES, INC.",
    "contactEmail": "CRESTHEALTHSERVICESINC@GMAIL.COM",
    "categoryName": "HOME HEALTH AGENCY",
    "categoryCode": "HHA",
    "licenseStatus": "ACTIVE",
    "inService": true,
    "licenseNumber": "550008783",
    "licenseEffectiveDate": "10/20/2025",
    "licenseExpirationDate": "10/19/2026",
    "dataDate": "10/18/2025",
    "capacity": 0,
    "address": "8949 RESEDA BLVD, SUITE 209",
    "city": "NORTHRIDGE",
    "zip": "91324",
    "county": "LOS ANGELES",
    "phone": "(818) 639-9195",
    "lat": 34.233255,
    "lng": -118.5365025
  },
  {
    "id": "630022650",
    "name": "CURANTIS HOME HEALTH, INC",
    "npi": null,
    "hcaiId": "406195251",
    "businessName": "CURANTIS HOME HEALTH, INC",
    "contactEmail": "CURANTISHOMEH@GMAIL.COM",
    "categoryName": "HOME HEALTH AGENCY",
    "categoryCode": "HHA",
    "licenseStatus": "ACTIVE",
    "inService": true,
    "licenseNumber": "550007420",
    "licenseEffectiveDate": "12/08/2024",
    "licenseExpirationDate": "12/07/2025",
    "dataDate": "10/18/2025",
    "capacity": 0,
    "address": "8619 RESEDA BLVD, SUITE 301A",
    "city": "NORTHRIDGE",
    "zip": "91324",
    "county": "LOS ANGELES",
    "phone": "(818) 510-3191",
    "lat": 34.226973,
    "lng": -118.5363405
  },
  {
    "id": "630020855",
    "name": "DIRECT HOSPICE INC",
    "npi": null,
    "hcaiId": "406193449",
    "businessName": "DIRECT HOSPICE INC",
    "contactEmail": "DIRECTHOSPICE@GMAIL.COM",
    "categoryName": "HOSPICE",
    "categoryCode": "HOSPICE",
    "licenseStatus": "ACTIVE",
    "inService": true,
    "licenseNumber": "550006725",
    "licenseEffectiveDate": "08/13/2025",
    "licenseExpirationDate": "08/12/2027",
    "dataDate": "10/18/2025",
    "capacity": 0,
    "address": "9003 RESEDA BLVD, SUITE 103",
    "city": "NORTHRIDGE",
    "zip": "91324",
    "county": "LOS ANGELES",
    "phone": "(888) 506-6809",
    "lat": 34.23388402,
    "lng": -118.536478
  },
  {
    "id": "630008302",
    "name": "EFFICIENT HOME HEALTH SERVICES, INC.",
    "npi": "1093853699",
    "hcaiId": "406196874",
    "businessName": "EFFICIENT HOME HEALTH SERVICES, INC.",
    "contactEmail": "EFFICIENTHHS@VERIZON.NET",
    "categoryName": "HOME HEALTH AGENCY",
    "categoryCode": "HHA",
    "licenseStatus": "ACTIVE",
    "inService": true,
    "licenseNumber": "550000332",
    "licenseEffectiveDate": "12/06/2024",
    "licenseExpirationDate": "12/05/2025",
    "dataDate": "10/18/2025",
    "capacity": 0,
    "address": "9221 CORBIN AVE, SUITE 180",
    "city": "NORTHRIDGE",
    "zip": "91324",
    "county": "LOS ANGELES",
    "phone": "(818) 891-5114",
    "lat": 34.237757,
    "lng": -118.56293
  },
  {
    "id": "630027649",
    "name": "ENCINO HOME HEALTH SERVICES, INC.",
    "npi": null,
    "hcaiId": null,
    "businessName": "ENCINO HOME HEALTH SERVICES, INC.",
    "contactEmail": "ENCINOHHSI@GMAIL.COM",
    "categoryName": "HOME HEALTH AGENCY",
    "categoryCode": "HHA",
    "licenseStatus": "ACTIVE",
    "inService": true,
    "licenseNumber": "550009752",
    "licenseEffectiveDate": "09/28/2025",
    "licenseExpirationDate": "03/27/2026",
    "dataDate": "10/18/2025",
    "capacity": 0,
    "address": "8444 RESEDA BLVD, UNIT J2",
    "city": "NORTHRIDGE",
    "zip": "91324",
    "county": "LOS ANGELES",
    "phone": "(818) 937-0244",
    "lat": 34.22391898,
    "lng": -118.535675
  },
  {
    "id": "930001201",
    "name": "ENDEAVOR SURGICAL CENTER",
    "npi": "1760794218",
    "hcaiId": "306194329",
    "businessName": "HALLMARK SURGICAL CENTER OF NORTHRIDGE, LLC",
    "contactEmail": "CMORREALE@HALLMARKCENTER.COM",
    "categoryName": "SURGICAL CLINIC",
    "categoryCode": "ASC",
    "licenseStatus": "INACTIVE - CAPEN DECISION",
    "inService": false,
    "licenseNumber": "930000672",
    "licenseEffectiveDate": "06/01/2007",
    "licenseExpirationDate": "05/31/2008",
    "dataDate": "10/18/2025",
    "capacity": 0,
    "address": "8327 RESEDA BLVD",
    "city": "NORTHRIDGE",
    "zip": "91324",
    "county": "LOS ANGELES",
    "phone": "(818) 718-8450",
    "lat": 34.2216,
    "lng": -118.536291
  },
  {
    "id": "630017595",
    "name": "EPIONE HOME HEALTH CARE INC.",
    "npi": "1487180501",
    "hcaiId": "406191539",
    "businessName": "EPIONE HOME HEALTH CARE INC.",
    "contactEmail": "EPIONEHHC@YAHOO.COM",
    "categoryName": "HOME HEALTH AGENCY",
    "categoryCode": "HHA",
    "licenseStatus": "ACTIVE",
    "inService": true,
    "licenseNumber": "550004519",
    "licenseEffectiveDate": "01/16/2025",
    "licenseExpirationDate": "01/15/2026",
    "dataDate": "10/18/2025",
    "capacity": 0,
    "address": "8345 RESEDA BLVD, SUITE 207",
    "city": "NORTHRIDGE",
    "zip": "91324",
    "county": "LOS ANGELES",
    "phone": "(818) 830-8311",
    "lat": 34.222068,
    "lng": -118.5362865
  },
  {
    "id": "630025976",
    "name": "EXPLORER HOME HEALTH",
    "npi": null,
    "hcaiId": "406190335",
    "businessName": "EXPLORER HOME HEALTH",
    "contactEmail": "4EXPLORERHH@GMAIL.COM",
    "categoryName": "HOME HEALTH AGENCY",
    "categoryCode": "HHA",
    "licenseStatus": "ACTIVE",
    "inService": true,
    "licenseNumber": "550009092",
    "licenseEffectiveDate": "03/27/2025",
    "licenseExpirationDate": "03/26/2026",
    "dataDate": "10/18/2025",
    "capacity": 0,
    "address": "8932 RESEDA BLVD, SUITE 206",
    "city": "NORTHRIDGE",
    "zip": "91324",
    "county": "LOS ANGELES",
    "phone": "(818) 574-8822",
    "lat": 34.232922,
    "lng": -118.535886
  },
  {
    "id": "630026043",
    "name": "FIRST STEP HOME CARE LLC",
    "npi": null,
    "hcaiId": null,
    "businessName": "FIRST STEP HOME CARE LLC",
    "contactEmail": "FIRSTSTEPHOMECARE@YAHOO.COM",
    "categoryName": "HOME HEALTH AGENCY",
    "categoryCode": "HHA",
    "licenseStatus": "ACTIVE",
    "inService": true,
    "licenseNumber": "550009514",
    "licenseEffectiveDate": "04/10/2025",
    "licenseExpirationDate": "10/09/2025",
    "dataDate": "10/18/2025",
    "capacity": 0,
    "address": "8363 RESEDA BLVD, SUITE 204B",
    "city": "NORTHRIDGE",
    "zip": "91324",
    "county": "LOS ANGELES",
    "phone": "(747) 977-5961",
    "lat": 34.222563,
    "lng": -118.536291
  },
  {
    "id": "630020542",
    "name": "GENEROUS HOSPICE AND PALLIATIVE CARE, INC.",
    "npi": null,
    "hcaiId": "406193464",
    "businessName": "GENEROUS HOSPICE AND PALLIATIVE CARE, INC.",
    "contactEmail": "GENEROUSCAREINC@GMAIL.COM",
    "categoryName": "HOSPICE",
    "categoryCode": "HOSPICE",
    "licenseStatus": "ACTIVE",
    "inService": true,
    "licenseNumber": "550006703",
    "licenseEffectiveDate": "08/19/2025",
    "licenseExpirationDate": "08/18/2027",
    "dataDate": "10/18/2025",
    "capacity": 0,
    "address": "8700 RESEDA BLVD, 202B",
    "city": "NORTHRIDGE",
    "zip": "91324",
    "county": "LOS ANGELES",
    "phone": "(818) 697-2853",
    "lat": 34.22955857,
    "lng": -118.5360311
  },
  {
    "id": "630022437",
    "name": "GO NORTH HOSPICE CARE, INC.",
    "npi": null,
    "hcaiId": "406197954",
    "businessName": "GO NORTH HOSPICE CARE, INC.",
    "contactEmail": "GONORTHHOSPICE@GMAIL.COM",
    "categoryName": "HOSPICE",
    "categoryCode": "HOSPICE",
    "licenseStatus": "ACTIVE",
    "inService": true,
    "licenseNumber": "550007492",
    "licenseEffectiveDate": "06/26/2024",
    "licenseExpirationDate": "11/29/2025",
    "dataDate": "10/18/2025",
    "capacity": 0,
    "address": "9221 CORBIN AVE, SUITE 205",
    "city": "NORTHRIDGE",
    "zip": "91324",
    "county": "LOS ANGELES",
    "phone": "(747) 236-7088",
    "lat": 34.237757,
    "lng": -118.56293
  },
  {
    "id": "980002364",
    "name": "GOLDEN AGE HOME HEALTHCARE, INC.",
    "npi": "1578561791",
    "hcaiId": "406196449",
    "businessName": "GOLDEN AGE HOME HEALTHCARE, INC.",
    "contactEmail": "CARRIE@GOLDENAGEHOMEHEALTH.NET",
    "categoryName": "HOME HEALTH AGENCY",
    "categoryCode": "HHA",
    "licenseStatus": "ACTIVE",
    "inService": true,
    "licenseNumber": "980001474",
    "licenseEffectiveDate": "12/04/2024",
    "licenseExpirationDate": "12/03/2025",
    "dataDate": "10/18/2025",
    "capacity": 0,
    "address": "9029 RESEDA BLVD, SUITE 101",
    "city": "NORTHRIDGE",
    "zip": "91324",
    "county": "LOS ANGELES",
    "phone": "(818) 718-4680",
    "lat": 34.234506,
    "lng": -118.536471
  },
  {
    "id": "630024373",
    "name": "GOLDEN EAGLE HOME HEALTH",
    "npi": null,
    "hcaiId": "406195618",
    "businessName": "GOLDEN EAGLE HOME HEALTH",
    "contactEmail": "MIKE@GOLDENEAGLE.HEALTH",
    "categoryName": "HOME HEALTH AGENCY",
    "categoryCode": "HHA",
    "licenseStatus": "ACTIVE",
    "inService": true,
    "licenseNumber": "550008146",
    "licenseEffectiveDate": "08/02/2025",
    "licenseExpirationDate": "08/01/2026",
    "dataDate": "10/18/2025",
    "capacity": 0,
    "address": "8448 RESEDA BLVD, SUITE 107",
    "city": "NORTHRIDGE",
    "zip": "91324",
    "county": "LOS ANGELES",
    "phone": "(747) 206-5131",
    "lat": 34.2240763,
    "lng": -118.5378885
  },
  {
    "id": "630027115",
    "name": "GOLDEN ROAD HOME HEALTH AGENCY INC",
    "npi": null,
    "hcaiId": null,
    "businessName": "GOLDEN ROAD HOME HEALTH AGENCY INC",
    "contactEmail": "GOLDENROADHOMEHEALTH@GMAIL.COM",
    "categoryName": "HOME HEALTH AGENCY",
    "categoryCode": "HHA",
    "licenseStatus": "ACTIVE",
    "inService": true,
    "licenseNumber": "550009408",
    "licenseEffectiveDate": "09/23/2025",
    "licenseExpirationDate": "09/22/2026",
    "dataDate": "10/18/2025",
    "capacity": 0,
    "address": "8448 RESEDA BLVD, SUITE 206",
    "city": "NORTHRIDGE",
    "zip": "91324",
    "county": "LOS ANGELES",
    "phone": "(818) 643-5332",
    "lat": 34.22407501,
    "lng": -118.53568
  },
  {
    "id": "630021855",
    "name": "GRACE CARE HOME",
    "npi": null,
    "hcaiId": null,
    "businessName": "THE CARING BUNCH",
    "contactEmail": "GRACEKNAPPHOME@GMAIL.COM",
    "categoryName": "INTERMEDIATE CARE FACILITY-DD/H/N/CN/IID",
    "categoryCode": "ICFDDH",
    "licenseStatus": "ACTIVE",
    "inService": true,
    "licenseNumber": "550007964",
    "licenseEffectiveDate": "04/14/2025",
    "licenseExpirationDate": "04/13/2026",
    "dataDate": "10/18/2025",
    "capacity": 6,
    "address": "19278 KNAPP ST",
    "city": "NORTHRIDGE",
    "zip": "91324",
    "county": "LOS ANGELES",
    "phone": "(818) 497-6901",
    "lat": 34.237926,
    "lng": -118.5532695
  },
  {
    "id": "630019063",
    "name": "GRANADA HILLS HOME HEALTH CARE, INC.",
    "npi": null,
    "hcaiId": "406194861",
    "businessName": "GRANADA HILLS HOME HEALTH CARE, INC.",
    "contactEmail": "GRANADAHILLSHH@GMAIL.COM",
    "categoryName": "HOME HEALTH AGENCY",
    "categoryCode": "HHA",
    "licenseStatus": "ACTIVE",
    "inService": true,
    "licenseNumber": "550005968",
    "licenseEffectiveDate": "01/13/2025",
    "licenseExpirationDate": "01/12/2026",
    "dataDate": "10/18/2025",
    "capacity": 0,
    "address": "9221 CORBIN AVE, SUITE 245",
    "city": "NORTHRIDGE",
    "zip": "91324",
    "county": "LOS ANGELES",
    "phone": "(818) 900-2020",
    "lat": 34.237757,
    "lng": -118.56293
  },
  {
    "id": "630025940",
    "name": "GRAND HOME HEALTH SERVICES",
    "npi": null,
    "hcaiId": "406190337",
    "businessName": "GRAND HOME HEALTH SERVICES",
    "contactEmail": "4GRANDHHS@GMAIL.COM",
    "categoryName": "HOME HEALTH AGENCY",
    "categoryCode": "HHA",
    "licenseStatus": "ACTIVE",
    "inService": true,
    "licenseNumber": "550009104",
    "licenseEffectiveDate": "03/27/2025",
    "licenseExpirationDate": "03/26/2026",
    "dataDate": "10/18/2025",
    "capacity": 0,
    "address": "8932 RESEDA BLVD, SUITE 207",
    "city": "NORTHRIDGE",
    "zip": "91324",
    "county": "LOS ANGELES",
    "phone": "(818) 492-4994",
    "lat": 34.232922,
    "lng": -118.535886
  },
  {
    "id": "630021990",
    "name": "GRATIFY CARE HOSPICE",
    "npi": null,
    "hcaiId": "406190119",
    "businessName": "GRATIFY CARE HOSPICE",
    "contactEmail": "GRATIFYCAREHOSPICE@GMAIL.COM",
    "categoryName": "HOSPICE",
    "categoryCode": "HOSPICE",
    "licenseStatus": "ACTIVE",
    "inService": true,
    "licenseNumber": "550007654",
    "licenseEffectiveDate": "12/20/2023",
    "licenseExpirationDate": "12/19/2025",
    "dataDate": "10/18/2025",
    "capacity": 0,
    "address": "8622 RESEDA BLVD, UNIT 201",
    "city": "NORTHRIDGE",
    "zip": "91324",
    "county": "LOS ANGELES",
    "phone": "(747) 237-7204",
    "lat": 34.227198,
    "lng": -118.535661
  },
  {
    "id": "630027755",
    "name": "HAS HOME HEALTH INC",
    "npi": null,
    "hcaiId": null,
    "businessName": "HAS HOME HEALTH INC",
    "contactEmail": "HASHOMEHEALTH@GMAIL.COM",
    "categoryName": "HOME HEALTH AGENCY",
    "categoryCode": "HHA",
    "licenseStatus": "ACTIVE",
    "inService": true,
    "licenseNumber": "550009937",
    "licenseEffectiveDate": "08/15/2025",
    "licenseExpirationDate": "02/14/2026",
    "dataDate": "10/18/2025",
    "capacity": 0,
    "address": "9700 RESEDA BLVD, SUITE 203A",
    "city": "NORTHRIDGE",
    "zip": "91324",
    "county": "LOS ANGELES",
    "phone": "(818) 280-3190",
    "lat": 34.24664899,
    "lng": -118.535789
  },
  {
    "id": "630019308",
    "name": "HEALTH GIVERS HOMEHEALTH, INC.",
    "npi": null,
    "hcaiId": "406192894",
    "businessName": "HEALTH GIVERS HOMEHEALTH, INC.",
    "contactEmail": "HEALTHGIVERSHOMEHEALTH@GMAIL.COM",
    "categoryName": "HOME HEALTH AGENCY",
    "categoryCode": "HHA",
    "licenseStatus": "ACTIVE",
    "inService": true,
    "licenseNumber": "550005713",
    "licenseEffectiveDate": "09/03/2025",
    "licenseExpirationDate": "09/02/2026",
    "dataDate": "10/18/2025",
    "capacity": 0,
    "address": "9029 RESEDA BLVD, SUITE 203",
    "city": "NORTHRIDGE",
    "zip": "91324",
    "county": "LOS ANGELES",
    "phone": "(626) 463-8013",
    "lat": 34.234506,
    "lng": -118.536471
  },
  {
    "id": "630018947",
    "name": "HEALTH PATH HOME CARE INC",
    "npi": "1285291658",
    "hcaiId": "406192091",
    "businessName": "HEALTH PATH HOME CARE INC",
    "contactEmail": "HEALTHPATHHC@GMAIL.COM",
    "categoryName": "HOME HEALTH AGENCY",
    "categoryCode": "HHA",
    "licenseStatus": "ACTIVE",
    "inService": true,
    "licenseNumber": "550005160",
    "licenseEffectiveDate": "12/07/2025",
    "licenseExpirationDate": "12/06/2026",
    "dataDate": "10/18/2025",
    "capacity": 0,
    "address": "9003 RESEDA BLVD, SUITE 210",
    "city": "NORTHRIDGE",
    "zip": "91324",
    "county": "LOS ANGELES",
    "phone": "(818) 280-3773",
    "lat": 34.23388402,
    "lng": -118.536478
  },
  {
    "id": "630019982",
    "name": "HERA HOME HEALTH, INC.",
    "npi": null,
    "hcaiId": "406193040",
    "businessName": "HERA HOME HEALTH, INC.",
    "contactEmail": "HERAHOMEHEALTH@GMAIL.COM",
    "categoryName": "HOME HEALTH AGENCY",
    "categoryCode": "HHA",
    "licenseStatus": "ACTIVE",
    "inService": true,
    "licenseNumber": "550006162",
    "licenseEffectiveDate": "03/25/2025",
    "licenseExpirationDate": "03/24/2026",
    "dataDate": "10/18/2025",
    "capacity": 0,
    "address": "9221 CORBIN AVE, SUITE 220",
    "city": "NORTHRIDGE",
    "zip": "91324",
    "county": "LOS ANGELES",
    "phone": "(818) 446-6055",
    "lat": 34.237757,
    "lng": -118.56293
  },
  {
    "id": "630020843",
    "name": "HERO HOME HEALTH INC.",
    "npi": null,
    "hcaiId": "406193440",
    "businessName": "HERO HOME HEALTH INC.",
    "contactEmail": "HEROHOMEHEALTH@YAHOO.COM",
    "categoryName": "HOME HEALTH AGENCY",
    "categoryCode": "HHA",
    "licenseStatus": "ACTIVE",
    "inService": true,
    "licenseNumber": "550006940",
    "licenseEffectiveDate": "10/12/2023",
    "licenseExpirationDate": "10/11/2024",
    "dataDate": "10/18/2025",
    "capacity": 0,
    "address": "8949 RESEDA BLVD, SUITE 206",
    "city": "NORTHRIDGE",
    "zip": "91324",
    "county": "LOS ANGELES",
    "phone": "(818) 696-8929",
    "lat": 34.233246,
    "lng": -118.5366375
  },
  {
    "id": "630025544",
    "name": "HOME HEALTH HEROES, INC.",
    "npi": null,
    "hcaiId": "406190055",
    "businessName": "HOME HEALTH HEROES, INC.",
    "contactEmail": "4HHHEROES@GMAIL.COM",
    "categoryName": "HOME HEALTH AGENCY",
    "categoryCode": "HHA",
    "licenseStatus": "ACTIVE",
    "inService": true,
    "licenseNumber": "550008655",
    "licenseEffectiveDate": "01/10/2024",
    "licenseExpirationDate": "07/09/2024",
    "dataDate": "10/18/2025",
    "capacity": 0,
    "address": "8363 RESEDA BLVD, UNIT 203-E",
    "city": "NORTHRIDGE",
    "zip": "91324",
    "county": "LOS ANGELES",
    "phone": "(800) 404-8735",
    "lat": 34.222563,
    "lng": -118.536291
  },
  {
    "id": "630007581",
    "name": "HOMEBOUND HEALTH CARE SERVICES",
    "npi": "1487851432",
    "hcaiId": "406196832",
    "businessName": "PREMIER HOME HEALTH CARE, INC",
    "contactEmail": "RTLEANNE@MSN.COM",
    "categoryName": "HOME HEALTH AGENCY",
    "categoryCode": "HHA",
    "licenseStatus": "ACTIVE",
    "inService": true,
    "licenseNumber": "550000295",
    "licenseEffectiveDate": "11/13/2025",
    "licenseExpirationDate": "11/12/2026",
    "dataDate": "10/18/2025",
    "capacity": 0,
    "address": "9010 CORBIN AVE, SUITE 18",
    "city": "NORTHRIDGE",
    "zip": "91324",
    "county": "LOS ANGELES",
    "phone": "(818) 477-2712",
    "lat": 34.234443,
    "lng": -118.560771
  },
  {
    "id": "630016742",
    "name": "HONEST HOSPICE",
    "npi": "1437519790",
    "hcaiId": "406190882",
    "businessName": "HONEST HEALTH CARE INC.",
    "contactEmail": "HONESTHOSPICE@GMAIL.COM",
    "categoryName": "HOSPICE",
    "categoryCode": "HOSPICE",
    "licenseStatus": "ACTIVE",
    "inService": true,
    "licenseNumber": "550004038",
    "licenseEffectiveDate": "12/01/2023",
    "licenseExpirationDate": "11/30/2025",
    "dataDate": "10/18/2025",
    "capacity": 0,
    "address": "8622 RESEDA BLVD., SUITE 218",
    "city": "NORTHRIDGE",
    "zip": "91324",
    "county": "LOS ANGELES",
    "phone": "(818) 921-4280",
    "lat": 34.227198,
    "lng": -118.535661
  },
  {
    "id": "630018246",
    "name": "HUMAN FIRST HOME HEALTH AGENCY LLC",
    "npi": "1558852129",
    "hcaiId": "406191889",
    "businessName": "PORCIUNCULA & CO LLC",
    "contactEmail": "HUMANFIRSTHH@GMAIL.COM",
    "categoryName": "HOME HEALTH AGENCY",
    "categoryCode": "HHA",
    "licenseStatus": "ACTIVE",
    "inService": true,
    "licenseNumber": "550004831",
    "licenseEffectiveDate": "06/20/2022",
    "licenseExpirationDate": "06/19/2023",
    "dataDate": "10/18/2025",
    "capacity": 0,
    "address": "8345 RESEDA BLVD, SUITE 208",
    "city": "NORTHRIDGE",
    "zip": "91324",
    "county": "LOS ANGELES",
    "phone": "(818) 405-0473",
    "lat": 34.222068,
    "lng": -118.5362865
  },
  {
    "id": "630020840",
    "name": "IE COMMUNITY CARE HOME HEALTH SERVICES",
    "npi": null,
    "hcaiId": "406193047",
    "businessName": "NEW HORIZON HOME HEALTH SERVICES",
    "contactEmail": "INFO@NEWHH.CA",
    "categoryName": "HOME HEALTH AGENCY",
    "categoryCode": "HHA",
    "licenseStatus": "ACTIVE",
    "inService": true,
    "licenseNumber": "550006126",
    "licenseEffectiveDate": "04/21/2025",
    "licenseExpirationDate": "03/17/2026",
    "dataDate": "10/18/2025",
    "capacity": 0,
    "address": "8949 RESEDA BLVD, SUITE 208",
    "city": "NORTHRIDGE",
    "zip": "91324",
    "county": "LOS ANGELES",
    "phone": "(909) 801-6989",
    "lat": 34.233246,
    "lng": -118.5366375
  },
  {
    "id": "630017984",
    "name": "IHPC HOME HEALTH, INC.",
    "npi": "1700383684",
    "hcaiId": "406191671",
    "businessName": "IHPC HOME HEALTH, INC.",
    "contactEmail": "INFO@IHPCHOMEHEALTH.COM",
    "categoryName": "HOME HEALTH AGENCY",
    "categoryCode": "HHA",
    "licenseStatus": "ACTIVE",
    "inService": true,
    "licenseNumber": "550004680",
    "licenseEffectiveDate": "05/06/2025",
    "licenseExpirationDate": "05/05/2026",
    "dataDate": "10/18/2025",
    "capacity": 0,
    "address": "9017 RESEDA BLVD, SUITE 215",
    "city": "NORTHRIDGE",
    "zip": "91324",
    "county": "LOS ANGELES",
    "phone": "(818) 812-9287",
    "lat": 34.234155,
    "lng": -118.5364845
  },
  {
    "id": "980002252",
    "name": "INTEGRITY HOME CARE CORPORATION",
    "npi": "1619900693",
    "hcaiId": "406196799",
    "businessName": "INTEGRITY HOME CARE CORPORATION",
    "contactEmail": "EKAUGUSTT@YAHOO.COM",
    "categoryName": "HOME HEALTH AGENCY",
    "categoryCode": "HHA",
    "licenseStatus": "ACTIVE",
    "inService": true,
    "licenseNumber": "980001369",
    "licenseEffectiveDate": "01/15/2025",
    "licenseExpirationDate": "01/14/2026",
    "dataDate": "10/18/2025",
    "capacity": 0,
    "address": "8954 RESEDA BLVD., SUITE 201",
    "city": "NORTHRIDGE",
    "zip": "91324",
    "county": "LOS ANGELES",
    "phone": "(818) 341-6844",
    "lat": 34.233435,
    "lng": -118.5357555
  },
  {
    "id": "630025437",
    "name": "INTRICATE HEALTHCARE SERVICES",
    "npi": null,
    "hcaiId": "406190064",
    "businessName": "INTRICATE HEALTHCARE SERVICES",
    "contactEmail": "INTRICATEHCS@GMAIL.COM",
    "categoryName": "HOME HEALTH AGENCY",
    "categoryCode": "HHA",
    "licenseStatus": "ACTIVE",
    "inService": true,
    "licenseNumber": "550008635",
    "licenseEffectiveDate": "07/10/2024",
    "licenseExpirationDate": "07/09/2025",
    "dataDate": "10/18/2025",
    "capacity": 0,
    "address": "8932 RESEDA BLVD, SUITE 201",
    "city": "NORTHRIDGE",
    "zip": "91324",
    "county": "LOS ANGELES",
    "phone": "(800) 353-8790",
    "lat": 34.232922,
    "lng": -118.535886
  },
  {
    "id": "630017384",
    "name": "KRATOS HOME HEALTH CARE INC.",
    "npi": "1275073603",
    "hcaiId": "406191443",
    "businessName": "KRATOS HOME HEALTH CARE INC.",
    "contactEmail": "KRATOSHOMEHEALTH@YAHOO.COM",
    "categoryName": "HOME HEALTH AGENCY",
    "categoryCode": "HHA",
    "licenseStatus": "ACTIVE",
    "inService": true,
    "licenseNumber": "550004399",
    "licenseEffectiveDate": "10/19/2025",
    "licenseExpirationDate": "10/18/2026",
    "dataDate": "10/18/2025",
    "capacity": 0,
    "address": "8345 RESEDA BLVD, SUITE 212",
    "city": "NORTHRIDGE",
    "zip": "91324",
    "county": "LOS ANGELES",
    "phone": "(818) 578-6671",
    "lat": 34.222068,
    "lng": -118.5362865
  },
  {
    "id": "630026417",
    "name": "LION HEART HEALTHCARE",
    "npi": null,
    "hcaiId": null,
    "businessName": "LION HEART HEALTHCARE",
    "contactEmail": "LIONHOMEHEALTHCARE@GMAIL.COM",
    "categoryName": "HOME HEALTH AGENCY",
    "categoryCode": "HHA",
    "licenseStatus": "ACTIVE",
    "inService": true,
    "licenseNumber": "550009097",
    "licenseEffectiveDate": "05/02/2025",
    "licenseExpirationDate": "05/01/2026",
    "dataDate": "10/18/2025",
    "capacity": 0,
    "address": "8949 RESEDA BLVD, SUITE 229",
    "city": "NORTHRIDGE",
    "zip": "91324",
    "county": "LOS ANGELES",
    "phone": "(818) 813-8109",
    "lat": 34.233246,
    "lng": -118.5366375
  },
  {
    "id": "630022339",
    "name": "LION HEART HOSPICE INC",
    "npi": null,
    "hcaiId": "406195195",
    "businessName": "LION HEART HOSPICE INC",
    "contactEmail": "LIONHEARTHOSPICE@GMAIL.COM",
    "categoryName": "HOSPICE",
    "categoryCode": "HOSPICE",
    "licenseStatus": "ACTIVE",
    "inService": true,
    "licenseNumber": "550007600",
    "licenseEffectiveDate": "12/18/2023",
    "licenseExpirationDate": "12/17/2025",
    "dataDate": "10/18/2025",
    "capacity": 0,
    "address": "8949 RESEDA BLVD, SUITE 227",
    "city": "NORTHRIDGE",
    "zip": "91324",
    "county": "LOS ANGELES",
    "phone": "(747) 224-0900",
    "lat": 34.233246,
    "lng": -118.5366375
  },
  {
    "id": "630020138",
    "name": "LOVING HANDS HOSPICE",
    "npi": null,
    "hcaiId": "406193632",
    "businessName": "LOVING HANDS HOSPICE",
    "contactEmail": "LOVINGHANDSHOSPICE1@GMAIL.COM",
    "categoryName": "HOSPICE",
    "categoryCode": "HOSPICE",
    "licenseStatus": "ACTIVE",
    "inService": true,
    "licenseNumber": "550006471",
    "licenseEffectiveDate": "06/22/2025",
    "licenseExpirationDate": "06/21/2027",
    "dataDate": "10/18/2025",
    "capacity": 0,
    "address": "8949 RESEDA BLVD, SUITE 214",
    "city": "NORTHRIDGE",
    "zip": "91324",
    "county": "LOS ANGELES",
    "phone": "(818) 257-2727",
    "lat": 34.23325299,
    "lng": -118.5365
  },
  {
    "id": "630019604",
    "name": "LUMEN HOSPICE INC.",
    "npi": "1972148823",
    "hcaiId": "406192930",
    "businessName": "LUMEN HOSPICE INC.",
    "contactEmail": "LUMENHOSPICE@GMAIL.COM",
    "categoryName": "HOSPICE",
    "categoryCode": "HOSPICE",
    "licenseStatus": "ACTIVE",
    "inService": true,
    "licenseNumber": "550005769",
    "licenseEffectiveDate": "09/14/2024",
    "licenseExpirationDate": "09/13/2026",
    "dataDate": "10/18/2025",
    "capacity": 0,
    "address": "9029 RESEDA BLVD, SUITE 200",
    "city": "NORTHRIDGE",
    "zip": "91324",
    "county": "LOS ANGELES",
    "phone": "(818) 839-8282",
    "lat": 34.234506,
    "lng": -118.536471
  },
  {
    "id": "630025332",
    "name": "MAGNOLIA HOME HEALTH, INC.",
    "npi": null,
    "hcaiId": "406190154",
    "businessName": "MAGNOLIA HOME HEALTH,INC.",
    "contactEmail": "4MAGNOLIAHH@GMAIL.COM",
    "categoryName": "HOME HEALTH AGENCY",
    "categoryCode": "HHA",
    "licenseStatus": "ACTIVE",
    "inService": true,
    "licenseNumber": "550008924",
    "licenseEffectiveDate": "05/30/2024",
    "licenseExpirationDate": "11/29/2024",
    "dataDate": "10/18/2025",
    "capacity": 0,
    "address": "8932 RESEDA BLVD, SUITE 100",
    "city": "NORTHRIDGE",
    "zip": "91324",
    "county": "LOS ANGELES",
    "phone": "(800) 830-9303",
    "lat": 34.232922,
    "lng": -118.535886
  },
  {
    "id": "980002273",
    "name": "MAJESTY HOME HEALTH",
    "npi": "1962462077",
    "hcaiId": "406196316",
    "businessName": "MAJESTY HOME HEALTH, INC.",
    "contactEmail": "MAJESTYHOMEHEALTH@ATT.NET",
    "categoryName": "HOME HEALTH AGENCY",
    "categoryCode": "HHA",
    "licenseStatus": "ACTIVE",
    "inService": true,
    "licenseNumber": "980001388",
    "licenseEffectiveDate": "11/25/2024",
    "licenseExpirationDate": "11/24/2025",
    "dataDate": "10/18/2025",
    "capacity": 0,
    "address": "18527 ROSCOE BLVD",
    "city": "NORTHRIDGE",
    "zip": "91324",
    "county": "LOS ANGELES",
    "phone": "(818) 775-9447",
    "lat": 34.221123,
    "lng": -118.5372495
  },
  {
    "id": "630018061",
    "name": "MEDICUS HOME HEALTH CARE, INC",
    "npi": "1679063911",
    "hcaiId": "406191609",
    "businessName": "MEDICUS HOME HEALTH CARE, INC",
    "contactEmail": "MEDICUSHHC18@ATT.NET",
    "categoryName": "HOME HEALTH AGENCY",
    "categoryCode": "HHA",
    "licenseStatus": "ACTIVE",
    "inService": true,
    "licenseNumber": "550004637",
    "licenseEffectiveDate": "04/13/2025",
    "licenseExpirationDate": "04/12/2026",
    "dataDate": "10/18/2025",
    "capacity": 0,
    "address": "8904 RESEDA BLVD, SUITE 204",
    "city": "NORTHRIDGE",
    "zip": "91324",
    "county": "LOS ANGELES",
    "phone": "(818) 280-6350",
    "lat": 34.232103,
    "lng": -118.5358815
  },
  {
    "id": "630024769",
    "name": "MEMORIAL HOME HEALTH CARE, INC",
    "npi": null,
    "hcaiId": "406195934",
    "businessName": "MEMORIAL HOME HEALTH CARE, INC",
    "contactEmail": "MEMORIALHHC@GMAIL.COM",
    "categoryName": "HOME HEALTH AGENCY",
    "categoryCode": "HHA",
    "licenseStatus": "ACTIVE",
    "inService": true,
    "licenseNumber": "550008238",
    "licenseEffectiveDate": "11/30/2024",
    "licenseExpirationDate": "11/29/2025",
    "dataDate": "10/18/2025",
    "capacity": 0,
    "address": "8345 RESEDA BLVD, SUITE 109",
    "city": "NORTHRIDGE",
    "zip": "91324",
    "county": "LOS ANGELES",
    "phone": "(818) 287-6990",
    "lat": 34.222068,
    "lng": -118.5362865
  },
  {
    "id": "630021266",
    "name": "MERCY VILLA HOSPICE, INC",
    "npi": null,
    "hcaiId": "406193321",
    "businessName": "MERCY VILLA HOSPICE, INC",
    "contactEmail": "MERCYVILLAHOSPICE@GMAIL.COM",
    "categoryName": "HOSPICE",
    "categoryCode": "HOSPICE",
    "licenseStatus": "ACTIVE",
    "inService": true,
    "licenseNumber": "550007121",
    "licenseEffectiveDate": "10/09/2025",
    "licenseExpirationDate": "10/08/2027",
    "dataDate": "10/18/2025",
    "capacity": 0,
    "address": "9700 RESEDA BLVD, SUITE 100",
    "city": "NORTHRIDGE",
    "zip": "91324",
    "county": "LOS ANGELES",
    "phone": "(818) 651-7595",
    "lat": 34.246728,
    "lng": -118.535868
  },
  {
    "id": "630020417",
    "name": "MIDAS TOUCH HOME HEALTH SERVICES, INC",
    "npi": null,
    "hcaiId": "406195826",
    "businessName": "MIDAS TOUCH HOME HEALTH SERVICES, INC.",
    "contactEmail": "MIDASTOUCHHHS@GMAIL.COM",
    "categoryName": "HOME HEALTH AGENCY",
    "categoryCode": "HHA",
    "licenseStatus": "ACTIVE",
    "inService": true,
    "licenseNumber": "550007936",
    "licenseEffectiveDate": "05/19/2025",
    "licenseExpirationDate": "03/30/2026",
    "dataDate": "10/18/2025",
    "capacity": 0,
    "address": "18531 ROSCOE BLVD, SUITE 204B",
    "city": "NORTHRIDGE",
    "zip": "91324",
    "county": "LOS ANGELES",
    "phone": "(818) 245-6169",
    "lat": 34.22113799,
    "lng": -118.537327
  },
  {
    "id": "630020982",
    "name": "MY MED HOME CARE",
    "npi": null,
    "hcaiId": "406195900",
    "businessName": "MY MED HOME CARE",
    "contactEmail": "MYMEDHOMECARE@GMAIL.COM",
    "categoryName": "HOME HEALTH AGENCY",
    "categoryCode": "HHA",
    "licenseStatus": "ACTIVE",
    "inService": true,
    "licenseNumber": "550008097",
    "licenseEffectiveDate": "06/14/2025",
    "licenseExpirationDate": "06/13/2026",
    "dataDate": "10/18/2025",
    "capacity": 0,
    "address": "9010 CORBIN AVE, SUITE 12B",
    "city": "NORTHRIDGE",
    "zip": "91324",
    "county": "LOS ANGELES",
    "phone": "(888) 804-4604",
    "lat": 34.234443,
    "lng": -118.560771
  },
  {
    "id": "630025280",
    "name": "NEOMED HOME HEALTH CARE, INC",
    "npi": null,
    "hcaiId": null,
    "businessName": "NEOMED HOME HEALTH CARE, INC",
    "contactEmail": "NEOMEDHHC2021@GMAIL.COM",
    "categoryName": "HOME HEALTH AGENCY",
    "categoryCode": "HHA",
    "licenseStatus": "ACTIVE",
    "inService": true,
    "licenseNumber": "550008676",
    "licenseEffectiveDate": "07/10/2025",
    "licenseExpirationDate": "07/09/2026",
    "dataDate": "10/18/2025",
    "capacity": 0,
    "address": "8904 RESEDA BLVD, SUITE 202",
    "city": "NORTHRIDGE",
    "zip": "91324",
    "county": "LOS ANGELES",
    "phone": "(818) 658-6325",
    "lat": 34.232103,
    "lng": -118.5358815
  },
  {
    "id": "980000767",
    "name": "NEW START CLHF'S INDEPENDENT TRAINING CENTERS - WILBUR HOUSE",
    "npi": null,
    "hcaiId": "206194078",
    "businessName": "NEW START CLHF'S INDEPENDENT TRAINING CENTERS",
    "contactEmail": "SIAN@NEWSTARTCLHFS.COM",
    "categoryName": "CONGREGATE LIVING HEALTH FACILITY",
    "categoryCode": "CLHF",
    "licenseStatus": "ACTIVE",
    "inService": true,
    "licenseNumber": "980000430",
    "licenseEffectiveDate": "01/28/2025",
    "licenseExpirationDate": "01/27/2026",
    "dataDate": "10/18/2025",
    "capacity": 6,
    "address": "18900 MAYALL ST",
    "city": "NORTHRIDGE",
    "zip": "91324",
    "county": "LOS ANGELES",
    "phone": "(818) 606-1611",
    "lat": 34.25337,
    "lng": -118.54512
  },
  {
    "id": "060002141",
    "name": "NEW SUNRISE ADULT DAY HEALTH CARE CENTER",
    "npi": null,
    "hcaiId": null,
    "businessName": "NEW SUNRISE ADULT DAY HEALTH CARE, INC.",
    "contactEmail": "AIDA@NEWSUNRISEADHC.COM",
    "categoryName": "ADULT DAY HEALTH CARE",
    "categoryCode": "ADHC",
    "licenseStatus": "ACTIVE",
    "inService": true,
    "licenseNumber": "060000931",
    "licenseEffectiveDate": "06/30/2025",
    "licenseExpirationDate": "06/29/2026",
    "dataDate": "10/18/2025",
    "capacity": 0,
    "address": "9350 RESEDA BLVD",
    "city": "NORTHRIDGE",
    "zip": "91324",
    "county": "LOS ANGELES",
    "phone": "(818) 701-0010",
    "lat": 34.240617,
    "lng": -118.535553
  },
  {
    "id": "630011147",
    "name": "NORTHRIDGE ADVANCED SURGERY CENTER",
    "npi": "1417971821",
    "hcaiId": null,
    "businessName": null,
    "contactEmail": null,
    "categoryName": "SURGICAL CLINIC",
    "categoryCode": "ASC",
    "licenseStatus": null,
    "inService": null,
    "licenseNumber": null,
    "licenseEffectiveDate": null,
    "licenseExpirationDate": null,
    "dataDate": "10/18/2025",
    "capacity": 0,
    "address": "8331 RESEDA BLVD",
    "city": "NORTHRIDGE",
    "zip": "91324",
    "county": "LOS ANGELES",
    "phone": "(818) 993-3428",
    "lat": 34.221699,
    "lng": -118.536291
  },
  {
    "id": "630012757",
    "name": "NORTHRIDGE DIALYSIS CENTER",
    "npi": "1801128301",
    "hcaiId": "306197185",
    "businessName": "NORTHRIDGE DIALYSIS CENTER, LLC",
    "contactEmail": "INFO@NATIONALRENALCARE.COM",
    "categoryName": "CHRONIC DIALYSIS CLINIC",
    "categoryCode": "ESRD/CDC",
    "licenseStatus": "ACTIVE",
    "inService": true,
    "licenseNumber": "550001462",
    "licenseEffectiveDate": "01/19/2025",
    "licenseExpirationDate": "01/18/2026",
    "dataDate": "10/18/2025",
    "capacity": 22,
    "address": "9325 RESEDA BLVD",
    "city": "NORTHRIDGE",
    "zip": "91324",
    "county": "LOS ANGELES",
    "phone": "(818) 993-6700",
    "lat": 34.239771,
    "lng": -118.536282
  },
  {
    "id": "630017747",
    "name": "NORTHRIDGE KIDNEY CARE CENTER, LLC",
    "npi": null,
    "hcaiId": "306190393",
    "businessName": "NORTHRIDGE KIDNEY CARE CENTER, LLC",
    "contactEmail": "INFO@NATIONALRENALCARE.COM",
    "categoryName": "CHRONIC DIALYSIS CLINIC",
    "categoryCode": "ESRD/CDC",
    "licenseStatus": "ACTIVE",
    "inService": true,
    "licenseNumber": "550004412",
    "licenseEffectiveDate": "10/29/2025",
    "licenseExpirationDate": "10/28/2026",
    "dataDate": "10/18/2025",
    "capacity": 25,
    "address": "19333 BUSINESS CENTER DR",
    "city": "NORTHRIDGE",
    "zip": "91324",
    "county": "LOS ANGELES",
    "phone": "(818) 709-9999",
    "lat": 34.231338,
    "lng": -118.554939
  },
  {
    "id": "630026018",
    "name": "NORTHRIDGE MANOR",
    "npi": "1972259190",
    "hcaiId": null,
    "businessName": "NORTHRIDGE MANOR",
    "contactEmail": "NORTHRIDGEMANORICF@GMAIL.COM",
    "categoryName": "INTERMEDIATE CARE FACILITY-DD/H/N/CN/IID",
    "categoryCode": "ICFDDN",
    "licenseStatus": "ACTIVE",
    "inService": true,
    "licenseNumber": "550008614",
    "licenseEffectiveDate": "06/27/2025",
    "licenseExpirationDate": "06/26/2026",
    "dataDate": "10/18/2025",
    "capacity": 6,
    "address": "9501 VANALDEN AVE",
    "city": "NORTHRIDGE",
    "zip": "91324",
    "county": "LOS ANGELES",
    "phone": "(818) 626-9823",
    "lat": 34.243011,
    "lng": -118.549485
  },
  {
    "id": "630016302",
    "name": "NORTHRIDGE OUTPATIENT SURGERY CENTER",
    "npi": "1225439508",
    "hcaiId": null,
    "businessName": null,
    "contactEmail": null,
    "categoryName": "SURGICAL CLINIC",
    "categoryCode": "ASC",
    "licenseStatus": null,
    "inService": null,
    "licenseNumber": null,
    "licenseEffectiveDate": null,
    "licenseExpirationDate": null,
    "dataDate": "10/18/2025",
    "capacity": 0,
    "address": "19871 NORDHOFF ST.",
    "city": "NORTHRIDGE",
    "zip": "91324",
    "county": "LOS ANGELES",
    "phone": "(818) 590-7364",
    "lat": 34.232481,
    "lng": -118.5664995
  },
  {
    "id": "630020504",
    "name": "OAKTREE HOSPICE, INC.",
    "npi": null,
    "hcaiId": "406196171",
    "businessName": "OAKTREE HOSPICE, INC.",
    "contactEmail": "OAKTREEHOSPICE@GMAIL.COM",
    "categoryName": "HOSPICE",
    "categoryCode": "HOSPICE",
    "licenseStatus": "ACTIVE",
    "inService": true,
    "licenseNumber": "550007401",
    "licenseEffectiveDate": "10/15/2024",
    "licenseExpirationDate": "11/18/2025",
    "dataDate": "10/18/2025",
    "capacity": 0,
    "address": "8700 RESEDA BLVD, SUITE 102B",
    "city": "NORTHRIDGE",
    "zip": "91324",
    "county": "LOS ANGELES",
    "phone": "(213) 513-4577",
    "lat": 34.22998999,
    "lng": -118.535693
  },
  {
    "id": "630013988",
    "name": "OPEN ARMS PREGNANCY CLINIC",
    "npi": null,
    "hcaiId": "306197556",
    "businessName": "OPEN ARMS PREGNANCY CLINIC",
    "contactEmail": "DEBI@OPENARMSPREGNANCY.COM",
    "categoryName": "PRIMARY CARE CLINIC",
    "categoryCode": "COMTYC",
    "licenseStatus": "ACTIVE",
    "inService": true,
    "licenseNumber": "550002183",
    "licenseEffectiveDate": "01/25/2025",
    "licenseExpirationDate": "01/24/2026",
    "dataDate": "10/18/2025",
    "capacity": 0,
    "address": "9535 RESEDA BLVD, SUITE 303",
    "city": "NORTHRIDGE",
    "zip": "91324",
    "county": "LOS ANGELES",
    "phone": "(818) 626-9404",
    "lat": 34.243119,
    "lng": -118.5370155
  },
  {
    "id": "630018323",
    "name": "OREMOS HOME HEALTH CARE",
    "npi": null,
    "hcaiId": "406193119",
    "businessName": "OREMOS HOME HEALTH CARE",
    "contactEmail": "OREMOSHHC@GMAIL.COM",
    "categoryName": "HOME HEALTH AGENCY",
    "categoryCode": "HHA",
    "licenseStatus": "ACTIVE",
    "inService": true,
    "licenseNumber": "550005993",
    "licenseEffectiveDate": "12/24/2024",
    "licenseExpirationDate": "12/23/2025",
    "dataDate": "10/18/2025",
    "capacity": 0,
    "address": "8949 RESEDA BLVD, SUITE 106",
    "city": "NORTHRIDGE",
    "zip": "91324",
    "county": "LOS ANGELES",
    "phone": "(818) 960-4532",
    "lat": 34.233255,
    "lng": -118.536501
  },
  {
    "id": "630014482",
    "name": "PREMIER HOSPICE, INC.",
    "npi": "1033555446",
    "hcaiId": "406198272",
    "businessName": "PREMIER HOSPICE, INC.",
    "contactEmail": "ADMIN@PREMIERHOSPICEINC.COM",
    "categoryName": "HOSPICE",
    "categoryCode": "HOSPICE",
    "licenseStatus": "ACTIVE",
    "inService": true,
    "licenseNumber": "550002853",
    "licenseEffectiveDate": "09/29/2022",
    "licenseExpirationDate": "09/28/2024",
    "dataDate": "10/18/2025",
    "capacity": 0,
    "address": "19355 BUSINESS CENTER DR., UNIT #2",
    "city": "NORTHRIDGE",
    "zip": "91324",
    "county": "LOS ANGELES",
    "phone": "(800) 775-6522",
    "lat": 34.231509,
    "lng": -118.5554025
  },
  {
    "id": "630024453",
    "name": "PRIME HEALTHCARE SURGICAL CENTER OF THE VALLEY",
    "npi": null,
    "hcaiId": null,
    "businessName": "PRIME HEALTHCARE ASC - NORTHRIDGE LLC",
    "contactEmail": "EMGARCIA@PRIMEHEALTHCARE.COM",
    "categoryName": "SURGICAL CLINIC",
    "categoryCode": "ASC/SURGC",
    "licenseStatus": "ACTIVE",
    "inService": true,
    "licenseNumber": "550008485",
    "licenseEffectiveDate": "03/24/2025",
    "licenseExpirationDate": "03/23/2026",
    "dataDate": "10/18/2025",
    "capacity": 0,
    "address": "19331 BUSINESS CENTER DR, SUITE 102",
    "city": "NORTHRIDGE",
    "zip": "91324",
    "county": "LOS ANGELES",
    "phone": "(818) 709-5555",
    "lat": 34.231185,
    "lng": -118.5546555
  },
  {
    "id": "630021206",
    "name": "PROFESSIONAL LIFECARE HOSPICE, INC.",
    "npi": null,
    "hcaiId": "406193390",
    "businessName": "PROFESSIONAL LIFECARE HOSPICE, INC.",
    "contactEmail": "LIFECAREHOSPICEINC2020@GMAIL.COM",
    "categoryName": "HOSPICE",
    "categoryCode": "HOSPICE",
    "licenseStatus": "ACTIVE",
    "inService": true,
    "licenseNumber": "550007009",
    "licenseEffectiveDate": "10/07/2025",
    "licenseExpirationDate": "10/06/2027",
    "dataDate": "10/18/2025",
    "capacity": 0,
    "address": "8363 RESEDA BLVD, SUITE 200B",
    "city": "NORTHRIDGE",
    "zip": "91324",
    "county": "LOS ANGELES",
    "phone": "(818) 818-6509",
    "lat": 34.222563,
    "lng": -118.536291
  },
  {
    "id": "630027040",
    "name": "PURE HEALING HOME CARE",
    "npi": null,
    "hcaiId": null,
    "businessName": "PURE HEALING HOME CARE",
    "contactEmail": "PUREHEALINGHOMECARE@GMAIL.COM",
    "categoryName": "HOME HEALTH AGENCY",
    "categoryCode": "HHA",
    "licenseStatus": "ACTIVE",
    "inService": true,
    "licenseNumber": "550009297",
    "licenseEffectiveDate": "02/16/2025",
    "licenseExpirationDate": "08/15/2025",
    "dataDate": "10/18/2025",
    "capacity": 0,
    "address": "9003 RESEDA BLVD, SUITE 202C",
    "city": "NORTHRIDGE",
    "zip": "91324",
    "county": "LOS ANGELES",
    "phone": "(818) 434-4459",
    "lat": 34.233723,
    "lng": -118.536282
  },
  {
    "id": "630013508",
    "name": "QUALITY PALLIATIVE CARE, INCORPORATED",
    "npi": null,
    "hcaiId": "406197983",
    "businessName": "QUALITY PALLIATIVE CARE, INCORPORATED",
    "contactEmail": "QUALITYPALLIATIVECAREHOSPICE@GMAIL.COM",
    "categoryName": "HOSPICE",
    "categoryCode": "HOSPICE",
    "licenseStatus": "ACTIVE",
    "inService": false,
    "licenseNumber": "550002137",
    "licenseEffectiveDate": "11/01/2024",
    "licenseExpirationDate": "10/31/2026",
    "dataDate": "10/18/2025",
    "capacity": 0,
    "address": "9350 RESEDA BLVD, UNIT A",
    "city": "NORTHRIDGE",
    "zip": "91324",
    "county": "LOS ANGELES",
    "phone": "(818) 882-6600",
    "lat": 34.240617,
    "lng": -118.535553
  },
  {
    "id": "630017897",
    "name": "RED CROSS HOSPICE INC",
    "npi": null,
    "hcaiId": "406192414",
    "businessName": "RED CROSS HOSPICE INC",
    "contactEmail": "REDCROSSHOSPICE@GMAIL.COM",
    "categoryName": "HOSPICE",
    "categoryCode": "HOSPICE",
    "licenseStatus": "ACTIVE",
    "inService": true,
    "licenseNumber": "550005289",
    "licenseEffectiveDate": "02/13/2024",
    "licenseExpirationDate": "02/12/2026",
    "dataDate": "10/18/2025",
    "capacity": 0,
    "address": "8817 RESEDA BLVD, UNIT D",
    "city": "NORTHRIDGE",
    "zip": "91324",
    "county": "LOS ANGELES",
    "phone": "(818) 946-8309",
    "lat": 34.23126501,
    "lng": -118.536395
  },
  {
    "id": "630023784",
    "name": "RESPECTED HEALTHCARE SERVICES",
    "npi": null,
    "hcaiId": "406195423",
    "businessName": "RESPECTED HEALTHCARE SERVICES",
    "contactEmail": "RESPECTEDHEALTHCARE@GMAIL.COM",
    "categoryName": "HOME HEALTH AGENCY",
    "categoryCode": "HHA",
    "licenseStatus": "ACTIVE",
    "inService": true,
    "licenseNumber": "550008035",
    "licenseEffectiveDate": "06/17/2025",
    "licenseExpirationDate": "06/16/2026",
    "dataDate": "10/18/2025",
    "capacity": 0,
    "address": "8932 RESEDA BLVD, SUITE 107",
    "city": "NORTHRIDGE",
    "zip": "91324",
    "county": "LOS ANGELES",
    "phone": "(818) 284-6055",
    "lat": 34.232922,
    "lng": -118.535886
  },
  {
    "id": "630026948",
    "name": "ROSE VILLA HOME HEALTH, INC",
    "npi": null,
    "hcaiId": null,
    "businessName": "ROSE VILLA HOME HEALTH, INC",
    "contactEmail": "ALAVERDYANARPINE@GMAIL.COM",
    "categoryName": "HOME HEALTH AGENCY",
    "categoryCode": "HHA",
    "licenseStatus": "ACTIVE",
    "inService": true,
    "licenseNumber": "550009387",
    "licenseEffectiveDate": "09/11/2025",
    "licenseExpirationDate": "09/10/2026",
    "dataDate": "10/18/2025",
    "capacity": 0,
    "address": "9700 RESEDA BLVD, SUITE 209",
    "city": "NORTHRIDGE",
    "zip": "91324",
    "county": "LOS ANGELES",
    "phone": "(818) 659-6548",
    "lat": 34.246728,
    "lng": -118.535868
  },
  {
    "id": "630015445",
    "name": "SAUNDERS HOSPICE, LLC",
    "npi": null,
    "hcaiId": "406198391",
    "businessName": "SAUNDERS HOSPICE, LLC",
    "contactEmail": "SHOSPICE05@GMAIL.COM",
    "categoryName": "HOSPICE",
    "categoryCode": "HOSPICE",
    "licenseStatus": "ACTIVE",
    "inService": true,
    "licenseNumber": "550003778",
    "licenseEffectiveDate": "01/13/2025",
    "licenseExpirationDate": "01/12/2027",
    "dataDate": "10/18/2025",
    "capacity": 0,
    "address": "9017 RESEDA BLVD., SUITE 209",
    "city": "NORTHRIDGE",
    "zip": "91324",
    "county": "LOS ANGELES",
    "phone": "(818) 717-8633",
    "lat": 34.234155,
    "lng": -118.5364845
  },
  {
    "id": "630027530",
    "name": "SEONA HOME HEALTH",
    "npi": null,
    "hcaiId": null,
    "businessName": "SEONA HOME HEALTH",
    "contactEmail": "SEONAHOMEHEALTH@GMAIL.COM",
    "categoryName": "HOME HEALTH AGENCY",
    "categoryCode": "HHA",
    "licenseStatus": "ACTIVE",
    "inService": true,
    "licenseNumber": "550009695",
    "licenseEffectiveDate": "09/06/2025",
    "licenseExpirationDate": "03/05/2026",
    "dataDate": "10/18/2025",
    "capacity": 0,
    "address": "8363 RESEDA BLVD, SUITE 201",
    "city": "NORTHRIDGE",
    "zip": "91324",
    "county": "LOS ANGELES",
    "phone": "(818) 269-4627",
    "lat": 34.222519,
    "lng": -118.536738
  },
  {
    "id": "630021216",
    "name": "SEONA HOSPICE CARE, INC",
    "npi": null,
    "hcaiId": "406196081",
    "businessName": "SEONA HOSPICE CARE, INC",
    "contactEmail": "SEONAHOSPICECARE@GMAIL.COM",
    "categoryName": "HOSPICE",
    "categoryCode": "HOSPICE",
    "licenseStatus": "ACTIVE",
    "inService": true,
    "licenseNumber": "550006648",
    "licenseEffectiveDate": "08/05/2025",
    "licenseExpirationDate": "08/04/2027",
    "dataDate": "10/18/2025",
    "capacity": 0,
    "address": "8363 RESEDA BLVD, UNIT 206",
    "city": "NORTHRIDGE",
    "zip": "91324",
    "county": "LOS ANGELES",
    "phone": "(818) 635-7132",
    "lat": 34.222563,
    "lng": -118.536291
  },
  {
    "id": "630020543",
    "name": "SERENITY HOSPICE AND PALLIATIVE CARE, INC.",
    "npi": null,
    "hcaiId": "406193690",
    "businessName": "SERENITY HOSPICE AND PALLIATIVE CARE, INC.",
    "contactEmail": "SERENITYHOSPICEPC@GMAIL.COM",
    "categoryName": "HOSPICE",
    "categoryCode": "HOSPICE",
    "licenseStatus": "ACTIVE",
    "inService": true,
    "licenseNumber": "550006544",
    "licenseEffectiveDate": "07/09/2025",
    "licenseExpirationDate": "07/08/2027",
    "dataDate": "10/18/2025",
    "capacity": 0,
    "address": "9017 RESEDA BLVD, SUITE 211",
    "city": "NORTHRIDGE",
    "zip": "91324",
    "county": "LOS ANGELES",
    "phone": "(818) 626-8877",
    "lat": 34.234155,
    "lng": -118.5364845
  },
  {
    "id": "630025648",
    "name": "SOLISMED HOME HEALTH CARE, INC.",
    "npi": null,
    "hcaiId": "406197951",
    "businessName": "SOLISMED HOME HEALTH CARE, INC.",
    "contactEmail": "SOLISMEDHHC22@GMAIL.COM",
    "categoryName": "HOME HEALTH AGENCY",
    "categoryCode": "HHA",
    "licenseStatus": "ACTIVE",
    "inService": true,
    "licenseNumber": "550008734",
    "licenseEffectiveDate": "09/13/2025",
    "licenseExpirationDate": "09/12/2026",
    "dataDate": "10/18/2025",
    "capacity": 0,
    "address": "8904 RESEDA BLVD, SUITE 201",
    "city": "NORTHRIDGE",
    "zip": "91324",
    "county": "LOS ANGELES",
    "phone": "(818) 358-7190",
    "lat": 34.232103,
    "lng": -118.5358815
  },
  {
    "id": "630018859",
    "name": "STARLITE HOME HEALTH",
    "npi": null,
    "hcaiId": "406192799",
    "businessName": "A&G HOME HEALTH CARE LLC",
    "contactEmail": "AGHHCLLC@GMAIL.COM",
    "categoryName": "HOME HEALTH AGENCY",
    "categoryCode": "HHA",
    "licenseStatus": "ACTIVE",
    "inService": true,
    "licenseNumber": "550005691",
    "licenseEffectiveDate": "08/22/2025",
    "licenseExpirationDate": "08/21/2026",
    "dataDate": "10/18/2025",
    "capacity": 0,
    "address": "8300 TAMPA AVE, SUITE E",
    "city": "NORTHRIDGE",
    "zip": "91324",
    "county": "LOS ANGELES",
    "phone": "(818) 818-5172",
    "lat": 34.220691,
    "lng": -118.5531795
  },
  {
    "id": "630019737",
    "name": "STAT HOME HEALTH, INC",
    "npi": null,
    "hcaiId": "406192840",
    "businessName": "STAT HOME HEALTH, INC",
    "contactEmail": "STATHHINC@GMAIL.COM",
    "categoryName": "HOME HEALTH AGENCY",
    "categoryCode": "HHA",
    "licenseStatus": "ACTIVE",
    "inService": true,
    "licenseNumber": "550005705",
    "licenseEffectiveDate": "09/01/2025",
    "licenseExpirationDate": "08/31/2026",
    "dataDate": "10/18/2025",
    "capacity": 0,
    "address": "9700 RESEDA BLVD, SUITE 202",
    "city": "NORTHRIDGE",
    "zip": "91324",
    "county": "LOS ANGELES",
    "phone": "(818) 533-2335",
    "lat": 34.246728,
    "lng": -118.535868
  },
  {
    "id": "630025841",
    "name": "SUBLIME HOME HEALTH CARE, INC.",
    "npi": null,
    "hcaiId": null,
    "businessName": "SUBLIME HOME HEALTH CARE, INC.",
    "contactEmail": "SUBLIMEHOMEHEALTH@GMAIL.COM",
    "categoryName": "HOME HEALTH AGENCY",
    "categoryCode": "HHA",
    "licenseStatus": "ACTIVE",
    "inService": true,
    "licenseNumber": "550009205",
    "licenseEffectiveDate": "05/20/2025",
    "licenseExpirationDate": "05/19/2026",
    "dataDate": "10/18/2025",
    "capacity": 0,
    "address": "8700 RESEDA BLVD, SUITE 217",
    "city": "NORTHRIDGE",
    "zip": "91324",
    "county": "LOS ANGELES",
    "phone": "(747) 237-7366",
    "lat": 34.22955857,
    "lng": -118.5360311
  },
  {
    "id": "630020894",
    "name": "SUNLIT HOME HEALTH",
    "npi": null,
    "hcaiId": "406193455",
    "businessName": "LEADING HOME HEALTH CARE, INC.",
    "contactEmail": "SUNLITHOSPICE@SUNLITHOSPICE.COM",
    "categoryName": "HOME HEALTH AGENCY",
    "categoryCode": "HHA",
    "licenseStatus": "ACTIVE",
    "inService": true,
    "licenseNumber": "550007094",
    "licenseEffectiveDate": "11/09/2025",
    "licenseExpirationDate": "11/08/2026",
    "dataDate": "10/18/2025",
    "capacity": 0,
    "address": "8444 RESEDA BLVD, SUITE I",
    "city": "NORTHRIDGE",
    "zip": "91324",
    "county": "LOS ANGELES",
    "phone": "(818) 850-5070",
    "lat": 34.22391898,
    "lng": -118.535675
  },
  {
    "id": "630014344",
    "name": "SUNLIT HOSPICE INC.",
    "npi": null,
    "hcaiId": "406198336",
    "businessName": "SUNLIT HOSPICE INC.",
    "contactEmail": "SUNLITHOSPICE@SUNLITHOSPICE.COM",
    "categoryName": "HOSPICE",
    "categoryCode": "HOSPICE",
    "licenseStatus": "ACTIVE",
    "inService": true,
    "licenseNumber": "550002722",
    "licenseEffectiveDate": "05/23/2024",
    "licenseExpirationDate": "05/22/2026",
    "dataDate": "10/18/2025",
    "capacity": 0,
    "address": "8444 RESEDA BLVD, SUITE H",
    "city": "NORTHRIDGE",
    "zip": "91324",
    "county": "LOS ANGELES",
    "phone": "(747) 202-3179",
    "lat": 34.223913,
    "lng": -118.5356655
  },
  {
    "id": "630018988",
    "name": "SUNNYSIDE HOME HEALTH SERVICES, INC.",
    "npi": "1205493277",
    "hcaiId": "406192495",
    "businessName": "SUNNYSIDE HOME HEALTH SERVICES, INC.",
    "contactEmail": "SUNNYSIDEHHS@GMAIL.COM",
    "categoryName": "HOME HEALTH AGENCY",
    "categoryCode": "HHA",
    "licenseStatus": "ACTIVE",
    "inService": true,
    "licenseNumber": "550005426",
    "licenseEffectiveDate": "03/05/2022",
    "licenseExpirationDate": "03/04/2023",
    "dataDate": "10/18/2025",
    "capacity": 0,
    "address": "8448 RESEDA BLVD, SUITE 207",
    "city": "NORTHRIDGE",
    "zip": "91324",
    "county": "LOS ANGELES",
    "phone": "(747) 224-1385",
    "lat": 34.224075,
    "lng": -118.5356655
  },
  {
    "id": "630017525",
    "name": "SUNRISE HOME CARE, INC.",
    "npi": null,
    "hcaiId": "406192065",
    "businessName": "SUNRISE HOME CARE, INC.",
    "contactEmail": "INFO@SUNRISEHOMECARELA.COM",
    "categoryName": "HOME HEALTH AGENCY",
    "categoryCode": "HHA",
    "licenseStatus": "ACTIVE",
    "inService": true,
    "licenseNumber": "550004534",
    "licenseEffectiveDate": "01/15/2025",
    "licenseExpirationDate": "01/14/2026",
    "dataDate": "10/18/2025",
    "capacity": 0,
    "address": "9003 RESEDA BLVD, SUITE 202A",
    "city": "NORTHRIDGE",
    "zip": "91324",
    "county": "LOS ANGELES",
    "phone": "(818) 616-8183",
    "lat": 34.233888,
    "lng": -118.536479
  },
  {
    "id": "960002135",
    "name": "TARZANA TREATMENT CENTER FAMILY MEDICAL CLINIC",
    "npi": null,
    "hcaiId": "306197007",
    "businessName": "TARZANA TREATMENT CENTERS, INC.",
    "contactEmail": "ASENELLA@TARZANATC.ORG",
    "categoryName": "PRIMARY CARE CLINIC",
    "categoryCode": "COMTYC",
    "licenseStatus": "ACTIVE",
    "inService": true,
    "licenseNumber": "960001015",
    "licenseEffectiveDate": "02/27/2025",
    "licenseExpirationDate": "02/26/2026",
    "dataDate": "10/18/2025",
    "capacity": 0,
    "address": "8330 RESEDA BLVD",
    "city": "NORTHRIDGE",
    "zip": "91324",
    "county": "LOS ANGELES",
    "phone": "(818) 654-3815",
    "lat": 34.221681,
    "lng": -118.5358815
  },
  {
    "id": "630026100",
    "name": "TENDER TOUCH HOME HEALTH SERVICES",
    "npi": null,
    "hcaiId": null,
    "businessName": "TENDER TOUCH HOME HEALTH SERVICES",
    "contactEmail": "TENDERTOUCH.HHS@GMAIL.COM",
    "categoryName": "HOME HEALTH AGENCY",
    "categoryCode": "HHA",
    "licenseStatus": "ACTIVE",
    "inService": true,
    "licenseNumber": "550009182",
    "licenseEffectiveDate": "05/24/2025",
    "licenseExpirationDate": "05/23/2026",
    "dataDate": "10/18/2025",
    "capacity": 0,
    "address": "8932 RESEDA BLVD, SUITE 103",
    "city": "NORTHRIDGE",
    "zip": "91324",
    "county": "LOS ANGELES",
    "phone": "(818) 659-5455",
    "lat": 34.232922,
    "lng": -118.535886
  },
  {
    "id": "960002094",
    "name": "TLC - DONNA HOUSE",
    "npi": "1366651101",
    "hcaiId": null,
    "businessName": "THERAPEUTIC LIVING CENTERS FOR THE BLIND, INC.",
    "contactEmail": "LGLOVER@TLC4BLIND.ORG",
    "categoryName": "INTERMEDIATE CARE FACILITY-DD/H/N/CN/IID",
    "categoryCode": "ICFDDH",
    "licenseStatus": "ACTIVE",
    "inService": true,
    "licenseNumber": "960001000",
    "licenseEffectiveDate": "12/27/2024",
    "licenseExpirationDate": "12/26/2025",
    "dataDate": "10/18/2025",
    "capacity": 6,
    "address": "9530 DONNA AVE",
    "city": "NORTHRIDGE",
    "zip": "91324",
    "county": "LOS ANGELES",
    "phone": "(818) 797-8852",
    "lat": 34.243947,
    "lng": -118.5473115
  },
  {
    "id": "630019388",
    "name": "TRAM HOSPICE CARE, INC",
    "npi": null,
    "hcaiId": "406192565",
    "businessName": "TRAM HOSPICE CARE, INC",
    "contactEmail": "TRAMHOSPICE54@GMAIL.COM",
    "categoryName": "HOSPICE",
    "categoryCode": "HOSPICE",
    "licenseStatus": "ACTIVE",
    "inService": true,
    "licenseNumber": "550005344",
    "licenseEffectiveDate": "07/09/2025",
    "licenseExpirationDate": "03/06/2026",
    "dataDate": "10/18/2025",
    "capacity": 0,
    "address": "9221 CORBIN AVE, SUITE 175",
    "city": "NORTHRIDGE",
    "zip": "91324",
    "county": "LOS ANGELES",
    "phone": "(818) 937-9145",
    "lat": 34.237757,
    "lng": -118.56293
  },
  {
    "id": "630021068",
    "name": "TRI MEADOWS HEALTHCARE LLC",
    "npi": null,
    "hcaiId": "406193384",
    "businessName": "TRI MEADOWS HEALTHCARE LLC",
    "contactEmail": "TRI.MEADOWS.HEALTHCARE@GMAIL.COM",
    "categoryName": "HOSPICE",
    "categoryCode": "HOSPICE",
    "licenseStatus": "ACTIVE",
    "inService": true,
    "licenseNumber": "550006521",
    "licenseEffectiveDate": "07/02/2025",
    "licenseExpirationDate": "07/01/2027",
    "dataDate": "10/18/2025",
    "capacity": 0,
    "address": "8622 RESEDA BLVD, SUITE 204",
    "city": "NORTHRIDGE",
    "zip": "91324",
    "county": "LOS ANGELES",
    "phone": "(818) 818-6125",
    "lat": 34.227198,
    "lng": -118.535661
  },
  {
    "id": "630018946",
    "name": "TRISTAR HOME HEALTH CARE, INC",
    "npi": null,
    "hcaiId": "406192694",
    "businessName": "TRISTAR HOME HEALTH CARE, INC.",
    "contactEmail": "TRISTARHH@GMAIL.COM",
    "categoryName": "HOME HEALTH AGENCY",
    "categoryCode": "HHA",
    "licenseStatus": "ACTIVE",
    "inService": true,
    "licenseNumber": "550005518",
    "licenseEffectiveDate": "06/17/2025",
    "licenseExpirationDate": "06/16/2026",
    "dataDate": "10/18/2025",
    "capacity": 0,
    "address": "8363 RESEDA BLVD, SUITE 203B",
    "city": "NORTHRIDGE",
    "zip": "91324",
    "county": "LOS ANGELES",
    "phone": "(562) 338-6087",
    "lat": 34.222563,
    "lng": -118.536291
  },
  {
    "id": "630019442",
    "name": "TULIP HOSPICE INC",
    "npi": "1578114641",
    "hcaiId": "406192937",
    "businessName": "TULIP HOSPICE INC",
    "contactEmail": "TULIPHOSPICE@GMAIL.COM",
    "categoryName": "HOSPICE",
    "categoryCode": "HOSPICE",
    "licenseStatus": "ACTIVE",
    "inService": true,
    "licenseNumber": "550005786",
    "licenseEffectiveDate": "09/21/2024",
    "licenseExpirationDate": "09/20/2026",
    "dataDate": "10/18/2025",
    "capacity": 0,
    "address": "9221 CORBIN AVE, SUITE 225",
    "city": "NORTHRIDGE",
    "zip": "91324",
    "county": "LOS ANGELES",
    "phone": "(818) 646-1710",
    "lat": 34.237757,
    "lng": -118.56293
  },
  {
    "id": "930000200",
    "name": "U.S. RENAL CARE NORTHRIDGE DIALYSIS",
    "npi": "1477890291",
    "hcaiId": "306191298",
    "businessName": "INNOVATIVE DIALYSIS CENTER OF NORTHRIDGE, LLC",
    "contactEmail": "JBCAPISTRANO@USRENALCARE.COM",
    "categoryName": "CHRONIC DIALYSIS CLINIC",
    "categoryCode": "ESRD/CDC",
    "licenseStatus": "ACTIVE",
    "inService": true,
    "licenseNumber": "930000303",
    "licenseEffectiveDate": "11/01/2025",
    "licenseExpirationDate": "10/31/2026",
    "dataDate": "10/18/2025",
    "capacity": 26,
    "address": "18546 ROSCOE BLVD, SUITE 108",
    "city": "NORTHRIDGE",
    "zip": "91324",
    "county": "LOS ANGELES",
    "phone": "(818) 886-3771",
    "lat": 34.22065214,
    "lng": -118.5376193
  },
  {
    "id": "630021034",
    "name": "VALERI HOME HEALTH, INC.",
    "npi": null,
    "hcaiId": "406195942",
    "businessName": "VALERI HOME HEALTH, INC.",
    "contactEmail": "VALERIHOMECARE@GMAIL.COM",
    "categoryName": "HOME HEALTH AGENCY",
    "categoryCode": "HHA",
    "licenseStatus": "ACTIVE",
    "inService": true,
    "licenseNumber": "550006266",
    "licenseEffectiveDate": "04/22/2024",
    "licenseExpirationDate": "04/21/2025",
    "dataDate": "10/18/2025",
    "capacity": 0,
    "address": "8622 RESEDA BLVD, SUITE 214",
    "city": "NORTHRIDGE",
    "zip": "91324",
    "county": "LOS ANGELES",
    "phone": "(818) 456-9806",
    "lat": 34.227198,
    "lng": -118.535661
  },
  {
    "id": "630014560",
    "name": "VALLEY CREST HOSPICE, INC.",
    "npi": null,
    "hcaiId": "406198199",
    "businessName": "VALLEY CREST HOSPICE, INC.",
    "contactEmail": "VALLEYCREST.HOSPICE@GMAIL.COM",
    "categoryName": "HOSPICE",
    "categoryCode": "HOSPICE",
    "licenseStatus": "ACTIVE",
    "inService": true,
    "licenseNumber": "550002909",
    "licenseEffectiveDate": "12/04/2024",
    "licenseExpirationDate": "12/03/2026",
    "dataDate": "10/18/2025",
    "capacity": 0,
    "address": "18531 ROSCOE BLVD, SUITE 208",
    "city": "NORTHRIDGE",
    "zip": "91324",
    "county": "LOS ANGELES",
    "phone": "(818) 435-4308",
    "lat": 34.221123,
    "lng": -118.5372495
  },
  {
    "id": "630021418",
    "name": "VILLA BLANCA HOME HEALTH, INC.",
    "npi": null,
    "hcaiId": "406193410",
    "businessName": "VILLA BLANCA HOME HEALTH, INC.",
    "contactEmail": "VILLABLANCAHOMEHEALTH@GMAIL.COM",
    "categoryName": "HOME HEALTH AGENCY",
    "categoryCode": "HHA",
    "licenseStatus": "ACTIVE",
    "inService": true,
    "licenseNumber": "550007129",
    "licenseEffectiveDate": "10/15/2025",
    "licenseExpirationDate": "10/14/2026",
    "dataDate": "10/18/2025",
    "capacity": 0,
    "address": "8949 RESEDA BLVD, SUITE 202",
    "city": "NORTHRIDGE",
    "zip": "91324",
    "county": "LOS ANGELES",
    "phone": "(818) 620-4242",
    "lat": 34.23319335,
    "lng": -118.5369123
  },
  {
    "id": "930001550",
    "name": "WOMENS SURGICENTER INC.",
    "npi": "1659570141",
    "hcaiId": null,
    "businessName": null,
    "contactEmail": "DRKONIALIAN@GMAIL.COM",
    "categoryName": "SURGICAL CLINIC",
    "categoryCode": "ASC",
    "licenseStatus": null,
    "inService": null,
    "licenseNumber": null,
    "licenseEffectiveDate": null,
    "licenseExpirationDate": null,
    "dataDate": "10/18/2025",
    "capacity": 0,
    "address": "18546 ROSCOE BLVD, SUITE 220B",
    "city": "NORTHRIDGE",
    "zip": "91324",
    "county": "LOS ANGELES",
    "phone": "(818) 459-4005",
    "lat": 34.22065214,
    "lng": -118.5376193
  },
  {
    "id": "060002097",
    "name": "YASMINE ADULT DAY HEALTH CARE",
    "npi": null,
    "hcaiId": null,
    "businessName": "YASMINE CORPORATION",
    "contactEmail": "YASMINEADHC@SBCGLOBAL.NET",
    "categoryName": "ADULT DAY HEALTH CARE",
    "categoryCode": "ADHC",
    "licenseStatus": "ACTIVE",
    "inService": true,
    "licenseNumber": "060000854",
    "licenseEffectiveDate": "07/17/2025",
    "licenseExpirationDate": "02/23/2026",
    "dataDate": "10/18/2025",
    "capacity": 0,
    "address": "19531 PARTHENIA ST",
    "city": "NORTHRIDGE",
    "zip": "91324",
    "county": "LOS ANGELES",
    "phone": "(818) 718-7800",
    "lat": 34.228971,
    "lng": -118.558989
  }
]