[
  {
    "id": "630020307",
    "name": "AMERI HOSPICE CARE, INC.",
    "npi": null,
    "hcaiId": "406194770",
    "businessName": "AMERI HOSPICE CARE INC.",
    "contactEmail": "AMERIHOSPICECARE@GMAIL.COM",
    "categoryName": "HOSPICE",
    "categoryCode": "HOSPICE",
    "licenseStatus": "ACTIVE",
    "inService": true,
    "licenseNumber": "550006226",
    "licenseEffectiveDate": "04/01/2025",
    "licenseExpirationDate": "03/31/2027",
    "dataDate": "10/18/2025",
    "capacity": 0,
    "address": "11145 TAMPA AVE, SUITE 1B",
    "city": "NORTHRIDGE",
    "zip": "91326",
    "county": "LOS ANGELES",
    "phone": "(747) 277-1117",
    "lat": 34.27364802,
    "lng": -118.557437
  },
  {
    "id": "630027098",
    "name": "ANGEL CITY CONGREGATE LIVING",
    "npi": null,
    "hcaiId": null,
    "businessName": "ANGEL CITY CONGREGATE LIVING",
    "contactEmail": null,
    "categoryName": "CONGREGATE LIVING HEALTH FACILITY",
    "categoryCode": "CLHF",
    "licenseStatus": "ACTIVE",
    "inService": true,
    "licenseNumber": "550009136",
    "licenseEffectiveDate": "10/11/2024",
    "licenseExpirationDate": "04/10/2025",
    "dataDate": "10/18/2025",
    "capacity": 6,
    "address": "11142 CHIMINEAS AVE",
    "city": "PORTER RANCH",
    "zip": "91326",
    "county": "LOS ANGELES",
    "phone": "(818) 305-4340",
    "lat": 34.27356001,
    "lng": -118.528325
  },
  {
    "id": "630024779",
    "name": "ARMA HOME HEALTH CARE, INC.",
    "npi": null,
    "hcaiId": "406196257",
    "businessName": "ARMA HOME HEALTH CARE, INC.",
    "contactEmail": "ARMAHOMEHEALTHCAREINC@GMAIL.COM",
    "categoryName": "HOME HEALTH AGENCY",
    "categoryCode": "HHA",
    "licenseStatus": "ACTIVE",
    "inService": true,
    "licenseNumber": "550008156",
    "licenseEffectiveDate": "02/26/2025",
    "licenseExpirationDate": "09/12/2025",
    "dataDate": "10/18/2025",
    "capacity": 0,
    "address": "11145 TAMPA AVE, SUITE 20B",
    "city": "NORTHRIDGE",
    "zip": "91326",
    "county": "LOS ANGELES",
    "phone": "(747) 264-1450",
    "lat": 34.27346001,
    "lng": -118.55727
  },
  {
    "id": "630021059",
    "name": "FEDERAL HOME HEALTH AGENCY, INC.",
    "npi": null,
    "hcaiId": "406195585",
    "businessName": "FEDERAL HOME HEALTH AGENCY, INC.",
    "contactEmail": "ANTHONY@FEDERALHHA.COM",
    "categoryName": "HOME HEALTH AGENCY",
    "categoryCode": "HHA",
    "licenseStatus": "ACTIVE",
    "inService": true,
    "licenseNumber": "550007459",
    "licenseEffectiveDate": "09/29/2025",
    "licenseExpirationDate": "12/15/2025",
    "dataDate": "10/18/2025",
    "capacity": 0,
    "address": "11145 TAMPA AVE, SUITE 27A",
    "city": "PORTER RANCH",
    "zip": "91326",
    "county": "LOS ANGELES",
    "phone": "(818) 717-7181",
    "lat": 34.273647,
    "lng": -118.5574365
  },
  {
    "id": "960002836",
    "name": "MOMENTUM AGENCIES ICF/DD-H MISSION",
    "npi": "1124063763",
    "hcaiId": null,
    "businessName": "MOMENTUM AGENCIES",
    "contactEmail": "PMUGISHA@MOMENTUM4ALL.ORG",
    "categoryName": "INTERMEDIATE CARE FACILITY-DD/H/N/CN/IID",
    "categoryCode": "ICFDDH",
    "licenseStatus": "ACTIVE",
    "inService": true,
    "licenseNumber": "960001415",
    "licenseEffectiveDate": "12/03/2024",
    "licenseExpirationDate": "12/02/2025",
    "dataDate": "10/18/2025",
    "capacity": 6,
    "address": "18509 S F MISSION BLVD",
    "city": "PORTER RANCH",
    "zip": "91326",
    "county": "LOS ANGELES",
    "phone": "(818) 366-2483",
    "lat": 34.2720533,
    "lng": -118.5388726
  },
  {
    "id": "630027406",
    "name": "MOMENTUM AGENCIES NORTHRIDGE HOUSE",
    "npi": null,
    "hcaiId": null,
    "businessName": "MOMENTUM AGENCIES",
    "contactEmail": "LANDERSON@MOMENTUM4ALL.ORG",
    "categoryName": "INTERMEDIATE CARE FACILITY-DD/H/N/CN/IID",
    "categoryCode": "ICFDDH",
    "licenseStatus": "ACTIVE",
    "inService": true,
    "licenseNumber": "550009327",
    "licenseEffectiveDate": "02/22/2025",
    "licenseExpirationDate": "08/21/2025",
    "dataDate": "10/18/2025",
    "capacity": 6,
    "address": "10401 SHIRLEY AVE",
    "city": "NORTHRIDGE",
    "zip": "91326",
    "county": "LOS ANGELES",
    "phone": "(818) 782-2211",
    "lat": 34.259105,
    "lng": -118.558895
  },
  {
    "id": "630019711",
    "name": "SOUTH BAY HOSPICE",
    "npi": null,
    "hcaiId": "406192887",
    "businessName": "SERENITY RIDGE PALLIATIVE AND HOSPICE CARE",
    "contactEmail": "SOUTHBAYHOSPICE@GMAIL.COM",
    "categoryName": "HOSPICE",
    "categoryCode": "HOSPICE",
    "licenseStatus": "ACTIVE",
    "inService": true,
    "licenseNumber": "550005726",
    "licenseEffectiveDate": "04/08/2025",
    "licenseExpirationDate": "09/09/2026",
    "dataDate": "10/18/2025",
    "capacity": 0,
    "address": "11239 TAMPA AVE, SUITE 203",
    "city": "PORTER RANCH",
    "zip": "91326",
    "county": "LOS ANGELES",
    "phone": "(818) 217-4436",
    "lat": 34.274259,
    "lng": -118.557153
  },
  {
    "id": "630025097",
    "name": "ST. JOHN'S HEALTHCARE SERVICES",
    "npi": null,
    "hcaiId": "406197738",
    "businessName": "ST. JOHN'S HEALTHCARE SERVICES",
    "contactEmail": "AV322_2@YAHOO.COM",
    "categoryName": "HOME HEALTH AGENCY",
    "categoryCode": "HHA",
    "licenseStatus": "ACTIVE",
    "inService": true,
    "licenseNumber": "550008637",
    "licenseEffectiveDate": "07/14/2025",
    "licenseExpirationDate": "07/13/2026",
    "dataDate": "10/18/2025",
    "capacity": 0,
    "address": "11260 WILBUR AVE, SUITE 302",
    "city": "PORTER RANCH",
    "zip": "91326",
    "county": "LOS ANGELES",
    "phone": "(818) 855-1923",
    "lat": 34.274774,
    "lng": -118.546558
  },
  {
    "id": "630016921",
    "name": "TOWN CENTER HOSPICE CARE",
    "npi": "1548713266",
    "hcaiId": "406191597",
    "businessName": "TOWN CENTER HOSPICE CARE",
    "contactEmail": "TCHOSPICECARE@GMAIL.COM",
    "categoryName": "HOSPICE",
    "categoryCode": "HOSPICE",
    "licenseStatus": "ACTIVE",
    "inService": true,
    "licenseNumber": "550004560",
    "licenseEffectiveDate": "10/02/2024",
    "licenseExpirationDate": "10/01/2026",
    "dataDate": "10/18/2025",
    "capacity": 0,
    "address": "11260 WILBUR AVENUE, UNIT 306",
    "city": "PORTER RANCH",
    "zip": "91326",
    "county": "LOS ANGELES",
    "phone": "(818) 923-5396",
    "lat": 34.274736,
    "lng": -118.54683
  }
]