[
  {
    "id": "630018582",
    "name": "AMA HOSPICE, INC.",
    "npi": null,
    "hcaiId": "406196026",
    "businessName": "AMA HOSPICE, INC.",
    "contactEmail": "AMAHOSPICE3@GMAIL.COM",
    "categoryName": "HOSPICE",
    "categoryCode": "HOSPICE",
    "licenseStatus": "ACTIVE",
    "inService": true,
    "licenseNumber": "550005815",
    "licenseEffectiveDate": "10/27/2024",
    "licenseExpirationDate": "10/26/2026",
    "dataDate": "10/18/2025",
    "capacity": 0,
    "address": "24509 WALNUT ST, UNIT 202",
    "city": "SANTA CLARITA",
    "zip": "91321",
    "county": "LOS ANGELES",
    "phone": "(818) 293-8280",
    "lat": 34.38100901,
    "lng": -118.531328
  },
  {
    "id": "630026533",
    "name": "AURORA HOME HEALTH SERVICES INC",
    "npi": null,
    "hcaiId": null,
    "businessName": "AURORA HOME HEALTH SERVICES INC",
    "contactEmail": "AURORAHHINC@YAHOO.COM",
    "categoryName": "HOME HEALTH AGENCY",
    "categoryCode": "HHA",
    "licenseStatus": "ACTIVE",
    "inService": true,
    "licenseNumber": "550009706",
    "licenseEffectiveDate": "09/07/2025",
    "licenseExpirationDate": "03/06/2026",
    "dataDate": "10/18/2025",
    "capacity": 0,
    "address": "24881 RAILROAD AVE, SUITE 205A",
    "city": "SANTA CLARITA",
    "zip": "91321",
    "county": "LOS ANGELES",
    "phone": "(818) 512-0404",
    "lat": 34.3873591,
    "lng": -118.5345515
  },
  {
    "id": "250001800",
    "name": "CAL OAKS THERAPY CENTER, INC.",
    "npi": null,
    "hcaiId": "306190723",
    "businessName": "CAL OAKS THERAPY CENTER, INC.",
    "contactEmail": "RENEWMEDREFERRAL@GMAIL.COM",
    "categoryName": "REHABILITATION CLINIC",
    "categoryCode": "REHABC/CORF",
    "licenseStatus": "ACTIVE",
    "inService": true,
    "licenseNumber": "250000793",
    "licenseEffectiveDate": "11/21/2024",
    "licenseExpirationDate": "11/20/2025",
    "dataDate": "10/18/2025",
    "capacity": 0,
    "address": "24355 LYONS AVE, SUITE 216",
    "city": "SANTA CLARITA",
    "zip": "91321",
    "county": "LOS ANGELES",
    "phone": "(661) 425-7622",
    "lat": 34.379046,
    "lng": -118.5605955
  },
  {
    "id": "630026728",
    "name": "DISCOVERY HOME HEALTH INC.",
    "npi": null,
    "hcaiId": "406190334",
    "businessName": "DISCOVERY HOME HEALTH INC.",
    "contactEmail": "DISCOVERYHH@YAHOO.COM",
    "categoryName": "HOME HEALTH AGENCY",
    "categoryCode": "HHA",
    "licenseStatus": "ACTIVE",
    "inService": true,
    "licenseNumber": "550009101",
    "licenseEffectiveDate": "10/29/2024",
    "licenseExpirationDate": "04/28/2025",
    "dataDate": "10/18/2025",
    "capacity": 0,
    "address": "22924 LYONS AVE, SUITE 209",
    "city": "SANTA CLARITA",
    "zip": "91321",
    "county": "LOS ANGELES",
    "phone": "(661) 843-6900",
    "lat": 34.37978399,
    "lng": -118.533555
  },
  {
    "id": "630025529",
    "name": "ELEMENTAL HOME HEALTH SERVICES",
    "npi": null,
    "hcaiId": null,
    "businessName": "ELEMENTAL HOME HEALTH SERVICES",
    "contactEmail": "ELEMENTALHHS@GMAIL.COM",
    "categoryName": "HOME HEALTH AGENCY",
    "categoryCode": "HHA",
    "licenseStatus": "ACTIVE",
    "inService": true,
    "licenseNumber": "550008896",
    "licenseEffectiveDate": "05/30/2024",
    "licenseExpirationDate": "11/29/2024",
    "dataDate": "10/18/2025",
    "capacity": 0,
    "address": "23560 LYONS AVE, SUITE 208",
    "city": "NEWHALL",
    "zip": "91321",
    "county": "LOS ANGELES",
    "phone": "(708) 654-2441",
    "lat": 34.37916201,
    "lng": -118.54622
  },
  {
    "id": "630016424",
    "name": "EZ COMFORT HOSPICE CARE",
    "npi": "1699145169",
    "hcaiId": "406564285",
    "businessName": "EZ COMFORT, INC.",
    "contactEmail": "ROBIN@EZCOMFORTHOSPICECARE.COM",
    "categoryName": "HOSPICE",
    "categoryCode": "HOSPICE",
    "licenseStatus": "ACTIVE",
    "inService": true,
    "licenseNumber": "550003536",
    "licenseEffectiveDate": "06/10/2024",
    "licenseExpirationDate": "06/09/2026",
    "dataDate": "10/18/2025",
    "capacity": 0,
    "address": "24868 APPLE ST, SUITE 202",
    "city": "SANTA CLARITA",
    "zip": "91321",
    "county": "LOS ANGELES",
    "phone": "(805) 422-8587",
    "lat": 34.378848,
    "lng": -118.5421005
  },
  {
    "id": "630020787",
    "name": "GOLDEN TIME HOSPICE, INC",
    "npi": null,
    "hcaiId": "406193244",
    "businessName": "GOLDEN TIME HOSPICE, INC",
    "contactEmail": "WENDY@GOLDENTIMEHOSPICE.COM",
    "categoryName": "HOSPICE",
    "categoryCode": "HOSPICE",
    "licenseStatus": "ACTIVE",
    "inService": true,
    "licenseNumber": "550006636",
    "licenseEffectiveDate": "07/29/2025",
    "licenseExpirationDate": "07/28/2027",
    "dataDate": "10/18/2025",
    "capacity": 0,
    "address": "24355 LYONS AVE, SUITE 235",
    "city": "SANTA CLARITA",
    "zip": "91321",
    "county": "LOS ANGELES",
    "phone": "(661) 490-9910",
    "lat": 34.3790406,
    "lng": -118.562795
  },
  {
    "id": "630027639",
    "name": "GRACE SURGERY CENTER INC.",
    "npi": null,
    "hcaiId": null,
    "businessName": null,
    "contactEmail": "MANAGER@VVAHEALTH.COM",
    "categoryName": "SURGICAL CLINIC",
    "categoryCode": "ASC",
    "licenseStatus": null,
    "inService": null,
    "licenseNumber": null,
    "licenseEffectiveDate": null,
    "licenseExpirationDate": null,
    "dataDate": "10/18/2025",
    "capacity": 0,
    "address": "23911 CALGROVE BLVD",
    "city": "SANTA CLARITA",
    "zip": "91321",
    "county": "LOS ANGELES",
    "phone": "(818) 515-2408",
    "lat": 34.36430501,
    "lng": -118.553415
  },
  {
    "id": "630020395",
    "name": "GUIDING HOPE HOME HEALTH",
    "npi": null,
    "hcaiId": "406195245",
    "businessName": "GUIDING HOPE HOME HEALTH",
    "contactEmail": "GUIDINGHOPEHH@GMAIL.COM",
    "categoryName": "HOME HEALTH AGENCY",
    "categoryCode": "HHA",
    "licenseStatus": "ACTIVE",
    "inService": true,
    "licenseNumber": "550006164",
    "licenseEffectiveDate": "05/28/2025",
    "licenseExpirationDate": "01/06/2026",
    "dataDate": "10/18/2025",
    "capacity": 0,
    "address": "23560 LYONS AVE, SUITE 202",
    "city": "SANTA CLARITA",
    "zip": "91321",
    "county": "LOS ANGELES",
    "phone": "(818) 293-7497",
    "lat": 34.37911101,
    "lng": -118.546232
  },
  {
    "id": "630025334",
    "name": "NEW HOPE HOME HEALTH, INC.",
    "npi": null,
    "hcaiId": "406190204",
    "businessName": "NEW HOPE HOME HEALTH, INC.",
    "contactEmail": "4NEWHOPEHH@GMAIL.COM",
    "categoryName": "HOME HEALTH AGENCY",
    "categoryCode": "HHA",
    "licenseStatus": "ACTIVE",
    "inService": true,
    "licenseNumber": "550008938",
    "licenseEffectiveDate": "10/27/2025",
    "licenseExpirationDate": "10/26/2026",
    "dataDate": "10/18/2025",
    "capacity": 0,
    "address": "23236 LYONS AVE, SUITE 219",
    "city": "SANTA CLARITA",
    "zip": "91321",
    "county": "LOS ANGELES",
    "phone": "(818) 659-8643",
    "lat": 34.37936599,
    "lng": -118.539057
  },
  {
    "id": "630027255",
    "name": "NEWHALL GROUP HOME CARE INC",
    "npi": null,
    "hcaiId": null,
    "businessName": "NEWHALL GROUP HOME CARE INC",
    "contactEmail": "NVERHHC@GMAIL.COM",
    "categoryName": "HOME HEALTH AGENCY",
    "categoryCode": "HHA",
    "licenseStatus": "ACTIVE",
    "inService": true,
    "licenseNumber": "550009855",
    "licenseEffectiveDate": "11/22/2025",
    "licenseExpirationDate": "05/21/2026",
    "dataDate": "10/18/2025",
    "capacity": 0,
    "address": "22938 LYONS AVE",
    "city": "NEWHALL",
    "zip": "91321",
    "county": "LOS ANGELES",
    "phone": "(661) 403-0504",
    "lat": 34.37972,
    "lng": -118.533938
  },
  {
    "id": "630012288",
    "name": "NEWHALL HEALTH CENTER",
    "npi": "1154402675",
    "hcaiId": "306197331",
    "businessName": "SAMUEL DIXON FAMILY HEALTH CENTER, INC.",
    "contactEmail": "DAISY@SDFHC.ORG",
    "categoryName": "PRIMARY CARE CLINIC",
    "categoryCode": "COMTYC",
    "licenseStatus": "ACTIVE",
    "inService": true,
    "licenseNumber": "550001113",
    "licenseEffectiveDate": "11/22/2025",
    "licenseExpirationDate": "11/21/2026",
    "dataDate": "10/18/2025",
    "capacity": 0,
    "address": "23772 NEWHALL AVE",
    "city": "NEWHALL",
    "zip": "91321",
    "county": "LOS ANGELES",
    "phone": "(661) 257-2339",
    "lat": 34.372566,
    "lng": -118.515195
  },
  {
    "id": "630026163",
    "name": "NEWHALL HOME HEALTH CARE INC",
    "npi": null,
    "hcaiId": null,
    "businessName": "NEWHALL HOME HEALTH CARE INC.",
    "contactEmail": "NEWHALLHHC@YAHOO.COM",
    "categoryName": "HOME HEALTH AGENCY",
    "categoryCode": "HHA",
    "licenseStatus": "ACTIVE",
    "inService": true,
    "licenseNumber": "550009758",
    "licenseEffectiveDate": "08/27/2025",
    "licenseExpirationDate": "02/26/2026",
    "dataDate": "10/18/2025",
    "capacity": 0,
    "address": "24876 APPLE ST, SUITE C",
    "city": "SANTA CLARITA",
    "zip": "91321",
    "county": "LOS ANGELES",
    "phone": "(818) 873-9191",
    "lat": 34.378995,
    "lng": -118.541849
  },
  {
    "id": "630027712",
    "name": "OUR PLACE HOME CARE, INC",
    "npi": null,
    "hcaiId": null,
    "businessName": "OUR PLACE HOME CARE, INC",
    "contactEmail": "OURPLACEHHC@YAHOO.COM",
    "categoryName": "HOME HEALTH AGENCY",
    "categoryCode": "HHA",
    "licenseStatus": "ACTIVE",
    "inService": true,
    "licenseNumber": "550009725",
    "licenseEffectiveDate": "09/07/2025",
    "licenseExpirationDate": "03/06/2026",
    "dataDate": "10/18/2025",
    "capacity": 0,
    "address": "22938 LYONS AVE, UNIT B",
    "city": "NEWHALL",
    "zip": "91321",
    "county": "LOS ANGELES",
    "phone": "(747) 666-7574",
    "lat": 34.37972,
    "lng": -118.533938
  },
  {
    "id": "980001691",
    "name": "SANTA CLARITA HOME HEALTH",
    "npi": "1346249869",
    "hcaiId": "406194911",
    "businessName": "SANTA CLARITA HOME HEALTH, INC.",
    "contactEmail": "CONTACT@SANTACLARITAHOMEHEALTH.COM",
    "categoryName": "HOME HEALTH AGENCY",
    "categoryCode": "HHA",
    "licenseStatus": "ACTIVE",
    "inService": true,
    "licenseNumber": "980001015",
    "licenseEffectiveDate": "11/30/2024",
    "licenseExpirationDate": "11/29/2025",
    "dataDate": "10/18/2025",
    "capacity": 0,
    "address": "22620 MARKET ST., SUITE 200",
    "city": "SANTA CLARITA",
    "zip": "91321",
    "county": "LOS ANGELES",
    "phone": "(661) 222-7889",
    "lat": 34.37845154,
    "lng": -118.5279971
  },
  {
    "id": "960001932",
    "name": "SANTA CLARITA MEDICAL & MENTAL HEALTH SERVICES",
    "npi": null,
    "hcaiId": "306194836",
    "businessName": "EL DORADO COMMUNITY SERVICE CENTER",
    "contactEmail": "PSHARMA@AMERICANHEALTHSERVICES.ORG",
    "categoryName": "PRIMARY CARE CLINIC",
    "categoryCode": "COMTYC",
    "licenseStatus": "ACTIVE",
    "inService": true,
    "licenseNumber": "960000933",
    "licenseEffectiveDate": "12/01/2024",
    "licenseExpirationDate": "11/30/2025",
    "dataDate": "10/18/2025",
    "capacity": 0,
    "address": "24625 ARCH ST",
    "city": "NEWHALL",
    "zip": "91321",
    "county": "LOS ANGELES",
    "phone": "(661) 254-6630",
    "lat": 34.38457083,
    "lng": -118.5289531
  },
  {
    "id": "920000053",
    "name": "SANTA CLARITA POST-ACUTE CARE CENTER",
    "npi": "1508591595",
    "hcaiId": "206190560",
    "businessName": "NEWHALL AVENUE HEALTHCARE CENTER, LLC",
    "contactEmail": "ADMINISTRATOR@SANTACLARITAPA.COM",
    "categoryName": "SKILLED NURSING FACILITY",
    "categoryCode": "SNF",
    "licenseStatus": "ACTIVE",
    "inService": true,
    "licenseNumber": "920000051",
    "licenseEffectiveDate": "05/18/2025",
    "licenseExpirationDate": "11/24/2025",
    "dataDate": "10/18/2025",
    "capacity": 99,
    "address": "23801 NEWHALL AVE",
    "city": "NEWHALL",
    "zip": "91321",
    "county": "LOS ANGELES",
    "phone": "(661) 269-3660",
    "lat": 34.37176498,
    "lng": -118.517398
  },
  {
    "id": "630027951",
    "name": "SCV COUNSELING MARRIAGE AND FAMILY THERAPY CENTER INC.",
    "npi": null,
    "hcaiId": null,
    "businessName": null,
    "contactEmail": null,
    "categoryName": "PSYCHOLOGY CLINIC",
    "categoryCode": "CMHC",
    "licenseStatus": null,
    "inService": null,
    "licenseNumber": null,
    "licenseEffectiveDate": null,
    "licenseExpirationDate": null,
    "dataDate": "10/18/2025",
    "capacity": 0,
    "address": "23504 LYONS AVE, SUITE 401B",
    "city": "SANTA CLARITA",
    "zip": "91321",
    "county": "LOS ANGELES",
    "phone": null,
    "lat": 34.379002,
    "lng": -118.545151
  },
  {
    "id": "630026704",
    "name": "SCV HOME CARE",
    "npi": null,
    "hcaiId": null,
    "businessName": "SCV HOME CARE",
    "contactEmail": null,
    "categoryName": "HOME HEALTH AGENCY",
    "categoryCode": "HHA",
    "licenseStatus": "ACTIVE",
    "inService": true,
    "licenseNumber": "550009773",
    "licenseEffectiveDate": "08/28/2025",
    "licenseExpirationDate": "02/27/2026",
    "dataDate": "10/18/2025",
    "capacity": 0,
    "address": "24303 WALNUT ST, SUITE C",
    "city": "SANTA CLARITA",
    "zip": "91321",
    "county": "LOS ANGELES",
    "phone": null,
    "lat": 34.378125,
    "lng": -118.529125
  },
  {
    "id": "630019772",
    "name": "SILA-V HEALTH CARE, INC.",
    "npi": null,
    "hcaiId": "406192903",
    "businessName": "SILA-V HEALTH CARE, INC.",
    "contactEmail": "SILA_V@YAHOO.COM",
    "categoryName": "HOME HEALTH AGENCY",
    "categoryCode": "HHA",
    "licenseStatus": "ACTIVE",
    "inService": true,
    "licenseNumber": "550005783",
    "licenseEffectiveDate": "10/17/2025",
    "licenseExpirationDate": "10/16/2026",
    "dataDate": "10/18/2025",
    "capacity": 0,
    "address": "23236 LYONS AVE, SUITE 222",
    "city": "NEWHALL",
    "zip": "91321",
    "county": "LOS ANGELES",
    "phone": "(661) 888-1251",
    "lat": 34.379307,
    "lng": -118.539036
  },
  {
    "id": "930000927",
    "name": "VALENCIA OUTPATIENT SURGICAL CENTER",
    "npi": "1407869373",
    "hcaiId": "306194235",
    "businessName": "VALENCIA OUTPATIENT SURGICAL CENTER PARTNERS, L.P.",
    "contactEmail": "NINA@VALENCIASURGICAL.COM",
    "categoryName": "SURGICAL CLINIC",
    "categoryCode": "ASC",
    "licenseStatus": "INACTIVE - CAPEN DECISION",
    "inService": false,
    "licenseNumber": "930000463",
    "licenseEffectiveDate": "11/13/2007",
    "licenseExpirationDate": "11/12/2008",
    "dataDate": "10/18/2025",
    "capacity": 0,
    "address": "24355 LYONS AVE, SUITE 120",
    "city": "NEWHALL",
    "zip": "91321",
    "county": "LOS ANGELES",
    "phone": "(661) 255-6644",
    "lat": 34.379046,
    "lng": -118.560591
  },
  {
    "id": "630027215",
    "name": "VERA HOME HEALTHCARE INC",
    "npi": null,
    "hcaiId": null,
    "businessName": "VERA HOME HEALTHCARE INC",
    "contactEmail": "VERAHEALTHCARE@GMAIL.COM",
    "categoryName": "HOME HEALTH AGENCY",
    "categoryCode": "HHA",
    "licenseStatus": "ACTIVE",
    "inService": true,
    "licenseNumber": "550009599",
    "licenseEffectiveDate": "06/09/2025",
    "licenseExpirationDate": "12/08/2025",
    "dataDate": "10/18/2025",
    "capacity": 0,
    "address": "24876 APPLE ST, UNIT D",
    "city": "NEWHALL",
    "zip": "91321",
    "county": "LOS ANGELES",
    "phone": "(747) 215-9101",
    "lat": 34.37899601,
    "lng": -118.541856
  },
  {
    "id": "630024149",
    "name": "VITAGOLD HOME HEALTH CARE, INC",
    "npi": null,
    "hcaiId": "406197939",
    "businessName": "VITAGOLD HOME HEALTH CARE, INC",
    "contactEmail": "VITAGOLDHHINC@YAHOO.COM",
    "categoryName": "HOME HEALTH AGENCY",
    "categoryCode": "HHA",
    "licenseStatus": "ACTIVE",
    "inService": true,
    "licenseNumber": "550008755",
    "licenseEffectiveDate": "09/05/2025",
    "licenseExpirationDate": "09/04/2026",
    "dataDate": "10/18/2025",
    "capacity": 0,
    "address": "24881 RAILROAD AVE, SUITE 205",
    "city": "SANTA CLARITA",
    "zip": "91321",
    "county": "LOS ANGELES",
    "phone": "(818) 431-0404",
    "lat": 34.3873591,
    "lng": -118.5345515
  }
]