[
  {
    "id": "630013981",
    "name": "ADONAI CONGREGATE LIVING, INC.",
    "npi": null,
    "hcaiId": "206197929",
    "businessName": "ADONAI CONGREGATE LIVING, INC.",
    "contactEmail": "SUZY@ADONAICLHF.COM",
    "categoryName": "CONGREGATE LIVING HEALTH FACILITY",
    "categoryCode": "CLHF",
    "licenseStatus": "ACTIVE",
    "inService": true,
    "licenseNumber": "550002504",
    "licenseEffectiveDate": "12/03/2024",
    "licenseExpirationDate": "12/02/2025",
    "dataDate": "10/18/2025",
    "capacity": 6,
    "address": "10215 LASAINE AVE",
    "city": "NORTHRIDGE",
    "zip": "91325",
    "county": "LOS ANGELES",
    "phone": "(818) 773-0700",
    "lat": 34.256088,
    "lng": -118.5124095
  },
  {
    "id": "630018520",
    "name": "ALL-INCLUSIVE COMMUNITY HEALTH CENTER",
    "npi": null,
    "hcaiId": "306190503",
    "businessName": "ALL-INCLUSIVE COMMUNITY HEALTH CENTER",
    "contactEmail": "ADMIN@AICHC.ORG",
    "categoryName": "PRIMARY CARE CLINIC",
    "categoryCode": "COMTYC",
    "licenseStatus": "ACTIVE",
    "inService": true,
    "licenseNumber": "550005215",
    "licenseEffectiveDate": "10/04/2025",
    "licenseExpirationDate": "10/03/2026",
    "dataDate": "10/18/2025",
    "capacity": 0,
    "address": "17114 DEVONSHIRE ST, SUITE 200",
    "city": "NORTHRIDGE",
    "zip": "91325",
    "county": "LOS ANGELES",
    "phone": "(818) 646-1171",
    "lat": 34.25724,
    "lng": -118.506033
  },
  {
    "id": "630022057",
    "name": "ALMIGHTY HOSPICE CARE, INC.",
    "npi": null,
    "hcaiId": "406190242",
    "businessName": "ALMIGHTY HOSPICE CARE, INC.",
    "contactEmail": "ALMIGHTYHOSPICE@YAHOO.COM",
    "categoryName": "HOSPICE",
    "categoryCode": "HOSPICE",
    "licenseStatus": "ACTIVE",
    "inService": true,
    "licenseNumber": "550007399",
    "licenseEffectiveDate": "09/24/2024",
    "licenseExpirationDate": "12/06/2025",
    "dataDate": "10/18/2025",
    "capacity": 0,
    "address": "18159 1/2 PARTHENIA ST",
    "city": "NORTHRIDGE",
    "zip": "91325",
    "county": "LOS ANGELES",
    "phone": "(747) 256-4111",
    "lat": 34.22912901,
    "lng": -118.529357
  },
  {
    "id": "980002412",
    "name": "AMITY HOME HEALTH, INC.",
    "npi": "1114920931",
    "hcaiId": "406196460",
    "businessName": "AMITY HOME HEALTH, INC.",
    "contactEmail": "EPCABANBAN@YAHOO.COM",
    "categoryName": "HOME HEALTH AGENCY",
    "categoryCode": "HHA",
    "licenseStatus": "ACTIVE",
    "inService": true,
    "licenseNumber": "980001522",
    "licenseEffectiveDate": "05/09/2025",
    "licenseExpirationDate": "05/08/2026",
    "dataDate": "10/18/2025",
    "capacity": 0,
    "address": "17042 DEVONSHIRE ST, SUITE 220",
    "city": "NORTHRIDGE",
    "zip": "91325",
    "county": "LOS ANGELES",
    "phone": "(818) 831-8270",
    "lat": 34.257357,
    "lng": -118.503828
  },
  {
    "id": "630021766",
    "name": "BLESS HOME HEALTH",
    "npi": null,
    "hcaiId": "406193268",
    "businessName": "BLESS HOME HEALTH",
    "contactEmail": "BLESSCARE22@GMAIL.COM",
    "categoryName": "HOME HEALTH AGENCY",
    "categoryCode": "HHA",
    "licenseStatus": "ACTIVE",
    "inService": true,
    "licenseNumber": "550006733",
    "licenseEffectiveDate": "08/13/2025",
    "licenseExpirationDate": "08/12/2026",
    "dataDate": "10/18/2025",
    "capacity": 0,
    "address": "17042 DEVONSHIRE ST, SUITE 205",
    "city": "NORTHRIDGE",
    "zip": "91325",
    "county": "LOS ANGELES",
    "phone": "(747) 271-3030",
    "lat": 34.257357,
    "lng": -118.503828
  },
  {
    "id": "630021765",
    "name": "BLESS HOSPICE",
    "npi": null,
    "hcaiId": "406190240",
    "businessName": "BLESS HOSPICE",
    "contactEmail": "BLESSHOSPICE@YAHOO.COM",
    "categoryName": "HOSPICE",
    "categoryCode": "HOSPICE",
    "licenseStatus": "ACTIVE",
    "inService": true,
    "licenseNumber": "550007290",
    "licenseEffectiveDate": "11/12/2023",
    "licenseExpirationDate": "11/11/2025",
    "dataDate": "10/18/2025",
    "capacity": 0,
    "address": "17042 DEVONSHIRE ST, SUITE 216",
    "city": "NORTHRIDGE",
    "zip": "91325",
    "county": "LOS ANGELES",
    "phone": "(424) 444-0933",
    "lat": 34.257357,
    "lng": -118.503828
  },
  {
    "id": "630018698",
    "name": "CALI HOME HEALTH CARE, INC.",
    "npi": null,
    "hcaiId": "406192102",
    "businessName": "CALI HOME HEALTH CARE, INC.",
    "contactEmail": "CALIHOMEHEALTH@GMAIL.COM",
    "categoryName": "HOME HEALTH AGENCY",
    "categoryCode": "HHA",
    "licenseStatus": "ACTIVE",
    "inService": true,
    "licenseNumber": "550005180",
    "licenseEffectiveDate": "12/10/2024",
    "licenseExpirationDate": "12/09/2025",
    "dataDate": "10/18/2025",
    "capacity": 0,
    "address": "18419 NAPA ST, SUITE C",
    "city": "NORTHRIDGE",
    "zip": "91325",
    "county": "LOS ANGELES",
    "phone": "(818) 477-2324",
    "lat": 34.226856,
    "lng": -118.534554
  },
  {
    "id": "630018839",
    "name": "CALIFORNIA SURGICAL SPECIALTY GROUP, INC.",
    "npi": "1851647549",
    "hcaiId": null,
    "businessName": null,
    "contactEmail": null,
    "categoryName": "SURGICAL CLINIC",
    "categoryCode": "ASC",
    "licenseStatus": null,
    "inService": null,
    "licenseNumber": null,
    "licenseEffectiveDate": null,
    "licenseExpirationDate": null,
    "dataDate": "10/18/2025",
    "capacity": 0,
    "address": "17114 DEVONSHIRE ST, SUITE 100",
    "city": "NORTHRIDGE",
    "zip": "91325",
    "county": "LOS ANGELES",
    "phone": null,
    "lat": 34.25724,
    "lng": -118.506033
  },
  {
    "id": "630020411",
    "name": "CALMEDIX HOSPICE, INC",
    "npi": null,
    "hcaiId": "406195170",
    "businessName": "CALMEDIX HOSPICE, INC",
    "contactEmail": "CALMEDIXHOSPICE@GMAIL.COM",
    "categoryName": "HOSPICE",
    "categoryCode": "HOSPICE",
    "licenseStatus": "ACTIVE",
    "inService": true,
    "licenseNumber": "550006754",
    "licenseEffectiveDate": "08/27/2025",
    "licenseExpirationDate": "08/26/2027",
    "dataDate": "10/18/2025",
    "capacity": 0,
    "address": "9836 WHITE OAK AVE, SUITE 207",
    "city": "NORTHRIDGE",
    "zip": "91325",
    "county": "LOS ANGELES",
    "phone": "(818) 208-0208",
    "lat": 34.24955399,
    "lng": -118.519598
  },
  {
    "id": "630026657",
    "name": "DISCOVERING HORIZONS - BALBOA HOUSE",
    "npi": "1114145760",
    "hcaiId": null,
    "businessName": "NEW HORIZONS: SERVING INDIVIDUALS WITH SPECIAL NEEDS",
    "contactEmail": "ANVULE@NEWHORIZONS-SFV.ORG",
    "categoryName": "INTERMEDIATE CARE FACILITY-DD/H/N/CN/IID",
    "categoryCode": "ICFDDH",
    "licenseStatus": "ACTIVE",
    "inService": true,
    "licenseNumber": "550008323",
    "licenseEffectiveDate": "11/16/2024",
    "licenseExpirationDate": "11/15/2025",
    "dataDate": "10/18/2025",
    "capacity": 6,
    "address": "8903 BALBOA BLVD",
    "city": "NORTHRIDGE",
    "zip": "91325",
    "county": "LOS ANGELES",
    "phone": "(818) 282-8796",
    "lat": 34.2324,
    "lng": -118.5029145
  },
  {
    "id": "630017047",
    "name": "EL PROYECTO DEL BARRIO, INC. - NORTHRIDGE COMMUNITY CLINIC",
    "npi": "1093181448",
    "hcaiId": "306198381",
    "businessName": "EL PROYECTO DEL BARRIO, INC.",
    "contactEmail": "KTATULIAN@ELPROYECTO.US",
    "categoryName": "PRIMARY CARE CLINIC",
    "categoryCode": "COMTYC",
    "licenseStatus": "ACTIVE",
    "inService": true,
    "licenseNumber": "550002824",
    "licenseEffectiveDate": "09/26/2025",
    "licenseExpirationDate": "09/25/2026",
    "dataDate": "10/18/2025",
    "capacity": 0,
    "address": "18250 ROSCOE BLVD., #200",
    "city": "NORTHRIDGE",
    "zip": "91325",
    "county": "LOS ANGELES",
    "phone": "(818) 721-4800",
    "lat": 34.220637,
    "lng": -118.531134
  },
  {
    "id": "630021646",
    "name": "GLORY HOME HEALTH CARE",
    "npi": null,
    "hcaiId": "406195378",
    "businessName": "GLORY HOME HEALTH CARE",
    "contactEmail": "GLORYHH01@GMAIL.COM",
    "categoryName": "HOME HEALTH AGENCY",
    "categoryCode": "HHA",
    "licenseStatus": "ACTIVE",
    "inService": true,
    "licenseNumber": "550007909",
    "licenseEffectiveDate": "03/22/2025",
    "licenseExpirationDate": "03/21/2026",
    "dataDate": "10/18/2025",
    "capacity": 0,
    "address": "18127 PARTHENIA ST",
    "city": "NORTHRIDGE",
    "zip": "91325",
    "county": "LOS ANGELES",
    "phone": "(818) 701-7200",
    "lat": 34.22873056,
    "lng": -118.5283145
  },
  {
    "id": "630026644",
    "name": "MAJESTICARE HEALTH AND REHAB CENTER OF NORTHRIDGE",
    "npi": null,
    "hcaiId": "206190023",
    "businessName": "MAJESTICARE HEALTH AND REHAB CENTER OF NORTHRIDGE",
    "contactEmail": "MAJESTICAREHRCN@GMAIL.COM",
    "categoryName": "CONGREGATE LIVING HEALTH FACILITY",
    "categoryCode": "CLHF",
    "licenseStatus": "ACTIVE",
    "inService": true,
    "licenseNumber": "550008898",
    "licenseEffectiveDate": "12/26/2024",
    "licenseExpirationDate": "12/25/2025",
    "dataDate": "10/18/2025",
    "capacity": 6,
    "address": "17075 GLEDHILL ST",
    "city": "NORTHRIDGE",
    "zip": "91325",
    "county": "LOS ANGELES",
    "phone": "(818) 554-4769",
    "lat": 34.242633,
    "lng": -118.505295
  },
  {
    "id": "960002763",
    "name": "MOMENTUM AGENCIES ICF/DD-H WHITE OAK",
    "npi": "1013169259",
    "hcaiId": null,
    "businessName": "MOMENTUM AGENCIES",
    "contactEmail": "GLINGAMEN@MOMENTUM4ALL.ORG",
    "categoryName": "INTERMEDIATE CARE FACILITY-DD/H/N/CN/IID",
    "categoryCode": "ICFDDH",
    "licenseStatus": "ACTIVE",
    "inService": true,
    "licenseNumber": "960001369",
    "licenseEffectiveDate": "01/31/2025",
    "licenseExpirationDate": "01/30/2026",
    "dataDate": "10/18/2025",
    "capacity": 6,
    "address": "9205 WHITE OAK AVE",
    "city": "NORTHRIDGE",
    "zip": "91325",
    "county": "LOS ANGELES",
    "phone": "(818) 356-1187",
    "lat": 34.2376543,
    "lng": -118.5226589
  },
  {
    "id": "630014924",
    "name": "NEURORESTORATIVE CALIFORNIA",
    "npi": null,
    "hcaiId": "206198166",
    "businessName": "CAREMERIDIAN, LLC",
    "contactEmail": "AIDA.TORRES@SEVITAHEALTH.COM",
    "categoryName": "CONGREGATE LIVING HEALTH FACILITY",
    "categoryCode": "CLHF",
    "licenseStatus": "ACTIVE",
    "inService": true,
    "licenseNumber": "550003166",
    "licenseEffectiveDate": "07/09/2025",
    "licenseExpirationDate": "07/08/2026",
    "dataDate": "10/18/2025",
    "capacity": 6,
    "address": "9440 TEXHOMA AVE",
    "city": "NORTHRIDGE",
    "zip": "91325",
    "county": "LOS ANGELES",
    "phone": "(714) 586-6565",
    "lat": 34.242579,
    "lng": -118.5163335
  },
  {
    "id": "930001606",
    "name": "NORTHRIDGE FACIAL PLASTIC SURGERY MEDICAL GROUP",
    "npi": "1003824434",
    "hcaiId": null,
    "businessName": null,
    "contactEmail": "NONE@DHS.CA.GOV",
    "categoryName": "SURGICAL CLINIC",
    "categoryCode": "ASC",
    "licenseStatus": null,
    "inService": null,
    "licenseNumber": null,
    "licenseEffectiveDate": null,
    "licenseExpirationDate": null,
    "dataDate": "10/18/2025",
    "capacity": 0,
    "address": "18350 ROSCOE BLVD, SUITE 318",
    "city": "NORTHRIDGE",
    "zip": "91325",
    "county": "LOS ANGELES",
    "phone": "(818) 993-9824",
    "lat": 34.220241,
    "lng": -118.534086
  },
  {
    "id": "930000111",
    "name": "NORTHRIDGE HOSPITAL MEDICAL CENTER",
    "npi": "1417089350",
    "hcaiId": "106190568",
    "businessName": "DIGNITY COMMUNITY CARE",
    "contactEmail": "JEREMY.ZOCH@COMMONSPIRIT.ORG",
    "categoryName": "GENERAL ACUTE CARE HOSPITAL",
    "categoryCode": "GACH",
    "licenseStatus": "ACTIVE",
    "inService": true,
    "licenseNumber": "930000114",
    "licenseEffectiveDate": "01/01/2025",
    "licenseExpirationDate": "12/31/2025",
    "dataDate": "10/18/2025",
    "capacity": 354,
    "address": "18300 ROSCOE BLVD",
    "city": "NORTHRIDGE",
    "zip": "91325",
    "county": "LOS ANGELES",
    "phone": "(818) 885-5321",
    "lat": 34.219998,
    "lng": -118.5329295
  },
  {
    "id": "930000628",
    "name": "NORTHRIDGE HOSPITAL MEDICAL CENTER D/P APH",
    "npi": "1417089350",
    "hcaiId": null,
    "businessName": "DIGNITY COMMUNITY CARE",
    "contactEmail": null,
    "categoryName": "ACUTE PSYCHIATRIC HOSPITAL",
    "categoryCode": "APH",
    "licenseStatus": "ACTIVE",
    "inService": true,
    "licenseNumber": "930000114",
    "licenseEffectiveDate": "01/01/2025",
    "licenseExpirationDate": "12/31/2025",
    "dataDate": "10/18/2025",
    "capacity": 40,
    "address": "18300 ROSCOE BLVD",
    "city": "NORTHRIDGE",
    "zip": "91325",
    "county": "LOS ANGELES",
    "phone": "(818) 885-8500",
    "lat": 34.219998,
    "lng": -118.5329295
  },
  {
    "id": "630018981",
    "name": "NORTHRIDGE KIDNEY CENTER, LLC",
    "npi": null,
    "hcaiId": "306190493",
    "businessName": "NORTHRIDGE KIDNEY CENTER, LLC",
    "contactEmail": "LILY@AMERICANRENALCARE.COM",
    "categoryName": "CHRONIC DIALYSIS CLINIC",
    "categoryCode": "ESRD/CDC",
    "licenseStatus": "ACTIVE",
    "inService": true,
    "licenseNumber": "550005121",
    "licenseEffectiveDate": "11/06/2025",
    "licenseExpirationDate": "11/05/2026",
    "dataDate": "10/18/2025",
    "capacity": 24,
    "address": "17710 ROSCOE BLVD",
    "city": "NORTHRIDGE",
    "zip": "91325",
    "county": "LOS ANGELES",
    "phone": "(818) 903-3186",
    "lat": 34.22090086,
    "lng": -118.5194155
  },
  {
    "id": "630025337",
    "name": "PROCARE FIRST HOME HEALTH, INC.",
    "npi": null,
    "hcaiId": "406197308",
    "businessName": "PROCARE FIRST HOME HEALTH, INC.",
    "contactEmail": "PROCAREFIRSTHH@GMAIL.COM",
    "categoryName": "HOME HEALTH AGENCY",
    "categoryCode": "HHA",
    "licenseStatus": "ACTIVE",
    "inService": true,
    "licenseNumber": "550008518",
    "licenseEffectiveDate": "03/22/2025",
    "licenseExpirationDate": "03/21/2026",
    "dataDate": "10/18/2025",
    "capacity": 0,
    "address": "18269 PARTHENIA ST",
    "city": "NORTHRIDGE",
    "zip": "91325",
    "county": "LOS ANGELES",
    "phone": "(818) 280-3449",
    "lat": 34.22889,
    "lng": -118.532016
  },
  {
    "id": "630011811",
    "name": "REMEDY HOME HEALTH CARE",
    "npi": "1609040740",
    "hcaiId": "406197302",
    "businessName": "DAN HOME HEALTH CARE, INC.",
    "contactEmail": "REMEDYHOMEHEALTHCARE@GMAIL.COM",
    "categoryName": "HOME HEALTH AGENCY",
    "categoryCode": "HHA",
    "licenseStatus": "ACTIVE",
    "inService": true,
    "licenseNumber": "550001028",
    "licenseEffectiveDate": "04/02/2025",
    "licenseExpirationDate": "04/01/2026",
    "dataDate": "10/18/2025",
    "capacity": 0,
    "address": "9836 WHITE OAK AVE, SUITE 209",
    "city": "NORTHRIDGE",
    "zip": "91325",
    "county": "LOS ANGELES",
    "phone": "(818) 900-0788",
    "lat": 34.24955399,
    "lng": -118.519598
  },
  {
    "id": "630025400",
    "name": "SLS HOME HEALTH, INC.",
    "npi": null,
    "hcaiId": "406190230",
    "businessName": "SLS HOME HEALTH, INC.",
    "contactEmail": "DUCHITEL1@GMAIL.COM",
    "categoryName": "HOME HEALTH AGENCY",
    "categoryCode": "HHA",
    "licenseStatus": "ACTIVE",
    "inService": true,
    "licenseNumber": "550008952",
    "licenseEffectiveDate": "01/27/2025",
    "licenseExpirationDate": "01/26/2026",
    "dataDate": "10/18/2025",
    "capacity": 0,
    "address": "7615 LOUISE AVE",
    "city": "NORTHRIDGE",
    "zip": "91325",
    "county": "LOS ANGELES",
    "phone": "(818) 280-9794",
    "lat": 34.208946,
    "lng": -118.510209
  },
  {
    "id": "630014486",
    "name": "SUNNYVIEW HOME",
    "npi": null,
    "hcaiId": "206198277",
    "businessName": "COMMUNITY CARE SOLUTIONS INC.",
    "contactEmail": "MTOKAR1957@GMAIL.COM",
    "categoryName": "CONGREGATE LIVING HEALTH FACILITY",
    "categoryCode": "CLHF",
    "licenseStatus": "ACTIVE",
    "inService": true,
    "licenseNumber": "550002800",
    "licenseEffectiveDate": "08/12/2025",
    "licenseExpirationDate": "08/11/2026",
    "dataDate": "10/18/2025",
    "capacity": 6,
    "address": "17824 PARTHENIA ST",
    "city": "SHERWOOD FOREST",
    "zip": "91325",
    "county": "LOS ANGELES",
    "phone": "(323) 350-8997",
    "lat": 34.228314,
    "lng": -118.522395
  },
  {
    "id": "920000310",
    "name": "THE GARDENS HEALTHCARE CENTER",
    "npi": "1508528498",
    "hcaiId": "206196394",
    "businessName": "ASND, LLC",
    "contactEmail": "KEITHV@ASPENHEALTH.COM",
    "categoryName": "SKILLED NURSING FACILITY",
    "categoryCode": "SNF",
    "licenseStatus": "ACTIVE",
    "inService": true,
    "licenseNumber": "920000128",
    "licenseEffectiveDate": "01/24/2025",
    "licenseExpirationDate": "01/23/2026",
    "dataDate": "10/18/2025",
    "capacity": 45,
    "address": "17650 DEVONSHIRE ST",
    "city": "NORTHRIDGE",
    "zip": "91325",
    "county": "LOS ANGELES",
    "phone": "(818) 477-4030",
    "lat": 34.2567,
    "lng": -118.5191595
  },
  {
    "id": "630024357",
    "name": "TRANSCEND HOME HEALTH, INC.",
    "npi": null,
    "hcaiId": "406196167",
    "businessName": "TRANSCEND HOME HEALTH, INC.",
    "contactEmail": "TRANSCENDHH@GMAIL.COM",
    "categoryName": "HOME HEALTH AGENCY",
    "categoryCode": "HHA",
    "licenseStatus": "ACTIVE",
    "inService": true,
    "licenseNumber": "550008210",
    "licenseEffectiveDate": "05/04/2023",
    "licenseExpirationDate": "11/03/2023",
    "dataDate": "10/18/2025",
    "capacity": 0,
    "address": "7621 LOUISE AVE, SUITE E",
    "city": "NORTHRIDGE",
    "zip": "91325",
    "county": "LOS ANGELES",
    "phone": "(818) 531-0331",
    "lat": 34.208946,
    "lng": -118.510209
  },
  {
    "id": "630014746",
    "name": "VALLEY PHYSICIANS SURGERY CENTER AT NORTHRIDGE, LLC",
    "npi": "1710321328",
    "hcaiId": null,
    "businessName": null,
    "contactEmail": null,
    "categoryName": "SURGICAL CLINIC",
    "categoryCode": "ASC",
    "licenseStatus": null,
    "inService": null,
    "licenseNumber": null,
    "licenseEffectiveDate": null,
    "licenseExpirationDate": null,
    "dataDate": "10/18/2025",
    "capacity": 0,
    "address": "18330 ROSCOE BLVD",
    "city": "NORTHRIDGE",
    "zip": "91325",
    "county": "LOS ANGELES",
    "phone": "(747) 224-4004",
    "lat": 34.22070286,
    "lng": -118.5329909
  },
  {
    "id": "630014729",
    "name": "WHITE OAK CONGREGATE LIVING FACILITY, LLC",
    "npi": null,
    "hcaiId": "206198175",
    "businessName": "WHITE OAK CONGREGATE LIVING FACILITY, LLC",
    "contactEmail": "CLHFGROUP@GMAIL.COM",
    "categoryName": "CONGREGATE LIVING HEALTH FACILITY",
    "categoryCode": "CLHF",
    "licenseStatus": "ACTIVE",
    "inService": true,
    "licenseNumber": "550003205",
    "licenseEffectiveDate": "08/27/2025",
    "licenseExpirationDate": "08/26/2026",
    "dataDate": "10/18/2025",
    "capacity": 6,
    "address": "9301 WHITE OAK AVE",
    "city": "NORTHRIDGE",
    "zip": "91325",
    "county": "LOS ANGELES",
    "phone": "(818) 885-1135",
    "lat": 34.239222,
    "lng": -118.520451
  }
]