[
  {
    "id": "630019358",
    "name": "ACTIVATE CARE HOSPICE, INC.",
    "npi": null,
    "hcaiId": "406562738",
    "businessName": "ACTIVATE CARE HOSPICE, INC.",
    "contactEmail": "ACTIVATECAREHOSPICEINC@GMAIL.COM",
    "categoryName": "HOSPICE",
    "categoryCode": "HOSPICE",
    "licenseStatus": "ACTIVE",
    "inService": true,
    "licenseNumber": "550005616",
    "licenseEffectiveDate": "04/15/2024",
    "licenseExpirationDate": "04/14/2026",
    "dataDate": "10/18/2025",
    "capacity": 0,
    "address": "2904 THERESA DR, UNIT 104B",
    "city": "NEWBURY PARK",
    "zip": "91320",
    "county": "VENTURA",
    "phone": "(310) 721-1918",
    "lat": 34.17885,
    "lng": -118.9380825
  },
  {
    "id": "630011237",
    "name": "ALLIED HEALTHCARE PROFESSIONALS, INC.",
    "npi": "1134261704",
    "hcaiId": "406564170",
    "businessName": "ALLIED HEALTHCARE PROFESSIONALS, INC.",
    "contactEmail": "MATT@ALLIEDHCP.COM",
    "categoryName": "HOME HEALTH AGENCY",
    "categoryCode": "HHA",
    "licenseStatus": "ACTIVE",
    "inService": true,
    "licenseNumber": "550000570",
    "licenseEffectiveDate": "11/24/2024",
    "licenseExpirationDate": "11/23/2025",
    "dataDate": "10/18/2025",
    "capacity": 0,
    "address": "869 LINDAWOOD ST",
    "city": "NEWBURY PARK",
    "zip": "91320",
    "county": "VENTURA",
    "phone": "(805) 496-2680",
    "lat": 34.179534,
    "lng": -118.901457
  },
  {
    "id": "630016965",
    "name": "BLOOMSBURY HOME HEALTH CARE SERVICES, INC.",
    "npi": null,
    "hcaiId": "406561408",
    "businessName": "BLOOMSBURY HOME HEALTH CARE SERVICES, INC.",
    "contactEmail": "BLOOMSBURYHOMEHEALTH@GMAIL.COM",
    "categoryName": "HOME HEALTH AGENCY",
    "categoryCode": "HHA",
    "licenseStatus": "ACTIVE",
    "inService": true,
    "licenseNumber": "550004467",
    "licenseEffectiveDate": "12/01/2024",
    "licenseExpirationDate": "11/30/2025",
    "dataDate": "10/18/2025",
    "capacity": 0,
    "address": "1000 BUSINESS CENTER CIR, SUITE 213",
    "city": "NEWBURY PARK",
    "zip": "91320",
    "county": "VENTURA",
    "phone": "(805) 499-7770",
    "lat": 34.19271001,
    "lng": -118.942192
  },
  {
    "id": "630004261",
    "name": "BUENA VISTA HOSPICE",
    "npi": "1841679651",
    "hcaiId": "406196663",
    "businessName": "VESPER HEALTHCARE, INC.",
    "contactEmail": "ADMIN@BVHOSPICE.COM",
    "categoryName": "HOSPICE",
    "categoryCode": "HOSPICE",
    "licenseStatus": "ACTIVE",
    "inService": true,
    "licenseNumber": "550000060",
    "licenseEffectiveDate": "02/09/2024",
    "licenseExpirationDate": "02/08/2026",
    "dataDate": "10/18/2025",
    "capacity": 0,
    "address": "2545 W HILLCREST DR, SUITE 130",
    "city": "THOUSAND OAKS",
    "zip": "91320",
    "county": "VENTURA",
    "phone": "(805) 777-1133",
    "lat": 34.188624,
    "lng": -118.93257
  },
  {
    "id": "050000623",
    "name": "BUENA VISTA PALLIATIVE CARE & HOME HEALTH",
    "npi": "1639559552",
    "hcaiId": "406564034",
    "businessName": "JOSHUA TREE HEALTHCARE, INC.",
    "contactEmail": "ADMIN@BVHOSPICE.COM",
    "categoryName": "HOME HEALTH AGENCY",
    "categoryCode": "HHA",
    "licenseStatus": "ACTIVE",
    "inService": true,
    "licenseNumber": "050000273",
    "licenseEffectiveDate": "06/22/2025",
    "licenseExpirationDate": "06/21/2026",
    "dataDate": "10/18/2025",
    "capacity": 0,
    "address": "2545 W HILLCREST DR, SUITE 130A",
    "city": "THOUSAND OAKS",
    "zip": "91320",
    "county": "VENTURA",
    "phone": "(805) 676-1453",
    "lat": 34.188651,
    "lng": -118.932633
  },
  {
    "id": "630010980",
    "name": "CLINICAS DEL CAMINO REAL INC NEWBURY PARK",
    "npi": null,
    "hcaiId": "306564155",
    "businessName": "CLINICAS DEL CAMINO REAL, INC.",
    "contactEmail": "CGALLARD@CLINICAS.ORG",
    "categoryName": "PRIMARY CARE CLINIC",
    "categoryCode": "COMTYC",
    "licenseStatus": "ACTIVE",
    "inService": true,
    "licenseNumber": "550000384",
    "licenseEffectiveDate": "01/11/2025",
    "licenseExpirationDate": "01/10/2026",
    "dataDate": "10/18/2025",
    "capacity": 0,
    "address": "1000 NEWBURY RD, SUITE 150",
    "city": "NEWBURY PARK",
    "zip": "91320",
    "county": "VENTURA",
    "phone": "(805) 659-1740",
    "lat": 34.182585,
    "lng": -118.9046565
  },
  {
    "id": "630020675",
    "name": "CLINICAS DEL CAMINO REAL, INC., NEWBURY PARK",
    "npi": null,
    "hcaiId": null,
    "businessName": "CLINICAS DEL CAMINO REAL, INC.",
    "contactEmail": null,
    "categoryName": "PRIMARY CARE CLINIC",
    "categoryCode": "COMTYC",
    "licenseStatus": "ACTIVE",
    "inService": true,
    "licenseNumber": "550000384",
    "licenseEffectiveDate": "01/11/2025",
    "licenseExpirationDate": "01/10/2026",
    "dataDate": "10/18/2025",
    "capacity": 0,
    "address": "1000 NEWBURY RD, SUITE 170 & 195",
    "city": "NEWBURY PARK",
    "zip": "91320",
    "county": "VENTURA",
    "phone": null,
    "lat": 34.182846,
    "lng": -118.904778
  },
  {
    "id": "630012447",
    "name": "CONEJO VALLEY SURGERY CENTER",
    "npi": "1801032750",
    "hcaiId": null,
    "businessName": null,
    "contactEmail": null,
    "categoryName": "SURGICAL CLINIC",
    "categoryCode": "ASC",
    "licenseStatus": null,
    "inService": null,
    "licenseNumber": null,
    "licenseEffectiveDate": null,
    "licenseExpirationDate": null,
    "dataDate": "10/18/2025",
    "capacity": 0,
    "address": "311 HAIGH RD, SUITE 100",
    "city": "NEWBURY PARK",
    "zip": "91320",
    "county": "VENTURA",
    "phone": "(805) 375-1989",
    "lat": 34.182441,
    "lng": -118.903986
  },
  {
    "id": "630012446",
    "name": "DISC SURGERY CENTER AT THOUSAND OAKS",
    "npi": "1023159860",
    "hcaiId": null,
    "businessName": null,
    "contactEmail": "TOSURGERYCENTER@YAHOO.COM",
    "categoryName": "SURGICAL CLINIC",
    "categoryCode": "ASC",
    "licenseStatus": null,
    "inService": null,
    "licenseNumber": null,
    "licenseEffectiveDate": null,
    "licenseExpirationDate": null,
    "dataDate": "10/18/2025",
    "capacity": 0,
    "address": "1120 NEWBURY RD, SUITE 100",
    "city": "NEWBURY PARK",
    "zip": "91320",
    "county": "VENTURA",
    "phone": "(805) 230-3100",
    "lat": 34.18353,
    "lng": -118.905354
  },
  {
    "id": "630020752",
    "name": "DYNAMIC HOSPICE AND PALLIATIVE CARE",
    "npi": null,
    "hcaiId": "406194784",
    "businessName": "GRACEFUL AGING HOSPICE CARE, INC.",
    "contactEmail": null,
    "categoryName": "HOSPICE",
    "categoryCode": "HOSPICE",
    "licenseStatus": "ACTIVE",
    "inService": true,
    "licenseNumber": "550007291",
    "licenseEffectiveDate": "08/13/2024",
    "licenseExpirationDate": "11/23/2025",
    "dataDate": "10/18/2025",
    "capacity": 0,
    "address": "2800 CAMINO DOS RIOS, SUITE 101B",
    "city": "THOUSAND OAKS",
    "zip": "91320",
    "county": "VENTURA",
    "phone": "(805) 624-6300",
    "lat": 34.18917302,
    "lng": -118.936012
  },
  {
    "id": "630019122",
    "name": "GRACEFUL CARE HOME HEALTH SERVICES, LLC",
    "npi": "1871145441",
    "hcaiId": "406562512",
    "businessName": "GRACEFUL CARE HOME HEALTH SERVICES, LLC",
    "contactEmail": "GRACEFULCAREHH@GMAIL.COM",
    "categoryName": "HOME HEALTH AGENCY",
    "categoryCode": "HHA",
    "licenseStatus": "ACTIVE",
    "inService": true,
    "licenseNumber": "550005307",
    "licenseEffectiveDate": "02/05/2025",
    "licenseExpirationDate": "02/04/2026",
    "dataDate": "10/18/2025",
    "capacity": 0,
    "address": "2082 NEWBURY RD, SUITE 2",
    "city": "NEWBURY PARK",
    "zip": "91320",
    "county": "VENTURA",
    "phone": "(805) 758-9339",
    "lat": 34.18289472,
    "lng": -118.9250558
  },
  {
    "id": "630015184",
    "name": "GRACEFUL CARE HOSPICE, INC.",
    "npi": "1467866772",
    "hcaiId": "406564260",
    "businessName": "GRACEFUL CARE HOSPICE, INC.",
    "contactEmail": "GRACEFULCAREHOSPICE@GMAIL.COM",
    "categoryName": "HOSPICE",
    "categoryCode": "HOSPICE",
    "licenseStatus": "ACTIVE",
    "inService": true,
    "licenseNumber": "550002807",
    "licenseEffectiveDate": "08/21/2024",
    "licenseExpirationDate": "08/20/2026",
    "dataDate": "10/18/2025",
    "capacity": 0,
    "address": "2082 NEWBURY RD, SUITE 12",
    "city": "NEWBURY PARK",
    "zip": "91320",
    "county": "VENTURA",
    "phone": "(805) 499-3700",
    "lat": 34.18289472,
    "lng": -118.9250558
  },
  {
    "id": "630018918",
    "name": "LINK TO CARE CONGREGATE HOME",
    "npi": null,
    "hcaiId": "206560232",
    "businessName": "NEIGHBOR CARE CONGREGATE HOME, INC.",
    "contactEmail": "INFO.CLHF@NEIGHBORCAREINC.COM",
    "categoryName": "CONGREGATE LIVING HEALTH FACILITY",
    "categoryCode": "CLHF",
    "licenseStatus": "ACTIVE",
    "inService": true,
    "licenseNumber": "550005399",
    "licenseEffectiveDate": "03/23/2025",
    "licenseExpirationDate": "03/22/2026",
    "dataDate": "10/18/2025",
    "capacity": 6,
    "address": "3249 GERALD DR",
    "city": "NEWBURY PARK",
    "zip": "91320",
    "county": "VENTURA",
    "phone": "(805) 768-5098",
    "lat": 34.183422,
    "lng": -118.9441485
  },
  {
    "id": "630022965",
    "name": "LINK TO CARE CONGREGATE HOME 2",
    "npi": null,
    "hcaiId": "206560345",
    "businessName": "NEIGHBOR CARE CLHF, INC.",
    "contactEmail": "INFO.CLHF@NEIGHBORCAREINC.COM",
    "categoryName": "CONGREGATE LIVING HEALTH FACILITY",
    "categoryCode": "CLHF",
    "licenseStatus": "ACTIVE",
    "inService": true,
    "licenseNumber": "550008093",
    "licenseEffectiveDate": "07/27/2025",
    "licenseExpirationDate": "07/26/2026",
    "dataDate": "10/18/2025",
    "capacity": 6,
    "address": "81 NORTHAM AVE",
    "city": "NEWBURY PARK",
    "zip": "91320",
    "county": "VENTURA",
    "phone": "(805) 375-7476",
    "lat": 34.179561,
    "lng": -118.9248615
  },
  {
    "id": "050000055",
    "name": "MARY HEALTH OF THE SICK CONVALESCENT & NURSING HOSPITAL",
    "npi": "1821096066",
    "hcaiId": "206560495",
    "businessName": "MARY HEALTH OF THE SICK CONVALESCENT & NURSING HOSPITAL INC",
    "contactEmail": "NHA@MARYHEALTH.COM",
    "categoryName": "SKILLED NURSING FACILITY",
    "categoryCode": "SNF",
    "licenseStatus": "ACTIVE",
    "inService": true,
    "licenseNumber": "050000041",
    "licenseEffectiveDate": "03/20/2025",
    "licenseExpirationDate": "01/31/2026",
    "dataDate": "10/18/2025",
    "capacity": 59,
    "address": "2929 THERESA DR",
    "city": "NEWBURY PARK",
    "zip": "91320",
    "county": "VENTURA",
    "phone": "(805) 498-3644",
    "lat": 34.180533,
    "lng": -118.938132
  },
  {
    "id": "630019356",
    "name": "MED CARE HOSPICE, INC",
    "npi": "1902457724",
    "hcaiId": "406562885",
    "businessName": "MED CARE HOSPICE, INC",
    "contactEmail": "MEDCAREHOSPICEINC@GMAIL.COM",
    "categoryName": "HOSPICE",
    "categoryCode": "HOSPICE",
    "licenseStatus": "ACTIVE",
    "inService": true,
    "licenseNumber": "550005730",
    "licenseEffectiveDate": "08/27/2024",
    "licenseExpirationDate": "08/26/2026",
    "dataDate": "10/18/2025",
    "capacity": 0,
    "address": "2904 THERESA DR, SUITE 104A",
    "city": "NEWBURY PARK",
    "zip": "91320",
    "county": "VENTURA",
    "phone": "(310) 721-1918",
    "lat": 34.17885,
    "lng": -118.9380825
  },
  {
    "id": "630003541",
    "name": "PLANNED PARENTHOOD OF THOUSAND OAKS",
    "npi": "1619994191",
    "hcaiId": "306564204",
    "businessName": "PLANNED PARENTHOOD CALIFORNIA CENTRAL COAST",
    "contactEmail": "DALILA.CERVANTES@PPCENTRALCOAST.ORG",
    "categoryName": "PRIMARY CARE CLINIC",
    "categoryCode": "COMTYC",
    "licenseStatus": "ACTIVE",
    "inService": true,
    "licenseNumber": "550000092",
    "licenseEffectiveDate": "11/11/2025",
    "licenseExpirationDate": "11/10/2026",
    "dataDate": "10/18/2025",
    "capacity": 0,
    "address": "1200 W HILLCREST DR, SUITE 100",
    "city": "NEWBURY PARK",
    "zip": "91320",
    "county": "VENTURA",
    "phone": "(805) 722-1509",
    "lat": 34.184907,
    "lng": -118.90701
  },
  {
    "id": "630027315",
    "name": "THOUSAND OAKS OUTPATIENT SURGERY CENTER, INC.",
    "npi": null,
    "hcaiId": null,
    "businessName": null,
    "contactEmail": null,
    "categoryName": "SURGICAL CLINIC",
    "categoryCode": "ASC",
    "licenseStatus": null,
    "inService": null,
    "licenseNumber": null,
    "licenseEffectiveDate": null,
    "licenseExpirationDate": null,
    "dataDate": "10/18/2025",
    "capacity": 0,
    "address": "3299 OLD CONEJO RD",
    "city": "THOUSAND OAKS",
    "zip": "91320",
    "county": "VENTURA",
    "phone": "(818) 359-8833",
    "lat": 34.19116598,
    "lng": -118.945074
  }
]