[
  {
    "id": "630021185",
    "name": "911 AM PM HOME HEALTH CARE, INC.",
    "npi": null,
    "hcaiId": "406195767",
    "businessName": "911 AM PM HOME HEALTH CARE, INC.",
    "contactEmail": "911HOMECARE@GMAIL.COM",
    "categoryName": "HOME HEALTH AGENCY",
    "categoryCode": "HHA",
    "licenseStatus": "ACTIVE",
    "inService": true,
    "licenseNumber": "550007789",
    "licenseEffectiveDate": "06/17/2025",
    "licenseExpirationDate": "01/17/2026",
    "dataDate": "10/18/2025",
    "capacity": 0,
    "address": "7601 CANBY AVE, SUITE # 8",
    "city": "RESEDA",
    "zip": "91335",
    "county": "LOS ANGELES",
    "phone": "(747) 666-0603",
    "lat": 34.208707,
    "lng": -118.534992
  },
  {
    "id": "630026627",
    "name": "ADVANCED HOME DIALYSIS, INC",
    "npi": null,
    "hcaiId": null,
    "businessName": null,
    "contactEmail": "ADVANCEDHHD@YAHOO.COM",
    "categoryName": "CHRONIC DIALYSIS CLINIC",
    "categoryCode": "ESRD",
    "licenseStatus": null,
    "inService": null,
    "licenseNumber": null,
    "licenseEffectiveDate": null,
    "licenseExpirationDate": null,
    "dataDate": "10/18/2025",
    "capacity": 0,
    "address": "19231 VICTORY BLVD, SUITE 103",
    "city": "RESEDA",
    "zip": "91335",
    "county": "LOS ANGELES",
    "phone": "(424) 202-2227",
    "lat": 34.187211,
    "lng": -118.552608
  },
  {
    "id": "630016841",
    "name": "ALL CARE - S.F. VALLEY",
    "npi": null,
    "hcaiId": "206198540",
    "businessName": "S.F. VALLEY CONGREGATE LIVING, INC.",
    "contactEmail": "INFO@SFCONGREGATELIVING.COM",
    "categoryName": "CONGREGATE LIVING HEALTH FACILITY",
    "categoryCode": "CLHF",
    "licenseStatus": "ACTIVE",
    "inService": true,
    "licenseNumber": "550004007",
    "licenseEffectiveDate": "10/20/2025",
    "licenseExpirationDate": "10/19/2026",
    "dataDate": "10/18/2025",
    "capacity": 6,
    "address": "7332 CLAIRE AVENUE",
    "city": "RESEDA",
    "zip": "91335",
    "county": "LOS ANGELES",
    "phone": "(818) 600-8531",
    "lat": 34.203915,
    "lng": -118.5500115
  },
  {
    "id": "630016318",
    "name": "ALL WELLNESS CONGREGATE LIVING, INC.",
    "npi": null,
    "hcaiId": "206190132",
    "businessName": "ALL WELLNESS CONGREGATE LIVING, INC.",
    "contactEmail": "ALLWELLNESSCONGREGATE@GMAIL.COM",
    "categoryName": "CONGREGATE LIVING HEALTH FACILITY",
    "categoryCode": "CLHF",
    "licenseStatus": "ACTIVE",
    "inService": true,
    "licenseNumber": "550004753",
    "licenseEffectiveDate": "06/11/2025",
    "licenseExpirationDate": "06/10/2026",
    "dataDate": "10/18/2025",
    "capacity": 6,
    "address": "18314 SATICOY STREET",
    "city": "RESEDA",
    "zip": "91335",
    "county": "LOS ANGELES",
    "phone": "(818) 437-5686",
    "lat": 34.208181,
    "lng": -118.5322455
  },
  {
    "id": "630014146",
    "name": "AMGEN HOSPICE CARE",
    "npi": null,
    "hcaiId": "406198143",
    "businessName": "AMERICAN GENERAL HOSPICE CARE, INC.",
    "contactEmail": "AMGENHOSPICE@YAHOO.COM",
    "categoryName": "HOSPICE",
    "categoryCode": "HOSPICE",
    "licenseStatus": "ACTIVE",
    "inService": true,
    "licenseNumber": "550002487",
    "licenseEffectiveDate": "10/28/2023",
    "licenseExpirationDate": "10/27/2025",
    "dataDate": "10/18/2025",
    "capacity": 0,
    "address": "6909 RESEDA BLVD",
    "city": "RESEDA",
    "zip": "91335",
    "county": "LOS ANGELES",
    "phone": "(818) 785-8800",
    "lat": 34.195986,
    "lng": -118.536237
  },
  {
    "id": "630026366",
    "name": "APEX COMMUNITY HEALTH CENTER, INC.",
    "npi": null,
    "hcaiId": "306190022",
    "businessName": "APEX COMMUNITY HEALTH CARE CENTER, INC.",
    "contactEmail": "AHARUTYUNYAN@APEXCHC.ORG",
    "categoryName": "PRIMARY CARE CLINIC",
    "categoryCode": "COMTYC",
    "licenseStatus": "ACTIVE",
    "inService": true,
    "licenseNumber": "550009046",
    "licenseEffectiveDate": "02/14/2025",
    "licenseExpirationDate": "02/13/2026",
    "dataDate": "10/18/2025",
    "capacity": 0,
    "address": "18040 SHERMAN WAY, SUITE 204",
    "city": "RESEDA",
    "zip": "91335",
    "county": "LOS ANGELES",
    "phone": "(818) 618-7737",
    "lat": 34.200828,
    "lng": -118.5267735
  },
  {
    "id": "630028369",
    "name": "APEX COMMUNITY HEALTH CENTER, INC.",
    "npi": null,
    "hcaiId": null,
    "businessName": "APEX COMMUNITY HEALTH CARE CENTER, INC.",
    "contactEmail": "AHARUTYUNYAN@APEXCHC.ORG",
    "categoryName": "PRIMARY CARE CLINIC",
    "categoryCode": "COMTYC",
    "licenseStatus": "ACTIVE",
    "inService": true,
    "licenseNumber": "550009967",
    "licenseEffectiveDate": "09/17/2025",
    "licenseExpirationDate": "03/16/2026",
    "dataDate": "10/18/2025",
    "capacity": 0,
    "address": "7640 TAMPA AVE, SUITE 107",
    "city": "RESEDA",
    "zip": "91335",
    "county": "LOS ANGELES",
    "phone": "(818) 618-7737",
    "lat": 34.209526,
    "lng": -118.55291
  },
  {
    "id": "630025623",
    "name": "ARTS HOME HEALTH CARE, INC.",
    "npi": null,
    "hcaiId": "406190111",
    "businessName": "ARTS HOME HEALTH CARE, INC.",
    "contactEmail": "ARTSHOMEHEALTH@GMAIL.COM",
    "categoryName": "HOME HEALTH AGENCY",
    "categoryCode": "HHA",
    "licenseStatus": "ACTIVE",
    "inService": true,
    "licenseNumber": "550008679",
    "licenseEffectiveDate": "06/06/2025",
    "licenseExpirationDate": "06/05/2026",
    "dataDate": "10/18/2025",
    "capacity": 0,
    "address": "6900 CANBY AVE, SUITE 111",
    "city": "RESEDA",
    "zip": "91335",
    "county": "LOS ANGELES",
    "phone": "(818) 796-4477",
    "lat": 34.19559739,
    "lng": -118.5350659
  },
  {
    "id": "630026717",
    "name": "AT-HOME HEALTH, INC",
    "npi": null,
    "hcaiId": "406190322",
    "businessName": "AT-HOME HEALTH, INC",
    "contactEmail": "INFO.ATHOMEHEALTH@GMAIL.COM",
    "categoryName": "HOME HEALTH AGENCY",
    "categoryCode": "HHA",
    "licenseStatus": "ACTIVE",
    "inService": true,
    "licenseNumber": "550009059",
    "licenseEffectiveDate": "04/05/2025",
    "licenseExpirationDate": "04/04/2026",
    "dataDate": "10/18/2025",
    "capacity": 0,
    "address": "18546 SHERMAN WAY, SUITE 115",
    "city": "RESEDA",
    "zip": "91335",
    "county": "LOS ANGELES",
    "phone": "(424) 362-6891",
    "lat": 34.200981,
    "lng": -118.537677
  },
  {
    "id": "630018999",
    "name": "AURORA HOME HEALTH, INC.",
    "npi": "1245791979",
    "hcaiId": "406192433",
    "businessName": "AURORA HOME HEALTH, INC.",
    "contactEmail": "AURORAHHINC@OUTLOOK.COM",
    "categoryName": "HOME HEALTH AGENCY",
    "categoryCode": "HHA",
    "licenseStatus": "ACTIVE",
    "inService": true,
    "licenseNumber": "550005340",
    "licenseEffectiveDate": "03/06/2025",
    "licenseExpirationDate": "03/05/2026",
    "dataDate": "10/18/2025",
    "capacity": 0,
    "address": "18341 SHERMAN WAY, SUITE 107",
    "city": "RESEDA",
    "zip": "91335",
    "county": "LOS ANGELES",
    "phone": "(818) 636-3250",
    "lat": 34.201296,
    "lng": -118.533222
  },
  {
    "id": "630026211",
    "name": "AUTONOMY HOME HEALTH",
    "npi": null,
    "hcaiId": null,
    "businessName": "AUTONOMY HOME HEALTH",
    "contactEmail": "AUTONOMYHH@GMAIL.COM",
    "categoryName": "HOME HEALTH AGENCY",
    "categoryCode": "HHA",
    "licenseStatus": "ACTIVE",
    "inService": true,
    "licenseNumber": "550009197",
    "licenseEffectiveDate": "06/17/2025",
    "licenseExpirationDate": "06/16/2026",
    "dataDate": "10/18/2025",
    "capacity": 0,
    "address": "7343 RESEDA BLVD, UNIT D",
    "city": "RESEDA",
    "zip": "91335",
    "county": "LOS ANGELES",
    "phone": "(747) 217-2525",
    "lat": 34.204158,
    "lng": -118.5363
  },
  {
    "id": "630021077",
    "name": "AVAN HOME HEALTH CARE, INC.",
    "npi": null,
    "hcaiId": "406195680",
    "businessName": "AVAN HOME HEALTH CARE, INC.",
    "contactEmail": "AVANHHC@GMAIL.COM",
    "categoryName": "HOME HEALTH AGENCY",
    "categoryCode": "HHA",
    "licenseStatus": "ACTIVE",
    "inService": true,
    "licenseNumber": "550006326",
    "licenseEffectiveDate": "05/24/2025",
    "licenseExpirationDate": "05/23/2026",
    "dataDate": "10/18/2025",
    "capacity": 0,
    "address": "19231 VICTORY BLVD, SUITE 109",
    "city": "RESEDA",
    "zip": "91335",
    "county": "LOS ANGELES",
    "phone": "(747) 267-5060",
    "lat": 34.187211,
    "lng": -118.552608
  },
  {
    "id": "060002137",
    "name": "BABYLON ADULT DAY HEALTH CARE CENTER",
    "npi": null,
    "hcaiId": null,
    "businessName": "BABYLON ADULT DAYCARE CENTER, INC.",
    "contactEmail": "BABYLONCBAS@YAHOO.COM",
    "categoryName": "ADULT DAY HEALTH CARE",
    "categoryCode": "ADHC",
    "licenseStatus": "ACTIVE",
    "inService": true,
    "licenseNumber": "060000893",
    "licenseEffectiveDate": "06/19/2025",
    "licenseExpirationDate": "06/18/2026",
    "dataDate": "10/18/2025",
    "capacity": 0,
    "address": "18725 SHERMAN WAY",
    "city": "RESEDA",
    "zip": "91335",
    "county": "LOS ANGELES",
    "phone": "(818) 996-9300",
    "lat": 34.201449,
    "lng": -118.5412005
  },
  {
    "id": "630021671",
    "name": "BELIEVE HOSPICE, INC.",
    "npi": null,
    "hcaiId": "406193392",
    "businessName": "BELIEVE HOSPICE INC",
    "contactEmail": "BELIEVEHOSPICE@GMAIL.COM",
    "categoryName": "HOSPICE",
    "categoryCode": "HOSPICE",
    "licenseStatus": "ACTIVE",
    "inService": true,
    "licenseNumber": "550007152",
    "licenseEffectiveDate": "10/12/2023",
    "licenseExpirationDate": "10/11/2025",
    "dataDate": "10/18/2025",
    "capacity": 0,
    "address": "18747 SHERMAN WAY, SUITE 225",
    "city": "RESEDA",
    "zip": "91335",
    "county": "LOS ANGELES",
    "phone": "(818) 538-9960",
    "lat": 34.201278,
    "lng": -118.542033
  },
  {
    "id": "630014963",
    "name": "BELLAGIO IN THE DESERT",
    "npi": null,
    "hcaiId": "206198165",
    "businessName": "TIL, LP",
    "contactEmail": "TATYANA@INTHEDESERTCLHF.COM",
    "categoryName": "CONGREGATE LIVING HEALTH FACILITY",
    "categoryCode": "CLHF",
    "licenseStatus": "ACTIVE",
    "inService": true,
    "licenseNumber": "550003204",
    "licenseEffectiveDate": "08/11/2024",
    "licenseExpirationDate": "08/10/2025",
    "dataDate": "10/18/2025",
    "capacity": 6,
    "address": "7300 TAMPA AVE",
    "city": "RESEDA",
    "zip": "91335",
    "county": "LOS ANGELES",
    "phone": "(661) 579-9805",
    "lat": 34.203078,
    "lng": -118.553193
  },
  {
    "id": "630020692",
    "name": "BEST IN THE WEST HOME HEALTH, INC.",
    "npi": null,
    "hcaiId": "406193049",
    "businessName": "BEST IN THE WEST HOME HEALTH, INC.",
    "contactEmail": "BESTINTHEWESTHOMEHEALTH@GMAIL.COM",
    "categoryName": "HOME HEALTH AGENCY",
    "categoryCode": "HHA",
    "licenseStatus": "ACTIVE",
    "inService": true,
    "licenseNumber": "550006111",
    "licenseEffectiveDate": "03/12/2025",
    "licenseExpirationDate": "03/11/2026",
    "dataDate": "10/18/2025",
    "capacity": 0,
    "address": "18305 SHERMAN WAY, SUITE 26",
    "city": "RESEDA",
    "zip": "91335",
    "county": "LOS ANGELES",
    "phone": "(747) 255-1666",
    "lat": 34.201287,
    "lng": -118.5320025
  },
  {
    "id": "630025778",
    "name": "BLISSFUL HEARTS HOME HEALTH, INC.",
    "npi": null,
    "hcaiId": null,
    "businessName": "BLISSFUL HEARTS HOME HEALTH, INC.",
    "contactEmail": "BLISSFULHEARTSHH@GMAIL.COM",
    "categoryName": "HOME HEALTH AGENCY",
    "categoryCode": "HHA",
    "licenseStatus": "ACTIVE",
    "inService": true,
    "licenseNumber": "550009583",
    "licenseEffectiveDate": "11/21/2025",
    "licenseExpirationDate": "11/20/2026",
    "dataDate": "10/18/2025",
    "capacity": 0,
    "address": "18711 SHERMAN WAY, UNIT 106D",
    "city": "RESEDA",
    "zip": "91335",
    "county": "LOS ANGELES",
    "phone": "(747) 217-2457",
    "lat": 34.201503,
    "lng": -118.5408135
  },
  {
    "id": "630017289",
    "name": "BLISSFUL HOME HEALTH SERVICES",
    "npi": "1184168650",
    "hcaiId": "406191531",
    "businessName": "BLISSFUL HOME HEALTH SERVICES",
    "contactEmail": "BLISSFULHOMEHEALTH@GMAIL.COM",
    "categoryName": "HOME HEALTH AGENCY",
    "categoryCode": "HHA",
    "licenseStatus": "ACTIVE",
    "inService": true,
    "licenseNumber": "550004469",
    "licenseEffectiveDate": "12/01/2024",
    "licenseExpirationDate": "11/30/2025",
    "dataDate": "10/18/2025",
    "capacity": 0,
    "address": "18645 SHERMAN WAY, SUITE 205",
    "city": "RESEDA",
    "zip": "91335",
    "county": "LOS ANGELES",
    "phone": "(818) 697-5977",
    "lat": 34.20144,
    "lng": -118.540359
  },
  {
    "id": "630026165",
    "name": "BLUE HORIZON HOME HEALTH CARE",
    "npi": null,
    "hcaiId": null,
    "businessName": "BLUE HORIZON HOME HEALTH CARE",
    "contactEmail": "BLUEHORIZONHOMEHEALTHCARE@GMAIL.COM",
    "categoryName": "HOME HEALTH AGENCY",
    "categoryCode": "HHA",
    "licenseStatus": "ACTIVE",
    "inService": true,
    "licenseNumber": "550009834",
    "licenseEffectiveDate": "11/15/2025",
    "licenseExpirationDate": "05/14/2026",
    "dataDate": "10/18/2025",
    "capacity": 0,
    "address": "6949 RESEDA BLVD, SUITE 201B",
    "city": "RESEDA",
    "zip": "91335",
    "county": "LOS ANGELES",
    "phone": "(818) 732-4214",
    "lat": 34.19712099,
    "lng": -118.536377
  },
  {
    "id": "630021971",
    "name": "BOOST HOME HEALTH, INC.",
    "npi": null,
    "hcaiId": "406193179",
    "businessName": "BOOST HOME HEALTH, INC.",
    "contactEmail": "BOOSTHOMEHEALTH@GMAIL.COM",
    "categoryName": "HOME HEALTH AGENCY",
    "categoryCode": "HHA",
    "licenseStatus": "ACTIVE",
    "inService": true,
    "licenseNumber": "550007016",
    "licenseEffectiveDate": "10/21/2025",
    "licenseExpirationDate": "10/20/2026",
    "dataDate": "10/18/2025",
    "capacity": 0,
    "address": "18747 SHERMAN WAY, SUITE 210",
    "city": "RESEDA",
    "zip": "91335",
    "county": "LOS ANGELES",
    "phone": "(818) 851-1052",
    "lat": 34.201278,
    "lng": -118.542033
  },
  {
    "id": "960001692",
    "name": "BRANDMAN CENTERS FOR SENIOR CARE, INC",
    "npi": "1114287778",
    "hcaiId": "306194482",
    "businessName": "BRANDMAN CENTERS FOR SENIOR CARE, INC.",
    "contactEmail": "SUSIE.FISHENFELD@JHA.ORG",
    "categoryName": "PRIMARY CARE CLINIC",
    "categoryCode": "COMTYC",
    "licenseStatus": "ACTIVE",
    "inService": true,
    "licenseNumber": "960000819",
    "licenseEffectiveDate": "11/28/2024",
    "licenseExpirationDate": "11/27/2025",
    "dataDate": "10/18/2025",
    "capacity": 0,
    "address": "7150 TAMPA AVE.",
    "city": "RESEDA",
    "zip": "91335",
    "county": "LOS ANGELES",
    "phone": "(818) 774-3274",
    "lat": 34.200441,
    "lng": -118.5531345
  },
  {
    "id": "630027849",
    "name": "CALI MED CORPORATION",
    "npi": null,
    "hcaiId": null,
    "businessName": "CALI MED CORPORATION",
    "contactEmail": null,
    "categoryName": "PRIMARY CARE CLINIC",
    "categoryCode": "COMTYC",
    "licenseStatus": "ACTIVE",
    "inService": true,
    "licenseNumber": "550008148",
    "licenseEffectiveDate": "08/31/2024",
    "licenseExpirationDate": "08/30/2025",
    "dataDate": "10/18/2025",
    "capacity": 0,
    "address": "18614 SHERMAN WAY",
    "city": "RESEDA",
    "zip": "91335",
    "county": "LOS ANGELES",
    "phone": null,
    "lat": 34.20087101,
    "lng": -118.539119
  },
  {
    "id": "630022292",
    "name": "CALIFORNIAN HOME HEALTH CARE, INC.",
    "npi": null,
    "hcaiId": "406195765",
    "businessName": "CALIFORNIAN HOME HEALTH CARE INC.",
    "contactEmail": "CALIFORNIANHOMECARE@GMAIL.COM",
    "categoryName": "HOME HEALTH AGENCY",
    "categoryCode": "HHA",
    "licenseStatus": "ACTIVE",
    "inService": true,
    "licenseNumber": "550007787",
    "licenseEffectiveDate": "01/06/2025",
    "licenseExpirationDate": "01/05/2026",
    "dataDate": "10/18/2025",
    "capacity": 0,
    "address": "6850 CANBY AVE, SUITE 109",
    "city": "RESEDA",
    "zip": "91335",
    "county": "LOS ANGELES",
    "phone": "(747) 609-7409",
    "lat": 34.19488754,
    "lng": -118.5346811
  },
  {
    "id": "630012643",
    "name": "CAMARILLO HHCA, INC.",
    "npi": null,
    "hcaiId": "406197944",
    "businessName": "CAMARILLO HHCA, INC.",
    "contactEmail": "CAMARILLOHHCA@HOTMAIL.COM",
    "categoryName": "HOME HEALTH AGENCY",
    "categoryCode": "HHA",
    "licenseStatus": "ACTIVE",
    "inService": true,
    "licenseNumber": "550001374",
    "licenseEffectiveDate": "06/02/2025",
    "licenseExpirationDate": "06/01/2026",
    "dataDate": "10/18/2025",
    "capacity": 0,
    "address": "18107 SHERMAN WAY, SUITE 212",
    "city": "RESEDA",
    "zip": "91335",
    "county": "LOS ANGELES",
    "phone": "(818) 345-2200",
    "lat": 34.201449,
    "lng": -118.527651
  },
  {
    "id": "630018225",
    "name": "CARDEA HOME HEALTH",
    "npi": null,
    "hcaiId": "406192123",
    "businessName": "CARDEA HOME HEALTH",
    "contactEmail": "CARDEAHH@YAHOO.COM",
    "categoryName": "HOME HEALTH AGENCY",
    "categoryCode": "HHA",
    "licenseStatus": "ACTIVE",
    "inService": true,
    "licenseNumber": "550005124",
    "licenseEffectiveDate": "09/11/2024",
    "licenseExpirationDate": "09/10/2025",
    "dataDate": "10/18/2025",
    "capacity": 0,
    "address": "7211 CANBY AVE",
    "city": "RESEDA",
    "zip": "91335",
    "county": "LOS ANGELES",
    "phone": "(818) 938-8808",
    "lat": 34.201476,
    "lng": -118.534878
  },
  {
    "id": "630016539",
    "name": "CARE CONNECTION HOME HEALTH AGENCY, INC.",
    "npi": "1417312984",
    "hcaiId": "406190876",
    "businessName": "CARE CONNECTION HOME HEALTH AGENCY, INC.",
    "contactEmail": "DAVID@CARECONNECTIONHH.COM",
    "categoryName": "HOME HEALTH AGENCY",
    "categoryCode": "HHA",
    "licenseStatus": "ACTIVE",
    "inService": true,
    "licenseNumber": "550004083",
    "licenseEffectiveDate": "12/15/2024",
    "licenseExpirationDate": "12/14/2025",
    "dataDate": "10/18/2025",
    "capacity": 0,
    "address": "19231 VICTORY BLVD, SUITE 259",
    "city": "RESEDA",
    "zip": "91335",
    "county": "LOS ANGELES",
    "phone": "(747) 265-6316",
    "lat": 34.18711099,
    "lng": -118.55222
  },
  {
    "id": "630016124",
    "name": "CARESATION LLC",
    "npi": "1235511841",
    "hcaiId": "406191390",
    "businessName": "CARESATION LLC",
    "contactEmail": "CARESATIONHH@GMAIL.COM",
    "categoryName": "HOME HEALTH AGENCY",
    "categoryCode": "HHA",
    "licenseStatus": "ACTIVE",
    "inService": true,
    "licenseNumber": "550003513",
    "licenseEffectiveDate": "05/27/2022",
    "licenseExpirationDate": "05/26/2023",
    "dataDate": "10/18/2025",
    "capacity": 0,
    "address": "18645 SHERMAN WAY, SUITE 107",
    "city": "RESEDA",
    "zip": "91335",
    "county": "LOS ANGELES",
    "phone": "(805) 285-3755",
    "lat": 34.20144,
    "lng": -118.540359
  },
  {
    "id": "630021506",
    "name": "CLEAR CREEK HOSPICE CARE",
    "npi": null,
    "hcaiId": "406193656",
    "businessName": "CLEAR CREEK HOSPICE CARE",
    "contactEmail": "ARAKELYANBELLA@YAHOO.COM",
    "categoryName": "HOSPICE",
    "categoryCode": "HOSPICE",
    "licenseStatus": "ACTIVE",
    "inService": true,
    "licenseNumber": "550006883",
    "licenseEffectiveDate": "09/23/2023",
    "licenseExpirationDate": "09/22/2025",
    "dataDate": "10/18/2025",
    "capacity": 0,
    "address": "7122 RESEDA BLVD, SUITE 203",
    "city": "RESEDA",
    "zip": "91335",
    "county": "LOS ANGELES",
    "phone": "(818) 732-9573",
    "lat": 34.200009,
    "lng": -118.535832
  },
  {
    "id": "630019669",
    "name": "COMPASSION HOME HEALTH CARE, INC.",
    "npi": null,
    "hcaiId": "406192773",
    "businessName": "COMPASSION HOME HEALTH CARE, INC.",
    "contactEmail": "COMPASSIONHHCARE@GMAIL.COM",
    "categoryName": "HOME HEALTH AGENCY",
    "categoryCode": "HHA",
    "licenseStatus": "ACTIVE",
    "inService": true,
    "licenseNumber": "550005631",
    "licenseEffectiveDate": "07/25/2025",
    "licenseExpirationDate": "07/24/2026",
    "dataDate": "10/18/2025",
    "capacity": 0,
    "address": "18305 SHERMAN WAY, UNIT 16 & 17",
    "city": "RESEDA",
    "zip": "91335",
    "county": "LOS ANGELES",
    "phone": "(818) 798-4472",
    "lat": 34.20146298,
    "lng": -118.531965
  },
  {
    "id": "980002409",
    "name": "CORINTHIAN HEALTH CARE SERVICES, INC.",
    "npi": "1205806007",
    "hcaiId": "406196708",
    "businessName": "CORINTHIAN HEALTH CARE SERVICES, INC.",
    "contactEmail": "GRACEMAYBRIONES@GMAIL.COM",
    "categoryName": "HOME HEALTH AGENCY",
    "categoryCode": "HHA",
    "licenseStatus": "ACTIVE",
    "inService": true,
    "licenseNumber": "980001519",
    "licenseEffectiveDate": "04/21/2025",
    "licenseExpirationDate": "04/20/2026",
    "dataDate": "10/18/2025",
    "capacity": 0,
    "address": "6903 RESEDA BLVD",
    "city": "RESEDA",
    "zip": "91335",
    "county": "LOS ANGELES",
    "phone": "(818) 881-8388",
    "lat": 34.195968,
    "lng": -118.536237
  },
  {
    "id": "630025790",
    "name": "DOE HOME HEALTH CARE INC",
    "npi": null,
    "hcaiId": null,
    "businessName": "DOE HOME HEALTH CARE INC",
    "contactEmail": "OSANNA.PISKOULIAN@GMAIL.COM",
    "categoryName": "HOME HEALTH AGENCY",
    "categoryCode": "HHA",
    "licenseStatus": "ACTIVE",
    "inService": true,
    "licenseNumber": "550009839",
    "licenseEffectiveDate": "09/11/2025",
    "licenseExpirationDate": "09/10/2026",
    "dataDate": "10/18/2025",
    "capacity": 0,
    "address": "7343 RESEDA BLVD, UNIT C",
    "city": "RESEDA",
    "zip": "91335",
    "county": "LOS ANGELES",
    "phone": "(818) 430-8093",
    "lat": 34.204158,
    "lng": -118.5363
  },
  {
    "id": "630022033",
    "name": "DULCE HOGAR ADULT DAY HEALTH CENTER",
    "npi": null,
    "hcaiId": null,
    "businessName": "DULCE HOGAR ADULT DAY HEALTH CENTER, LLC.",
    "contactEmail": "INFO@DULCEHOGARADHC.COM",
    "categoryName": "ADULT DAY HEALTH CARE",
    "categoryCode": "ADHC",
    "licenseStatus": "ACTIVE",
    "inService": true,
    "licenseNumber": "550008277",
    "licenseEffectiveDate": "12/20/2024",
    "licenseExpirationDate": "12/19/2025",
    "dataDate": "10/18/2025",
    "capacity": 0,
    "address": "18040 SHERMAN WAY, SUITE 150",
    "city": "RESEDA",
    "zip": "91335",
    "county": "LOS ANGELES",
    "phone": "(818) 667-8838",
    "lat": 34.200828,
    "lng": -118.5267735
  },
  {
    "id": "630025709",
    "name": "EARNEST CARE HOME HEALTH, INC.",
    "npi": null,
    "hcaiId": "406190098",
    "businessName": "EARNEST CARE HOME HEALTH, INC.",
    "contactEmail": "EARNESTCAREHH@GMAIL.COM",
    "categoryName": "HOME HEALTH AGENCY",
    "categoryCode": "HHA",
    "licenseStatus": "ACTIVE",
    "inService": true,
    "licenseNumber": "550008862",
    "licenseEffectiveDate": "12/15/2024",
    "licenseExpirationDate": "12/14/2025",
    "dataDate": "10/18/2025",
    "capacity": 0,
    "address": "18711 SHERMAN WAY, SUITE 106A",
    "city": "RESEDA",
    "zip": "91335",
    "county": "LOS ANGELES",
    "phone": "(310) 484-4747",
    "lat": 34.20150301,
    "lng": -118.540813
  },
  {
    "id": "920000062",
    "name": "EISENBERG VILLAGE",
    "npi": "1215930995",
    "hcaiId": "206190424",
    "businessName": "EISENBERG VILLAGE OF THE LOS ANGELES JEWISH HOME FOR THE AGING",
    "contactEmail": "KATHLEEN.GLASS@JHA.ORG",
    "categoryName": "SKILLED NURSING FACILITY",
    "categoryCode": "SNF",
    "licenseStatus": "ACTIVE",
    "inService": true,
    "licenseNumber": "920000043",
    "licenseEffectiveDate": "11/01/2025",
    "licenseExpirationDate": "10/31/2026",
    "dataDate": "10/18/2025",
    "capacity": 166,
    "address": "18855 VICTORY BLVD",
    "city": "RESEDA",
    "zip": "91335",
    "county": "LOS ANGELES",
    "phone": "(818) 774-3386",
    "lat": 34.186887,
    "lng": -118.5441345
  },
  {
    "id": "630024743",
    "name": "ELLIT HOME HEALTH CARE",
    "npi": null,
    "hcaiId": "406195967",
    "businessName": "ELLIT HOME HEALTH CARE",
    "contactEmail": "ELLITHOMEHEALTHCARE@GMAIL.COM",
    "categoryName": "HOME HEALTH AGENCY",
    "categoryCode": "HHA",
    "licenseStatus": "ACTIVE",
    "inService": true,
    "licenseNumber": "550008268",
    "licenseEffectiveDate": "12/12/2024",
    "licenseExpirationDate": "12/11/2025",
    "dataDate": "10/18/2025",
    "capacity": 0,
    "address": "18546 SHERMAN WAY, SUITE 202",
    "city": "RESEDA",
    "zip": "91335",
    "county": "LOS ANGELES",
    "phone": "(818) 724-8821",
    "lat": 34.200981,
    "lng": -118.537677
  },
  {
    "id": "630025706",
    "name": "ELLITTE HOME HEALTH CARE",
    "npi": null,
    "hcaiId": "406190099",
    "businessName": "ELLITTE HOME HEALTH CARE",
    "contactEmail": "ELLITTEHOMEHEALTHCARE@GMAIL.COM",
    "categoryName": "HOME HEALTH AGENCY",
    "categoryCode": "HHA",
    "licenseStatus": "ACTIVE",
    "inService": true,
    "licenseNumber": "550008846",
    "licenseEffectiveDate": "11/01/2024",
    "licenseExpirationDate": "10/31/2025",
    "dataDate": "10/18/2025",
    "capacity": 0,
    "address": "18570 SHERMAN WAY, SUITE E",
    "city": "RESEDA",
    "zip": "91335",
    "county": "LOS ANGELES",
    "phone": "(818) 743-7259",
    "lat": 34.200963,
    "lng": -118.5384285
  },
  {
    "id": "630022206",
    "name": "EMPIRE HOME HEALTH CARE, INC.",
    "npi": null,
    "hcaiId": "406195801",
    "businessName": "EMPIRE HOME HEALTH CARE, INC.",
    "contactEmail": "EMPIREHOMEHEALTHCAREINC@GMAIL.COM",
    "categoryName": "HOME HEALTH AGENCY",
    "categoryCode": "HHA",
    "licenseStatus": "ACTIVE",
    "inService": true,
    "licenseNumber": "550007829",
    "licenseEffectiveDate": "02/10/2025",
    "licenseExpirationDate": "02/09/2026",
    "dataDate": "10/18/2025",
    "capacity": 0,
    "address": "18305 SHERMAN WAY, SUITE 30",
    "city": "RESEDA",
    "zip": "91335",
    "county": "LOS ANGELES",
    "phone": "(747) 264-9001",
    "lat": 34.201287,
    "lng": -118.5320025
  },
  {
    "id": "630019609",
    "name": "EVN DIALYSIS CENTER LLC",
    "npi": null,
    "hcaiId": "306190618",
    "businessName": "EVN DIALYSIS CENTER, LLC",
    "contactEmail": "MIKE@STATEWIDERE.NET",
    "categoryName": "CHRONIC DIALYSIS CLINIC",
    "categoryCode": "ESRD/CDC",
    "licenseStatus": "ACTIVE",
    "inService": true,
    "licenseNumber": "550006232",
    "licenseEffectiveDate": "03/30/2025",
    "licenseExpirationDate": "03/29/2026",
    "dataDate": "10/18/2025",
    "capacity": 21,
    "address": "18040 SHERMAN WAY",
    "city": "RESEDA",
    "zip": "91335",
    "county": "LOS ANGELES",
    "phone": "(818) 457-3949",
    "lat": 34.200828,
    "lng": -118.5267735
  },
  {
    "id": "630020922",
    "name": "EVOLVE HOSPICE, INC",
    "npi": null,
    "hcaiId": "406194915",
    "businessName": "EVOLVE HOSPICE, INC",
    "contactEmail": "EVOLVEHOSPICE@GMAIL.COM",
    "categoryName": "HOSPICE",
    "categoryCode": "HOSPICE",
    "licenseStatus": "ACTIVE",
    "inService": true,
    "licenseNumber": "550007071",
    "licenseEffectiveDate": "10/20/2023",
    "licenseExpirationDate": "10/19/2025",
    "dataDate": "10/18/2025",
    "capacity": 0,
    "address": "18305 SHERMAN WAY, UNIT 23",
    "city": "RESEDA",
    "zip": "91335",
    "county": "LOS ANGELES",
    "phone": "(747) 336-3193",
    "lat": 34.201287,
    "lng": -118.5320025
  },
  {
    "id": "630021569",
    "name": "FOUR SEASONS HEALTHCARE, INC.",
    "npi": null,
    "hcaiId": "406195519",
    "businessName": "FOUR SEASONS HEALTHCARE, INC.",
    "contactEmail": "FOURSEASONHEALTHCARE@GMAIL.COM",
    "categoryName": "HOME HEALTH AGENCY",
    "categoryCode": "HHA",
    "licenseStatus": "ACTIVE",
    "inService": true,
    "licenseNumber": "550006751",
    "licenseEffectiveDate": "09/02/2025",
    "licenseExpirationDate": "09/01/2026",
    "dataDate": "10/18/2025",
    "capacity": 0,
    "address": "19231 VICTORY BLVD, SUITE 554",
    "city": "RESEDA",
    "zip": "91335",
    "county": "LOS ANGELES",
    "phone": "(747) 300-0560",
    "lat": 34.187211,
    "lng": -118.552608
  },
  {
    "id": "630021570",
    "name": "FOUR SEASONS HOSPICE, INC.",
    "npi": null,
    "hcaiId": "406193725",
    "businessName": "FOURS SEASONS HOSPICE, INC.",
    "contactEmail": "HOSPICEFOURSEASONS@GMAIL.COM",
    "categoryName": "HOSPICE",
    "categoryCode": "HOSPICE",
    "licenseStatus": "ACTIVE",
    "inService": true,
    "licenseNumber": "550006842",
    "licenseEffectiveDate": "09/16/2023",
    "licenseExpirationDate": "09/15/2025",
    "dataDate": "10/18/2025",
    "capacity": 0,
    "address": "19231 VICTORY BLVD, SUITE 552",
    "city": "RESEDA",
    "zip": "91335",
    "county": "LOS ANGELES",
    "phone": "(747) 300-0562",
    "lat": 34.187211,
    "lng": -118.552608
  },
  {
    "id": "630021033",
    "name": "FUNDAMENTAL HOSPICE CARE, INC",
    "npi": null,
    "hcaiId": "406193563",
    "businessName": "FUNDAMENTAL HOSPICE CARE, INC",
    "contactEmail": "FUNDAMENTALHOSPICE@GMAIL.COM",
    "categoryName": "HOSPICE",
    "categoryCode": "HOSPICE",
    "licenseStatus": "ACTIVE",
    "inService": true,
    "licenseNumber": "550006601",
    "licenseEffectiveDate": "07/21/2023",
    "licenseExpirationDate": "07/20/2025",
    "dataDate": "10/18/2025",
    "capacity": 0,
    "address": "18305 SHERMAN WAY, UNIT 2",
    "city": "RESEDA",
    "zip": "91335",
    "county": "LOS ANGELES",
    "phone": "(747) 336-3195",
    "lat": 34.201287,
    "lng": -118.5320025
  },
  {
    "id": "630020559",
    "name": "GARDEN OF LIFE HOME HEALTH CARE, INC.",
    "npi": null,
    "hcaiId": "406193145",
    "businessName": "GARDEN OF LIFE HOME HEALTH CARE, INC.",
    "contactEmail": "GARDENOFLIFEHOMEHEALTH@GMAIL.COM",
    "categoryName": "HOME HEALTH AGENCY",
    "categoryCode": "HHA",
    "licenseStatus": "ACTIVE",
    "inService": true,
    "licenseNumber": "550006522",
    "licenseEffectiveDate": "07/02/2024",
    "licenseExpirationDate": "07/01/2025",
    "dataDate": "10/18/2025",
    "capacity": 0,
    "address": "6117 RESEDA BLVD, UNIT 207",
    "city": "TARZANA",
    "zip": "91335",
    "county": "LOS ANGELES",
    "phone": "(818) 459-4894",
    "lat": 34.18120401,
    "lng": -118.536762
  },
  {
    "id": "630011333",
    "name": "GATEWAY HOMES TO INDEPENDENCE",
    "npi": null,
    "hcaiId": "206197142",
    "businessName": "HEALTHCARE TLC, INC.",
    "contactEmail": "BRIANGATEWAYHOMES@GMAIL.COM",
    "categoryName": "CONGREGATE LIVING HEALTH FACILITY",
    "categoryCode": "CLHF",
    "licenseStatus": "ACTIVE",
    "inService": true,
    "licenseNumber": "550000738",
    "licenseEffectiveDate": "06/20/2025",
    "licenseExpirationDate": "06/19/2026",
    "dataDate": "10/18/2025",
    "capacity": 6,
    "address": "7504 CAPPS AVE",
    "city": "RESEDA",
    "zip": "91335",
    "county": "LOS ANGELES",
    "phone": "(818) 881-1182",
    "lat": 34.206687,
    "lng": -118.5390495
  },
  {
    "id": "630027213",
    "name": "GENTLE HEART HOME HEALTH, INC.",
    "npi": null,
    "hcaiId": null,
    "businessName": "GENTLE HEART HOME HEALTH, INC.",
    "contactEmail": "GENTLEHEARTHOMEHEALTH@GMAIL.COM",
    "categoryName": "HOME HEALTH AGENCY",
    "categoryCode": "HHA",
    "licenseStatus": "ACTIVE",
    "inService": true,
    "licenseNumber": "550009749",
    "licenseEffectiveDate": "10/01/2025",
    "licenseExpirationDate": "03/31/2026",
    "dataDate": "10/18/2025",
    "capacity": 0,
    "address": "18711 SHERMAN WAY, UNIT 106 C",
    "city": "RESEDA",
    "zip": "91335",
    "county": "LOS ANGELES",
    "phone": "(818) 714-1791",
    "lat": 34.20150301,
    "lng": -118.540813
  },
  {
    "id": "630020657",
    "name": "GLOBAL HEALTH HOSPICE, INC",
    "npi": null,
    "hcaiId": "406195031",
    "businessName": "GLOBAL HEALTH HOSPICE, INC",
    "contactEmail": "GLOBALHEALTHHOSPICE@GMAIL.COM",
    "categoryName": "HOSPICE",
    "categoryCode": "HOSPICE",
    "licenseStatus": "ACTIVE",
    "inService": true,
    "licenseNumber": "550007340",
    "licenseEffectiveDate": "11/22/2023",
    "licenseExpirationDate": "11/21/2025",
    "dataDate": "10/18/2025",
    "capacity": 0,
    "address": "18711 SHERMAN WAY, UNIT 101B",
    "city": "RESEDA",
    "zip": "91335",
    "county": "LOS ANGELES",
    "phone": "(818) 600-8332",
    "lat": 34.201503,
    "lng": -118.5408135
  },
  {
    "id": "920000060",
    "name": "GRANCELL VILLAGE OF THE LOS ANGELES JEWISH HOME FOR THE AGING",
    "npi": "1417950163",
    "hcaiId": "206190124",
    "businessName": "GRANCELL VILLAGE OF THE LOS ANGELES JEWISH HOME FOR THE AGING",
    "contactEmail": "CHARLETTE.OFRECIO@JHA.ORG",
    "categoryName": "SKILLED NURSING FACILITY",
    "categoryCode": "SNF",
    "licenseStatus": "ACTIVE",
    "inService": true,
    "licenseNumber": "550000621",
    "licenseEffectiveDate": "11/02/2025",
    "licenseExpirationDate": "11/01/2026",
    "dataDate": "10/18/2025",
    "capacity": 105,
    "address": "7150 TAMPA AVE",
    "city": "RESEDA",
    "zip": "91335",
    "county": "LOS ANGELES",
    "phone": "(818) 774-3314",
    "lat": 34.200441,
    "lng": -118.5531345
  },
  {
    "id": "630022135",
    "name": "GRAND HEALTH HOSPICE, INC.",
    "npi": null,
    "hcaiId": "406195039",
    "businessName": "GRAND HEALTH HOSPICE, INC.",
    "contactEmail": "GRANDHEALTHHOSPICE@GMAIL.COM",
    "categoryName": "HOSPICE",
    "categoryCode": "HOSPICE",
    "licenseStatus": "ACTIVE",
    "inService": true,
    "licenseNumber": "550007468",
    "licenseEffectiveDate": "05/12/2025",
    "licenseExpirationDate": "12/15/2025",
    "dataDate": "10/18/2025",
    "capacity": 0,
    "address": "6900 CANBY AVE, UNIT 106",
    "city": "RESEDA",
    "zip": "91335",
    "county": "LOS ANGELES",
    "phone": "(818) 358-6050",
    "lat": 34.19560771,
    "lng": -118.5350665
  },
  {
    "id": "630025774",
    "name": "GRATEFUL HOME HEALTH, INC.",
    "npi": null,
    "hcaiId": "406190301",
    "businessName": "GRATEFUL HOME HEALTH, INC.",
    "contactEmail": "GRATEFULHHINC@GMAIL.COM",
    "categoryName": "HOME HEALTH AGENCY",
    "categoryCode": "HHA",
    "licenseStatus": "ACTIVE",
    "inService": true,
    "licenseNumber": "550009045",
    "licenseEffectiveDate": "03/28/2025",
    "licenseExpirationDate": "03/27/2026",
    "dataDate": "10/18/2025",
    "capacity": 0,
    "address": "18625 SHERMAN WAY, SUITE 204C",
    "city": "RESEDA",
    "zip": "91335",
    "county": "LOS ANGELES",
    "phone": "(424) 372-0027",
    "lat": 34.201449,
    "lng": -118.5392745
  },
  {
    "id": "630020844",
    "name": "HEART TO HEART HOME HEALTH",
    "npi": null,
    "hcaiId": "406193061",
    "businessName": "HEART TO HEART HOME HEALTH",
    "contactEmail": "LUSINE@HEART2HEARTHH.COM",
    "categoryName": "HOME HEALTH AGENCY",
    "categoryCode": "HHA",
    "licenseStatus": "ACTIVE",
    "inService": true,
    "licenseNumber": "550006076",
    "licenseEffectiveDate": "03/03/2025",
    "licenseExpirationDate": "03/02/2026",
    "dataDate": "10/18/2025",
    "capacity": 0,
    "address": "18711 SHERMAN WAY, SUITE 106C",
    "city": "RESEDA",
    "zip": "91335",
    "county": "LOS ANGELES",
    "phone": "(805) 418-7151",
    "lat": 34.201503,
    "lng": -118.5408135
  },
  {
    "id": "630027097",
    "name": "HERITAGE CONGREGATE LIVING",
    "npi": null,
    "hcaiId": null,
    "businessName": "HERITAGE CONGREGATE LIVING",
    "contactEmail": "HERITAGECONGREGATE@GMAIL.COM",
    "categoryName": "CONGREGATE LIVING HEALTH FACILITY",
    "categoryCode": "CLHF",
    "licenseStatus": "ACTIVE",
    "inService": true,
    "licenseNumber": "550009135",
    "licenseEffectiveDate": "10/11/2024",
    "licenseExpirationDate": "04/10/2025",
    "dataDate": "10/18/2025",
    "capacity": 6,
    "address": "7051 RHEA AVE",
    "city": "RESEDA",
    "zip": "91335",
    "county": "LOS ANGELES",
    "phone": "(818) 403-5250",
    "lat": 34.19911199,
    "lng": -118.541832
  },
  {
    "id": "980002408",
    "name": "HERITAGE HOME HEALTH, INC.",
    "npi": "1548201858",
    "hcaiId": "406196813",
    "businessName": "HERITAGE HOME HEALTH, INC.",
    "contactEmail": "SSARAP@YAHOO.COM",
    "categoryName": "HOME HEALTH AGENCY",
    "categoryCode": "HHA",
    "licenseStatus": "ACTIVE",
    "inService": true,
    "licenseNumber": "980001518",
    "licenseEffectiveDate": "04/08/2025",
    "licenseExpirationDate": "04/07/2026",
    "dataDate": "10/18/2025",
    "capacity": 0,
    "address": "18645 SHERMAN WAY, SUITE 208",
    "city": "RESEDA",
    "zip": "91335",
    "county": "LOS ANGELES",
    "phone": "(818) 757-1300",
    "lat": 34.20144,
    "lng": -118.540359
  },
  {
    "id": "630018375",
    "name": "HONEST HOME HEALTH, INC.",
    "npi": null,
    "hcaiId": "406192240",
    "businessName": "HONEST HOME HEALTH INC.",
    "contactEmail": "HONESTHOMEHEALTH@YAHOO.COM",
    "categoryName": "HOME HEALTH AGENCY",
    "categoryCode": "HHA",
    "licenseStatus": "ACTIVE",
    "inService": true,
    "licenseNumber": "550004815",
    "licenseEffectiveDate": "07/18/2025",
    "licenseExpirationDate": "07/17/2026",
    "dataDate": "10/18/2025",
    "capacity": 0,
    "address": "18570 SHERMAN WAY, SUITE G",
    "city": "RESEDA",
    "zip": "91335",
    "county": "LOS ANGELES",
    "phone": "(818) 850-9712",
    "lat": 34.200963,
    "lng": -118.5384285
  },
  {
    "id": "630028097",
    "name": "INGOMAR CONGREGATE LIVING HEALTH FACILITY",
    "npi": null,
    "hcaiId": null,
    "businessName": "INGOMAR CONGREGATE LIVING HEALTH FACILITY",
    "contactEmail": "INGOMARCLHF@GMAIL.COM",
    "categoryName": "CONGREGATE LIVING HEALTH FACILITY",
    "categoryCode": "CLHF",
    "licenseStatus": "ACTIVE",
    "inService": true,
    "licenseNumber": "550009923",
    "licenseEffectiveDate": "05/27/2025",
    "licenseExpirationDate": "11/26/2025",
    "dataDate": "10/18/2025",
    "capacity": 6,
    "address": "19000 INGOMAR ST",
    "city": "RESEDA",
    "zip": "91335",
    "county": "LOS ANGELES",
    "phone": "(818) 403-1803",
    "lat": 34.21171816,
    "lng": -118.5471367
  },
  {
    "id": "960001921",
    "name": "JHA GERIATRIC CLINIC",
    "npi": null,
    "hcaiId": "306194783",
    "businessName": "JHA GERIATRIC SERVICES, INC.",
    "contactEmail": "DOREEN.DELGADO@JHA.ORG",
    "categoryName": "PRIMARY CARE CLINIC",
    "categoryCode": "COMTYC",
    "licenseStatus": "ACTIVE",
    "inService": true,
    "licenseNumber": "960000928",
    "licenseEffectiveDate": "11/13/2024",
    "licenseExpirationDate": "11/12/2025",
    "dataDate": "10/18/2025",
    "capacity": 0,
    "address": "18855 VICTORY BLVD",
    "city": "RESEDA",
    "zip": "91335",
    "county": "LOS ANGELES",
    "phone": "(818) 774-3333",
    "lat": 34.186887,
    "lng": -118.5441345
  },
  {
    "id": "630011475",
    "name": "JOYCE EISENBERG KEEFER MEDICAL CENTER",
    "npi": "1538338793",
    "hcaiId": "106196404",
    "businessName": "GRANCELL VILLAGE OF THE LOS ANGELES JEWISH HOME FOR THE AGING",
    "contactEmail": "ILANA.SPRINGER@JHA.ORG",
    "categoryName": "ACUTE PSYCHIATRIC HOSPITAL",
    "categoryCode": "APH",
    "licenseStatus": "ACTIVE",
    "inService": true,
    "licenseNumber": "550000621",
    "licenseEffectiveDate": "11/02/2025",
    "licenseExpirationDate": "11/01/2026",
    "dataDate": "10/18/2025",
    "capacity": 10,
    "address": "7150 TAMPA AVE",
    "city": "RESEDA",
    "zip": "91335",
    "county": "LOS ANGELES",
    "phone": "(818) 774-3069",
    "lat": 34.200441,
    "lng": -118.5531345
  },
  {
    "id": "630011499",
    "name": "JOYCE EISENBERG KEEFER MEDICAL CENTER",
    "npi": "1487681631",
    "hcaiId": null,
    "businessName": "GRANCELL VILLAGE OF THE LOS ANGELES JEWISH HOME FOR THE AGING",
    "contactEmail": "ILANA.SPRINGER@JHA.ORG",
    "categoryName": "SKILLED NURSING FACILITY",
    "categoryCode": "SNF",
    "licenseStatus": "ACTIVE",
    "inService": true,
    "licenseNumber": "550000621",
    "licenseEffectiveDate": "11/02/2025",
    "licenseExpirationDate": "11/01/2026",
    "dataDate": "10/18/2025",
    "capacity": 239,
    "address": "7150 TAMPA AVE",
    "city": "RESEDA",
    "zip": "91335",
    "county": "LOS ANGELES",
    "phone": "(818) 774-3069",
    "lat": 34.200441,
    "lng": -118.5531345
  },
  {
    "id": "960001210",
    "name": "KRONENTHAL HOUSE",
    "npi": "1093924912",
    "hcaiId": null,
    "businessName": "THERAPEUTIC LIVING CENTERS FOR THE BLIND, INC.",
    "contactEmail": "ASIAS@TLC4BLIND.ORG",
    "categoryName": "INTERMEDIATE CARE FACILITY-DD/H/N/CN/IID",
    "categoryCode": "ICFDDN",
    "licenseStatus": "ACTIVE",
    "inService": true,
    "licenseNumber": "960000626",
    "licenseEffectiveDate": "11/28/2024",
    "licenseExpirationDate": "11/27/2025",
    "dataDate": "10/18/2025",
    "capacity": 12,
    "address": "7937 LINDLEY AVE",
    "city": "RESEDA",
    "zip": "91335",
    "county": "LOS ANGELES",
    "phone": "(818) 674-6776",
    "lat": 34.21476,
    "lng": -118.5275115
  },
  {
    "id": "630019859",
    "name": "LA PATIENT CARE HOSPICE",
    "npi": null,
    "hcaiId": "406192928",
    "businessName": "LA PATIENT CARE HOSPICE",
    "contactEmail": "LAPATCAREHOSPICE@GMAIL.COM",
    "categoryName": "HOSPICE",
    "categoryCode": "HOSPICE",
    "licenseStatus": "ACTIVE",
    "inService": true,
    "licenseNumber": "550005767",
    "licenseEffectiveDate": "09/23/2024",
    "licenseExpirationDate": "09/22/2026",
    "dataDate": "10/18/2025",
    "capacity": 0,
    "address": "18570 SHERMAN WAY, SUITE I",
    "city": "RESEDA",
    "zip": "91335",
    "county": "LOS ANGELES",
    "phone": "(818) 427-3965",
    "lat": 34.200963,
    "lng": -118.5384285
  },
  {
    "id": "630027957",
    "name": "LIVIA ADULT DAY HEALTH CARE CENTER",
    "npi": null,
    "hcaiId": null,
    "businessName": "LIVIA ADULT DAY CARE INC",
    "contactEmail": "LIVIAADHC@YAHOO.COM",
    "categoryName": "ADULT DAY HEALTH CARE",
    "categoryCode": "ADHC",
    "licenseStatus": "ACTIVE",
    "inService": true,
    "licenseNumber": "550009624",
    "licenseEffectiveDate": "03/19/2025",
    "licenseExpirationDate": "02/18/2026",
    "dataDate": "10/18/2025",
    "capacity": 0,
    "address": "18331 SHERMAN WAY",
    "city": "RESEDA",
    "zip": "91335",
    "county": "LOS ANGELES",
    "phone": "(818) 600-8788",
    "lat": 34.201459,
    "lng": -118.533116
  },
  {
    "id": "630023875",
    "name": "MIRAS HOME HEALTH CARE, INC.",
    "npi": null,
    "hcaiId": "406195812",
    "businessName": "MIRAS HOME HEALTH CARE, INC.",
    "contactEmail": "INFO@MIRAS.HEALTH",
    "categoryName": "HOME HEALTH AGENCY",
    "categoryCode": "HHA",
    "licenseStatus": "ACTIVE",
    "inService": true,
    "licenseNumber": "550007844",
    "licenseEffectiveDate": "02/16/2025",
    "licenseExpirationDate": "02/15/2026",
    "dataDate": "10/18/2025",
    "capacity": 0,
    "address": "6900 CANBY AVE, SUITE 110",
    "city": "RESEDA",
    "zip": "91335",
    "county": "LOS ANGELES",
    "phone": "(818) 473-4466",
    "lat": 34.19559739,
    "lng": -118.5350659
  },
  {
    "id": "630020374",
    "name": "MISSION HOSPICE, INC",
    "npi": null,
    "hcaiId": "406197112",
    "businessName": "MISSION HOSPICE, INC",
    "contactEmail": "MISSIONHOSPICEINC@GMAIL.COM",
    "categoryName": "HOSPICE",
    "categoryCode": "HOSPICE",
    "licenseStatus": "ACTIVE",
    "inService": true,
    "licenseNumber": "550006421",
    "licenseEffectiveDate": "05/29/2025",
    "licenseExpirationDate": "05/28/2027",
    "dataDate": "10/18/2025",
    "capacity": 0,
    "address": "18747 SHERMAN WAY, SUITE 218",
    "city": "RESEDA",
    "zip": "91335",
    "county": "LOS ANGELES",
    "phone": "(818) 847-7551",
    "lat": 34.201278,
    "lng": -118.542033
  },
  {
    "id": "630018205",
    "name": "NATURCARE HOME HEALTH, INC",
    "npi": null,
    "hcaiId": "406192162",
    "businessName": "NATURCARE HOME HEALTH, INC.",
    "contactEmail": "NATURCARE7@GMAIL.COM",
    "categoryName": "HOME HEALTH AGENCY",
    "categoryCode": "HHA",
    "licenseStatus": "ACTIVE",
    "inService": true,
    "licenseNumber": "550004819",
    "licenseEffectiveDate": "08/02/2025",
    "licenseExpirationDate": "08/01/2026",
    "dataDate": "10/18/2025",
    "capacity": 0,
    "address": "18645 SHERMAN WAY, SUITE 215",
    "city": "RESEDA",
    "zip": "91335",
    "county": "LOS ANGELES",
    "phone": "(818) 396-9591",
    "lat": 34.20144,
    "lng": -118.540359
  },
  {
    "id": "920000063",
    "name": "NORTHRIDGE CARE CENTER",
    "npi": "1093890253",
    "hcaiId": "206190643",
    "businessName": "NORTHRIDGE CARE CENTER LLC",
    "contactEmail": "FAC32ADMIN@LONGWOODMGMT.COM",
    "categoryName": "SKILLED NURSING FACILITY",
    "categoryCode": "SNF",
    "licenseStatus": "ACTIVE",
    "inService": true,
    "licenseNumber": "920000055",
    "licenseEffectiveDate": "05/01/2025",
    "licenseExpirationDate": "04/30/2026",
    "dataDate": "10/18/2025",
    "capacity": 97,
    "address": "7836 RESEDA BLVD",
    "city": "RESEDA",
    "zip": "91335",
    "county": "LOS ANGELES",
    "phone": "(818) 881-7414",
    "lat": 34.213005,
    "lng": -118.5355845
  },
  {
    "id": "060002042",
    "name": "OLYMPUS ADULT DAY HEALTH CARE",
    "npi": null,
    "hcaiId": null,
    "businessName": "OLYMPUS ADHC, INC.",
    "contactEmail": "OLYMPUSADHC@YAHOO.COM",
    "categoryName": "ADULT DAY HEALTH CARE",
    "categoryCode": "ADHC",
    "licenseStatus": "ACTIVE",
    "inService": true,
    "licenseNumber": "060000809",
    "licenseEffectiveDate": "11/07/2024",
    "licenseExpirationDate": "11/06/2025",
    "dataDate": "10/18/2025",
    "capacity": 0,
    "address": "7338 CANBY AVE",
    "city": "RESEDA",
    "zip": "91335",
    "county": "LOS ANGELES",
    "phone": "(818) 996-1100",
    "lat": 34.20405702,
    "lng": -118.534357
  },
  {
    "id": "630022227",
    "name": "ONE LEGACY HOME HEALTH CARE, INC.",
    "npi": null,
    "hcaiId": "406195584",
    "businessName": "ONE LEGACY HOME HEALTH CARE, INC.",
    "contactEmail": "ONELEGACYHHC@GMAIL.COM",
    "categoryName": "HOME HEALTH AGENCY",
    "categoryCode": "HHA",
    "licenseStatus": "ACTIVE",
    "inService": true,
    "licenseNumber": "550007460",
    "licenseEffectiveDate": "12/17/2024",
    "licenseExpirationDate": "12/16/2025",
    "dataDate": "10/18/2025",
    "capacity": 0,
    "address": "18747 SHERMAN WAY, SUITE 228",
    "city": "RESEDA",
    "zip": "91335",
    "county": "LOS ANGELES",
    "phone": "(818) 875-1530",
    "lat": 34.20141299,
    "lng": -118.541984
  },
  {
    "id": "630017590",
    "name": "OSIRIS HOME HEALTH CARE INC.",
    "npi": "1689100703",
    "hcaiId": "406191669",
    "businessName": "OSIRIS HOME HEALTH CARE INC.",
    "contactEmail": "OSIRISHHC@GMAIL.COM",
    "categoryName": "HOME HEALTH AGENCY",
    "categoryCode": "HHA",
    "licenseStatus": "ACTIVE",
    "inService": true,
    "licenseNumber": "550004684",
    "licenseEffectiveDate": "01/16/2025",
    "licenseExpirationDate": "01/15/2026",
    "dataDate": "10/18/2025",
    "capacity": 0,
    "address": "18570 SHERMAN WAY, SUITE F",
    "city": "RESEDA",
    "zip": "91335",
    "county": "LOS ANGELES",
    "phone": "(818) 578-5014",
    "lat": 34.200963,
    "lng": -118.5384285
  },
  {
    "id": "630022157",
    "name": "OWL HOME HEALTH, INC.",
    "npi": null,
    "hcaiId": "406195736",
    "businessName": "OWL HOME HEALTH, INC.",
    "contactEmail": "OWLHOMEHEALTH@YAHOO.COM",
    "categoryName": "HOME HEALTH AGENCY",
    "categoryCode": "HHA",
    "licenseStatus": "ACTIVE",
    "inService": true,
    "licenseNumber": "550007708",
    "licenseEffectiveDate": "11/24/2024",
    "licenseExpirationDate": "11/23/2025",
    "dataDate": "10/18/2025",
    "capacity": 0,
    "address": "7012 RESEDA BLVD, SUITE 201A",
    "city": "RESEDA",
    "zip": "91335",
    "county": "LOS ANGELES",
    "phone": "(818) 654-6147",
    "lat": 34.197957,
    "lng": -118.5358455
  },
  {
    "id": "630025377",
    "name": "OXY HOME HEALTH SERVICES INC",
    "npi": null,
    "hcaiId": "406195457",
    "businessName": "OXY HOME HEALTH SERVICES INC",
    "contactEmail": "OXYHOMEHEALTHSERVICES@GMAIL.COM",
    "categoryName": "HOME HEALTH AGENCY",
    "categoryCode": "HHA",
    "licenseStatus": "ACTIVE",
    "inService": true,
    "licenseNumber": "550008073",
    "licenseEffectiveDate": "07/07/2025",
    "licenseExpirationDate": "07/06/2026",
    "dataDate": "10/18/2025",
    "capacity": 0,
    "address": "18325 SHERMAN WY, SUITE C",
    "city": "RESEDA",
    "zip": "91335",
    "county": "LOS ANGELES",
    "phone": "(818) 600-8144",
    "lat": 34.201287,
    "lng": -118.532628
  },
  {
    "id": "920000064",
    "name": "PARK VIEW NURSING AND SUBACUTE",
    "npi": "1720718596",
    "hcaiId": "206190644",
    "businessName": "6740 WILBUR AVENUE OPCO, LLC",
    "contactEmail": "ADMINISTRATOR@WVSUBACUTE.COM",
    "categoryName": "SKILLED NURSING FACILITY",
    "categoryCode": "SNF",
    "licenseStatus": "ACTIVE",
    "inService": true,
    "licenseNumber": "920000056",
    "licenseEffectiveDate": "03/20/2025",
    "licenseExpirationDate": "12/30/2025",
    "dataDate": "10/18/2025",
    "capacity": 99,
    "address": "6740 WILBUR AVE",
    "city": "RESEDA",
    "zip": "91335",
    "county": "LOS ANGELES",
    "phone": "(818) 708-3533",
    "lat": 34.193178,
    "lng": -118.5444855
  },
  {
    "id": "630026277",
    "name": "PRECISION HOME HEALTH INC",
    "npi": null,
    "hcaiId": null,
    "businessName": "PRECISION HOME HEALTH INC",
    "contactEmail": "PRECISIONHHINC@GMAIL.COM",
    "categoryName": "HOME HEALTH AGENCY",
    "categoryCode": "HHA",
    "licenseStatus": "ACTIVE",
    "inService": true,
    "licenseNumber": "550009293",
    "licenseEffectiveDate": "08/02/2025",
    "licenseExpirationDate": "08/01/2026",
    "dataDate": "10/18/2025",
    "capacity": 0,
    "address": "18546 SHERMAN WAY, SUITE 110",
    "city": "RESEDA",
    "zip": "91335",
    "county": "LOS ANGELES",
    "phone": "(747) 499-8465",
    "lat": 34.200981,
    "lng": -118.537677
  },
  {
    "id": "630018144",
    "name": "PREFERRED CHOICE HOME HEALTH CARE, INC.",
    "npi": "1417441411",
    "hcaiId": "406191582",
    "businessName": "PREFERRED CHOICE HOME HEALTH CARE, INC.",
    "contactEmail": "PREFERREDCHOICEHH@GMAIL.COM",
    "categoryName": "HOME HEALTH AGENCY",
    "categoryCode": "HHA",
    "licenseStatus": "ACTIVE",
    "inService": true,
    "licenseNumber": "550004615",
    "licenseEffectiveDate": "01/14/2025",
    "licenseExpirationDate": "01/13/2026",
    "dataDate": "10/18/2025",
    "capacity": 0,
    "address": "18645 SHERMAN WAY, SUITE 103",
    "city": "RESEDA",
    "zip": "91335",
    "county": "LOS ANGELES",
    "phone": "(818) 600-4479",
    "lat": 34.20144,
    "lng": -118.540359
  },
  {
    "id": "630020990",
    "name": "PREMIERE HOSPICE AND PALLATIVE CARE, INC",
    "npi": null,
    "hcaiId": "406197326",
    "businessName": "PREMIERE HOSPICE AND PALLATIVE CARE, INC",
    "contactEmail": "PREMIEREHOSPICE@GMAIL.COM",
    "categoryName": "HOSPICE",
    "categoryCode": "HOSPICE",
    "licenseStatus": "ACTIVE",
    "inService": true,
    "licenseNumber": "550006780",
    "licenseEffectiveDate": "09/02/2025",
    "licenseExpirationDate": "09/01/2027",
    "dataDate": "10/18/2025",
    "capacity": 0,
    "address": "18645 SHERMAN WAY, SUITE 106",
    "city": "RESEDA",
    "zip": "91335",
    "county": "LOS ANGELES",
    "phone": "(818) 697-8377",
    "lat": 34.20144,
    "lng": -118.540359
  },
  {
    "id": "630025108",
    "name": "PROFESSIONAL & HONEST HOME HEALTH, INC.",
    "npi": null,
    "hcaiId": "406190308",
    "businessName": "PROFESSIONAL & HONEST HOME HEALTH, INC.",
    "contactEmail": "PROFHONESTHH@GMAIL.COM",
    "categoryName": "HOME HEALTH AGENCY",
    "categoryCode": "HHA",
    "licenseStatus": "ACTIVE",
    "inService": true,
    "licenseNumber": "550008434",
    "licenseEffectiveDate": "03/06/2025",
    "licenseExpirationDate": "03/05/2026",
    "dataDate": "10/18/2025",
    "capacity": 0,
    "address": "19231 VICTORY BLVD, SUITE 153",
    "city": "RESEDA",
    "zip": "91335",
    "county": "LOS ANGELES",
    "phone": "(818) 900-4546",
    "lat": 34.187112,
    "lng": -118.552221
  },
  {
    "id": "630026923",
    "name": "PROMEDIC HOME HEALTH, INC.",
    "npi": null,
    "hcaiId": null,
    "businessName": "PROMEDIC HOME HEALTH, INC.",
    "contactEmail": "NELLI@PROMEDICHOMEHEALTH.COM",
    "categoryName": "HOME HEALTH AGENCY",
    "categoryCode": "HHA",
    "licenseStatus": "ACTIVE",
    "inService": true,
    "licenseNumber": "550009224",
    "licenseEffectiveDate": "06/21/2025",
    "licenseExpirationDate": "06/20/2026",
    "dataDate": "10/18/2025",
    "capacity": 0,
    "address": "18570 SHERMAN WAY, SUITE N",
    "city": "RESEDA",
    "zip": "91335",
    "county": "LOS ANGELES",
    "phone": "(818) 928-8288",
    "lat": 34.200963,
    "lng": -118.5384285
  },
  {
    "id": "630027539",
    "name": "PURA VIDA COMMUNITY CLINIC",
    "npi": null,
    "hcaiId": null,
    "businessName": "CANBY COMMUNITY CLINIC, INC.",
    "contactEmail": "GALSTYANMD@GMAIL.COM",
    "categoryName": "PRIMARY CARE CLINIC",
    "categoryCode": "COMTYC",
    "licenseStatus": "ACTIVE",
    "inService": true,
    "licenseNumber": "550009984",
    "licenseEffectiveDate": "09/25/2025",
    "licenseExpirationDate": "03/24/2026",
    "dataDate": "10/18/2025",
    "capacity": 0,
    "address": "7601 CANBY AVE, UNIT 6B",
    "city": "RESEDA",
    "zip": "91335",
    "county": "LOS ANGELES",
    "phone": "(818) 383-5751",
    "lat": 34.208707,
    "lng": -118.534992
  },
  {
    "id": "630024169",
    "name": "RESEDA HOME HEALTH INC",
    "npi": null,
    "hcaiId": "406195830",
    "businessName": "RESEDA HOME HEALTH INC",
    "contactEmail": "RESEDAHOMEHEALTH@GMAIL.COM",
    "categoryName": "HOME HEALTH AGENCY",
    "categoryCode": "HHA",
    "licenseStatus": "ACTIVE",
    "inService": true,
    "licenseNumber": "550007953",
    "licenseEffectiveDate": "04/06/2025",
    "licenseExpirationDate": "04/05/2026",
    "dataDate": "10/18/2025",
    "capacity": 0,
    "address": "6949 RESEDA BLVD, UNIT 201E",
    "city": "RESEDA",
    "zip": "91335",
    "county": "LOS ANGELES",
    "phone": "(818) 298-4439",
    "lat": 34.197129,
    "lng": -118.5362325
  },
  {
    "id": "630017928",
    "name": "RESEDA RANCH",
    "npi": "1295393684",
    "hcaiId": null,
    "businessName": "RESEDA RANCH",
    "contactEmail": "SSAO@NEWHORIZONS-SFV.ORG",
    "categoryName": "INTERMEDIATE CARE FACILITY-DD/H/N/CN/IID",
    "categoryCode": "ICFDDH",
    "licenseStatus": "ACTIVE",
    "inService": true,
    "licenseNumber": "550005319",
    "licenseEffectiveDate": "01/29/2025",
    "licenseExpirationDate": "01/28/2026",
    "dataDate": "10/18/2025",
    "capacity": 6,
    "address": "19013 ARMINTA ST",
    "city": "RESEDA",
    "zip": "91335",
    "county": "LOS ANGELES",
    "phone": "(818) 669-1157",
    "lat": 34.213932,
    "lng": -118.547433
  },
  {
    "id": "630018422",
    "name": "REVIVE HOME HEALTH SERVICES",
    "npi": null,
    "hcaiId": "406195231",
    "businessName": "IZAR INC.",
    "contactEmail": "CARE@REVIVEHHS.COM",
    "categoryName": "HOME HEALTH AGENCY",
    "categoryCode": "HHA",
    "licenseStatus": "ACTIVE",
    "inService": true,
    "licenseNumber": "550007914",
    "licenseEffectiveDate": "06/17/2025",
    "licenseExpirationDate": "06/16/2026",
    "dataDate": "10/18/2025",
    "capacity": 0,
    "address": "18325 SHERMAN WAY, SUITE B",
    "city": "RESEDA",
    "zip": "91335",
    "county": "LOS ANGELES",
    "phone": "(818) 302-3415",
    "lat": 34.201287,
    "lng": -118.532628
  },
  {
    "id": "630019688",
    "name": "ROSEWOOD HOSPICE, INC.",
    "npi": "1629616370",
    "hcaiId": "406192778",
    "businessName": "ROSEWOOD HOSPICE, INC.",
    "contactEmail": "ROSEWOODHOSPICE1@GMAIL.COM",
    "categoryName": "HOSPICE",
    "categoryCode": "HOSPICE",
    "licenseStatus": "ACTIVE",
    "inService": true,
    "licenseNumber": "550005566",
    "licenseEffectiveDate": "07/10/2024",
    "licenseExpirationDate": "07/09/2026",
    "dataDate": "10/18/2025",
    "capacity": 0,
    "address": "18305 SHERMAN WAY, SUITE 15",
    "city": "RESEDA",
    "zip": "91335",
    "county": "LOS ANGELES",
    "phone": "(818) 273-4884",
    "lat": 34.20146298,
    "lng": -118.531965
  },
  {
    "id": "980002402",
    "name": "ROZE ROOM HOSPICE OF THE VALLEY",
    "npi": null,
    "hcaiId": "406197104",
    "businessName": "ROZE ROOM HOSPICE OF THE VALLEY, INC.",
    "contactEmail": "INFO@ROZEROOMHOSPICE.ORG",
    "categoryName": "HOSPICE",
    "categoryCode": "HOSPICE",
    "licenseStatus": "ACTIVE",
    "inService": true,
    "licenseNumber": "980001512",
    "licenseEffectiveDate": "02/04/2025",
    "licenseExpirationDate": "02/03/2027",
    "dataDate": "10/18/2025",
    "capacity": 0,
    "address": "18107 SHERMAN WAY, SUITE 200",
    "city": "RESEDA",
    "zip": "91335",
    "county": "LOS ANGELES",
    "phone": "(818) 783-0072",
    "lat": 34.201449,
    "lng": -118.527651
  },
  {
    "id": "630019412",
    "name": "SABA HOME HEALTH CARE, INC.",
    "npi": null,
    "hcaiId": "406193160",
    "businessName": "SABA HOME HEALTH CARE, INC.",
    "contactEmail": "SABAHOMEHEALTH@GMAIL.COM",
    "categoryName": "HOME HEALTH AGENCY",
    "categoryCode": "HHA",
    "licenseStatus": "ACTIVE",
    "inService": true,
    "licenseNumber": "550006037",
    "licenseEffectiveDate": "01/29/2024",
    "licenseExpirationDate": "01/28/2025",
    "dataDate": "10/18/2025",
    "capacity": 0,
    "address": "18570 SHERMAN WAY, UNIT B",
    "city": "RESEDA",
    "zip": "91335",
    "county": "LOS ANGELES",
    "phone": "(818) 578-6761",
    "lat": 34.200963,
    "lng": -118.5384285
  },
  {
    "id": "630019398",
    "name": "SABA HOSPICE CARE, INC.",
    "npi": null,
    "hcaiId": "406192823",
    "businessName": "SABA HOSPICE CARE, INC.",
    "contactEmail": "SABAHOSPICE@GMAIL.COM",
    "categoryName": "HOSPICE",
    "categoryCode": "HOSPICE",
    "licenseStatus": "ACTIVE",
    "inService": true,
    "licenseNumber": "550005698",
    "licenseEffectiveDate": "08/25/2022",
    "licenseExpirationDate": "08/24/2024",
    "dataDate": "10/18/2025",
    "capacity": 0,
    "address": "18747 SHERMAN WAY, SUITE 229",
    "city": "RESEDA",
    "zip": "91335",
    "county": "LOS ANGELES",
    "phone": "(818) 578-6694",
    "lat": 34.201278,
    "lng": -118.542033
  },
  {
    "id": "630023850",
    "name": "SAMOHOME INC.",
    "npi": null,
    "hcaiId": "406195363",
    "businessName": "SAMOHOME INC.",
    "contactEmail": "SAMOHOMEHHC@GMAIL.COM",
    "categoryName": "HOME HEALTH AGENCY",
    "categoryCode": "HHA",
    "licenseStatus": "ACTIVE",
    "inService": true,
    "licenseNumber": "550007969",
    "licenseEffectiveDate": "05/04/2025",
    "licenseExpirationDate": "05/03/2026",
    "dataDate": "10/18/2025",
    "capacity": 0,
    "address": "18747 SHERMAN WAY, SUITE 226",
    "city": "RESEDA",
    "zip": "91335",
    "county": "LOS ANGELES",
    "phone": "(818) 855-9227",
    "lat": 34.201278,
    "lng": -118.542033
  },
  {
    "id": "630018738",
    "name": "SAS HOME HEALTH CARE",
    "npi": null,
    "hcaiId": "406192353",
    "businessName": "SAS HOME HEALTH CARE",
    "contactEmail": "SASHHC2019@GMAIL.COM",
    "categoryName": "HOME HEALTH AGENCY",
    "categoryCode": "HHA",
    "licenseStatus": "ACTIVE",
    "inService": true,
    "licenseNumber": "550005250",
    "licenseEffectiveDate": "01/18/2025",
    "licenseExpirationDate": "01/17/2026",
    "dataDate": "10/18/2025",
    "capacity": 0,
    "address": "18107 SHERMAN WAY, SUITE 207",
    "city": "RESEDA",
    "zip": "91335",
    "county": "LOS ANGELES",
    "phone": "(818) 654-6210",
    "lat": 34.201449,
    "lng": -118.527651
  },
  {
    "id": "630023972",
    "name": "SAVANNA HOME CARE, INC",
    "npi": null,
    "hcaiId": "406195866",
    "businessName": "SAVANNA HOME CARE, INC",
    "contactEmail": "SAVANNAHOMECARE@GMAIL.COM",
    "categoryName": "HOME HEALTH AGENCY",
    "categoryCode": "HHA",
    "licenseStatus": "ACTIVE",
    "inService": true,
    "licenseNumber": "550008023",
    "licenseEffectiveDate": "06/09/2025",
    "licenseExpirationDate": "06/08/2026",
    "dataDate": "10/18/2025",
    "capacity": 0,
    "address": "6949 RESEDA BLVD, UNIT 201D",
    "city": "RESEDA",
    "zip": "91335",
    "county": "LOS ANGELES",
    "phone": "(818) 654-6101",
    "lat": 34.197129,
    "lng": -118.5362325
  },
  {
    "id": "060002131",
    "name": "SHERMAN WAY ADULT DAY HEALTH CARE CENTER",
    "npi": null,
    "hcaiId": null,
    "businessName": "SHERMAN WAY ADULT DAY HEALTH CARE CENTER, INC.",
    "contactEmail": "SHERMANWAYADHC@GMAIL.COM",
    "categoryName": "ADULT DAY HEALTH CARE",
    "categoryCode": "ADHC",
    "licenseStatus": "ACTIVE",
    "inService": true,
    "licenseNumber": "060000869",
    "licenseEffectiveDate": "05/20/2025",
    "licenseExpirationDate": "05/19/2026",
    "dataDate": "10/18/2025",
    "capacity": 0,
    "address": "18301 SHERMAN WAY",
    "city": "RESEDA",
    "zip": "91335",
    "county": "LOS ANGELES",
    "phone": "(818) 654-0123",
    "lat": 34.201296,
    "lng": -118.5319305
  },
  {
    "id": "630011017",
    "name": "SHERMAN WAY SURGICAL CENTER",
    "npi": "1396827978",
    "hcaiId": null,
    "businessName": null,
    "contactEmail": null,
    "categoryName": "SURGICAL CLINIC",
    "categoryCode": "ASC",
    "licenseStatus": null,
    "inService": null,
    "licenseNumber": null,
    "licenseEffectiveDate": null,
    "licenseExpirationDate": null,
    "dataDate": "10/18/2025",
    "capacity": 0,
    "address": "18909 SHERMAN WAY, SUITE 100",
    "city": "RESEDA",
    "zip": "91335",
    "county": "LOS ANGELES",
    "phone": null,
    "lat": 34.201269,
    "lng": -118.5452235
  },
  {
    "id": "630022779",
    "name": "SPECTRUM DIALYSIS, INC.",
    "npi": null,
    "hcaiId": null,
    "businessName": null,
    "contactEmail": "MIKE@STATEWIDERE.NET",
    "categoryName": "CHRONIC DIALYSIS CLINIC",
    "categoryCode": "ESRD",
    "licenseStatus": null,
    "inService": null,
    "licenseNumber": null,
    "licenseEffectiveDate": null,
    "licenseExpirationDate": null,
    "dataDate": "10/18/2025",
    "capacity": 0,
    "address": "18040 SHERMAN WAY, SUITE 220",
    "city": "RESEDA",
    "zip": "91335",
    "county": "LOS ANGELES",
    "phone": "(714) 654-0465",
    "lat": 34.200828,
    "lng": -118.5267735
  },
  {
    "id": "630015691",
    "name": "SPERO HOSPICE SERVICES, INC.",
    "npi": "1265839765",
    "hcaiId": "406198417",
    "businessName": "SPERO HOSPICE SERVICES, INC.",
    "contactEmail": "INFO@SPEROHOSPICE.COM",
    "categoryName": "HOSPICE",
    "categoryCode": "HOSPICE",
    "licenseStatus": "ACTIVE",
    "inService": true,
    "licenseNumber": "550003877",
    "licenseEffectiveDate": "05/10/2025",
    "licenseExpirationDate": "05/09/2027",
    "dataDate": "10/18/2025",
    "capacity": 0,
    "address": "18341 SHERMAN WAY, SUITE 203A",
    "city": "RESEDA",
    "zip": "91335",
    "county": "LOS ANGELES",
    "phone": "(818) 821-3174",
    "lat": 34.201296,
    "lng": -118.533222
  },
  {
    "id": "630026316",
    "name": "STONEBRIDGE HOME HEALTH INC.",
    "npi": null,
    "hcaiId": null,
    "businessName": "STONEBRIDGE HOME HEALTH INC.",
    "contactEmail": "STONEBRIDGEHOMEHEALTH@GMAIL.COM",
    "categoryName": "HOME HEALTH AGENCY",
    "categoryCode": "HHA",
    "licenseStatus": "ACTIVE",
    "inService": true,
    "licenseNumber": "550009338",
    "licenseEffectiveDate": "08/21/2025",
    "licenseExpirationDate": "08/20/2026",
    "dataDate": "10/18/2025",
    "capacity": 0,
    "address": "18747 SHERMAN WAY, SUITE 106",
    "city": "RESEDA",
    "zip": "91335",
    "county": "LOS ANGELES",
    "phone": "(747) 203-0111",
    "lat": 34.201278,
    "lng": -118.542033
  },
  {
    "id": "630019055",
    "name": "SUNLIGHT CONGREGATE LIVING HEALTH FACILITY, INC.",
    "npi": null,
    "hcaiId": "206190274",
    "businessName": "SUNLIGHT CONGREGATE LIVING HEALTH FACILITY, INC.",
    "contactEmail": "SUNLIGHTCLHF@GMAIL.COM",
    "categoryName": "CONGREGATE LIVING HEALTH FACILITY",
    "categoryCode": "CLHF",
    "licenseStatus": "ACTIVE",
    "inService": true,
    "licenseNumber": "550005884",
    "licenseEffectiveDate": "10/20/2024",
    "licenseExpirationDate": "10/19/2025",
    "dataDate": "10/18/2025",
    "capacity": 6,
    "address": "7459 TAMPA AVE",
    "city": "RESEDA",
    "zip": "91335",
    "county": "LOS ANGELES",
    "phone": "(818) 450-5010",
    "lat": 34.206363,
    "lng": -118.553868
  },
  {
    "id": "630017771",
    "name": "TAMPA SURGICAL CENTER",
    "npi": "1659807717",
    "hcaiId": null,
    "businessName": null,
    "contactEmail": "JAN@CRSMDINC.COM",
    "categoryName": "SURGICAL CLINIC",
    "categoryCode": "ASC",
    "licenseStatus": null,
    "inService": null,
    "licenseNumber": null,
    "licenseEffectiveDate": null,
    "licenseExpirationDate": null,
    "dataDate": "10/18/2025",
    "capacity": 0,
    "address": "7640 TAMPA AVE, SUITE 102",
    "city": "RESEDA",
    "zip": "91335",
    "county": "LOS ANGELES",
    "phone": "(818) 718-1600",
    "lat": 34.209522,
    "lng": -118.552896
  },
  {
    "id": "630013969",
    "name": "TARZANA TREATMENT CENTERS FAMILY MEDICAL RESEDA CLINIC",
    "npi": null,
    "hcaiId": "306197739",
    "businessName": "TARZANA TREATMENT CENTERS, INC.",
    "contactEmail": "ASENELLA@TARZANATC.ORG",
    "categoryName": "PRIMARY CARE CLINIC",
    "categoryCode": "COMTYC",
    "licenseStatus": "ACTIVE",
    "inService": true,
    "licenseNumber": "550002124",
    "licenseEffectiveDate": "11/11/2024",
    "licenseExpirationDate": "11/10/2025",
    "dataDate": "10/18/2025",
    "capacity": 0,
    "address": "7101 BAIRD AVE",
    "city": "RESEDA",
    "zip": "91335",
    "county": "LOS ANGELES",
    "phone": "(818) 654-3815",
    "lat": 34.199487,
    "lng": -118.5374655
  },
  {
    "id": "630028386",
    "name": "TARZANA TREATMENT CENTERS, LNC.",
    "npi": null,
    "hcaiId": null,
    "businessName": "TARZANA TREATMENT CENTERS, INC.",
    "contactEmail": null,
    "categoryName": "PRIMARY CARE CLINIC",
    "categoryCode": "COMTYC",
    "licenseStatus": "ACTIVE",
    "inService": true,
    "licenseNumber": "960001115",
    "licenseEffectiveDate": "07/01/2025",
    "licenseExpirationDate": "03/09/2026",
    "dataDate": "10/18/2025",
    "capacity": 0,
    "address": "18040 SHERMAN WAY, SUITE 300",
    "city": "RESEDA",
    "zip": "91335",
    "county": "LOS ANGELES",
    "phone": null,
    "lat": 34.20082101,
    "lng": -118.526787
  },
  {
    "id": "960002816",
    "name": "THE OLIVE LEAF",
    "npi": "1316045388",
    "hcaiId": null,
    "businessName": "THE OLIVE LEAF",
    "contactEmail": "OLIVELEAFFACILITY@GMAIL.COM",
    "categoryName": "INTERMEDIATE CARE FACILITY-DD/H/N/CN/IID",
    "categoryCode": "ICFDDH",
    "licenseStatus": "ACTIVE",
    "inService": true,
    "licenseNumber": "960001402",
    "licenseEffectiveDate": "06/16/2025",
    "licenseExpirationDate": "06/15/2026",
    "dataDate": "10/18/2025",
    "capacity": 6,
    "address": "19133 INGOMAR STREET",
    "city": "RESEDA",
    "zip": "91335",
    "county": "LOS ANGELES",
    "phone": "(818) 360-3317",
    "lat": 34.212285,
    "lng": -118.550358
  },
  {
    "id": "630012428",
    "name": "THE OLIVE TREE",
    "npi": "1134450018",
    "hcaiId": null,
    "businessName": "THE OLIVE TREE EXPERIENCE",
    "contactEmail": "ADRIANAH@OLIVE-TREELEAF.COM",
    "categoryName": "INTERMEDIATE CARE FACILITY-DD/H/N/CN/IID",
    "categoryCode": "ICFDDH",
    "licenseStatus": "ACTIVE",
    "inService": true,
    "licenseNumber": "550001318",
    "licenseEffectiveDate": "06/14/2025",
    "licenseExpirationDate": "06/13/2026",
    "dataDate": "10/18/2025",
    "capacity": 6,
    "address": "7834 VANALDEN AVE",
    "city": "RESEDA",
    "zip": "91335",
    "county": "LOS ANGELES",
    "phone": "(818) 626-8319",
    "lat": 34.213113,
    "lng": -118.548927
  },
  {
    "id": "630024405",
    "name": "THREE OLIVES HOME HEALTH CORP.",
    "npi": null,
    "hcaiId": "406195873",
    "businessName": "THREE OLIVES HOME HEALTH CORP",
    "contactEmail": "THREEOLIVESHOMEHEALTH@GMAIL.COM",
    "categoryName": "HOME HEALTH AGENCY",
    "categoryCode": "HHA",
    "licenseStatus": "ACTIVE",
    "inService": true,
    "licenseNumber": "550008032",
    "licenseEffectiveDate": "06/09/2025",
    "licenseExpirationDate": "06/08/2026",
    "dataDate": "10/18/2025",
    "capacity": 0,
    "address": "6949 RESEDA BLVD, SUITE 201A",
    "city": "RESEDA",
    "zip": "91335",
    "county": "LOS ANGELES",
    "phone": "(818) 600-1190",
    "lat": 34.197129,
    "lng": -118.5362325
  },
  {
    "id": "960001821",
    "name": "TLC - ELKWOOD HOUSE",
    "npi": "1659581148",
    "hcaiId": null,
    "businessName": "THERAPEUTIC LIVING CENTERS FOR THE BLIND, INC.",
    "contactEmail": "SBERRY@TLC4BLIND.ORG",
    "categoryName": "INTERMEDIATE CARE FACILITY-DD/H/N/CN/IID",
    "categoryCode": "ICFDDH",
    "licenseStatus": "ACTIVE",
    "inService": true,
    "licenseNumber": "960000886",
    "licenseEffectiveDate": "03/31/2025",
    "licenseExpirationDate": "03/30/2026",
    "dataDate": "10/18/2025",
    "capacity": 6,
    "address": "18640 ELKWOOD ST",
    "city": "RESEDA",
    "zip": "91335",
    "county": "LOS ANGELES",
    "phone": "(818) 272-1388",
    "lat": 34.21269,
    "lng": -118.539738
  },
  {
    "id": "960001498",
    "name": "TLC - LINDLEY II",
    "npi": "1679783161",
    "hcaiId": null,
    "businessName": "THERAPEUTIC LIVING CENTERS FOR THE BLIND, INC.",
    "contactEmail": "JBEST@TLC4BLIND.ORG",
    "categoryName": "INTERMEDIATE CARE FACILITY-DD/H/N/CN/IID",
    "categoryCode": "ICFDDH",
    "licenseStatus": "ACTIVE",
    "inService": true,
    "licenseNumber": "960000758",
    "licenseEffectiveDate": "11/01/2025",
    "licenseExpirationDate": "10/31/2026",
    "dataDate": "10/18/2025",
    "capacity": 12,
    "address": "7937 LINDLEY AVE",
    "city": "RESEDA",
    "zip": "91335",
    "county": "LOS ANGELES",
    "phone": "(818) 274-8409",
    "lat": 34.21476,
    "lng": -118.5275115
  },
  {
    "id": "960002370",
    "name": "TLC - RAVITZ HOUSE",
    "npi": "1285845719",
    "hcaiId": null,
    "businessName": "THERAPEUTIC LIVING CENTERS FOR THE BLIND, INC.",
    "contactEmail": "SBERRY@TLC4BLIND.ORG",
    "categoryName": "INTERMEDIATE CARE FACILITY-DD/H/N/CN/IID",
    "categoryCode": "ICFDDH",
    "licenseStatus": "ACTIVE",
    "inService": true,
    "licenseNumber": "960001086",
    "licenseEffectiveDate": "12/09/2024",
    "licenseExpirationDate": "12/08/2025",
    "dataDate": "10/18/2025",
    "capacity": 6,
    "address": "7927B LINDLEY AVE",
    "city": "RESEDA",
    "zip": "91335",
    "county": "LOS ANGELES",
    "phone": "(818) 674-6776",
    "lat": 34.21434385,
    "lng": -118.5273961
  },
  {
    "id": "960002366",
    "name": "TLC'S HILTON HOUSE",
    "npi": "1568672053",
    "hcaiId": null,
    "businessName": "THERAPEUTIC LIVING CENTERS FOR THE BLIND, INC.",
    "contactEmail": "SBERRY@TLC4BLIND.ORG",
    "categoryName": "INTERMEDIATE CARE FACILITY-DD/H/N/CN/IID",
    "categoryCode": "ICFDDH",
    "licenseStatus": "ACTIVE",
    "inService": true,
    "licenseNumber": "960001084",
    "licenseEffectiveDate": "12/09/2024",
    "licenseExpirationDate": "12/08/2025",
    "dataDate": "10/18/2025",
    "capacity": 6,
    "address": "7927A LINDLEY AVE",
    "city": "RESEDA",
    "zip": "91335",
    "county": "LOS ANGELES",
    "phone": "(818) 797-8852",
    "lat": 34.21434385,
    "lng": -118.5273961
  },
  {
    "id": "630026864",
    "name": "TODOS PARA LA SALUD FQHC LOOK-ALIKE COMMUNITY CLINIC",
    "npi": null,
    "hcaiId": null,
    "businessName": "TODOS PARA LA SALUD",
    "contactEmail": null,
    "categoryName": "PRIMARY CARE CLINIC",
    "categoryCode": "COMTYC",
    "licenseStatus": "ACTIVE",
    "inService": true,
    "licenseNumber": "550003902",
    "licenseEffectiveDate": "06/19/2025",
    "licenseExpirationDate": "06/18/2026",
    "dataDate": "10/18/2025",
    "capacity": 0,
    "address": "7225-7227 RESEDA BLVD",
    "city": "RESEDA",
    "zip": "91335",
    "county": "LOS ANGELES",
    "phone": null,
    "lat": 34.20194182,
    "lng": -118.5360995
  },
  {
    "id": "630020655",
    "name": "UNITED HEALTHCARE HOSPICE, INC",
    "npi": null,
    "hcaiId": "406193940",
    "businessName": "UNITED HEALTHCARE HOSPICE, INC",
    "contactEmail": "INFO@UNITEDHEALTHCAREHOSPICE.COM",
    "categoryName": "HOSPICE",
    "categoryCode": "HOSPICE",
    "licenseStatus": "ACTIVE",
    "inService": true,
    "licenseNumber": "550007338",
    "licenseEffectiveDate": "11/24/2023",
    "licenseExpirationDate": "11/23/2025",
    "dataDate": "10/18/2025",
    "capacity": 0,
    "address": "18747 SHERMAN WAY, SUITE 101",
    "city": "RESEDA",
    "zip": "91335",
    "county": "LOS ANGELES",
    "phone": "(213) 973-4087",
    "lat": 34.201404,
    "lng": -118.5419835
  },
  {
    "id": "930000885",
    "name": "VALLEY MULTI-SPECIALTY SURGERY CENTER",
    "npi": "1356568919",
    "hcaiId": null,
    "businessName": null,
    "contactEmail": "NONE@DHS.CA.GOV",
    "categoryName": "SURGICAL CLINIC",
    "categoryCode": "ASC",
    "licenseStatus": null,
    "inService": null,
    "licenseNumber": null,
    "licenseEffectiveDate": null,
    "licenseExpirationDate": null,
    "dataDate": "10/18/2025",
    "capacity": 0,
    "address": "7012 RESEDA BLVD, SUITE D",
    "city": "RESEDA",
    "zip": "91335",
    "county": "LOS ANGELES",
    "phone": "(818) 708-2222",
    "lat": 34.197957,
    "lng": -118.5358455
  },
  {
    "id": "960001273",
    "name": "VALLEY VILLAGE BAIRD HOUSE",
    "npi": "1639220163",
    "hcaiId": null,
    "businessName": "VALLEY VILLAGE",
    "contactEmail": "SUSIE@VVC.ORG",
    "categoryName": "INTERMEDIATE CARE FACILITY-DD/H/N/CN/IID",
    "categoryCode": "ICFDDH",
    "licenseStatus": "ACTIVE",
    "inService": true,
    "licenseNumber": "960000659",
    "licenseEffectiveDate": "03/13/2025",
    "licenseExpirationDate": "03/12/2026",
    "dataDate": "10/18/2025",
    "capacity": 6,
    "address": "6542 BAIRD AVE",
    "city": "RESEDA",
    "zip": "91335",
    "county": "LOS ANGELES",
    "phone": "(818) 587-9450",
    "lat": 34.189632,
    "lng": -118.5372585
  },
  {
    "id": "960002849",
    "name": "VALVERDE",
    "npi": "1659499945",
    "hcaiId": null,
    "businessName": "VALVERDE, INC.",
    "contactEmail": "MARYAMH@ECF.NET",
    "categoryName": "INTERMEDIATE CARE FACILITY-DD/H/N/CN/IID",
    "categoryCode": "ICFDDN",
    "licenseStatus": "ACTIVE",
    "inService": true,
    "licenseNumber": "960001427",
    "licenseEffectiveDate": "04/14/2025",
    "licenseExpirationDate": "04/13/2026",
    "dataDate": "10/18/2025",
    "capacity": 12,
    "address": "7600 VANALDEN AVE",
    "city": "RESEDA",
    "zip": "91335",
    "county": "LOS ANGELES",
    "phone": "(818) 342-3828",
    "lat": 34.208802,
    "lng": -118.548909
  },
  {
    "id": "630020106",
    "name": "VELA HOSPICE CARE, INC.",
    "npi": null,
    "hcaiId": "406195128",
    "businessName": "VELA HOSPICE CARE, INC.",
    "contactEmail": "VELAHOSPICECARE@GMAIL.COM",
    "categoryName": "HOSPICE",
    "categoryCode": "HOSPICE",
    "licenseStatus": "ACTIVE",
    "inService": true,
    "licenseNumber": "550006192",
    "licenseEffectiveDate": "02/22/2025",
    "licenseExpirationDate": "02/21/2027",
    "dataDate": "10/18/2025",
    "capacity": 0,
    "address": "18711 SHERMAN WAY, SUITE 105A",
    "city": "RESEDA",
    "zip": "91335",
    "county": "LOS ANGELES",
    "phone": "(818) 578-3735",
    "lat": 34.201503,
    "lng": -118.5408135
  },
  {
    "id": "630027093",
    "name": "VIGOR HOME HEALTH, INC.",
    "npi": null,
    "hcaiId": null,
    "businessName": "VIGOR HOME HEALTH, INC.",
    "contactEmail": "VIGORHHI@GMAIL.COM",
    "categoryName": "HOME HEALTH AGENCY",
    "categoryCode": "HHA",
    "licenseStatus": "ACTIVE",
    "inService": true,
    "licenseNumber": "550009365",
    "licenseEffectiveDate": "09/09/2025",
    "licenseExpirationDate": "09/08/2026",
    "dataDate": "10/18/2025",
    "capacity": 0,
    "address": "18570 SHERMAN WAY, SUITE J",
    "city": "RESEDA",
    "zip": "91335",
    "county": "LOS ANGELES",
    "phone": "(818) 434-3830",
    "lat": 34.20084901,
    "lng": -118.538424
  },
  {
    "id": "630026244",
    "name": "VITAMIN HEALTHCARE",
    "npi": null,
    "hcaiId": null,
    "businessName": "VITAMIN HEALTHCARE",
    "contactEmail": "VITAMINHHC@GMAIL.COM",
    "categoryName": "HOME HEALTH AGENCY",
    "categoryCode": "HHA",
    "licenseStatus": "ACTIVE",
    "inService": true,
    "licenseNumber": "550009499",
    "licenseEffectiveDate": "04/11/2025",
    "licenseExpirationDate": "10/10/2025",
    "dataDate": "10/18/2025",
    "capacity": 0,
    "address": "6857 RESEDA BLVD, SUITE C",
    "city": "RESEDA",
    "zip": "91335",
    "county": "LOS ANGELES",
    "phone": "(818) 813-7039",
    "lat": 34.195464,
    "lng": -118.5362325
  },
  {
    "id": "630026768",
    "name": "WE CARE FOR YOU HOME HEALTH",
    "npi": null,
    "hcaiId": null,
    "businessName": "WE CARE FOR YOU HOME HEALTH",
    "contactEmail": "WECAREFORYOUHH@GMAIL.COM",
    "categoryName": "HOME HEALTH AGENCY",
    "categoryCode": "HHA",
    "licenseStatus": "ACTIVE",
    "inService": true,
    "licenseNumber": "550009497",
    "licenseEffectiveDate": "10/07/2025",
    "licenseExpirationDate": "10/06/2026",
    "dataDate": "10/18/2025",
    "capacity": 0,
    "address": "18747 SHERMAN WAY, SUITE 112",
    "city": "RESEDA",
    "zip": "91335",
    "county": "LOS ANGELES",
    "phone": "(800) 989-7262",
    "lat": 34.201278,
    "lng": -118.542033
  },
  {
    "id": "630024791",
    "name": "WELLBEE NURSING HOME HEALTH INC.",
    "npi": null,
    "hcaiId": null,
    "businessName": "WELLBEE NURSING HOME HEALTH INC.",
    "contactEmail": "WBNURSING009@GMAIL.COM",
    "categoryName": "HOME HEALTH AGENCY",
    "categoryCode": "HHA",
    "licenseStatus": "ACTIVE",
    "inService": true,
    "licenseNumber": "550008598",
    "licenseEffectiveDate": "11/03/2023",
    "licenseExpirationDate": "05/02/2024",
    "dataDate": "10/18/2025",
    "capacity": 0,
    "address": "19231 VICTORY BLVD, SUITE 354",
    "city": "RESEDA",
    "zip": "91335",
    "county": "LOS ANGELES",
    "phone": "(818) 938-4700",
    "lat": 34.187211,
    "lng": -118.552608
  },
  {
    "id": "630022136",
    "name": "WHITE ROSE HOME HEALTH, INC.",
    "npi": null,
    "hcaiId": "406195407",
    "businessName": "WHITE ROSE HEALTH, INC.",
    "contactEmail": "WHITEROSEHEALTH@YAHOO.COM",
    "categoryName": "HOME HEALTH AGENCY",
    "categoryCode": "HHA",
    "licenseStatus": "ACTIVE",
    "inService": true,
    "licenseNumber": "550007867",
    "licenseEffectiveDate": "02/11/2025",
    "licenseExpirationDate": "02/10/2026",
    "dataDate": "10/18/2025",
    "capacity": 0,
    "address": "7012 RESEDA BLVD, SUITE 201B",
    "city": "RESEDA",
    "zip": "91335",
    "county": "LOS ANGELES",
    "phone": "(818) 654-6148",
    "lat": 34.197957,
    "lng": -118.5358455
  },
  {
    "id": "920000061",
    "name": "WOODLAND CARE CENTER",
    "npi": "1427049816",
    "hcaiId": "206190210",
    "businessName": "WOODLAND CARE CENTER, LLC",
    "contactEmail": "ADMINISTRATOR@WOODLANDCENTER.COM",
    "categoryName": "SKILLED NURSING FACILITY",
    "categoryCode": "SNF",
    "licenseStatus": "ACTIVE",
    "inService": true,
    "licenseNumber": "920000024",
    "licenseEffectiveDate": "11/15/2024",
    "licenseExpirationDate": "11/14/2025",
    "dataDate": "10/18/2025",
    "capacity": 157,
    "address": "7120 CORBIN AVE",
    "city": "RESEDA",
    "zip": "91335",
    "county": "LOS ANGELES",
    "phone": "(818) 881-4540",
    "lat": 34.200144,
    "lng": -118.561581
  }
]