[
  {
    "id": "630016523",
    "name": "ALLWELL RESIDENTIAL CARE",
    "npi": null,
    "hcaiId": "206191361",
    "businessName": "QOR HEALTHCARE LLC",
    "contactEmail": "ALLWELLRESIDENTIALCARE@GMAIL.COM",
    "categoryName": "CONGREGATE LIVING HEALTH FACILITY",
    "categoryCode": "CLHF",
    "licenseStatus": "ACTIVE",
    "inService": true,
    "licenseNumber": "550004107",
    "licenseEffectiveDate": "12/14/2024",
    "licenseExpirationDate": "12/13/2025",
    "dataDate": "10/18/2025",
    "capacity": 6,
    "address": "11472 GLENOAKS BLVD",
    "city": "PACOIMA",
    "zip": "91331",
    "county": "LOS ANGELES",
    "phone": "(747) 225-3729",
    "lat": 34.278957,
    "lng": -118.4169735
  },
  {
    "id": "630016596",
    "name": "ARISE CONGREGATE LIVING, INC.",
    "npi": null,
    "hcaiId": "206190045",
    "businessName": "ARISE CONGREGATE LIVING, INC.",
    "contactEmail": "ARISECLHF@GMAIL.COM",
    "categoryName": "CONGREGATE LIVING HEALTH FACILITY",
    "categoryCode": "CLHF",
    "licenseStatus": "ACTIVE",
    "inService": true,
    "licenseNumber": "550004319",
    "licenseEffectiveDate": "06/28/2025",
    "licenseExpirationDate": "06/27/2026",
    "dataDate": "10/18/2025",
    "capacity": 6,
    "address": "12718 WEIDNER STREET",
    "city": "PACOIMA",
    "zip": "91331",
    "county": "LOS ANGELES",
    "phone": "(818) 686-2672",
    "lat": 34.282062,
    "lng": -118.41003
  },
  {
    "id": "630027124",
    "name": "COMPREHENSIVE COMMUNITY HEALTH CENTER, INC. - ARLETA",
    "npi": null,
    "hcaiId": null,
    "businessName": "COMPREHENSIVE COMMUNITY HEALTH CENTER, INC.",
    "contactEmail": "REMELISSAV@CCHCCENTERS.ORG",
    "categoryName": "PRIMARY CARE CLINIC",
    "categoryCode": "COMTYC",
    "licenseStatus": "ACTIVE",
    "inService": true,
    "licenseNumber": "550004115",
    "licenseEffectiveDate": "12/12/2024",
    "licenseExpirationDate": "12/11/2025",
    "dataDate": "10/18/2025",
    "capacity": 0,
    "address": "9043 WOODMAN AVE, SUITE C",
    "city": "ARLETA",
    "zip": "91331",
    "county": "LOS ANGELES",
    "phone": "(818) 221-3096",
    "lat": 34.23380099,
    "lng": -118.44017
  },
  {
    "id": "960001332",
    "name": "EL PROYECTO DEL BARRIO, INC.",
    "npi": "1083624423",
    "hcaiId": "306194229",
    "businessName": "EL PROYECTO DEL BARRIO, INC.",
    "contactEmail": "KTATULIAN@ELPROYECTO.US",
    "categoryName": "PRIMARY CARE CLINIC",
    "categoryCode": "COMTYC",
    "licenseStatus": "ACTIVE",
    "inService": true,
    "licenseNumber": "550002824",
    "licenseEffectiveDate": "09/26/2025",
    "licenseExpirationDate": "09/25/2026",
    "dataDate": "10/18/2025",
    "capacity": 0,
    "address": "8902 WOODMAN AVE",
    "city": "ARLETA",
    "zip": "91331",
    "county": "LOS ANGELES",
    "phone": "(818) 830-7133",
    "lat": 34.231419,
    "lng": -118.4372775
  },
  {
    "id": "630020238",
    "name": "EL PROYECTO DEL BARRIO, INC. ESPERANZA DENTAL CLINIC",
    "npi": "1154730828",
    "hcaiId": null,
    "businessName": "EL PROYECTO DEL BARRIO, INC.",
    "contactEmail": null,
    "categoryName": "PRIMARY CARE CLINIC",
    "categoryCode": "COMTYC",
    "licenseStatus": "ACTIVE",
    "inService": true,
    "licenseNumber": "550002824",
    "licenseEffectiveDate": "09/26/2025",
    "licenseExpirationDate": "09/25/2026",
    "dataDate": "10/18/2025",
    "capacity": 0,
    "address": "8932 WOODMAN AVE",
    "city": "ARLETA",
    "zip": "91331",
    "county": "LOS ANGELES",
    "phone": "(818) 221-4600",
    "lat": 34.232103,
    "lng": -118.4377905
  },
  {
    "id": "630026190",
    "name": "ELLIT HOME HEALTH INC.",
    "npi": null,
    "hcaiId": null,
    "businessName": "ELLIT HOME HEALTH INC.",
    "contactEmail": "ELLITHOMEHEALTH@GMAIL.COM",
    "categoryName": "HOME HEALTH AGENCY",
    "categoryCode": "HHA",
    "licenseStatus": "ACTIVE",
    "inService": true,
    "licenseNumber": "550009857",
    "licenseEffectiveDate": "11/15/2025",
    "licenseExpirationDate": "05/14/2026",
    "dataDate": "10/18/2025",
    "capacity": 0,
    "address": "8953 WOODMAN AVE, SUITE 209",
    "city": "ARLETA",
    "zip": "91331",
    "county": "LOS ANGELES",
    "phone": "(818) 960-3122",
    "lat": 34.23240901,
    "lng": -118.438497
  },
  {
    "id": "630026077",
    "name": "ELLITE HOME HEALTH INC.",
    "npi": null,
    "hcaiId": "406190297",
    "businessName": "ELLITE HOME HEALTH INC.",
    "contactEmail": "BLUEBERRYHILLHCS@GMAIL.COM",
    "categoryName": "HOME HEALTH AGENCY",
    "categoryCode": "HHA",
    "licenseStatus": "ACTIVE",
    "inService": true,
    "licenseNumber": "550009035",
    "licenseEffectiveDate": "03/25/2025",
    "licenseExpirationDate": "03/24/2026",
    "dataDate": "10/18/2025",
    "capacity": 0,
    "address": "8953 WOODMAN AVE, SUITE 205",
    "city": "ARLETA",
    "zip": "91331",
    "county": "LOS ANGELES",
    "phone": "(818) 960-3122",
    "lat": 34.23240901,
    "lng": -118.438497
  },
  {
    "id": "630026521",
    "name": "ELPIS HOME HEALTH SERVICES",
    "npi": null,
    "hcaiId": null,
    "businessName": "ELPIS HOME HEALTH SERVICES",
    "contactEmail": "ELPISHHSERVICES@YAHOO.COM",
    "categoryName": "HOME HEALTH AGENCY",
    "categoryCode": "HHA",
    "licenseStatus": "ACTIVE",
    "inService": true,
    "licenseNumber": "550009112",
    "licenseEffectiveDate": "05/03/2025",
    "licenseExpirationDate": "05/02/2026",
    "dataDate": "10/18/2025",
    "capacity": 0,
    "address": "8953 WOODMAN AVE, SUITE 214",
    "city": "ARLETA",
    "zip": "91331",
    "county": "LOS ANGELES",
    "phone": "(747) 788-4125",
    "lat": 34.23240901,
    "lng": -118.438497
  },
  {
    "id": "630024780",
    "name": "EMPATHY CARE, INC.",
    "npi": null,
    "hcaiId": "406197626",
    "businessName": "EMPATHY CARE, INC.",
    "contactEmail": "4EMPATHTYCARE@GMAIL.COM",
    "categoryName": "HOME HEALTH AGENCY",
    "categoryCode": "HHA",
    "licenseStatus": "ACTIVE",
    "inService": true,
    "licenseNumber": "550008294",
    "licenseEffectiveDate": "12/22/2024",
    "licenseExpirationDate": "12/21/2025",
    "dataDate": "10/18/2025",
    "capacity": 0,
    "address": "8953 WOODMAN AVE, SUITE 108",
    "city": "ARLETA",
    "zip": "91331",
    "county": "LOS ANGELES",
    "phone": "(800) 318-5053",
    "lat": 34.232382,
    "lng": -118.4384925
  },
  {
    "id": "630020051",
    "name": "FRESENIUS KIDNEY CARE PANORAMA CITY",
    "npi": null,
    "hcaiId": "306190553",
    "businessName": "BIO-MEDICAL APPLICATIONS OF CALIFORNIA, INC.",
    "contactEmail": "CLINIC100136@FRESENIUSMEDICALCARE.COM",
    "categoryName": "CHRONIC DIALYSIS CLINIC",
    "categoryCode": "ESRD/CDC",
    "licenseStatus": "ACTIVE",
    "inService": true,
    "licenseNumber": "550005444",
    "licenseEffectiveDate": "04/24/2025",
    "licenseExpirationDate": "04/23/2026",
    "dataDate": "10/18/2025",
    "capacity": 24,
    "address": "14001 OSBORNE ST",
    "city": "LOS ANGELES",
    "zip": "91331",
    "county": "LOS ANGELES",
    "phone": "(909) 565-0330",
    "lat": 34.233768,
    "lng": -118.438146
  },
  {
    "id": "630016807",
    "name": "GOLDEN KEY HOSPICE, INC",
    "npi": "1487144820",
    "hcaiId": "406190648",
    "businessName": "GOLDEN KEY HOSPICE, INC.",
    "contactEmail": "GOLDENKEYHOSPICE@GMAIL.COM",
    "categoryName": "HOSPICE",
    "categoryCode": "HOSPICE",
    "licenseStatus": "ACTIVE",
    "inService": true,
    "licenseNumber": "550004170",
    "licenseEffectiveDate": "02/05/2024",
    "licenseExpirationDate": "02/04/2026",
    "dataDate": "10/18/2025",
    "capacity": 0,
    "address": "13083 VAN NUYS BLVD, SUITE 4",
    "city": "PACOIMA",
    "zip": "91331",
    "county": "LOS ANGELES",
    "phone": "(747) 477-3903",
    "lat": 34.269138,
    "lng": -118.4183055
  },
  {
    "id": "630021904",
    "name": "HANSEN COMMUNITY CARE",
    "npi": null,
    "hcaiId": null,
    "businessName": "HANSEN COMMUNITY CARE",
    "contactEmail": "HANSENCOMMUNITYCARE@GMAIL.COM",
    "categoryName": "INTERMEDIATE CARE FACILITY-DD/H/N/CN/IID",
    "categoryCode": "ICFDDN",
    "licenseStatus": "ACTIVE",
    "inService": true,
    "licenseNumber": "550008910",
    "licenseEffectiveDate": "08/25/2025",
    "licenseExpirationDate": "08/24/2026",
    "dataDate": "10/18/2025",
    "capacity": 6,
    "address": "12943 WINGO ST",
    "city": "PACOIMA",
    "zip": "91331",
    "county": "LOS ANGELES",
    "phone": "(818) 203-7779",
    "lat": 34.249023,
    "lng": -118.4149125
  },
  {
    "id": "060001830",
    "name": "HELPING HANDS ADULT DAY HEALTH CARE CENTER",
    "npi": null,
    "hcaiId": null,
    "businessName": "HELPING HANDS ADULT DAY HEALTH CARE CENTER INC.",
    "contactEmail": "HELPINGHANDSADHC@YAHOO.COM",
    "categoryName": "ADULT DAY HEALTH CARE",
    "categoryCode": "ADHC",
    "licenseStatus": "ACTIVE",
    "inService": true,
    "licenseNumber": "060000647",
    "licenseEffectiveDate": "06/15/2025",
    "licenseExpirationDate": "06/14/2026",
    "dataDate": "10/18/2025",
    "capacity": 0,
    "address": "9051 WOODMAN AVE",
    "city": "ARLETA",
    "zip": "91331",
    "county": "LOS ANGELES",
    "phone": "(818) 830-7158",
    "lat": 34.234101,
    "lng": -118.439865
  },
  {
    "id": "630014115",
    "name": "HOME OF COMPASSION, INC.",
    "npi": null,
    "hcaiId": "206197966",
    "businessName": "HOME OF COMPASSION, INC.",
    "contactEmail": "HOMEOFCOMPASSIONCLHF@YAHOO.COM",
    "categoryName": "CONGREGATE LIVING HEALTH FACILITY",
    "categoryCode": "CLHF",
    "licenseStatus": "ACTIVE",
    "inService": true,
    "licenseNumber": "550002502",
    "licenseEffectiveDate": "11/08/2024",
    "licenseExpirationDate": "11/07/2025",
    "dataDate": "10/18/2025",
    "capacity": 6,
    "address": "13276 TERRA BELLA ST",
    "city": "PACOIMA",
    "zip": "91331",
    "county": "LOS ANGELES",
    "phone": "(818) 554-4769",
    "lat": 34.255395,
    "lng": -118.4218155
  },
  {
    "id": "630020177",
    "name": "HVN HOSPICE, INC.",
    "npi": null,
    "hcaiId": "406193731",
    "businessName": "HVN HOSPICE, INC.",
    "contactEmail": "HVNHOSPICE@YAHOO.COM",
    "categoryName": "HOSPICE",
    "categoryCode": "HOSPICE",
    "licenseStatus": "ACTIVE",
    "inService": true,
    "licenseNumber": "550006715",
    "licenseEffectiveDate": "06/18/2023",
    "licenseExpirationDate": "06/17/2025",
    "dataDate": "10/18/2025",
    "capacity": 0,
    "address": "9829 SAN FERNANDO RD",
    "city": "PACOIMA",
    "zip": "91331",
    "county": "LOS ANGELES",
    "phone": "(818) 877-4141",
    "lat": 34.248708,
    "lng": -118.404018
  },
  {
    "id": "630027272",
    "name": "KIND HEARTS HOME HEALTH",
    "npi": null,
    "hcaiId": null,
    "businessName": "KIND HEARTS HOME HEALTH",
    "contactEmail": "KINDHEARTSHH@GMAIL.COM",
    "categoryName": "HOME HEALTH AGENCY",
    "categoryCode": "HHA",
    "licenseStatus": "ACTIVE",
    "inService": true,
    "licenseNumber": "550009587",
    "licenseEffectiveDate": "05/21/2025",
    "licenseExpirationDate": "11/20/2025",
    "dataDate": "10/18/2025",
    "capacity": 0,
    "address": "8953 WOODMAN AVE, SUITE 208",
    "city": "ARLETA",
    "zip": "91331",
    "county": "LOS ANGELES",
    "phone": "(818) 646-7227",
    "lat": 34.23240901,
    "lng": -118.438497
  },
  {
    "id": "630019366",
    "name": "KINDRED HOSPICE INC",
    "npi": "1245888403",
    "hcaiId": "406192739",
    "businessName": "KINDRED HOSPICE INC",
    "contactEmail": "HOSPICEKINDRED@GMAIL.COM",
    "categoryName": "HOSPICE",
    "categoryCode": "HOSPICE",
    "licenseStatus": "ACTIVE",
    "inService": true,
    "licenseNumber": "550005572",
    "licenseEffectiveDate": "07/15/2024",
    "licenseExpirationDate": "07/14/2026",
    "dataDate": "10/18/2025",
    "capacity": 0,
    "address": "12297 OSBORNE ST",
    "city": "PACOIMA",
    "zip": "91331",
    "county": "LOS ANGELES",
    "phone": "(747) 202-0474",
    "lat": 34.265601,
    "lng": -118.401903
  },
  {
    "id": "630020685",
    "name": "MACLAY WELLNESS CENTER",
    "npi": null,
    "hcaiId": null,
    "businessName": "NORTHEAST VALLEY HEALTH CORPORATION",
    "contactEmail": null,
    "categoryName": "PRIMARY CARE CLINIC",
    "categoryCode": "COMTYC",
    "licenseStatus": "ACTIVE",
    "inService": true,
    "licenseNumber": "550000755",
    "licenseEffectiveDate": "04/17/2025",
    "licenseExpirationDate": "04/16/2026",
    "dataDate": "10/18/2025",
    "capacity": 0,
    "address": "12451 GAIN ST",
    "city": "PACOIMA",
    "zip": "91331",
    "county": "LOS ANGELES",
    "phone": null,
    "lat": 34.27101959,
    "lng": -118.4045563
  },
  {
    "id": "630014111",
    "name": "MISSION CITY COMMUNITY NETWORK,INC.-SAN FERNANDO VALLEY MOBILE CLINIC",
    "npi": "1609128206",
    "hcaiId": "306197815",
    "businessName": "MISSION CITY COMMUNITY NETWORK, INC.",
    "contactEmail": "NIKG@MCCN.ORG",
    "categoryName": "PRIMARY CARE CLINIC",
    "categoryCode": "COMTYC",
    "licenseStatus": "ACTIVE",
    "inService": true,
    "licenseNumber": "550002265",
    "licenseEffectiveDate": "05/16/2025",
    "licenseExpirationDate": "05/15/2026",
    "dataDate": "10/18/2025",
    "capacity": 0,
    "address": "9919 LAUREL CANYON BLVD",
    "city": "PACOIMA",
    "zip": "91331",
    "county": "LOS ANGELES",
    "phone": "(818) 895-3100",
    "lat": 34.250337,
    "lng": -118.423629
  },
  {
    "id": "960000191",
    "name": "NORTHEAST VALLEY HEALTH - PACOIMA HEALTH CENTER",
    "npi": "1114928595",
    "hcaiId": "306190962",
    "businessName": "NORTHEAST VALLEY HEALTH CORPORATION",
    "contactEmail": "CAROLINATIRADO@NEVHC.ORG",
    "categoryName": "PRIMARY CARE CLINIC",
    "categoryCode": "COMTYC",
    "licenseStatus": "ACTIVE",
    "inService": true,
    "licenseNumber": "960000189",
    "licenseEffectiveDate": "11/01/2025",
    "licenseExpirationDate": "10/31/2026",
    "dataDate": "10/18/2025",
    "capacity": 0,
    "address": "12756 VAN NUYS BLVD",
    "city": "PACOIMA",
    "zip": "91331",
    "county": "LOS ANGELES",
    "phone": "(818) 896-0531",
    "lat": 34.27389,
    "lng": -118.4107545
  },
  {
    "id": "630018689",
    "name": "PACOIMA WOMEN'S HEALTH CENTER",
    "npi": "1801399860",
    "hcaiId": "306190504",
    "businessName": "NORTHEAST VALLEY HEALTH CORPORATION",
    "contactEmail": "JUANAFELIX@NEVHC.ORG",
    "categoryName": "PRIMARY CARE CLINIC",
    "categoryCode": "COMTYC",
    "licenseStatus": "ACTIVE",
    "inService": true,
    "licenseNumber": "550004966",
    "licenseEffectiveDate": "09/23/2025",
    "licenseExpirationDate": "09/22/2026",
    "dataDate": "10/18/2025",
    "capacity": 0,
    "address": "12759 VAN NUYS BLVD",
    "city": "PACOIMA",
    "zip": "91331",
    "county": "LOS ANGELES",
    "phone": "(818) 485-8250",
    "lat": 34.27431377,
    "lng": -118.410949
  },
  {
    "id": "630018215",
    "name": "PIERCE CONGREGATE LIVING, LLC",
    "npi": null,
    "hcaiId": "206190247",
    "businessName": "PIERCE CONGREGATE LIVING, LLC",
    "contactEmail": "DZARGARYAN@ICLOUD.COM",
    "categoryName": "CONGREGATE LIVING HEALTH FACILITY",
    "categoryCode": "CLHF",
    "licenseStatus": "ACTIVE",
    "inService": true,
    "licenseNumber": "550005602",
    "licenseEffectiveDate": "06/04/2025",
    "licenseExpirationDate": "06/03/2026",
    "dataDate": "10/18/2025",
    "capacity": 6,
    "address": "12430 PIERCE ST",
    "city": "PACOIMA",
    "zip": "91331",
    "county": "LOS ANGELES",
    "phone": "(818) 307-3675",
    "lat": 34.273917,
    "lng": -118.4037165
  },
  {
    "id": "630012154",
    "name": "PIONEER HOME HEALTH SERVICES, INC.",
    "npi": "1386934644",
    "hcaiId": "406197435",
    "businessName": "PIONEER HOME HEALTH SERVICES, INC.",
    "contactEmail": "PIONEERHOMEHEALTHSERVICES@GMAIL.COM",
    "categoryName": "HOME HEALTH AGENCY",
    "categoryCode": "HHA",
    "licenseStatus": "ACTIVE",
    "inService": true,
    "licenseNumber": "550001350",
    "licenseEffectiveDate": "02/08/2025",
    "licenseExpirationDate": "02/07/2026",
    "dataDate": "10/18/2025",
    "capacity": 0,
    "address": "13083 VAN NUYS BLVD, UNIT 1",
    "city": "PACOIMA",
    "zip": "91331",
    "county": "LOS ANGELES",
    "phone": "(818) 485-5303",
    "lat": 34.269138,
    "lng": -118.4183055
  },
  {
    "id": "630026702",
    "name": "RTH MEDCARE",
    "npi": null,
    "hcaiId": null,
    "businessName": "RTH MEDCARE",
    "contactEmail": "RTHMEDCARE@YAHOO.COM",
    "categoryName": "HOME HEALTH AGENCY",
    "categoryCode": "HHA",
    "licenseStatus": "ACTIVE",
    "inService": true,
    "licenseNumber": "550009225",
    "licenseEffectiveDate": "06/21/2025",
    "licenseExpirationDate": "06/20/2026",
    "dataDate": "10/18/2025",
    "capacity": 0,
    "address": "8953 WOODMAN AVE, SUITE 203",
    "city": "ARLETA",
    "zip": "91331",
    "county": "LOS ANGELES",
    "phone": "(661) 666-7415",
    "lat": 34.23240901,
    "lng": -118.438497
  },
  {
    "id": "630021497",
    "name": "SEVENTH OCEAN HOME HEALTH, INC",
    "npi": null,
    "hcaiId": "406195522",
    "businessName": "SEVENTH OCEAN HOME HEALTH, INC",
    "contactEmail": "7THOCEANHOMEHEALTH@GMAIL.COM",
    "categoryName": "HOME HEALTH AGENCY",
    "categoryCode": "HHA",
    "licenseStatus": "ACTIVE",
    "inService": true,
    "licenseNumber": "550006774",
    "licenseEffectiveDate": "09/10/2025",
    "licenseExpirationDate": "09/09/2026",
    "dataDate": "10/18/2025",
    "capacity": 0,
    "address": "8953 WOODMAN AVE, SUITE 210",
    "city": "ARLETA",
    "zip": "91331",
    "county": "LOS ANGELES",
    "phone": "(747) 301-3005",
    "lat": 34.2322492,
    "lng": -118.4409972
  },
  {
    "id": "630021498",
    "name": "SEVENTH OCEAN HOSPICE CARE, INC",
    "npi": null,
    "hcaiId": "406193391",
    "businessName": "SEVENTH OCEAN HOSPICE CARE, INC",
    "contactEmail": "7THOCEANHOSPICE@GMAIL.COM",
    "categoryName": "HOSPICE",
    "categoryCode": "HOSPICE",
    "licenseStatus": "ACTIVE",
    "inService": true,
    "licenseNumber": "550007006",
    "licenseEffectiveDate": "10/15/2023",
    "licenseExpirationDate": "10/14/2025",
    "dataDate": "10/18/2025",
    "capacity": 0,
    "address": "8953 WOODMAN AVE, SUITE 211",
    "city": "PACOIMA",
    "zip": "91331",
    "county": "LOS ANGELES",
    "phone": "(747) 307-4888",
    "lat": 34.232382,
    "lng": -118.4384925
  },
  {
    "id": "630027132",
    "name": "SO-CAL COMMUNITY HEALTH CENTER",
    "npi": null,
    "hcaiId": "306190023",
    "businessName": "SO-CAL COMMUNITY HEALTH CENTER",
    "contactEmail": "NKAHEN@ARLETAURGENTCARE.COM",
    "categoryName": "PRIMARY CARE CLINIC",
    "categoryCode": "FREEC",
    "licenseStatus": "ACTIVE",
    "inService": true,
    "licenseNumber": "550009063",
    "licenseEffectiveDate": "05/01/2025",
    "licenseExpirationDate": "02/28/2026",
    "dataDate": "10/18/2025",
    "capacity": 0,
    "address": "9700 WOODMAN AVE, SUITE A-10",
    "city": "ARLETA",
    "zip": "91331",
    "county": "LOS ANGELES",
    "phone": "(818) 746-2626",
    "lat": 34.24643101,
    "lng": -118.446588
  },
  {
    "id": "630019325",
    "name": "SOUTHLAND HOSPICE INC",
    "npi": "1205484375",
    "hcaiId": "406192734",
    "businessName": "SOUTHLAND HOSPICE INC",
    "contactEmail": "SOUTHLANDHOSPICECARE@GMAIL.COM",
    "categoryName": "HOSPICE",
    "categoryCode": "HOSPICE",
    "licenseStatus": "ACTIVE",
    "inService": true,
    "licenseNumber": "550005508",
    "licenseEffectiveDate": "05/30/2024",
    "licenseExpirationDate": "05/29/2026",
    "dataDate": "10/18/2025",
    "capacity": 0,
    "address": "12295 OSBORNE ST",
    "city": "PACOIMA",
    "zip": "91331",
    "county": "LOS ANGELES",
    "phone": "(818) 745-7081",
    "lat": 34.265673,
    "lng": -118.401876
  },
  {
    "id": "630018898",
    "name": "ST. ANTHONY'S ADHC",
    "npi": null,
    "hcaiId": null,
    "businessName": "ST. ANTHONY'S ADHC, INC.",
    "contactEmail": "STANTHONYSPD@GMAIL.COM",
    "categoryName": "ADULT DAY HEALTH CARE",
    "categoryCode": "ADHC",
    "licenseStatus": "ACTIVE",
    "inService": true,
    "licenseNumber": "550005591",
    "licenseEffectiveDate": "07/15/2025",
    "licenseExpirationDate": "07/14/2026",
    "dataDate": "10/18/2025",
    "capacity": 0,
    "address": "13765 VAN NUYS BLVD",
    "city": "PACOIMA",
    "zip": "91331",
    "county": "LOS ANGELES",
    "phone": "(818) 686-2127",
    "lat": 34.258932,
    "lng": -118.433322
  },
  {
    "id": "960002842",
    "name": "STANWIN HOME",
    "npi": "1356559561",
    "hcaiId": null,
    "businessName": "QUALITY CARE CENTER, INC.",
    "contactEmail": "RZOKAIE@VERIZON.NET",
    "categoryName": "INTERMEDIATE CARE FACILITY-DD/H/N/CN/IID",
    "categoryCode": "ICFDDH",
    "licenseStatus": "ACTIVE",
    "inService": true,
    "licenseNumber": "960001420",
    "licenseEffectiveDate": "04/16/2025",
    "licenseExpirationDate": "04/15/2026",
    "dataDate": "10/18/2025",
    "capacity": 6,
    "address": "9580 STANWIN AVE",
    "city": "ARLETA",
    "zip": "91331",
    "county": "LOS ANGELES",
    "phone": "(818) 667-0681",
    "lat": 34.243686,
    "lng": -118.429002
  },
  {
    "id": "630027231",
    "name": "TONOPAH CARE HOME",
    "npi": null,
    "hcaiId": null,
    "businessName": "TONOPAH CARE HOME, LLC",
    "contactEmail": "TONOPAHCARECONGREGATE@GMAIL.COM",
    "categoryName": "CONGREGATE LIVING HEALTH FACILITY",
    "categoryCode": "CLHF",
    "licenseStatus": "ACTIVE",
    "inService": true,
    "licenseNumber": "550009388",
    "licenseEffectiveDate": "09/18/2025",
    "licenseExpirationDate": "09/17/2026",
    "dataDate": "10/18/2025",
    "capacity": 4,
    "address": "13130 TONOPAH ST",
    "city": "ARLETA",
    "zip": "91331",
    "county": "LOS ANGELES",
    "phone": null,
    "lat": 34.22773602,
    "lng": -118.418308
  }
]