[
  {
    "id": "630023829",
    "name": "ABLE & AVAILABLE HOME HEALTH, INC.",
    "npi": null,
    "hcaiId": "406195372",
    "businessName": "ABLE & AVAILABLE HOME HEALTH, INC.",
    "contactEmail": "INFO@ABLEAVAILABLEHOMEHEALTH.COM",
    "categoryName": "HOME HEALTH AGENCY",
    "categoryCode": "HHA",
    "licenseStatus": "ACTIVE",
    "inService": true,
    "licenseNumber": "550007944",
    "licenseEffectiveDate": "04/12/2025",
    "licenseExpirationDate": "04/11/2026",
    "dataDate": "10/18/2025",
    "capacity": 0,
    "address": "10117 SEPULVEDA BLVD, SUITE 208",
    "city": "MISSION HILLS",
    "zip": "91345",
    "county": "LOS ANGELES",
    "phone": "(818) 818-6381",
    "lat": 34.25423901,
    "lng": -118.467918
  },
  {
    "id": "980002190",
    "name": "ACCENTCARE HOME HEALTH OF CALIFORNIA, INC.",
    "npi": "1952357964",
    "hcaiId": "406196693",
    "businessName": "ACCENTCARE HOME HEALTH OF CALIFORNIA, INC.",
    "contactEmail": "DANIELLEGREGORY@ACCENTCARE.COM",
    "categoryName": "HOME HEALTH AGENCY",
    "categoryCode": "HHA",
    "licenseStatus": "ACTIVE",
    "inService": true,
    "licenseNumber": "980001314",
    "licenseEffectiveDate": "12/01/2024",
    "licenseExpirationDate": "11/30/2025",
    "dataDate": "10/18/2025",
    "capacity": 0,
    "address": "15455 SAN FERNANDO MISSION BLVD, SUITE C-400",
    "city": "MISSION HILLS",
    "zip": "91345",
    "county": "LOS ANGELES",
    "phone": "(818) 528-8855",
    "lat": 34.272252,
    "lng": -118.469115
  },
  {
    "id": "630021499",
    "name": "ADVANTAGE HOME HEALTHCARE PROVIDER, INC",
    "npi": null,
    "hcaiId": "406195291",
    "businessName": "ADVANTAGE HOME HEALTHCARE PROVIDER, INC",
    "contactEmail": "ADVANTAGEHH14@GMAIL.COM",
    "categoryName": "HOME HEALTH AGENCY",
    "categoryCode": "HHA",
    "licenseStatus": "ACTIVE",
    "inService": true,
    "licenseNumber": "550006627",
    "licenseEffectiveDate": "08/12/2025",
    "licenseExpirationDate": "08/11/2026",
    "dataDate": "10/18/2025",
    "capacity": 0,
    "address": "15545 DEVONSHIRE ST, UNIT 111",
    "city": "MISSION HILLS",
    "zip": "91345",
    "county": "LOS ANGELES",
    "phone": "(747) 724-2847",
    "lat": 34.257717,
    "lng": -118.4710185
  },
  {
    "id": "630021239",
    "name": "ANMAR HOME HEALTH CARE, INC.",
    "npi": null,
    "hcaiId": "406195940",
    "businessName": "ANMAR HOME HEALTH CARE, INC.",
    "contactEmail": "ANMARHHC@GMAIL.COM",
    "categoryName": "HOME HEALTH AGENCY",
    "categoryCode": "HHA",
    "licenseStatus": "ACTIVE",
    "inService": true,
    "licenseNumber": "550006628",
    "licenseEffectiveDate": "07/22/2025",
    "licenseExpirationDate": "07/21/2026",
    "dataDate": "10/18/2025",
    "capacity": 0,
    "address": "10200 SEPULVEDA BLVD, SUITE 112",
    "city": "MISSION HILLS",
    "zip": "91345",
    "county": "LOS ANGELES",
    "phone": "(818) 617-9243",
    "lat": 34.25571,
    "lng": -118.4670315
  },
  {
    "id": "920000292",
    "name": "ARARAT NURSING FACILITY",
    "npi": "1477555472",
    "hcaiId": "206194558",
    "businessName": "ARARAT HOME OF LOS ANGELES, INC.",
    "contactEmail": "NAREGG@ARARATHOME.ORG",
    "categoryName": "SKILLED NURSING FACILITY",
    "categoryCode": "SNF",
    "licenseStatus": "ACTIVE",
    "inService": true,
    "licenseNumber": "920000124",
    "licenseEffectiveDate": "11/16/2024",
    "licenseExpirationDate": "11/15/2025",
    "dataDate": "10/18/2025",
    "capacity": 254,
    "address": "15099 MISSION HILLS RD",
    "city": "MISSION HILLS",
    "zip": "91345",
    "county": "LOS ANGELES",
    "phone": "(818) 837-1800",
    "lat": 34.282377,
    "lng": -118.4612175
  },
  {
    "id": "630028396",
    "name": "ARION CONGREGATE HOME INC",
    "npi": null,
    "hcaiId": null,
    "businessName": "ARION CONGREGATE HOME INC",
    "contactEmail": "MOVSISYAN@MSN.COM",
    "categoryName": "CONGREGATE LIVING HEALTH FACILITY",
    "categoryCode": "CLHF",
    "licenseStatus": "ACTIVE",
    "inService": true,
    "licenseNumber": "550009992",
    "licenseEffectiveDate": "10/09/2025",
    "licenseExpirationDate": "04/08/2026",
    "dataDate": "10/18/2025",
    "capacity": 6,
    "address": "10948 ORION AVE",
    "city": "MISSION HILLS",
    "zip": "91345",
    "county": "LOS ANGELES",
    "phone": "(818) 434-0349",
    "lat": 34.2697479,
    "lng": -118.4761893
  },
  {
    "id": "630026000",
    "name": "ASL HOME HEALTH CARE INC.",
    "npi": null,
    "hcaiId": "406190200",
    "businessName": "ASL HOME HEALTH CARE INC.",
    "contactEmail": "ASLHOMEHEALTH@YAHOO.COM",
    "categoryName": "HOME HEALTH AGENCY",
    "categoryCode": "HHA",
    "licenseStatus": "ACTIVE",
    "inService": true,
    "licenseNumber": "550008945",
    "licenseEffectiveDate": "02/12/2025",
    "licenseExpirationDate": "02/11/2026",
    "dataDate": "10/18/2025",
    "capacity": 0,
    "address": "10117 SEPULVEDA BLVD, SUITE 201C",
    "city": "MISSION HILLS",
    "zip": "91345",
    "county": "LOS ANGELES",
    "phone": "(818) 810-7456",
    "lat": 34.254252,
    "lng": -118.467851
  },
  {
    "id": "980001567",
    "name": "ASSISTED HEALTHCARE SERVICES",
    "npi": "1356396410",
    "hcaiId": "406194695",
    "businessName": "STAFF ASSISTANCE, INC.",
    "contactEmail": "TAULESTIA@ASSISTEDCARES.COM",
    "categoryName": "HOME HEALTH AGENCY",
    "categoryCode": "HHA",
    "licenseStatus": "ACTIVE",
    "inService": true,
    "licenseNumber": "980000879",
    "licenseEffectiveDate": "03/16/2025",
    "licenseExpirationDate": "03/15/2026",
    "dataDate": "10/18/2025",
    "capacity": 0,
    "address": "10550 SEPULVEDA BLVD, SUITE 118",
    "city": "MISSION HILLS",
    "zip": "91345",
    "county": "LOS ANGELES",
    "phone": "(805) 371-9988",
    "lat": 34.262451,
    "lng": -118.466865
  },
  {
    "id": "980001057",
    "name": "ASSISTED HOME CARE",
    "npi": "1033156765",
    "hcaiId": "406194162",
    "businessName": "ASSISTED HOME RECOVERY, INC.",
    "contactEmail": "TAULESTIA@ASSISTEDCARES.COM",
    "categoryName": "HOME HEALTH AGENCY",
    "categoryCode": "HHA",
    "licenseStatus": "ACTIVE",
    "inService": true,
    "licenseNumber": "980000571",
    "licenseEffectiveDate": "06/28/2025",
    "licenseExpirationDate": "06/27/2026",
    "dataDate": "10/18/2025",
    "capacity": 0,
    "address": "10550 SEPULVEDA BLVD, SUITE 116",
    "city": "MISSION HILLS",
    "zip": "91345",
    "county": "LOS ANGELES",
    "phone": "(805) 371-9980",
    "lat": 34.262451,
    "lng": -118.466865
  },
  {
    "id": "980001437",
    "name": "ASSISTED HOME HOSPICE",
    "npi": null,
    "hcaiId": "406196091",
    "businessName": "ASSISTED HOME CARE, INC.",
    "contactEmail": "EDONLEY@ASSISTED1.COM",
    "categoryName": "HOSPICE",
    "categoryCode": "HOSPICE",
    "licenseStatus": "ACTIVE",
    "inService": true,
    "licenseNumber": "980001295",
    "licenseEffectiveDate": "05/01/2024",
    "licenseExpirationDate": "04/30/2026",
    "dataDate": "10/18/2025",
    "capacity": 0,
    "address": "10550 SEPULVEDA BLVD, SUITE 101",
    "city": "MISSION HILLS",
    "zip": "91345",
    "county": "LOS ANGELES",
    "phone": "(805) 371-9980",
    "lat": 34.262451,
    "lng": -118.466865
  },
  {
    "id": "630017502",
    "name": "BE HEALTHY HOME HEALTH INC.",
    "npi": null,
    "hcaiId": "406192012",
    "businessName": "BE HEALTHY HOME HEALTH INC.",
    "contactEmail": "OFFICE@BEHEALTHYHH.COM",
    "categoryName": "HOME HEALTH AGENCY",
    "categoryCode": "HHA",
    "licenseStatus": "ACTIVE",
    "inService": true,
    "licenseNumber": "550004906",
    "licenseEffectiveDate": "09/10/2025",
    "licenseExpirationDate": "09/09/2026",
    "dataDate": "10/18/2025",
    "capacity": 0,
    "address": "10117 SEPULVEDA BLVD, SUITE 205A",
    "city": "MISSION HILLS",
    "zip": "91345",
    "county": "LOS ANGELES",
    "phone": "(818) 798-5530",
    "lat": 34.25423901,
    "lng": -118.467918
  },
  {
    "id": "630011287",
    "name": "BLUE SKY HOME HEALTH, INC.",
    "npi": null,
    "hcaiId": "406197098",
    "businessName": "BLUE SKY HOME HEALTH INC.",
    "contactEmail": "KORNEL@BLUESKYHH.COM",
    "categoryName": "HOME HEALTH AGENCY",
    "categoryCode": "HHA",
    "licenseStatus": "ACTIVE",
    "inService": true,
    "licenseNumber": "550000595",
    "licenseEffectiveDate": "06/23/2025",
    "licenseExpirationDate": "02/03/2026",
    "dataDate": "10/18/2025",
    "capacity": 0,
    "address": "15545 DEVONSHIRE ST, SUITE 206",
    "city": "MISSION HILLS",
    "zip": "91345",
    "county": "LOS ANGELES",
    "phone": "(818) 754-1000",
    "lat": 34.25767898,
    "lng": -118.471048
  },
  {
    "id": "630024665",
    "name": "CALIFORNIA STATE HOME HEALTH AGENCY, INC.",
    "npi": null,
    "hcaiId": "406195965",
    "businessName": "CALIFORNIA STATE HOME HEALTH AGENCY, INC.",
    "contactEmail": "INFO@CALIFORNIASTATEHH.COM",
    "categoryName": "HOME HEALTH AGENCY",
    "categoryCode": "HHA",
    "licenseStatus": "ACTIVE",
    "inService": true,
    "licenseNumber": "550008289",
    "licenseEffectiveDate": "03/27/2025",
    "licenseExpirationDate": "12/01/2025",
    "dataDate": "10/18/2025",
    "capacity": 0,
    "address": "15545 DEVONSHIRE ST, UNIT 204",
    "city": "MISSION HILLS",
    "zip": "91345",
    "county": "LOS ANGELES",
    "phone": "(310) 943-0033",
    "lat": 34.25767601,
    "lng": -118.4710934
  },
  {
    "id": "630026034",
    "name": "CARE WITH US HOME HEALTH INC",
    "npi": null,
    "hcaiId": "406190286",
    "businessName": "CARE WITH US HOME HEALTH INC",
    "contactEmail": "CAREWITHUSHH@GMAIL.COM",
    "categoryName": "HOME HEALTH AGENCY",
    "categoryCode": "HHA",
    "licenseStatus": "ACTIVE",
    "inService": true,
    "licenseNumber": "550009051",
    "licenseEffectiveDate": "04/01/2025",
    "licenseExpirationDate": "03/31/2026",
    "dataDate": "10/18/2025",
    "capacity": 0,
    "address": "10117 SEPULVEDA BLVD, SUITE 204",
    "city": "MISSION HILLS",
    "zip": "91345",
    "county": "LOS ANGELES",
    "phone": "(747) 528-5343",
    "lat": 34.254252,
    "lng": -118.467851
  },
  {
    "id": "630018506",
    "name": "CAREBRIDGE HOME HEALTH INC.",
    "npi": "1831752914",
    "hcaiId": "406192166",
    "businessName": "CAREBRIDGE HOME HEALTH INC.",
    "contactEmail": "CAREBRIDGEHOMEHEALTH@GMAIL.COM",
    "categoryName": "HOME HEALTH AGENCY",
    "categoryCode": "HHA",
    "licenseStatus": "ACTIVE",
    "inService": true,
    "licenseNumber": "550005156",
    "licenseEffectiveDate": "12/07/2023",
    "licenseExpirationDate": "12/06/2024",
    "dataDate": "10/18/2025",
    "capacity": 0,
    "address": "10117 SEPULVEDA BLVD, SUITE 102",
    "city": "MISSION HILLS",
    "zip": "91345",
    "county": "LOS ANGELES",
    "phone": "(818) 927-5205",
    "lat": 34.254216,
    "lng": -118.4677065
  },
  {
    "id": "630022425",
    "name": "CARING TOUCH HOME HEALTH, INC.",
    "npi": null,
    "hcaiId": "406195594",
    "businessName": "CARING TOUCH HOME HEALTH, INC.",
    "contactEmail": "CARINGTOUCH77@GMAIL.COM",
    "categoryName": "HOME HEALTH AGENCY",
    "categoryCode": "HHA",
    "licenseStatus": "ACTIVE",
    "inService": true,
    "licenseNumber": "550007416",
    "licenseEffectiveDate": "12/13/2024",
    "licenseExpirationDate": "12/12/2025",
    "dataDate": "10/18/2025",
    "capacity": 0,
    "address": "10117 SEPULVEDA BLVD, SUITE 203A",
    "city": "MISSION HILLS",
    "zip": "91345",
    "county": "LOS ANGELES",
    "phone": "(818) 850-5125",
    "lat": 34.254252,
    "lng": -118.467851
  },
  {
    "id": "630017741",
    "name": "COASTLINE HOME HEALTHCARE INC",
    "npi": null,
    "hcaiId": "406192048",
    "businessName": "COASTLINE HOME HEALTHCARE INC",
    "contactEmail": "CONTACT@COASTLINEHOMEHEALTH.COM",
    "categoryName": "HOME HEALTH AGENCY",
    "categoryCode": "HHA",
    "licenseStatus": "ACTIVE",
    "inService": true,
    "licenseNumber": "550005094",
    "licenseEffectiveDate": "11/02/2025",
    "licenseExpirationDate": "11/01/2026",
    "dataDate": "10/18/2025",
    "capacity": 0,
    "address": "10117 SEPULVEDA BLVD, SUITE 205B",
    "city": "MISSION HILLS",
    "zip": "91345",
    "county": "LOS ANGELES",
    "phone": "(323) 210-7569",
    "lat": 34.25423901,
    "lng": -118.467918
  },
  {
    "id": "630019317",
    "name": "COMFORT AID HOSPICE CARE CORPORATION",
    "npi": null,
    "hcaiId": "406192733",
    "businessName": "COMFORT AID HOSPICE CARE",
    "contactEmail": "COMFORTAID19@GMAIL.COM",
    "categoryName": "HOSPICE",
    "categoryCode": "HOSPICE",
    "licenseStatus": "ACTIVE",
    "inService": true,
    "licenseNumber": "550005517",
    "licenseEffectiveDate": "05/15/2024",
    "licenseExpirationDate": "05/14/2026",
    "dataDate": "10/18/2025",
    "capacity": 0,
    "address": "10200 SEPULVEDA BLVD, SUITE 160B",
    "city": "MISSION HILLS",
    "zip": "91345",
    "county": "LOS ANGELES",
    "phone": "(818) 539-0715",
    "lat": 34.25571,
    "lng": -118.4670315
  },
  {
    "id": "630026596",
    "name": "COMFORTING CARE HOME HEALTH SERVICES INC.",
    "npi": null,
    "hcaiId": null,
    "businessName": "COMFORTING CARE HOME HEALTH SERVICES INC.",
    "contactEmail": "COMFORTINGCAREHOMEHEALTH@GMAIL.COM",
    "categoryName": "HOME HEALTH AGENCY",
    "categoryCode": "HHA",
    "licenseStatus": "ACTIVE",
    "inService": true,
    "licenseNumber": "550009439",
    "licenseEffectiveDate": "09/24/2025",
    "licenseExpirationDate": "09/23/2026",
    "dataDate": "10/18/2025",
    "capacity": 0,
    "address": "15300 DEVONSHIRE ST, SUITE 101",
    "city": "MISSION HILLS",
    "zip": "91345",
    "county": "LOS ANGELES",
    "phone": "(818) 810-5452",
    "lat": 34.257105,
    "lng": -118.465317
  },
  {
    "id": "630026510",
    "name": "COMMUNITY HEALTHCARE SERVICES AT HOME, INC.",
    "npi": null,
    "hcaiId": null,
    "businessName": "COMMUNITY HEALTHCARE SERVICES AT HOME, INC.",
    "contactEmail": "COMMUNITYHOMEHEALTH2022@GMAIL.COM",
    "categoryName": "HOME HEALTH AGENCY",
    "categoryCode": "HHA",
    "licenseStatus": "ACTIVE",
    "inService": true,
    "licenseNumber": "550009810",
    "licenseEffectiveDate": "11/14/2025",
    "licenseExpirationDate": "05/13/2026",
    "dataDate": "10/18/2025",
    "capacity": 0,
    "address": "15549 DEVONSHIRE ST, SUITE 206",
    "city": "MISSION HILLS",
    "zip": "91345",
    "county": "LOS ANGELES",
    "phone": "(747) 295-5757",
    "lat": 34.2576,
    "lng": -118.4713335
  },
  {
    "id": "630018614",
    "name": "EASI HOME HEALTH CARE, INC.",
    "npi": "1154887206",
    "hcaiId": "406191730",
    "businessName": "EASI HOME HEALTH CARE, INC.",
    "contactEmail": "EHHCARE.INC@GMAIL.COM",
    "categoryName": "HOME HEALTH AGENCY",
    "categoryCode": "HHA",
    "licenseStatus": "ACTIVE",
    "inService": true,
    "licenseNumber": "550004772",
    "licenseEffectiveDate": "06/21/2025",
    "licenseExpirationDate": "06/20/2026",
    "dataDate": "10/18/2025",
    "capacity": 0,
    "address": "10640 SEPULVEDA BLVD, UNIT 3",
    "city": "MISSION HILLS",
    "zip": "91345",
    "county": "LOS ANGELES",
    "phone": "(818) 810-9061",
    "lat": 34.263808,
    "lng": -118.46688
  },
  {
    "id": "630025416",
    "name": "ENVY HOME HEALTH INC",
    "npi": null,
    "hcaiId": "406190288",
    "businessName": "ENVY HOME HEALTH INC.",
    "contactEmail": "ENVYHHI@GMAIL.COM",
    "categoryName": "HOME HEALTH AGENCY",
    "categoryCode": "HHA",
    "licenseStatus": "ACTIVE",
    "inService": true,
    "licenseNumber": "550008774",
    "licenseEffectiveDate": "10/04/2024",
    "licenseExpirationDate": "10/03/2025",
    "dataDate": "10/18/2025",
    "capacity": 0,
    "address": "10600 SEPULVEDA BLVD, SUITE 105-F",
    "city": "MISSION HILLS",
    "zip": "91345",
    "county": "LOS ANGELES",
    "phone": "(818) 230-2776",
    "lat": 34.263032,
    "lng": -118.466779
  },
  {
    "id": "630020593",
    "name": "EXCELLENT PALLIATIVE AND HOSPICE CARE, INC.",
    "npi": null,
    "hcaiId": "406196105",
    "businessName": "EXCELLENT PALLIATIVE AND HOSPICE CARE, INC.",
    "contactEmail": "JULS.EXCELLENTPALLIATIVE@GMAIL.COM",
    "categoryName": "HOSPICE",
    "categoryCode": "HOSPICE",
    "licenseStatus": "ACTIVE",
    "inService": true,
    "licenseNumber": "550007392",
    "licenseEffectiveDate": "12/03/2023",
    "licenseExpirationDate": "12/02/2025",
    "dataDate": "10/18/2025",
    "capacity": 0,
    "address": "10600 SEPULVEDA BLVD, SUITE 106",
    "city": "MISSION HILLS",
    "zip": "91345",
    "county": "LOS ANGELES",
    "phone": "(818) 403-6295",
    "lat": 34.263027,
    "lng": -118.466775
  },
  {
    "id": "630015464",
    "name": "FACEY ENDOSCOPY CENTER",
    "npi": "1194083824",
    "hcaiId": null,
    "businessName": null,
    "contactEmail": "JVANCE@SALEMGREEN.COM",
    "categoryName": "SURGICAL CLINIC",
    "categoryCode": "ASC",
    "licenseStatus": null,
    "inService": null,
    "licenseNumber": null,
    "licenseEffectiveDate": null,
    "licenseExpirationDate": null,
    "dataDate": "10/18/2025",
    "capacity": 0,
    "address": "11333 SEPULVED BLVD",
    "city": "MISSION HILLS",
    "zip": "91345",
    "county": "LOS ANGELES",
    "phone": "(818) 837-5776",
    "lat": 34.276743,
    "lng": -118.469133
  },
  {
    "id": "630027257",
    "name": "GOLDEN GROVE HOME CARE INC.",
    "npi": null,
    "hcaiId": null,
    "businessName": "GOLDEN GROVE HOME CARE INC.",
    "contactEmail": "GOLDENGROVEHCI2023@GMAIL.COM",
    "categoryName": "HOME HEALTH AGENCY",
    "categoryCode": "HHA",
    "licenseStatus": "ACTIVE",
    "inService": true,
    "licenseNumber": "550009847",
    "licenseEffectiveDate": "06/06/2025",
    "licenseExpirationDate": "12/05/2025",
    "dataDate": "10/18/2025",
    "capacity": 0,
    "address": "15545 DEVONSHIRE ST, SUITE 100C",
    "city": "MISSION HILLS",
    "zip": "91345",
    "county": "LOS ANGELES",
    "phone": "(818) 810-0211",
    "lat": 34.25767898,
    "lng": -118.471048
  },
  {
    "id": "630024146",
    "name": "HAVANA HOME HEALTH, INC",
    "npi": null,
    "hcaiId": "406196156",
    "businessName": "HAVANA HOME HEALTH, INC",
    "contactEmail": "HAVANAHOMEHEALTH@GMAIL.COM",
    "categoryName": "HOME HEALTH AGENCY",
    "categoryCode": "HHA",
    "licenseStatus": "ACTIVE",
    "inService": true,
    "licenseNumber": "550008220",
    "licenseEffectiveDate": "03/25/2025",
    "licenseExpirationDate": "05/02/2025",
    "dataDate": "10/18/2025",
    "capacity": 0,
    "address": "15435 DEVONSHIRE ST",
    "city": "MISSION HILLS",
    "zip": "91345",
    "county": "LOS ANGELES",
    "phone": "(818) 452-3330",
    "lat": 34.258186,
    "lng": -118.468421
  },
  {
    "id": "630019354",
    "name": "INSIGHT HOME HEALTH CARE, INC.",
    "npi": null,
    "hcaiId": "406194759",
    "businessName": "INSIGHT HOME HEALTH CARE, INC.",
    "contactEmail": "INFO@INSIGHTHOMEHEALTHCARE.COM",
    "categoryName": "HOME HEALTH AGENCY",
    "categoryCode": "HHA",
    "licenseStatus": "ACTIVE",
    "inService": true,
    "licenseNumber": "550005889",
    "licenseEffectiveDate": "12/04/2024",
    "licenseExpirationDate": "12/03/2025",
    "dataDate": "10/18/2025",
    "capacity": 0,
    "address": "15545 DEVONSHIRE ST, SUITE 311",
    "city": "MISSION HILLS",
    "zip": "91345",
    "county": "LOS ANGELES",
    "phone": "(818) 697-6217",
    "lat": 34.25767898,
    "lng": -118.471048
  },
  {
    "id": "630013397",
    "name": "KNA HOME HEALTH, INC",
    "npi": "1467734830",
    "hcaiId": "406197770",
    "businessName": "KNA HOME HEALTH, INC.",
    "contactEmail": "GSHAHNAZARYAN@KNAHOMEHEALTH.COM",
    "categoryName": "HOME HEALTH AGENCY",
    "categoryCode": "HHA",
    "licenseStatus": "ACTIVE",
    "inService": true,
    "licenseNumber": "550002098",
    "licenseEffectiveDate": "09/25/2024",
    "licenseExpirationDate": "09/24/2025",
    "dataDate": "10/18/2025",
    "capacity": 0,
    "address": "10117 SEPULVEDA BLVD, SUITE 201",
    "city": "MISSION HILLS",
    "zip": "91345",
    "county": "LOS ANGELES",
    "phone": "(818) 574-7855",
    "lat": 34.254252,
    "lng": -118.467851
  },
  {
    "id": "630024653",
    "name": "LGAM HOME HEALTH CARE INC.",
    "npi": null,
    "hcaiId": "406196855",
    "businessName": "LGAM HOME HEALTH CARE INC.",
    "contactEmail": "LGAMHHC@GMAIL.COM",
    "categoryName": "HOME HEALTH AGENCY",
    "categoryCode": "HHA",
    "licenseStatus": "ACTIVE",
    "inService": true,
    "licenseNumber": "550008384",
    "licenseEffectiveDate": "01/24/2025",
    "licenseExpirationDate": "01/23/2026",
    "dataDate": "10/18/2025",
    "capacity": 0,
    "address": "15300 DEVONSHIRE ST, SUITE 204",
    "city": "MISSION HILLS",
    "zip": "91345",
    "county": "LOS ANGELES",
    "phone": "(747) 236-4710",
    "lat": 34.257105,
    "lng": -118.465317
  },
  {
    "id": "630015857",
    "name": "LIVE-WELL ICF/DD-N",
    "npi": "1629466537",
    "hcaiId": null,
    "businessName": "LIVE-WELL ICF, INC.",
    "contactEmail": "LIVEWELL.ICF@GMAIL.COM",
    "categoryName": "INTERMEDIATE CARE FACILITY-DD/H/N/CN/IID",
    "categoryCode": "ICFDDN",
    "licenseStatus": "ACTIVE",
    "inService": true,
    "licenseNumber": "550003354",
    "licenseEffectiveDate": "12/16/2024",
    "licenseExpirationDate": "12/15/2025",
    "dataDate": "10/18/2025",
    "capacity": 6,
    "address": "11053 SHARP AVENUE",
    "city": "MISSION HILLS",
    "zip": "91345",
    "county": "LOS ANGELES",
    "phone": "(818) 639-6379",
    "lat": 34.2706402,
    "lng": -118.4499662
  },
  {
    "id": "630026262",
    "name": "LNC HOME HEALTH CARE SERVICES INC",
    "npi": null,
    "hcaiId": null,
    "businessName": "LNC HOME HEALTH CARE SERVICES INC",
    "contactEmail": "LNCHOMEHEALTH92@GMAIL.COM",
    "categoryName": "HOME HEALTH AGENCY",
    "categoryCode": "HHA",
    "licenseStatus": "ACTIVE",
    "inService": true,
    "licenseNumber": "550009120",
    "licenseEffectiveDate": "05/10/2025",
    "licenseExpirationDate": "05/09/2026",
    "dataDate": "10/18/2025",
    "capacity": 0,
    "address": "10117 SEPULVEDA BLVD, SUITE 201B",
    "city": "MISSION HILLS",
    "zip": "91345",
    "county": "LOS ANGELES",
    "phone": "(818) 536-7415",
    "lat": 34.254252,
    "lng": -118.467851
  },
  {
    "id": "630022130",
    "name": "MARVISTA HOSPICE CARE, INC.",
    "npi": null,
    "hcaiId": null,
    "businessName": "MARVISTA HOSPICE CARE, INC.",
    "contactEmail": "MARVISTAHOSPICECARE@YAHOO.COM",
    "categoryName": "HOSPICE",
    "categoryCode": "HOSPICE",
    "licenseStatus": "ACTIVE",
    "inService": true,
    "licenseNumber": "550007511",
    "licenseEffectiveDate": "12/08/2023",
    "licenseExpirationDate": "12/07/2025",
    "dataDate": "10/18/2025",
    "capacity": 0,
    "address": "15455 SAN FERNANDO MISSION BLVD, SUITE C309-A",
    "city": "MISSION HILLS",
    "zip": "91345",
    "county": "LOS ANGELES",
    "phone": "(747) 307-5567",
    "lat": 34.272252,
    "lng": -118.469115
  },
  {
    "id": "960002886",
    "name": "MISSION CITY COMMUNITY NETWORK - MISSION HILLS",
    "npi": null,
    "hcaiId": "306196884",
    "businessName": "MISSION CITY COMMUNITY NETWORK, INC.",
    "contactEmail": "NIKG@MOON.ORG",
    "categoryName": "PRIMARY CARE CLINIC",
    "categoryCode": "COMTYC",
    "licenseStatus": "ACTIVE",
    "inService": true,
    "licenseNumber": "960000465",
    "licenseEffectiveDate": "03/01/2025",
    "licenseExpirationDate": "02/28/2026",
    "dataDate": "10/18/2025",
    "capacity": 0,
    "address": "10200 SEPULVEDA BLVD, SUITE 300",
    "city": "MISSION HILLS",
    "zip": "91345",
    "county": "LOS ANGELES",
    "phone": "(818) 830-6373",
    "lat": 34.25571,
    "lng": -118.4670315
  },
  {
    "id": "930000457",
    "name": "MISSION HILLS DIALYSIS, LLC",
    "npi": "1821242470",
    "hcaiId": "306191424",
    "businessName": "MISSION HILLS DIALYSIS LLC",
    "contactEmail": "LILY@AMERICANRENALCARE.COM",
    "categoryName": "CHRONIC DIALYSIS CLINIC",
    "categoryCode": "ESRD/CDC",
    "licenseStatus": "ACTIVE",
    "inService": true,
    "licenseNumber": "930000378",
    "licenseEffectiveDate": "12/01/2024",
    "licenseExpirationDate": "11/30/2025",
    "dataDate": "10/18/2025",
    "capacity": 23,
    "address": "11550 INDIAN HILLS RD, SUITE 100",
    "city": "MISSION HILLS",
    "zip": "91345",
    "county": "LOS ANGELES",
    "phone": "(818) 903-3186",
    "lat": 34.280271,
    "lng": -118.458297
  },
  {
    "id": "630020419",
    "name": "NORTH VALLEY HOSPICE, INC.",
    "npi": null,
    "hcaiId": "406193759",
    "businessName": "NORTH VALLEY HOSPICE, INC.",
    "contactEmail": "NORTHVALLEYHOSPICE@GMAIL.COM",
    "categoryName": "HOSPICE",
    "categoryCode": "HOSPICE",
    "licenseStatus": "ACTIVE",
    "inService": true,
    "licenseNumber": "550006525",
    "licenseEffectiveDate": "07/08/2025",
    "licenseExpirationDate": "07/07/2027",
    "dataDate": "10/18/2025",
    "capacity": 0,
    "address": "15455 SAN FERNANDO MISSION BLVD, SUITE 103-A",
    "city": "MISSION HILLS",
    "zip": "91345",
    "county": "LOS ANGELES",
    "phone": "(818) 967-9255",
    "lat": 34.27225574,
    "lng": -118.4691431
  },
  {
    "id": "630026054",
    "name": "ONE DAY HOME HEALTH CARE INC.",
    "npi": null,
    "hcaiId": null,
    "businessName": "ONE DAY HOME HEALTH CARE INC.",
    "contactEmail": "ONEDAYHH92@GMAIL.COM",
    "categoryName": "HOME HEALTH AGENCY",
    "categoryCode": "HHA",
    "licenseStatus": "ACTIVE",
    "inService": true,
    "licenseNumber": "550009130",
    "licenseEffectiveDate": "05/10/2025",
    "licenseExpirationDate": "05/09/2026",
    "dataDate": "10/18/2025",
    "capacity": 0,
    "address": "10117 SEPULVEDA BLVD, SUITE 203D",
    "city": "MISSION HILLS",
    "zip": "91345",
    "county": "LOS ANGELES",
    "phone": "(747) 755-6859",
    "lat": 34.254252,
    "lng": -118.467851
  },
  {
    "id": "630011130",
    "name": "OPEN ARMS HOME HEALTH CARE, INC.",
    "npi": "1720201189",
    "hcaiId": "406196938",
    "businessName": "OPEN ARMS HOME HEALTH CARE, INC.",
    "contactEmail": "MARIZOPENARMS@GMAIL.COM",
    "categoryName": "HOME HEALTH AGENCY",
    "categoryCode": "HHA",
    "licenseStatus": "ACTIVE",
    "inService": true,
    "licenseNumber": "550000414",
    "licenseEffectiveDate": "01/20/2025",
    "licenseExpirationDate": "01/19/2026",
    "dataDate": "10/18/2025",
    "capacity": 0,
    "address": "10117 SEPULVEDA BLVD, SUITE 103",
    "city": "MISSION HILLS",
    "zip": "91345",
    "county": "LOS ANGELES",
    "phone": "(310) 645-5450",
    "lat": 34.254216,
    "lng": -118.4677065
  },
  {
    "id": "630012025",
    "name": "PREGNANCY COUNSELING CENTER",
    "npi": "1093976805",
    "hcaiId": "306196607",
    "businessName": "PREGNANCY COUNSELING CENTER",
    "contactEmail": "INFO@PREGNANTHELP4U.ORG",
    "categoryName": "PRIMARY CARE CLINIC",
    "categoryCode": "COMTYC",
    "licenseStatus": "ACTIVE",
    "inService": true,
    "licenseNumber": "550001155",
    "licenseEffectiveDate": "11/10/2025",
    "licenseExpirationDate": "11/09/2026",
    "dataDate": "10/18/2025",
    "capacity": 0,
    "address": "10211 SEPULVEDA BLVD",
    "city": "MISSION HILLS",
    "zip": "91345",
    "county": "LOS ANGELES",
    "phone": "(818) 895-2500",
    "lat": 34.255755,
    "lng": -118.467702
  },
  {
    "id": "630018045",
    "name": "PRIORITY CARE MEDICAL GROUP MISSION HILLS",
    "npi": null,
    "hcaiId": "306190544",
    "businessName": "CENTER FOR FAMILY HEALTH & EDUCATION, INC.",
    "contactEmail": "MRAMIREZ@CFFHAE.ORG",
    "categoryName": "PRIMARY CARE CLINIC",
    "categoryCode": "COMTYC",
    "licenseStatus": "ACTIVE",
    "inService": true,
    "licenseNumber": "550004642",
    "licenseEffectiveDate": "04/16/2025",
    "licenseExpirationDate": "04/15/2026",
    "dataDate": "10/18/2025",
    "capacity": 0,
    "address": "14901 RINALDI ST, SUITE 202",
    "city": "MISSION HILLS",
    "zip": "91345",
    "county": "LOS ANGELES",
    "phone": "(818) 361-7358",
    "lat": 34.279227,
    "lng": -118.4578605
  },
  {
    "id": "630018627",
    "name": "PRIORITY HOME HEALTH CARE, INC.",
    "npi": null,
    "hcaiId": "406191983",
    "businessName": "PRIORITY HOME HEALTH CARE, INC.",
    "contactEmail": "PRIORITYHHC19@GMAIL.COM",
    "categoryName": "HOME HEALTH AGENCY",
    "categoryCode": "HHA",
    "licenseStatus": "ACTIVE",
    "inService": true,
    "licenseNumber": "550004988",
    "licenseEffectiveDate": "10/04/2025",
    "licenseExpirationDate": "10/03/2026",
    "dataDate": "10/18/2025",
    "capacity": 0,
    "address": "10117 SEPULVEDA BLVD, SUITE 203C",
    "city": "MISSION HILLS",
    "zip": "91345",
    "county": "LOS ANGELES",
    "phone": "(818) 574-5083",
    "lat": 34.25423901,
    "lng": -118.467918
  },
  {
    "id": "930000066",
    "name": "PROVIDENCE HOLY CROSS MEDICAL CENTER",
    "npi": "1477587632",
    "hcaiId": "106190385",
    "businessName": "PROVIDENCE HEALTH SYSTEM - SOUTHERN CALIFORNIA",
    "contactEmail": "SHERIL.GARZON@PROVIDENCE.ORG",
    "categoryName": "GENERAL ACUTE CARE HOSPITAL",
    "categoryCode": "GACH",
    "licenseStatus": "ACTIVE",
    "inService": true,
    "licenseNumber": "930000404",
    "licenseEffectiveDate": "05/01/2025",
    "licenseExpirationDate": "04/30/2026",
    "dataDate": "10/18/2025",
    "capacity": 330,
    "address": "15031 RINALDI ST",
    "city": "MISSION HILLS",
    "zip": "91345",
    "county": "LOS ANGELES",
    "phone": "(818) 496-4452",
    "lat": 34.279182,
    "lng": -118.460286
  },
  {
    "id": "930000681",
    "name": "PROVIDENCE HOLY CROSS MEDICAL CENTER D/P SNF",
    "npi": "1750309837",
    "hcaiId": null,
    "businessName": "PROVIDENCE HEALTH SYSTEM - SOUTHERN CALIFORNIA",
    "contactEmail": "ANGIE.TORRES@PROVIDENCE.ORG",
    "categoryName": "SKILLED NURSING FACILITY",
    "categoryCode": "SNF",
    "licenseStatus": "ACTIVE",
    "inService": true,
    "licenseNumber": "930000404",
    "licenseEffectiveDate": "05/01/2025",
    "licenseExpirationDate": "04/30/2026",
    "dataDate": "10/18/2025",
    "capacity": 48,
    "address": "11600A INDIAN HILLS RD",
    "city": "MISSION HILLS",
    "zip": "91345",
    "county": "LOS ANGELES",
    "phone": "(818) 365-8051",
    "lat": 34.28104194,
    "lng": -118.4588158
  },
  {
    "id": "960002758",
    "name": "RAPID THERAPY INC.",
    "npi": null,
    "hcaiId": "306196546",
    "businessName": "RAPID THERAPY INC.",
    "contactEmail": "RAPIDTHERAPY1@GMAIL.COM",
    "categoryName": "REHABILITATION CLINIC",
    "categoryCode": "REHABC/CORF",
    "licenseStatus": "ACTIVE",
    "inService": true,
    "licenseNumber": "960001365",
    "licenseEffectiveDate": "01/07/2025",
    "licenseExpirationDate": "01/06/2026",
    "dataDate": "10/18/2025",
    "capacity": 0,
    "address": "14901 RINALDI ST, SUITE 335",
    "city": "MISSION HILLS",
    "zip": "91345",
    "county": "LOS ANGELES",
    "phone": "(818) 365-9690",
    "lat": 34.279227,
    "lng": -118.4578605
  },
  {
    "id": "630018650",
    "name": "RELIABLE HOME HEALTH INC",
    "npi": null,
    "hcaiId": "406192174",
    "businessName": "RELIABLE HOME HEALTH INC",
    "contactEmail": "RHHCARE.INC@GMAIL.COM",
    "categoryName": "HOME HEALTH AGENCY",
    "categoryCode": "HHA",
    "licenseStatus": "ACTIVE",
    "inService": true,
    "licenseNumber": "550005203",
    "licenseEffectiveDate": "12/20/2024",
    "licenseExpirationDate": "12/19/2025",
    "dataDate": "10/18/2025",
    "capacity": 0,
    "address": "10640 SEPULVEDA BLVD, UNIT 2",
    "city": "MISSION HILLS",
    "zip": "91345",
    "county": "LOS ANGELES",
    "phone": "(747) 529-4069",
    "lat": 34.263808,
    "lng": -118.46688
  },
  {
    "id": "630017035",
    "name": "SAN FERNANDO COMMUNITY HEALTH CENTER - MISSION HILLS",
    "npi": null,
    "hcaiId": null,
    "businessName": "SAN FERNANDO COMMUNITY HOSPITAL",
    "contactEmail": null,
    "categoryName": "PRIMARY CARE CLINIC",
    "categoryCode": "COMTYC",
    "licenseStatus": "ACTIVE",
    "inService": true,
    "licenseNumber": "550002923",
    "licenseEffectiveDate": "12/30/2024",
    "licenseExpirationDate": "12/29/2025",
    "dataDate": "10/18/2025",
    "capacity": 0,
    "address": "11134 SEPULVEDA BLVD, SUITE 110",
    "city": "MISSION HILLS",
    "zip": "91345",
    "county": "LOS ANGELES",
    "phone": null,
    "lat": 34.273026,
    "lng": -118.467378
  },
  {
    "id": "630020031",
    "name": "SERENITY ADHC",
    "npi": null,
    "hcaiId": null,
    "businessName": "SERENITY ADHC, INC.",
    "contactEmail": "SERENITYADHC@GMAIL.COM",
    "categoryName": "ADULT DAY HEALTH CARE",
    "categoryCode": "ADHC",
    "licenseStatus": "ACTIVE",
    "inService": true,
    "licenseNumber": "550005545",
    "licenseEffectiveDate": "06/18/2025",
    "licenseExpirationDate": "06/17/2026",
    "dataDate": "10/18/2025",
    "capacity": 0,
    "address": "10638 SEPULVEDA BLVD",
    "city": "MISSION HILLS",
    "zip": "91345",
    "county": "LOS ANGELES",
    "phone": "(818) 403-6238",
    "lat": 34.263783,
    "lng": -118.4669775
  },
  {
    "id": "630021191",
    "name": "SHORE LINE HOME HEALTH, INC.",
    "npi": null,
    "hcaiId": "406193215",
    "businessName": "SHORE LINE HOME HEALTH, INC.",
    "contactEmail": "SHORELINEHOMEHEALTH@GMAIL.COM",
    "categoryName": "HOME HEALTH AGENCY",
    "categoryCode": "HHA",
    "licenseStatus": "ACTIVE",
    "inService": true,
    "licenseNumber": "550007019",
    "licenseEffectiveDate": "10/13/2025",
    "licenseExpirationDate": "10/12/2026",
    "dataDate": "10/18/2025",
    "capacity": 0,
    "address": "10640 SEPULVEDA BLVD, UNIT 1",
    "city": "MISSION HILLS",
    "zip": "91345",
    "county": "LOS ANGELES",
    "phone": "(747) 217-1839",
    "lat": 34.26369998,
    "lng": -118.4672302
  },
  {
    "id": "630021381",
    "name": "SILVER PALM HOSPICE, INC.",
    "npi": null,
    "hcaiId": "406193651",
    "businessName": "SILVER PALM HOSPICE,INC.",
    "contactEmail": "SILVERPALMHOSPICE@YAHOO.COM",
    "categoryName": "HOSPICE",
    "categoryCode": "HOSPICE",
    "licenseStatus": "ACTIVE",
    "inService": true,
    "licenseNumber": "550006934",
    "licenseEffectiveDate": "10/07/2023",
    "licenseExpirationDate": "10/06/2025",
    "dataDate": "10/18/2025",
    "capacity": 0,
    "address": "10600 SEPULVEDA BLVD, SUITE 101",
    "city": "MISSION HILLS",
    "zip": "91345",
    "county": "LOS ANGELES",
    "phone": "(818) 369-7295",
    "lat": 34.263032,
    "lng": -118.466779
  },
  {
    "id": "630024039",
    "name": "SMART MEDICAL HOME HEALTH, INC",
    "npi": null,
    "hcaiId": "406195872",
    "businessName": "SMART MEDICAL HOME HEALTH, INC",
    "contactEmail": "SMARTMEDICALH@GMAIL.COM",
    "categoryName": "HOME HEALTH AGENCY",
    "categoryCode": "HHA",
    "licenseStatus": "ACTIVE",
    "inService": true,
    "licenseNumber": "550008031",
    "licenseEffectiveDate": "06/09/2025",
    "licenseExpirationDate": "06/08/2026",
    "dataDate": "10/18/2025",
    "capacity": 0,
    "address": "15300 DEVONSHIRE ST, SUITE 105",
    "city": "MISSION HILLS",
    "zip": "91345",
    "county": "LOS ANGELES",
    "phone": "(818) 818-6461",
    "lat": 34.257021,
    "lng": -118.465282
  },
  {
    "id": "630018378",
    "name": "SUPREME CARE GROUP",
    "npi": null,
    "hcaiId": "406192794",
    "businessName": "SUPREME CARE GROUP",
    "contactEmail": "SUPREMECAREGROUP@YAHOO.COM",
    "categoryName": "HOME HEALTH AGENCY",
    "categoryCode": "HHA",
    "licenseStatus": "ACTIVE",
    "inService": true,
    "licenseNumber": "550005633",
    "licenseEffectiveDate": "08/07/2025",
    "licenseExpirationDate": "08/06/2026",
    "dataDate": "10/18/2025",
    "capacity": 0,
    "address": "15455 SAN FERNANDO MISSION BLVD, SUITE 103B",
    "city": "MISSION HILLS",
    "zip": "91345",
    "county": "LOS ANGELES",
    "phone": "(747) 246-4390",
    "lat": 34.27226002,
    "lng": -118.469138
  },
  {
    "id": "630026053",
    "name": "TOTAL CARE HEALTHCARE SERVICES INC",
    "npi": null,
    "hcaiId": "406190349",
    "businessName": "TOTAL CARE HEALTHCARE SERVICES INC",
    "contactEmail": "TOTALCAREHH92@GMAIL.COM",
    "categoryName": "HOME HEALTH AGENCY",
    "categoryCode": "HHA",
    "licenseStatus": "ACTIVE",
    "inService": true,
    "licenseNumber": "550009075",
    "licenseEffectiveDate": "04/15/2025",
    "licenseExpirationDate": "04/14/2026",
    "dataDate": "10/18/2025",
    "capacity": 0,
    "address": "10117 SEPULVEDA BLVD, SUITE 203B",
    "city": "MISSION HILLS",
    "zip": "91345",
    "county": "LOS ANGELES",
    "phone": "(747) 998-2869",
    "lat": 34.254252,
    "lng": -118.467851
  },
  {
    "id": "630026199",
    "name": "TOTAL CARE HOME HEALTH INC",
    "npi": null,
    "hcaiId": null,
    "businessName": "TOTAL CARE HOME HEALTH INC",
    "contactEmail": "TOTALCAREHH1991@YAHOO.COM",
    "categoryName": "HOME HEALTH AGENCY",
    "categoryCode": "HHA",
    "licenseStatus": "ACTIVE",
    "inService": true,
    "licenseNumber": "550009240",
    "licenseEffectiveDate": "07/12/2025",
    "licenseExpirationDate": "07/11/2026",
    "dataDate": "10/18/2025",
    "capacity": 0,
    "address": "10117 SEPULVEDA BLVD, SUITE 206",
    "city": "MISSION HILLS",
    "zip": "91345",
    "county": "LOS ANGELES",
    "phone": "(818) 475-6022",
    "lat": 34.254252,
    "lng": -118.467851
  },
  {
    "id": "630026035",
    "name": "VALLEY CARE HEALTHCARE SERVICES INC",
    "npi": null,
    "hcaiId": null,
    "businessName": "VALLEY CARE HEALTHCARE SERVICES INC",
    "contactEmail": "VALLEYCAREHH95@GMAIL.COM",
    "categoryName": "HOME HEALTH AGENCY",
    "categoryCode": "HHA",
    "licenseStatus": "ACTIVE",
    "inService": true,
    "licenseNumber": "550009058",
    "licenseEffectiveDate": "04/05/2025",
    "licenseExpirationDate": "04/04/2026",
    "dataDate": "10/18/2025",
    "capacity": 0,
    "address": "10117 SEPULVEDA BLVD, SUITE 203E",
    "city": "MISSION HILLS",
    "zip": "91345",
    "county": "LOS ANGELES",
    "phone": "(747) 755-5325",
    "lat": 34.254252,
    "lng": -118.467851
  },
  {
    "id": "630014126",
    "name": "VISTA CARE HOME INC.",
    "npi": null,
    "hcaiId": "206197930",
    "businessName": "VISTA CARE HOME INC.",
    "contactEmail": "VISTACAREHOME1001@GMAIL.COM",
    "categoryName": "CONGREGATE LIVING HEALTH FACILITY",
    "categoryCode": "CLHF",
    "licenseStatus": "ACTIVE",
    "inService": true,
    "licenseNumber": "550002566",
    "licenseEffectiveDate": "12/06/2023",
    "licenseExpirationDate": "12/05/2024",
    "dataDate": "10/18/2025",
    "capacity": 6,
    "address": "10949 BURNET AVE",
    "city": "MISSION HILLS",
    "zip": "91345",
    "county": "LOS ANGELES",
    "phone": "(626) 807-5003",
    "lat": 34.268598,
    "lng": -118.461456
  },
  {
    "id": "630018553",
    "name": "WEST COAST CONGREGATE, INC",
    "npi": null,
    "hcaiId": "206190241",
    "businessName": "WEST COAST CONGREGATE, INC.",
    "contactEmail": "INFO@WESTCOASTCONGREGATE.COM",
    "categoryName": "CONGREGATE LIVING HEALTH FACILITY",
    "categoryCode": "CLHF",
    "licenseStatus": "ACTIVE",
    "inService": true,
    "licenseNumber": "550005421",
    "licenseEffectiveDate": "03/27/2025",
    "licenseExpirationDate": "03/26/2026",
    "dataDate": "10/18/2025",
    "capacity": 6,
    "address": "14905 SANDRA ST",
    "city": "MISSION HILLS",
    "zip": "91345",
    "county": "LOS ANGELES",
    "phone": "(818) 698-4557",
    "lat": 34.270866,
    "lng": -118.456947
  },
  {
    "id": "630027930",
    "name": "WESTCOAST HEALTHCARE SERVICES INC",
    "npi": null,
    "hcaiId": null,
    "businessName": "WESTCOAST HEALTHCARE SERVICES INC",
    "contactEmail": "OFFICE@WCHOMEHEALTH.COM",
    "categoryName": "HOME HEALTH AGENCY",
    "categoryCode": "HHA",
    "licenseStatus": "ACTIVE",
    "inService": true,
    "licenseNumber": "550009818",
    "licenseEffectiveDate": "11/15/2025",
    "licenseExpirationDate": "05/14/2026",
    "dataDate": "10/18/2025",
    "capacity": 0,
    "address": "10117 SEPULVEDA BLVD, SUITE 201D",
    "city": "MISSION HILLS",
    "zip": "91345",
    "county": "LOS ANGELES",
    "phone": "(818) 358-8841",
    "lat": 34.25423901,
    "lng": -118.467918
  }
]