[
  {
    "id": "630007723",
    "name": "ACCESS TLC HOME HEALTH CARE",
    "npi": "1619045176",
    "hcaiId": "406196792",
    "businessName": "VITAL PLUS HOME HEALTH CARE",
    "contactEmail": "SHELLEY@ACCESSTLC.COM",
    "categoryName": "HOME HEALTH AGENCY",
    "categoryCode": "HHA",
    "licenseStatus": "ACTIVE",
    "inService": true,
    "licenseNumber": "550000243",
    "licenseEffectiveDate": "03/22/2025",
    "licenseExpirationDate": "03/21/2026",
    "dataDate": "10/18/2025",
    "capacity": 0,
    "address": "1051 N MACLAY AVE",
    "city": "SAN FERNANDO",
    "zip": "91340",
    "county": "ALAMEDA",
    "phone": "(818) 551-1900",
    "lat": 34.29477,
    "lng": -118.4260905
  },
  {
    "id": "630019595",
    "name": "ALIGN HOSPICE CARE, INC.",
    "npi": null,
    "hcaiId": "406195151",
    "businessName": "ALIGN HOSPICE CARE, INC.",
    "contactEmail": "ALIGNHOSPICECARE@OUTLOOK.COM",
    "categoryName": "HOSPICE",
    "categoryCode": "HOSPICE",
    "licenseStatus": "ACTIVE",
    "inService": true,
    "licenseNumber": "550007484",
    "licenseEffectiveDate": "11/30/2023",
    "licenseExpirationDate": "11/29/2025",
    "dataDate": "10/18/2025",
    "capacity": 0,
    "address": "601 S BRAND BLVD, SUITE 308",
    "city": "SAN FERNANDO",
    "zip": "91340",
    "county": "ALAMEDA",
    "phone": "(818) 617-0204",
    "lat": 34.278741,
    "lng": -118.444374
  },
  {
    "id": "630021516",
    "name": "ALLEVIATE HOSPICE CARE, INC",
    "npi": null,
    "hcaiId": "406193430",
    "businessName": "ALLEVIATE HOSPICE CARE, INC",
    "contactEmail": "ALLEVIATEHOSPICECAREINC@GMAIL.COM",
    "categoryName": "HOSPICE",
    "categoryCode": "HOSPICE",
    "licenseStatus": "ACTIVE",
    "inService": true,
    "licenseNumber": "550006702",
    "licenseEffectiveDate": "08/23/2025",
    "licenseExpirationDate": "08/22/2027",
    "dataDate": "10/18/2025",
    "capacity": 0,
    "address": "11565 LAUREL CANYON BLVD, UNIT 218",
    "city": "SAN FERNANDO",
    "zip": "91340",
    "county": "ALAMEDA",
    "phone": "(818) 433-4558",
    "lat": 34.28006902,
    "lng": -118.455074
  },
  {
    "id": "630019242",
    "name": "ALPHA PLUS HOSPICE",
    "npi": null,
    "hcaiId": "406192232",
    "businessName": "ALPHA PLUS HOSPICE",
    "contactEmail": "ALPHAPLUSHOSPICE@YAHOO.COM",
    "categoryName": "HOSPICE",
    "categoryCode": "HOSPICE",
    "licenseStatus": "ACTIVE",
    "inService": true,
    "licenseNumber": "550005225",
    "licenseEffectiveDate": "01/18/2022",
    "licenseExpirationDate": "01/17/2024",
    "dataDate": "10/18/2025",
    "capacity": 0,
    "address": "1102 SAN FERNANDO RD, SUITE 205",
    "city": "SAN FERNANDO",
    "zip": "91340",
    "county": "LOS ANGELES",
    "phone": "(818) 433-4405",
    "lat": 34.28298831,
    "lng": -118.4418325
  },
  {
    "id": "630023877",
    "name": "AREV HOME HEALTH INC",
    "npi": null,
    "hcaiId": "406195420",
    "businessName": "AREV HOME HEALTH INC",
    "contactEmail": "AREVHHCA@GMAIL.COM",
    "categoryName": "HOME HEALTH AGENCY",
    "categoryCode": "HHA",
    "licenseStatus": "ACTIVE",
    "inService": true,
    "licenseNumber": "550008029",
    "licenseEffectiveDate": "06/06/2025",
    "licenseExpirationDate": "06/05/2026",
    "dataDate": "10/18/2025",
    "capacity": 0,
    "address": "11565 LAUREL CANYON BLVD, SUITE 201",
    "city": "SAN FERNANDO",
    "zip": "91340",
    "county": "ALAMEDA",
    "phone": "(310) 594-7302",
    "lat": 34.280064,
    "lng": -118.455147
  },
  {
    "id": "630014355",
    "name": "ARMING HOME HEALTH, INC.",
    "npi": "1215370739",
    "hcaiId": "406197986",
    "businessName": "ARMING HOME HEALTH, INC.",
    "contactEmail": "ARMINGHOMEHEALTH@GMAIL.COM",
    "categoryName": "HOME HEALTH AGENCY",
    "categoryCode": "HHA",
    "licenseStatus": "ACTIVE",
    "inService": true,
    "licenseNumber": "550002668",
    "licenseEffectiveDate": "04/29/2025",
    "licenseExpirationDate": "04/28/2026",
    "dataDate": "10/18/2025",
    "capacity": 0,
    "address": "11565 LAUREL CANYON BLVD, SUITE 204",
    "city": "SAN FERNANDO",
    "zip": "91340",
    "county": "LOS ANGELES",
    "phone": "(818) 361-4000",
    "lat": 34.280064,
    "lng": -118.455147
  },
  {
    "id": "630019000",
    "name": "ARNEMETIA HOME HEALTH, INC.",
    "npi": null,
    "hcaiId": "406192703",
    "businessName": "ARNEMETIA HOME HEALTH, INC.",
    "contactEmail": "ARNEMETIAHH@YAHOO.COM",
    "categoryName": "HOME HEALTH AGENCY",
    "categoryCode": "HHA",
    "licenseStatus": "ACTIVE",
    "inService": true,
    "licenseNumber": "550005541",
    "licenseEffectiveDate": "05/29/2025",
    "licenseExpirationDate": "05/28/2026",
    "dataDate": "10/18/2025",
    "capacity": 0,
    "address": "224 N MACLAY AVE, UNIT 8",
    "city": "SAN FERNANDO",
    "zip": "91340",
    "county": "ALAMEDA",
    "phone": "(626) 427-0800",
    "lat": 34.28519079,
    "lng": -118.4386174
  },
  {
    "id": "630018589",
    "name": "ASTRA HOME HEALTH CARE INC.",
    "npi": null,
    "hcaiId": "406192679",
    "businessName": "ASTRA HOME HEALTH CARE INC.",
    "contactEmail": "ASTRAHOMEHEALTHCARE@YAHOO.COM",
    "categoryName": "HOME HEALTH AGENCY",
    "categoryCode": "HHA",
    "licenseStatus": "ACTIVE",
    "inService": true,
    "licenseNumber": "550005589",
    "licenseEffectiveDate": "11/12/2025",
    "licenseExpirationDate": "07/20/2026",
    "dataDate": "10/18/2025",
    "capacity": 0,
    "address": "11565 LAUREL CANYON BLVD, SUITE 116",
    "city": "SAN FERNANDO",
    "zip": "91340",
    "county": "LOS ANGELES",
    "phone": "(818) 478-8090",
    "lat": 34.280064,
    "lng": -118.4550795
  },
  {
    "id": "980002280",
    "name": "DEDICATED HOME HEALTH CARE",
    "npi": null,
    "hcaiId": "406196656",
    "businessName": "JOBET CORPORATION",
    "contactEmail": "IVAN@DEDICATEDHHC.COM",
    "categoryName": "HOME HEALTH AGENCY",
    "categoryCode": "HHA",
    "licenseStatus": "ACTIVE",
    "inService": true,
    "licenseNumber": "980001394",
    "licenseEffectiveDate": "04/08/2024",
    "licenseExpirationDate": "04/07/2025",
    "dataDate": "10/18/2025",
    "capacity": 0,
    "address": "601 S BRAND BLVD, SUITE 312",
    "city": "SAN FERNANDO",
    "zip": "91340",
    "county": "LOS ANGELES",
    "phone": "(818) 548-2684",
    "lat": 34.2787322,
    "lng": -118.4465767
  },
  {
    "id": "630018389",
    "name": "FAST CARE HOME HEALTH INC",
    "npi": null,
    "hcaiId": "406192160",
    "businessName": "FAST CARE HOME HEALTH INC",
    "contactEmail": "FASTCARE.HH@GMAIL.COM",
    "categoryName": "HOME HEALTH AGENCY",
    "categoryCode": "HHA",
    "licenseStatus": "ACTIVE",
    "inService": true,
    "licenseNumber": "550004853",
    "licenseEffectiveDate": "08/10/2025",
    "licenseExpirationDate": "08/09/2026",
    "dataDate": "10/18/2025",
    "capacity": 0,
    "address": "820 SAN FERNANDO RD, SUITE 205",
    "city": "SAN FERNANDO",
    "zip": "91340",
    "county": "LOS ANGELES",
    "phone": "(818) 813-5550",
    "lat": 34.2810468,
    "lng": -118.442165
  },
  {
    "id": "930001816",
    "name": "FRESENIUS MEDICAL CARE OF SAN FERNANDO",
    "npi": "1871605675",
    "hcaiId": "306196545",
    "businessName": "BIO-MEDICAL APPLICATIONS OF CALIFORNIA, INC.",
    "contactEmail": "CLINIC3102@FMC-NA.COM",
    "categoryName": "CHRONIC DIALYSIS CLINIC",
    "categoryCode": "ESRD/CDC",
    "licenseStatus": "ACTIVE",
    "inService": true,
    "licenseNumber": "930001002",
    "licenseEffectiveDate": "12/19/2024",
    "licenseExpirationDate": "12/18/2025",
    "dataDate": "10/18/2025",
    "capacity": 25,
    "address": "451 S BRAND BLVD, SUITE 100",
    "city": "SAN FERNANDO",
    "zip": "91340",
    "county": "LOS ANGELES",
    "phone": "(818) 837-9980",
    "lat": 34.27999351,
    "lng": -118.4423
  },
  {
    "id": "630027709",
    "name": "MOBILE HEALTH CENTER",
    "npi": "1629079009",
    "hcaiId": null,
    "businessName": "NORTHEAST VALLEY HEALTH CORPORATION",
    "contactEmail": null,
    "categoryName": "PRIMARY CARE CLINIC",
    "categoryCode": "COMTYC",
    "licenseStatus": "ACTIVE",
    "inService": true,
    "licenseNumber": "960000947",
    "licenseEffectiveDate": "05/09/2025",
    "licenseExpirationDate": "05/08/2026",
    "dataDate": "10/18/2025",
    "capacity": 0,
    "address": "1172 N MACLAY AVE",
    "city": "SAN FERNANDO",
    "zip": "91340",
    "county": "ALAMEDA",
    "phone": null,
    "lat": 34.295518,
    "lng": -118.423797
  },
  {
    "id": "960000192",
    "name": "NORTHEAST VALLEY HEALTH CORPORATION",
    "npi": null,
    "hcaiId": "306190567",
    "businessName": "NORTHEAST VALLEY HEALTH CORP-NONPROFIT CORPORATION",
    "contactEmail": "BRENDASMITH@NEVHC.ORG",
    "categoryName": "PRIMARY CARE CLINIC",
    "categoryCode": "COMTYC",
    "licenseStatus": "ACTIVE",
    "inService": true,
    "licenseNumber": "960000124",
    "licenseEffectiveDate": "11/01/2025",
    "licenseExpirationDate": "10/31/2026",
    "dataDate": "10/18/2025",
    "capacity": 0,
    "address": "1600 SAN FERNANDO RD, BUILDING C",
    "city": "SAN FERNANDO",
    "zip": "91340",
    "county": "LOS ANGELES",
    "phone": "(818) 365-8086",
    "lat": 34.288767,
    "lng": -118.44846
  },
  {
    "id": "630013311",
    "name": "NORTHRIDGE",
    "npi": "1730479072",
    "hcaiId": null,
    "businessName": null,
    "contactEmail": null,
    "categoryName": "CHRONIC DIALYSIS CLINIC",
    "categoryCode": "ESRD",
    "licenseStatus": null,
    "inService": null,
    "licenseNumber": null,
    "licenseEffectiveDate": null,
    "licenseExpirationDate": null,
    "dataDate": "10/18/2025",
    "capacity": 0,
    "address": "501 SOUTH BRAND BOULEVARD, SUITE 1",
    "city": "SAN FERNANDO",
    "zip": "91340",
    "county": "LOS ANGELES",
    "phone": "(818) 365-5270",
    "lat": 34.279632,
    "lng": -118.4430735
  },
  {
    "id": "630014524",
    "name": "PREFERRED CARE HOSPICE, INC.",
    "npi": "1396186441",
    "hcaiId": "406198390",
    "businessName": "PREFERRED CARE HOSPICE, INC.",
    "contactEmail": "GEORGE@PCHOSPICE.COM",
    "categoryName": "HOSPICE",
    "categoryCode": "HOSPICE",
    "licenseStatus": "ACTIVE",
    "inService": true,
    "licenseNumber": "550002933",
    "licenseEffectiveDate": "12/22/2022",
    "licenseExpirationDate": "12/21/2024",
    "dataDate": "10/18/2025",
    "capacity": 0,
    "address": "11565 LAUREL CANYON BLVD, SUITE 202",
    "city": "SAN FERNANDO",
    "zip": "91340",
    "county": "LOS ANGELES",
    "phone": "(818) 837-1000",
    "lat": 34.280064,
    "lng": -118.455147
  },
  {
    "id": "630014653",
    "name": "RELIANCE HOSPICE SERVICES, INC.",
    "npi": null,
    "hcaiId": "406198333",
    "businessName": "RELIANCE HOSPICE SERVICES, INC.",
    "contactEmail": "IVAN@RELIANCECARES.COM",
    "categoryName": "HOSPICE",
    "categoryCode": "HOSPICE",
    "licenseStatus": "ACTIVE",
    "inService": true,
    "licenseNumber": "550002934",
    "licenseEffectiveDate": "12/04/2022",
    "licenseExpirationDate": "12/03/2024",
    "dataDate": "10/18/2025",
    "capacity": 0,
    "address": "601 S BRAND BLVD, SUITE 311",
    "city": "SAN FERNANDO",
    "zip": "91340",
    "county": "LOS ANGELES",
    "phone": "(818) 433-3624",
    "lat": 34.278741,
    "lng": -118.444374
  },
  {
    "id": "630011556",
    "name": "RINALDI HOME HEALTH CARE, INC.",
    "npi": "1306034541",
    "hcaiId": "406197276",
    "businessName": "RINALDI HOME HEALTH CARE, INC.",
    "contactEmail": "RINALDIHHC@YAHOO.COM",
    "categoryName": "HOME HEALTH AGENCY",
    "categoryCode": "HHA",
    "licenseStatus": "ACTIVE",
    "inService": true,
    "licenseNumber": "550001090",
    "licenseEffectiveDate": "04/03/2025",
    "licenseExpirationDate": "04/02/2026",
    "dataDate": "10/18/2025",
    "capacity": 0,
    "address": "11565 LAUREL CANYON BLVD, SUITE 207",
    "city": "SAN FERNANDO",
    "zip": "91340",
    "county": "LOS ANGELES",
    "phone": "(818) 898-1100",
    "lat": 34.280064,
    "lng": -118.455147
  },
  {
    "id": "630022023",
    "name": "RINALDI SENIOR CARE, INC",
    "npi": null,
    "hcaiId": "406195858",
    "businessName": "RINALDI SENIOR CARE, INC",
    "contactEmail": "INFO@RINALDISENIORCARE.COM",
    "categoryName": "HOME HEALTH AGENCY",
    "categoryCode": "HHA",
    "licenseStatus": "ACTIVE",
    "inService": true,
    "licenseNumber": "550008013",
    "licenseEffectiveDate": "05/31/2025",
    "licenseExpirationDate": "05/30/2026",
    "dataDate": "10/18/2025",
    "capacity": 0,
    "address": "11565 LAUREL CANYON BLVD, SUITE 200",
    "city": "SAN FERNANDO",
    "zip": "91340",
    "county": "LOS ANGELES",
    "phone": "(818) 722-3404",
    "lat": 34.27991486,
    "lng": -118.4546921
  },
  {
    "id": "630024136",
    "name": "SALUD HOME HEALTH CARE, INC",
    "npi": null,
    "hcaiId": "406195496",
    "businessName": "SALUD HOME HEALTH CARE, INC",
    "contactEmail": "SALUDHOMEHEALTHCARE@GMAIL.COM",
    "categoryName": "HOME HEALTH AGENCY",
    "categoryCode": "HHA",
    "licenseStatus": "ACTIVE",
    "inService": true,
    "licenseNumber": "550008135",
    "licenseEffectiveDate": "08/18/2025",
    "licenseExpirationDate": "08/17/2026",
    "dataDate": "10/18/2025",
    "capacity": 0,
    "address": "11565 LAUREL CANYON BLVD, SUITE 104",
    "city": "SAN FERNANDO",
    "zip": "91340",
    "county": "ALAMEDA",
    "phone": "(747) 296-7995",
    "lat": 34.28006902,
    "lng": -118.455074
  },
  {
    "id": "630015221",
    "name": "SAN FERNANDO COMMUNITY HEALTH CENTER",
    "npi": null,
    "hcaiId": "306197981",
    "businessName": "SAN FERNANDO COMMUNITY HOSPITAL",
    "contactEmail": "ASIMONS@SFCHEALTHCENTER.ORG",
    "categoryName": "PRIMARY CARE CLINIC",
    "categoryCode": "COMTYC",
    "licenseStatus": "ACTIVE",
    "inService": true,
    "licenseNumber": "550002923",
    "licenseEffectiveDate": "12/30/2024",
    "licenseExpirationDate": "12/29/2025",
    "dataDate": "10/18/2025",
    "capacity": 0,
    "address": "732 MOTT ST, SUITE 100/110",
    "city": "SAN FERNANDO",
    "zip": "91340",
    "county": "LOS ANGELES",
    "phone": "(818) 963-5690",
    "lat": 34.276383,
    "lng": -118.444554
  },
  {
    "id": "630018561",
    "name": "SAN FERNANDO HEALTH CENTER",
    "npi": null,
    "hcaiId": null,
    "businessName": "NORTHEAST VALLEY HEALTH CORP-NONPROFIT CORPORATION",
    "contactEmail": null,
    "categoryName": "PRIMARY CARE CLINIC",
    "categoryCode": "COMTYC",
    "licenseStatus": "ACTIVE",
    "inService": true,
    "licenseNumber": "960000124",
    "licenseEffectiveDate": "11/01/2025",
    "licenseExpirationDate": "10/31/2026",
    "dataDate": "10/18/2025",
    "capacity": 0,
    "address": "1600 SAN FERNANDO RD, BUILDING A",
    "city": "SAN FERNANDO",
    "zip": "91340",
    "county": "LOS ANGELES",
    "phone": null,
    "lat": 34.288767,
    "lng": -118.44846
  },
  {
    "id": "630018562",
    "name": "SAN FERNANDO HEALTH CENTER",
    "npi": null,
    "hcaiId": null,
    "businessName": "NORTHEAST VALLEY HEALTH CORP-NONPROFIT CORPORATION",
    "contactEmail": null,
    "categoryName": "PRIMARY CARE CLINIC",
    "categoryCode": "COMTYC",
    "licenseStatus": "ACTIVE",
    "inService": true,
    "licenseNumber": "960000124",
    "licenseEffectiveDate": "11/01/2025",
    "licenseExpirationDate": "10/31/2026",
    "dataDate": "10/18/2025",
    "capacity": 0,
    "address": "1600 SAN FERNANDO RD, BUILDING B",
    "city": "SAN FERNANDO",
    "zip": "91340",
    "county": "LOS ANGELES",
    "phone": null,
    "lat": 34.288767,
    "lng": -118.44846
  },
  {
    "id": "960000572",
    "name": "SAN FERNANDO HIGH SCHOOL TEEN HEALTH CENTER",
    "npi": null,
    "hcaiId": "306198057",
    "businessName": "NORTHEAST VALLEY HEALTH CORPORATION",
    "contactEmail": "LILYGARCIA@NEVHC.ORG",
    "categoryName": "PRIMARY CARE CLINIC",
    "categoryCode": "COMTYC",
    "licenseStatus": "ACTIVE",
    "inService": true,
    "licenseNumber": "550000755",
    "licenseEffectiveDate": "04/17/2025",
    "licenseExpirationDate": "04/16/2026",
    "dataDate": "10/18/2025",
    "capacity": 0,
    "address": "11051 NORTH O'MELVENY AVE",
    "city": "SAN FERNANDO",
    "zip": "91340",
    "county": "LOS ANGELES",
    "phone": "(818) 365-7517",
    "lat": 34.27102143,
    "lng": -118.4406629
  },
  {
    "id": "630021519",
    "name": "TRI CITY HOSPICE, INC",
    "npi": null,
    "hcaiId": "406193292",
    "businessName": "TRI CITY HOSPICE, INC",
    "contactEmail": "TRICITYHOSPICEINC@GMAIL.COM",
    "categoryName": "HOSPICE",
    "categoryCode": "HOSPICE",
    "licenseStatus": "ACTIVE",
    "inService": true,
    "licenseNumber": "550007167",
    "licenseEffectiveDate": "09/09/2025",
    "licenseExpirationDate": "11/10/2025",
    "dataDate": "10/18/2025",
    "capacity": 0,
    "address": "11565 LAUREL CANYON BLVD, SUITE 212",
    "city": "SAN FERNANDO",
    "zip": "91340",
    "county": "LOS ANGELES",
    "phone": "(818) 433-4524",
    "lat": 34.28023866,
    "lng": -118.4550242
  },
  {
    "id": "630027314",
    "name": "TRI-STATE COMMUNITY HEALTHCARE CENTER- ADELANTO 3",
    "npi": null,
    "hcaiId": null,
    "businessName": "TRI - STATE COMMUNITY HEALTHCARE CENTER",
    "contactEmail": null,
    "categoryName": "PRIMARY CARE CLINIC",
    "categoryCode": "COMTYC",
    "licenseStatus": "ACTIVE",
    "inService": true,
    "licenseNumber": "550004322",
    "licenseEffectiveDate": "08/09/2025",
    "licenseExpirationDate": "08/08/2026",
    "dataDate": "10/18/2025",
    "capacity": 0,
    "address": "11273 LAUREL CANYON BLVD, SUITE 2",
    "city": "SAN FERNANDO",
    "zip": "91340",
    "county": "ALAMEDA",
    "phone": null,
    "lat": 34.27473402,
    "lng": -118.449768
  },
  {
    "id": "630020815",
    "name": "VAN NUYS HOSPICE, INC.",
    "npi": null,
    "hcaiId": "406196169",
    "businessName": "VAN NUYS HOSPICE, INC.",
    "contactEmail": "VANNUYSHOSPICEINC@GMAIL.COM",
    "categoryName": "HOSPICE",
    "categoryCode": "HOSPICE",
    "licenseStatus": "ACTIVE",
    "inService": true,
    "licenseNumber": "550006346",
    "licenseEffectiveDate": "05/27/2023",
    "licenseExpirationDate": "05/26/2025",
    "dataDate": "10/18/2025",
    "capacity": 0,
    "address": "1102 SAN FERNANDO RD, SUITE 209",
    "city": "SAN FERNANDO",
    "zip": "91340",
    "county": "LOS ANGELES",
    "phone": "(818) 813-8159",
    "lat": 34.28298831,
    "lng": -118.4418325
  },
  {
    "id": "630016898",
    "name": "VESTA HOME HEALTH CARE",
    "npi": "1124492970",
    "hcaiId": "406191305",
    "businessName": "VESTA HOME HEALTH CARE",
    "contactEmail": "VESTAHHC@GMAIL.COM",
    "categoryName": "HOME HEALTH AGENCY",
    "categoryCode": "HHA",
    "licenseStatus": "ACTIVE",
    "inService": true,
    "licenseNumber": "550004154",
    "licenseEffectiveDate": "03/02/2025",
    "licenseExpirationDate": "03/01/2026",
    "dataDate": "10/18/2025",
    "capacity": 0,
    "address": "512 S.BRAND BLVD., SUITE 204",
    "city": "SAN FERNANDO",
    "zip": "91340",
    "county": "LOS ANGELES",
    "phone": "(747) 253-7579",
    "lat": 34.278957,
    "lng": -118.4427765
  },
  {
    "id": "630024141",
    "name": "VIDA COMMUNITY CLINIC",
    "npi": null,
    "hcaiId": null,
    "businessName": "VIDA COMMUNITY CLINIC",
    "contactEmail": "VIDACOMMUNITYCLINIC@GMAIL.COM",
    "categoryName": "PRIMARY CARE CLINIC",
    "categoryCode": "COMTYC",
    "licenseStatus": "ACTIVE",
    "inService": true,
    "licenseNumber": "550008613",
    "licenseEffectiveDate": "06/13/2025",
    "licenseExpirationDate": "06/12/2026",
    "dataDate": "10/18/2025",
    "capacity": 0,
    "address": "1519 WOODWORTH ST",
    "city": "SAN FERNANDO",
    "zip": "91340",
    "county": "ALAMEDA",
    "phone": "(818) 425-9437",
    "lat": 34.285572,
    "lng": -118.451259
  }
]