[
  {
    "id": "960001818",
    "name": "ACRE",
    "npi": "1861617169",
    "hcaiId": null,
    "businessName": "THE H.E.L.P. GROUP - PROJECT SIX",
    "contactEmail": "KSHEPPARD@THEHELPGROUP.ORG",
    "categoryName": "INTERMEDIATE CARE FACILITY-DD/H/N/CN/IID",
    "categoryCode": "ICFDDH",
    "licenseStatus": "ACTIVE",
    "inService": true,
    "licenseNumber": "960000889",
    "licenseEffectiveDate": "05/15/2025",
    "licenseExpirationDate": "05/14/2026",
    "dataDate": "10/18/2025",
    "capacity": 6,
    "address": "16102 ACRE ST",
    "city": "NORTH HILLS",
    "zip": "91343",
    "county": "LOS ANGELES",
    "phone": "(818) 893-8370",
    "lat": 34.229934,
    "lng": -118.483227
  },
  {
    "id": "630024957",
    "name": "ALL FOR ONE HOME HEALTH",
    "npi": null,
    "hcaiId": "406197609",
    "businessName": "ALL FOR ONE HOME HEALTH",
    "contactEmail": "ALLFORONEHOMEHEALTH2024@GMAIL.COM",
    "categoryName": "HOME HEALTH AGENCY",
    "categoryCode": "HHA",
    "licenseStatus": "ACTIVE",
    "inService": true,
    "licenseNumber": "550008682",
    "licenseEffectiveDate": "01/09/2025",
    "licenseExpirationDate": "01/08/2026",
    "dataDate": "10/18/2025",
    "capacity": 0,
    "address": "8925 SEPULVEDA BLVD, SUITE 207B",
    "city": "NORTH HILLS",
    "zip": "91343",
    "county": "LOS ANGELES",
    "phone": "(800) 270-1518",
    "lat": 34.232634,
    "lng": -118.467891
  },
  {
    "id": "630016472",
    "name": "BEST QUALITY LIVING, INC.",
    "npi": null,
    "hcaiId": "206190070",
    "businessName": "BEST QUALITY LIVING, INC.",
    "contactEmail": "BESTQUALITYLIVING1@GMAIL.COM",
    "categoryName": "CONGREGATE LIVING HEALTH FACILITY",
    "categoryCode": "CLHF",
    "licenseStatus": "ACTIVE",
    "inService": true,
    "licenseNumber": "550004345",
    "licenseEffectiveDate": "06/08/2024",
    "licenseExpirationDate": "06/07/2025",
    "dataDate": "10/18/2025",
    "capacity": 6,
    "address": "16725 BAHAMA STREET",
    "city": "NORTHRIDGE",
    "zip": "91343",
    "county": "LOS ANGELES",
    "phone": "(818) 635-5777",
    "lat": 34.233399,
    "lng": -118.4974605
  },
  {
    "id": "630008203",
    "name": "CALIPSO HOME HEALTH CARE, INC.",
    "npi": "1972672996",
    "hcaiId": "406196766",
    "businessName": "CALIPSO HOME HEALTH CARE, INC.",
    "contactEmail": "ARMENZAK@AOL.COM",
    "categoryName": "HOME HEALTH AGENCY",
    "categoryCode": "HHA",
    "licenseStatus": "ACTIVE",
    "inService": true,
    "licenseNumber": "550000167",
    "licenseEffectiveDate": "05/16/2025",
    "licenseExpirationDate": "05/15/2026",
    "dataDate": "10/18/2025",
    "capacity": 0,
    "address": "16909 PARTHENIA ST, SUITE 205",
    "city": "NORTHRIDGE",
    "zip": "91343",
    "county": "LOS ANGELES",
    "phone": "(818) 894-8000",
    "lat": 34.229034,
    "lng": -118.5006735
  },
  {
    "id": "630022142",
    "name": "COMFORT MANAGEMENT HOSPICE",
    "npi": null,
    "hcaiId": "406193852",
    "businessName": "COMFORT MANAGEMENT HOSPICE",
    "contactEmail": "COMFORTMANAGEMENTHOSPICE@GMAIL.COM",
    "categoryName": "HOSPICE",
    "categoryCode": "HOSPICE",
    "licenseStatus": "ACTIVE",
    "inService": true,
    "licenseNumber": "550007386",
    "licenseEffectiveDate": "04/01/2025",
    "licenseExpirationDate": "12/07/2025",
    "dataDate": "10/18/2025",
    "capacity": 0,
    "address": "8925 SEPULVEDA BLVD, SUITE 207C",
    "city": "NORTH HILLS",
    "zip": "91343",
    "county": "LOS ANGELES",
    "phone": "(747) 529-4018",
    "lat": 34.23234154,
    "lng": -118.4682019
  },
  {
    "id": "630026176",
    "name": "HAYVEN HOME, INC.",
    "npi": null,
    "hcaiId": "206190383",
    "businessName": "HAYVEN HOME, INC",
    "contactEmail": "HAYVENHOMECLHF@GMAIL.COM",
    "categoryName": "CONGREGATE LIVING HEALTH FACILITY",
    "categoryCode": "CLHF",
    "licenseStatus": "ACTIVE",
    "inService": true,
    "licenseNumber": "550008374",
    "licenseEffectiveDate": "01/31/2025",
    "licenseExpirationDate": "01/30/2026",
    "dataDate": "10/18/2025",
    "capacity": 6,
    "address": "16243 CHASE ST",
    "city": "NORTH HILLS",
    "zip": "91343",
    "county": "LOS ANGELES",
    "phone": "(818) 812-5688",
    "lat": 34.225164,
    "lng": -118.486665
  },
  {
    "id": "630026665",
    "name": "IDEAL CHOICE HOME HEALTH CARE",
    "npi": null,
    "hcaiId": "406190260",
    "businessName": "IDEAL CHOICE HOME HEALTH CARE",
    "contactEmail": "IDEALCHOICEHOMEHEALTHCARE@GMAIL.COM",
    "categoryName": "HOME HEALTH AGENCY",
    "categoryCode": "HHA",
    "licenseStatus": "ACTIVE",
    "inService": true,
    "licenseNumber": "550008979",
    "licenseEffectiveDate": "03/01/2025",
    "licenseExpirationDate": "02/28/2026",
    "dataDate": "10/18/2025",
    "capacity": 0,
    "address": "16161 ROSCOE BLVD, SUITE 204",
    "city": "NORTH HILLS",
    "zip": "91343",
    "county": "LOS ANGELES",
    "phone": "(818) 369-4758",
    "lat": 34.221726,
    "lng": -118.4846535
  },
  {
    "id": "630018088",
    "name": "K.K.A. HOME HEALTH CARE, INC.",
    "npi": null,
    "hcaiId": "406191710",
    "businessName": "K.K.A. HOME HEALTH CARE, INC",
    "contactEmail": "KKAHOMEHEALTH@YAHOO.COM",
    "categoryName": "HOME HEALTH AGENCY",
    "categoryCode": "HHA",
    "licenseStatus": "ACTIVE",
    "inService": true,
    "licenseNumber": "550004746",
    "licenseEffectiveDate": "06/12/2025",
    "licenseExpirationDate": "06/11/2026",
    "dataDate": "10/18/2025",
    "capacity": 0,
    "address": "8925 SEPULVEDA BLVD, UNIT 213",
    "city": "NORTH HILLS",
    "zip": "91343",
    "county": "LOS ANGELES",
    "phone": "(818) 655-0305",
    "lat": 34.232634,
    "lng": -118.467891
  },
  {
    "id": "960001550",
    "name": "LOMITA GROUP HOME",
    "npi": "1285722876",
    "hcaiId": null,
    "businessName": "THE H.E.L.P. GROUP - PROJECT SIX",
    "contactEmail": "KSHEPPARD@THEHELPGROUP.ORG",
    "categoryName": "INTERMEDIATE CARE FACILITY-DD/H/N/CN/IID",
    "categoryCode": "ICFDDH",
    "licenseStatus": "ACTIVE",
    "inService": true,
    "licenseNumber": "960000775",
    "licenseEffectiveDate": "01/14/2025",
    "licenseExpirationDate": "01/13/2026",
    "dataDate": "10/18/2025",
    "capacity": 6,
    "address": "16020 GRESHAM ST",
    "city": "NORTH HILLS",
    "zip": "91343",
    "county": "LOS ANGELES",
    "phone": "(818) 893-8370",
    "lat": 34.230789,
    "lng": -118.4815485
  },
  {
    "id": "630018086",
    "name": "M.G.S. HOME HEALTH CARE, INC.",
    "npi": null,
    "hcaiId": "406192025",
    "businessName": "M.G.S. HOME HEALTH CARE INC",
    "contactEmail": "MGSHOMEHEALTH@YAHOO.COM",
    "categoryName": "HOME HEALTH AGENCY",
    "categoryCode": "HHA",
    "licenseStatus": "ACTIVE",
    "inService": true,
    "licenseNumber": "550004744",
    "licenseEffectiveDate": "06/13/2025",
    "licenseExpirationDate": "06/12/2026",
    "dataDate": "10/18/2025",
    "capacity": 0,
    "address": "8925 SEPULVEDA BLVD, UNIT 202",
    "city": "NORTH HILLS",
    "zip": "91343",
    "county": "LOS ANGELES",
    "phone": "(818) 655-0300",
    "lat": 34.232634,
    "lng": -118.467891
  },
  {
    "id": "960000836",
    "name": "MISSION CITY COMMUNITY NETWORK, INC.",
    "npi": null,
    "hcaiId": "306194138",
    "businessName": "MISSION CITY COMMUNITY NETWORK, INC.",
    "contactEmail": "NIKG@MCCN.ORG",
    "categoryName": "PRIMARY CARE CLINIC",
    "categoryCode": "COMTYC",
    "licenseStatus": "ACTIVE",
    "inService": true,
    "licenseNumber": "960000465",
    "licenseEffectiveDate": "03/01/2025",
    "licenseExpirationDate": "02/28/2026",
    "dataDate": "10/18/2025",
    "capacity": 0,
    "address": "15206 PARTHENIA ST",
    "city": "NORTH HILLS",
    "zip": "91343",
    "county": "LOS ANGELES",
    "phone": "(818) 895-3100",
    "lat": 34.228098,
    "lng": -118.463814
  },
  {
    "id": "630013423",
    "name": "MISSION CITY COMMUNITY NETWORK, INC. - PARTHENIA",
    "npi": "1043593304",
    "hcaiId": "306197648",
    "businessName": "MISSION CITY COMMUNITY NETWORK, INC.",
    "contactEmail": "NIKG@MCCN.ORG",
    "categoryName": "PRIMARY CARE CLINIC",
    "categoryCode": "COMTYC",
    "licenseStatus": "ACTIVE",
    "inService": true,
    "licenseNumber": "960000465",
    "licenseEffectiveDate": "03/01/2025",
    "licenseExpirationDate": "02/28/2026",
    "dataDate": "10/18/2025",
    "capacity": 0,
    "address": "15210 PARTHENIA ST",
    "city": "NORTH HILLS",
    "zip": "91343",
    "county": "LOS ANGELES",
    "phone": "(818) 895-3100",
    "lat": 34.228098,
    "lng": -118.463841
  },
  {
    "id": "630016783",
    "name": "MISSION CITY COMMUNITY NETWORK, INC.-SEPULVEDA",
    "npi": null,
    "hcaiId": "306198400",
    "businessName": "MISSION CITY COMMUNITY NETWORK, INC.",
    "contactEmail": "NIKG@MCCN.ORG",
    "categoryName": "PRIMARY CARE CLINIC",
    "categoryCode": "COMTYC",
    "licenseStatus": "ACTIVE",
    "inService": true,
    "licenseNumber": "550003718",
    "licenseEffectiveDate": "11/10/2024",
    "licenseExpirationDate": "11/09/2025",
    "dataDate": "10/18/2025",
    "capacity": 0,
    "address": "8527 SEPULVEDA BLVD.",
    "city": "NORTH HILLS",
    "zip": "91343",
    "county": "LOS ANGELES",
    "phone": "(818) 895-3100",
    "lat": 34.225443,
    "lng": -118.467891
  },
  {
    "id": "960001172",
    "name": "MOUNTAINGATE HOUSE - PROJECT SIX",
    "npi": "1902027220",
    "hcaiId": null,
    "businessName": "THE H.E.L.P. GROUP - PROJECT SIX",
    "contactEmail": "HHUMPHREY@THEHELPGROUP.ORG",
    "categoryName": "INTERMEDIATE CARE FACILITY-DD/H/N/CN/IID",
    "categoryCode": "ICFDDH",
    "licenseStatus": "ACTIVE",
    "inService": true,
    "licenseNumber": "960000608",
    "licenseEffectiveDate": "11/29/2024",
    "licenseExpirationDate": "11/28/2025",
    "dataDate": "10/18/2025",
    "capacity": 6,
    "address": "16026 GRESHAM ST",
    "city": "NORTH HILLS",
    "zip": "91343",
    "county": "LOS ANGELES",
    "phone": "(818) 947-5534",
    "lat": 34.230798,
    "lng": -118.481751
  },
  {
    "id": "630018181",
    "name": "N.A.L. HOME HEALTH CARE INC",
    "npi": null,
    "hcaiId": "406192014",
    "businessName": "N.A.L. HOME HEALTH CARE INC",
    "contactEmail": "NALHOMEHEALTH@YAHOO.COM",
    "categoryName": "HOME HEALTH AGENCY",
    "categoryCode": "HHA",
    "licenseStatus": "ACTIVE",
    "inService": true,
    "licenseNumber": "550004904",
    "licenseEffectiveDate": "08/26/2025",
    "licenseExpirationDate": "08/25/2026",
    "dataDate": "10/18/2025",
    "capacity": 0,
    "address": "8925 SEPULVEDA BLVD, UNIT 203",
    "city": "NORTH HILLS",
    "zip": "91343",
    "county": "LOS ANGELES",
    "phone": "(877) 800-0308",
    "lat": 34.232634,
    "lng": -118.467891
  },
  {
    "id": "630025069",
    "name": "NEW AGE HOME HEALTH CARE INC.",
    "npi": null,
    "hcaiId": "406196851",
    "businessName": "NEW AGE HOME HEALTH CARE INC.",
    "contactEmail": "NEWAGEHHCI@GMAIL.COM",
    "categoryName": "HOME HEALTH AGENCY",
    "categoryCode": "HHA",
    "licenseStatus": "ACTIVE",
    "inService": true,
    "licenseNumber": "550008378",
    "licenseEffectiveDate": "01/24/2025",
    "licenseExpirationDate": "01/23/2026",
    "dataDate": "10/18/2025",
    "capacity": 0,
    "address": "8774 SEPULVEDA BLVD, UNIT 7",
    "city": "NORTH HILLS",
    "zip": "91343",
    "county": "LOS ANGELES",
    "phone": "(747) 529-4013",
    "lat": 34.229898,
    "lng": -118.467414
  },
  {
    "id": "960001413",
    "name": "NEW HORIZONS A",
    "npi": "1306065511",
    "hcaiId": null,
    "businessName": "NEW HORIZONS: SERVING INDIVIDUALS WITH SPECIAL NEEDS",
    "contactEmail": "SSAO@NEWHORIZONS-SFV.ORG",
    "categoryName": "INTERMEDIATE CARE FACILITY-DD/H/N/CN/IID",
    "categoryCode": "ICFDDH",
    "licenseStatus": "ACTIVE",
    "inService": true,
    "licenseNumber": "960000723",
    "licenseEffectiveDate": "01/10/2025",
    "licenseExpirationDate": "01/09/2026",
    "dataDate": "10/18/2025",
    "capacity": 6,
    "address": "15746A PARTHENIA ST, A",
    "city": "NORTH HILLS",
    "zip": "91343",
    "county": "LOS ANGELES",
    "phone": "(818) 618-3024",
    "lat": 34.22825314,
    "lng": -118.4757459
  },
  {
    "id": "960001412",
    "name": "NEW HORIZONS B",
    "npi": "1215156427",
    "hcaiId": null,
    "businessName": "NEW HORIZONS: SERVING INDIVIDUALS WITH SPECIAL NEEDS",
    "contactEmail": "SSAO@NEWHORIZONS-SFV.ORG",
    "categoryName": "INTERMEDIATE CARE FACILITY-DD/H/N/CN/IID",
    "categoryCode": "ICFDDH",
    "licenseStatus": "ACTIVE",
    "inService": true,
    "licenseNumber": "960000722",
    "licenseEffectiveDate": "01/10/2025",
    "licenseExpirationDate": "01/09/2026",
    "dataDate": "10/18/2025",
    "capacity": 6,
    "address": "15746B PARTHENIA ST, B",
    "city": "NORTH HILLS",
    "zip": "91343",
    "county": "LOS ANGELES",
    "phone": "(818) 892-0054",
    "lat": 34.22825314,
    "lng": -118.4757459
  },
  {
    "id": "630021815",
    "name": "OLD IS GOLD HOSPICE CARE, INC.",
    "npi": null,
    "hcaiId": "406193868",
    "businessName": "OLD IS GOLD HOSPICE CARE, INC.",
    "contactEmail": "OLDISGOLDHOSPICE@GMAIL.COM",
    "categoryName": "HOSPICE",
    "categoryCode": "HOSPICE",
    "licenseStatus": "ACTIVE",
    "inService": true,
    "licenseNumber": "550007309",
    "licenseEffectiveDate": "08/12/2025",
    "licenseExpirationDate": "11/22/2025",
    "dataDate": "10/18/2025",
    "capacity": 0,
    "address": "16933 PARTHENIA ST, SUITE 205",
    "city": "NORTHRIDGE",
    "zip": "91343",
    "county": "LOS ANGELES",
    "phone": "(818) 616-7012",
    "lat": 34.2289765,
    "lng": -118.5017335
  },
  {
    "id": "060001875",
    "name": "PACIFIC ADHC",
    "npi": null,
    "hcaiId": null,
    "businessName": "PACIFIC ADHC, INC.",
    "contactEmail": "PACADHC@SBCGLOBAL.NET",
    "categoryName": "ADULT DAY HEALTH CARE",
    "categoryCode": "ADHC",
    "licenseStatus": "ACTIVE",
    "inService": true,
    "licenseNumber": "060000692",
    "licenseEffectiveDate": "12/06/2024",
    "licenseExpirationDate": "12/05/2025",
    "dataDate": "10/18/2025",
    "capacity": 0,
    "address": "16861 PARTHENIA ST",
    "city": "NORTHRIDGE",
    "zip": "91343",
    "county": "LOS ANGELES",
    "phone": "(818) 776-8700",
    "lat": 34.228962,
    "lng": -118.5002145
  },
  {
    "id": "630018264",
    "name": "PARTHENIA CARE INC",
    "npi": null,
    "hcaiId": "406191858",
    "businessName": "PARTHENIA CARE INC",
    "contactEmail": "PARTHENIACARE@YAHOO.COM",
    "categoryName": "HOSPICE",
    "categoryCode": "HOSPICE",
    "licenseStatus": "ACTIVE",
    "inService": true,
    "licenseNumber": "550005001",
    "licenseEffectiveDate": "10/11/2025",
    "licenseExpirationDate": "10/10/2027",
    "dataDate": "10/18/2025",
    "capacity": 0,
    "address": "8925 SEPULVEDA BLVD, UNIT 212",
    "city": "NORTH HILLS",
    "zip": "91343",
    "county": "LOS ANGELES",
    "phone": "(818) 655-0308",
    "lat": 34.232634,
    "lng": -118.467891
  },
  {
    "id": "960002040",
    "name": "RAINBOW HORIZONS",
    "npi": "1871711416",
    "hcaiId": null,
    "businessName": "RAINBOW HORIZONS, INC.",
    "contactEmail": "ANVULE@NEWHORIZONS-SFV.ORG",
    "categoryName": "INTERMEDIATE CARE FACILITY-DD/H/N/CN/IID",
    "categoryCode": "ICFDDH",
    "licenseStatus": "ACTIVE",
    "inService": true,
    "licenseNumber": "960000978",
    "licenseEffectiveDate": "05/30/2025",
    "licenseExpirationDate": "05/29/2026",
    "dataDate": "10/18/2025",
    "capacity": 6,
    "address": "8723 HASKELL AVE",
    "city": "NORTH HILLS",
    "zip": "91343",
    "county": "LOS ANGELES",
    "phone": "(818) 282-8796",
    "lat": 34.228989,
    "lng": -118.476675
  },
  {
    "id": "630018665",
    "name": "RELIABLE HOSPICE SERVICES INC",
    "npi": "1639633738",
    "hcaiId": "406192650",
    "businessName": "RELIABLE HOSPICE SERVICES INC",
    "contactEmail": "RELIABLEHSINC@GMAIL.COM",
    "categoryName": "HOSPICE",
    "categoryCode": "HOSPICE",
    "licenseStatus": "ACTIVE",
    "inService": false,
    "licenseNumber": "550004855",
    "licenseEffectiveDate": "08/01/2021",
    "licenseExpirationDate": "07/31/2023",
    "dataDate": "10/18/2025",
    "capacity": 0,
    "address": "8925 SEPULVEDA BLVD, SUITE 211",
    "city": "NORTH HILLS",
    "zip": "91343",
    "county": "LOS ANGELES",
    "phone": "(747) 208-1648",
    "lat": 34.232634,
    "lng": -118.467891
  },
  {
    "id": "630022479",
    "name": "SK HOSPICE CARE, INC.",
    "npi": null,
    "hcaiId": "406190157",
    "businessName": "SK HOSPICE CARE, INC.",
    "contactEmail": "SKHOSPICECARE@GMAIL.COM",
    "categoryName": "HOSPICE",
    "categoryCode": "HOSPICE",
    "licenseStatus": "ACTIVE",
    "inService": true,
    "licenseNumber": "550007490",
    "licenseEffectiveDate": "12/01/2023",
    "licenseExpirationDate": "11/30/2025",
    "dataDate": "10/18/2025",
    "capacity": 0,
    "address": "8925 SEPULVEDA BLVD, SUITE 200B",
    "city": "NORTH HILLS",
    "zip": "91343",
    "county": "LOS ANGELES",
    "phone": "(747) 236-7229",
    "lat": 34.232634,
    "lng": -118.467891
  },
  {
    "id": "630028444",
    "name": "SO-CAL COMMUNITY HEALTH CENTER- NORTH HILLS",
    "npi": null,
    "hcaiId": null,
    "businessName": "SO-CAL COMMUNITY HEALTH CENTER",
    "contactEmail": null,
    "categoryName": "PRIMARY CARE CLINIC",
    "categoryCode": "FREEC",
    "licenseStatus": "ACTIVE",
    "inService": true,
    "licenseNumber": "550009063",
    "licenseEffectiveDate": "05/01/2025",
    "licenseExpirationDate": "02/28/2026",
    "dataDate": "10/18/2025",
    "capacity": 0,
    "address": "15343 WEST PARTHENIA STREET",
    "city": "NORTH HILLS",
    "zip": "91343",
    "county": "LOS ANGELES",
    "phone": null,
    "lat": 34.22841705,
    "lng": -118.4669004
  },
  {
    "id": "960002089",
    "name": "SUNBURST CARE CENTER",
    "npi": "1811105919",
    "hcaiId": null,
    "businessName": null,
    "contactEmail": "VIRGINIA.RASO@YAHOO.COM",
    "categoryName": "INTERMEDIATE CARE FACILITY-DD/H/N/CN/IID",
    "categoryCode": "ICFDDH",
    "licenseStatus": "ACTIVE",
    "inService": true,
    "licenseNumber": "960000998",
    "licenseEffectiveDate": "03/11/2025",
    "licenseExpirationDate": "03/10/2026",
    "dataDate": "10/18/2025",
    "capacity": 6,
    "address": "16624 SUNBURST ST",
    "city": "NORTH HILLS",
    "zip": "91343",
    "county": "LOS ANGELES",
    "phone": "(818) 298-1450",
    "lat": 34.234542,
    "lng": -118.4948595
  },
  {
    "id": "960002786",
    "name": "SUNBURST CARE CENTER #3",
    "npi": "1356550529",
    "hcaiId": null,
    "businessName": "SUNBURST CARE CENTER, INC.",
    "contactEmail": "VIRGINIA.RASO@YAHOO.COM",
    "categoryName": "INTERMEDIATE CARE FACILITY-DD/H/N/CN/IID",
    "categoryCode": "ICFDDH",
    "licenseStatus": "ACTIVE",
    "inService": true,
    "licenseNumber": "960001388",
    "licenseEffectiveDate": "03/27/2025",
    "licenseExpirationDate": "03/26/2026",
    "dataDate": "10/18/2025",
    "capacity": 6,
    "address": "16518 TUPPER ST",
    "city": "NORTH HILLS",
    "zip": "91343",
    "county": "LOS ANGELES",
    "phone": "(818) 831-0625",
    "lat": 34.239096,
    "lng": -118.4922405
  },
  {
    "id": "630014902",
    "name": "SWEET TOUCH HOSPICE",
    "npi": null,
    "hcaiId": "406198481",
    "businessName": "NORTH HOLLYWOOD HOSPICE, INC.",
    "contactEmail": "SWEETTOUCHHOSPICE@GMAIL.COM",
    "categoryName": "HOSPICE",
    "categoryCode": "HOSPICE",
    "licenseStatus": "ACTIVE",
    "inService": true,
    "licenseNumber": "550003502",
    "licenseEffectiveDate": "05/10/2024",
    "licenseExpirationDate": "05/09/2026",
    "dataDate": "10/18/2025",
    "capacity": 0,
    "address": "16909 PARTHENIA ST, SUITE 204",
    "city": "NORTHRIDGE",
    "zip": "91343",
    "county": "LOS ANGELES",
    "phone": "(747) 370-9308",
    "lat": 34.229034,
    "lng": -118.5006735
  },
  {
    "id": "920000089",
    "name": "THE REHABILITATION CENTER OF NORTH HILLS",
    "npi": "1972902161",
    "hcaiId": "206190706",
    "businessName": "NORTH HILLS HEALTHCARE & WELLNESS CENTRE, LP",
    "contactEmail": "XAVIER.ESQUIVEL@NORTHHILLSHC.COM",
    "categoryName": "SKILLED NURSING FACILITY",
    "categoryCode": "SNF",
    "licenseStatus": "ACTIVE",
    "inService": true,
    "licenseNumber": "920000065",
    "licenseEffectiveDate": "12/13/2024",
    "licenseExpirationDate": "12/12/2025",
    "dataDate": "10/18/2025",
    "capacity": 138,
    "address": "9655 SEPULVEDA BLVD",
    "city": "NORTH HILLS",
    "zip": "91343",
    "county": "LOS ANGELES",
    "phone": "(818) 892-8665",
    "lat": 34.24608,
    "lng": -118.468179
  },
  {
    "id": "960001535",
    "name": "THE TREATMENT OF THE EMOTIONALLY HANDICAPPED",
    "npi": null,
    "hcaiId": null,
    "businessName": null,
    "contactEmail": null,
    "categoryName": "CHRONIC DIALYSIS CLINIC",
    "categoryCode": "ESRD",
    "licenseStatus": null,
    "inService": null,
    "licenseNumber": null,
    "licenseEffectiveDate": null,
    "licenseExpirationDate": null,
    "dataDate": "10/18/2025",
    "capacity": 0,
    "address": "15315 RAYEN ST",
    "city": "NORTH HILLS",
    "zip": "91343",
    "county": "LOS ANGELES",
    "phone": "(000) 000-0000",
    "lat": 34.232058,
    "lng": -118.466208
  },
  {
    "id": "960002894",
    "name": "TLC WOODLEY HOUSE",
    "npi": "1295944023",
    "hcaiId": null,
    "businessName": "THERAPEUTIC LIVING CENTERS FOR THE BLIND, INC.",
    "contactEmail": "JBEST@TLC4BLIND.ORG",
    "categoryName": "INTERMEDIATE CARE FACILITY-DD/H/N/CN/IID",
    "categoryCode": "ICFDDH",
    "licenseStatus": "ACTIVE",
    "inService": true,
    "licenseNumber": "960001455",
    "licenseEffectiveDate": "05/26/2025",
    "licenseExpirationDate": "05/25/2026",
    "dataDate": "10/18/2025",
    "capacity": 5,
    "address": "8808 WOODLEY AVE",
    "city": "NORTH HILLS",
    "zip": "91343",
    "county": "LOS ANGELES",
    "phone": "(818) 274-8409",
    "lat": 34.230465,
    "lng": -118.484748
  },
  {
    "id": "630007701",
    "name": "UNITED CARE HOME HEALTHCARE AGENCY, INC.",
    "npi": "1669522777",
    "hcaiId": "406196782",
    "businessName": "UNITED CARE HOME HEALTHCARE AGENCY, INC.",
    "contactEmail": "SUSANK@UCHHOMECARE.COM",
    "categoryName": "HOME HEALTH AGENCY",
    "categoryCode": "HHA",
    "licenseStatus": "ACTIVE",
    "inService": true,
    "licenseNumber": "550000214",
    "licenseEffectiveDate": "06/24/2025",
    "licenseExpirationDate": "06/23/2026",
    "dataDate": "10/18/2025",
    "capacity": 0,
    "address": "16921 PARTHENIA ST, SUITE 303A",
    "city": "NORTHRIDGE",
    "zip": "91343",
    "county": "LOS ANGELES",
    "phone": "(818) 892-3040",
    "lat": 34.229034,
    "lng": -118.501083
  },
  {
    "id": "960001819",
    "name": "VALJEAN",
    "npi": "1720209042",
    "hcaiId": null,
    "businessName": "THE H.E.L.P. GROUP - PROJECT SIX",
    "contactEmail": "HHUMPHREY@THEHELPGROUP.ORG",
    "categoryName": "INTERMEDIATE CARE FACILITY-DD/H/N/CN/IID",
    "categoryCode": "ICFDDH",
    "licenseStatus": "ACTIVE",
    "inService": true,
    "licenseNumber": "960000888",
    "licenseEffectiveDate": "05/25/2025",
    "licenseExpirationDate": "05/24/2026",
    "dataDate": "10/18/2025",
    "capacity": 6,
    "address": "9205 VALJEAN AVE",
    "city": "NORTH HILLS",
    "zip": "91343",
    "county": "LOS ANGELES",
    "phone": "(818) 893-7596",
    "lat": 34.237764,
    "lng": -118.487538
  },
  {
    "id": "630015725",
    "name": "VALLEY COMMUNITY HEALTHCARE",
    "npi": "1932501996",
    "hcaiId": "306198018",
    "businessName": "VALLEY COMMUNITY HEALTHCARE",
    "contactEmail": "AZAMORA@VCHCARE.ORG",
    "categoryName": "PRIMARY CARE CLINIC",
    "categoryCode": "COMTYC",
    "licenseStatus": "ACTIVE",
    "inService": true,
    "licenseNumber": "550002998",
    "licenseEffectiveDate": "03/02/2025",
    "licenseExpirationDate": "03/01/2026",
    "dataDate": "10/18/2025",
    "capacity": 0,
    "address": "9119 HASKELL AVENUE",
    "city": "NORTH HILLS",
    "zip": "91343",
    "county": "LOS ANGELES",
    "phone": "(818) 301-6333",
    "lat": 34.23567687,
    "lng": -118.4763964
  },
  {
    "id": "630016163",
    "name": "VALLEY GRACE HOME, INC.",
    "npi": null,
    "hcaiId": "206190104",
    "businessName": "VALLEY GRACE HOME, INC.",
    "contactEmail": "VALLEYGRACEHOME@YAHOO.COM",
    "categoryName": "CONGREGATE LIVING HEALTH FACILITY",
    "categoryCode": "CLHF",
    "licenseStatus": "ACTIVE",
    "inService": true,
    "licenseNumber": "550004500",
    "licenseEffectiveDate": "12/24/2024",
    "licenseExpirationDate": "12/23/2025",
    "dataDate": "10/18/2025",
    "capacity": 15,
    "address": "16052 CHASE STREET",
    "city": "NORTH HILLS",
    "zip": "91343",
    "county": "LOS ANGELES",
    "phone": "(818) 305-6255",
    "lat": 34.224435,
    "lng": -118.4825565
  },
  {
    "id": "960001204",
    "name": "VALLEY VILLAGE HAYVENHURST HOUSE",
    "npi": "1609927136",
    "hcaiId": null,
    "businessName": "VALLEY VILLAGE",
    "contactEmail": "DANE@VVC.ORG",
    "categoryName": "INTERMEDIATE CARE FACILITY-DD/H/N/CN/IID",
    "categoryCode": "ICFDDH",
    "licenseStatus": "ACTIVE",
    "inService": true,
    "licenseNumber": "960000625",
    "licenseEffectiveDate": "12/11/2024",
    "licenseExpirationDate": "12/10/2025",
    "dataDate": "10/18/2025",
    "capacity": 6,
    "address": "9258 HAYVENHURST AVE",
    "city": "NORTH HILLS",
    "zip": "91343",
    "county": "LOS ANGELES",
    "phone": "(818) 587-9450",
    "lat": 34.239186,
    "lng": -118.493397
  },
  {
    "id": "960001771",
    "name": "VALLEY VILLAGE TUPPERHOUSE",
    "npi": "1245383975",
    "hcaiId": null,
    "businessName": "VALLEY VILLAGE",
    "contactEmail": "SUSIE@VVC.ORG",
    "categoryName": "INTERMEDIATE CARE FACILITY-DD/H/N/CN/IID",
    "categoryCode": "ICFDDH",
    "licenseStatus": "ACTIVE",
    "inService": true,
    "licenseNumber": "960000854",
    "licenseEffectiveDate": "04/22/2025",
    "licenseExpirationDate": "04/21/2026",
    "dataDate": "10/18/2025",
    "capacity": 6,
    "address": "16124 TUPPER ST",
    "city": "NORTH HILLS",
    "zip": "91343",
    "county": "LOS ANGELES",
    "phone": "(818) 587-9450",
    "lat": 34.239042,
    "lng": -118.483704
  },
  {
    "id": "630014085",
    "name": "VILLA BALBOA",
    "npi": null,
    "hcaiId": "206198100",
    "businessName": "CHOICE RESPICARE, INC.",
    "contactEmail": "VILLABALBOAINC@GMAIL.COM",
    "categoryName": "CONGREGATE LIVING HEALTH FACILITY",
    "categoryCode": "CLHF",
    "licenseStatus": "ACTIVE",
    "inService": true,
    "licenseNumber": "550003091",
    "licenseEffectiveDate": "04/24/2025",
    "licenseExpirationDate": "04/23/2026",
    "dataDate": "10/18/2025",
    "capacity": 6,
    "address": "16714 PARTHENIA ST",
    "city": "NORTHRIDGE",
    "zip": "91343",
    "county": "LOS ANGELES",
    "phone": "(818) 891-2273",
    "lat": 34.228188,
    "lng": -118.496502
  },
  {
    "id": "630021283",
    "name": "VITAMED HOSPICE INC",
    "npi": null,
    "hcaiId": "406194872",
    "businessName": "VITAMED HOSPICE INC",
    "contactEmail": "VITAMEDHOSPICE@GMAIL.COM",
    "categoryName": "HOSPICE",
    "categoryCode": "HOSPICE",
    "licenseStatus": "ACTIVE",
    "inService": true,
    "licenseNumber": "550006803",
    "licenseEffectiveDate": "04/02/2025",
    "licenseExpirationDate": "09/07/2025",
    "dataDate": "10/18/2025",
    "capacity": 0,
    "address": "16933 PARTHENIA ST, SUITE 212",
    "city": "NORTHRIDGE",
    "zip": "91343",
    "county": "LOS ANGELES",
    "phone": "(747) 295-8090",
    "lat": 34.2289765,
    "lng": -118.5017335
  },
  {
    "id": "630019044",
    "name": "WELLCARE HOME HEALTH, INC.",
    "npi": null,
    "hcaiId": "406192867",
    "businessName": "PERSONAL TOUCH HOME HEALTH, INC.",
    "contactEmail": "JHOANNA.PINEDA@WELLCAREHHCA.COM",
    "categoryName": "HOME HEALTH AGENCY",
    "categoryCode": "HHA",
    "licenseStatus": "ACTIVE",
    "inService": true,
    "licenseNumber": "550005716",
    "licenseEffectiveDate": "08/26/2025",
    "licenseExpirationDate": "08/25/2026",
    "dataDate": "10/18/2025",
    "capacity": 0,
    "address": "16909 PARTHENIA ST, SUITE 104A",
    "city": "NORTHRIDGE",
    "zip": "91343",
    "county": "LOS ANGELES",
    "phone": "(818) 975-8558",
    "lat": 34.22903802,
    "lng": -118.500686
  },
  {
    "id": "630007726",
    "name": "WESCARE HOME HEALTH PROVIDERS, INC.",
    "npi": "1720253388",
    "hcaiId": "406196776",
    "businessName": "WESCARE HOME HEALTH PROVIDERS, INC.",
    "contactEmail": "WESCARE8888@YAHOO.COM",
    "categoryName": "HOME HEALTH AGENCY",
    "categoryCode": "HHA",
    "licenseStatus": "ACTIVE",
    "inService": true,
    "licenseNumber": "550000222",
    "licenseEffectiveDate": "10/09/2024",
    "licenseExpirationDate": "03/13/2025",
    "dataDate": "10/18/2025",
    "capacity": 0,
    "address": "16921 PARTHENIA ST, SUITE 304",
    "city": "NORTHRIDGE",
    "zip": "91343",
    "county": "LOS ANGELES",
    "phone": "(818) 672-8808",
    "lat": 34.229034,
    "lng": -118.501083
  },
  {
    "id": "630019333",
    "name": "ZINNIA HOME HEALTH CARE INC",
    "npi": null,
    "hcaiId": "406192940",
    "businessName": "ZINNIA HOME HEALTH CARE INC",
    "contactEmail": "ZINNIAHHC@YAHOO.COM",
    "categoryName": "HOME HEALTH AGENCY",
    "categoryCode": "HHA",
    "licenseStatus": "ACTIVE",
    "inService": true,
    "licenseNumber": "550005798",
    "licenseEffectiveDate": "10/14/2025",
    "licenseExpirationDate": "10/13/2026",
    "dataDate": "10/18/2025",
    "capacity": 0,
    "address": "16909 PARTHENIA ST, SUITE 302A",
    "city": "NORTHRIDGE",
    "zip": "91343",
    "county": "LOS ANGELES",
    "phone": "(818) 290-3361",
    "lat": 34.22903802,
    "lng": -118.500686
  }
]