[
  {
    "id": "920000002",
    "name": "ASTORIA HEALTHCARE CENTER",
    "npi": "1851401251",
    "hcaiId": "206190042",
    "businessName": "ASTORIA HEALTHCARE CENTER LLC",
    "contactEmail": "ADMINISTRATOR@ASTORIAHC.COM",
    "categoryName": "SKILLED NURSING FACILITY",
    "categoryCode": "SNF",
    "licenseStatus": "ACTIVE",
    "inService": true,
    "licenseNumber": "920000004",
    "licenseEffectiveDate": "06/01/2025",
    "licenseExpirationDate": "05/25/2026",
    "dataDate": "10/18/2025",
    "capacity": 218,
    "address": "14040 ASTORIA ST",
    "city": "SYLMAR",
    "zip": "91342",
    "county": "LOS ANGELES",
    "phone": "(818) 367-5881",
    "lat": 34.31061,
    "lng": -118.4389245
  },
  {
    "id": "630019462",
    "name": "BENEVOLENCE HEALTH CENTER",
    "npi": null,
    "hcaiId": "306190572",
    "businessName": "BENEVOLENCE INDUSTRIES INCORPORATED",
    "contactEmail": "GDANQUAH@BHCHEALTH.ORG",
    "categoryName": "PRIMARY CARE CLINIC",
    "categoryCode": "COMTYC",
    "licenseStatus": "ACTIVE",
    "inService": true,
    "licenseNumber": "550005594",
    "licenseEffectiveDate": "07/23/2025",
    "licenseExpirationDate": "07/22/2026",
    "dataDate": "10/18/2025",
    "capacity": 0,
    "address": "12610 GLENOAKS BLVD, FLOOR 1",
    "city": "SYLMAR",
    "zip": "91342",
    "county": "LOS ANGELES",
    "phone": "(310) 490-6295",
    "lat": 34.299513,
    "lng": -118.438839
  },
  {
    "id": "630018108",
    "name": "COMMUNITY MEDIAL WELLNESS CENTERS, USA-VISTA CAMPUS",
    "npi": "1235500513",
    "hcaiId": null,
    "businessName": "COMMUNITY MEDICAL WELLNESS CENTERS, USA.",
    "contactEmail": null,
    "categoryName": "PRIMARY CARE CLINIC",
    "categoryCode": "COMTYC",
    "licenseStatus": "ACTIVE",
    "inService": true,
    "licenseNumber": "550003456",
    "licenseEffectiveDate": "02/26/2025",
    "licenseExpirationDate": "02/25/2026",
    "dataDate": "10/18/2025",
    "capacity": 0,
    "address": "14117 HUBBARD ST, UNIT M",
    "city": "SYLMAR",
    "zip": "91342",
    "county": "LOS ANGELES",
    "phone": null,
    "lat": 34.298496,
    "lng": -118.44063
  },
  {
    "id": "630027704",
    "name": "COMMUNITY MEDICAL WELLNESS CENTERS USA-SYLMAR",
    "npi": null,
    "hcaiId": null,
    "businessName": null,
    "contactEmail": null,
    "categoryName": "PRIMARY CARE CLINIC",
    "categoryCode": "FQHC",
    "licenseStatus": null,
    "inService": null,
    "licenseNumber": null,
    "licenseEffectiveDate": null,
    "licenseExpirationDate": null,
    "dataDate": "10/18/2025",
    "capacity": 0,
    "address": "14117 HUBBARD ST, UNIT M",
    "city": "SYLMAR",
    "zip": "91342",
    "county": "LOS ANGELES",
    "phone": null,
    "lat": 34.29867198,
    "lng": -118.441096
  },
  {
    "id": "630026118",
    "name": "COMMUNITY MEDICAL WELLNESS CENTERS, USA MOBILE UNIT 2",
    "npi": "1235500513",
    "hcaiId": null,
    "businessName": "COMMUNITY MEDICAL WELLNESS CENTERS, USA.",
    "contactEmail": "PRAMO@CMWCUSA.ORG",
    "categoryName": "PRIMARY CARE CLINIC",
    "categoryCode": "COMTYC",
    "licenseStatus": "ACTIVE",
    "inService": true,
    "licenseNumber": "550003456",
    "licenseEffectiveDate": "02/26/2025",
    "licenseExpirationDate": "02/25/2026",
    "dataDate": "10/18/2025",
    "capacity": 0,
    "address": "14117 HUBBARD ST, UNIT M",
    "city": "SYLMAR",
    "zip": "91342",
    "county": "LOS ANGELES",
    "phone": "(323) 997-2710",
    "lat": 34.298496,
    "lng": -118.44063
  },
  {
    "id": "920000005",
    "name": "COUNTRY MANOR HEALTHCARE",
    "npi": "1790766376",
    "hcaiId": "206190214",
    "businessName": "CANYON PROPERTIES III, LLC",
    "contactEmail": "JOEAREVALO@COUNTRYMANORHEALTHCARE.COM",
    "categoryName": "SKILLED NURSING FACILITY",
    "categoryCode": "SNF",
    "licenseStatus": "ACTIVE",
    "inService": true,
    "licenseNumber": "920000026",
    "licenseEffectiveDate": "06/01/2025",
    "licenseExpirationDate": "05/31/2026",
    "dataDate": "10/18/2025",
    "capacity": 99,
    "address": "11723 FENTON AVE",
    "city": "SYLMAR",
    "zip": "91342",
    "county": "LOS ANGELES",
    "phone": "(818) 899-0251",
    "lat": 34.28325,
    "lng": -118.3929525
  },
  {
    "id": "630016457",
    "name": "DESERT HOME HEALTH CARE INC.",
    "npi": null,
    "hcaiId": "406196335",
    "businessName": "DESERT HOME HEALTH CARE INC.",
    "contactEmail": "DESERTHHA@YAHOO.COM",
    "categoryName": "HOME HEALTH AGENCY",
    "categoryCode": "HHA",
    "licenseStatus": "ACTIVE",
    "inService": true,
    "licenseNumber": "550004256",
    "licenseEffectiveDate": "03/21/2025",
    "licenseExpirationDate": "03/20/2026",
    "dataDate": "10/18/2025",
    "capacity": 0,
    "address": "13251 GLADSTONE AVE",
    "city": "SYLMAR",
    "zip": "91342",
    "county": "LOS ANGELES",
    "phone": "(818) 403-6257",
    "lat": 34.31082,
    "lng": -118.43015
  },
  {
    "id": "920000011",
    "name": "GOLDEN LEGACY CARE CENTER",
    "npi": null,
    "hcaiId": "206190299",
    "businessName": "SAN FERNANDO SUBACUTE REHABILITATION CENTER, LLC",
    "contactEmail": "KAMBLER@GOLDENLEGACYCARE.COM",
    "categoryName": "SKILLED NURSING FACILITY",
    "categoryCode": "SNF",
    "licenseStatus": "ACTIVE",
    "inService": true,
    "licenseNumber": "920000031",
    "licenseEffectiveDate": "01/30/2025",
    "licenseExpirationDate": "01/29/2026",
    "dataDate": "10/18/2025",
    "capacity": 202,
    "address": "12260 FOOTHILL BLVD",
    "city": "SYLMAR",
    "zip": "91342",
    "county": "LOS ANGELES",
    "phone": "(818) 899-9545",
    "lat": 34.281504,
    "lng": -118.403694
  },
  {
    "id": "060000038",
    "name": "LAC/OLIVE VIEW-UCLA MEDICAL CENTER",
    "npi": "1285845982",
    "hcaiId": "106191231",
    "businessName": "LOS ANGELES COUNTY DEPARTMENT OF HEALTH SERVICES",
    "contactEmail": "KNUNN@DHS.LACOUNTY.GOV",
    "categoryName": "GENERAL ACUTE CARE HOSPITAL",
    "categoryCode": "GACH",
    "licenseStatus": "ACTIVE",
    "inService": true,
    "licenseNumber": "060000133",
    "licenseEffectiveDate": "05/08/2025",
    "licenseExpirationDate": "05/07/2026",
    "dataDate": "10/18/2025",
    "capacity": 303,
    "address": "14445 OLIVE VIEW DR",
    "city": "SYLMAR",
    "zip": "91342",
    "county": "LOS ANGELES",
    "phone": "(747) 210-3854",
    "lat": 34.326981,
    "lng": -118.4517
  },
  {
    "id": "060001942",
    "name": "LAKE VIEW ADULT DAY HEALTH CARE CENTER",
    "npi": null,
    "hcaiId": null,
    "businessName": "AGS MANAGEMENT SERVICES, INC.",
    "contactEmail": "ANI@LAKEVIEWADHC.COM",
    "categoryName": "ADULT DAY HEALTH CARE",
    "categoryCode": "ADHC",
    "licenseStatus": "ACTIVE",
    "inService": true,
    "licenseNumber": "060000759",
    "licenseEffectiveDate": "11/25/2024",
    "licenseExpirationDate": "11/24/2025",
    "dataDate": "10/18/2025",
    "capacity": 0,
    "address": "12040 FOOTHILL BLVD. UNIT 110-115",
    "city": "LAKEVIEW TERRACE",
    "zip": "91342",
    "county": "LOS ANGELES",
    "phone": "(818) 890-3133",
    "lat": 34.277022,
    "lng": -118.3990005
  },
  {
    "id": "060000631",
    "name": "LOS ANGELES COUNTY OLIVE VIEW-UCLA MED CTR D/P APH",
    "npi": "1285845982",
    "hcaiId": null,
    "businessName": "LOS ANGELES COUNTY DEPARTMENT OF HEALTH SERVICES",
    "contactEmail": null,
    "categoryName": "ACUTE PSYCHIATRIC HOSPITAL",
    "categoryCode": "APH",
    "licenseStatus": "ACTIVE",
    "inService": true,
    "licenseNumber": "060000133",
    "licenseEffectiveDate": "05/08/2025",
    "licenseExpirationDate": "05/07/2026",
    "dataDate": "10/18/2025",
    "capacity": 52,
    "address": "14445 OLIVE VIEW DR",
    "city": "SYLMAR",
    "zip": "91342",
    "county": "LOS ANGELES",
    "phone": "(818) 364-1555",
    "lat": 34.326981,
    "lng": -118.4517
  },
  {
    "id": "060001042",
    "name": "LOS ANGELES COUNTY OLIVE VIEW-UCLA MEDICAL CENTER",
    "npi": "1285845982",
    "hcaiId": null,
    "businessName": "LOS ANGELES COUNTY DEPARTMENT OF HEALTH SERVICES",
    "contactEmail": null,
    "categoryName": "OTHER",
    "categoryCode": "PPSPSCH",
    "licenseStatus": "ACTIVE",
    "inService": true,
    "licenseNumber": "060000133",
    "licenseEffectiveDate": "05/08/2025",
    "licenseExpirationDate": "05/07/2026",
    "dataDate": "10/18/2025",
    "capacity": 0,
    "address": "14445 OLIVE VIEW DR",
    "city": "SYLMAR",
    "zip": "91342",
    "county": "LOS ANGELES",
    "phone": null,
    "lat": 34.326981,
    "lng": -118.4517
  },
  {
    "id": "960002652",
    "name": "LOS ANGELES MISSION COLLEGE, STUDENT HEALTH CENTER",
    "npi": "1154322642",
    "hcaiId": "306196173",
    "businessName": "NORTHEAST VALLEY HEALTH CORPORATION",
    "contactEmail": "LILYGARCIA@NEVHC.ORG",
    "categoryName": "PRIMARY CARE CLINIC",
    "categoryCode": "COMTYC",
    "licenseStatus": "ACTIVE",
    "inService": true,
    "licenseNumber": "960001302",
    "licenseEffectiveDate": "03/18/2025",
    "licenseExpirationDate": "03/17/2026",
    "dataDate": "10/18/2025",
    "capacity": 0,
    "address": "13356 ELDRIDGE AVE",
    "city": "SYLMAR",
    "zip": "91342",
    "county": "LOS ANGELES",
    "phone": "(818) 362-6182",
    "lat": 34.314507,
    "lng": -118.4200695
  },
  {
    "id": "920000009",
    "name": "MACLAY HEALTHCARE CENTER",
    "npi": "1184097719",
    "hcaiId": "206190910",
    "businessName": "MACLAY HEALTHCARE, LLC",
    "contactEmail": "NRUBER@MACLAYHEALTH.COM",
    "categoryName": "SKILLED NURSING FACILITY",
    "categoryCode": "SNF",
    "licenseStatus": "ACTIVE",
    "inService": true,
    "licenseNumber": "920000084",
    "licenseEffectiveDate": "05/06/2025",
    "licenseExpirationDate": "05/05/2026",
    "dataDate": "10/18/2025",
    "capacity": 141,
    "address": "12831 MACLAY ST",
    "city": "SYLMAR",
    "zip": "91342",
    "county": "LOS ANGELES",
    "phone": "(818) 361-4455",
    "lat": 34.304679,
    "lng": -118.412946
  },
  {
    "id": "960000904",
    "name": "MOMENTUM AGENCIES ICF/DD-H BLEDSOE",
    "npi": "1154572782",
    "hcaiId": null,
    "businessName": "MOMENTUM AGENCIES",
    "contactEmail": "RMARQUEZ@MOMENTUM4ALL.ORG",
    "categoryName": "INTERMEDIATE CARE FACILITY-DD/H/N/CN/IID",
    "categoryCode": "ICFDDH",
    "licenseStatus": "ACTIVE",
    "inService": true,
    "licenseNumber": "960000494",
    "licenseEffectiveDate": "11/13/2024",
    "licenseExpirationDate": "11/12/2025",
    "dataDate": "10/18/2025",
    "capacity": 15,
    "address": "14470 BLEDSOE ST",
    "city": "SYLMAR",
    "zip": "91342",
    "county": "LOS ANGELES",
    "phone": "(818) 367-2256",
    "lat": 34.320123,
    "lng": -118.44801
  },
  {
    "id": "960001997",
    "name": "MOMENTUM AGENCIES ICF/DD-H DRONFIELD NORTH",
    "npi": "1831341874",
    "hcaiId": null,
    "businessName": "MOMENTUM AGENCIES",
    "contactEmail": "EMCLAUGHLIN@MOMENTUM4ALL.ORG",
    "categoryName": "INTERMEDIATE CARE FACILITY-DD/H/N/CN/IID",
    "categoryCode": "ICFDDH",
    "licenseStatus": "ACTIVE",
    "inService": true,
    "licenseNumber": "960000958",
    "licenseEffectiveDate": "02/13/2025",
    "licenseExpirationDate": "02/12/2026",
    "dataDate": "10/18/2025",
    "capacity": 6,
    "address": "13272 DRONFIELD AVE",
    "city": "SYLMAR",
    "zip": "91342",
    "county": "LOS ANGELES",
    "phone": "(818) 364-5911",
    "lat": 34.312437,
    "lng": -118.442817
  },
  {
    "id": "960001986",
    "name": "MOMENTUM AGENCIES ICF/DD-H DRONFIELD SOUTH",
    "npi": "1568614501",
    "hcaiId": null,
    "businessName": "MOMENTUM AGENCIES",
    "contactEmail": "EMCLAUGHLIN@MOMENTUM4ALL.ORG",
    "categoryName": "INTERMEDIATE CARE FACILITY-DD/H/N/CN/IID",
    "categoryCode": "ICFDDH",
    "licenseStatus": "ACTIVE",
    "inService": true,
    "licenseNumber": "960000956",
    "licenseEffectiveDate": "02/13/2025",
    "licenseExpirationDate": "02/12/2026",
    "dataDate": "10/18/2025",
    "capacity": 6,
    "address": "13274 DRONFIELD AVE",
    "city": "SYLMAR",
    "zip": "91342",
    "county": "LOS ANGELES",
    "phone": "(818) 364-5911",
    "lat": 34.312437,
    "lng": -118.442817
  },
  {
    "id": "960000882",
    "name": "MOMENTUM AGENCIES ICF/DD-H HUBBARD",
    "npi": "1922250968",
    "hcaiId": null,
    "businessName": "MOMENTUM AGENCIES",
    "contactEmail": "JGRAY@MOMENTUM4ALL.ORG",
    "categoryName": "INTERMEDIATE CARE FACILITY-DD/H/N/CN/IID",
    "categoryCode": "ICFDDH",
    "licenseStatus": "ACTIVE",
    "inService": true,
    "licenseNumber": "960000482",
    "licenseEffectiveDate": "05/19/2025",
    "licenseExpirationDate": "05/18/2026",
    "dataDate": "10/18/2025",
    "capacity": 15,
    "address": "14109 HUBBARD ST",
    "city": "SYLMAR",
    "zip": "91342",
    "county": "LOS ANGELES",
    "phone": "(818) 364-2633",
    "lat": 34.299054,
    "lng": -118.4408325
  },
  {
    "id": "960000914",
    "name": "MOMENTUM AGENCIES ICF/DD-N BRADLEY",
    "npi": "1477705416",
    "hcaiId": null,
    "businessName": "MOMENTUM AGENCIES",
    "contactEmail": "THENSON@MOMENTUM4ALL.ORG",
    "categoryName": "INTERMEDIATE CARE FACILITY-DD/H/N/CN/IID",
    "categoryCode": "ICFDDN",
    "licenseStatus": "ACTIVE",
    "inService": true,
    "licenseNumber": "960000499",
    "licenseEffectiveDate": "05/08/2025",
    "licenseExpirationDate": "05/07/2026",
    "dataDate": "10/18/2025",
    "capacity": 15,
    "address": "13290 BRADLEY AVE",
    "city": "SYLMAR",
    "zip": "91342",
    "county": "LOS ANGELES",
    "phone": "(818) 782-2211",
    "lat": 34.31304,
    "lng": -118.469088
  },
  {
    "id": "630026733",
    "name": "MOMENTUM AGENCIES RANCH HOUSE",
    "npi": "1518118082",
    "hcaiId": null,
    "businessName": "MOMENTUM AGENCIES",
    "contactEmail": null,
    "categoryName": "INTERMEDIATE CARE FACILITY-DD/H/N/CN/IID",
    "categoryCode": "ICFDDN",
    "licenseStatus": "ACTIVE",
    "inService": true,
    "licenseNumber": "550008662",
    "licenseEffectiveDate": "07/25/2025",
    "licenseExpirationDate": "07/24/2026",
    "dataDate": "10/18/2025",
    "capacity": 6,
    "address": "13655 WOODCOCK AVE",
    "city": "SYLMAR",
    "zip": "91342",
    "county": "LOS ANGELES",
    "phone": "(818) 364-2746",
    "lat": 34.318512,
    "lng": -118.473426
  },
  {
    "id": "920000007",
    "name": "MOUNTAIN VIEW CONVALESCENT HOSPITAL",
    "npi": "1184619827",
    "hcaiId": "206190554",
    "businessName": "13333 FENTON AVENUE, LLC",
    "contactEmail": "JGERVACIO@CHMS.US",
    "categoryName": "SKILLED NURSING FACILITY",
    "categoryCode": "SNF",
    "licenseStatus": "ACTIVE",
    "inService": true,
    "licenseNumber": "920000050",
    "licenseEffectiveDate": "09/12/2025",
    "licenseExpirationDate": "01/08/2026",
    "dataDate": "10/18/2025",
    "capacity": 114,
    "address": "13333 FENTON AVE",
    "city": "SYLMAR",
    "zip": "91342",
    "county": "LOS ANGELES",
    "phone": "(818) 367-1033",
    "lat": 34.313382,
    "lng": -118.425537
  },
  {
    "id": "630016502",
    "name": "SAINT MARIAM CONGREGATE",
    "npi": null,
    "hcaiId": "206191330",
    "businessName": "SAINT MARIAM CONGREGATE",
    "contactEmail": "SAINTMARIAMCONGREGATE@GMAIL.COM",
    "categoryName": "CONGREGATE LIVING HEALTH FACILITY",
    "categoryCode": "CLHF",
    "licenseStatus": "ACTIVE",
    "inService": true,
    "licenseNumber": "550004071",
    "licenseEffectiveDate": "12/28/2024",
    "licenseExpirationDate": "12/27/2025",
    "dataDate": "10/18/2025",
    "capacity": 6,
    "address": "13749 ALDERGROVE ST",
    "city": "SYLMAR",
    "zip": "91342",
    "county": "LOS ANGELES",
    "phone": "(818) 635-5777",
    "lat": 34.326801,
    "lng": -118.433457
  },
  {
    "id": "630015430",
    "name": "SYLMAR DIALYSIS, LLC",
    "npi": "1871903385",
    "hcaiId": "306197721",
    "businessName": "SYLMAR DIALYSIS, LLC",
    "contactEmail": "MBILLANES@NATIONALRENALCARE.COM",
    "categoryName": "CHRONIC DIALYSIS CLINIC",
    "categoryCode": "ESRD/CDC",
    "licenseStatus": "ACTIVE",
    "inService": true,
    "licenseNumber": "550002875",
    "licenseEffectiveDate": "11/07/2025",
    "licenseExpirationDate": "11/06/2026",
    "dataDate": "10/18/2025",
    "capacity": 32,
    "address": "12151 SAN FERNANDO ROAD",
    "city": "SYLMAR",
    "zip": "91342",
    "county": "LOS ANGELES",
    "phone": "(818) 465-9464",
    "lat": 34.29080924,
    "lng": -118.4498672
  },
  {
    "id": "920000289",
    "name": "SYLMAR HEALTH AND REHABILITATION CENTER",
    "npi": null,
    "hcaiId": "206194563",
    "businessName": "SYLMAR HEALTH & REHABILITATION CENTER, INC.",
    "contactEmail": "CBFRIEDMAN@GMAIL.COM",
    "categoryName": "SKILLED NURSING FACILITY",
    "categoryCode": "SNF",
    "licenseStatus": "ACTIVE",
    "inService": true,
    "licenseNumber": "920000123",
    "licenseEffectiveDate": "11/18/2024",
    "licenseExpirationDate": "11/17/2025",
    "dataDate": "10/18/2025",
    "capacity": 208,
    "address": "12220 FOOTHILL BLVD",
    "city": "SYLMAR",
    "zip": "91342",
    "county": "LOS ANGELES",
    "phone": "(818) 834-5082",
    "lat": 34.281351,
    "lng": -118.402668
  },
  {
    "id": "920000003",
    "name": "THE GROVE POST-ACUTE CARE CENTER",
    "npi": "1073918710",
    "hcaiId": "206190213",
    "businessName": "THE HANDSEL GROUP, LLC",
    "contactEmail": "HKIM@THEGROVEPA.COM",
    "categoryName": "SKILLED NURSING FACILITY",
    "categoryCode": "SNF",
    "licenseStatus": "ACTIVE",
    "inService": true,
    "licenseNumber": "920000025",
    "licenseEffectiveDate": "05/26/2025",
    "licenseExpirationDate": "05/25/2026",
    "dataDate": "10/18/2025",
    "capacity": 75,
    "address": "14122 HUBBARD ST",
    "city": "SYLMAR",
    "zip": "91342",
    "county": "LOS ANGELES",
    "phone": "(818) 361-0191",
    "lat": 34.297803,
    "lng": -118.44009
  },
  {
    "id": "960001738",
    "name": "VALLEY VILLAGE ALTANO HOUSE",
    "npi": "1598818239",
    "hcaiId": null,
    "businessName": "VALLEY VILLAGE",
    "contactEmail": "SUSIE@VVC.ORG",
    "categoryName": "INTERMEDIATE CARE FACILITY-DD/H/N/CN/IID",
    "categoryCode": "ICFDDN",
    "licenseStatus": "ACTIVE",
    "inService": true,
    "licenseNumber": "960000831",
    "licenseEffectiveDate": "03/25/2025",
    "licenseExpirationDate": "03/24/2026",
    "dataDate": "10/18/2025",
    "capacity": 12,
    "address": "12902 ALTANO ST",
    "city": "SYLMAR",
    "zip": "91342",
    "county": "LOS ANGELES",
    "phone": "(818) 587-9450",
    "lat": 34.305516,
    "lng": -118.4137155
  },
  {
    "id": "960001956",
    "name": "VALLEY VILLAGE GLADSTONE HOUSE",
    "npi": "1851442610",
    "hcaiId": null,
    "businessName": "VALLEY VILLAGE",
    "contactEmail": "SUSANA.RAMOS@VVC.ORG",
    "categoryName": "INTERMEDIATE CARE FACILITY-DD/H/N/CN/IID",
    "categoryCode": "ICFDDH",
    "licenseStatus": "ACTIVE",
    "inService": true,
    "licenseNumber": "960000940",
    "licenseEffectiveDate": "11/29/2024",
    "licenseExpirationDate": "11/28/2025",
    "dataDate": "10/18/2025",
    "capacity": 6,
    "address": "12769 GLADSTONE AVE",
    "city": "SYLMAR",
    "zip": "91342",
    "county": "LOS ANGELES",
    "phone": "(818) 587-9450",
    "lat": 34.302159,
    "lng": -118.419192
  },
  {
    "id": "960002742",
    "name": "VALLEY VILLAGE HOUSE",
    "npi": null,
    "hcaiId": null,
    "businessName": "VALLEY VILLAGE",
    "contactEmail": "SUSIE@VVC.ORG",
    "categoryName": "INTERMEDIATE CARE FACILITY-DD/H/N/CN/IID",
    "categoryCode": "ICFDDCN",
    "licenseStatus": "ACTIVE",
    "inService": true,
    "licenseNumber": "960001360",
    "licenseEffectiveDate": "04/26/2025",
    "licenseExpirationDate": "04/25/2026",
    "dataDate": "10/18/2025",
    "capacity": 8,
    "address": "14185 ASTORIA ST",
    "city": "SYLMAR",
    "zip": "91342",
    "county": "LOS ANGELES",
    "phone": "(818) 587-9450",
    "lat": 34.308765,
    "lng": -118.442493
  }
]