[
  {
    "id": "630015908",
    "name": "ALL VALLEY CONGREGATE LIVING, INC.",
    "npi": null,
    "hcaiId": "206198348",
    "businessName": "ALL VALLEY CONGREGATE LIVING, INC.",
    "contactEmail": "EMHGROUP@YAHOO.COM",
    "categoryName": "CONGREGATE LIVING HEALTH FACILITY",
    "categoryCode": "CLHF",
    "licenseStatus": "ACTIVE",
    "inService": true,
    "licenseNumber": "550003506",
    "licenseEffectiveDate": "05/11/2025",
    "licenseExpirationDate": "05/10/2026",
    "dataDate": "10/18/2025",
    "capacity": 0,
    "address": "17404 HORACE ST",
    "city": "GRANADA HILLS",
    "zip": "91344",
    "county": "LOS ANGELES",
    "phone": "(747) 239-1318",
    "lat": 34.269489,
    "lng": -118.5133815
  },
  {
    "id": "630024654",
    "name": "ALTRUISTIC HOME HEALTH CARE INC",
    "npi": null,
    "hcaiId": null,
    "businessName": "ALTRUISTIC HOME HEALTH CARE INC",
    "contactEmail": "ALTRUISTICHHINC@GMAIL.COM",
    "categoryName": "HOME HEALTH AGENCY",
    "categoryCode": "HHA",
    "licenseStatus": "ACTIVE",
    "inService": true,
    "licenseNumber": "550008907",
    "licenseEffectiveDate": "11/29/2024",
    "licenseExpirationDate": "11/28/2025",
    "dataDate": "10/18/2025",
    "capacity": 0,
    "address": "17050 CHATSWORTH ST, SUITE 123",
    "city": "GRANADA HILLS",
    "zip": "91344",
    "county": "LOS ANGELES",
    "phone": "(818) 217-4501",
    "lat": 34.264044,
    "lng": -118.5039945
  },
  {
    "id": "630014822",
    "name": "ALTRUISTIC HOSPICE, INC.",
    "npi": null,
    "hcaiId": "406198187",
    "businessName": "ALTRUISTIC HOSPICE, INC.",
    "contactEmail": "ALTRUISTICHOSPICE@YAHOO.COM",
    "categoryName": "HOSPICE",
    "categoryCode": "HOSPICE",
    "licenseStatus": "ACTIVE",
    "inService": true,
    "licenseNumber": "550003367",
    "licenseEffectiveDate": "12/15/2023",
    "licenseExpirationDate": "12/14/2025",
    "dataDate": "10/18/2025",
    "capacity": 0,
    "address": "17050 CHATSWORTH ST, SUITE 251",
    "city": "GRANADA HILLS",
    "zip": "91344",
    "county": "LOS ANGELES",
    "phone": "(818) 294-7133",
    "lat": 34.264044,
    "lng": -118.5039945
  },
  {
    "id": "630025592",
    "name": "AMAZING HEALTH CARE SERVICES INC",
    "npi": null,
    "hcaiId": "406196892",
    "businessName": "AMAZING HEALTH CARE SERVICES INC",
    "contactEmail": "AMAZINGHCSI@GMAIL.COM",
    "categoryName": "HOME HEALTH AGENCY",
    "categoryCode": "HHA",
    "licenseStatus": "ACTIVE",
    "inService": true,
    "licenseNumber": "550008654",
    "licenseEffectiveDate": "07/12/2025",
    "licenseExpirationDate": "07/11/2026",
    "dataDate": "10/18/2025",
    "capacity": 0,
    "address": "17050 CHATSWORTH ST, SUITE 213",
    "city": "GRANADA HILLS",
    "zip": "91344",
    "county": "LOS ANGELES",
    "phone": "(818) 488-9404",
    "lat": 34.264044,
    "lng": -118.5039945
  },
  {
    "id": "630022373",
    "name": "AME HOSPICE INC",
    "npi": null,
    "hcaiId": "406195193",
    "businessName": "AME HOSPICE INC",
    "contactEmail": "AMEHOSPICE@GMAIL.COM",
    "categoryName": "HOSPICE",
    "categoryCode": "HOSPICE",
    "licenseStatus": "ACTIVE",
    "inService": true,
    "licenseNumber": "550007574",
    "licenseEffectiveDate": "01/10/2025",
    "licenseExpirationDate": "12/17/2025",
    "dataDate": "10/18/2025",
    "capacity": 0,
    "address": "10515 BALBOA BLVD, SUITE 361",
    "city": "GRANADA HILLS",
    "zip": "91344",
    "county": "LOS ANGELES",
    "phone": "(747) 239-1132",
    "lat": 34.26179089,
    "lng": -118.5027596
  },
  {
    "id": "630017044",
    "name": "ANGEL RAYS HOSPICE INC.",
    "npi": "1366984445",
    "hcaiId": "406192171",
    "businessName": "ANGEL RAYS HOSPICE INC.",
    "contactEmail": "ANGELRAYSHOSPICE@GMAIL.COM",
    "categoryName": "HOSPICE",
    "categoryCode": "HOSPICE",
    "licenseStatus": "ACTIVE",
    "inService": true,
    "licenseNumber": "550003728",
    "licenseEffectiveDate": "01/16/2024",
    "licenseExpirationDate": "12/08/2024",
    "dataDate": "10/18/2025",
    "capacity": 0,
    "address": "10324 BALBOA BLVD, SUITE 203",
    "city": "GRANADA HILLS",
    "zip": "91344",
    "county": "LOS ANGELES",
    "phone": "(747) 208-4699",
    "lat": 34.25829099,
    "lng": -118.501946
  },
  {
    "id": "630025652",
    "name": "ANGELS OF MERCY HOME HEALTH INC",
    "npi": null,
    "hcaiId": "406190150",
    "businessName": "ANGELS OF MERCY HOME HEALTH INC",
    "contactEmail": "ANGELSOFMERCYHH22@YAHOO.COM",
    "categoryName": "HOME HEALTH AGENCY",
    "categoryCode": "HHA",
    "licenseStatus": "ACTIVE",
    "inService": true,
    "licenseNumber": "550008927",
    "licenseEffectiveDate": "12/06/2024",
    "licenseExpirationDate": "12/05/2025",
    "dataDate": "10/18/2025",
    "capacity": 0,
    "address": "17050 CHATSWORTH ST, SUITE 122",
    "city": "GRANADA HILLS",
    "zip": "91344",
    "county": "LOS ANGELES",
    "phone": "(818) 217-4176",
    "lat": 34.264044,
    "lng": -118.5039945
  },
  {
    "id": "630017971",
    "name": "AURORA CONGREGATE HEALTH",
    "npi": null,
    "hcaiId": "206190180",
    "businessName": "AURORA CONGREGATE HEALTH",
    "contactEmail": "AURORACONGREGATEHEALTH@GMAIL.COM",
    "categoryName": "CONGREGATE LIVING HEALTH FACILITY",
    "categoryCode": "CLHF",
    "licenseStatus": "ACTIVE",
    "inService": true,
    "licenseNumber": "550004897",
    "licenseEffectiveDate": "08/30/2025",
    "licenseExpirationDate": "08/29/2026",
    "dataDate": "10/18/2025",
    "capacity": 6,
    "address": "12706 BYRON AVE",
    "city": "GRANADA HILLS",
    "zip": "91344",
    "county": "LOS ANGELES",
    "phone": "(818) 356-3893",
    "lat": 34.30122347,
    "lng": -118.5096068
  },
  {
    "id": "630021402",
    "name": "BABY BOOMERS HOSPICE CARE INC",
    "npi": null,
    "hcaiId": "406194831",
    "businessName": "BABY BOOMERS HOSPICE CARE INC",
    "contactEmail": "BABYBOOMERSHOSPICE@GMAIL.COM",
    "categoryName": "HOSPICE",
    "categoryCode": "HOSPICE",
    "licenseStatus": "ACTIVE",
    "inService": true,
    "licenseNumber": "550006797",
    "licenseEffectiveDate": "09/02/2023",
    "licenseExpirationDate": "09/01/2025",
    "dataDate": "10/18/2025",
    "capacity": 0,
    "address": "17817 CHATSWORTH ST, UNIT 220",
    "city": "GRANADA HILLS",
    "zip": "91344",
    "county": "LOS ANGELES",
    "phone": "(877) 354-5554",
    "lat": 34.264928,
    "lng": -118.522189
  },
  {
    "id": "630028052",
    "name": "BETTER DAYS ADULT DAY HEALTH CARE CENTER",
    "npi": null,
    "hcaiId": null,
    "businessName": "BETTER DAYS ADULT DAY HEALTH CARE",
    "contactEmail": "BETTERDAYSADHC@GMAIL.COM",
    "categoryName": "ADULT DAY HEALTH CARE",
    "categoryCode": "ADHC",
    "licenseStatus": "ACTIVE",
    "inService": true,
    "licenseNumber": "550009795",
    "licenseEffectiveDate": "06/09/2025",
    "licenseExpirationDate": "05/06/2026",
    "dataDate": "10/18/2025",
    "capacity": 0,
    "address": "10351 BALBOA BLVD",
    "city": "GRANADA HILLS",
    "zip": "91344",
    "county": "LOS ANGELES",
    "phone": "(747) 777-2820",
    "lat": 34.25886227,
    "lng": -118.5023919
  },
  {
    "id": "630018953",
    "name": "BEYOND LIFE HOSPICE INC",
    "npi": null,
    "hcaiId": "406192927",
    "businessName": "BEYOND LIFE HOSPICE, INC.",
    "contactEmail": "BEYONDLIFEHOSPICE@OUTLOOK.COM",
    "categoryName": "HOSPICE",
    "categoryCode": "HOSPICE",
    "licenseStatus": "ACTIVE",
    "inService": true,
    "licenseNumber": "550005766",
    "licenseEffectiveDate": "03/14/2025",
    "licenseExpirationDate": "10/06/2026",
    "dataDate": "10/18/2025",
    "capacity": 0,
    "address": "16800 DEVONSHIRE ST, SUITE 212",
    "city": "GRANADA HILLS",
    "zip": "91344",
    "county": "LOS ANGELES",
    "phone": "(818) 273-1882",
    "lat": 34.25712192,
    "lng": -118.4982483
  },
  {
    "id": "630022536",
    "name": "BLOOM HEALTH CARE",
    "npi": null,
    "hcaiId": "406195822",
    "businessName": "BLOOM HEALTH CARE",
    "contactEmail": "BLOOMHEALTHCARE23@GMAIL.COM",
    "categoryName": "HOME HEALTH AGENCY",
    "categoryCode": "HHA",
    "licenseStatus": "ACTIVE",
    "inService": true,
    "licenseNumber": "550007860",
    "licenseEffectiveDate": "02/15/2025",
    "licenseExpirationDate": "02/14/2026",
    "dataDate": "10/18/2025",
    "capacity": 0,
    "address": "17425 CHATSWORTH ST, SUITE 104",
    "city": "GRANADA HILLS",
    "zip": "91344",
    "county": "LOS ANGELES",
    "phone": "(909) 999-1961",
    "lat": 34.26522299,
    "lng": -118.514246
  },
  {
    "id": "630026231",
    "name": "BRIGHT DAY HOME HEALTH CARE",
    "npi": null,
    "hcaiId": null,
    "businessName": "BRIGHT DAY HOME HEALTH CARE",
    "contactEmail": "DAYLIGHTHOMECARE1@GMAIL.COM",
    "categoryName": "HOME HEALTH AGENCY",
    "categoryCode": "HHA",
    "licenseStatus": "ACTIVE",
    "inService": true,
    "licenseNumber": "550009870",
    "licenseEffectiveDate": "11/22/2025",
    "licenseExpirationDate": "05/21/2026",
    "dataDate": "10/18/2025",
    "capacity": 0,
    "address": "17050 CHATSWORTH ST, SUITE 224",
    "city": "GRANADA HILLS",
    "zip": "91344",
    "county": "LOS ANGELES",
    "phone": "(747) 737-3151",
    "lat": 34.264044,
    "lng": -118.5039945
  },
  {
    "id": "630020987",
    "name": "BRIGHT FUTURE HOME CARE SERVICES",
    "npi": null,
    "hcaiId": "406193408",
    "businessName": "BRIGHT FUTURE HOME CARE SERVICES",
    "contactEmail": "BRIGHTFUTUREHCS@GMAIL.COM",
    "categoryName": "HOME HEALTH AGENCY",
    "categoryCode": "HHA",
    "licenseStatus": "ACTIVE",
    "inService": true,
    "licenseNumber": "550006845",
    "licenseEffectiveDate": "09/24/2025",
    "licenseExpirationDate": "09/23/2026",
    "dataDate": "10/18/2025",
    "capacity": 0,
    "address": "17037 CHATSWORTH ST, SUITE 202",
    "city": "GRANADA HILLS",
    "zip": "91344",
    "county": "LOS ANGELES",
    "phone": "(818) 640-0102",
    "lat": 34.265031,
    "lng": -118.503722
  },
  {
    "id": "980001934",
    "name": "CALIFORNIA NURSES HOME HEALTH SERVICES",
    "npi": "1164590246",
    "hcaiId": "406195029",
    "businessName": "NEVADA GEM HOME HEALTH",
    "contactEmail": "CEO@CANURSES.COM",
    "categoryName": "HOME HEALTH AGENCY",
    "categoryCode": "HHA",
    "licenseStatus": "ACTIVE",
    "inService": true,
    "licenseNumber": "980001122",
    "licenseEffectiveDate": "11/21/2024",
    "licenseExpirationDate": "11/20/2025",
    "dataDate": "10/18/2025",
    "capacity": 0,
    "address": "17418 CHATSWORTH ST, SUITE 200",
    "city": "GRANADA HILLS",
    "zip": "91344",
    "county": "LOS ANGELES",
    "phone": "(818) 832-1889",
    "lat": 34.264512,
    "lng": -118.51389
  },
  {
    "id": "630026357",
    "name": "CARDINAL CARE SERVICES",
    "npi": null,
    "hcaiId": null,
    "businessName": "CARDINAL CARE SERVICES",
    "contactEmail": "CARDINALES@YAHOO.COM",
    "categoryName": "HOME HEALTH AGENCY",
    "categoryCode": "HHA",
    "licenseStatus": "ACTIVE",
    "inService": true,
    "licenseNumber": "550009939",
    "licenseEffectiveDate": "02/16/2025",
    "licenseExpirationDate": "08/15/2025",
    "dataDate": "10/18/2025",
    "capacity": 0,
    "address": "17430 CHATSWORTH ST, UNIT 1",
    "city": "GRANADA HILLS",
    "zip": "91344",
    "county": "LOS ANGELES",
    "phone": "(818) 860-6668",
    "lat": 34.264494,
    "lng": -118.5143715
  },
  {
    "id": "630017710",
    "name": "CARESOURCE CONGREGATE LIVING",
    "npi": null,
    "hcaiId": "206190148",
    "businessName": "MAYANE CONGREGATE LIVING",
    "contactEmail": "CARESOURCECONGREGATELIVING@GMAIL.COM",
    "categoryName": "CONGREGATE LIVING HEALTH FACILITY",
    "categoryCode": "CLHF",
    "licenseStatus": "ACTIVE",
    "inService": true,
    "licenseNumber": "550004542",
    "licenseEffectiveDate": "01/30/2025",
    "licenseExpirationDate": "01/29/2026",
    "dataDate": "10/18/2025",
    "capacity": 12,
    "address": "17227 SIMONDS ST",
    "city": "GRANADA HILLS",
    "zip": "91344",
    "county": "LOS ANGELES",
    "phone": "(818) 488-1982",
    "lat": 34.276752,
    "lng": -118.508751
  },
  {
    "id": "630014679",
    "name": "CARING LOVE HOSPICE INC",
    "npi": null,
    "hcaiId": "406198402",
    "businessName": "CARING LOVE HOSPICE INC",
    "contactEmail": "CARINGLOVEH@GMAIL.COM",
    "categoryName": "HOSPICE",
    "categoryCode": "HOSPICE",
    "licenseStatus": "ACTIVE",
    "inService": true,
    "licenseNumber": "550002931",
    "licenseEffectiveDate": "01/23/2024",
    "licenseExpirationDate": "12/21/2024",
    "dataDate": "10/18/2025",
    "capacity": 0,
    "address": "10324 BALBOA BLVD, SUITE 105",
    "city": "GRANADA HILLS",
    "zip": "91344",
    "county": "LOS ANGELES",
    "phone": "(818) 646-1466",
    "lat": 34.25829099,
    "lng": -118.501946
  },
  {
    "id": "920000090",
    "name": "CASITAS CARE CENTER",
    "npi": "1053637330",
    "hcaiId": "206190745",
    "businessName": "KF CASITAS, LLC",
    "contactEmail": "RVALDIVIA@CASITASCC.COM",
    "categoryName": "SKILLED NURSING FACILITY",
    "categoryCode": "SNF",
    "licenseStatus": "ACTIVE",
    "inService": true,
    "licenseNumber": "920000069",
    "licenseEffectiveDate": "11/12/2024",
    "licenseExpirationDate": "11/11/2025",
    "dataDate": "10/18/2025",
    "capacity": 99,
    "address": "10626 BALBOA BLVD",
    "city": "GRANADA HILLS",
    "zip": "91344",
    "county": "LOS ANGELES",
    "phone": "(818) 368-2802",
    "lat": 34.263252,
    "lng": -118.5016005
  },
  {
    "id": "630022360",
    "name": "CHARITY SISTERS HOME HEALTH CARE",
    "npi": null,
    "hcaiId": "406196222",
    "businessName": "CHARITY SISTERS HOME HEALTH CARE",
    "contactEmail": "CSHOMEHEALTH@YAHOO.COM",
    "categoryName": "HOME HEALTH AGENCY",
    "categoryCode": "HHA",
    "licenseStatus": "ACTIVE",
    "inService": true,
    "licenseNumber": "550008406",
    "licenseEffectiveDate": "07/03/2025",
    "licenseExpirationDate": "07/02/2026",
    "dataDate": "10/18/2025",
    "capacity": 0,
    "address": "17037 CHATSWORTH ST, SUITE 103",
    "city": "GRANADA HILLS",
    "zip": "91344",
    "county": "LOS ANGELES",
    "phone": "(747) 300-0750",
    "lat": 34.26498,
    "lng": -118.503657
  },
  {
    "id": "630026019",
    "name": "CHATSWORTH HOME HEALTH",
    "npi": null,
    "hcaiId": null,
    "businessName": "CHATSWORTH HOME HEALTH",
    "contactEmail": "CHATSWORTHHH@GMAIL.COM",
    "categoryName": "HOME HEALTH AGENCY",
    "categoryCode": "HHA",
    "licenseStatus": "ACTIVE",
    "inService": true,
    "licenseNumber": "550009448",
    "licenseEffectiveDate": "10/15/2025",
    "licenseExpirationDate": "10/14/2026",
    "dataDate": "10/18/2025",
    "capacity": 0,
    "address": "17402 CHATSWORTH ST, SUITE 200",
    "city": "GRANADA HILLS",
    "zip": "91344",
    "county": "LOS ANGELES",
    "phone": "(818) 488-9300",
    "lat": 34.264611,
    "lng": -118.5133995
  },
  {
    "id": "630021081",
    "name": "DA HOME HEALTH CARE, INC.",
    "npi": null,
    "hcaiId": "406195690",
    "businessName": "DA HOME HEALTH CARE, INC.",
    "contactEmail": "DAHOMEHEALTH@YAHOO.COM",
    "categoryName": "HOME HEALTH AGENCY",
    "categoryCode": "HHA",
    "licenseStatus": "ACTIVE",
    "inService": true,
    "licenseNumber": "550006571",
    "licenseEffectiveDate": "10/02/2025",
    "licenseExpirationDate": "07/22/2026",
    "dataDate": "10/18/2025",
    "capacity": 0,
    "address": "17541 CHATSWORTH ST, SUITE 105",
    "city": "GRANADA HILLS",
    "zip": "91344",
    "county": "LOS ANGELES",
    "phone": "(818) 616-4354",
    "lat": 34.265115,
    "lng": -118.516833
  },
  {
    "id": "630013632",
    "name": "DEDICATED HOSPICE CARE, INC.",
    "npi": null,
    "hcaiId": "406197798",
    "businessName": "DEDICATED HOSPICE CARE, INC.",
    "contactEmail": "PATIENTSERVICES@DEDICATEDHOSPICE.ORG",
    "categoryName": "HOSPICE",
    "categoryCode": "HOSPICE",
    "licenseStatus": "ACTIVE",
    "inService": true,
    "licenseNumber": "550002177",
    "licenseEffectiveDate": "12/03/2024",
    "licenseExpirationDate": "12/02/2026",
    "dataDate": "10/18/2025",
    "capacity": 0,
    "address": "10605 BALBOA BLVD, SUITE 300",
    "city": "GRANADA HILLS",
    "zip": "91344",
    "county": "LOS ANGELES",
    "phone": "(818) 488-1265",
    "lat": 34.262901,
    "lng": -118.502739
  },
  {
    "id": "630020472",
    "name": "DELTA HEALTH HOSPICE",
    "npi": null,
    "hcaiId": "406194840",
    "businessName": "DELTA HEALTH HOSPICE",
    "contactEmail": "SUPPORT@DELTAHEALTHHOSPICE.COM",
    "categoryName": "HOSPICE",
    "categoryCode": "HOSPICE",
    "licenseStatus": "ACTIVE",
    "inService": true,
    "licenseNumber": "550006810",
    "licenseEffectiveDate": "08/31/2025",
    "licenseExpirationDate": "08/30/2027",
    "dataDate": "10/18/2025",
    "capacity": 0,
    "address": "17037 CHATSWORTH ST, SUITE 206",
    "city": "GRANADA HILLS",
    "zip": "91344",
    "county": "LOS ANGELES",
    "phone": "(747) 214-4843",
    "lat": 34.265031,
    "lng": -118.503722
  },
  {
    "id": "630021021",
    "name": "DIGNITY CARE HOSPICE, INC",
    "npi": null,
    "hcaiId": "406194841",
    "businessName": "DIGNITY CARE HOSPICE, INC",
    "contactEmail": "DIGNITYCAREHOSPICE@GMAIL.COM",
    "categoryName": "HOSPICE",
    "categoryCode": "HOSPICE",
    "licenseStatus": "ACTIVE",
    "inService": true,
    "licenseNumber": "550006838",
    "licenseEffectiveDate": "09/10/2023",
    "licenseExpirationDate": "09/09/2025",
    "dataDate": "10/18/2025",
    "capacity": 0,
    "address": "17050 CHATSWORTH ST, SUITE 217",
    "city": "GRANADA HILLS",
    "zip": "91344",
    "county": "LOS ANGELES",
    "phone": "(855) 218-7010",
    "lat": 34.264044,
    "lng": -118.5039945
  },
  {
    "id": "630021399",
    "name": "DOLCE VITA HOSPICE CARE, INC",
    "npi": null,
    "hcaiId": "406194842",
    "businessName": "DOLCE VITA HOSPICE CARE, INC",
    "contactEmail": "DOLCEVITAHOSPICE@GMAIL.COM",
    "categoryName": "HOSPICE",
    "categoryCode": "HOSPICE",
    "licenseStatus": "ACTIVE",
    "inService": true,
    "licenseNumber": "550006800",
    "licenseEffectiveDate": "09/02/2023",
    "licenseExpirationDate": "09/01/2025",
    "dataDate": "10/18/2025",
    "capacity": 0,
    "address": "17817 CHATSWORTH ST, UNIT 210",
    "city": "GRANADA HILLS",
    "zip": "91344",
    "county": "LOS ANGELES",
    "phone": "(800) 503-5724",
    "lat": 34.265115,
    "lng": -118.522188
  },
  {
    "id": "630019767",
    "name": "EAST VALLEY HOSPICE, INC.",
    "npi": null,
    "hcaiId": "406193450",
    "businessName": "EAST VALLEY HOSPICE, INC.",
    "contactEmail": "EASTVALLEYHOSPICE@GMAIL.COM",
    "categoryName": "HOSPICE",
    "categoryCode": "HOSPICE",
    "licenseStatus": "ACTIVE",
    "inService": true,
    "licenseNumber": "550006728",
    "licenseEffectiveDate": "06/28/2025",
    "licenseExpirationDate": "06/27/2027",
    "dataDate": "10/18/2025",
    "capacity": 0,
    "address": "10646 ZELZAH AVE, SUITE 201",
    "city": "GRANADA HILLS",
    "zip": "91344",
    "county": "LOS ANGELES",
    "phone": "(818) 643-5050",
    "lat": 34.26342398,
    "lng": -118.523127
  },
  {
    "id": "630020678",
    "name": "ELEGANT HOSPICE CARE",
    "npi": null,
    "hcaiId": "406193218",
    "businessName": "ELEGANT HOSPICE CARE",
    "contactEmail": "ELEGANTHOSPICECARE@GMAIL.COM",
    "categoryName": "HOSPICE",
    "categoryCode": "HOSPICE",
    "licenseStatus": "ACTIVE",
    "inService": true,
    "licenseNumber": "550006273",
    "licenseEffectiveDate": "04/29/2025",
    "licenseExpirationDate": "04/28/2027",
    "dataDate": "10/18/2025",
    "capacity": 0,
    "address": "17425 CHATSWORTH ST, SUITE 103",
    "city": "GRANADA HILLS",
    "zip": "91344",
    "county": "LOS ANGELES",
    "phone": "(747) 288-9898",
    "lat": 34.26522299,
    "lng": -118.514246
  },
  {
    "id": "630019386",
    "name": "FIRST CHOICE HOSPICE HEALTH CARE INC",
    "npi": "1912555640",
    "hcaiId": "406192564",
    "businessName": "FIRST CHOICE HOSPICE HEALTH CARE INC.",
    "contactEmail": "FIRSTCHOICEHP1@GMAIL.COM",
    "categoryName": "HOSPICE",
    "categoryCode": "HOSPICE",
    "licenseStatus": "ACTIVE",
    "inService": true,
    "licenseNumber": "550005440",
    "licenseEffectiveDate": "04/21/2024",
    "licenseExpirationDate": "04/20/2026",
    "dataDate": "10/18/2025",
    "capacity": 0,
    "address": "17037 CHATSWORTH ST, SUITE 210",
    "city": "GRANADA HILLS",
    "zip": "91344",
    "county": "LOS ANGELES",
    "phone": "(818) 742-2999",
    "lat": 34.26498,
    "lng": -118.503657
  },
  {
    "id": "630027789",
    "name": "GENTLE HOME HEALTH",
    "npi": null,
    "hcaiId": null,
    "businessName": "GENTLE HOME HEALTH",
    "contactEmail": "GENTLEHOMEHC@GMAIL.COM",
    "categoryName": "HOME HEALTH AGENCY",
    "categoryCode": "HHA",
    "licenseStatus": "ACTIVE",
    "inService": true,
    "licenseNumber": "550009875",
    "licenseEffectiveDate": "11/22/2025",
    "licenseExpirationDate": "05/21/2026",
    "dataDate": "10/18/2025",
    "capacity": 0,
    "address": "11050 WOODLEY AVE, UNIT C",
    "city": "GRANADA HILLS",
    "zip": "91344",
    "county": "LOS ANGELES",
    "phone": "(818) 928-8855",
    "lat": 34.271365,
    "lng": -118.484306
  },
  {
    "id": "630016175",
    "name": "GENTLE TOUCH HOSPICE, INC.",
    "npi": "1598151524",
    "hcaiId": "406190800",
    "businessName": "GENTLE TOUCH HOSPICE, INC.",
    "contactEmail": "GENTLETOUCHHOSPICE@GMAIL.COM",
    "categoryName": "HOSPICE",
    "categoryCode": "HOSPICE",
    "licenseStatus": "ACTIVE",
    "inService": true,
    "licenseNumber": "550003628",
    "licenseEffectiveDate": "08/10/2024",
    "licenseExpirationDate": "08/09/2026",
    "dataDate": "10/18/2025",
    "capacity": 0,
    "address": "15600 DEVONSHIRE ST, SUITE 202",
    "city": "GRANADA HILLS",
    "zip": "91344",
    "county": "LOS ANGELES",
    "phone": "(818) 810-5060",
    "lat": 34.257177,
    "lng": -118.4729625
  },
  {
    "id": "630018444",
    "name": "GOLDEN TOUCH HOME HEALTH CARE, INC",
    "npi": "1154896488",
    "hcaiId": "406191670",
    "businessName": "GOLDEN TOUCH HOME HEALTH CARE, INC",
    "contactEmail": "GOLDENTOUCHHHC@YAHOO.COM",
    "categoryName": "HOME HEALTH AGENCY",
    "categoryCode": "HHA",
    "licenseStatus": "ACTIVE",
    "inService": true,
    "licenseNumber": "550004681",
    "licenseEffectiveDate": "03/22/2025",
    "licenseExpirationDate": "03/21/2026",
    "dataDate": "10/18/2025",
    "capacity": 0,
    "address": "17050 CHATSWORTH ST, SUITE 211",
    "city": "GRANADA HILLS",
    "zip": "91344",
    "county": "LOS ANGELES",
    "phone": "(818) 217-4363",
    "lat": 34.264044,
    "lng": -118.5039945
  },
  {
    "id": "630017661",
    "name": "GOOD CHOICE HOME CARE, INC.",
    "npi": null,
    "hcaiId": "406191612",
    "businessName": "GOOD CHOICE HOME CARE, INC.",
    "contactEmail": "GOODCHOICEHOMECARE@GMAIL.COM",
    "categoryName": "HOME HEALTH AGENCY",
    "categoryCode": "HHA",
    "licenseStatus": "ACTIVE",
    "inService": true,
    "licenseNumber": "550004639",
    "licenseEffectiveDate": "04/20/2025",
    "licenseExpirationDate": "04/19/2026",
    "dataDate": "10/18/2025",
    "capacity": 0,
    "address": "17050 CHATSWORTH ST, SUITE 228",
    "city": "GRANADA HILLS",
    "zip": "91344",
    "county": "LOS ANGELES",
    "phone": "(747) 737-2031",
    "lat": 34.264044,
    "lng": -118.5039945
  },
  {
    "id": "630017662",
    "name": "GOOD CHOICE HOSPICE CARE",
    "npi": null,
    "hcaiId": "406192218",
    "businessName": "GOOD CHOICE HOSPICE CARE",
    "contactEmail": "HOSPICE.GOODCHOICE@YAHOO.COM",
    "categoryName": "HOSPICE",
    "categoryCode": "HOSPICE",
    "licenseStatus": "ACTIVE",
    "inService": true,
    "licenseNumber": "550005168",
    "licenseEffectiveDate": "10/31/2023",
    "licenseExpirationDate": "10/30/2025",
    "dataDate": "10/18/2025",
    "capacity": 0,
    "address": "17050 CHATSWORTH ST, SUITE 223",
    "city": "GRANADA HILLS",
    "zip": "91344",
    "county": "LOS ANGELES",
    "phone": "(747) 732-3237",
    "lat": 34.264044,
    "lng": -118.5039945
  },
  {
    "id": "630019825",
    "name": "GOOD SPIRIT CARE INC",
    "npi": null,
    "hcaiId": "406192899",
    "businessName": "GOOD SPIRIT CARE INC",
    "contactEmail": "GOODSPIRITINC@YAHOO.COM",
    "categoryName": "HOSPICE",
    "categoryCode": "HOSPICE",
    "licenseStatus": "ACTIVE",
    "inService": true,
    "licenseNumber": "550005743",
    "licenseEffectiveDate": "09/25/2022",
    "licenseExpirationDate": "09/24/2024",
    "dataDate": "10/18/2025",
    "capacity": 0,
    "address": "17631 CHATSWORTH ST, SUITE B",
    "city": "GRANADA HILLS",
    "zip": "91344",
    "county": "LOS ANGELES",
    "phone": "(747) 300-2555",
    "lat": 34.265124,
    "lng": -118.5186645
  },
  {
    "id": "630017287",
    "name": "GRANADA HILLS CARE HOMES",
    "npi": "1245770676",
    "hcaiId": null,
    "businessName": "GRANADA HILLS CARE HOMES",
    "contactEmail": "GRANADAHILLSCARE@GMAIL.COM",
    "categoryName": "INTERMEDIATE CARE FACILITY-DD/H/N/CN/IID",
    "categoryCode": "ICFDDN",
    "licenseStatus": "ACTIVE",
    "inService": true,
    "licenseNumber": "550004559",
    "licenseEffectiveDate": "02/06/2025",
    "licenseExpirationDate": "02/05/2026",
    "dataDate": "10/18/2025",
    "capacity": 6,
    "address": "11014 MONOGRAM AVE",
    "city": "GRANADA HILLS",
    "zip": "91344",
    "county": "LOS ANGELES",
    "phone": "(818) 203-7779",
    "lat": 34.270623,
    "lng": -118.492056
  },
  {
    "id": "920000086",
    "name": "GRANADA HILLS CONVALESCENT HOSPITAL",
    "npi": "1871670083",
    "hcaiId": "206190349",
    "businessName": "GRANADA HILLS CONVALESCENT HOSPITAL, INC.",
    "contactEmail": "ADMINISTRATION@GHCARECENTER.COM",
    "categoryName": "SKILLED NURSING FACILITY",
    "categoryCode": "SNF",
    "licenseStatus": "ACTIVE",
    "inService": true,
    "licenseNumber": "920000038",
    "licenseEffectiveDate": "11/01/2025",
    "licenseExpirationDate": "10/31/2026",
    "dataDate": "10/18/2025",
    "capacity": 48,
    "address": "16123 CHATSWORTH ST",
    "city": "GRANADA HILLS",
    "zip": "91344",
    "county": "LOS ANGELES",
    "phone": "(818) 891-1745",
    "lat": 34.264971,
    "lng": -118.483551
  },
  {
    "id": "630020764",
    "name": "HEALTHY PEOPLE HOME CARE, INC.",
    "npi": null,
    "hcaiId": "406195676",
    "businessName": "HEALTHY PEOPLE HOME CARE, INC.",
    "contactEmail": "PEOPLE_HEALTHY@YAHOO.COM",
    "categoryName": "HOME HEALTH AGENCY",
    "categoryCode": "HHA",
    "licenseStatus": "ACTIVE",
    "inService": true,
    "licenseNumber": "550006190",
    "licenseEffectiveDate": "04/14/2025",
    "licenseExpirationDate": "04/13/2026",
    "dataDate": "10/18/2025",
    "capacity": 0,
    "address": "17541 CHATSWORTH ST, SUITE 103",
    "city": "GRANADA HILLS",
    "zip": "91344",
    "county": "LOS ANGELES",
    "phone": "(818) 946-8510",
    "lat": 34.265115,
    "lng": -118.516833
  },
  {
    "id": "630022040",
    "name": "HIGHLAND CARE HOSPICE",
    "npi": null,
    "hcaiId": "406190072",
    "businessName": "HIGHLAND CARE HOSPICE",
    "contactEmail": "HIGHLANDCAREHOSPICE@GMAIL.COM",
    "categoryName": "HOSPICE",
    "categoryCode": "HOSPICE",
    "licenseStatus": "ACTIVE",
    "inService": true,
    "licenseNumber": "550007503",
    "licenseEffectiveDate": "05/06/2025",
    "licenseExpirationDate": "12/16/2025",
    "dataDate": "10/18/2025",
    "capacity": 0,
    "address": "16800 DEVONSHIRE ST, SUITE 211",
    "city": "GRANADA HILLS",
    "zip": "91344",
    "county": "LOS ANGELES",
    "phone": "(747) 204-2192",
    "lat": 34.25709699,
    "lng": -118.498228
  },
  {
    "id": "630011285",
    "name": "HOME HEALTH 4U, INC.",
    "npi": "1295854388",
    "hcaiId": "406197145",
    "businessName": "HOME HEALTH 4U, INC.",
    "contactEmail": "INFO@HOMEHEALTH4U.NET",
    "categoryName": "HOME HEALTH AGENCY",
    "categoryCode": "HHA",
    "licenseStatus": "ACTIVE",
    "inService": true,
    "licenseNumber": "550000765",
    "licenseEffectiveDate": "11/25/2025",
    "licenseExpirationDate": "11/24/2026",
    "dataDate": "10/18/2025",
    "capacity": 0,
    "address": "15650 DEVONSHIRE ST, SUITE 200",
    "city": "GRANADA HILLS",
    "zip": "91344",
    "county": "LOS ANGELES",
    "phone": "(818) 892-1200",
    "lat": 34.257078,
    "lng": -118.4736015
  },
  {
    "id": "630024785",
    "name": "HONEYWELL HOME HEALTH CARE INC",
    "npi": null,
    "hcaiId": "406196256",
    "businessName": "HONEYWELL HOME HEALTH CARE INC",
    "contactEmail": "HONEYWELLHHC@YAHOO.COM",
    "categoryName": "HOME HEALTH AGENCY",
    "categoryCode": "HHA",
    "licenseStatus": "ACTIVE",
    "inService": true,
    "licenseNumber": "550008161",
    "licenseEffectiveDate": "09/22/2024",
    "licenseExpirationDate": "09/21/2025",
    "dataDate": "10/18/2025",
    "capacity": 0,
    "address": "17050 CHATSWORTH ST, UNIT 101B",
    "city": "GRANADA HILLS",
    "zip": "91344",
    "county": "LOS ANGELES",
    "phone": "(747) 500-0143",
    "lat": 34.264044,
    "lng": -118.5039945
  },
  {
    "id": "630018696",
    "name": "IMPRESS HOME HEALTH CARE, INC.",
    "npi": null,
    "hcaiId": "406192468",
    "businessName": "IMPRESS HOME HEALTH CARE, INC.",
    "contactEmail": "INFO@IMPRESSHOMEHEALTH.COM",
    "categoryName": "HOME HEALTH AGENCY",
    "categoryCode": "HHA",
    "licenseStatus": "ACTIVE",
    "inService": true,
    "licenseNumber": "550005395",
    "licenseEffectiveDate": "03/14/2025",
    "licenseExpirationDate": "03/13/2026",
    "dataDate": "10/18/2025",
    "capacity": 0,
    "address": "10315 WOODLEY AVE, SUITE 207",
    "city": "GRANADA HILLS",
    "zip": "91344",
    "county": "LOS ANGELES",
    "phone": "(818) 574-5242",
    "lat": 34.258041,
    "lng": -118.4858685
  },
  {
    "id": "630025519",
    "name": "INNER PEACE HOME HEALTH",
    "npi": null,
    "hcaiId": "406198646",
    "businessName": "INNER PEACE HOME HEALTH",
    "contactEmail": "INNERPEACEHOMEHEALTH@GMAIL.COM",
    "categoryName": "HOME HEALTH AGENCY",
    "categoryCode": "HHA",
    "licenseStatus": "ACTIVE",
    "inService": true,
    "licenseNumber": "550008771",
    "licenseEffectiveDate": "10/07/2024",
    "licenseExpirationDate": "10/06/2025",
    "dataDate": "10/18/2025",
    "capacity": 0,
    "address": "17050 CHATSWORTH ST, SUITE 122-A",
    "city": "GRANADA HILLS",
    "zip": "91344",
    "county": "LOS ANGELES",
    "phone": "(818) 217-4537",
    "lat": 34.264044,
    "lng": -118.5039945
  },
  {
    "id": "980001141",
    "name": "KAISER FOUNDATION HOSPITAL VALLEY CONTINUING CARE",
    "npi": "1598810509",
    "hcaiId": null,
    "businessName": "KAISER FOUNDATION HOSPITALS",
    "contactEmail": null,
    "categoryName": "HOSPICE",
    "categoryCode": "HOSPICE",
    "licenseStatus": "ACTIVE",
    "inService": true,
    "licenseNumber": "980000511",
    "licenseEffectiveDate": "11/27/2025",
    "licenseExpirationDate": "11/26/2026",
    "dataDate": "10/18/2025",
    "capacity": 0,
    "address": "10605 BALBOA BLVD, SUITE 330",
    "city": "GRANADA HILLS",
    "zip": "91344",
    "county": "LOS ANGELES",
    "phone": "(661) 951-0090",
    "lat": 34.262901,
    "lng": -118.502739
  },
  {
    "id": "630024706",
    "name": "KINGS HOME HEALTH, INC.",
    "npi": null,
    "hcaiId": "406196037",
    "businessName": "KINGS HOME HEALTH, INC.",
    "contactEmail": "KINGSHHINFO@GMAIL.COM",
    "categoryName": "HOME HEALTH AGENCY",
    "categoryCode": "HHA",
    "licenseStatus": "ACTIVE",
    "inService": true,
    "licenseNumber": "550008241",
    "licenseEffectiveDate": "12/01/2024",
    "licenseExpirationDate": "11/30/2025",
    "dataDate": "10/18/2025",
    "capacity": 0,
    "address": "15600 DEVONSHIRE ST, SUITE 203",
    "city": "GRANADA HILLS",
    "zip": "91344",
    "county": "LOS ANGELES",
    "phone": "(800) 969-0506",
    "lat": 34.257177,
    "lng": -118.4729625
  },
  {
    "id": "630018621",
    "name": "LIVE LOVE SMILE HOME HEALTH, INC.",
    "npi": null,
    "hcaiId": "406192400",
    "businessName": "LIVE LOVE SMILE HOME HEALTH, INC.",
    "contactEmail": "LIVELOVESMILEHH@GMAIL.COM",
    "categoryName": "HOME HEALTH AGENCY",
    "categoryCode": "HHA",
    "licenseStatus": "ACTIVE",
    "inService": true,
    "licenseNumber": "550005321",
    "licenseEffectiveDate": "02/15/2025",
    "licenseExpirationDate": "02/14/2026",
    "dataDate": "10/18/2025",
    "capacity": 0,
    "address": "10324 BALBOA BLVD, SUITE 220",
    "city": "GRANADA HILLS",
    "zip": "91344",
    "county": "LOS ANGELES",
    "phone": "(818) 824-3555",
    "lat": 34.258293,
    "lng": -118.501947
  },
  {
    "id": "920000087",
    "name": "MAGNOLIA GARDENS CONVALESCENT HOSPITAL",
    "npi": "1588750202",
    "hcaiId": "206190496",
    "businessName": "MAGNOLIA GARDENS CONVALESCENT HOSPITAL LLC",
    "contactEmail": "FAC03ADMIN@LONGWOODMGMT.COM",
    "categoryName": "SKILLED NURSING FACILITY",
    "categoryCode": "SNF",
    "licenseStatus": "ACTIVE",
    "inService": true,
    "licenseNumber": "920000047",
    "licenseEffectiveDate": "11/01/2025",
    "licenseExpirationDate": "10/31/2026",
    "dataDate": "10/18/2025",
    "capacity": 99,
    "address": "17922 S F MISSION BLVD",
    "city": "GRANADA HILLS",
    "zip": "91344",
    "county": "LOS ANGELES",
    "phone": "(818) 360-1864",
    "lat": 34.271406,
    "lng": -118.525199
  },
  {
    "id": "630018135",
    "name": "MCLENNAN AVENUE HOME",
    "npi": "1629560263",
    "hcaiId": null,
    "businessName": "MCLENNAN AVENUE HOME",
    "contactEmail": "MCCLENNANHOMEICF@GMAIL.COM",
    "categoryName": "INTERMEDIATE CARE FACILITY-DD/H/N/CN/IID",
    "categoryCode": "ICFDDH",
    "licenseStatus": "ACTIVE",
    "inService": true,
    "licenseNumber": "550005431",
    "licenseEffectiveDate": "12/19/2024",
    "licenseExpirationDate": "12/18/2025",
    "dataDate": "10/18/2025",
    "capacity": 6,
    "address": "12325 MCLENNAN AVE",
    "city": "GRANADA HILLS",
    "zip": "91344",
    "county": "LOS ANGELES",
    "phone": "(818) 886-3172",
    "lat": 34.294041,
    "lng": -118.50111
  },
  {
    "id": "980001675",
    "name": "METRO HOME CARE, INC.",
    "npi": "1114924057",
    "hcaiId": "406194802",
    "businessName": "METRO HOME CARE, INC.",
    "contactEmail": "HOMEHEALTH@METROHC.NET",
    "categoryName": "HOME HEALTH AGENCY",
    "categoryCode": "HHA",
    "licenseStatus": "ACTIVE",
    "inService": true,
    "licenseNumber": "980000965",
    "licenseEffectiveDate": "04/03/2025",
    "licenseExpirationDate": "04/02/2026",
    "dataDate": "10/18/2025",
    "capacity": 0,
    "address": "16800 DEVONSHIRE ST, SUITE 205",
    "city": "GRANADA HILLS",
    "zip": "91344",
    "county": "LOS ANGELES",
    "phone": "(818) 709-2277",
    "lat": 34.257087,
    "lng": -118.4982165
  },
  {
    "id": "960002027",
    "name": "MOMENTUM AGENCIES ICF/DD-H AMESTOY NORTH",
    "npi": "1700038940",
    "hcaiId": null,
    "businessName": "MOMENTUM AGENCIES",
    "contactEmail": "GLINGAMEN@MOMENTUM4ALL.ORG",
    "categoryName": "INTERMEDIATE CARE FACILITY-DD/H/N/CN/IID",
    "categoryCode": "ICFDDH",
    "licenseStatus": "ACTIVE",
    "inService": true,
    "licenseNumber": "960000975",
    "licenseEffectiveDate": "02/09/2025",
    "licenseExpirationDate": "02/08/2026",
    "dataDate": "10/18/2025",
    "capacity": 6,
    "address": "10458 AMESTOY AVE",
    "city": "GRANADA HILLS",
    "zip": "91344",
    "county": "LOS ANGELES",
    "phone": "(818) 832-3638",
    "lat": 34.261002,
    "lng": -118.5063705
  },
  {
    "id": "960002024",
    "name": "MOMENTUM AGENCIES ICF/DD-H AMESTOY SOUTH",
    "npi": "1336391572",
    "hcaiId": null,
    "businessName": "MOMENTUM AGENCIES",
    "contactEmail": "GLINGAMEN@MOMENTUM4ALL.ORG",
    "categoryName": "INTERMEDIATE CARE FACILITY-DD/H/N/CN/IID",
    "categoryCode": "ICFDDH",
    "licenseStatus": "ACTIVE",
    "inService": true,
    "licenseNumber": "960000974",
    "licenseEffectiveDate": "02/09/2025",
    "licenseExpirationDate": "02/08/2026",
    "dataDate": "10/18/2025",
    "capacity": 6,
    "address": "10454 AMESTOY AVE",
    "city": "GRANADA HILLS",
    "zip": "91344",
    "county": "LOS ANGELES",
    "phone": "(818) 832-3638",
    "lat": 34.260786,
    "lng": -118.506375
  },
  {
    "id": "630021094",
    "name": "MOONLIGHT HOSPICE, INC",
    "npi": null,
    "hcaiId": "406193740",
    "businessName": "MOONLIGHT HOSPICE, INC",
    "contactEmail": "HOSPICEMOONLIGHT@GMAIL.COM",
    "categoryName": "HOSPICE",
    "categoryCode": "HOSPICE",
    "licenseStatus": "ACTIVE",
    "inService": true,
    "licenseNumber": "550006791",
    "licenseEffectiveDate": "09/14/2025",
    "licenseExpirationDate": "09/13/2027",
    "dataDate": "10/18/2025",
    "capacity": 0,
    "address": "17050 CHATSWORTH ST, SUITE 222",
    "city": "GRANADA HILLS",
    "zip": "91344",
    "county": "LOS ANGELES",
    "phone": "(800) 451-4573",
    "lat": 34.26415199,
    "lng": -118.503993
  },
  {
    "id": "630018163",
    "name": "MUCH LIKE HOME CONGREGATE LIVING HEALTH FACILITY, INC.",
    "npi": null,
    "hcaiId": null,
    "businessName": "MUCH LIKE HOME CONGREGATE LIVING HEALTH FACILITY, INC.",
    "contactEmail": "LILIT@KGAWAPC.COM",
    "categoryName": "CONGREGATE LIVING HEALTH FACILITY",
    "categoryCode": "CLHF",
    "licenseStatus": "ACTIVE",
    "inService": true,
    "licenseNumber": "550009827",
    "licenseEffectiveDate": "05/19/2025",
    "licenseExpirationDate": "11/18/2025",
    "dataDate": "10/18/2025",
    "capacity": 6,
    "address": "16452 BLACKHAWK ST",
    "city": "GRANADA HILLS",
    "zip": "91344",
    "county": "LOS ANGELES",
    "phone": "(818) 438-6514",
    "lat": 34.258122,
    "lng": -118.4911245
  },
  {
    "id": "630025824",
    "name": "NOVA VITA HOME CARE, INC",
    "npi": null,
    "hcaiId": "406197593",
    "businessName": "NOVA VITA HOME CARE, INC",
    "contactEmail": "NOVAVITAHOMECARE@GMAIL.COM",
    "categoryName": "HOME HEALTH AGENCY",
    "categoryCode": "HHA",
    "licenseStatus": "ACTIVE",
    "inService": true,
    "licenseNumber": "550008753",
    "licenseEffectiveDate": "09/28/2025",
    "licenseExpirationDate": "09/27/2026",
    "dataDate": "10/18/2025",
    "capacity": 0,
    "address": "17029 CHATSWORTH ST, SUITE 202A",
    "city": "GRANADA HILLS",
    "zip": "91344",
    "county": "LOS ANGELES",
    "phone": "(747) 300-2225",
    "lat": 34.264953,
    "lng": -118.5032745
  },
  {
    "id": "630023865",
    "name": "ONE STOP HOME HEALTH, LLC",
    "npi": null,
    "hcaiId": "406195836",
    "businessName": "ONE STOP HOME HEALTH, LLC",
    "contactEmail": "ONESTOPHOMEHEALTHLLC@GMAIL.COM",
    "categoryName": "HOME HEALTH AGENCY",
    "categoryCode": "HHA",
    "licenseStatus": "ACTIVE",
    "inService": true,
    "licenseNumber": "550007959",
    "licenseEffectiveDate": "04/21/2025",
    "licenseExpirationDate": "04/20/2026",
    "dataDate": "10/18/2025",
    "capacity": 0,
    "address": "17619 CHATSWORTH ST, UNIT A",
    "city": "GRANADA HILLS",
    "zip": "91344",
    "county": "LOS ANGELES",
    "phone": "(818) 363-3003",
    "lat": 34.26516,
    "lng": -118.518309
  },
  {
    "id": "630020720",
    "name": "PD HOSPICE INC",
    "npi": null,
    "hcaiId": "406193743",
    "businessName": "PD HOSPICE INC",
    "contactEmail": "OFFICE@PDHOSPICEINC.COM",
    "categoryName": "HOSPICE",
    "categoryCode": "HOSPICE",
    "licenseStatus": "ACTIVE",
    "inService": true,
    "licenseNumber": "550006669",
    "licenseEffectiveDate": "08/07/2025",
    "licenseExpirationDate": "08/06/2027",
    "dataDate": "10/18/2025",
    "capacity": 0,
    "address": "10324 BALBOA BLVD, SUITE 200",
    "city": "GRANADA HILLS",
    "zip": "91344",
    "county": "LOS ANGELES",
    "phone": "(949) 324-8363",
    "lat": 34.25829099,
    "lng": -118.501946
  },
  {
    "id": "630021421",
    "name": "PNH HOSPICE GROUP",
    "npi": null,
    "hcaiId": null,
    "businessName": "PNH HOSPICE GROUP",
    "contactEmail": "PNHHOSPICE@YAHOO.COM",
    "categoryName": "HOSPICE",
    "categoryCode": "HOSPICE",
    "licenseStatus": "ACTIVE",
    "inService": true,
    "licenseNumber": "550007675",
    "licenseEffectiveDate": "12/23/2021",
    "licenseExpirationDate": "12/22/2023",
    "dataDate": "10/18/2025",
    "capacity": 0,
    "address": "10324 BALBOA BLVD, SUITE 104",
    "city": "GRANADA HILLS",
    "zip": "91344",
    "county": "LOS ANGELES",
    "phone": "(818) 940-1630",
    "lat": 34.258311,
    "lng": -118.502127
  },
  {
    "id": "630027463",
    "name": "PPLA - JOHN F. KENNEDY HIGH SCHOOL",
    "npi": null,
    "hcaiId": null,
    "businessName": null,
    "contactEmail": null,
    "categoryName": "PRIMARY CARE CLINIC",
    "categoryCode": "COMTYC",
    "licenseStatus": null,
    "inService": null,
    "licenseNumber": null,
    "licenseEffectiveDate": null,
    "licenseExpirationDate": null,
    "dataDate": "10/18/2025",
    "capacity": 0,
    "address": "11254 GOTHIC AVE, ROOM 1A",
    "city": "GRANADA HILLS",
    "zip": "91344",
    "county": "LOS ANGELES",
    "phone": null,
    "lat": 34.27538802,
    "lng": -118.487793
  },
  {
    "id": "630011340",
    "name": "PRN HOME HEALTH SERVICES",
    "npi": "1417160045",
    "hcaiId": "406197200",
    "businessName": "GOLDEN AGE HOME HEALTH, INC.",
    "contactEmail": "GOLDENAGEHH@YAHOO.COM",
    "categoryName": "HOME HEALTH AGENCY",
    "categoryCode": "HHA",
    "licenseStatus": "ACTIVE",
    "inService": true,
    "licenseNumber": "550000856",
    "licenseEffectiveDate": "09/16/2025",
    "licenseExpirationDate": "04/14/2026",
    "dataDate": "10/18/2025",
    "capacity": 0,
    "address": "15600 DEVONSHIRE ST., SUITE 206",
    "city": "GRANADA HILLS",
    "zip": "91344",
    "county": "LOS ANGELES",
    "phone": "(818) 761-5511",
    "lat": 34.257177,
    "lng": -118.4729625
  },
  {
    "id": "630007603",
    "name": "QUEST HOME HEALTH SERVICES, INC",
    "npi": "1295811214",
    "hcaiId": "406196796",
    "businessName": "QUEST HOME HEALTH SERVICES, INC.",
    "contactEmail": "QUESTHOMEHEALTH@SBCGLOBAL.NET",
    "categoryName": "HOME HEALTH AGENCY",
    "categoryCode": "HHA",
    "licenseStatus": "ACTIVE",
    "inService": true,
    "licenseNumber": "550000245",
    "licenseEffectiveDate": "11/22/2024",
    "licenseExpirationDate": "11/21/2025",
    "dataDate": "10/18/2025",
    "capacity": 0,
    "address": "10660 WHITE OAK AVE, SUITE 200",
    "city": "GRANADA HILLS",
    "zip": "91344",
    "county": "LOS ANGELES",
    "phone": "(818) 993-5200",
    "lat": 34.263918,
    "lng": -118.5193755
  },
  {
    "id": "630014928",
    "name": "QUEST HOSPICE, INC.",
    "npi": "1174968515",
    "hcaiId": "406198245",
    "businessName": "QUEST HOSPICE, INC.",
    "contactEmail": "QUESTHOSPICE@YAHOO.COM",
    "categoryName": "HOSPICE",
    "categoryCode": "HOSPICE",
    "licenseStatus": "ACTIVE",
    "inService": true,
    "licenseNumber": "550003491",
    "licenseEffectiveDate": "04/26/2024",
    "licenseExpirationDate": "04/25/2026",
    "dataDate": "10/18/2025",
    "capacity": 0,
    "address": "10660 WHITE OAK AVE, SUITE 230",
    "city": "GRANADA HILLS",
    "zip": "91344",
    "county": "LOS ANGELES",
    "phone": "(818) 875-7000",
    "lat": 34.263918,
    "lng": -118.5193755
  },
  {
    "id": "630021218",
    "name": "RELAXED HOME HEALTH CARE",
    "npi": null,
    "hcaiId": "406195958",
    "businessName": "RELAXED HOME HEALTH CARE",
    "contactEmail": "RELAXEDHHC@GMAIL.COM",
    "categoryName": "HOME HEALTH AGENCY",
    "categoryCode": "HHA",
    "licenseStatus": "ACTIVE",
    "inService": true,
    "licenseNumber": "550007828",
    "licenseEffectiveDate": "06/16/2025",
    "licenseExpirationDate": "01/26/2026",
    "dataDate": "10/18/2025",
    "capacity": 0,
    "address": "15650 DEVONSHIRE ST, SUITE 306",
    "city": "GRANADA HILLS",
    "zip": "91344",
    "county": "LOS ANGELES",
    "phone": "(818) 220-2010",
    "lat": 34.25708601,
    "lng": -118.473616
  },
  {
    "id": "960002896",
    "name": "RESEDA HORIZONS - SAN JOSE",
    "npi": "1629296272",
    "hcaiId": null,
    "businessName": "RESEDA HORIZONS, INC.",
    "contactEmail": "ANVULE@NEWHORIZONS-SFV.ORG",
    "categoryName": "INTERMEDIATE CARE FACILITY-DD/H/N/CN/IID",
    "categoryCode": "ICFDDH",
    "licenseStatus": "ACTIVE",
    "inService": true,
    "licenseNumber": "960001456",
    "licenseEffectiveDate": "02/22/2025",
    "licenseExpirationDate": "02/21/2026",
    "dataDate": "10/18/2025",
    "capacity": 6,
    "address": "17831 SAN JOSE ST",
    "city": "GRANADA HILLS",
    "zip": "91344",
    "county": "LOS ANGELES",
    "phone": "(818) 831-8438",
    "lat": 34.261614,
    "lng": -118.5227775
  },
  {
    "id": "920000088",
    "name": "RINALDI CONVALESCENT HOSPITAL",
    "npi": "1235455510",
    "hcaiId": "206190649",
    "businessName": "KF RINALDI, LLC",
    "contactEmail": "MKHACHATRYAN@RINALDICARES.COM",
    "categoryName": "SKILLED NURSING FACILITY",
    "categoryCode": "SNF",
    "licenseStatus": "ACTIVE",
    "inService": true,
    "licenseNumber": "920000057",
    "licenseEffectiveDate": "11/12/2024",
    "licenseExpirationDate": "11/11/2025",
    "dataDate": "10/18/2025",
    "capacity": 99,
    "address": "16553 RINALDI ST",
    "city": "GRANADA HILLS",
    "zip": "91344",
    "county": "LOS ANGELES",
    "phone": "(818) 360-1003",
    "lat": 34.279785,
    "lng": -118.49292
  },
  {
    "id": "630021253",
    "name": "SAINT PEREGRINE HOSPICE CARE, INC.",
    "npi": null,
    "hcaiId": null,
    "businessName": "SAINT PEREGRINE HOSPICE CARE, INC.",
    "contactEmail": "SAINTPEREGRINEHOSPICE@YAHOO.COM",
    "categoryName": "HOSPICE",
    "categoryCode": "HOSPICE",
    "licenseStatus": "ACTIVE",
    "inService": true,
    "licenseNumber": "550006558",
    "licenseEffectiveDate": "07/06/2023",
    "licenseExpirationDate": "07/05/2025",
    "dataDate": "10/18/2025",
    "capacity": 0,
    "address": "10730 WHITE OAK AVE, SUITE B",
    "city": "GRANADA HILLS",
    "zip": "91344",
    "county": "LOS ANGELES",
    "phone": "(747) 666-0605",
    "lat": 34.265727,
    "lng": -118.519506
  },
  {
    "id": "060001846",
    "name": "SAN FERNANDO VALLEY ADHC CENTER",
    "npi": null,
    "hcaiId": null,
    "businessName": "SAN FERNANDO VALLEY ADULT DAY HEALTHCARE, LLC",
    "contactEmail": "HEALTHLINKADHC@AOL.COM",
    "categoryName": "ADULT DAY HEALTH CARE",
    "categoryCode": "ADHC",
    "licenseStatus": "ACTIVE",
    "inService": true,
    "licenseNumber": "060000663",
    "licenseEffectiveDate": "06/19/2025",
    "licenseExpirationDate": "06/18/2026",
    "dataDate": "10/18/2025",
    "capacity": 0,
    "address": "10660 WHITE OAK AVE, SUITE C",
    "city": "GRANADA HILLS",
    "zip": "91344",
    "county": "LOS ANGELES",
    "phone": "(818) 832-1418",
    "lat": 34.263918,
    "lng": -118.5193755
  },
  {
    "id": "630014670",
    "name": "SENIOR CONGREGATE LIVING, INC.",
    "npi": null,
    "hcaiId": "206198052",
    "businessName": "SENIOR CONGREGATE LIVING, INC.",
    "contactEmail": "CONGREGATELIVINGHOME@GMAIL.COM",
    "categoryName": "CONGREGATE LIVING HEALTH FACILITY",
    "categoryCode": "CLHF",
    "licenseStatus": "ACTIVE",
    "inService": true,
    "licenseNumber": "550002798",
    "licenseEffectiveDate": "09/21/2025",
    "licenseExpirationDate": "09/20/2026",
    "dataDate": "10/18/2025",
    "capacity": 6,
    "address": "11847 BALBOA BLVD",
    "city": "GRANADA HILLS",
    "zip": "91344",
    "county": "LOS ANGELES",
    "phone": "(747) 300-2379",
    "lat": 34.285392,
    "lng": -118.502388
  },
  {
    "id": "630017426",
    "name": "SILVER AGE HOME CARE, INC.",
    "npi": "1821524414",
    "hcaiId": "406191430",
    "businessName": "SILVER AGE HOME CARE, INC.",
    "contactEmail": "SILVERAGEHOMECARE@ICLOUD.COM",
    "categoryName": "HOME HEALTH AGENCY",
    "categoryCode": "HHA",
    "licenseStatus": "ACTIVE",
    "inService": true,
    "licenseNumber": "550004460",
    "licenseEffectiveDate": "09/08/2025",
    "licenseExpirationDate": "12/07/2025",
    "dataDate": "10/18/2025",
    "capacity": 0,
    "address": "10324 BALBOA BLVD, SUITE 202",
    "city": "GRANADA HILLS",
    "zip": "91344",
    "county": "LOS ANGELES",
    "phone": "(818) 650-8085",
    "lat": 34.258307,
    "lng": -118.50192
  },
  {
    "id": "980002486",
    "name": "STAR CARE HOME HEALTH, INC.",
    "npi": "1750336160",
    "hcaiId": "406197012",
    "businessName": "STAR CARE HOME HEALTH, INC.",
    "contactEmail": "STARCAREHOMEHEALTH@YAHOO.COM",
    "categoryName": "HOME HEALTH AGENCY",
    "categoryCode": "HHA",
    "licenseStatus": "ACTIVE",
    "inService": true,
    "licenseNumber": "980001589",
    "licenseEffectiveDate": "01/31/2025",
    "licenseExpirationDate": "01/30/2026",
    "dataDate": "10/18/2025",
    "capacity": 0,
    "address": "10660 WHITE OAKS AVE, SUITE 218",
    "city": "GRANADA HILLS",
    "zip": "91344",
    "county": "LOS ANGELES",
    "phone": "(818) 894-5201",
    "lat": 34.263918,
    "lng": -118.5193755
  },
  {
    "id": "630016799",
    "name": "STERLING HOME HEALTH GROUP, INC.",
    "npi": "1598114951",
    "hcaiId": "406190680",
    "businessName": "STERLING HOME HEALTH GROUP, INC.",
    "contactEmail": "ANUSH@STERLINGHOMEHEALTHGRP.COM",
    "categoryName": "HOME HEALTH AGENCY",
    "categoryCode": "HHA",
    "licenseStatus": "ACTIVE",
    "inService": true,
    "licenseNumber": "550004181",
    "licenseEffectiveDate": "03/08/2025",
    "licenseExpirationDate": "03/07/2026",
    "dataDate": "10/18/2025",
    "capacity": 0,
    "address": "10605 BALBOA BLVD, SUITE 220",
    "city": "GRANADA HILLS",
    "zip": "91344",
    "county": "LOS ANGELES",
    "phone": "(818) 967-5522",
    "lat": 34.26337398,
    "lng": -118.50274
  },
  {
    "id": "630012254",
    "name": "TENDER HOME HEALTH",
    "npi": null,
    "hcaiId": "406197411",
    "businessName": "TENDER HOME HEALTH",
    "contactEmail": "MARISSATIONGSON@TENDERHOMEHEALTH.COM",
    "categoryName": "HOME HEALTH AGENCY",
    "categoryCode": "HHA",
    "licenseStatus": "ACTIVE",
    "inService": true,
    "licenseNumber": "550001310",
    "licenseEffectiveDate": "06/24/2025",
    "licenseExpirationDate": "06/23/2026",
    "dataDate": "10/18/2025",
    "capacity": 0,
    "address": "17031 CHATSWORTH ST, SUITE 201",
    "city": "GRANADA HILLS",
    "zip": "91344",
    "county": "LOS ANGELES",
    "phone": "(818) 894-8974",
    "lat": 34.265007,
    "lng": -118.5034995
  },
  {
    "id": "630016508",
    "name": "TERNER HEALTH",
    "npi": null,
    "hcaiId": "206190125",
    "businessName": "TERNER HEALTH",
    "contactEmail": "TERNERHEALTH@GMAIL.COM",
    "categoryName": "CONGREGATE LIVING HEALTH FACILITY",
    "categoryCode": "CLHF",
    "licenseStatus": "ACTIVE",
    "inService": true,
    "licenseNumber": "550004398",
    "licenseEffectiveDate": "10/12/2024",
    "licenseExpirationDate": "10/11/2025",
    "dataDate": "10/18/2025",
    "capacity": 6,
    "address": "10629 COLLETT AVENUE",
    "city": "GRANADA HILLS",
    "zip": "91344",
    "county": "LOS ANGELES",
    "phone": "(818) 665-9631",
    "lat": 34.263765,
    "lng": -118.483848
  },
  {
    "id": "630012183",
    "name": "THE CARING BUNCH",
    "npi": "1043446024",
    "hcaiId": null,
    "businessName": "LE FOYER, INC.",
    "contactEmail": "TCB.BLACKHAWK@GMAIL.COM",
    "categoryName": "INTERMEDIATE CARE FACILITY-DD/H/N/CN/IID",
    "categoryCode": "ICFDDH",
    "licenseStatus": "ACTIVE",
    "inService": true,
    "licenseNumber": "550001154",
    "licenseEffectiveDate": "11/28/2024",
    "licenseExpirationDate": "11/27/2025",
    "dataDate": "10/18/2025",
    "capacity": 6,
    "address": "16438 BLACKHAWK ST",
    "city": "GRANADA HILLS",
    "zip": "91344",
    "county": "LOS ANGELES",
    "phone": "(818) 335-2288",
    "lat": 34.258122,
    "lng": -118.490661
  },
  {
    "id": "630012705",
    "name": "THE CARING CONNECTION, INC.",
    "npi": null,
    "hcaiId": "406197582",
    "businessName": "THE CARING CONNECTION, INC.",
    "contactEmail": "MOIRA@THECARINGCONNECTION.COM",
    "categoryName": "HOME HEALTH AGENCY",
    "categoryCode": "HHA",
    "licenseStatus": "ACTIVE",
    "inService": true,
    "licenseNumber": "550001616",
    "licenseEffectiveDate": "05/25/2025",
    "licenseExpirationDate": "05/24/2026",
    "dataDate": "10/18/2025",
    "capacity": 0,
    "address": "10727 WHITE OAK AVE, SUITE 206",
    "city": "GRANADA HILLS",
    "zip": "91344",
    "county": "LOS ANGELES",
    "phone": "(818) 368-5007",
    "lat": 34.265763,
    "lng": -118.5200055
  },
  {
    "id": "630016699",
    "name": "THOUSAND OAKS HOSPICE, INC.",
    "npi": "1154785004",
    "hcaiId": "406195666",
    "businessName": "THOUSAND OAKS HOSPICE, INC.",
    "contactEmail": "INFO@THETHOUSANDOAKSHOSPICE.COM",
    "categoryName": "HOSPICE",
    "categoryCode": "HOSPICE",
    "licenseStatus": "ACTIVE",
    "inService": true,
    "licenseNumber": "550003596",
    "licenseEffectiveDate": "10/22/2024",
    "licenseExpirationDate": "07/27/2026",
    "dataDate": "10/18/2025",
    "capacity": 0,
    "address": "17050 CHATSWORTH ST, SUITE 235",
    "city": "GRANADA HILLS",
    "zip": "91344",
    "county": "LOS ANGELES",
    "phone": "(805) 367-7040",
    "lat": 34.26415199,
    "lng": -118.503993
  },
  {
    "id": "960001794",
    "name": "TLC - RINALDI HOUSE",
    "npi": "1699984484",
    "hcaiId": null,
    "businessName": "THERAPEUTIC LIVING CENTERS FOR THE BLIND, INC.",
    "contactEmail": "LGLOVER@TLC4BLIND.ORG",
    "categoryName": "INTERMEDIATE CARE FACILITY-DD/H/N/CN/IID",
    "categoryCode": "ICFDDH",
    "licenseStatus": "ACTIVE",
    "inService": true,
    "licenseNumber": "960000871",
    "licenseEffectiveDate": "11/20/2024",
    "licenseExpirationDate": "11/19/2025",
    "dataDate": "10/18/2025",
    "capacity": 6,
    "address": "17026 RINALDI ST",
    "city": "GRANADA HILLS",
    "zip": "91344",
    "county": "LOS ANGELES",
    "phone": "(818) 797-8852",
    "lat": 34.278975,
    "lng": -118.5032385
  },
  {
    "id": "630024655",
    "name": "WELLSPRING HOME HEALTH CARE, INC.",
    "npi": null,
    "hcaiId": "406197826",
    "businessName": "WELLSPRING HOME HEALTH CARE, INC.",
    "contactEmail": "WELLSPRINGHHC@YAHOO.COM",
    "categoryName": "HOME HEALTH AGENCY",
    "categoryCode": "HHA",
    "licenseStatus": "ACTIVE",
    "inService": true,
    "licenseNumber": "550008419",
    "licenseEffectiveDate": "02/03/2025",
    "licenseExpirationDate": "02/02/2026",
    "dataDate": "10/18/2025",
    "capacity": 0,
    "address": "17050 CHATSWORTH ST, UNIT 101A",
    "city": "GRANADA HILLS",
    "zip": "91344",
    "county": "LOS ANGELES",
    "phone": "(747) 529-3039",
    "lat": 34.264044,
    "lng": -118.5039945
  }
]