[
  {
    "id": "630027692",
    "name": "ADAPTIVE HOME HEALTH CARE INC",
    "npi": null,
    "hcaiId": null,
    "businessName": "ADAPTIVE HOME HEALTH CARE INC",
    "contactEmail": "MELISSAGREGORIAN@GMAIL.COM",
    "categoryName": "HOME HEALTH AGENCY",
    "categoryCode": "HHA",
    "licenseStatus": "ACTIVE",
    "inService": true,
    "licenseNumber": "550009892",
    "licenseEffectiveDate": "07/11/2025",
    "licenseExpirationDate": "01/10/2026",
    "dataDate": "10/18/2025",
    "capacity": 0,
    "address": "25000 AVENUE STANFORD, SUITE 256",
    "city": "VALENCIA",
    "zip": "91355",
    "county": "LOS ANGELES",
    "phone": "(818) 434-6418",
    "lat": 34.43832002,
    "lng": -118.572749
  },
  {
    "id": "630016838",
    "name": "AESTHETIC SURGERY & LASER MEDICAL CENTER",
    "npi": "1467572115",
    "hcaiId": null,
    "businessName": null,
    "contactEmail": null,
    "categoryName": "SURGICAL CLINIC",
    "categoryCode": "ASC",
    "licenseStatus": null,
    "inService": null,
    "licenseNumber": null,
    "licenseEffectiveDate": null,
    "licenseExpirationDate": null,
    "dataDate": "10/18/2025",
    "capacity": 0,
    "address": "28212 KELLY JOHNSON PKWY, SUITE 265",
    "city": "VALENCIA",
    "zip": "91355",
    "county": "LOS ANGELES",
    "phone": null,
    "lat": 34.448706,
    "lng": -118.5791535
  },
  {
    "id": "630019675",
    "name": "ALL COMFORT HOSPICE INC",
    "npi": null,
    "hcaiId": "406192918",
    "businessName": "ALL COMFORT HOSPICE INC",
    "contactEmail": "ALLCOMFORTHOSPICE@GMAIL.COM",
    "categoryName": "HOSPICE",
    "categoryCode": "HOSPICE",
    "licenseStatus": "ACTIVE",
    "inService": true,
    "licenseNumber": "550005744",
    "licenseEffectiveDate": "09/04/2024",
    "licenseExpirationDate": "09/03/2026",
    "dataDate": "10/18/2025",
    "capacity": 0,
    "address": "25201 AVENUE TIBBITTS, SUITE 202",
    "city": "VALENCIA",
    "zip": "91355",
    "county": "LOS ANGELES",
    "phone": "(661) 200-0384",
    "lat": 34.42923,
    "lng": -118.574379
  },
  {
    "id": "630016652",
    "name": "ARCAM HOME HEALTH CARE",
    "npi": "1780034579",
    "hcaiId": "406190943",
    "businessName": "ARCAM HOME HEALTH CARE",
    "contactEmail": "CAC@ARCAMHHC.COM",
    "categoryName": "HOME HEALTH AGENCY",
    "categoryCode": "HHA",
    "licenseStatus": "ACTIVE",
    "inService": true,
    "licenseNumber": "550004249",
    "licenseEffectiveDate": "05/11/2025",
    "licenseExpirationDate": "05/10/2026",
    "dataDate": "10/18/2025",
    "capacity": 0,
    "address": "25115 AVENUE STANFORD, SUITE A211",
    "city": "VALENCIA",
    "zip": "91355",
    "county": "LOS ANGELES",
    "phone": "(661) 678-0330",
    "lat": 34.436817,
    "lng": -118.5755175
  },
  {
    "id": "630022133",
    "name": "ATHELLA HOME HEALTH, INC.",
    "npi": null,
    "hcaiId": "406195781",
    "businessName": "ATHELLA HOME HEALTH, INC.",
    "contactEmail": "ATHELLAHHINC@GMAIL.COM",
    "categoryName": "HOME HEALTH AGENCY",
    "categoryCode": "HHA",
    "licenseStatus": "ACTIVE",
    "inService": true,
    "licenseNumber": "550007808",
    "licenseEffectiveDate": "01/20/2025",
    "licenseExpirationDate": "01/19/2026",
    "dataDate": "10/18/2025",
    "capacity": 0,
    "address": "27200 TOURNEY RD, SUITE 102",
    "city": "VALENCIA",
    "zip": "91355",
    "county": "LOS ANGELES",
    "phone": "(661) 388-4045",
    "lat": 34.41654,
    "lng": -118.5750855
  },
  {
    "id": "630008621",
    "name": "BELVIEW HEALTHCARE SERVICES",
    "npi": null,
    "hcaiId": "406196908",
    "businessName": "BELVIEW HEALTHCARE SERVICES",
    "contactEmail": "ANIBELICHKOV@GMAIL.COM",
    "categoryName": "HOSPICE",
    "categoryCode": "HOSPICE",
    "licenseStatus": "ACTIVE",
    "inService": true,
    "licenseNumber": "550000338",
    "licenseEffectiveDate": "12/08/2024",
    "licenseExpirationDate": "12/07/2026",
    "dataDate": "10/18/2025",
    "capacity": 0,
    "address": "28005N SMYTH DR, SUITE 116",
    "city": "VALENCIA",
    "zip": "91355",
    "county": "LOS ANGELES",
    "phone": "(818) 703-2463",
    "lat": 34.44240498,
    "lng": -118.571355
  },
  {
    "id": "630020465",
    "name": "DEVOTED HEALTH HOSPICE",
    "npi": null,
    "hcaiId": "406193722",
    "businessName": "DEVOTED HEALTH HOSPICE",
    "contactEmail": "MELISSAGREGORIAN@GMAIL.COM",
    "categoryName": "HOSPICE",
    "categoryCode": "HOSPICE",
    "licenseStatus": "ACTIVE",
    "inService": true,
    "licenseNumber": "550006739",
    "licenseEffectiveDate": "07/06/2025",
    "licenseExpirationDate": "07/05/2027",
    "dataDate": "10/18/2025",
    "capacity": 0,
    "address": "25000 AVENUE STANFORD, SUITE 116",
    "city": "VALENCIA",
    "zip": "91355",
    "county": "LOS ANGELES",
    "phone": "(818) 434-6418",
    "lat": 34.43832002,
    "lng": -118.572749
  },
  {
    "id": "630017343",
    "name": "GATEWAY SURGERY CENTER, LLC",
    "npi": "1770989212",
    "hcaiId": null,
    "businessName": null,
    "contactEmail": null,
    "categoryName": "SURGICAL CLINIC",
    "categoryCode": "ASC",
    "licenseStatus": null,
    "inService": null,
    "licenseNumber": null,
    "licenseEffectiveDate": null,
    "licenseExpirationDate": null,
    "dataDate": "10/18/2025",
    "capacity": 0,
    "address": "28682 THE OLD RD",
    "city": "VALENCIA",
    "zip": "91355",
    "county": "LOS ANGELES",
    "phone": null,
    "lat": 34.440336,
    "lng": -118.602882
  },
  {
    "id": "630011665",
    "name": "GET WELL HOME HEALTH, INC.",
    "npi": "1750663951",
    "hcaiId": "406197358",
    "businessName": "GET WELL HOME HEALTH, INC.",
    "contactEmail": "GETWELL.NURSE@GMAIL.COM",
    "categoryName": "HOME HEALTH AGENCY",
    "categoryCode": "HHA",
    "licenseStatus": "ACTIVE",
    "inService": true,
    "licenseNumber": "550001215",
    "licenseEffectiveDate": "05/31/2025",
    "licenseExpirationDate": "05/30/2026",
    "dataDate": "10/18/2025",
    "capacity": 0,
    "address": "28436 CONSTELLATION RD, SUITE 200",
    "city": "VALENCIA",
    "zip": "91355",
    "county": "LOS ANGELES",
    "phone": "(818) 627-7699",
    "lat": 34.454052,
    "lng": -118.576449
  },
  {
    "id": "930000063",
    "name": "HENRY MAYO NEWHALL HOSPITAL",
    "npi": "1780668434",
    "hcaiId": "106190949",
    "businessName": "HENRY MAYO NEWHALL MEMORIAL HOSPITAL",
    "contactEmail": "MILIANTAC@HENRYMAYO.COM",
    "categoryName": "GENERAL ACUTE CARE HOSPITAL",
    "categoryCode": "GACH",
    "licenseStatus": "ACTIVE",
    "inService": true,
    "licenseNumber": "930000206",
    "licenseEffectiveDate": "12/19/2024",
    "licenseExpirationDate": "11/29/2025",
    "dataDate": "10/18/2025",
    "capacity": 334,
    "address": "23845 MCBEAN PKWY",
    "city": "VALENCIA",
    "zip": "91355",
    "county": "LOS ANGELES",
    "phone": "(661) 713-1548",
    "lat": 34.39773,
    "lng": -118.553589
  },
  {
    "id": "930000888",
    "name": "HENRY MAYO NEWHALL MEMORIAL HOSPITAL D/P APH",
    "npi": "1780668434",
    "hcaiId": null,
    "businessName": "HENRY MAYO NEWHALL MEMORIAL HOSPITAL",
    "contactEmail": null,
    "categoryName": "ACUTE PSYCHIATRIC HOSPITAL",
    "categoryCode": "APH",
    "licenseStatus": "ACTIVE",
    "inService": true,
    "licenseNumber": "930000206",
    "licenseEffectiveDate": "12/19/2024",
    "licenseExpirationDate": "11/29/2025",
    "dataDate": "10/18/2025",
    "capacity": 23,
    "address": "25727 MCBEAN PKWY",
    "city": "VALENCIA",
    "zip": "91355",
    "county": "LOS ANGELES",
    "phone": "(661) 255-8100",
    "lat": 34.398918,
    "lng": -118.5526125
  },
  {
    "id": "630027020",
    "name": "HOME CARE OF SOCAL",
    "npi": null,
    "hcaiId": null,
    "businessName": "HOME CARE OF SOCAL",
    "contactEmail": "INFO.SOCALMEDSOLUTIONSLLC@GMAIL.COM",
    "categoryName": "HOME HEALTH AGENCY",
    "categoryCode": "HHA",
    "licenseStatus": "ACTIVE",
    "inService": true,
    "licenseNumber": "550009774",
    "licenseEffectiveDate": "10/28/2025",
    "licenseExpirationDate": "04/27/2026",
    "dataDate": "10/18/2025",
    "capacity": 0,
    "address": "27201 TOURNEY RD, SUITE 201R",
    "city": "VALENCIA",
    "zip": "91355",
    "county": "LOS ANGELES",
    "phone": "(310) 409-7309",
    "lat": 34.41699,
    "lng": -118.577601
  },
  {
    "id": "630026772",
    "name": "MATER DEI HOME HEALTH INC",
    "npi": null,
    "hcaiId": null,
    "businessName": "MATER DEI HOME HEALTH INC",
    "contactEmail": "MATERDEIHH@GMAIL.COM",
    "categoryName": "HOME HEALTH AGENCY",
    "categoryCode": "HHA",
    "licenseStatus": "ACTIVE",
    "inService": true,
    "licenseNumber": "550009972",
    "licenseEffectiveDate": "10/06/2025",
    "licenseExpirationDate": "04/05/2026",
    "dataDate": "10/18/2025",
    "capacity": 0,
    "address": "25350 MAGIC MOUNTAIN PKWY, SUITE 300, OFFICE 333",
    "city": "VALENCIA",
    "zip": "91355",
    "county": "LOS ANGELES",
    "phone": "(661) 481-2000",
    "lat": 34.423542,
    "lng": -118.5778395
  },
  {
    "id": "980001204",
    "name": "MAXIM HEALTHCARE SERVICES, INC.",
    "npi": "1780822239",
    "hcaiId": "406197319",
    "businessName": "MAXIM HEALTHCARE SERVICES, INC.",
    "contactEmail": "VALENCIACAHOMECARE-468@MAXHEALTH.COM",
    "categoryName": "HOME HEALTH AGENCY",
    "categoryCode": "HHA",
    "licenseStatus": "ACTIVE",
    "inService": true,
    "licenseNumber": "980000671",
    "licenseEffectiveDate": "02/04/2025",
    "licenseExpirationDate": "02/03/2026",
    "dataDate": "10/18/2025",
    "capacity": 0,
    "address": "28470 AVENUE STANFORD, SUITE 280",
    "city": "SANTA CLARITA",
    "zip": "91355",
    "county": "LOS ANGELES",
    "phone": "(661) 964-6350",
    "lat": 34.4404157,
    "lng": -118.5995009
  },
  {
    "id": "630021501",
    "name": "MILLENNIUM HOME HEALTH, INC",
    "npi": null,
    "hcaiId": "406195859",
    "businessName": "MILLENNIUM HOME HEALTH, INC",
    "contactEmail": "REZA@THEMEDSUPPLY.COM",
    "categoryName": "HOME HEALTH AGENCY",
    "categoryCode": "HHA",
    "licenseStatus": "ACTIVE",
    "inService": true,
    "licenseNumber": "550008014",
    "licenseEffectiveDate": "06/02/2025",
    "licenseExpirationDate": "06/01/2026",
    "dataDate": "10/18/2025",
    "capacity": 0,
    "address": "28863 INDUSTRY DR, UNIT A",
    "city": "VALENCIA",
    "zip": "91355",
    "county": "LOS ANGELES",
    "phone": "(818) 210-3527",
    "lat": 34.456662,
    "lng": -118.638207
  },
  {
    "id": "630017886",
    "name": "NEWHALL HEALTH CENTER",
    "npi": null,
    "hcaiId": "306190365",
    "businessName": "NORTHEAST VALLEY HEALTH CORPORATION",
    "contactEmail": "NAYELIESPARZA@NEVHC.ORG",
    "categoryName": "PRIMARY CARE CLINIC",
    "categoryCode": "COMTYC",
    "licenseStatus": "ACTIVE",
    "inService": true,
    "licenseNumber": "550004267",
    "licenseEffectiveDate": "06/05/2025",
    "licenseExpirationDate": "06/04/2026",
    "dataDate": "10/18/2025",
    "capacity": 0,
    "address": "23413 LYONS AVE",
    "city": "SANTA CLARITA",
    "zip": "91355",
    "county": "LOS ANGELES",
    "phone": "(661) 593-7500",
    "lat": 34.380792,
    "lng": -118.542978
  },
  {
    "id": "960001995",
    "name": "NORTHEAST VALLEY HLTH CORP. LAC-VALENCIA HLTH CNTR",
    "npi": null,
    "hcaiId": "306194810",
    "businessName": "NORTHEAST VALLEY HEALTH CORPORATION",
    "contactEmail": "HECTORGODOY@NEVHC.ORG",
    "categoryName": "PRIMARY CARE CLINIC",
    "categoryCode": "COMTYC",
    "licenseStatus": "ACTIVE",
    "inService": true,
    "licenseNumber": "550001428",
    "licenseEffectiveDate": "12/02/2024",
    "licenseExpirationDate": "12/01/2025",
    "dataDate": "10/18/2025",
    "capacity": 0,
    "address": "23763 VALENCIA BLVD",
    "city": "VALENCIA",
    "zip": "91355",
    "county": "LOS ANGELES",
    "phone": "(661) 287-1551",
    "lat": 34.414632,
    "lng": -118.551258
  },
  {
    "id": "630014533",
    "name": "PREMIER HOSPICE & HOME CARE",
    "npi": "1093155343",
    "hcaiId": "406198244",
    "businessName": "PREMIER HOSPICE & HOMECARE",
    "contactEmail": "INFO@PREMIERHOSPICE.US",
    "categoryName": "HOSPICE",
    "categoryCode": "HOSPICE",
    "licenseStatus": "ACTIVE",
    "inService": true,
    "licenseNumber": "550002743",
    "licenseEffectiveDate": "06/22/2024",
    "licenseExpirationDate": "06/21/2026",
    "dataDate": "10/18/2025",
    "capacity": 0,
    "address": "23300 CINEMA DR, SUITE 285",
    "city": "VALENCIA",
    "zip": "91355",
    "county": "LOS ANGELES",
    "phone": "(800) 857-1467",
    "lat": 34.418844,
    "lng": -118.542924
  },
  {
    "id": "630021475",
    "name": "PRESTIGE HOME CARE, INC.",
    "npi": null,
    "hcaiId": "406193470",
    "businessName": "PRESTIGE HOME CARE, INC.",
    "contactEmail": "PRESTIGEHOMECAREINC@GMAIL.COM",
    "categoryName": "HOME HEALTH AGENCY",
    "categoryCode": "HHA",
    "licenseStatus": "ACTIVE",
    "inService": true,
    "licenseNumber": "550006944",
    "licenseEffectiveDate": "10/12/2025",
    "licenseExpirationDate": "10/11/2026",
    "dataDate": "10/18/2025",
    "capacity": 0,
    "address": "25050 AVENUE KEARNY, SUITE 101B",
    "city": "SANTA CLARITA",
    "zip": "91355",
    "county": "LOS ANGELES",
    "phone": "(661) 383-6250",
    "lat": 34.435158,
    "lng": -118.5723
  },
  {
    "id": "630020781",
    "name": "PRESTIGE HOSPICE CARE",
    "npi": null,
    "hcaiId": "406193973",
    "businessName": "PRESTIGE HOSPICE CARE",
    "contactEmail": "PRESTIGEHOSPICECARE@GMAIL.COM",
    "categoryName": "HOSPICE",
    "categoryCode": "HOSPICE",
    "licenseStatus": "ACTIVE",
    "inService": true,
    "licenseNumber": "550007133",
    "licenseEffectiveDate": "08/26/2023",
    "licenseExpirationDate": "08/25/2025",
    "dataDate": "10/18/2025",
    "capacity": 0,
    "address": "25050 AVENUE KEARNY, SUITE 101A",
    "city": "SANTA CLARITA",
    "zip": "91355",
    "county": "LOS ANGELES",
    "phone": "(818) 282-0979",
    "lat": 34.434936,
    "lng": -118.571967
  },
  {
    "id": "630016397",
    "name": "PROMINENT HOME HEALTH CARE, INC.",
    "npi": "1750750576",
    "hcaiId": "406190662",
    "businessName": "PROMINENT HOME HEALTH CARE, INC.",
    "contactEmail": "PROMINENTHHC@GMAIL.COM",
    "categoryName": "HOME HEALTH AGENCY",
    "categoryCode": "HHA",
    "licenseStatus": "ACTIVE",
    "inService": true,
    "licenseNumber": "550004167",
    "licenseEffectiveDate": "06/06/2025",
    "licenseExpirationDate": "03/02/2026",
    "dataDate": "10/18/2025",
    "capacity": 0,
    "address": "25115 AVENUE STANFORD, SUITE B225",
    "city": "VALENCIA",
    "zip": "91355",
    "county": "LOS ANGELES",
    "phone": "(818) 666-7154",
    "lat": 34.436799,
    "lng": -118.575582
  },
  {
    "id": "630003661",
    "name": "PROVIDENCE SUMMIT SURGERY CENTER",
    "npi": "1679504690",
    "hcaiId": "306196550",
    "businessName": "SANTA CLARITA SURGERY CENTER, L.P.",
    "contactEmail": "RHEIMAN@UNITEDSURGICAL.COM",
    "categoryName": "SURGICAL CLINIC",
    "categoryCode": "ASC",
    "licenseStatus": "INACTIVE - CAPEN DECISION",
    "inService": false,
    "licenseNumber": "550000620",
    "licenseEffectiveDate": "09/20/2007",
    "licenseExpirationDate": "03/19/2008",
    "dataDate": "10/18/2025",
    "capacity": 0,
    "address": "26357 MCBEAN PKWY, SUITE 100",
    "city": "VALENCIA",
    "zip": "91355",
    "county": "LOS ANGELES",
    "phone": "(677) 799-8300",
    "lat": 34.412346,
    "lng": -118.560519
  },
  {
    "id": "630021300",
    "name": "QU BIT HOSPICE AND PALLIATIVE CARE, INC.",
    "npi": null,
    "hcaiId": "406195184",
    "businessName": "QU BIT HOSPICE AND PALLIATIVE CARE, INC",
    "contactEmail": "QUBITHOSPICE@GMAIL.COM",
    "categoryName": "HOSPICE",
    "categoryCode": "HOSPICE",
    "licenseStatus": "ACTIVE",
    "inService": true,
    "licenseNumber": "550007614",
    "licenseEffectiveDate": "12/22/2021",
    "licenseExpirationDate": "12/21/2023",
    "dataDate": "10/18/2025",
    "capacity": 0,
    "address": "24910 AVENUE TIBBITTS, SUITE 6",
    "city": "VALENCIA",
    "zip": "91355",
    "county": "LOS ANGELES",
    "phone": "(855) 994-2655",
    "lat": 34.432857,
    "lng": -118.567818
  },
  {
    "id": "630020160",
    "name": "REACHWELL HOME HEALTH, INC.",
    "npi": null,
    "hcaiId": "406195566",
    "businessName": "REACHWELL HOME HEALTH, INC.",
    "contactEmail": "REACHWELLHH@YAHOO.COM",
    "categoryName": "HOME HEALTH AGENCY",
    "categoryCode": "HHA",
    "licenseStatus": "ACTIVE",
    "inService": true,
    "licenseNumber": "550006059",
    "licenseEffectiveDate": "02/10/2025",
    "licenseExpirationDate": "02/09/2026",
    "dataDate": "10/18/2025",
    "capacity": 0,
    "address": "25000 AVENUE STANFORD, SUITE 173",
    "city": "VALENCIA",
    "zip": "91355",
    "county": "LOS ANGELES",
    "phone": "(213) 314-1546",
    "lat": 34.43823,
    "lng": -118.571985
  },
  {
    "id": "630019402",
    "name": "RX HOME HEALTH INC",
    "npi": null,
    "hcaiId": "406192432",
    "businessName": "RX HOME HEALTH INC.",
    "contactEmail": "FRANK@RXHOMEHEALTHINC.COM",
    "categoryName": "HOME HEALTH AGENCY",
    "categoryCode": "HHA",
    "licenseStatus": "ACTIVE",
    "inService": true,
    "licenseNumber": "550005327",
    "licenseEffectiveDate": "03/03/2025",
    "licenseExpirationDate": "03/02/2026",
    "dataDate": "10/18/2025",
    "capacity": 0,
    "address": "23300 CINEMA DR, SUITE 275",
    "city": "VALENCIA",
    "zip": "91355",
    "county": "LOS ANGELES",
    "phone": "(661) 977-3504",
    "lat": 34.418844,
    "lng": -118.542924
  },
  {
    "id": "630016515",
    "name": "SANTA CLARITA DIALYSIS, LLC",
    "npi": null,
    "hcaiId": "306198465",
    "businessName": "SANTA CLARITA DIALYSIS, LLC",
    "contactEmail": "LILY@AMERICANRENALCARE.COM",
    "categoryName": "CHRONIC DIALYSIS CLINIC",
    "categoryCode": "ESRD/CDC",
    "licenseStatus": "ACTIVE",
    "inService": true,
    "licenseNumber": "550003636",
    "licenseEffectiveDate": "07/25/2025",
    "licenseExpirationDate": "07/24/2026",
    "dataDate": "10/18/2025",
    "capacity": 27,
    "address": "23421 LYONS AVENUE",
    "city": "SANTA CLARITA",
    "zip": "91355",
    "county": "LOS ANGELES",
    "phone": "(661) 244-1835",
    "lat": 34.380783,
    "lng": -118.5432075
  },
  {
    "id": "930000230",
    "name": "SANTA CLARITA KIDNEY CENTER, INC.",
    "npi": "1275505588",
    "hcaiId": "306194833",
    "businessName": "SANTA CLARITA KIDNEY CENTER, INC.",
    "contactEmail": "INFO@NATIONALRENALCARE.COM",
    "categoryName": "CHRONIC DIALYSIS CLINIC",
    "categoryCode": "ESRD/CDC",
    "licenseStatus": "ACTIVE",
    "inService": true,
    "licenseNumber": "930000242",
    "licenseEffectiveDate": "02/16/2025",
    "licenseExpirationDate": "02/15/2026",
    "dataDate": "10/18/2025",
    "capacity": 24,
    "address": "23861 MCBEAN PKWY, SUITE 11",
    "city": "VALENCIA",
    "zip": "91355",
    "county": "LOS ANGELES",
    "phone": "(661) 222-7370",
    "lat": 34.396353,
    "lng": -118.5547455
  },
  {
    "id": "930001728",
    "name": "SANTA CLARITA SURGERY CTR FOR ADVANCED PAIN MGMNT",
    "npi": "1699720573",
    "hcaiId": "306196221",
    "businessName": "NARINDER S. GREWAL, M.D., A MEDICAL CORPORATION",
    "contactEmail": "NSGREWALMD@SBCGLOBAL.NET",
    "categoryName": "SURGICAL CLINIC",
    "categoryCode": "ASC",
    "licenseStatus": "INACTIVE - CAPEN DECISION",
    "inService": false,
    "licenseNumber": "930000958",
    "licenseEffectiveDate": "12/04/2007",
    "licenseExpirationDate": "12/03/2008",
    "dataDate": "10/18/2025",
    "capacity": 0,
    "address": "23861 MCBEAN PKWY, SUITE A1",
    "city": "VALENCIA",
    "zip": "91355",
    "county": "LOS ANGELES",
    "phone": "(661) 288-5700",
    "lat": 34.396353,
    "lng": -118.55493
  },
  {
    "id": "630011066",
    "name": "SCV PREGNANCY CENTER",
    "npi": null,
    "hcaiId": "306190559",
    "businessName": "SCV PREGNANCY CENTER",
    "contactEmail": "CEO@SCVPC.ORG",
    "categoryName": "PRIMARY CARE CLINIC",
    "categoryCode": "COMTYC",
    "licenseStatus": "ACTIVE",
    "inService": true,
    "licenseNumber": "550000674",
    "licenseEffectiveDate": "03/03/2025",
    "licenseExpirationDate": "03/02/2026",
    "dataDate": "10/18/2025",
    "capacity": 0,
    "address": "25174 RYE CANYON RD",
    "city": "SANTA CLARITA",
    "zip": "91355",
    "county": "LOS ANGELES",
    "phone": "(661) 255-0084",
    "lat": 34.4405313,
    "lng": -118.5760914
  },
  {
    "id": "630017815",
    "name": "SCV PREGNANCY CENTER",
    "npi": null,
    "hcaiId": null,
    "businessName": "SCV PREGNANCY CENTER",
    "contactEmail": null,
    "categoryName": "PRIMARY CARE CLINIC",
    "categoryCode": "COMTYC",
    "licenseStatus": "ACTIVE",
    "inService": true,
    "licenseNumber": "550000674",
    "licenseEffectiveDate": "03/03/2025",
    "licenseExpirationDate": "03/02/2026",
    "dataDate": "10/18/2025",
    "capacity": 0,
    "address": "25174 RYE CANYON ROAD",
    "city": "VALENCIA",
    "zip": "91355",
    "county": "LOS ANGELES",
    "phone": null,
    "lat": 34.4405313,
    "lng": -118.5760914
  },
  {
    "id": "630027843",
    "name": "SKYLINE SURGERY CENTER LLC",
    "npi": null,
    "hcaiId": null,
    "businessName": null,
    "contactEmail": "ASCGLOBAL1010@GMAIL.COM",
    "categoryName": "SURGICAL CLINIC",
    "categoryCode": "ASC",
    "licenseStatus": null,
    "inService": null,
    "licenseNumber": null,
    "licenseEffectiveDate": null,
    "licenseExpirationDate": null,
    "dataDate": "10/18/2025",
    "capacity": 0,
    "address": "25425 ORCHARD VILLAGE RD, SUITE 280A",
    "city": "VALENCIA",
    "zip": "91355",
    "county": "LOS ANGELES",
    "phone": "(213) 359-3050",
    "lat": 34.39018298,
    "lng": -118.5482015
  },
  {
    "id": "630011389",
    "name": "SUPREME HEALTHCARE, INC.",
    "npi": "1518173384",
    "hcaiId": "406197188",
    "businessName": "SUPREME HEALTHCARE, INC.",
    "contactEmail": "CAROLYN@CAROLYNROMERO.COM",
    "categoryName": "HOME HEALTH AGENCY",
    "categoryCode": "HHA",
    "licenseStatus": "ACTIVE",
    "inService": true,
    "licenseNumber": "550000872",
    "licenseEffectiveDate": "11/26/2025",
    "licenseExpirationDate": "11/25/2026",
    "dataDate": "10/18/2025",
    "capacity": 0,
    "address": "28312 CONSTELLATION RD, SUITE A",
    "city": "VALENCIA",
    "zip": "91355",
    "county": "LOS ANGELES",
    "phone": "(818) 830-1155",
    "lat": 34.450083,
    "lng": -118.575342
  },
  {
    "id": "630014651",
    "name": "SUPREME HOSPICE AND PALLIATIVE CARE",
    "npi": null,
    "hcaiId": "406198224",
    "businessName": "SUPREME HEALTHCARE, INC.",
    "contactEmail": "SUPREME.HOSPICESC@GMAIL.COM",
    "categoryName": "HOSPICE",
    "categoryCode": "HOSPICE",
    "licenseStatus": "ACTIVE",
    "inService": true,
    "licenseNumber": "550002889",
    "licenseEffectiveDate": "11/07/2024",
    "licenseExpirationDate": "11/06/2026",
    "dataDate": "10/18/2025",
    "capacity": 0,
    "address": "28312 CONSTELLATION RD, SUITE B",
    "city": "VALENCIA",
    "zip": "91355",
    "county": "LOS ANGELES",
    "phone": "(661) 254-2206",
    "lat": 34.450083,
    "lng": -118.575342
  },
  {
    "id": "630013076",
    "name": "TOURNEY PLAZA SURGICAL CENTER",
    "npi": "1609103399",
    "hcaiId": null,
    "businessName": null,
    "contactEmail": null,
    "categoryName": "SURGICAL CLINIC",
    "categoryCode": "ASC",
    "licenseStatus": null,
    "inService": null,
    "licenseNumber": null,
    "licenseEffectiveDate": null,
    "licenseExpirationDate": null,
    "dataDate": "10/18/2025",
    "capacity": 0,
    "address": "27420 TOURNEY ROAD, SUITE 160",
    "city": "VALENCIA",
    "zip": "91355",
    "county": "LOS ANGELES",
    "phone": "(661) 259-3937",
    "lat": 34.421607,
    "lng": -118.5780825
  },
  {
    "id": "930001749",
    "name": "TOWN CENTER SURGERY CENTER, INC",
    "npi": "1114113909",
    "hcaiId": null,
    "businessName": null,
    "contactEmail": "NONE@DHS.CA.GOV",
    "categoryName": "SURGICAL CLINIC",
    "categoryCode": "ASC",
    "licenseStatus": null,
    "inService": null,
    "licenseNumber": null,
    "licenseEffectiveDate": null,
    "licenseExpirationDate": null,
    "dataDate": "10/18/2025",
    "capacity": 0,
    "address": "24510 TOWN CENTER DR, SUITE 180",
    "city": "VALENCIA",
    "zip": "91355",
    "county": "LOS ANGELES",
    "phone": "(661) 260-3021",
    "lat": 34.417971,
    "lng": -118.5638445
  },
  {
    "id": "630027389",
    "name": "UCLA DEPT OF MEDICINE",
    "npi": null,
    "hcaiId": null,
    "businessName": null,
    "contactEmail": null,
    "categoryName": "SURGICAL CLINIC",
    "categoryCode": "ASC",
    "licenseStatus": null,
    "inService": null,
    "licenseNumber": null,
    "licenseEffectiveDate": null,
    "licenseExpirationDate": null,
    "dataDate": "10/18/2025",
    "capacity": 0,
    "address": "27235 TOURNEY RD, SUITE 1100",
    "city": "VALENCIA",
    "zip": "91355",
    "county": "LOS ANGELES",
    "phone": null,
    "lat": 34.41755908,
    "lng": -118.5772654
  },
  {
    "id": "630017166",
    "name": "UCLA HEALTH PAIN MANAGEMENT SANTA CLARITA",
    "npi": "1740634369",
    "hcaiId": null,
    "businessName": null,
    "contactEmail": null,
    "categoryName": "SURGICAL CLINIC",
    "categoryCode": "ASC",
    "licenseStatus": null,
    "inService": null,
    "licenseNumber": null,
    "licenseEffectiveDate": null,
    "licenseExpirationDate": null,
    "dataDate": "10/18/2025",
    "capacity": 0,
    "address": "25775 MCBEAN PKWY",
    "city": "VALENCIA",
    "zip": "91355",
    "county": "LOS ANGELES",
    "phone": null,
    "lat": 34.400394,
    "lng": -118.5517035
  },
  {
    "id": "930000882",
    "name": "UCLA HEALTH-DIGESTIVE DISEASES SANTA CLARITA",
    "npi": "1235107566",
    "hcaiId": null,
    "businessName": null,
    "contactEmail": "NONE@DHS.CA.GOV",
    "categoryName": "SURGICAL CLINIC",
    "categoryCode": "ASC",
    "licenseStatus": null,
    "inService": null,
    "licenseNumber": null,
    "licenseEffectiveDate": null,
    "licenseExpirationDate": null,
    "dataDate": "10/18/2025",
    "capacity": 0,
    "address": "25775 MCBEAN PKWY SUITE 115",
    "city": "SANTA CLARITA",
    "zip": "91355",
    "county": "LOS ANGELES",
    "phone": "(661) 255-2425",
    "lat": 34.400394,
    "lng": -118.5517035
  },
  {
    "id": "630026171",
    "name": "VALENCIA CENTRAL HOME HEALTH INC",
    "npi": null,
    "hcaiId": null,
    "businessName": "VALENCIA CENTRAL HOME HEALTH,INC",
    "contactEmail": "VALENCIACENTRALHOMEHEALTH@GMAIL.COM",
    "categoryName": "HOME HEALTH AGENCY",
    "categoryCode": "HHA",
    "licenseStatus": "ACTIVE",
    "inService": true,
    "licenseNumber": "550009853",
    "licenseEffectiveDate": "06/13/2025",
    "licenseExpirationDate": "12/12/2025",
    "dataDate": "10/18/2025",
    "capacity": 0,
    "address": "27240 TURNBERRY LN, SUITE 200, UNIT 34",
    "city": "VALENCIA",
    "zip": "91355",
    "county": "LOS ANGELES",
    "phone": "(661) 666-4044",
    "lat": 34.44388811,
    "lng": -118.6109933
  },
  {
    "id": "630015830",
    "name": "VALENCIA HOSPICE CARE",
    "npi": "1467841403",
    "hcaiId": "406190196",
    "businessName": "VALENCIA HOSPICE CARE",
    "contactEmail": "VALENCIAHOSPICECARE@GMAIL.COM",
    "categoryName": "HOSPICE",
    "categoryCode": "HOSPICE",
    "licenseStatus": "ACTIVE",
    "inService": true,
    "licenseNumber": "550003795",
    "licenseEffectiveDate": "02/07/2025",
    "licenseExpirationDate": "02/06/2027",
    "dataDate": "10/18/2025",
    "capacity": 0,
    "address": "25050 AVENUE KEARNY, SUITE 104",
    "city": "VALENCIA",
    "zip": "91355",
    "county": "LOS ANGELES",
    "phone": "(661) 249-6245",
    "lat": 34.434936,
    "lng": -118.571967
  },
  {
    "id": "630015403",
    "name": "VERTEX HOSPICE CARE INC.",
    "npi": "1487066502",
    "hcaiId": "406198418",
    "businessName": "VERTEX HOSPICE CARE INC.",
    "contactEmail": "VERTEXHOSPICE@GMAIL.COM",
    "categoryName": "HOSPICE",
    "categoryCode": "HOSPICE",
    "licenseStatus": "ACTIVE",
    "inService": true,
    "licenseNumber": "550003879",
    "licenseEffectiveDate": "09/30/2025",
    "licenseExpirationDate": "05/11/2027",
    "dataDate": "10/18/2025",
    "capacity": 0,
    "address": "28436 CONSTELLATION RD, SUITE 100",
    "city": "SANTA CLARITA",
    "zip": "91355",
    "county": "LOS ANGELES",
    "phone": "(818) 937-1001",
    "lat": 34.454052,
    "lng": -118.576449
  },
  {
    "id": "630026330",
    "name": "WEST CREEK HOME HEALTH CARE SERVICES",
    "npi": null,
    "hcaiId": null,
    "businessName": "GUINTO GROUP OF COMPANIES",
    "contactEmail": "RYANGUINTO@WESTCREEKHOMEHEALTH.COM",
    "categoryName": "HOME HEALTH AGENCY",
    "categoryCode": "HHA",
    "licenseStatus": "ACTIVE",
    "inService": true,
    "licenseNumber": "550009180",
    "licenseEffectiveDate": "06/03/2025",
    "licenseExpirationDate": "06/02/2026",
    "dataDate": "10/18/2025",
    "capacity": 0,
    "address": "27965 SMYTH DR, SUITE 103",
    "city": "VALENCIA",
    "zip": "91355",
    "county": "LOS ANGELES",
    "phone": "(661) 607-4313",
    "lat": 34.441641,
    "lng": -118.5710985
  },
  {
    "id": "630024008",
    "name": "ZEUS HOME HEALTH",
    "npi": null,
    "hcaiId": "406195480",
    "businessName": "ZEUS HOME HEALTH",
    "contactEmail": "ZEUSHOMEHEALTH@GMAIL.COM",
    "categoryName": "HOME HEALTH AGENCY",
    "categoryCode": "HHA",
    "licenseStatus": "ACTIVE",
    "inService": true,
    "licenseNumber": "550008056",
    "licenseEffectiveDate": "07/01/2025",
    "licenseExpirationDate": "06/30/2026",
    "dataDate": "10/18/2025",
    "capacity": 0,
    "address": "25000 AVENUE STANFORD, UNIT 109",
    "city": "VALENCIA",
    "zip": "91355",
    "county": "LOS ANGELES",
    "phone": "(818) 245-5560",
    "lat": 34.43823,
    "lng": -118.571985
  }
]