[
  {
    "id": "630026288",
    "name": "911 HOME HEALTH CARE SERVICES INC",
    "npi": null,
    "hcaiId": null,
    "businessName": "911 HOME HEALTH CARE SERVICES INC",
    "contactEmail": "911CARESERVICES@GMAIL.COM",
    "categoryName": "HOME HEALTH AGENCY",
    "categoryCode": "HHA",
    "licenseStatus": "ACTIVE",
    "inService": true,
    "licenseNumber": "550009372",
    "licenseEffectiveDate": "03/10/2025",
    "licenseExpirationDate": "09/09/2025",
    "dataDate": "10/18/2025",
    "capacity": 0,
    "address": "19531 VENTURA BLVD, UNIT 17",
    "city": "TARZANA",
    "zip": "91356",
    "county": "LOS ANGELES",
    "phone": "(818) 638-3259",
    "lat": 34.1728621,
    "lng": -118.5591211
  },
  {
    "id": "630023751",
    "name": "A & A HOME HEALTH CARE SERVICES",
    "npi": null,
    "hcaiId": "406195824",
    "businessName": "A & A HOME HEALTH CARE SERVICES",
    "contactEmail": "AAHOMEHEALTHCS@GMAIL.COM",
    "categoryName": "HOME HEALTH AGENCY",
    "categoryCode": "HHA",
    "licenseStatus": "ACTIVE",
    "inService": true,
    "licenseNumber": "550007929",
    "licenseEffectiveDate": "03/31/2025",
    "licenseExpirationDate": "03/30/2026",
    "dataDate": "10/18/2025",
    "capacity": 0,
    "address": "18607 VENTURA BLVD, SUITE 212",
    "city": "TARZANA",
    "zip": "91356",
    "county": "LOS ANGELES",
    "phone": "(800) 676-1095",
    "lat": 34.17021,
    "lng": -118.538721
  },
  {
    "id": "630019522",
    "name": "A&A HOME CARE",
    "npi": null,
    "hcaiId": "406195663",
    "businessName": "A&A HOME CARE",
    "contactEmail": "AAHOMEHEALTHINC@GMAIL.COM",
    "categoryName": "HOME HEALTH AGENCY",
    "categoryCode": "HHA",
    "licenseStatus": "ACTIVE",
    "inService": true,
    "licenseNumber": "550005739",
    "licenseEffectiveDate": "09/19/2025",
    "licenseExpirationDate": "09/18/2026",
    "dataDate": "10/18/2025",
    "capacity": 0,
    "address": "18345 VENTURA BLVD, FLOOR 315",
    "city": "TARZANA",
    "zip": "91356",
    "county": "LOS ANGELES",
    "phone": "(747) 265-6111",
    "lat": 34.167618,
    "lng": -118.532376
  },
  {
    "id": "630022313",
    "name": "ADONIS HOSPICE, INC.",
    "npi": null,
    "hcaiId": "406195721",
    "businessName": "ADONIS HOSPICE, INC.",
    "contactEmail": "ADONISHOSPICE@GMAIL.COM",
    "categoryName": "HOSPICE",
    "categoryCode": "HOSPICE",
    "licenseStatus": "ACTIVE",
    "inService": true,
    "licenseNumber": "550007693",
    "licenseEffectiveDate": "12/23/2023",
    "licenseExpirationDate": "12/22/2025",
    "dataDate": "10/18/2025",
    "capacity": 0,
    "address": "18401 BURBANK BLVD, SUITE 224",
    "city": "TARZANA",
    "zip": "91356",
    "county": "LOS ANGELES",
    "phone": "(818) 453-3000",
    "lat": 34.171938,
    "lng": -118.5335775
  },
  {
    "id": "630020695",
    "name": "ALL STATE PATIENT CARE",
    "npi": null,
    "hcaiId": "406195509",
    "businessName": "ALL STATE PATIENT CARE",
    "contactEmail": "ALLSTATEPATIENTCARE@GMAIL.COM",
    "categoryName": "HOME HEALTH AGENCY",
    "categoryCode": "HHA",
    "licenseStatus": "ACTIVE",
    "inService": true,
    "licenseNumber": "550006750",
    "licenseEffectiveDate": "09/01/2025",
    "licenseExpirationDate": "08/31/2026",
    "dataDate": "10/18/2025",
    "capacity": 0,
    "address": "18345 VENTURA BLVD, SUITE 204",
    "city": "TARZANA",
    "zip": "91356",
    "county": "LOS ANGELES",
    "phone": "(818) 601-2626",
    "lat": 34.16762499,
    "lng": -118.532374
  },
  {
    "id": "630021604",
    "name": "ALOE VERA HOSPICE, LLC",
    "npi": null,
    "hcaiId": "406195146",
    "businessName": "ALOE VERA HOSPICE, LLC",
    "contactEmail": "ALOEVERAHOSPICE@GMAIL.COM",
    "categoryName": "HOSPICE",
    "categoryCode": "HOSPICE",
    "licenseStatus": "ACTIVE",
    "inService": true,
    "licenseNumber": "550007446",
    "licenseEffectiveDate": "12/16/2023",
    "licenseExpirationDate": "12/15/2025",
    "dataDate": "10/18/2025",
    "capacity": 0,
    "address": "18345 VENTURA BLVD, SUITE 206",
    "city": "TARZANA",
    "zip": "91356",
    "county": "LOS ANGELES",
    "phone": "(818) 869-9569",
    "lat": 34.167618,
    "lng": -118.532376
  },
  {
    "id": "630020769",
    "name": "AMERICAN REGAL HOME CARE",
    "npi": null,
    "hcaiId": "406195668",
    "businessName": "AMERICAN REGAL HOME CARE",
    "contactEmail": "AMERICANREGALHHC@GMAIL.COM",
    "categoryName": "HOME HEALTH AGENCY",
    "categoryCode": "HHA",
    "licenseStatus": "ACTIVE",
    "inService": true,
    "licenseNumber": "550005906",
    "licenseEffectiveDate": "12/16/2024",
    "licenseExpirationDate": "12/15/2025",
    "dataDate": "10/18/2025",
    "capacity": 0,
    "address": "18455 BURBANK BLVD, SUITE 314",
    "city": "TARZANA",
    "zip": "91356",
    "county": "LOS ANGELES",
    "phone": "(818) 975-8899",
    "lat": 34.172586,
    "lng": -118.535427
  },
  {
    "id": "630025620",
    "name": "AMPLE HOME HEALTH, INC.",
    "npi": null,
    "hcaiId": null,
    "businessName": "AMPLE HOME HEALTH, INC.",
    "contactEmail": "AMPLEHOMEHEALTH@GMAIL.COM",
    "categoryName": "HOME HEALTH AGENCY",
    "categoryCode": "HHA",
    "licenseStatus": "ACTIVE",
    "inService": true,
    "licenseNumber": "550009250",
    "licenseEffectiveDate": "12/07/2024",
    "licenseExpirationDate": "06/06/2025",
    "dataDate": "10/18/2025",
    "capacity": 0,
    "address": "18455 BURBANK BLVD, SUITE 412",
    "city": "TARZANA",
    "zip": "91356",
    "county": "LOS ANGELES",
    "phone": "(213) 677-7765",
    "lat": 34.17257299,
    "lng": -118.535437
  },
  {
    "id": "630023883",
    "name": "ANGELS WORLD HOME CARE",
    "npi": null,
    "hcaiId": null,
    "businessName": "ANGELS WORLD HOME CARE",
    "contactEmail": "ANGELSWORLDHC@GMAIL.COM",
    "categoryName": "HOME HEALTH AGENCY",
    "categoryCode": "HHA",
    "licenseStatus": "ACTIVE",
    "inService": true,
    "licenseNumber": "550008991",
    "licenseEffectiveDate": "03/13/2025",
    "licenseExpirationDate": "03/12/2026",
    "dataDate": "10/18/2025",
    "capacity": 0,
    "address": "18455 BURBANK BLVD, SUITE 315",
    "city": "TARZANA",
    "zip": "91356",
    "county": "LOS ANGELES",
    "phone": "(818) 599-6267",
    "lat": 34.172514,
    "lng": -118.5355485
  },
  {
    "id": "630020583",
    "name": "ANN HOME HEALTH, INC.",
    "npi": null,
    "hcaiId": "406195308",
    "businessName": "ANN HOME HEALTH, INC.",
    "contactEmail": "ANNHOMEHEALTH.INC@GMAIL.COM",
    "categoryName": "HOME HEALTH AGENCY",
    "categoryCode": "HHA",
    "licenseStatus": "ACTIVE",
    "inService": true,
    "licenseNumber": "550007051",
    "licenseEffectiveDate": "08/18/2023",
    "licenseExpirationDate": "08/17/2024",
    "dataDate": "10/18/2025",
    "capacity": 0,
    "address": "18455 BURBANK BLVD, SUITE 312",
    "city": "TARZANA",
    "zip": "91356",
    "county": "LOS ANGELES",
    "phone": "(747) 666-0161",
    "lat": 34.172586,
    "lng": -118.535427
  },
  {
    "id": "630016617",
    "name": "ARCLIGHT HOSPICE, INC.",
    "npi": "1689049678",
    "hcaiId": "406191691",
    "businessName": "ARCLIGHT HOSPICE, INC.",
    "contactEmail": "ARCLIGHTHOSPICE@GMAIL.COM",
    "categoryName": "HOSPICE",
    "categoryCode": "HOSPICE",
    "licenseStatus": "ACTIVE",
    "inService": true,
    "licenseNumber": "550004335",
    "licenseEffectiveDate": "08/09/2022",
    "licenseExpirationDate": "08/08/2024",
    "dataDate": "10/18/2025",
    "capacity": 0,
    "address": "19562 VENTURA BLVD, SUITE 229",
    "city": "TARZANA",
    "zip": "91356",
    "county": "LOS ANGELES",
    "phone": "(747) 777-9545",
    "lat": 34.17271667,
    "lng": -118.5596337
  },
  {
    "id": "630022281",
    "name": "ASA HOSPICE CARE INC",
    "npi": null,
    "hcaiId": "406196566",
    "businessName": "ASA HOSPICE CARE INC",
    "contactEmail": "ASAHOSPICECARE@GMAIL.COM",
    "categoryName": "HOSPICE",
    "categoryCode": "HOSPICE",
    "licenseStatus": "ACTIVE",
    "inService": true,
    "licenseNumber": "550007543",
    "licenseEffectiveDate": "12/10/2023",
    "licenseExpirationDate": "12/09/2025",
    "dataDate": "10/18/2025",
    "capacity": 0,
    "address": "18340 VENTURA BLVD, UNIT 207",
    "city": "TARZANA",
    "zip": "91356",
    "county": "LOS ANGELES",
    "phone": "(818) 731-6635",
    "lat": 34.167006,
    "lng": -118.532079
  },
  {
    "id": "630021417",
    "name": "ASTRAL HOSPICE AND PALLIATIVE CARE, INC.",
    "npi": null,
    "hcaiId": "406196240",
    "businessName": "ASTRAL HOSPICE AND PALLIATIVE CARE, INC.",
    "contactEmail": "ASTRALHOSPICE@GMAIL.COM",
    "categoryName": "HOSPICE",
    "categoryCode": "HOSPICE",
    "licenseStatus": "ACTIVE",
    "inService": true,
    "licenseNumber": "550006621",
    "licenseEffectiveDate": "08/02/2025",
    "licenseExpirationDate": "08/01/2027",
    "dataDate": "10/18/2025",
    "capacity": 0,
    "address": "19634 VENTURA BLVD, SUITE 300",
    "city": "TARZANA",
    "zip": "91356",
    "county": "LOS ANGELES",
    "phone": "(818) 277-1410",
    "lat": 34.172634,
    "lng": -118.561317
  },
  {
    "id": "630012000",
    "name": "AT HOME HEALTH SERVICES, INC.",
    "npi": "1376792416",
    "hcaiId": "406197278",
    "businessName": "AT HOME HEALTH SERVICES, INC.",
    "contactEmail": "ATHOMEHSINC@YAHOO.COM",
    "categoryName": "HOME HEALTH AGENCY",
    "categoryCode": "HHA",
    "licenseStatus": "ACTIVE",
    "inService": true,
    "licenseNumber": "550000976",
    "licenseEffectiveDate": "12/01/2024",
    "licenseExpirationDate": "11/30/2025",
    "dataDate": "10/18/2025",
    "capacity": 0,
    "address": "5530 CORBIN AVE, SUITE 228",
    "city": "TARZANA",
    "zip": "91356",
    "county": "LOS ANGELES",
    "phone": "(818) 757-3333",
    "lat": 34.171731,
    "lng": -118.5620445
  },
  {
    "id": "630022279",
    "name": "ATHENA HOSPICE, INC.",
    "npi": null,
    "hcaiId": "406196134",
    "businessName": "ATHENA HOSPICE, INC.",
    "contactEmail": "ATHENAHOSPICECARE@YAHOO.COM",
    "categoryName": "HOSPICE",
    "categoryCode": "HOSPICE",
    "licenseStatus": "ACTIVE",
    "inService": true,
    "licenseNumber": "550007604",
    "licenseEffectiveDate": "12/19/2023",
    "licenseExpirationDate": "12/18/2025",
    "dataDate": "10/18/2025",
    "capacity": 0,
    "address": "18401 BURBANK BLVD, SUITE 216",
    "city": "TARZANA",
    "zip": "91356",
    "county": "LOS ANGELES",
    "phone": "(818) 433-4040",
    "lat": 34.171938,
    "lng": -118.5335775
  },
  {
    "id": "630015170",
    "name": "ATHENS HOSPICE, INC.",
    "npi": "1376953992",
    "hcaiId": "406191364",
    "businessName": "ATHENS HOSPICE, INC.",
    "contactEmail": "ATHENSHOSPICE1@GMAIL.COM",
    "categoryName": "HOSPICE",
    "categoryCode": "HOSPICE",
    "licenseStatus": "ACTIVE",
    "inService": true,
    "licenseNumber": "550003714",
    "licenseEffectiveDate": "10/27/2022",
    "licenseExpirationDate": "10/26/2024",
    "dataDate": "10/18/2025",
    "capacity": 0,
    "address": "19634 VENTURA BLVD, SUITE 321",
    "city": "TARZANA",
    "zip": "91356",
    "county": "LOS ANGELES",
    "phone": "(818) 722-1973",
    "lat": 34.17246,
    "lng": -118.5612255
  },
  {
    "id": "630019383",
    "name": "ATTENTIVE HOME HEALTH INC.",
    "npi": null,
    "hcaiId": "406192901",
    "businessName": "ATTENTIVE HOME HEALTH INC.",
    "contactEmail": "ATTENTIVEHOMEHEALTHAGENCY@GMAIL.COM",
    "categoryName": "HOME HEALTH AGENCY",
    "categoryCode": "HHA",
    "licenseStatus": "ACTIVE",
    "inService": true,
    "licenseNumber": "550005777",
    "licenseEffectiveDate": "10/09/2025",
    "licenseExpirationDate": "10/08/2026",
    "dataDate": "10/18/2025",
    "capacity": 0,
    "address": "19634 VENTURA BLVD, SUITE 111",
    "city": "TARZANA",
    "zip": "91356",
    "county": "LOS ANGELES",
    "phone": "(818) 696-5011",
    "lat": 34.172316,
    "lng": -118.5612975
  },
  {
    "id": "630016291",
    "name": "AVANGUARD SURGERY CENTER, LLC",
    "npi": "1356543656",
    "hcaiId": null,
    "businessName": null,
    "contactEmail": null,
    "categoryName": "SURGICAL CLINIC",
    "categoryCode": "ASC",
    "licenseStatus": null,
    "inService": null,
    "licenseNumber": null,
    "licenseEffectiveDate": null,
    "licenseExpirationDate": null,
    "dataDate": "10/18/2025",
    "capacity": 0,
    "address": "5620 WILBUR AVE., SUITE #207",
    "city": "TARZANA",
    "zip": "91356",
    "county": "LOS ANGELES",
    "phone": "(818) 344-0070",
    "lat": 34.172802,
    "lng": -118.544112
  },
  {
    "id": "630021329",
    "name": "BELLEVUE HOSPICE CARE INC",
    "npi": null,
    "hcaiId": "406193718",
    "businessName": "BELLEVUE HOSPICE CARE, INC.",
    "contactEmail": "BELLEVUEHOSPICECARE@GMAIL.COM",
    "categoryName": "HOSPICE",
    "categoryCode": "HOSPICE",
    "licenseStatus": "ACTIVE",
    "inService": true,
    "licenseNumber": "550006717",
    "licenseEffectiveDate": "08/23/2023",
    "licenseExpirationDate": "08/22/2025",
    "dataDate": "10/18/2025",
    "capacity": 0,
    "address": "19634 VENTURA BLVD, SUITE 217",
    "city": "TARZANA",
    "zip": "91356",
    "county": "LOS ANGELES",
    "phone": "(661) 339-5035",
    "lat": 34.172316,
    "lng": -118.5612975
  },
  {
    "id": "630020927",
    "name": "BELMONT HOSPICE & PALLIATIVE CARE, INC",
    "npi": null,
    "hcaiId": "406193551",
    "businessName": "BELMONT HOSPICE & PALLIATIVE CARE, INC",
    "contactEmail": "BELMONTHOSPICECARE@GMAIL.COM",
    "categoryName": "HOSPICE",
    "categoryCode": "HOSPICE",
    "licenseStatus": "ACTIVE",
    "inService": true,
    "licenseNumber": "550006583",
    "licenseEffectiveDate": "02/05/2024",
    "licenseExpirationDate": "07/15/2025",
    "dataDate": "10/18/2025",
    "capacity": 0,
    "address": "19634 VENTURA BLVD, SUITE 221",
    "city": "TARZANA",
    "zip": "91356",
    "county": "LOS ANGELES",
    "phone": "(747) 777-6559",
    "lat": 34.17231198,
    "lng": -118.561309
  },
  {
    "id": "630024243",
    "name": "BEST SOLUTION HOME HEALTH CARE",
    "npi": null,
    "hcaiId": "406195613",
    "businessName": "BEST SOLUTION HOME HEALTH CARE",
    "contactEmail": "BESTSOLUTIONHH@YAHOO.COM",
    "categoryName": "HOME HEALTH AGENCY",
    "categoryCode": "HHA",
    "licenseStatus": "ACTIVE",
    "inService": true,
    "licenseNumber": "550008110",
    "licenseEffectiveDate": "08/02/2025",
    "licenseExpirationDate": "08/01/2026",
    "dataDate": "10/18/2025",
    "capacity": 0,
    "address": "18401 BURBANK BLVD, SUITE 109",
    "city": "TARZANA",
    "zip": "91356",
    "county": "LOS ANGELES",
    "phone": "(747) 270-3588",
    "lat": 34.172092,
    "lng": -118.533793
  },
  {
    "id": "630013604",
    "name": "BRAND TARZANA SURGICAL INSTITUTE INC",
    "npi": "1538451760",
    "hcaiId": null,
    "businessName": null,
    "contactEmail": "TARZANAOUTPATIENT@YAHOO.COM",
    "categoryName": "SURGICAL CLINIC",
    "categoryCode": "ASC",
    "licenseStatus": null,
    "inService": null,
    "licenseNumber": null,
    "licenseEffectiveDate": null,
    "licenseExpirationDate": null,
    "dataDate": "10/18/2025",
    "capacity": 0,
    "address": "19228 VENTURA BLVD, SUITE A",
    "city": "TARZANA",
    "zip": "91356",
    "county": "LOS ANGELES",
    "phone": "(818) 578-5125",
    "lat": 34.172442,
    "lng": -118.552203
  },
  {
    "id": "630020997",
    "name": "BRIGHT UNIVERSE HOSPICE CARE, INC.",
    "npi": null,
    "hcaiId": "406193438",
    "businessName": "BRIGHT UNIVERSE HOSPICE CARE, INC.",
    "contactEmail": "BRIGHTUNIVERSEHOSPICE@GMAIL.COM",
    "categoryName": "HOSPICE",
    "categoryCode": "HOSPICE",
    "licenseStatus": "ACTIVE",
    "inService": true,
    "licenseNumber": "550006692",
    "licenseEffectiveDate": "08/23/2025",
    "licenseExpirationDate": "08/22/2027",
    "dataDate": "10/18/2025",
    "capacity": 0,
    "address": "19634 VENTURA BLVD, SUITE 320",
    "city": "TARZANA",
    "zip": "91356",
    "county": "LOS ANGELES",
    "phone": "(747) 240-3077",
    "lat": 34.17231198,
    "lng": -118.561309
  },
  {
    "id": "630026814",
    "name": "CARE CONTROL HOME HEALTH CARE",
    "npi": null,
    "hcaiId": null,
    "businessName": "CARE CONTROL HOME HEALTH CARE",
    "contactEmail": "CARECONTROLHHC@GMAIL.COM",
    "categoryName": "HOME HEALTH AGENCY",
    "categoryCode": "HHA",
    "licenseStatus": "ACTIVE",
    "inService": true,
    "licenseNumber": "550009331",
    "licenseEffectiveDate": "08/26/2025",
    "licenseExpirationDate": "08/25/2026",
    "dataDate": "10/18/2025",
    "capacity": 0,
    "address": "19634 VENTURA BLVD, SUITE 107",
    "city": "TARZANA",
    "zip": "91356",
    "county": "LOS ANGELES",
    "phone": "(562) 280-5036",
    "lat": 34.17246,
    "lng": -118.5612255
  },
  {
    "id": "630013189",
    "name": "CARE ONE HOSPICE",
    "npi": null,
    "hcaiId": "406564227",
    "businessName": "CARE ONE HOSPICE",
    "contactEmail": "INFO@CAREONEHOSPICE.COM",
    "categoryName": "HOSPICE",
    "categoryCode": "HOSPICE",
    "licenseStatus": "ACTIVE",
    "inService": true,
    "licenseNumber": "550001869",
    "licenseEffectiveDate": "03/19/2020",
    "licenseExpirationDate": "03/18/2022",
    "dataDate": "10/18/2025",
    "capacity": 0,
    "address": "18520 BURBANK BLVD, SUITE 103",
    "city": "TARZANA",
    "zip": "91356",
    "county": "LOS ANGELES",
    "phone": "(866) 952-2734",
    "lat": 34.171965,
    "lng": -118.5368355
  },
  {
    "id": "630026046",
    "name": "CARE QUEST HOME HEALTH, INC.",
    "npi": null,
    "hcaiId": null,
    "businessName": "CARE QUEST HOME HEALTH, INC.",
    "contactEmail": "CAREQUESTHH@GMAIL.COM",
    "categoryName": "HOME HEALTH AGENCY",
    "categoryCode": "HHA",
    "licenseStatus": "ACTIVE",
    "inService": true,
    "licenseNumber": "550009155",
    "licenseEffectiveDate": "05/25/2025",
    "licenseExpirationDate": "05/24/2026",
    "dataDate": "10/18/2025",
    "capacity": 0,
    "address": "5567 RESEDA BLVD, SUITE 316",
    "city": "TARZANA",
    "zip": "91356",
    "county": "LOS ANGELES",
    "phone": "(818) 839-8181",
    "lat": 34.171578,
    "lng": -118.5364845
  },
  {
    "id": "630026283",
    "name": "CAREHUG HOME HEALTH SERVICES INC.",
    "npi": null,
    "hcaiId": null,
    "businessName": "CAREHUG HOME HEALTH SERVICES INC.",
    "contactEmail": "CAREHUGHHC@GMAIL.COM",
    "categoryName": "HOME HEALTH AGENCY",
    "categoryCode": "HHA",
    "licenseStatus": "ACTIVE",
    "inService": true,
    "licenseNumber": "550009362",
    "licenseEffectiveDate": "09/13/2025",
    "licenseExpirationDate": "09/12/2026",
    "dataDate": "10/18/2025",
    "capacity": 0,
    "address": "19634 VENTURA BLVD, SUITE 306",
    "city": "TARZANA",
    "zip": "91356",
    "county": "LOS ANGELES",
    "phone": "(424) 410-3099",
    "lat": 34.17246,
    "lng": -118.5612255
  },
  {
    "id": "630020802",
    "name": "CARING ONE HOME HEALTH, INC.",
    "npi": null,
    "hcaiId": "406193148",
    "businessName": "CARING ONE HOME HEALTH, INC.",
    "contactEmail": "CARINGONEHOMEHEALTH@GMAIL.COM",
    "categoryName": "HOME HEALTH AGENCY",
    "categoryCode": "HHA",
    "licenseStatus": "ACTIVE",
    "inService": true,
    "licenseNumber": "550006053",
    "licenseEffectiveDate": "02/19/2025",
    "licenseExpirationDate": "02/18/2026",
    "dataDate": "10/18/2025",
    "capacity": 0,
    "address": "19634 VENTURA BLVD, SUITE 201",
    "city": "TARZANA",
    "zip": "91356",
    "county": "LOS ANGELES",
    "phone": "(818) 650-8300",
    "lat": 34.17246,
    "lng": -118.5612255
  },
  {
    "id": "630017981",
    "name": "CEDAR CARE HOME HEALTH, INC.",
    "npi": null,
    "hcaiId": "406193793",
    "businessName": "CEDAR CARE HOME HEALTH INC",
    "contactEmail": "CEDARHOMEHEALTH@GMAIL.COM",
    "categoryName": "HOME HEALTH AGENCY",
    "categoryCode": "HHA",
    "licenseStatus": "ACTIVE",
    "inService": true,
    "licenseNumber": "550006253",
    "licenseEffectiveDate": "05/03/2025",
    "licenseExpirationDate": "05/02/2026",
    "dataDate": "10/18/2025",
    "capacity": 0,
    "address": "5530 CORBIN AVE, SUITE 375",
    "city": "TARZANA",
    "zip": "91356",
    "county": "LOS ANGELES",
    "phone": "(818) 578-3070",
    "lat": 34.17180802,
    "lng": -118.561841
  },
  {
    "id": "630021258",
    "name": "CENTINELA HOSPICE CARE, INC.",
    "npi": null,
    "hcaiId": "406196093",
    "businessName": "CENTINELA HOSPICE CARE, INC.",
    "contactEmail": "CENTINELAHOSPICE@GMAIL.COM",
    "categoryName": "HOSPICE",
    "categoryCode": "HOSPICE",
    "licenseStatus": "ACTIVE",
    "inService": true,
    "licenseNumber": "550006555",
    "licenseEffectiveDate": "07/20/2023",
    "licenseExpirationDate": "07/19/2025",
    "dataDate": "10/18/2025",
    "capacity": 0,
    "address": "19634 VENTURA BLVD, SUITE 219",
    "city": "TARZANA",
    "zip": "91356",
    "county": "LOS ANGELES",
    "phone": "(818) 626-3009",
    "lat": 34.17246,
    "lng": -118.5612255
  },
  {
    "id": "960002661",
    "name": "CENTRE FOR NEURO SKILLS - LA",
    "npi": null,
    "hcaiId": "306196233",
    "businessName": "CENTRE FOR NEURO SKILLS - LA",
    "contactEmail": "COMPLIANCE@NEUROSKILLS.COM",
    "categoryName": "REHABILITATION CLINIC",
    "categoryCode": "REHABC",
    "licenseStatus": "ACTIVE",
    "inService": true,
    "licenseNumber": "960001311",
    "licenseEffectiveDate": "05/04/2025",
    "licenseExpirationDate": "05/03/2026",
    "dataDate": "10/18/2025",
    "capacity": 0,
    "address": "5411 ETIWANDA AVE, SUITE 300",
    "city": "TARZANA",
    "zip": "91356",
    "county": "LOS ANGELES",
    "phone": "(661) 872-3408",
    "lat": 34.16863429,
    "lng": -118.5308674
  },
  {
    "id": "630017842",
    "name": "COMFORT CHOICE HOSPICE, INC.",
    "npi": "1093229130",
    "hcaiId": "406193118",
    "businessName": "COMFORT CHOICE HOSPICE, INC.",
    "contactEmail": "COMFORTCHOICEHOSPICEINC@GMAIL.COM",
    "categoryName": "HOSPICE",
    "categoryCode": "HOSPICE",
    "licenseStatus": "ACTIVE",
    "inService": true,
    "licenseNumber": "550004967",
    "licenseEffectiveDate": "10/07/2023",
    "licenseExpirationDate": "10/06/2025",
    "dataDate": "10/18/2025",
    "capacity": 0,
    "address": "18344 OXNARD ST, SUITE 211",
    "city": "TARZANA",
    "zip": "91356",
    "county": "LOS ANGELES",
    "phone": "(805) 220-9191",
    "lat": 34.179588,
    "lng": -118.5323805
  },
  {
    "id": "630024954",
    "name": "CONNECT CARE HOME HEALTH INC",
    "npi": null,
    "hcaiId": "406195966",
    "businessName": "CONNECT CARE HOME HEALTH INC.",
    "contactEmail": "CONNECTCAREHH@GMAIL.COM",
    "categoryName": "HOME HEALTH AGENCY",
    "categoryCode": "HHA",
    "licenseStatus": "ACTIVE",
    "inService": true,
    "licenseNumber": "550008304",
    "licenseEffectiveDate": "08/29/2025",
    "licenseExpirationDate": "01/03/2026",
    "dataDate": "10/18/2025",
    "capacity": 0,
    "address": "18425 BURBANK BLVD, SUITE 707",
    "city": "TARZANA",
    "zip": "91356",
    "county": "LOS ANGELES",
    "phone": "(818) 658-9788",
    "lat": 34.17218746,
    "lng": -118.5345137
  },
  {
    "id": "630021309",
    "name": "CONNECT CARE HOSPICE, INC.",
    "npi": null,
    "hcaiId": "406194839",
    "businessName": "CONNECT CARE HOSPICE, INC.",
    "contactEmail": "CONNECTCAREHOSPICE@GMAIL.COM",
    "categoryName": "HOSPICE",
    "categoryCode": "HOSPICE",
    "licenseStatus": "ACTIVE",
    "inService": true,
    "licenseNumber": "550006807",
    "licenseEffectiveDate": "09/20/2021",
    "licenseExpirationDate": "09/19/2023",
    "dataDate": "10/18/2025",
    "capacity": 0,
    "address": "19634 VENTURA BLVD, SUITE 216",
    "city": "TARZANA",
    "zip": "91356",
    "county": "LOS ANGELES",
    "phone": "(747) 215-0960",
    "lat": 34.17246,
    "lng": -118.5612255
  },
  {
    "id": "630021749",
    "name": "CORVITA HOSPICE CARE, INC.",
    "npi": null,
    "hcaiId": null,
    "businessName": "CORVITA HOSPICE CARE, INC.",
    "contactEmail": "CORVITAHOSPICECARE@GMAIL.COM",
    "categoryName": "HOSPICE",
    "categoryCode": "HOSPICE",
    "licenseStatus": "ACTIVE",
    "inService": true,
    "licenseNumber": "550007653",
    "licenseEffectiveDate": "08/11/2025",
    "licenseExpirationDate": "12/19/2025",
    "dataDate": "10/18/2025",
    "capacity": 0,
    "address": "19634 VENTURA BLVD, SUITE 310",
    "city": "TARZANA",
    "zip": "91356",
    "county": "LOS ANGELES",
    "phone": "(747) 348-7774",
    "lat": 34.1722715,
    "lng": -118.561309
  },
  {
    "id": "630011945",
    "name": "DIAMOND HOME HEALTH, INC",
    "npi": "1518134485",
    "hcaiId": "406197260",
    "businessName": "DIAMOND HOME HEALTH, INC",
    "contactEmail": "DIAMONDCAREUSA@GMAIL.COM",
    "categoryName": "HOME HEALTH AGENCY",
    "categoryCode": "HHA",
    "licenseStatus": "ACTIVE",
    "inService": true,
    "licenseNumber": "550000997",
    "licenseEffectiveDate": "04/03/2025",
    "licenseExpirationDate": "04/02/2026",
    "dataDate": "10/18/2025",
    "capacity": 0,
    "address": "5530 CORBIN AVE, SUITE 336",
    "city": "TARZANA",
    "zip": "91356",
    "county": "LOS ANGELES",
    "phone": "(626) 741-5088",
    "lat": 34.171731,
    "lng": -118.5620445
  },
  {
    "id": "630021148",
    "name": "DIAMOND KEY HOSPICE, INC",
    "npi": null,
    "hcaiId": "406193360",
    "businessName": "DIAMOND KEY HOSPICE, INC",
    "contactEmail": "DIAMONDKEYHOSPICE@GMAIL.COM",
    "categoryName": "HOSPICE",
    "categoryCode": "HOSPICE",
    "licenseStatus": "ACTIVE",
    "inService": true,
    "licenseNumber": "550006996",
    "licenseEffectiveDate": "10/14/2025",
    "licenseExpirationDate": "10/13/2027",
    "dataDate": "10/18/2025",
    "capacity": 0,
    "address": "19634 VENTURA BLVD, SUITE 112",
    "city": "TARZANA",
    "zip": "91356",
    "county": "LOS ANGELES",
    "phone": "(818) 475-5477",
    "lat": 34.17246,
    "lng": -118.5612255
  },
  {
    "id": "630018297",
    "name": "DNA HOME HEALTH SERVICES INC.",
    "npi": "1730662834",
    "hcaiId": "406191717",
    "businessName": "DNA HOME HEALTH SERVICES INC.",
    "contactEmail": "DNAHHC@GMAIL.COM",
    "categoryName": "HOME HEALTH AGENCY",
    "categoryCode": "HHA",
    "licenseStatus": "ACTIVE",
    "inService": true,
    "licenseNumber": "550004784",
    "licenseEffectiveDate": "06/08/2025",
    "licenseExpirationDate": "06/07/2026",
    "dataDate": "10/18/2025",
    "capacity": 0,
    "address": "18425 BURBANK BLVD, SUITE 417",
    "city": "TARZANA",
    "zip": "91356",
    "county": "LOS ANGELES",
    "phone": "(818) 938-9143",
    "lat": 34.17218746,
    "lng": -118.5345137
  },
  {
    "id": "630021252",
    "name": "EASE OF MIND HOSPICE CARE, INC.",
    "npi": null,
    "hcaiId": "406196101",
    "businessName": "EASE OF MIND HOSPICE CARE, INC.",
    "contactEmail": "EASEOFMINDHOSPICE@GMAIL.COM",
    "categoryName": "HOSPICE",
    "categoryCode": "HOSPICE",
    "licenseStatus": "ACTIVE",
    "inService": true,
    "licenseNumber": "550006624",
    "licenseEffectiveDate": "08/02/2023",
    "licenseExpirationDate": "08/01/2025",
    "dataDate": "10/18/2025",
    "capacity": 0,
    "address": "19634 VENTURA BLVD, SUITE 220",
    "city": "TARZANA",
    "zip": "91356",
    "county": "LOS ANGELES",
    "phone": "(818) 332-3388",
    "lat": 34.17246,
    "lng": -118.5612255
  },
  {
    "id": "630020192",
    "name": "EFFORT HOSPICE, INC.",
    "npi": null,
    "hcaiId": "406197144",
    "businessName": "EFFORT HOSPICE, INC.",
    "contactEmail": "EFFORTHOSPICE@GMAIL.COM",
    "categoryName": "HOSPICE",
    "categoryCode": "HOSPICE",
    "licenseStatus": "ACTIVE",
    "inService": true,
    "licenseNumber": "550006363",
    "licenseEffectiveDate": "05/25/2025",
    "licenseExpirationDate": "05/24/2027",
    "dataDate": "10/18/2025",
    "capacity": 0,
    "address": "19531 VENTURA BLVD, SUITE 3",
    "city": "TARZANA",
    "zip": "91356",
    "county": "LOS ANGELES",
    "phone": "(888) 406-0646",
    "lat": 34.1728621,
    "lng": -118.5591211
  },
  {
    "id": "630025477",
    "name": "EMERALD HEARTS HEALTHCARE",
    "npi": null,
    "hcaiId": null,
    "businessName": "EMERALD HEARTS HEALTHCARE",
    "contactEmail": "HEMERALDHEARTS@GMAIL.COM",
    "categoryName": "HOME HEALTH AGENCY",
    "categoryCode": "HHA",
    "licenseStatus": "ACTIVE",
    "inService": true,
    "licenseNumber": "550008750",
    "licenseEffectiveDate": "09/13/2025",
    "licenseExpirationDate": "09/12/2026",
    "dataDate": "10/18/2025",
    "capacity": 0,
    "address": "19626 VENTURA BLVD, UNIT 220A",
    "city": "TARZANA",
    "zip": "91356",
    "county": "LOS ANGELES",
    "phone": "(818) 745-8607",
    "lat": 34.17262988,
    "lng": -118.5610169
  },
  {
    "id": "630018381",
    "name": "EMO HOME HEALTHCARE INC",
    "npi": null,
    "hcaiId": "406197039",
    "businessName": "EMO HOME HEALTHCARE INC",
    "contactEmail": "EMOHOMECARE@GMAIL.COM",
    "categoryName": "HOME HEALTH AGENCY",
    "categoryCode": "HHA",
    "licenseStatus": "ACTIVE",
    "inService": true,
    "licenseNumber": "550005122",
    "licenseEffectiveDate": "10/04/2025",
    "licenseExpirationDate": "10/03/2026",
    "dataDate": "10/18/2025",
    "capacity": 0,
    "address": "18520 BURBANK BLVD, SUITE 108",
    "city": "TARZANA",
    "zip": "91356",
    "county": "LOS ANGELES",
    "phone": "(888) 295-1661",
    "lat": 34.17191401,
    "lng": -118.536898
  },
  {
    "id": "630022029",
    "name": "ESSENTIAL HOME HEALTH CARE CORP.",
    "npi": null,
    "hcaiId": "406195506",
    "businessName": "ESSENTIAL HOME HEALTH CARE CORP.",
    "contactEmail": "JORDANPEMBROOK@GMAIL.COM",
    "categoryName": "HOME HEALTH AGENCY",
    "categoryCode": "HHA",
    "licenseStatus": "ACTIVE",
    "inService": true,
    "licenseNumber": "550007750",
    "licenseEffectiveDate": "11/09/2024",
    "licenseExpirationDate": "11/08/2025",
    "dataDate": "10/18/2025",
    "capacity": 0,
    "address": "18344 OXNARD ST, SUITE 204",
    "city": "TARZANA",
    "zip": "91356",
    "county": "LOS ANGELES",
    "phone": "(818) 600-8617",
    "lat": 34.179588,
    "lng": -118.5323805
  },
  {
    "id": "630021432",
    "name": "FEDERAL HOSPICE CARE INC",
    "npi": null,
    "hcaiId": "406193250",
    "businessName": "FEDERAL HOSPICE CARE INC",
    "contactEmail": "FEDERALHOSPICE@GMAIL.COM",
    "categoryName": "HOSPICE",
    "categoryCode": "HOSPICE",
    "licenseStatus": "ACTIVE",
    "inService": true,
    "licenseNumber": "550006640",
    "licenseEffectiveDate": "07/16/2023",
    "licenseExpirationDate": "07/15/2025",
    "dataDate": "10/18/2025",
    "capacity": 0,
    "address": "18340 VENTURA BLVD, SUITE 204",
    "city": "TARZANA",
    "zip": "91356",
    "county": "LOS ANGELES",
    "phone": "(818) 237-8772",
    "lat": 34.167114,
    "lng": -118.532011
  },
  {
    "id": "630021774",
    "name": "FIRST CHOICE HOSPICE CARE, INC.",
    "npi": null,
    "hcaiId": "406193892",
    "businessName": "FIRST CHOICE HOSPICE CARE, INC.",
    "contactEmail": "FIRSTCHOICEHOSPICECARE@GMAIL.COM",
    "categoryName": "HOSPICE",
    "categoryCode": "HOSPICE",
    "licenseStatus": "ACTIVE",
    "inService": true,
    "licenseNumber": "550007312",
    "licenseEffectiveDate": "11/24/2023",
    "licenseExpirationDate": "11/23/2025",
    "dataDate": "10/18/2025",
    "capacity": 0,
    "address": "18340 VENTURA BLVD, SUITE 228",
    "city": "TARZANA",
    "zip": "91356",
    "county": "LOS ANGELES",
    "phone": "(747) 777-2752",
    "lat": 34.167006,
    "lng": -118.532079
  },
  {
    "id": "630021674",
    "name": "FIRST OPTION HOSPICE CARE",
    "npi": null,
    "hcaiId": "406197965",
    "businessName": "FIRST OPTION HOSPICE CARE",
    "contactEmail": "FIRSTOPTIONHOSPICECARE@OUTLOOK.COM",
    "categoryName": "HOSPICE",
    "categoryCode": "HOSPICE",
    "licenseStatus": "ACTIVE",
    "inService": true,
    "licenseNumber": "550007427",
    "licenseEffectiveDate": "12/07/2023",
    "licenseExpirationDate": "12/06/2025",
    "dataDate": "10/18/2025",
    "capacity": 0,
    "address": "19634 VENTURA BLVD, SUITE 202",
    "city": "TARZANA",
    "zip": "91356",
    "county": "LOS ANGELES",
    "phone": "(747) 293-3020",
    "lat": 34.17246,
    "lng": -118.5612255
  },
  {
    "id": "630020623",
    "name": "FIRST RESPONSE HOSPICE CARE",
    "npi": null,
    "hcaiId": "406193562",
    "businessName": "FIRST RESPONSE HOSPICE CARE",
    "contactEmail": "FIRSTRESPONSEHOSPICE@GMAIL.COM",
    "categoryName": "HOSPICE",
    "categoryCode": "HOSPICE",
    "licenseStatus": "ACTIVE",
    "inService": true,
    "licenseNumber": "550006599",
    "licenseEffectiveDate": "05/12/2025",
    "licenseExpirationDate": "05/11/2027",
    "dataDate": "10/18/2025",
    "capacity": 0,
    "address": "5530 CORBIN AVE, SUITE 221",
    "city": "TARZANA",
    "zip": "91356",
    "county": "LOS ANGELES",
    "phone": "(747) 264-1411",
    "lat": 34.17180802,
    "lng": -118.561841
  },
  {
    "id": "630019508",
    "name": "FREEDOM LIFE HOSPICE LLC",
    "npi": null,
    "hcaiId": "406192756",
    "businessName": "FREEDOM LIFE HOSPICE LLC",
    "contactEmail": "FREEDOMLIFEHOSPICE@GMAIL.COM",
    "categoryName": "HOSPICE",
    "categoryCode": "HOSPICE",
    "licenseStatus": "ACTIVE",
    "inService": true,
    "licenseNumber": "550005531",
    "licenseEffectiveDate": "09/23/2024",
    "licenseExpirationDate": "05/21/2026",
    "dataDate": "10/18/2025",
    "capacity": 0,
    "address": "18455 BURBANK BLVD, SUITE 210",
    "city": "TARZANA",
    "zip": "91356",
    "county": "LOS ANGELES",
    "phone": "(818) 527-4747",
    "lat": 34.17257299,
    "lng": -118.535437
  },
  {
    "id": "630022274",
    "name": "GAIA HOSPICE, INC.",
    "npi": null,
    "hcaiId": "406195714",
    "businessName": "GAIA HOSPICE, INC.",
    "contactEmail": "GAIAHOSPICE@YAHOO.COM",
    "categoryName": "HOSPICE",
    "categoryCode": "HOSPICE",
    "licenseStatus": "ACTIVE",
    "inService": true,
    "licenseNumber": "550007685",
    "licenseEffectiveDate": "12/20/2023",
    "licenseExpirationDate": "12/19/2025",
    "dataDate": "10/18/2025",
    "capacity": 0,
    "address": "18401 BURBANK BLVD, SUITE 218",
    "city": "TARZANA",
    "zip": "91356",
    "county": "LOS ANGELES",
    "phone": "(818) 433-4030",
    "lat": 34.171938,
    "lng": -118.5335775
  },
  {
    "id": "630018528",
    "name": "GARDEN OF ANGELS HOSPICE INC.",
    "npi": "1013488279",
    "hcaiId": "406191966",
    "businessName": "GARDEN OF ANGELS HOSPICE, INC.",
    "contactEmail": "GARDENOFANGELSHOSPICE@GMAIL.COM",
    "categoryName": "HOSPICE",
    "categoryCode": "HOSPICE",
    "licenseStatus": "ACTIVE",
    "inService": true,
    "licenseNumber": "550005052",
    "licenseEffectiveDate": "09/28/2025",
    "licenseExpirationDate": "09/27/2027",
    "dataDate": "10/18/2025",
    "capacity": 0,
    "address": "5530 CORBIN AVE, SUITE 218",
    "city": "TARZANA",
    "zip": "91356",
    "county": "LOS ANGELES",
    "phone": "(818) 666-3445",
    "lat": 34.17180802,
    "lng": -118.561841
  },
  {
    "id": "060001876",
    "name": "GOLDEN AGE ADULT DAY HEALTH CARE CENTER",
    "npi": null,
    "hcaiId": null,
    "businessName": "GOLDEN AGE ADULT DAY HEALTH CARE CENTER, INC.",
    "contactEmail": "GOLDENAGEADHC@YAHOO.COM",
    "categoryName": "ADULT DAY HEALTH CARE",
    "categoryCode": "ADHC",
    "licenseStatus": "ACTIVE",
    "inService": true,
    "licenseNumber": "060000693",
    "licenseEffectiveDate": "11/21/2025",
    "licenseExpirationDate": "11/20/2026",
    "dataDate": "10/18/2025",
    "capacity": 0,
    "address": "18332 VENTURA BLVD",
    "city": "TARZANA",
    "zip": "91356",
    "county": "LOS ANGELES",
    "phone": "(818) 345-9393",
    "lat": 34.166934,
    "lng": -118.5318765
  },
  {
    "id": "630026977",
    "name": "GOLDEN AGE SKILLED SERVICES",
    "npi": null,
    "hcaiId": null,
    "businessName": "GOLDEN AGE SKILLED SERVICES",
    "contactEmail": "GASKILLEDSERVICES@GMAIL.COM",
    "categoryName": "HOME HEALTH AGENCY",
    "categoryCode": "HHA",
    "licenseStatus": "ACTIVE",
    "inService": true,
    "licenseNumber": "550009349",
    "licenseEffectiveDate": "09/01/2025",
    "licenseExpirationDate": "08/31/2026",
    "dataDate": "10/18/2025",
    "capacity": 0,
    "address": "18340 VENTURA BLVD, SUITE 229",
    "city": "TARZANA",
    "zip": "91356",
    "county": "LOS ANGELES",
    "phone": "(818) 761-5511",
    "lat": 34.167006,
    "lng": -118.532079
  },
  {
    "id": "630021496",
    "name": "GOLDEN GATE HOME CARE",
    "npi": null,
    "hcaiId": null,
    "businessName": "GOLDEN GATE HOME CARE",
    "contactEmail": "DUCHITEL1@GMAIL.COM",
    "categoryName": "HOME HEALTH AGENCY",
    "categoryCode": "HHA",
    "licenseStatus": "ACTIVE",
    "inService": true,
    "licenseNumber": "550009935",
    "licenseEffectiveDate": "07/18/2025",
    "licenseExpirationDate": "01/17/2026",
    "dataDate": "10/18/2025",
    "capacity": 0,
    "address": "18340 VENTURA BLVD, SUITE 222",
    "city": "TARZANA",
    "zip": "91356",
    "county": "LOS ANGELES",
    "phone": "(818) 281-7946",
    "lat": 34.167114,
    "lng": -118.532011
  },
  {
    "id": "630022420",
    "name": "GOLDEN GROVE HOSPICE",
    "npi": null,
    "hcaiId": "406196011",
    "businessName": "QUALITY FAMILY HOSPICE CARE INC",
    "contactEmail": "QUALITYFAMHOSPICE@GMAIL.COM",
    "categoryName": "HOSPICE",
    "categoryCode": "HOSPICE",
    "licenseStatus": "ACTIVE",
    "inService": true,
    "licenseNumber": "550007507",
    "licenseEffectiveDate": "02/09/2024",
    "licenseExpirationDate": "12/15/2025",
    "dataDate": "10/18/2025",
    "capacity": 0,
    "address": "18321 VENTURA BLVD, SUITE 220",
    "city": "TARZANA",
    "zip": "91356",
    "county": "LOS ANGELES",
    "phone": "(747) 529-3006",
    "lat": 34.167798,
    "lng": -118.531377
  },
  {
    "id": "630015507",
    "name": "GOOD SHEPHERD HOME HEALTH, LLC",
    "npi": "1508273558",
    "hcaiId": "406198047",
    "businessName": "GOOD SHEPHERD HOME HEALTH LLC",
    "contactEmail": "GOODSHEPHERDHH@GMAIL.COM",
    "categoryName": "HOME HEALTH AGENCY",
    "categoryCode": "HHA",
    "licenseStatus": "ACTIVE",
    "inService": true,
    "licenseNumber": "550003014",
    "licenseEffectiveDate": "02/23/2025",
    "licenseExpirationDate": "02/22/2026",
    "dataDate": "10/18/2025",
    "capacity": 0,
    "address": "18623 VENTURA BLVD, SUITE 205",
    "city": "TARZANA",
    "zip": "91356",
    "county": "LOS ANGELES",
    "phone": "(818) 578-6095",
    "lat": 34.17021,
    "lng": -118.539126
  },
  {
    "id": "630025959",
    "name": "HAPPY HEARTS HOME HEALTHCARE INC",
    "npi": null,
    "hcaiId": null,
    "businessName": "HAPPY HEARTS HOME HEALTHCARE INC",
    "contactEmail": "HHHHCINC@GMAIL.COM",
    "categoryName": "HOME HEALTH AGENCY",
    "categoryCode": "HHA",
    "licenseStatus": "ACTIVE",
    "inService": true,
    "licenseNumber": "550009348",
    "licenseEffectiveDate": "08/26/2025",
    "licenseExpirationDate": "08/25/2026",
    "dataDate": "10/18/2025",
    "capacity": 0,
    "address": "18401 BURBANK BLVD, SUITE 202",
    "city": "TARZANA",
    "zip": "91356",
    "county": "LOS ANGELES",
    "phone": "(424) 566-5699",
    "lat": 34.171938,
    "lng": -118.5335775
  },
  {
    "id": "630026809",
    "name": "HEALTH CONTROL HOME HEALTH CARE",
    "npi": null,
    "hcaiId": null,
    "businessName": "HEALTH CONTROL HOME HEALTH CARE",
    "contactEmail": "HEALTHCONTROLHHC@GMAIL.COM",
    "categoryName": "HOME HEALTH AGENCY",
    "categoryCode": "HHA",
    "licenseStatus": "ACTIVE",
    "inService": true,
    "licenseNumber": "550009486",
    "licenseEffectiveDate": "04/14/2025",
    "licenseExpirationDate": "10/13/2025",
    "dataDate": "10/18/2025",
    "capacity": 0,
    "address": "19634 VENTURA BLVD, SUITE 309",
    "city": "TARZANA",
    "zip": "91356",
    "county": "LOS ANGELES",
    "phone": "(818) 915-2401",
    "lat": 34.17246,
    "lng": -118.5612255
  },
  {
    "id": "630011192",
    "name": "HOMELIVING HEALTH PROVIDERS, INC.",
    "npi": "1891990065",
    "hcaiId": "406197097",
    "businessName": "HOMELIVING HEALTH PROVIDERS, INC.",
    "contactEmail": "MIKE@HOMELIVINGHEALTH.COM",
    "categoryName": "HOME HEALTH AGENCY",
    "categoryCode": "HHA",
    "licenseStatus": "ACTIVE",
    "inService": true,
    "licenseNumber": "550000696",
    "licenseEffectiveDate": "01/30/2025",
    "licenseExpirationDate": "01/29/2026",
    "dataDate": "10/18/2025",
    "capacity": 0,
    "address": "18321 VENTURA BLVD, SUITE 780",
    "city": "TARZANA",
    "zip": "91356",
    "county": "LOS ANGELES",
    "phone": "(818) 609-9000",
    "lat": 34.167798,
    "lng": -118.531377
  },
  {
    "id": "630021812",
    "name": "I KNOW HOSPICE INC",
    "npi": null,
    "hcaiId": "406196136",
    "businessName": "I KNOW HOSPICE, INC.",
    "contactEmail": "IKNOWHOSPICE@YAHOO.COM",
    "categoryName": "HOSPICE",
    "categoryCode": "HOSPICE",
    "licenseStatus": "ACTIVE",
    "inService": true,
    "licenseNumber": "550006467",
    "licenseEffectiveDate": "06/21/2023",
    "licenseExpirationDate": "06/20/2025",
    "dataDate": "10/18/2025",
    "capacity": 0,
    "address": "18425 BURBANK BLVD, SUITE 401",
    "city": "TARZANA",
    "zip": "91356",
    "county": "LOS ANGELES",
    "phone": "(818) 627-0027",
    "lat": 34.17218746,
    "lng": -118.5345137
  },
  {
    "id": "630026007",
    "name": "ILLON HOME HEALTH INC",
    "npi": null,
    "hcaiId": null,
    "businessName": "ILLON HOME HEALTH INC",
    "contactEmail": "ILLONHOMEHEALTH@GMAIL.COM",
    "categoryName": "HOME HEALTH AGENCY",
    "categoryCode": "HHA",
    "licenseStatus": "ACTIVE",
    "inService": true,
    "licenseNumber": "550009364",
    "licenseEffectiveDate": "02/12/2025",
    "licenseExpirationDate": "08/11/2025",
    "dataDate": "10/18/2025",
    "capacity": 0,
    "address": "18401 BURBANK BLVD, SUITE 123A",
    "city": "TARZANA",
    "zip": "91356",
    "county": "LOS ANGELES",
    "phone": "(818) 485-4477",
    "lat": 34.171938,
    "lng": -118.5335775
  },
  {
    "id": "630021699",
    "name": "IN-HOME CARE CALIFORNIA",
    "npi": null,
    "hcaiId": "406195597",
    "businessName": "IN-HOME HEALTH CARE SUPPORT AND SERVICES, LLC",
    "contactEmail": "HOMEHEALTHCARECALIFORNIA@GMAIL.COM",
    "categoryName": "HOME HEALTH AGENCY",
    "categoryCode": "HHA",
    "licenseStatus": "ACTIVE",
    "inService": true,
    "licenseNumber": "550007368",
    "licenseEffectiveDate": "12/03/2024",
    "licenseExpirationDate": "12/02/2025",
    "dataDate": "10/18/2025",
    "capacity": 0,
    "address": "19626 VENTURA BLVD, SUITE 228",
    "city": "TARZANA",
    "zip": "91356",
    "county": "LOS ANGELES",
    "phone": "(818) 458-9168",
    "lat": 34.17262988,
    "lng": -118.5610169
  },
  {
    "id": "630019134",
    "name": "INSTACARE HOSPICE, INC.",
    "npi": null,
    "hcaiId": "406192546",
    "businessName": "INSTACARE HOSPICE, INC.",
    "contactEmail": "INSTACAREHOSPICE@GMAIL.COM",
    "categoryName": "HOSPICE",
    "categoryCode": "HOSPICE",
    "licenseStatus": "ACTIVE",
    "inService": true,
    "licenseNumber": "550005349",
    "licenseEffectiveDate": "02/14/2022",
    "licenseExpirationDate": "02/13/2024",
    "dataDate": "10/18/2025",
    "capacity": 0,
    "address": "18401 BURBANK BLVD, SUITE 228",
    "city": "TARZANA",
    "zip": "91356",
    "county": "LOS ANGELES",
    "phone": "(818) 671-0441",
    "lat": 34.1721,
    "lng": -118.5337755
  },
  {
    "id": "630016958",
    "name": "INTEGRITY HOME HEALTH CARE SERVICES, INC.",
    "npi": "1124400585",
    "hcaiId": "406191299",
    "businessName": "INTEGRITY HOME HEALTH CARE SERVICES, INC.",
    "contactEmail": "INTEGRITY.HHCS@YAHOO.COM",
    "categoryName": "HOME HEALTH AGENCY",
    "categoryCode": "HHA",
    "licenseStatus": "ACTIVE",
    "inService": true,
    "licenseNumber": "550004344",
    "licenseEffectiveDate": "07/28/2025",
    "licenseExpirationDate": "07/27/2026",
    "dataDate": "10/18/2025",
    "capacity": 0,
    "address": "5530 CORBIN AVE, SUITE 107",
    "city": "TARZANA",
    "zip": "91356",
    "county": "LOS ANGELES",
    "phone": "(818) 678-9324",
    "lat": 34.17180802,
    "lng": -118.561841
  },
  {
    "id": "630025938",
    "name": "KARE HOME HEALTH, INC",
    "npi": null,
    "hcaiId": "406190339",
    "businessName": "KARE HOME HEALTH, INC",
    "contactEmail": "4KAREHH@GMAIL.COM",
    "categoryName": "HOME HEALTH AGENCY",
    "categoryCode": "HHA",
    "licenseStatus": "ACTIVE",
    "inService": true,
    "licenseNumber": "550009093",
    "licenseEffectiveDate": "04/29/2025",
    "licenseExpirationDate": "04/28/2026",
    "dataDate": "10/18/2025",
    "capacity": 0,
    "address": "19531 VENTURA BLVD, SUITE 5",
    "city": "TARZANA",
    "zip": "91356",
    "county": "LOS ANGELES",
    "phone": "(310) 526-2422",
    "lat": 34.1728621,
    "lng": -118.5591211
  },
  {
    "id": "630026060",
    "name": "KIND HANDS HOME HEALTH CARE, INC",
    "npi": null,
    "hcaiId": null,
    "businessName": "KIND HANDS HOME HEALTH CARE, INC",
    "contactEmail": "KINDHANDSHHC@GMAIL.COM",
    "categoryName": "HOME HEALTH AGENCY",
    "categoryCode": "HHA",
    "licenseStatus": "ACTIVE",
    "inService": true,
    "licenseNumber": "550009285",
    "licenseEffectiveDate": "08/02/2025",
    "licenseExpirationDate": "08/01/2026",
    "dataDate": "10/18/2025",
    "capacity": 0,
    "address": "19634 VENTURA BLVD, SUITE 308",
    "city": "TARZANA",
    "zip": "91356",
    "county": "LOS ANGELES",
    "phone": "(818) 600-8877",
    "lat": 34.17231198,
    "lng": -118.561309
  },
  {
    "id": "630018443",
    "name": "KIND HOME HEALTH",
    "npi": null,
    "hcaiId": "406191693",
    "businessName": "HOMECARE PARTNERS, INC.",
    "contactEmail": "NKUMAR1121@YAHOO.COM",
    "categoryName": "HOME HEALTH AGENCY",
    "categoryCode": "HHA",
    "licenseStatus": "ACTIVE",
    "inService": true,
    "licenseNumber": "550004686",
    "licenseEffectiveDate": "05/09/2025",
    "licenseExpirationDate": "05/08/2026",
    "dataDate": "10/18/2025",
    "capacity": 0,
    "address": "18401 BURBANK BLVD, SUITE 122",
    "city": "TARZANA",
    "zip": "91356",
    "county": "LOS ANGELES",
    "phone": "(818) 317-9565",
    "lat": 34.1721,
    "lng": -118.5337755
  },
  {
    "id": "630022540",
    "name": "KIND HOME HEALTH CARE, INC.",
    "npi": null,
    "hcaiId": "406195778",
    "businessName": "KIND HOME HEALTH CARE, INC.",
    "contactEmail": "KINDHOMEHEALTHCARE@GMAIL.COM",
    "categoryName": "HOME HEALTH AGENCY",
    "categoryCode": "HHA",
    "licenseStatus": "ACTIVE",
    "inService": true,
    "licenseNumber": "550007805",
    "licenseEffectiveDate": "01/24/2025",
    "licenseExpirationDate": "01/23/2026",
    "dataDate": "10/18/2025",
    "capacity": 0,
    "address": "19634 VENTURA BLVD, SUITE 222",
    "city": "TARZANA",
    "zip": "91356",
    "county": "LOS ANGELES",
    "phone": "(747) 737-3125",
    "lat": 34.17246,
    "lng": -118.5612255
  },
  {
    "id": "630018974",
    "name": "LA CASA HEALTH SERVICES, INC.",
    "npi": "1669930533",
    "hcaiId": "406192700",
    "businessName": "LA CASA HEALTH SERVICES, INC.",
    "contactEmail": "TONY@LACASAHEALTHCARE.COM",
    "categoryName": "HOME HEALTH AGENCY",
    "categoryCode": "HHA",
    "licenseStatus": "ACTIVE",
    "inService": true,
    "licenseNumber": "550005546",
    "licenseEffectiveDate": "07/10/2025",
    "licenseExpirationDate": "07/09/2026",
    "dataDate": "10/18/2025",
    "capacity": 0,
    "address": "18321 VENTURA BLVD, SUITE 777",
    "city": "TARZANA",
    "zip": "91356",
    "county": "LOS ANGELES",
    "phone": "(818) 900-2326",
    "lat": 34.167798,
    "lng": -118.531377
  },
  {
    "id": "630018301",
    "name": "LIMITLESS HOSPICE INC",
    "npi": "1457834558",
    "hcaiId": "406191936",
    "businessName": "LIMITLESS HOSPICE INC",
    "contactEmail": "LIMITLESSHOSPICE@GMAIL.COM",
    "categoryName": "HOSPICE",
    "categoryCode": "HOSPICE",
    "licenseStatus": "ACTIVE",
    "inService": true,
    "licenseNumber": "550004971",
    "licenseEffectiveDate": "10/09/2025",
    "licenseExpirationDate": "10/08/2027",
    "dataDate": "10/18/2025",
    "capacity": 0,
    "address": "18425 BURBANK BLVD, SUITE 410",
    "city": "TARZANA",
    "zip": "91356",
    "county": "LOS ANGELES",
    "phone": "(818) 938-9064",
    "lat": 34.17218746,
    "lng": -118.5345137
  },
  {
    "id": "630027375",
    "name": "LINCOLN HOME HEALTH CARE, INC.",
    "npi": null,
    "hcaiId": null,
    "businessName": "LINCOLN HOME HEALTH CARE, INC.",
    "contactEmail": "LINCOLNHHCI@GMAIL.COM",
    "categoryName": "HOME HEALTH AGENCY",
    "categoryCode": "HHA",
    "licenseStatus": "ACTIVE",
    "inService": true,
    "licenseNumber": "550009701",
    "licenseEffectiveDate": "08/17/2025",
    "licenseExpirationDate": "02/16/2026",
    "dataDate": "10/18/2025",
    "capacity": 0,
    "address": "18340 VENTURA BLVD, SUITE 213",
    "city": "TARZANA",
    "zip": "91356",
    "county": "LOS ANGELES",
    "phone": "(800) 674-1242",
    "lat": 34.166936,
    "lng": -118.532109
  },
  {
    "id": "630021848",
    "name": "MAR HOSPICE CARE",
    "npi": null,
    "hcaiId": "406195952",
    "businessName": "MAR HOSPICE CARE",
    "contactEmail": "MARHOSPICECARE@GMAIL.COM",
    "categoryName": "HOSPICE",
    "categoryCode": "HOSPICE",
    "licenseStatus": "ACTIVE",
    "inService": true,
    "licenseNumber": "550007676",
    "licenseEffectiveDate": "12/16/2023",
    "licenseExpirationDate": "12/15/2025",
    "dataDate": "10/18/2025",
    "capacity": 0,
    "address": "5530 CORBIN AVE, SUITE 205",
    "city": "TARZANA",
    "zip": "91356",
    "county": "LOS ANGELES",
    "phone": "(818) 600-8030",
    "lat": 34.171731,
    "lng": -118.5620445
  },
  {
    "id": "630026428",
    "name": "MARGARET HOME HEALTH INC",
    "npi": null,
    "hcaiId": null,
    "businessName": "MARGARET HOME HEALTH INC",
    "contactEmail": "MARGARETHOMEH@GMAIL.COM",
    "categoryName": "HOME HEALTH AGENCY",
    "categoryCode": "HHA",
    "licenseStatus": "ACTIVE",
    "inService": true,
    "licenseNumber": "550009195",
    "licenseEffectiveDate": "06/14/2025",
    "licenseExpirationDate": "06/13/2026",
    "dataDate": "10/18/2025",
    "capacity": 0,
    "address": "18663 VENTURA BLVD, SUITE 216",
    "city": "TARZANA",
    "zip": "91356",
    "county": "LOS ANGELES",
    "phone": "(747) 777-4024",
    "lat": 34.170777,
    "lng": -118.540134
  },
  {
    "id": "630015655",
    "name": "MEDICO HOME HEALTH CARE, INC.",
    "npi": "1588079024",
    "hcaiId": "406191403",
    "businessName": "MEDICO HOME HEALTH CARE, INC.",
    "contactEmail": "DUCHITEL1@GMAIL.COM",
    "categoryName": "HOME HEALTH AGENCY",
    "categoryCode": "HHA",
    "licenseStatus": "ACTIVE",
    "inService": true,
    "licenseNumber": "550004369",
    "licenseEffectiveDate": "09/12/2022",
    "licenseExpirationDate": "09/11/2023",
    "dataDate": "10/18/2025",
    "capacity": 0,
    "address": "18455 BURBANK BLVD, SUITE 205",
    "city": "TARZANA",
    "zip": "91356",
    "county": "LOS ANGELES",
    "phone": "(888) 563-0075",
    "lat": 34.172586,
    "lng": -118.535427
  },
  {
    "id": "630019673",
    "name": "MGD HOSPICE, INC.",
    "npi": "1285250381",
    "hcaiId": "406192775",
    "businessName": "MGD HOSPICE, INC.",
    "contactEmail": "INTAKE@MGDHOSPICE.COM",
    "categoryName": "HOSPICE",
    "categoryCode": "HOSPICE",
    "licenseStatus": "ACTIVE",
    "inService": true,
    "licenseNumber": "550005516",
    "licenseEffectiveDate": "06/02/2024",
    "licenseExpirationDate": "06/01/2026",
    "dataDate": "10/18/2025",
    "capacity": 0,
    "address": "18623 VENTURA BLVD, SUITE 204",
    "city": "TARZANA",
    "zip": "91356",
    "county": "LOS ANGELES",
    "phone": "(213) 291-2610",
    "lat": 34.17021,
    "lng": -118.539126
  },
  {
    "id": "930001708",
    "name": "MOUNT SINAI SURGERY CENTER",
    "npi": "1427369503",
    "hcaiId": "306196175",
    "businessName": "TARZANA SURGERY CENTER, INC.",
    "contactEmail": null,
    "categoryName": "SURGICAL CLINIC",
    "categoryCode": "ASC",
    "licenseStatus": "INACTIVE - CAPEN DECISION",
    "inService": false,
    "licenseNumber": "930000944",
    "licenseEffectiveDate": "11/06/2007",
    "licenseExpirationDate": "11/05/2008",
    "dataDate": "10/18/2025",
    "capacity": 0,
    "address": "18425 BURBANK BLVD, SUITE 105",
    "city": "TARZANA",
    "zip": "91356",
    "county": "LOS ANGELES",
    "phone": "(818) 343-1401",
    "lat": 34.17218746,
    "lng": -118.5345137
  },
  {
    "id": "630016023",
    "name": "N&A HOME HEALTH CARE, INC.",
    "npi": "1477940849",
    "hcaiId": "406198505",
    "businessName": "N & A HOME HEALTH CARE, INC.",
    "contactEmail": "HEALTHYCALIF2000@GMAIL.COM",
    "categoryName": "HOME HEALTH AGENCY",
    "categoryCode": "HHA",
    "licenseStatus": "ACTIVE",
    "inService": true,
    "licenseNumber": "550003972",
    "licenseEffectiveDate": "09/20/2024",
    "licenseExpirationDate": "09/19/2025",
    "dataDate": "10/18/2025",
    "capacity": 0,
    "address": "18340 VENTURA BLVD., SUITE 209",
    "city": "TARZANA",
    "zip": "91356",
    "county": "LOS ANGELES",
    "phone": "(818) 975-6304",
    "lat": 34.167006,
    "lng": -118.532079
  },
  {
    "id": "630023460",
    "name": "NEOMED HOME SERVICES, INC.",
    "npi": null,
    "hcaiId": "406195416",
    "businessName": "NEOMED HOME SERVICES, INC.",
    "contactEmail": "NEOMEDSERVICES@YAHOO.COM",
    "categoryName": "HOME HEALTH AGENCY",
    "categoryCode": "HHA",
    "licenseStatus": "ACTIVE",
    "inService": true,
    "licenseNumber": "550007876",
    "licenseEffectiveDate": "03/02/2025",
    "licenseExpirationDate": "03/01/2026",
    "dataDate": "10/18/2025",
    "capacity": 0,
    "address": "18340 VENTURA BLVD, SUITE 231",
    "city": "TARZANA",
    "zip": "91356",
    "county": "LOS ANGELES",
    "phone": "(818) 938-9214",
    "lat": 34.167006,
    "lng": -118.532079
  },
  {
    "id": "630026074",
    "name": "NESSA HOME HEALTH CARE INC.",
    "npi": null,
    "hcaiId": null,
    "businessName": "NESSA HOME HEALTH CARE INC.",
    "contactEmail": "NESSAHOMEHEALTH@GMAIL.COM",
    "categoryName": "HOME HEALTH AGENCY",
    "categoryCode": "HHA",
    "licenseStatus": "ACTIVE",
    "inService": true,
    "licenseNumber": "550009453",
    "licenseEffectiveDate": "10/16/2025",
    "licenseExpirationDate": "10/15/2026",
    "dataDate": "10/18/2025",
    "capacity": 0,
    "address": "18345 VENTURA BLVD, SUITE 515",
    "city": "TARZANA",
    "zip": "91356",
    "county": "LOS ANGELES",
    "phone": "(818) 514-6211",
    "lat": 34.167618,
    "lng": -118.532376
  },
  {
    "id": "630021137",
    "name": "NILE VALLEY HOSPICE, INC.",
    "npi": null,
    "hcaiId": "406197151",
    "businessName": "NILE VALLEY HOSPICE, INC.",
    "contactEmail": "INFO@NILEVALLEYHOSPICE.COM",
    "categoryName": "HOSPICE",
    "categoryCode": "HOSPICE",
    "licenseStatus": "ACTIVE",
    "inService": true,
    "licenseNumber": "550006505",
    "licenseEffectiveDate": "07/02/2023",
    "licenseExpirationDate": "07/01/2025",
    "dataDate": "10/18/2025",
    "capacity": 0,
    "address": "18455 BURBANK BLVD, SUITE 203",
    "city": "TARZANA",
    "zip": "91356",
    "county": "LOS ANGELES",
    "phone": "(888) 748-0029",
    "lat": 34.172586,
    "lng": -118.535427
  },
  {
    "id": "630026094",
    "name": "O2 HOME HEALTH CARE, INC",
    "npi": null,
    "hcaiId": "406190345",
    "businessName": "O2 HOME HEALTH CARE, INC",
    "contactEmail": "O2HOMEHEALTH@GMAIL.COM",
    "categoryName": "HOME HEALTH AGENCY",
    "categoryCode": "HHA",
    "licenseStatus": "ACTIVE",
    "inService": true,
    "licenseNumber": "550009077",
    "licenseEffectiveDate": "04/22/2025",
    "licenseExpirationDate": "04/21/2026",
    "dataDate": "10/18/2025",
    "capacity": 0,
    "address": "19634 VENTURA BLVD, SUITE 210",
    "city": "TARZANA",
    "zip": "91356",
    "county": "LOS ANGELES",
    "phone": "(626) 406-2829",
    "lat": 34.17246,
    "lng": -118.5612255
  },
  {
    "id": "630021456",
    "name": "OAK HOSPICE AND PALLIATIVE CARE, INC.",
    "npi": null,
    "hcaiId": "406194955",
    "businessName": "OAK HOSPICE AND PALLIATIVE CARE, INC.",
    "contactEmail": "OAKHOSPICE@GMAIL.COM",
    "categoryName": "HOSPICE",
    "categoryCode": "HOSPICE",
    "licenseStatus": "ACTIVE",
    "inService": true,
    "licenseNumber": "550007070",
    "licenseEffectiveDate": "10/29/2023",
    "licenseExpirationDate": "10/28/2025",
    "dataDate": "10/18/2025",
    "capacity": 0,
    "address": "19634 VENTURA BLVD, SUITE 208",
    "city": "TARZANA",
    "zip": "91356",
    "county": "LOS ANGELES",
    "phone": "(818) 303-9909",
    "lat": 34.172634,
    "lng": -118.561317
  },
  {
    "id": "630019080",
    "name": "OAK TREE HOSPICE LLC",
    "npi": null,
    "hcaiId": "406193991",
    "businessName": "OAK TREE HOSPICE LLC",
    "contactEmail": "OAKTREEHOSPICELLC@MAIL.COM",
    "categoryName": "HOSPICE",
    "categoryCode": "HOSPICE",
    "licenseStatus": "ACTIVE",
    "inService": true,
    "licenseNumber": "550006983",
    "licenseEffectiveDate": "10/15/2025",
    "licenseExpirationDate": "10/14/2027",
    "dataDate": "10/18/2025",
    "capacity": 0,
    "address": "18663 VENTURA BLVD, SUITE 215",
    "city": "TARZANA",
    "zip": "91356",
    "county": "LOS ANGELES",
    "phone": "(310) 749-3990",
    "lat": 34.170777,
    "lng": -118.540134
  },
  {
    "id": "630012887",
    "name": "OC HOME HEALTH CARE, INC.",
    "npi": "1780990077",
    "hcaiId": "406190646",
    "businessName": "OC HOME HEALTH CARE, INC.",
    "contactEmail": "OCHOMEHEALTHCARE@GMAIL.COM",
    "categoryName": "HOME HEALTH AGENCY",
    "categoryCode": "HHA",
    "licenseStatus": "ACTIVE",
    "inService": true,
    "licenseNumber": "550001633",
    "licenseEffectiveDate": "11/14/2024",
    "licenseExpirationDate": "11/13/2025",
    "dataDate": "10/18/2025",
    "capacity": 0,
    "address": "19626 VENTURA BLVD, SUITE 223",
    "city": "TARZANA",
    "zip": "91356",
    "county": "LOS ANGELES",
    "phone": "(747) 229-9200",
    "lat": 34.17232502,
    "lng": -118.560988
  },
  {
    "id": "630019830",
    "name": "OC HOSPICE CARE, INC.",
    "npi": "1801427026",
    "hcaiId": "406192896",
    "businessName": "OC HOSPICE CARE, INC.",
    "contactEmail": "OCHOSPICECARE@GMAIL.COM",
    "categoryName": "HOSPICE",
    "categoryCode": "HOSPICE",
    "licenseStatus": "ACTIVE",
    "inService": true,
    "licenseNumber": "550005727",
    "licenseEffectiveDate": "09/03/2024",
    "licenseExpirationDate": "09/02/2026",
    "dataDate": "10/18/2025",
    "capacity": 0,
    "address": "19626 VENTURA BLVD, SUITE 225",
    "city": "TARZANA",
    "zip": "91356",
    "county": "LOS ANGELES",
    "phone": "(747) 215-2070",
    "lat": 34.17232502,
    "lng": -118.560988
  },
  {
    "id": "630026167",
    "name": "OPTIMAL CARE HOME HEALTH, INC.",
    "npi": null,
    "hcaiId": null,
    "businessName": "OPTIMAL CARE HOME HEALTH, INC.",
    "contactEmail": "OPTIMALCAREHOMEHEALTHINC@GMAIL.COM",
    "categoryName": "HOME HEALTH AGENCY",
    "categoryCode": "HHA",
    "licenseStatus": "ACTIVE",
    "inService": true,
    "licenseNumber": "550009423",
    "licenseEffectiveDate": "10/11/2025",
    "licenseExpirationDate": "10/10/2026",
    "dataDate": "10/18/2025",
    "capacity": 0,
    "address": "18340 VENTURA BLVD, SUITE 203",
    "city": "TARZANA",
    "zip": "91356",
    "county": "LOS ANGELES",
    "phone": "(747) 777-6151",
    "lat": 34.167006,
    "lng": -118.532079
  },
  {
    "id": "630021771",
    "name": "OPTIMAL CARE HOSPICE, INC.",
    "npi": null,
    "hcaiId": "406195213",
    "businessName": "OPTIMAL CARE HOSPICE, INC.",
    "contactEmail": "OPTIMALCAREHOSPICE@GMAIL.COM",
    "categoryName": "HOSPICE",
    "categoryCode": "HOSPICE",
    "licenseStatus": "ACTIVE",
    "inService": true,
    "licenseNumber": "550007454",
    "licenseEffectiveDate": "12/09/2023",
    "licenseExpirationDate": "12/08/2025",
    "dataDate": "10/18/2025",
    "capacity": 0,
    "address": "18340 VENTURA BLVD, SUITE 225",
    "city": "TARZANA",
    "zip": "91356",
    "county": "LOS ANGELES",
    "phone": "(747) 377-1787",
    "lat": 34.167006,
    "lng": -118.532079
  },
  {
    "id": "630024987",
    "name": "OTIUM HOME HEALTH INC",
    "npi": null,
    "hcaiId": null,
    "businessName": "OTIUM HOME HEALTH INC",
    "contactEmail": "OTIUMHOMEHEALTH@GMAIL.COM",
    "categoryName": "HOME HEALTH AGENCY",
    "categoryCode": "HHA",
    "licenseStatus": "ACTIVE",
    "inService": true,
    "licenseNumber": "550008306",
    "licenseEffectiveDate": "01/04/2025",
    "licenseExpirationDate": "01/03/2026",
    "dataDate": "10/18/2025",
    "capacity": 0,
    "address": "18425 BURBANK BLVD, SUITE 705",
    "city": "TARZANA",
    "zip": "91356",
    "county": "LOS ANGELES",
    "phone": "(818) 659-0950",
    "lat": 34.17218746,
    "lng": -118.5345137
  },
  {
    "id": "630025056",
    "name": "PARADISE CARE HOME HEALTH",
    "npi": null,
    "hcaiId": null,
    "businessName": "PARADISE CARE HOME HEALTH",
    "contactEmail": "PARADISECARE307@GMAIL.COM",
    "categoryName": "HOME HEALTH AGENCY",
    "categoryCode": "HHA",
    "licenseStatus": "ACTIVE",
    "inService": true,
    "licenseNumber": "550008416",
    "licenseEffectiveDate": "11/05/2025",
    "licenseExpirationDate": "03/05/2026",
    "dataDate": "10/18/2025",
    "capacity": 0,
    "address": "19531 VENTURA BLVD, UNIT 13",
    "city": "TARZANA",
    "zip": "91356",
    "county": "LOS ANGELES",
    "phone": "(818) 813-6441",
    "lat": 34.1728621,
    "lng": -118.5591211
  },
  {
    "id": "630018526",
    "name": "PARADISE HOME HEALTH OF LOS ANGELES INC.",
    "npi": null,
    "hcaiId": "406195000",
    "businessName": "PARADISE HOME HEALTH OF LOS ANGELES INC.",
    "contactEmail": "PARADISEHHCI@GMAIL.COM",
    "categoryName": "HOME HEALTH AGENCY",
    "categoryCode": "HHA",
    "licenseStatus": "ACTIVE",
    "inService": true,
    "licenseNumber": "550006325",
    "licenseEffectiveDate": "04/09/2025",
    "licenseExpirationDate": "04/08/2026",
    "dataDate": "10/18/2025",
    "capacity": 0,
    "address": "5530 CORBIN AVE, SUITE 220",
    "city": "TARZANA",
    "zip": "91356",
    "county": "LOS ANGELES",
    "phone": "(747) 208-4711",
    "lat": 34.17180802,
    "lng": -118.561841
  },
  {
    "id": "630014677",
    "name": "PHYSICIANS PREFERRED HOSPICE INC",
    "npi": "1376970707",
    "hcaiId": "406198440",
    "businessName": "PHYSICIANS PREFERRED HOSPICE INC",
    "contactEmail": "PHYSICIANSPREFERREDHOSPICE@YAHOO.COM",
    "categoryName": "HOSPICE",
    "categoryCode": "HOSPICE",
    "licenseStatus": "ACTIVE",
    "inService": true,
    "licenseNumber": "550003033",
    "licenseEffectiveDate": "02/24/2025",
    "licenseExpirationDate": "02/23/2027",
    "dataDate": "10/18/2025",
    "capacity": 0,
    "address": "6047 TAMPA AVE, SUITE 301",
    "city": "TARZANA",
    "zip": "91356",
    "county": "LOS ANGELES",
    "phone": "(888) 407-6706",
    "lat": 34.180812,
    "lng": -118.5538095
  },
  {
    "id": "630018494",
    "name": "PRIME HOME HEALTH GROUP, INC.",
    "npi": null,
    "hcaiId": "406194822",
    "businessName": "PRIME HOME HEALTH GROUP, INC.",
    "contactEmail": "PRIMEHOMEHEALTH@ICLOUD.COM",
    "categoryName": "HOME HEALTH AGENCY",
    "categoryCode": "HHA",
    "licenseStatus": "ACTIVE",
    "inService": true,
    "licenseNumber": "550005908",
    "licenseEffectiveDate": "09/17/2025",
    "licenseExpirationDate": "09/16/2026",
    "dataDate": "10/18/2025",
    "capacity": 0,
    "address": "19634 VENTURA BLVD, SUITE 204",
    "city": "TARZANA",
    "zip": "91356",
    "county": "LOS ANGELES",
    "phone": "(818) 617-2886",
    "lat": 34.17231198,
    "lng": -118.561309
  },
  {
    "id": "630021326",
    "name": "PRO-CHOICE HOSPICE INC",
    "npi": null,
    "hcaiId": "406193750",
    "businessName": "PRO-CHOICE HOSPICE, INC.",
    "contactEmail": "PROCHOICEHOSPICE@GMAIL.COM",
    "categoryName": "HOSPICE",
    "categoryCode": "HOSPICE",
    "licenseStatus": "ACTIVE",
    "inService": true,
    "licenseNumber": "550006790",
    "licenseEffectiveDate": "09/15/2025",
    "licenseExpirationDate": "09/14/2027",
    "dataDate": "10/18/2025",
    "capacity": 0,
    "address": "19634 VENTURA BLVD, SUITE 302",
    "city": "TARZANA",
    "zip": "91356",
    "county": "LOS ANGELES",
    "phone": "(747) 281-6119",
    "lat": 34.17246,
    "lng": -118.5612255
  },
  {
    "id": "630021036",
    "name": "PROFESSIONAL SOLUTIONS HOME HEALTH, INC.",
    "npi": null,
    "hcaiId": "406193801",
    "businessName": "PROFESSIONAL SOLUTIONS HOME HEALTH, INC.",
    "contactEmail": "PROFESSIONALSOLUTIONSHH@GMAIL.COM",
    "categoryName": "HOME HEALTH AGENCY",
    "categoryCode": "HHA",
    "licenseStatus": "ACTIVE",
    "inService": true,
    "licenseNumber": "550006324",
    "licenseEffectiveDate": "05/07/2025",
    "licenseExpirationDate": "05/06/2026",
    "dataDate": "10/18/2025",
    "capacity": 0,
    "address": "18520 BURBANK BLVD, SUITE 203",
    "city": "TARZANA",
    "zip": "91356",
    "county": "LOS ANGELES",
    "phone": "(747) 282-1440",
    "lat": 34.171965,
    "lng": -118.5368355
  },
  {
    "id": "630021865",
    "name": "PROGRESSIVE CARE HOSPICE",
    "npi": null,
    "hcaiId": "406193972",
    "businessName": "PROGRESSIVE CARE HOSPICE, INC.",
    "contactEmail": "PROGRESSIVECAREHOSPICE@YAHOO.COM",
    "categoryName": "HOSPICE",
    "categoryCode": "HOSPICE",
    "licenseStatus": "ACTIVE",
    "inService": true,
    "licenseNumber": "550007414",
    "licenseEffectiveDate": "12/09/2023",
    "licenseExpirationDate": "12/08/2025",
    "dataDate": "10/18/2025",
    "capacity": 0,
    "address": "18455 BURBANK BLVD, SUITE 501",
    "city": "TARZANA",
    "zip": "91356",
    "county": "LOS ANGELES",
    "phone": "(818) 296-8018",
    "lat": 34.17257299,
    "lng": -118.535437
  },
  {
    "id": "930000091",
    "name": "PROVIDENCE CEDARS-SINAI TARZANA MEDICAL CENTER",
    "npi": "1821250762",
    "hcaiId": "106190517",
    "businessName": "TARZANA MEDICAL CENTER, LLC",
    "contactEmail": "DEBRA.TORTORA@PROVIDENCE.ORG",
    "categoryName": "GENERAL ACUTE CARE HOSPITAL",
    "categoryCode": "GACH",
    "licenseStatus": "ACTIVE",
    "inService": true,
    "licenseNumber": "930000097",
    "licenseEffectiveDate": "11/19/2025",
    "licenseExpirationDate": "11/18/2026",
    "dataDate": "10/18/2025",
    "capacity": 204,
    "address": "18321 CLARK ST",
    "city": "TARZANA",
    "zip": "91356",
    "county": "LOS ANGELES",
    "phone": "(818) 708-5652",
    "lat": 34.170507,
    "lng": -118.5320295
  },
  {
    "id": "630016845",
    "name": "QUIETUDE HOSPICE CARE, INC.",
    "npi": "1932550696",
    "hcaiId": "406190895",
    "businessName": "QUIETUDE HOSPICE CARE, INC.",
    "contactEmail": "QUIETUDEHOSPICECARE@GMAIL.COM",
    "categoryName": "HOSPICE",
    "categoryCode": "HOSPICE",
    "licenseStatus": "ACTIVE",
    "inService": true,
    "licenseNumber": "550004289",
    "licenseEffectiveDate": "06/14/2024",
    "licenseExpirationDate": "06/13/2026",
    "dataDate": "10/18/2025",
    "capacity": 0,
    "address": "6047 TAMPA AVE, SUITE 201",
    "city": "TARZANA",
    "zip": "91356",
    "county": "LOS ANGELES",
    "phone": "(747) 237-7581",
    "lat": 34.180803,
    "lng": -118.553751
  },
  {
    "id": "630017613",
    "name": "RADIANCE HOME HEALTH CARE AGENCY, INC.",
    "npi": null,
    "hcaiId": "406191876",
    "businessName": "RADIANCE HOME HEALTH CARE AGENCY INC.",
    "contactEmail": "RADIANCEHOMEHEALTHCA@GMAIL.COM",
    "categoryName": "HOME HEALTH AGENCY",
    "categoryCode": "HHA",
    "licenseStatus": "ACTIVE",
    "inService": true,
    "licenseNumber": "550004617",
    "licenseEffectiveDate": "09/25/2024",
    "licenseExpirationDate": "03/21/2025",
    "dataDate": "10/18/2025",
    "capacity": 0,
    "address": "5530 CORBIN AVE, SUITE 120",
    "city": "TARZANA",
    "zip": "91356",
    "county": "LOS ANGELES",
    "phone": "(818) 657-7017",
    "lat": 34.17180802,
    "lng": -118.561841
  },
  {
    "id": "630020793",
    "name": "RED CARPET HOSPICE CARE",
    "npi": null,
    "hcaiId": "406196685",
    "businessName": "RED CARPET HOSPICE CARE",
    "contactEmail": "REDCARPETHC@GMAIL.COM",
    "categoryName": "HOSPICE",
    "categoryCode": "HOSPICE",
    "licenseStatus": "ACTIVE",
    "inService": true,
    "licenseNumber": "550006355",
    "licenseEffectiveDate": "05/04/2025",
    "licenseExpirationDate": "05/03/2027",
    "dataDate": "10/18/2025",
    "capacity": 0,
    "address": "18455 BURBANK BLVD, SUITE 313",
    "city": "TARZANA",
    "zip": "91356",
    "county": "LOS ANGELES",
    "phone": "(818) 975-8888",
    "lat": 34.172586,
    "lng": -118.535427
  },
  {
    "id": "630021881",
    "name": "RED ROSE HOSPICE, INC.",
    "npi": null,
    "hcaiId": "406193497",
    "businessName": "RED ROSE HOSPICE, INC.",
    "contactEmail": "REDROSEHOSPICE@YAHOO.COM",
    "categoryName": "HOSPICE",
    "categoryCode": "HOSPICE",
    "licenseStatus": "ACTIVE",
    "inService": true,
    "licenseNumber": "550006683",
    "licenseEffectiveDate": "07/26/2023",
    "licenseExpirationDate": "07/25/2025",
    "dataDate": "10/18/2025",
    "capacity": 0,
    "address": "18425 BURBANK BLVD, SUITE 402",
    "city": "TARZANA",
    "zip": "91356",
    "county": "LOS ANGELES",
    "phone": "(818) 478-8070",
    "lat": 34.17218746,
    "lng": -118.5345137
  },
  {
    "id": "630020906",
    "name": "REMEDY HEALTH CARE INC",
    "npi": null,
    "hcaiId": "406195587",
    "businessName": "REMEDY HEALTH CARE INC",
    "contactEmail": "REMEDYHEALTHCAREINC@GMAIL.COM",
    "categoryName": "HOME HEALTH AGENCY",
    "categoryCode": "HHA",
    "licenseStatus": "ACTIVE",
    "inService": true,
    "licenseNumber": "550007448",
    "licenseEffectiveDate": "12/16/2024",
    "licenseExpirationDate": "12/15/2025",
    "dataDate": "10/18/2025",
    "capacity": 0,
    "address": "19634 VENTURA BLVD, SUITE 317",
    "city": "TARZANA",
    "zip": "91356",
    "county": "LOS ANGELES",
    "phone": "(888) 508-6108",
    "lat": 34.17231198,
    "lng": -118.561309
  },
  {
    "id": "630025028",
    "name": "RIGHTWAY HOME HEALTH",
    "npi": null,
    "hcaiId": "406196512",
    "businessName": "MARSHAM MEDICAL",
    "contactEmail": "RIGHTWAYHOMEHEALTH7@GMAIL.COM",
    "categoryName": "HOME HEALTH AGENCY",
    "categoryCode": "HHA",
    "licenseStatus": "ACTIVE",
    "inService": true,
    "licenseNumber": "550008528",
    "licenseEffectiveDate": "04/19/2025",
    "licenseExpirationDate": "04/18/2026",
    "dataDate": "10/18/2025",
    "capacity": 0,
    "address": "19531 VENTURA BLVD, UNIT 7",
    "city": "TARZANA",
    "zip": "91356",
    "county": "LOS ANGELES",
    "phone": "(310) 868-6448",
    "lat": 34.1728621,
    "lng": -118.5591211
  },
  {
    "id": "630021991",
    "name": "RING OF SALVATION HOSPICE CARE, INC",
    "npi": null,
    "hcaiId": "406195134",
    "businessName": "RING OF SAVATION HOSPICE CARE, INC",
    "contactEmail": "RINGOFSALVATIONHOSPICECARE@GMAIL.COM",
    "categoryName": "HOSPICE",
    "categoryCode": "HOSPICE",
    "licenseStatus": "ACTIVE",
    "inService": true,
    "licenseNumber": "550007436",
    "licenseEffectiveDate": "06/10/2024",
    "licenseExpirationDate": "12/02/2025",
    "dataDate": "10/18/2025",
    "capacity": 0,
    "address": "19634 VENTURA BLVD, SUITE 303",
    "city": "TARZANA",
    "zip": "91356",
    "county": "LOS ANGELES",
    "phone": "(747) 212-7733",
    "lat": 34.17231198,
    "lng": -118.561309
  },
  {
    "id": "630022311",
    "name": "RISE N SHINE HOSPICE INC",
    "npi": null,
    "hcaiId": "406197723",
    "businessName": "RISE N SHINE HOSPICE INC",
    "contactEmail": "RISENSHINEHOSPICE@GMAIL.COM",
    "categoryName": "HOSPICE",
    "categoryCode": "HOSPICE",
    "licenseStatus": "ACTIVE",
    "inService": true,
    "licenseNumber": "550007658",
    "licenseEffectiveDate": "12/20/2023",
    "licenseExpirationDate": "12/19/2025",
    "dataDate": "10/18/2025",
    "capacity": 0,
    "address": "19634 VENTURA BLVD, UNIT 205",
    "city": "TARZANA",
    "zip": "91356",
    "county": "LOS ANGELES",
    "phone": "(818) 600-8353",
    "lat": 34.17246,
    "lng": -118.5612255
  },
  {
    "id": "630011436",
    "name": "RN HOME HEALTH CARE, INC.",
    "npi": "1699974329",
    "hcaiId": "406197212",
    "businessName": "RN HOME HEALTH CARE, INC.",
    "contactEmail": "RNHOMEHEALTH6047@GMAIL.COM",
    "categoryName": "HOME HEALTH AGENCY",
    "categoryCode": "HHA",
    "licenseStatus": "ACTIVE",
    "inService": true,
    "licenseNumber": "550000937",
    "licenseEffectiveDate": "03/15/2022",
    "licenseExpirationDate": "03/14/2023",
    "dataDate": "10/18/2025",
    "capacity": 0,
    "address": "6047 TAMPA AVE, SUITE 306",
    "city": "TARZANA",
    "zip": "91356",
    "county": "LOS ANGELES",
    "phone": "(800) 811-8311",
    "lat": 34.180812,
    "lng": -118.5538095
  },
  {
    "id": "630015415",
    "name": "RN HOSPICE INC.",
    "npi": "1609293752",
    "hcaiId": "406190794",
    "businessName": "RN HOSPICE INC.",
    "contactEmail": "RNHOSPICEINC@GMAIL.COM",
    "categoryName": "HOSPICE",
    "categoryCode": "HOSPICE",
    "licenseStatus": "ACTIVE",
    "inService": true,
    "licenseNumber": "550003440",
    "licenseEffectiveDate": "02/22/2024",
    "licenseExpirationDate": "02/21/2026",
    "dataDate": "10/18/2025",
    "capacity": 0,
    "address": "6047 TAMPA AVE, SUITE 210",
    "city": "TARZANA",
    "zip": "91356",
    "county": "LOS ANGELES",
    "phone": "(888) 754-0301",
    "lat": 34.180812,
    "lng": -118.5538095
  },
  {
    "id": "630027450",
    "name": "ROYAL CARE HOME HEALTH, INC",
    "npi": null,
    "hcaiId": null,
    "businessName": "ROYAL CARE HOME HEALTH, INC",
    "contactEmail": "ROYALCAREHHC@GMAIL.COM",
    "categoryName": "HOME HEALTH AGENCY",
    "categoryCode": "HHA",
    "licenseStatus": "ACTIVE",
    "inService": true,
    "licenseNumber": "550009744",
    "licenseEffectiveDate": "10/01/2025",
    "licenseExpirationDate": "03/31/2026",
    "dataDate": "10/18/2025",
    "capacity": 0,
    "address": "19634 VENTURA BLVD, SUITE 113",
    "city": "TARZANA",
    "zip": "91356",
    "county": "LOS ANGELES",
    "phone": "(562) 280-5036",
    "lat": 34.17231198,
    "lng": -118.561309
  },
  {
    "id": "630025480",
    "name": "RUBY HEARTS HEALTHCARE",
    "npi": null,
    "hcaiId": null,
    "businessName": "RUBY HEARTS HEALTHCARE",
    "contactEmail": "RUBYHEARTSH@GMAIL.COM",
    "categoryName": "HOME HEALTH AGENCY",
    "categoryCode": "HHA",
    "licenseStatus": "ACTIVE",
    "inService": true,
    "licenseNumber": "550008744",
    "licenseEffectiveDate": "09/13/2025",
    "licenseExpirationDate": "09/12/2026",
    "dataDate": "10/18/2025",
    "capacity": 0,
    "address": "19626 VENTURA BLVD, UNIT 220",
    "city": "TARZANA",
    "zip": "91356",
    "county": "LOS ANGELES",
    "phone": "(818) 813-8628",
    "lat": 34.17262988,
    "lng": -118.5610169
  },
  {
    "id": "630019829",
    "name": "SAINT INESS HOSPICE INC",
    "npi": null,
    "hcaiId": "406192783",
    "businessName": "SAINT INESS HOSPICE INC",
    "contactEmail": "SAINTINESSHOSPICE@GMAIL.COM",
    "categoryName": "HOSPICE",
    "categoryCode": "HOSPICE",
    "licenseStatus": "ACTIVE",
    "inService": true,
    "licenseNumber": "550005511",
    "licenseEffectiveDate": "06/03/2024",
    "licenseExpirationDate": "06/02/2026",
    "dataDate": "10/18/2025",
    "capacity": 0,
    "address": "6047 TAMPA AVE, SUITE 209",
    "city": "TARZANA",
    "zip": "91356",
    "county": "LOS ANGELES",
    "phone": "(747) 212-1868",
    "lat": 34.18081299,
    "lng": -118.553764
  },
  {
    "id": "630021839",
    "name": "SANTA ISABEL HOSPICE, INC.",
    "npi": null,
    "hcaiId": "406195117",
    "businessName": "SANTA ISABEL HOSPICE, INC.",
    "contactEmail": "SANTAISABELHOSPICE@YAHOO.COM",
    "categoryName": "HOSPICE",
    "categoryCode": "HOSPICE",
    "licenseStatus": "ACTIVE",
    "inService": true,
    "licenseNumber": "550007471",
    "licenseEffectiveDate": "12/17/2023",
    "licenseExpirationDate": "12/16/2025",
    "dataDate": "10/18/2025",
    "capacity": 0,
    "address": "18401 BURBANK BLVD, SUITE 117A",
    "city": "TARZANA",
    "zip": "91356",
    "county": "LOS ANGELES",
    "phone": "(818) 478-5094",
    "lat": 34.171938,
    "lng": -118.5335775
  },
  {
    "id": "630021834",
    "name": "SANTA KATHARINA HOSPICE CARE INC.",
    "npi": null,
    "hcaiId": "406195112",
    "businessName": "SANTA KATHARINA HOSPICE CARE, INC.",
    "contactEmail": "STKATHARINAHOSPICE@YAHOO.COM",
    "categoryName": "HOSPICE",
    "categoryCode": "HOSPICE",
    "licenseStatus": "ACTIVE",
    "inService": true,
    "licenseNumber": "550007491",
    "licenseEffectiveDate": "12/09/2023",
    "licenseExpirationDate": "12/08/2025",
    "dataDate": "10/18/2025",
    "capacity": 0,
    "address": "18455 BURBANK BLVD, SUITE 403",
    "city": "TARZANA",
    "zip": "91356",
    "county": "LOS ANGELES",
    "phone": "(818) 453-0177",
    "lat": 34.172514,
    "lng": -118.5355485
  },
  {
    "id": "630022006",
    "name": "SANTA TERESA HOSPICE CARE",
    "npi": null,
    "hcaiId": "406196133",
    "businessName": "SANTA TERESA HOSPICE CARE",
    "contactEmail": "SANTATERESAHOSPICE@YAHOO.COM",
    "categoryName": "HOSPICE",
    "categoryCode": "HOSPICE",
    "licenseStatus": "ACTIVE",
    "inService": true,
    "licenseNumber": "550007509",
    "licenseEffectiveDate": "12/19/2023",
    "licenseExpirationDate": "12/18/2025",
    "dataDate": "10/18/2025",
    "capacity": 0,
    "address": "18401 BURBANK BLVD, SUITE 117",
    "city": "TARZANA",
    "zip": "91356",
    "county": "LOS ANGELES",
    "phone": "(818) 453-0030",
    "lat": 34.171938,
    "lng": -118.5335775
  },
  {
    "id": "630019048",
    "name": "SHAMROCK HOSPICE, INC.",
    "npi": null,
    "hcaiId": "406192194",
    "businessName": "SHAMROCK HOSPICE, INC.",
    "contactEmail": "SHAMROCK111@YAHOO.COM",
    "categoryName": "HOSPICE",
    "categoryCode": "HOSPICE",
    "licenseStatus": "ACTIVE",
    "inService": true,
    "licenseNumber": "550005207",
    "licenseEffectiveDate": "12/18/2023",
    "licenseExpirationDate": "12/17/2025",
    "dataDate": "10/18/2025",
    "capacity": 0,
    "address": "18455 BURBANK BLVD, SUITE 307",
    "city": "TARZANA",
    "zip": "91356",
    "county": "LOS ANGELES",
    "phone": "(818) 658-9555",
    "lat": 34.172586,
    "lng": -118.535427
  },
  {
    "id": "630019642",
    "name": "SHELDON HOSPICE",
    "npi": null,
    "hcaiId": "406193510",
    "businessName": "SHELDON HOSPICE",
    "contactEmail": "SHELDONHOSPICE@YAHOO.COM",
    "categoryName": "HOSPICE",
    "categoryCode": "HOSPICE",
    "licenseStatus": "ACTIVE",
    "inService": true,
    "licenseNumber": "550006668",
    "licenseEffectiveDate": "07/31/2025",
    "licenseExpirationDate": "07/30/2027",
    "dataDate": "10/18/2025",
    "capacity": 0,
    "address": "19531 VENTURA BLVD, SUITE 10",
    "city": "TARZANA",
    "zip": "91356",
    "county": "LOS ANGELES",
    "phone": "(818) 814-8040",
    "lat": 34.1728621,
    "lng": -118.5591211
  },
  {
    "id": "630021912",
    "name": "SIGMA HOME HEALTH, INC.",
    "npi": null,
    "hcaiId": "406193216",
    "businessName": "SIGMA HOME HEALTH, INC.",
    "contactEmail": "4SIGMAHH@GMAIL.COM",
    "categoryName": "HOME HEALTH AGENCY",
    "categoryCode": "HHA",
    "licenseStatus": "ACTIVE",
    "inService": true,
    "licenseNumber": "550007021",
    "licenseEffectiveDate": "09/28/2025",
    "licenseExpirationDate": "09/27/2026",
    "dataDate": "10/18/2025",
    "capacity": 0,
    "address": "18425 BURBANK BLVD, SUITE 605",
    "city": "TARZANA",
    "zip": "91356",
    "county": "LOS ANGELES",
    "phone": "(818) 600-8130",
    "lat": 34.17218746,
    "lng": -118.5345137
  },
  {
    "id": "630025227",
    "name": "SOF HOME HEALTH, INC.",
    "npi": null,
    "hcaiId": "406196564",
    "businessName": "SOF HOME HEALTH, INC.",
    "contactEmail": "SOFHOMEHEALTH@GMAIL.COM",
    "categoryName": "HOME HEALTH AGENCY",
    "categoryCode": "HHA",
    "licenseStatus": "ACTIVE",
    "inService": true,
    "licenseNumber": "550008554",
    "licenseEffectiveDate": "06/01/2025",
    "licenseExpirationDate": "05/31/2026",
    "dataDate": "10/18/2025",
    "capacity": 0,
    "address": "18401 BURBANK BLVD, SUITE 123",
    "city": "TARZANA",
    "zip": "91356",
    "county": "LOS ANGELES",
    "phone": "(800) 616-5035",
    "lat": 34.171938,
    "lng": -118.5335775
  },
  {
    "id": "930001581",
    "name": "SOLIS SURGICAL ARTS CENTER",
    "npi": "1669551941",
    "hcaiId": "306194960",
    "businessName": "SOLIS SURGICAL ARTS CENTER, INC.",
    "contactEmail": "BILL@SOLISSURGIRAL.COM",
    "categoryName": "SURGICAL CLINIC",
    "categoryCode": "ASC",
    "licenseStatus": "INACTIVE - CAPEN DECISION",
    "inService": false,
    "licenseNumber": "930000888",
    "licenseEffectiveDate": "11/23/2007",
    "licenseExpirationDate": "11/22/2008",
    "dataDate": "10/18/2025",
    "capacity": 0,
    "address": "5620 WILBUR AVE, SUITE 319",
    "city": "TARZANA",
    "zip": "91356",
    "county": "LOS ANGELES",
    "phone": "(818) 787-1144",
    "lat": 34.172811,
    "lng": -118.5440985
  },
  {
    "id": "630021310",
    "name": "SYNERGY HOSPICE CARE, INC.",
    "npi": null,
    "hcaiId": "406194866",
    "businessName": "SYNERGY HOSPICE CARE, INC.",
    "contactEmail": "BRENT@SYNERGYHOSPICECARE.COM",
    "categoryName": "HOSPICE",
    "categoryCode": "HOSPICE",
    "licenseStatus": "ACTIVE",
    "inService": true,
    "licenseNumber": "550006802",
    "licenseEffectiveDate": "09/13/2025",
    "licenseExpirationDate": "09/12/2027",
    "dataDate": "10/18/2025",
    "capacity": 0,
    "address": "19634 VENTURA BLVD, SUITE 218",
    "city": "TARZANA",
    "zip": "91356",
    "county": "LOS ANGELES",
    "phone": "(818) 839-3000",
    "lat": 34.172316,
    "lng": -118.5612975
  },
  {
    "id": "630025216",
    "name": "TALENTED PEOPLE INC",
    "npi": null,
    "hcaiId": "406197952",
    "businessName": "TALENTED PEOPLE INC",
    "contactEmail": "MILENA1MILLER@GMAIL.COM",
    "categoryName": "HOME HEALTH AGENCY",
    "categoryCode": "HHA",
    "licenseStatus": "ACTIVE",
    "inService": true,
    "licenseNumber": "550008747",
    "licenseEffectiveDate": "01/21/2025",
    "licenseExpirationDate": "09/18/2025",
    "dataDate": "10/18/2025",
    "capacity": 0,
    "address": "6047 TAMPA AVE, #101",
    "city": "TARZANA",
    "zip": "91356",
    "county": "LOS ANGELES",
    "phone": "(323) 500-0808",
    "lat": 34.18080704,
    "lng": -118.5537618
  },
  {
    "id": "920000067",
    "name": "TARZANA HEALTH AND REHABILITATION CENTER",
    "npi": "1093385320",
    "hcaiId": "206190781",
    "businessName": "TARZANA POST ACUTE, LLC",
    "contactEmail": "ADMIN@TARZANAHEALTHANDREHAB.COM",
    "categoryName": "SKILLED NURSING FACILITY",
    "categoryCode": "SNF",
    "licenseStatus": "ACTIVE",
    "inService": true,
    "licenseNumber": "920000074",
    "licenseEffectiveDate": "11/01/2025",
    "licenseExpirationDate": "10/31/2026",
    "dataDate": "10/18/2025",
    "capacity": 180,
    "address": "5650 RESEDA BLVD",
    "city": "TARZANA",
    "zip": "91356",
    "county": "LOS ANGELES",
    "phone": "(818) 881-4261",
    "lat": 34.173936,
    "lng": -118.5357105
  },
  {
    "id": "930000159",
    "name": "TARZANA TREATMENT CENTER",
    "npi": "1396076147",
    "hcaiId": "106190782",
    "businessName": "TARZANA TREATMENT CENTERS, INC.",
    "contactEmail": "ASENELLA@TARZANATC.ORG",
    "categoryName": "ACUTE PSYCHIATRIC HOSPITAL",
    "categoryCode": "APH",
    "licenseStatus": "ACTIVE",
    "inService": true,
    "licenseNumber": "930000163",
    "licenseEffectiveDate": "11/17/2025",
    "licenseExpirationDate": "11/16/2026",
    "dataDate": "10/18/2025",
    "capacity": 60,
    "address": "18646 OXNARD ST",
    "city": "TARZANA",
    "zip": "91356",
    "county": "LOS ANGELES",
    "phone": "(818) 654-3815",
    "lat": 34.179471,
    "lng": -118.539765
  },
  {
    "id": "630014047",
    "name": "TARZANA TREATMENT CENTERS FAMILY MEDICAL TARZANA CLINIC",
    "npi": null,
    "hcaiId": "306197786",
    "businessName": "TARZANA TREATMENT CENTERS, INC.",
    "contactEmail": "ASENELLA@TARZANATC.ORG",
    "categoryName": "PRIMARY CARE CLINIC",
    "categoryCode": "COMTYC",
    "licenseStatus": "ACTIVE",
    "inService": true,
    "licenseNumber": "550002210",
    "licenseEffectiveDate": "03/13/2025",
    "licenseExpirationDate": "03/12/2026",
    "dataDate": "10/18/2025",
    "capacity": 0,
    "address": "18646 OXNARD ST",
    "city": "TARZANA",
    "zip": "91356",
    "county": "LOS ANGELES",
    "phone": "(818) 654-3815",
    "lat": 34.179471,
    "lng": -118.539765
  },
  {
    "id": "630023080",
    "name": "TCM HOME HEALTH INC",
    "npi": null,
    "hcaiId": "406195239",
    "businessName": "TCM HOME HEALTH INC",
    "contactEmail": "TCMHOMEHEALTH@GMAIL.COM",
    "categoryName": "HOME HEALTH AGENCY",
    "categoryCode": "HHA",
    "licenseStatus": "ACTIVE",
    "inService": true,
    "licenseNumber": "550007913",
    "licenseEffectiveDate": "03/16/2025",
    "licenseExpirationDate": "03/15/2026",
    "dataDate": "10/18/2025",
    "capacity": 0,
    "address": "18321 VENTURA BLVD, SUITE 820",
    "city": "TARZANA",
    "zip": "91356",
    "county": "LOS ANGELES",
    "phone": "(310) 407-9396",
    "lat": 34.167798,
    "lng": -118.531377
  },
  {
    "id": "630017801",
    "name": "TEMPLE OF LIFE HOME CARE",
    "npi": "1114430139",
    "hcaiId": "406191688",
    "businessName": "AVB & LV CORPORATION",
    "contactEmail": "TEMPLEOFLIFEHOMECARE@GMAIL.COM",
    "categoryName": "HOME HEALTH AGENCY",
    "categoryCode": "HHA",
    "licenseStatus": "ACTIVE",
    "inService": true,
    "licenseNumber": "550004727",
    "licenseEffectiveDate": "05/24/2025",
    "licenseExpirationDate": "05/23/2026",
    "dataDate": "10/18/2025",
    "capacity": 0,
    "address": "18340 VENTURA BLVD, SUITE 220",
    "city": "TARZANA",
    "zip": "91356",
    "county": "LOS ANGELES",
    "phone": "(747) 236-3155",
    "lat": 34.167006,
    "lng": -118.532079
  },
  {
    "id": "930001449",
    "name": "THE VALLEY ENDOSCOPY CENTER",
    "npi": null,
    "hcaiId": "306194598",
    "businessName": "THE VALLEY ENDOSCOPY CENTER, L.P.",
    "contactEmail": "NONE@DHS.CA.GOV",
    "categoryName": "SURGICAL CLINIC",
    "categoryCode": "ASC",
    "licenseStatus": "INACTIVE - CAPEN DECISION",
    "inService": false,
    "licenseNumber": "930000809",
    "licenseEffectiveDate": "11/07/2007",
    "licenseExpirationDate": "11/06/2008",
    "dataDate": "10/18/2025",
    "capacity": 0,
    "address": "18425 BURBANK BLVD, SUITE 525",
    "city": "TARZANA",
    "zip": "91356",
    "county": "LOS ANGELES",
    "phone": "(818) 708-6050",
    "lat": 34.17218746,
    "lng": -118.5345137
  },
  {
    "id": "630019496",
    "name": "TINOSA HOSPICE, INC.",
    "npi": null,
    "hcaiId": "406196724",
    "businessName": "TINOSA HOSPICE, INC.",
    "contactEmail": "TINOSAHOSPICE@GMAIL.COM",
    "categoryName": "HOSPICE",
    "categoryCode": "HOSPICE",
    "licenseStatus": "ACTIVE",
    "inService": true,
    "licenseNumber": "550006201",
    "licenseEffectiveDate": "04/15/2023",
    "licenseExpirationDate": "04/14/2025",
    "dataDate": "10/18/2025",
    "capacity": 0,
    "address": "19531 VENTURA BLVD, UNIT 2",
    "city": "TARZANA",
    "zip": "91356",
    "county": "LOS ANGELES",
    "phone": "(888) 407-2040",
    "lat": 34.1728621,
    "lng": -118.5591211
  },
  {
    "id": "630025607",
    "name": "ULTIMATE CARE HOME HEALTH SERVICES, INC",
    "npi": null,
    "hcaiId": "406190113",
    "businessName": "ULTIMATE CARE HOME HEALTH SERVICES, INC",
    "contactEmail": "UCHOMEHEALTH@GMAIL.COM",
    "categoryName": "HOME HEALTH AGENCY",
    "categoryCode": "HHA",
    "licenseStatus": "ACTIVE",
    "inService": true,
    "licenseNumber": "550008570",
    "licenseEffectiveDate": "06/06/2025",
    "licenseExpirationDate": "06/05/2026",
    "dataDate": "10/18/2025",
    "capacity": 0,
    "address": "18345 VENTURA BLVD, SUITE 318",
    "city": "TARZANA",
    "zip": "91356",
    "county": "LOS ANGELES",
    "phone": "(818) 921-3353",
    "lat": 34.16762499,
    "lng": -118.532374
  },
  {
    "id": "060001116",
    "name": "UNITED PACIFIC SURGERY CENTER",
    "npi": "1518375641",
    "hcaiId": "306304083",
    "businessName": null,
    "contactEmail": "JEANETTE.RASMUSSEN@UHSSC.COM",
    "categoryName": "SURGICAL CLINIC",
    "categoryCode": "ASC",
    "licenseStatus": null,
    "inService": null,
    "licenseNumber": null,
    "licenseEffectiveDate": null,
    "licenseExpirationDate": null,
    "dataDate": "10/18/2025",
    "capacity": 0,
    "address": "18133 VENTURA BLVD, SUITE 400",
    "city": "TARZANA",
    "zip": "91356",
    "county": "LOS ANGELES",
    "phone": "(714) 635-6272",
    "lat": 34.166088,
    "lng": -118.528183
  },
  {
    "id": "630025067",
    "name": "VAGA MEDICAL",
    "npi": null,
    "hcaiId": "406197598",
    "businessName": "VAGA MEDICAL",
    "contactEmail": "ANAHITHARUTYUNYAN115@YAHOO.COM",
    "categoryName": "HOME HEALTH AGENCY",
    "categoryCode": "HHA",
    "licenseStatus": "ACTIVE",
    "inService": true,
    "licenseNumber": "550008346",
    "licenseEffectiveDate": "01/27/2025",
    "licenseExpirationDate": "01/26/2026",
    "dataDate": "10/18/2025",
    "capacity": 0,
    "address": "19531 VENTURA BLVD, UNIT 9",
    "city": "TARZANA",
    "zip": "91356",
    "county": "LOS ANGELES",
    "phone": "(800) 850-2082",
    "lat": 34.1728621,
    "lng": -118.5591211
  },
  {
    "id": "960002801",
    "name": "VALLEY CORF, INC.",
    "npi": null,
    "hcaiId": "306190756",
    "businessName": "VALLEY CORF INC.",
    "contactEmail": "OFFICE@VALLEYCORF.COM",
    "categoryName": "REHABILITATION CLINIC",
    "categoryCode": "REHABC/CORF",
    "licenseStatus": "ACTIVE",
    "inService": true,
    "licenseNumber": "960001396",
    "licenseEffectiveDate": "05/16/2025",
    "licenseExpirationDate": "05/15/2026",
    "dataDate": "10/18/2025",
    "capacity": 0,
    "address": "18425 BURBANK BLVD, SUITE 520",
    "city": "TARZANA",
    "zip": "91356",
    "county": "LOS ANGELES",
    "phone": "(818) 758-2673",
    "lat": 34.17218746,
    "lng": -118.5345137
  },
  {
    "id": "630011232",
    "name": "VALLEY HOME HEALTH CARE AGENCY, INC.",
    "npi": "1255458170",
    "hcaiId": "406197135",
    "businessName": "VALLEY HOME HEALTH CARE AGENCY, INC.",
    "contactEmail": "ADMIN@VALLEYHOMEHEALTHCA.COM",
    "categoryName": "HOME HEALTH AGENCY",
    "categoryCode": "HHA",
    "licenseStatus": "ACTIVE",
    "inService": true,
    "licenseNumber": "550000733",
    "licenseEffectiveDate": "11/13/2025",
    "licenseExpirationDate": "11/12/2026",
    "dataDate": "10/18/2025",
    "capacity": 0,
    "address": "5530 CORBIN AVE, SUITE 112",
    "city": "TARZANA",
    "zip": "91356",
    "county": "LOS ANGELES",
    "phone": "(818) 300-0223",
    "lat": 34.171731,
    "lng": -118.5620445
  },
  {
    "id": "630018202",
    "name": "VANESSA HOME HEALTH SERVICES",
    "npi": "1356815930",
    "hcaiId": "406192089",
    "businessName": "VANESSA HOME HEALTH, LLC",
    "contactEmail": "INFO@VANESSAHOMEHEALTH.COM",
    "categoryName": "HOME HEALTH AGENCY",
    "categoryCode": "HHA",
    "licenseStatus": "ACTIVE",
    "inService": true,
    "licenseNumber": "550005161",
    "licenseEffectiveDate": "10/26/2025",
    "licenseExpirationDate": "10/25/2026",
    "dataDate": "10/18/2025",
    "capacity": 0,
    "address": "18740 VENTURA BLVD, SUITE 209",
    "city": "TARZANA",
    "zip": "91356",
    "county": "LOS ANGELES",
    "phone": "(818) 804-2929",
    "lat": 34.170993,
    "lng": -118.5421995
  },
  {
    "id": "630017259",
    "name": "VARICOSE VEIN SOLUTIONS",
    "npi": "1811319635",
    "hcaiId": null,
    "businessName": null,
    "contactEmail": "LADLOUD16@GMAIL.COM",
    "categoryName": "SURGICAL CLINIC",
    "categoryCode": "ASC",
    "licenseStatus": null,
    "inService": null,
    "licenseNumber": null,
    "licenseEffectiveDate": null,
    "licenseExpirationDate": null,
    "dataDate": "10/18/2025",
    "capacity": 0,
    "address": "18840 VENTURA BLVD, SUITE 100B",
    "city": "TARZANA",
    "zip": "91356",
    "county": "LOS ANGELES",
    "phone": "(818) 345-6124",
    "lat": 34.171857,
    "lng": -118.5442515
  },
  {
    "id": "630017725",
    "name": "VENTANA SURGICAL CENTER",
    "npi": "1013438563",
    "hcaiId": null,
    "businessName": null,
    "contactEmail": "SAMMARTINEZ@USPI.COM",
    "categoryName": "SURGICAL CLINIC",
    "categoryCode": "ASC",
    "licenseStatus": null,
    "inService": null,
    "licenseNumber": null,
    "licenseEffectiveDate": null,
    "licenseExpirationDate": null,
    "dataDate": "10/18/2025",
    "capacity": 0,
    "address": "18133 VENTURA BLVD, SUITE 400",
    "city": "TARZANA",
    "zip": "91356",
    "county": "LOS ANGELES",
    "phone": "(818) 462-0280",
    "lat": 34.166547,
    "lng": -118.528254
  },
  {
    "id": "630021753",
    "name": "WELFARE HOME HEALTH, INC",
    "npi": null,
    "hcaiId": "406195798",
    "businessName": "WELFARE HOME HEALTH, INC.",
    "contactEmail": "WELFAREHOMEHEALTHAGENCY@GMAIL.COM",
    "categoryName": "HOME HEALTH AGENCY",
    "categoryCode": "HHA",
    "licenseStatus": "ACTIVE",
    "inService": true,
    "licenseNumber": "550007826",
    "licenseEffectiveDate": "02/03/2025",
    "licenseExpirationDate": "02/02/2026",
    "dataDate": "10/18/2025",
    "capacity": 0,
    "address": "19634 VENTURA BLVD, SUITE 214",
    "city": "TARZANA",
    "zip": "91356",
    "county": "LOS ANGELES",
    "phone": "(747) 301-3015",
    "lat": 34.17231198,
    "lng": -118.561309
  },
  {
    "id": "630020524",
    "name": "ZEEGALS HOSPICE CARE, INC.",
    "npi": null,
    "hcaiId": "406193275",
    "businessName": "ZEEGALS HOSPICE CARE, INC.",
    "contactEmail": "ZEEGALSHOSPICEINC@YAHOO.COM",
    "categoryName": "HOSPICE",
    "categoryCode": "HOSPICE",
    "licenseStatus": "ACTIVE",
    "inService": true,
    "licenseNumber": "550007188",
    "licenseEffectiveDate": "11/15/2023",
    "licenseExpirationDate": "11/14/2025",
    "dataDate": "10/18/2025",
    "capacity": 0,
    "address": "18344 OXNARD ST, SUITE 205",
    "city": "TARZANA",
    "zip": "91356",
    "county": "LOS ANGELES",
    "phone": "(818) 459-1999",
    "lat": 34.179588,
    "lng": -118.5323805
  }
]