[
  {
    "id": "630019909",
    "name": "ACCESSCARE HOME HEALTH SERVICES LLC",
    "npi": null,
    "hcaiId": "406193117",
    "businessName": "ACCESSCARE HOME HEALTH SERVICES LLC",
    "contactEmail": "ACCESSCARE6@GMAIL.COM",
    "categoryName": "HOME HEALTH AGENCY",
    "categoryCode": "HHA",
    "licenseStatus": "ACTIVE",
    "inService": true,
    "licenseNumber": "550006056",
    "licenseEffectiveDate": "12/21/2024",
    "licenseExpirationDate": "12/20/2025",
    "dataDate": "10/18/2025",
    "capacity": 0,
    "address": "21618 GOLDEN TRIANGLE RD, SUITE 202",
    "city": "SANTA CLARITA",
    "zip": "91350",
    "county": "LOS ANGELES",
    "phone": "(661) 425-7022",
    "lat": 34.41522179,
    "lng": -118.5138416
  },
  {
    "id": "630020217",
    "name": "ASTRUM HOSPICE, INC.",
    "npi": null,
    "hcaiId": "406193198",
    "businessName": "ASTRUM HOSPICE, INC.",
    "contactEmail": "ASTRUMHOSPICE@GMAIL.COM",
    "categoryName": "HOSPICE",
    "categoryCode": "HOSPICE",
    "licenseStatus": "ACTIVE",
    "inService": true,
    "licenseNumber": "550006278",
    "licenseEffectiveDate": "02/19/2025",
    "licenseExpirationDate": "02/18/2027",
    "dataDate": "10/18/2025",
    "capacity": 0,
    "address": "28100 BOUQUET CANYON RD, SUITE 206",
    "city": "SANTA CLARITA",
    "zip": "91350",
    "county": "LOS ANGELES",
    "phone": "(747) 322-7757",
    "lat": 34.45032802,
    "lng": -118.497243
  },
  {
    "id": "630021954",
    "name": "BELLEROSE HOSPICE CARE INC",
    "npi": null,
    "hcaiId": "406195198",
    "businessName": "BELLEROSE HOSPICE CARE INC",
    "contactEmail": "BELLEROSEHOSPICE@GMAIL.COM",
    "categoryName": "HOSPICE",
    "categoryCode": "HOSPICE",
    "licenseStatus": "ACTIVE",
    "inService": true,
    "licenseNumber": "550007481",
    "licenseEffectiveDate": "12/03/2023",
    "licenseExpirationDate": "12/02/2025",
    "dataDate": "10/18/2025",
    "capacity": 0,
    "address": "26893 BOUQUET CANYON RD, SUITE L",
    "city": "SANTA CLARITA",
    "zip": "91350",
    "county": "LOS ANGELES",
    "phone": "(661) 857-7080",
    "lat": 34.434495,
    "lng": -118.5293565
  },
  {
    "id": "630022480",
    "name": "BEST HOME CARE OF SCV INC",
    "npi": null,
    "hcaiId": "406195790",
    "businessName": "BEST HOME CARE OF SCV INC",
    "contactEmail": "BESTHOMECAREOFSCV@YAHOO.COM",
    "categoryName": "HOME HEALTH AGENCY",
    "categoryCode": "HHA",
    "licenseStatus": "ACTIVE",
    "inService": true,
    "licenseNumber": "550007819",
    "licenseEffectiveDate": "01/17/2025",
    "licenseExpirationDate": "01/16/2026",
    "dataDate": "10/18/2025",
    "capacity": 0,
    "address": "27600 BOUQUET CANYON RD, SUITE 212",
    "city": "SANTA CLARITA",
    "zip": "91350",
    "county": "LOS ANGELES",
    "phone": "(661) 367-7126",
    "lat": 34.44250646,
    "lng": -118.5121414
  },
  {
    "id": "630018970",
    "name": "BRIGHT LIFE HOME HEALTH",
    "npi": null,
    "hcaiId": "406192699",
    "businessName": "BRIGHT LIFE HOME HEALTH",
    "contactEmail": "BRIGHTLIFEHH@GMAIL.COM",
    "categoryName": "HOME HEALTH AGENCY",
    "categoryCode": "HHA",
    "licenseStatus": "ACTIVE",
    "inService": true,
    "licenseNumber": "550005599",
    "licenseEffectiveDate": "07/22/2025",
    "licenseExpirationDate": "07/21/2026",
    "dataDate": "10/18/2025",
    "capacity": 0,
    "address": "26000 SPRINGBROOK AVE, SUITE 107",
    "city": "SANTA CLARITA",
    "zip": "91350",
    "county": "LOS ANGELES",
    "phone": "(702) 540-7499",
    "lat": 34.41501,
    "lng": -118.539189
  },
  {
    "id": "630015657",
    "name": "BV HOME HEALTH, LLC",
    "npi": null,
    "hcaiId": "406190790",
    "businessName": "BV HOME HEALTH, LLC",
    "contactEmail": "INFO@BVHOMEHEALTHCARE.COM",
    "categoryName": "HOME HEALTH AGENCY",
    "categoryCode": "HHA",
    "licenseStatus": "ACTIVE",
    "inService": true,
    "licenseNumber": "550004029",
    "licenseEffectiveDate": "12/01/2024",
    "licenseExpirationDate": "11/30/2025",
    "dataDate": "10/18/2025",
    "capacity": 0,
    "address": "28100 BOUQUET CANYON RD, SUITE 203",
    "city": "SANTA CLARITA",
    "zip": "91350",
    "county": "LOS ANGELES",
    "phone": "(661) 360-7025",
    "lat": 34.45032802,
    "lng": -118.497243
  },
  {
    "id": "630024806",
    "name": "HOME CARE SOLUTIONS, INC",
    "npi": null,
    "hcaiId": "406196509",
    "businessName": "HOME CARE SOLUTIONS, INC.",
    "contactEmail": "4HCSOLUTIONS@GMAIL.COM",
    "categoryName": "HOME HEALTH AGENCY",
    "categoryCode": "HHA",
    "licenseStatus": "ACTIVE",
    "inService": true,
    "licenseNumber": "550008510",
    "licenseEffectiveDate": "05/03/2025",
    "licenseExpirationDate": "05/02/2026",
    "dataDate": "10/18/2025",
    "capacity": 0,
    "address": "21618 GOLDEN TRIANGLE RD, SUITE 201",
    "city": "SANTA CLARITA",
    "zip": "91350",
    "county": "LOS ANGELES",
    "phone": "(818) 650-1200",
    "lat": 34.41522179,
    "lng": -118.5138416
  },
  {
    "id": "630026304",
    "name": "TRUE WEALTH HOME HEALTHCARE INC.",
    "npi": null,
    "hcaiId": null,
    "businessName": "TRUE WEALTH HOME HEALTHCARE INC.",
    "contactEmail": "TRUEWEALTHHC@GMAIL.COM",
    "categoryName": "HOME HEALTH AGENCY",
    "categoryCode": "HHA",
    "licenseStatus": "ACTIVE",
    "inService": true,
    "licenseNumber": "550009220",
    "licenseEffectiveDate": "06/21/2025",
    "licenseExpirationDate": "06/20/2026",
    "dataDate": "10/18/2025",
    "capacity": 0,
    "address": "27600 BOUQUET CANYON RD, SUITE 206",
    "city": "SANTA CLARITA",
    "zip": "91350",
    "county": "LOS ANGELES",
    "phone": "(818) 800-9944",
    "lat": 34.44250646,
    "lng": -118.5121414
  },
  {
    "id": "630018096",
    "name": "VALENCIA DIALYSIS",
    "npi": null,
    "hcaiId": "306190540",
    "businessName": "TOTAL RENAL CARE, INC.",
    "contactEmail": "CAL_C@DAVITA.COM",
    "categoryName": "CHRONIC DIALYSIS CLINIC",
    "categoryCode": "ESRD/CDC",
    "licenseStatus": "ACTIVE",
    "inService": true,
    "licenseNumber": "550005479",
    "licenseEffectiveDate": "10/02/2025",
    "licenseExpirationDate": "10/01/2026",
    "dataDate": "10/18/2025",
    "capacity": 13,
    "address": "26861 BOUQUET CANYON RD",
    "city": "SANTA CLARITA",
    "zip": "91350",
    "county": "LOS ANGELES",
    "phone": "(661) 263-3216",
    "lat": 34.434486,
    "lng": -118.53
  },
  {
    "id": "630016182",
    "name": "VIENNA HOSPICE AND PALLIATIVE CARE, INC.",
    "npi": "1760874747",
    "hcaiId": "406191473",
    "businessName": "VIENNA HOSPICE AND PALLIATIVE CARE, INC.",
    "contactEmail": "VIENNAHOSPICE@GMAIL.COM",
    "categoryName": "HOSPICE",
    "categoryCode": "HOSPICE",
    "licenseStatus": "ACTIVE",
    "inService": true,
    "licenseNumber": "550004366",
    "licenseEffectiveDate": "09/17/2024",
    "licenseExpirationDate": "09/16/2026",
    "dataDate": "10/18/2025",
    "capacity": 0,
    "address": "26811 SECO CANYON RD, SUITE C",
    "city": "SANTA CLARITA",
    "zip": "91350",
    "county": "LOS ANGELES",
    "phone": "(818) 405-0085",
    "lat": 34.433667,
    "lng": -118.531917
  }
]