[
  {
    "id": "630020902",
    "name": "ALL AMERICAN HOME HEALTH CARE, INC.",
    "npi": null,
    "hcaiId": "406195399",
    "businessName": "ALL AMERICAN HOME HEALTH CARE, INC.",
    "contactEmail": "ALLAMERICANHHC20@GMAIL.COM",
    "categoryName": "HOME HEALTH AGENCY",
    "categoryCode": "HHA",
    "licenseStatus": "ACTIVE",
    "inService": true,
    "licenseNumber": "550007856",
    "licenseEffectiveDate": "02/17/2025",
    "licenseExpirationDate": "02/16/2026",
    "dataDate": "10/18/2025",
    "capacity": 0,
    "address": "8485 GLENOAKS BLVD, SUITE 5",
    "city": "SUN VALLEY",
    "zip": "91352",
    "county": "LOS ANGELES",
    "phone": "(818) 330-3656",
    "lat": 34.22431538,
    "lng": -118.3612232
  },
  {
    "id": "630021215",
    "name": "ALLIED HOSPICE, INC",
    "npi": null,
    "hcaiId": "406197930",
    "businessName": "ALLIED HOSPICE, INC",
    "contactEmail": "ALLIEDHOSPICE2020@GMAIL.COM",
    "categoryName": "HOSPICE",
    "categoryCode": "HOSPICE",
    "licenseStatus": "ACTIVE",
    "inService": true,
    "licenseNumber": "550006620",
    "licenseEffectiveDate": "07/29/2025",
    "licenseExpirationDate": "07/28/2027",
    "dataDate": "10/18/2025",
    "capacity": 0,
    "address": "7630 VINELAND AVE, SUITE 207",
    "city": "SUN VALLEY",
    "zip": "91352",
    "county": "LOS ANGELES",
    "phone": "(818) 930-5636",
    "lat": 34.20913674,
    "lng": -118.370001
  },
  {
    "id": "630025505",
    "name": "ANGEL HALO'S HOME HEALTH, INC",
    "npi": null,
    "hcaiId": "406197941",
    "businessName": "ANGEL HALO'S HOME HEALTH, INC",
    "contactEmail": "ANGELHALOSHOMEHEALTH@GMAIL.COM",
    "categoryName": "HOME HEALTH AGENCY",
    "categoryCode": "HHA",
    "licenseStatus": "ACTIVE",
    "inService": true,
    "licenseNumber": "550008741",
    "licenseEffectiveDate": "03/21/2024",
    "licenseExpirationDate": "09/20/2024",
    "dataDate": "10/18/2025",
    "capacity": 0,
    "address": "11109 SHELDON ST, UNIT 105",
    "city": "SUN VALLEY",
    "zip": "91352",
    "county": "LOS ANGELES",
    "phone": "(818) 927-0948",
    "lat": 34.254297,
    "lng": -118.373391
  },
  {
    "id": "630021403",
    "name": "BRAND HOSPICE CARE, INC.",
    "npi": null,
    "hcaiId": "406194833",
    "businessName": "BRAND HOSPICE CARE, INC.",
    "contactEmail": "BRANDHOSPICE@GMAIL.COM",
    "categoryName": "HOSPICE",
    "categoryCode": "HOSPICE",
    "licenseStatus": "ACTIVE",
    "inService": true,
    "licenseNumber": "550006798",
    "licenseEffectiveDate": "09/10/2025",
    "licenseExpirationDate": "09/09/2027",
    "dataDate": "10/18/2025",
    "capacity": 0,
    "address": "7630 VINELAND AVE, SUITE 209A",
    "city": "SUN VALLEY",
    "zip": "91352",
    "county": "LOS ANGELES",
    "phone": "(818) 741-2741",
    "lat": 34.2092385,
    "lng": -118.3702736
  },
  {
    "id": "630024139",
    "name": "CA HOME HEALTH CARE, INC.",
    "npi": null,
    "hcaiId": "406190108",
    "businessName": "CA HOME HEALTH CARE, INC.",
    "contactEmail": "CAHOMEHEALTHCARE1@GMAIL.COM",
    "categoryName": "HOME HEALTH AGENCY",
    "categoryCode": "HHA",
    "licenseStatus": "ACTIVE",
    "inService": true,
    "licenseNumber": "550008604",
    "licenseEffectiveDate": "06/08/2025",
    "licenseExpirationDate": "06/07/2026",
    "dataDate": "10/18/2025",
    "capacity": 0,
    "address": "8133 SAN FERNANDO RD, SUITE 2",
    "city": "SUN VALLEY",
    "zip": "91352",
    "county": "LOS ANGELES",
    "phone": "(818) 599-6600",
    "lat": 34.218135,
    "lng": -118.3678965
  },
  {
    "id": "960002397",
    "name": "CANYON CREST DIVISION",
    "npi": "1467580456",
    "hcaiId": null,
    "businessName": "ABILITY PATHWAYS INCORPORATED",
    "contactEmail": "MRARN@AOL.COM",
    "categoryName": "INTERMEDIATE CARE FACILITY-DD/H/N/CN/IID",
    "categoryCode": "ICFDDH",
    "licenseStatus": "ACTIVE",
    "inService": true,
    "licenseNumber": "960001091",
    "licenseEffectiveDate": "06/19/2025",
    "licenseExpirationDate": "06/18/2026",
    "dataDate": "10/18/2025",
    "capacity": 6,
    "address": "9714 LA TUNA CANYON RD",
    "city": "SUN VALLEY",
    "zip": "91352",
    "county": "LOS ANGELES",
    "phone": "(818) 768-6765",
    "lat": 34.235028,
    "lng": -118.3426245
  },
  {
    "id": "630016949",
    "name": "CARE HOME HEALTH INC.",
    "npi": "1508305756",
    "hcaiId": "406190916",
    "businessName": "CARE HOME HEALTH INC",
    "contactEmail": "CAREHOMEHEALTHINC@YAHOO.COM",
    "categoryName": "HOME HEALTH AGENCY",
    "categoryCode": "HHA",
    "licenseStatus": "ACTIVE",
    "inService": true,
    "licenseNumber": "550004306",
    "licenseEffectiveDate": "06/23/2025",
    "licenseExpirationDate": "06/22/2026",
    "dataDate": "10/18/2025",
    "capacity": 0,
    "address": "7200 VINELAND AVENUE, SUITE 213",
    "city": "SUN VALLEY",
    "zip": "91352",
    "county": "LOS ANGELES",
    "phone": "(747) 203-1975",
    "lat": 34.201683,
    "lng": -118.370115
  },
  {
    "id": "630015325",
    "name": "CASA VALLE",
    "npi": null,
    "hcaiId": "206198360",
    "businessName": "DP CARE, INC.",
    "contactEmail": "DPCARE10@GMAIL.COM",
    "categoryName": "CONGREGATE LIVING HEALTH FACILITY",
    "categoryCode": "CLHF",
    "licenseStatus": "ACTIVE",
    "inService": true,
    "licenseNumber": "550003783",
    "licenseEffectiveDate": "12/12/2024",
    "licenseExpirationDate": "12/11/2025",
    "dataDate": "10/18/2025",
    "capacity": 6,
    "address": "11321 STAGG ST",
    "city": "SUN VALLEY",
    "zip": "91352",
    "county": "LOS ANGELES",
    "phone": "(818) 765-2273",
    "lat": 34.212321,
    "lng": -118.3776165
  },
  {
    "id": "630025783",
    "name": "CHERRY BLOSSOM HEALTH CARE, INC.",
    "npi": null,
    "hcaiId": null,
    "businessName": "CHERRY BLOSSOM HEALTH CARE, INC.",
    "contactEmail": "4CHERRYBLOSSOMHC@GMAIL.COM",
    "categoryName": "HOME HEALTH AGENCY",
    "categoryCode": "HHA",
    "licenseStatus": "ACTIVE",
    "inService": true,
    "licenseNumber": "550009139",
    "licenseEffectiveDate": "04/29/2025",
    "licenseExpirationDate": "04/28/2026",
    "dataDate": "10/18/2025",
    "capacity": 0,
    "address": "8123 SAN FERNANDO RD, SUITE A1",
    "city": "SUN VALLEY",
    "zip": "91352",
    "county": "LOS ANGELES",
    "phone": "(747) 895-5147",
    "lat": 34.21787802,
    "lng": -118.36771
  },
  {
    "id": "630025655",
    "name": "CHIBURASHKA HOME HEALTH SERVICES INC",
    "npi": null,
    "hcaiId": "406197559",
    "businessName": "CHIBURASHKA HOME HEALTH SERVICES",
    "contactEmail": "CHIBURASHKAHHSI@GMAIL.COM",
    "categoryName": "HOME HEALTH AGENCY",
    "categoryCode": "HHA",
    "licenseStatus": "ACTIVE",
    "inService": true,
    "licenseNumber": "550008724",
    "licenseEffectiveDate": "07/21/2025",
    "licenseExpirationDate": "07/20/2026",
    "dataDate": "10/18/2025",
    "capacity": 0,
    "address": "11814 SHELDON ST, SUITE L",
    "city": "SUN VALLEY",
    "zip": "91352",
    "county": "LOS ANGELES",
    "phone": "(747) 300-0788",
    "lat": 34.241229,
    "lng": -118.3899195
  },
  {
    "id": "630019832",
    "name": "CITY OF HOPE HOSPICE INC",
    "npi": null,
    "hcaiId": "406190139",
    "businessName": "CITY OF HOPE HOSPICE INC",
    "contactEmail": "CITYOFHOPEHOSPICE@YAHOO.COM",
    "categoryName": "HOSPICE",
    "categoryCode": "HOSPICE",
    "licenseStatus": "ACTIVE",
    "inService": true,
    "licenseNumber": "550005955",
    "licenseEffectiveDate": "12/16/2024",
    "licenseExpirationDate": "12/15/2026",
    "dataDate": "10/18/2025",
    "capacity": 0,
    "address": "7200 VINELAND AVE, SUITE 207",
    "city": "SUN VALLEY",
    "zip": "91352",
    "county": "LOS ANGELES",
    "phone": "(818) 533-2355",
    "lat": 34.201683,
    "lng": -118.370115
  },
  {
    "id": "630021334",
    "name": "COAST VIEW HOSPICE, INC",
    "npi": null,
    "hcaiId": "406193357",
    "businessName": "COAST VIEW HOSPICE, INC.",
    "contactEmail": "COASTVIEWHOSPICE@GMAIL.COM",
    "categoryName": "HOSPICE",
    "categoryCode": "HOSPICE",
    "licenseStatus": "ACTIVE",
    "inService": true,
    "licenseNumber": "550006993",
    "licenseEffectiveDate": "08/06/2025",
    "licenseExpirationDate": "10/01/2025",
    "dataDate": "10/18/2025",
    "capacity": 0,
    "address": "7630 VINELAND AVE, SUITE 206A",
    "city": "SUN VALLEY",
    "zip": "91352",
    "county": "LOS ANGELES",
    "phone": "(562) 317-8988",
    "lat": 34.20919298,
    "lng": -118.36989
  },
  {
    "id": "630021346",
    "name": "COASTLINE HOSPICE, INC",
    "npi": null,
    "hcaiId": "406193358",
    "businessName": "COASTLINE HOSPICE, INC",
    "contactEmail": "COASTLINEHOSPICE@GMAIL.COM",
    "categoryName": "HOSPICE",
    "categoryCode": "HOSPICE",
    "licenseStatus": "ACTIVE",
    "inService": true,
    "licenseNumber": "550006994",
    "licenseEffectiveDate": "10/01/2023",
    "licenseExpirationDate": "09/30/2025",
    "dataDate": "10/18/2025",
    "capacity": 0,
    "address": "7630 VINELAND AVE, SUITE 207A",
    "city": "SUN VALLEY",
    "zip": "91352",
    "county": "LOS ANGELES",
    "phone": "(562) 317-8778",
    "lat": 34.20919298,
    "lng": -118.36989
  },
  {
    "id": "960002687",
    "name": "CROCKETT DIVISION",
    "npi": "1093843088",
    "hcaiId": null,
    "businessName": "ABILITY PATHWAYS INCORPORATED",
    "contactEmail": "TATEQIDP2022@GMAIL.COM",
    "categoryName": "INTERMEDIATE CARE FACILITY-DD/H/N/CN/IID",
    "categoryCode": "ICFDDH",
    "licenseStatus": "ACTIVE",
    "inService": true,
    "licenseNumber": "960001328",
    "licenseEffectiveDate": "06/19/2025",
    "licenseExpirationDate": "06/18/2026",
    "dataDate": "10/18/2025",
    "capacity": 6,
    "address": "10528 CROCKETT ST",
    "city": "SUN VALLEY",
    "zip": "91352",
    "county": "LOS ANGELES",
    "phone": "(747) 223-2565",
    "lat": 34.21998,
    "lng": -118.3606605
  },
  {
    "id": "630026556",
    "name": "DAY AND NIGHT HEALTH SERVICES, INC.",
    "npi": null,
    "hcaiId": null,
    "businessName": "DAY AND NIGHT HOME HEALTH SERVICES, INC",
    "contactEmail": "DAYNIGHTHOMEHEALTH@GMAIL.COM",
    "categoryName": "HOME HEALTH AGENCY",
    "categoryCode": "HHA",
    "licenseStatus": "ACTIVE",
    "inService": true,
    "licenseNumber": "550009339",
    "licenseEffectiveDate": "02/06/2025",
    "licenseExpirationDate": "08/05/2025",
    "dataDate": "10/18/2025",
    "capacity": 0,
    "address": "7630 VINELAND AVE, SUITE 206",
    "city": "SUN VALLEY",
    "zip": "91352",
    "county": "LOS ANGELES",
    "phone": "(818) 479-7262",
    "lat": 34.2092385,
    "lng": -118.3702736
  },
  {
    "id": "630018546",
    "name": "DEVOTION HOME HEALTH INC",
    "npi": "1295201762",
    "hcaiId": "406192458",
    "businessName": "DEVOTION HOME HEALTH INC",
    "contactEmail": "DEVOTIONHOMEHEALTH@GMAIL.COM",
    "categoryName": "HOME HEALTH AGENCY",
    "categoryCode": "HHA",
    "licenseStatus": "ACTIVE",
    "inService": true,
    "licenseNumber": "550005364",
    "licenseEffectiveDate": "03/16/2025",
    "licenseExpirationDate": "03/15/2026",
    "dataDate": "10/18/2025",
    "capacity": 0,
    "address": "7200 VINELAND AVE, SUITE 205",
    "city": "SUN VALLEY",
    "zip": "91352",
    "county": "LOS ANGELES",
    "phone": "(818) 281-9031",
    "lat": 34.201683,
    "lng": -118.370115
  },
  {
    "id": "960002407",
    "name": "ELBEN DIVISION",
    "npi": "1376671362",
    "hcaiId": null,
    "businessName": "ABILITY PATHWAYS INCORPORATED",
    "contactEmail": "MRARN@AOL.COM",
    "categoryName": "INTERMEDIATE CARE FACILITY-DD/H/N/CN/IID",
    "categoryCode": "ICFDDH",
    "licenseStatus": "ACTIVE",
    "inService": true,
    "licenseNumber": "960001096",
    "licenseEffectiveDate": "06/19/2025",
    "licenseExpirationDate": "06/18/2026",
    "dataDate": "10/18/2025",
    "capacity": 6,
    "address": "9310 ELBEN AVE",
    "city": "SUN VALLEY",
    "zip": "91352",
    "county": "LOS ANGELES",
    "phone": "(818) 951-4034",
    "lat": 34.23771,
    "lng": -118.33524
  },
  {
    "id": "630027960",
    "name": "ELEVATE HEALTH CENTER - SAN FERNANDO ROAD",
    "npi": null,
    "hcaiId": null,
    "businessName": "SFV HEALTH CENTER, INC.",
    "contactEmail": null,
    "categoryName": "PRIMARY CARE CLINIC",
    "categoryCode": "COMTYC",
    "licenseStatus": "ACTIVE",
    "inService": true,
    "licenseNumber": "550006159",
    "licenseEffectiveDate": "02/12/2025",
    "licenseExpirationDate": "02/11/2026",
    "dataDate": "10/18/2025",
    "capacity": 0,
    "address": "9375 SAN FERNANDO RD, SUITE 2A",
    "city": "SUN VALLEY",
    "zip": "91352",
    "county": "LOS ANGELES",
    "phone": null,
    "lat": 34.23934298,
    "lng": -118.394264
  },
  {
    "id": "960001522",
    "name": "EMILY'S RESIDENTIAL CARE CENTER, LLC",
    "npi": "1043394513",
    "hcaiId": null,
    "businessName": "EMILY'S RESIDENTIAL CARE CENTER, LLC",
    "contactEmail": "EMILYSRESIDENTIAL@GMAIL.COM",
    "categoryName": "INTERMEDIATE CARE FACILITY-DD/H/N/CN/IID",
    "categoryCode": "ICFDDH",
    "licenseStatus": "ACTIVE",
    "inService": true,
    "licenseNumber": "960000768",
    "licenseEffectiveDate": "10/11/2025",
    "licenseExpirationDate": "10/10/2026",
    "dataDate": "10/18/2025",
    "capacity": 6,
    "address": "8983 TELFAIR AVE",
    "city": "SUN VALLEY",
    "zip": "91352",
    "county": "LOS ANGELES",
    "phone": "(818) 767-2913",
    "lat": 34.232364,
    "lng": -118.392948
  },
  {
    "id": "630025798",
    "name": "ENCOURAGE HOMES",
    "npi": "1154944510",
    "hcaiId": null,
    "businessName": "ENCOURAGE HOMES INC.",
    "contactEmail": "INFODIRECT365@ICFHOME.INFO",
    "categoryName": "INTERMEDIATE CARE FACILITY-DD/H/N/CN/IID",
    "categoryCode": "ICFDDN",
    "licenseStatus": "ACTIVE",
    "inService": true,
    "licenseNumber": "550008115",
    "licenseEffectiveDate": "08/09/2025",
    "licenseExpirationDate": "08/08/2026",
    "dataDate": "10/18/2025",
    "capacity": 6,
    "address": "9227 CAYUGA AVE",
    "city": "SUN VALLEY",
    "zip": "91352",
    "county": "LOS ANGELES",
    "phone": "(818) 369-4117",
    "lat": 34.237215,
    "lng": -118.399365
  },
  {
    "id": "630021568",
    "name": "EVERETT HOSPICE CARE INC",
    "npi": null,
    "hcaiId": "406194847",
    "businessName": "EVERETT HOSPICE CARE INC",
    "contactEmail": "EVERETTHOSPICECARE@GMAIL.COM",
    "categoryName": "HOSPICE",
    "categoryCode": "HOSPICE",
    "licenseStatus": "ACTIVE",
    "inService": true,
    "licenseNumber": "550006815",
    "licenseEffectiveDate": "09/23/2023",
    "licenseExpirationDate": "09/22/2025",
    "dataDate": "10/18/2025",
    "capacity": 0,
    "address": "7630 VINELAND AVE, SUITE 209",
    "city": "SUN VALLEY",
    "zip": "91352",
    "county": "LOS ANGELES",
    "phone": "(747) 336-3230",
    "lat": 34.20919298,
    "lng": -118.36989
  },
  {
    "id": "630018967",
    "name": "FINEST HOME HEALTH CARE",
    "npi": null,
    "hcaiId": "406192698",
    "businessName": "FINEST HOME HEALTH CARE",
    "contactEmail": "FINESTHOMEHEALTHCARE@GMAIL.COM",
    "categoryName": "HOME HEALTH AGENCY",
    "categoryCode": "HHA",
    "licenseStatus": "ACTIVE",
    "inService": true,
    "licenseNumber": "550005600",
    "licenseEffectiveDate": "07/23/2024",
    "licenseExpirationDate": "07/22/2025",
    "dataDate": "10/18/2025",
    "capacity": 0,
    "address": "7200 VINELAND AVE, SUITE 225",
    "city": "SUN VALLEY",
    "zip": "91352",
    "county": "LOS ANGELES",
    "phone": "(818) 281-9031",
    "lat": 34.201683,
    "lng": -118.370115
  },
  {
    "id": "630021650",
    "name": "FINEST HOSPICE INC",
    "npi": null,
    "hcaiId": "406195945",
    "businessName": "FINEST HOSPICE INC",
    "contactEmail": "HOSPICEFINEST@GMAIL.COM",
    "categoryName": "HOSPICE",
    "categoryCode": "HOSPICE",
    "licenseStatus": "ACTIVE",
    "inService": true,
    "licenseNumber": "550007199",
    "licenseEffectiveDate": "11/15/2025",
    "licenseExpirationDate": "11/14/2027",
    "dataDate": "10/18/2025",
    "capacity": 0,
    "address": "7200 VINELAND AVE, SUITE 210A",
    "city": "SUN VALLEY",
    "zip": "91352",
    "county": "LOS ANGELES",
    "phone": "(818) 465-8535",
    "lat": 34.201683,
    "lng": -118.370115
  },
  {
    "id": "630015889",
    "name": "FIVE POINT CARE, INC.",
    "npi": null,
    "hcaiId": "206198399",
    "businessName": "FIVE POINT CARE, INC.",
    "contactEmail": "REGINA@PROACTIVEMEDICALSTAFFING.COM",
    "categoryName": "CONGREGATE LIVING HEALTH FACILITY",
    "categoryCode": "CLHF",
    "licenseStatus": "ACTIVE",
    "inService": true,
    "licenseNumber": "550003626",
    "licenseEffectiveDate": "08/25/2025",
    "licenseExpirationDate": "08/24/2026",
    "dataDate": "10/18/2025",
    "capacity": 6,
    "address": "7913 SATSUMA AVE",
    "city": "SUN VALLEY",
    "zip": "91352",
    "county": "LOS ANGELES",
    "phone": "(818) 505-3515",
    "lat": 34.214328,
    "lng": -118.367325
  },
  {
    "id": "630019686",
    "name": "FRANKLIN HOSPICE, INC.",
    "npi": "1326686197",
    "hcaiId": "406192836",
    "businessName": "FRANKLIN HOSPICE, INC.",
    "contactEmail": "FRANKLINHOSPICELA@GMAIL.COM",
    "categoryName": "HOSPICE",
    "categoryCode": "HOSPICE",
    "licenseStatus": "ACTIVE",
    "inService": true,
    "licenseNumber": "550005639",
    "licenseEffectiveDate": "08/04/2024",
    "licenseExpirationDate": "08/03/2026",
    "dataDate": "10/18/2025",
    "capacity": 0,
    "address": "7630 VINELAND AVE, SUITE 203",
    "city": "SUN VALLEY",
    "zip": "91352",
    "county": "LOS ANGELES",
    "phone": "(818) 665-3583",
    "lat": 34.20919298,
    "lng": -118.36989
  },
  {
    "id": "630021145",
    "name": "GENESIS HOSPICE INC",
    "npi": null,
    "hcaiId": "406193565",
    "businessName": "GENESIS HOSPICE INC",
    "contactEmail": "GENESISHOSPICEINC@GMAIL.COM",
    "categoryName": "HOSPICE",
    "categoryCode": "HOSPICE",
    "licenseStatus": "ACTIVE",
    "inService": true,
    "licenseNumber": "550006595",
    "licenseEffectiveDate": "10/25/2023",
    "licenseExpirationDate": "07/22/2025",
    "dataDate": "10/18/2025",
    "capacity": 0,
    "address": "7630 VINELAND AVE, SUITE 208",
    "city": "SUN VALLEY",
    "zip": "91352",
    "county": "LOS ANGELES",
    "phone": "(747) 266-1161",
    "lat": 34.20919298,
    "lng": -118.36989
  },
  {
    "id": "630015632",
    "name": "GOLDEN HEARTS HOME HEALTH",
    "npi": "1992194617",
    "hcaiId": "406198268",
    "businessName": "GOLDEN HEARTS HOME HEALTH",
    "contactEmail": "GOLDENHEARTSHOMEHEALTH@YAHOO.COM",
    "categoryName": "HOME HEALTH AGENCY",
    "categoryCode": "HHA",
    "licenseStatus": "ACTIVE",
    "inService": true,
    "licenseNumber": "550003557",
    "licenseEffectiveDate": "05/18/2025",
    "licenseExpirationDate": "05/17/2026",
    "dataDate": "10/18/2025",
    "capacity": 0,
    "address": "7200 VINELAND AVE., SUITE 203",
    "city": "SUN VALLEY",
    "zip": "91352",
    "county": "LOS ANGELES",
    "phone": "(818) 255-5364",
    "lat": 34.201683,
    "lng": -118.370115
  },
  {
    "id": "630020439",
    "name": "GOOD HEART'S HOSPICE INC",
    "npi": null,
    "hcaiId": "406196039",
    "businessName": "GOOD HEART'S HOSPICE INC",
    "contactEmail": "GOODHEARTSHOSPICE@GMAIL.COM",
    "categoryName": "HOSPICE",
    "categoryCode": "HOSPICE",
    "licenseStatus": "ACTIVE",
    "inService": true,
    "licenseNumber": "550006753",
    "licenseEffectiveDate": "08/31/2025",
    "licenseExpirationDate": "08/30/2027",
    "dataDate": "10/18/2025",
    "capacity": 0,
    "address": "7200 VINELAND AVE, SUITE 202",
    "city": "SUN VALLEY",
    "zip": "91352",
    "county": "LOS ANGELES",
    "phone": "(323) 839-4410",
    "lat": 34.201683,
    "lng": -118.370115
  },
  {
    "id": "630025279",
    "name": "GOOD WAY HOME HEALTH INC.",
    "npi": null,
    "hcaiId": "406190186",
    "businessName": "GOOD WAY HOME HEALTH INC.",
    "contactEmail": "GOODWAYHOMEHEALTH@GMAIL.COM",
    "categoryName": "HOME HEALTH AGENCY",
    "categoryCode": "HHA",
    "licenseStatus": "ACTIVE",
    "inService": true,
    "licenseNumber": "550008683",
    "licenseEffectiveDate": "08/08/2025",
    "licenseExpirationDate": "08/07/2026",
    "dataDate": "10/18/2025",
    "capacity": 0,
    "address": "11871 SHELDON ST, UNIT C",
    "city": "SUN VALLEY",
    "zip": "91352",
    "county": "LOS ANGELES",
    "phone": "(747) 666-2241",
    "lat": 34.241022,
    "lng": -118.3923945
  },
  {
    "id": "630020565",
    "name": "GREEN WAY HOSPICE, INC.",
    "npi": null,
    "hcaiId": "406193602",
    "businessName": "GREEN WAY HOSPICE, INC.",
    "contactEmail": "GREENWAYHOSPICE@YAHOO.COM",
    "categoryName": "HOSPICE",
    "categoryCode": "HOSPICE",
    "licenseStatus": "ACTIVE",
    "inService": true,
    "licenseNumber": "550006453",
    "licenseEffectiveDate": "06/09/2025",
    "licenseExpirationDate": "06/08/2027",
    "dataDate": "10/18/2025",
    "capacity": 0,
    "address": "7630 VINELAND AVE, SUITE 210A",
    "city": "SUN VALLEY",
    "zip": "91352",
    "county": "LOS ANGELES",
    "phone": "(747) 212-2360",
    "lat": 34.2092385,
    "lng": -118.3702736
  },
  {
    "id": "630026020",
    "name": "HA HOME CARE INC",
    "npi": null,
    "hcaiId": null,
    "businessName": "HA HOME CARE INC",
    "contactEmail": "HAHOMECAREINC@GMAIL.COM",
    "categoryName": "HOME HEALTH AGENCY",
    "categoryCode": "HHA",
    "licenseStatus": "ACTIVE",
    "inService": true,
    "licenseNumber": "550009122",
    "licenseEffectiveDate": "05/10/2025",
    "licenseExpirationDate": "05/09/2026",
    "dataDate": "10/18/2025",
    "capacity": 0,
    "address": "8905 GLENOAKS BLVD, SUITE M",
    "city": "SUN VALLEY",
    "zip": "91352",
    "county": "LOS ANGELES",
    "phone": "(818) 745-1157",
    "lat": 34.23033,
    "lng": -118.3675185
  },
  {
    "id": "630017056",
    "name": "HEALTHY POINT HOMES",
    "npi": "1750733655",
    "hcaiId": null,
    "businessName": "HEALTHY POINT, INC.",
    "contactEmail": "INFODIRECT365@GMAIL.COM",
    "categoryName": "INTERMEDIATE CARE FACILITY-DD/H/N/CN/IID",
    "categoryCode": "ICFDDN",
    "licenseStatus": "ACTIVE",
    "inService": true,
    "licenseNumber": "550003986",
    "licenseEffectiveDate": "10/21/2025",
    "licenseExpirationDate": "10/20/2026",
    "dataDate": "10/18/2025",
    "capacity": 6,
    "address": "9200 KEWEN STREET",
    "city": "SUN VALLEY",
    "zip": "91352",
    "county": "LOS ANGELES",
    "phone": "(818) 823-8838",
    "lat": 34.236837,
    "lng": -118.3997925
  },
  {
    "id": "630021134",
    "name": "HERITAGE HOSPICE SERVICES, INC.",
    "npi": null,
    "hcaiId": "406193482",
    "businessName": "HERITAGE HOSPICE SERVICES, INC.",
    "contactEmail": "HERITAGEHOSPICESERVICES@GMAIL.COM",
    "categoryName": "HOSPICE",
    "categoryCode": "HOSPICE",
    "licenseStatus": "ACTIVE",
    "inService": true,
    "licenseNumber": "550006710",
    "licenseEffectiveDate": "08/20/2023",
    "licenseExpirationDate": "08/19/2025",
    "dataDate": "10/18/2025",
    "capacity": 0,
    "address": "7200 VINELAND AVE, UNIT 212",
    "city": "SUN VALLEY",
    "zip": "91352",
    "county": "LOS ANGELES",
    "phone": "(818) 522-2974",
    "lat": 34.201683,
    "lng": -118.370115
  },
  {
    "id": "630016413",
    "name": "HHS HOMECARE, INC",
    "npi": "1023480613",
    "hcaiId": "406190645",
    "businessName": "HHS HOMECARE, INC",
    "contactEmail": "HHSHOMECARE@GMAIL.COM",
    "categoryName": "HOME HEALTH AGENCY",
    "categoryCode": "HHA",
    "licenseStatus": "ACTIVE",
    "inService": true,
    "licenseNumber": "550004062",
    "licenseEffectiveDate": "11/08/2025",
    "licenseExpirationDate": "11/07/2026",
    "dataDate": "10/18/2025",
    "capacity": 0,
    "address": "10875 LA TUNA CANYON RD.",
    "city": "SUN VALLEY, CA",
    "zip": "91352",
    "county": "LOS ANGELES",
    "phone": "(818) 232-1993",
    "lat": 34.234495,
    "lng": -118.368534
  },
  {
    "id": "630019051",
    "name": "HOME & HEART HEALTHCARE",
    "npi": null,
    "hcaiId": "406190198",
    "businessName": "NP HOME SERVICES, LLC.",
    "contactEmail": "PZAMKOCHYAN@GMAIL.COM",
    "categoryName": "HOME HEALTH AGENCY",
    "categoryCode": "HHA",
    "licenseStatus": "ACTIVE",
    "inService": true,
    "licenseNumber": "550005994",
    "licenseEffectiveDate": "01/13/2024",
    "licenseExpirationDate": "01/12/2025",
    "dataDate": "10/18/2025",
    "capacity": 0,
    "address": "10723 SHERMAN WAY, UNIT B",
    "city": "SUN VALLEY",
    "zip": "91352",
    "county": "LOS ANGELES",
    "phone": "(818) 984-4321",
    "lat": 34.201431,
    "lng": -118.3641255
  },
  {
    "id": "630025499",
    "name": "HOME HEALTH OF THE CENTURY, INC",
    "npi": null,
    "hcaiId": "406197537",
    "businessName": "HOME HEALTH OF THE CENTURY, INC",
    "contactEmail": "HOMEHEALTHOFTHECENTURY@GMAIL.COM",
    "categoryName": "HOME HEALTH AGENCY",
    "categoryCode": "HHA",
    "licenseStatus": "ACTIVE",
    "inService": true,
    "licenseNumber": "550008732",
    "licenseEffectiveDate": "03/13/2024",
    "licenseExpirationDate": "09/12/2024",
    "dataDate": "10/18/2025",
    "capacity": 0,
    "address": "11109 SHELDON ST, UNIT 104",
    "city": "SUN VALLEY",
    "zip": "91352",
    "county": "LOS ANGELES",
    "phone": "(818) 492-4733",
    "lat": 34.254297,
    "lng": -118.373391
  },
  {
    "id": "630027024",
    "name": "HOPE HEART HOME HEALTH",
    "npi": null,
    "hcaiId": null,
    "businessName": "HOPE HEART HOME HEALTH",
    "contactEmail": "HOPEHEARTHOMEHEALTH@GMAIL.COM",
    "categoryName": "HOME HEALTH AGENCY",
    "categoryCode": "HHA",
    "licenseStatus": "ACTIVE",
    "inService": true,
    "licenseNumber": "550009605",
    "licenseEffectiveDate": "07/10/2025",
    "licenseExpirationDate": "01/09/2026",
    "dataDate": "10/18/2025",
    "capacity": 0,
    "address": "7200 VINELAND AVE, UNIT 202",
    "city": "SUN VALLEY",
    "zip": "91352",
    "county": "LOS ANGELES",
    "phone": "(818) 281-9031",
    "lat": 34.201683,
    "lng": -118.370115
  },
  {
    "id": "630015698",
    "name": "HOUSE OF FAITH CONGREGATE LIVING, INC.",
    "npi": null,
    "hcaiId": "206198398",
    "businessName": "HOUSE OF FAITH CONGREGATE LIVING, INC.",
    "contactEmail": "HOUSEOFFAITHCLHF@GMAIL.COM",
    "categoryName": "CONGREGATE LIVING HEALTH FACILITY",
    "categoryCode": "CLHF",
    "licenseStatus": "ACTIVE",
    "inService": true,
    "licenseNumber": "550003630",
    "licenseEffectiveDate": "08/26/2024",
    "licenseExpirationDate": "08/25/2025",
    "dataDate": "10/18/2025",
    "capacity": 6,
    "address": "8500 ROBERT AVE",
    "city": "SUN VALLEY",
    "zip": "91352",
    "county": "LOS ANGELES",
    "phone": "(818) 771-9848",
    "lat": 34.224255,
    "lng": -118.369071
  },
  {
    "id": "630020358",
    "name": "HR HOSPICE CARE, INC.",
    "npi": null,
    "hcaiId": "406193754",
    "businessName": "HR HOSPICE CARE, INC.",
    "contactEmail": "HRHOSPICECARE@GMAIL.COM",
    "categoryName": "HOSPICE",
    "categoryCode": "HOSPICE",
    "licenseStatus": "ACTIVE",
    "inService": true,
    "licenseNumber": "550006509",
    "licenseEffectiveDate": "03/26/2025",
    "licenseExpirationDate": "03/25/2027",
    "dataDate": "10/18/2025",
    "capacity": 0,
    "address": "8133 SAN FERNANDO RD, SUITE 5",
    "city": "SUN VALLEY",
    "zip": "91352",
    "county": "LOS ANGELES",
    "phone": "(818) 484-0458",
    "lat": 34.218135,
    "lng": -118.3678965
  },
  {
    "id": "630015552",
    "name": "LAUREL CANYON DIALYSIS, LLC",
    "npi": "1215342175",
    "hcaiId": "306198011",
    "businessName": "LAUREL CANYON DIALYSIS, LLC",
    "contactEmail": "LILY@AMERICANRENALCARE.COM",
    "categoryName": "CHRONIC DIALYSIS CLINIC",
    "categoryCode": "ESRD/CDC",
    "licenseStatus": "ACTIVE",
    "inService": true,
    "licenseNumber": "550002928",
    "licenseEffectiveDate": "01/06/2025",
    "licenseExpirationDate": "01/05/2026",
    "dataDate": "10/18/2025",
    "capacity": 30,
    "address": "8987 LAUREL CANYON BLVD.",
    "city": "SUN VALLEY",
    "zip": "91352",
    "county": "LOS ANGELES",
    "phone": "(818) 771-9950",
    "lat": 34.232553,
    "lng": -118.4049765
  },
  {
    "id": "630013556",
    "name": "LOS ANGELES CONGREGATE LIVING, INC.",
    "npi": null,
    "hcaiId": "206197737",
    "businessName": "LOS ANGELES CONGREGATE LIVING, INC.",
    "contactEmail": "LACLARVILLA@HOTMAIL.COM",
    "categoryName": "CONGREGATE LIVING HEALTH FACILITY",
    "categoryCode": "CLHF",
    "licenseStatus": "ACTIVE",
    "inService": true,
    "licenseNumber": "550002066",
    "licenseEffectiveDate": "09/26/2025",
    "licenseExpirationDate": "09/25/2026",
    "dataDate": "10/18/2025",
    "capacity": 16,
    "address": "7819 ARVILLA AVE",
    "city": "SUN VALLEY",
    "zip": "91352",
    "county": "LOS ANGELES",
    "phone": "(818) 252-4979",
    "lat": 34.212546,
    "lng": -118.356723
  },
  {
    "id": "630025355",
    "name": "LV CARING HOME HEALTH, INC.",
    "npi": null,
    "hcaiId": "406198161",
    "businessName": "LV CARING HOME HEALTH, INC.",
    "contactEmail": "LVCARINGHOMEHEALTH@GMAIL.COM",
    "categoryName": "HOME HEALTH AGENCY",
    "categoryCode": "HHA",
    "licenseStatus": "ACTIVE",
    "inService": true,
    "licenseNumber": "550008809",
    "licenseEffectiveDate": "10/03/2025",
    "licenseExpirationDate": "10/02/2026",
    "dataDate": "10/18/2025",
    "capacity": 0,
    "address": "8705 SUNLAND BLVD, UNIT C",
    "city": "SUN VALLEY",
    "zip": "91352",
    "county": "LOS ANGELES",
    "phone": "(747) 291-1356",
    "lat": 34.22783685,
    "lng": -118.3664497
  },
  {
    "id": "630016950",
    "name": "MAGNA VITAE",
    "npi": null,
    "hcaiId": "406191450",
    "businessName": "MAGNA VITAE",
    "contactEmail": "MAGNAVITAEINC@YAHOO.COM",
    "categoryName": "HOME HEALTH AGENCY",
    "categoryCode": "HHA",
    "licenseStatus": "ACTIVE",
    "inService": true,
    "licenseNumber": "550004384",
    "licenseEffectiveDate": "09/25/2025",
    "licenseExpirationDate": "09/24/2026",
    "dataDate": "10/18/2025",
    "capacity": 0,
    "address": "7200 VINELAND AVENUE, SUITE 214",
    "city": "SUN VALLEY",
    "zip": "91352",
    "county": "LOS ANGELES",
    "phone": "(818) 210-0486",
    "lat": 34.201683,
    "lng": -118.370115
  },
  {
    "id": "630021557",
    "name": "MAPLE HOSPICE, INC.",
    "npi": null,
    "hcaiId": "406195265",
    "businessName": "MAPLE HOSPICE, INC.",
    "contactEmail": "MAPLEHOSPICE@GMAIL.COM",
    "categoryName": "HOSPICE",
    "categoryCode": "HOSPICE",
    "licenseStatus": "ACTIVE",
    "inService": true,
    "licenseNumber": "550006764",
    "licenseEffectiveDate": "09/02/2025",
    "licenseExpirationDate": "09/01/2027",
    "dataDate": "10/18/2025",
    "capacity": 0,
    "address": "7630 VINELAND AVE, SUITE 208-A",
    "city": "SUN VALLEY",
    "zip": "91352",
    "county": "LOS ANGELES",
    "phone": "(818) 308-7012",
    "lat": 34.2092385,
    "lng": -118.3702736
  },
  {
    "id": "630018133",
    "name": "MGD HOME HEALTH SERVICES, INC.",
    "npi": null,
    "hcaiId": "406191859",
    "businessName": "MGD HOME HEALTH SERVICES, INC.",
    "contactEmail": "MGDHOMEHEALTH@GMAIL.COM",
    "categoryName": "HOME HEALTH AGENCY",
    "categoryCode": "HHA",
    "licenseStatus": "ACTIVE",
    "inService": true,
    "licenseNumber": "550005026",
    "licenseEffectiveDate": "10/28/2024",
    "licenseExpirationDate": "10/27/2025",
    "dataDate": "10/18/2025",
    "capacity": 0,
    "address": "7200 VINELAND AVE, UNIT 218",
    "city": "SUN VALLEY",
    "zip": "91352",
    "county": "LOS ANGELES",
    "phone": "(818) 210-0436",
    "lat": 34.201683,
    "lng": -118.370115
  },
  {
    "id": "630021736",
    "name": "MIDI HOSPICE INC",
    "npi": null,
    "hcaiId": "406194971",
    "businessName": "MIDI HOSPICE INC",
    "contactEmail": "MIDIHOSPICE@YAHOO.COM",
    "categoryName": "HOSPICE",
    "categoryCode": "HOSPICE",
    "licenseStatus": "ACTIVE",
    "inService": true,
    "licenseNumber": "550007092",
    "licenseEffectiveDate": "11/03/2023",
    "licenseExpirationDate": "11/02/2025",
    "dataDate": "10/18/2025",
    "capacity": 0,
    "address": "7200 VINELAND AVE, SUITE 206",
    "city": "SUN VALLEY",
    "zip": "91352",
    "county": "LOS ANGELES",
    "phone": "(818) 281-1777",
    "lat": 34.201683,
    "lng": -118.370115
  },
  {
    "id": "630025074",
    "name": "MILFORD HOME HEALTH INC",
    "npi": null,
    "hcaiId": "406196497",
    "businessName": "MILFORD HOME HEALTH INC",
    "contactEmail": "MILFORDHOMEHEALTH@GMAIL.COM",
    "categoryName": "HOME HEALTH AGENCY",
    "categoryCode": "HHA",
    "licenseStatus": "ACTIVE",
    "inService": true,
    "licenseNumber": "550008296",
    "licenseEffectiveDate": "12/01/2024",
    "licenseExpirationDate": "11/30/2025",
    "dataDate": "10/18/2025",
    "capacity": 0,
    "address": "7630 VINELAND AVE, SUITE 204",
    "city": "SUN VALLEY",
    "zip": "91352",
    "county": "LOS ANGELES",
    "phone": "(818) 672-0167",
    "lat": 34.20919298,
    "lng": -118.36989
  },
  {
    "id": "630015609",
    "name": "NEW HAVEN CONGREGATE LIVING, INC.",
    "npi": null,
    "hcaiId": "206198282",
    "businessName": "NEW HAVEN CONGREGATE LIVING, INC.",
    "contactEmail": "NEWHAVENCONGREGATE@GMAIL.COM",
    "categoryName": "CONGREGATE LIVING HEALTH FACILITY",
    "categoryCode": "CLHF",
    "licenseStatus": "ACTIVE",
    "inService": true,
    "licenseNumber": "550003643",
    "licenseEffectiveDate": "08/15/2025",
    "licenseExpirationDate": "08/14/2026",
    "dataDate": "10/18/2025",
    "capacity": 6,
    "address": "7736 SANCOLA AVE",
    "city": "SUN VALLEY",
    "zip": "91352",
    "county": "LOS ANGELES",
    "phone": "(818) 445-5276",
    "lat": 34.211448,
    "lng": -118.3538295
  },
  {
    "id": "630026678",
    "name": "NORMANDIE HOME HEALTH LLC",
    "npi": null,
    "hcaiId": null,
    "businessName": "NORMANDIE HOME HEALTH, LLC",
    "contactEmail": "NORMANDIEHOMEHEALTH@GMAIL.COM",
    "categoryName": "HOME HEALTH AGENCY",
    "categoryCode": "HHA",
    "licenseStatus": "ACTIVE",
    "inService": true,
    "licenseNumber": "550009330",
    "licenseEffectiveDate": "08/22/2025",
    "licenseExpirationDate": "08/21/2026",
    "dataDate": "10/18/2025",
    "capacity": 0,
    "address": "7630 VINELAND AVE, SUITE 204A",
    "city": "SUN VALLEY",
    "zip": "91352",
    "county": "LOS ANGELES",
    "phone": "(818) 741-1311",
    "lat": 34.2092385,
    "lng": -118.3702736
  },
  {
    "id": "960002403",
    "name": "NORRIS DIVISION",
    "npi": "1285762278",
    "hcaiId": null,
    "businessName": "ABILITY PATHWAYS INCORPORATED",
    "contactEmail": "TATEQIDP2022@GMAIL.COM",
    "categoryName": "INTERMEDIATE CARE FACILITY-DD/H/N/CN/IID",
    "categoryCode": "ICFDDN",
    "licenseStatus": "ACTIVE",
    "inService": true,
    "licenseNumber": "960001094",
    "licenseEffectiveDate": "06/19/2025",
    "licenseExpirationDate": "06/18/2026",
    "dataDate": "10/18/2025",
    "capacity": 6,
    "address": "8712 NORRIS AVE",
    "city": "SUN VALLEY",
    "zip": "91352",
    "county": "LOS ANGELES",
    "phone": "(747) 223-2565",
    "lat": 34.227576,
    "lng": -118.3697505
  },
  {
    "id": "630015676",
    "name": "OAKHURST HOSPICE & PALLIATIVE CARE",
    "npi": null,
    "hcaiId": "406191502",
    "businessName": "AZI HOSPICE, INC",
    "contactEmail": "AZIHOSPICEINC@OUTLOOK.COM",
    "categoryName": "HOSPICE",
    "categoryCode": "HOSPICE",
    "licenseStatus": "ACTIVE",
    "inService": true,
    "licenseNumber": "550003797",
    "licenseEffectiveDate": "02/07/2023",
    "licenseExpirationDate": "02/06/2025",
    "dataDate": "10/18/2025",
    "capacity": 0,
    "address": "7200 VINELAND AVE., SUITE 220",
    "city": "SUN VALLEY",
    "zip": "91352",
    "county": "LOS ANGELES",
    "phone": "(805) 497-3118",
    "lat": 34.201683,
    "lng": -118.370115
  },
  {
    "id": "630018722",
    "name": "OPTION CARE HOME CARE, INC.",
    "npi": null,
    "hcaiId": "406194781",
    "businessName": "OPTION CARE HOME CARE, INC.",
    "contactEmail": "OC-PEANDL@OPTIONCARE.COM",
    "categoryName": "HOME HEALTH AGENCY",
    "categoryCode": "HHA",
    "licenseStatus": "ACTIVE",
    "inService": true,
    "licenseNumber": "550006649",
    "licenseEffectiveDate": "07/22/2025",
    "licenseExpirationDate": "07/21/2026",
    "dataDate": "10/18/2025",
    "capacity": 0,
    "address": "9401 CHIVERS AVE",
    "city": "SUN VALLEY",
    "zip": "91352",
    "county": "LOS ANGELES",
    "phone": "(818) 351-3000",
    "lat": 34.239816,
    "lng": -118.3682295
  },
  {
    "id": "630026902",
    "name": "OUR TOP PRIORITY HOME HEALTH, INC.",
    "npi": null,
    "hcaiId": null,
    "businessName": "OUR TOP PRIORITY HOME HEALTH, INC.",
    "contactEmail": "OURTOPPRIORITYHH@GMAIL.COM",
    "categoryName": "HOME HEALTH AGENCY",
    "categoryCode": "HHA",
    "licenseStatus": "ACTIVE",
    "inService": true,
    "licenseNumber": "550009405",
    "licenseEffectiveDate": "09/09/2025",
    "licenseExpirationDate": "09/08/2026",
    "dataDate": "10/18/2025",
    "capacity": 0,
    "address": "11324 GOSS ST",
    "city": "SUN VALLEY",
    "zip": "91352",
    "county": "LOS ANGELES",
    "phone": "(800) 839-7783",
    "lat": 34.222455,
    "lng": -118.377378
  },
  {
    "id": "930000133",
    "name": "PACIFICA HOSPITAL OF THE VALLEY",
    "npi": "1861402935",
    "hcaiId": "106190696",
    "businessName": "PACIFICA OF THE VALLEY CORPORATION",
    "contactEmail": "PMAYES@PACIFICAHOSPITAL.COM",
    "categoryName": "GENERAL ACUTE CARE HOSPITAL",
    "categoryCode": "GACH",
    "licenseStatus": "ACTIVE",
    "inService": true,
    "licenseNumber": "930000148",
    "licenseEffectiveDate": "01/17/2025",
    "licenseExpirationDate": "01/16/2026",
    "dataDate": "10/18/2025",
    "capacity": 95,
    "address": "9449 SAN FERNANDO RD",
    "city": "SUN VALLEY",
    "zip": "91352",
    "county": "LOS ANGELES",
    "phone": "(818) 767-3310",
    "lat": 34.240077,
    "lng": -118.396485
  },
  {
    "id": "930000809",
    "name": "PACIFICA HOSPITAL OF THE VALLEY D/P APH",
    "npi": "1861402935",
    "hcaiId": null,
    "businessName": "PACIFICA OF THE VALLEY CORPORATION",
    "contactEmail": null,
    "categoryName": "ACUTE PSYCHIATRIC HOSPITAL",
    "categoryCode": "APH",
    "licenseStatus": "ACTIVE",
    "inService": true,
    "licenseNumber": "930000148",
    "licenseEffectiveDate": "01/17/2025",
    "licenseExpirationDate": "01/16/2026",
    "dataDate": "10/18/2025",
    "capacity": 38,
    "address": "9449 SAN FERNANDO RD",
    "city": "SUN VALLEY",
    "zip": "91352",
    "county": "LOS ANGELES",
    "phone": "(818) 767-3310",
    "lat": 34.240077,
    "lng": -118.396485
  },
  {
    "id": "930000611",
    "name": "PACIFICA HOSPITAL OF THE VALLEY D/P SNF",
    "npi": "1891872883",
    "hcaiId": null,
    "businessName": "PACIFICA OF THE VALLEY CORPORATION",
    "contactEmail": "KMOTEN@PACIFICAHOSPITAL.COM",
    "categoryName": "SKILLED NURSING FACILITY",
    "categoryCode": "SNF",
    "licenseStatus": "ACTIVE",
    "inService": true,
    "licenseNumber": "930000148",
    "licenseEffectiveDate": "01/17/2025",
    "licenseExpirationDate": "01/16/2026",
    "dataDate": "10/18/2025",
    "capacity": 98,
    "address": "9449 SAN FERNANDO RD",
    "city": "SUN VALLEY",
    "zip": "91352",
    "county": "LOS ANGELES",
    "phone": "(818) 252-2391",
    "lat": 34.240077,
    "lng": -118.396485
  },
  {
    "id": "630025357",
    "name": "PEACEFUL HEAVEN HOME HEALTH, INC",
    "npi": null,
    "hcaiId": "406190069",
    "businessName": "PEACEFUL HEAVEN HOME HEALTH, INC.",
    "contactEmail": "PEACEFULHEAVENHOMEHEALTH@GMAIL.COM",
    "categoryName": "HOME HEALTH AGENCY",
    "categoryCode": "HHA",
    "licenseStatus": "ACTIVE",
    "inService": true,
    "licenseNumber": "550008871",
    "licenseEffectiveDate": "12/29/2024",
    "licenseExpirationDate": "12/28/2025",
    "dataDate": "10/18/2025",
    "capacity": 0,
    "address": "11109 SHELDON ST, UNIT 102",
    "city": "SUN VALLEY",
    "zip": "91352",
    "county": "LOS ANGELES",
    "phone": "(747) 666-0971",
    "lat": 34.254297,
    "lng": -118.373391
  },
  {
    "id": "630020497",
    "name": "PEGASUS HOSPICE, INC",
    "npi": null,
    "hcaiId": "406193850",
    "businessName": "PEGASUS HOSPICE, INC.",
    "contactEmail": "PEGASUSHOSPICE@YAHOO.COM",
    "categoryName": "HOSPICE",
    "categoryCode": "HOSPICE",
    "licenseStatus": "ACTIVE",
    "inService": true,
    "licenseNumber": "550007373",
    "licenseEffectiveDate": "11/23/2023",
    "licenseExpirationDate": "11/22/2025",
    "dataDate": "10/18/2025",
    "capacity": 0,
    "address": "8111 SAN FERNANDO RD",
    "city": "SUN VALLEY",
    "zip": "91352",
    "county": "LOS ANGELES",
    "phone": "(818) 504-8049",
    "lat": 34.217766,
    "lng": -118.367361
  },
  {
    "id": "630026206",
    "name": "PLANET OF PARADISE HOME HEALTH CARE, INC",
    "npi": null,
    "hcaiId": null,
    "businessName": "PLANET OF PARADISE HOME HEALTH CARE, INC",
    "contactEmail": "PARADISEPLANET@YAHOO.COM",
    "categoryName": "HOME HEALTH AGENCY",
    "categoryCode": "HHA",
    "licenseStatus": "ACTIVE",
    "inService": true,
    "licenseNumber": "550009027",
    "licenseEffectiveDate": "03/13/2025",
    "licenseExpirationDate": "03/12/2026",
    "dataDate": "10/18/2025",
    "capacity": 0,
    "address": "10881 LA TUNA CANYON RD",
    "city": "SUN VALLEY",
    "zip": "91352",
    "county": "LOS ANGELES",
    "phone": "(818) 946-9742",
    "lat": 34.2345863,
    "lng": -118.3686306
  },
  {
    "id": "630018591",
    "name": "PRIMEMED HOME HEALTH CARE, INC",
    "npi": "1265996771",
    "hcaiId": "406192158",
    "businessName": "PRIMEMED HOME HEALTH CARE, INC",
    "contactEmail": "PRIMEMEDHHC@GMAIL.COM",
    "categoryName": "HOME HEALTH AGENCY",
    "categoryCode": "HHA",
    "licenseStatus": "ACTIVE",
    "inService": true,
    "licenseNumber": "550004932",
    "licenseEffectiveDate": "08/12/2025",
    "licenseExpirationDate": "08/11/2026",
    "dataDate": "10/18/2025",
    "capacity": 0,
    "address": "8905 GLENOAKS BLVD, SUITE D",
    "city": "SUN VALLEY",
    "zip": "91352",
    "county": "LOS ANGELES",
    "phone": "(818) 639-9555",
    "lat": 34.23033,
    "lng": -118.3675185
  },
  {
    "id": "630025626",
    "name": "PURE WELLNESS HOME CARE, INC.",
    "npi": null,
    "hcaiId": null,
    "businessName": "PURE WELLNESS HOME CARE, INC.",
    "contactEmail": "PUREWELLNESSHHA@GMAIL.COM",
    "categoryName": "HOME HEALTH AGENCY",
    "categoryCode": "HHA",
    "licenseStatus": "ACTIVE",
    "inService": true,
    "licenseNumber": "550008837",
    "licenseEffectiveDate": "11/22/2025",
    "licenseExpirationDate": "11/21/2026",
    "dataDate": "10/18/2025",
    "capacity": 0,
    "address": "7200 VINELAND AVE, UNIT 201",
    "city": "SUN VALLEY",
    "zip": "91352",
    "county": "LOS ANGELES",
    "phone": "(818) 282-2087",
    "lat": 34.201683,
    "lng": -118.370115
  },
  {
    "id": "630019515",
    "name": "QUEEN HOME HEALTH, INC.",
    "npi": null,
    "hcaiId": "406193052",
    "businessName": "QUEEN HOME HEALTH, INC.",
    "contactEmail": "QUEENHOMEHEALTHINC@GMAIL.COM",
    "categoryName": "HOME HEALTH AGENCY",
    "categoryCode": "HHA",
    "licenseStatus": "ACTIVE",
    "inService": true,
    "licenseNumber": "550006109",
    "licenseEffectiveDate": "03/12/2025",
    "licenseExpirationDate": "03/11/2026",
    "dataDate": "10/18/2025",
    "capacity": 0,
    "address": "7200 VINELAND AVE, SUITE 209",
    "city": "SUN VALLEY",
    "zip": "91352",
    "county": "LOS ANGELES",
    "phone": "(818) 305-5533",
    "lat": 34.201683,
    "lng": -118.370115
  },
  {
    "id": "630019901",
    "name": "QUEEN HOSPICE CARE, INC",
    "npi": null,
    "hcaiId": "406197007",
    "businessName": "QUEEN HOSPICE CARE, INC",
    "contactEmail": "QUEENHOSPICECARE@GMAIL.COM",
    "categoryName": "HOSPICE",
    "categoryCode": "HOSPICE",
    "licenseStatus": "ACTIVE",
    "inService": true,
    "licenseNumber": "550006314",
    "licenseEffectiveDate": "05/15/2023",
    "licenseExpirationDate": "05/14/2025",
    "dataDate": "10/18/2025",
    "capacity": 0,
    "address": "7200 VINELAND AVE, SUITE 211B",
    "city": "SUN VALLEY",
    "zip": "91352",
    "county": "LOS ANGELES",
    "phone": "(818) 859-5734",
    "lat": 34.201683,
    "lng": -118.370115
  },
  {
    "id": "630018748",
    "name": "QUEEN OF THE VALLEY HOME HEALTH, INC.",
    "npi": null,
    "hcaiId": "406192096",
    "businessName": "QUEEN OF THE VALLEY HOME HEALTH, INC.",
    "contactEmail": "QUEENOFTHEVALLEYHH@GMAIL.COM",
    "categoryName": "HOME HEALTH AGENCY",
    "categoryCode": "HHA",
    "licenseStatus": "ACTIVE",
    "inService": true,
    "licenseNumber": "550005186",
    "licenseEffectiveDate": "12/21/2024",
    "licenseExpirationDate": "12/20/2025",
    "dataDate": "10/18/2025",
    "capacity": 0,
    "address": "8777 SAN FERNANDO RD, SUITE 200",
    "city": "SUN VALLEY",
    "zip": "91352",
    "county": "LOS ANGELES",
    "phone": "(747) 240-3727",
    "lat": 34.228611,
    "lng": -118.382976
  },
  {
    "id": "630021653",
    "name": "RIGHT CHOICE HOSPICE & PALLIATIVE CARE INC",
    "npi": null,
    "hcaiId": "406190222",
    "businessName": "RIGHT CHOICE HOSPICE & PALLIATIVE CARE INC",
    "contactEmail": "RIGHTCHOICEHOSPICEPC@GMAIL.COM",
    "categoryName": "HOSPICE",
    "categoryCode": "HOSPICE",
    "licenseStatus": "ACTIVE",
    "inService": true,
    "licenseNumber": "550007200",
    "licenseEffectiveDate": "11/15/2023",
    "licenseExpirationDate": "11/14/2025",
    "dataDate": "10/18/2025",
    "capacity": 0,
    "address": "7200 VINELAND AVE, SUITE 210",
    "city": "SUN VALLEY",
    "zip": "91352",
    "county": "LOS ANGELES",
    "phone": "(818) 583-7783",
    "lat": 34.201683,
    "lng": -118.370115
  },
  {
    "id": "630025388",
    "name": "SERENE PASSAGE HOME HEALTH CARE, INC.",
    "npi": null,
    "hcaiId": "406197569",
    "businessName": "SERENE PASSAGE HOME HEALTH CARE, INC.",
    "contactEmail": "SERENEPASSAGEHHC@GMAIL.COM",
    "categoryName": "HOME HEALTH AGENCY",
    "categoryCode": "HHA",
    "licenseStatus": "ACTIVE",
    "inService": true,
    "licenseNumber": "550008619",
    "licenseEffectiveDate": "06/23/2025",
    "licenseExpirationDate": "06/22/2026",
    "dataDate": "10/18/2025",
    "capacity": 0,
    "address": "8416 LANKERSHIM BLVD, SUITE 202",
    "city": "SUN VALLEY",
    "zip": "91352",
    "county": "LOS ANGELES",
    "phone": "(800) 923-3311",
    "lat": 34.223265,
    "lng": -118.387575
  },
  {
    "id": "930001758",
    "name": "SERRA CLINIC SURGERY CENTER",
    "npi": "1588787790",
    "hcaiId": "306196287",
    "businessName": "SERRA COMMUNITY MEDICAL CLINIC, INC.",
    "contactEmail": "DBUMGARNER@SERRAMEDICALCLINIC.COM",
    "categoryName": "SURGICAL CLINIC",
    "categoryCode": "ASC",
    "licenseStatus": "INACTIVE - CAPEN DECISION",
    "inService": false,
    "licenseNumber": "930000976",
    "licenseEffectiveDate": "04/12/2008",
    "licenseExpirationDate": "04/11/2009",
    "dataDate": "10/18/2025",
    "capacity": 0,
    "address": "9375 SAN FERNANDO RD",
    "city": "SUN VALLEY",
    "zip": "91352",
    "county": "LOS ANGELES",
    "phone": "(818) 768-3000",
    "lat": 34.239357,
    "lng": -118.394127
  },
  {
    "id": "630020341",
    "name": "SF VALLEY HOSPICE CARE INC",
    "npi": null,
    "hcaiId": "406196684",
    "businessName": "SF VALLEY HOSPICE CARE INC",
    "contactEmail": "SFVALLEYHOSPICECARE@GMAIL.COM",
    "categoryName": "HOSPICE",
    "categoryCode": "HOSPICE",
    "licenseStatus": "ACTIVE",
    "inService": true,
    "licenseNumber": "550006327",
    "licenseEffectiveDate": "05/22/2025",
    "licenseExpirationDate": "05/21/2027",
    "dataDate": "10/18/2025",
    "capacity": 0,
    "address": "8133 SAN FERNANDO RD, SUITE E",
    "city": "SUN VALLEY",
    "zip": "91352",
    "county": "LOS ANGELES",
    "phone": "(818) 624-6360",
    "lat": 34.218135,
    "lng": -118.3678965
  },
  {
    "id": "630020882",
    "name": "SFV HEALTH CENTER, INC.",
    "npi": "1487298477",
    "hcaiId": "306190678",
    "businessName": "SFV HEALTH CENTER, INC.",
    "contactEmail": "TERRIK@ELEVATEHEALTHCENTER.ORG",
    "categoryName": "PRIMARY CARE CLINIC",
    "categoryCode": "COMTYC",
    "licenseStatus": "ACTIVE",
    "inService": true,
    "licenseNumber": "550006159",
    "licenseEffectiveDate": "02/12/2025",
    "licenseExpirationDate": "02/11/2026",
    "dataDate": "10/18/2025",
    "capacity": 0,
    "address": "8426 SUNLAND BLVD",
    "city": "SUN VALLEY",
    "zip": "91352",
    "county": "LOS ANGELES",
    "phone": "(808) 504-4514",
    "lat": 34.223508,
    "lng": -118.3653045
  },
  {
    "id": "630025524",
    "name": "SHADOW HILLS HOME HEALTH, INC",
    "npi": null,
    "hcaiId": "406198162",
    "businessName": "SHADOW HILLS HOME HEALTH, INC",
    "contactEmail": null,
    "categoryName": "HOME HEALTH AGENCY",
    "categoryCode": "HHA",
    "licenseStatus": "ACTIVE",
    "inService": true,
    "licenseNumber": "550008765",
    "licenseEffectiveDate": "08/28/2025",
    "licenseExpirationDate": "08/27/2026",
    "dataDate": "10/18/2025",
    "capacity": 0,
    "address": "11109 SHELDON ST, UNIT 103",
    "city": "SUN VALLEY",
    "zip": "91352",
    "county": "LOS ANGELES",
    "phone": "(818) 691-0803",
    "lat": 34.254297,
    "lng": -118.373391
  },
  {
    "id": "630014086",
    "name": "SPRINGFORD HOME",
    "npi": "1073868279",
    "hcaiId": null,
    "businessName": "ARNON LLC",
    "contactEmail": "INFODIRECT365@GMAIL.COM",
    "categoryName": "INTERMEDIATE CARE FACILITY-DD/H/N/CN/IID",
    "categoryCode": "ICFDDN",
    "licenseStatus": "ACTIVE",
    "inService": true,
    "licenseNumber": "550002357",
    "licenseEffectiveDate": "07/29/2025",
    "licenseExpirationDate": "07/28/2026",
    "dataDate": "10/18/2025",
    "capacity": 6,
    "address": "8410 SPRINGFORD DR",
    "city": "SUN VALLEY",
    "zip": "91352",
    "county": "LOS ANGELES",
    "phone": "(818) 823-8838",
    "lat": 34.222644,
    "lng": -118.351431
  },
  {
    "id": "630011698",
    "name": "SUN VALLEY HEALTH CENTER",
    "npi": null,
    "hcaiId": "306197151",
    "businessName": "NORTHEAST VALLEY HEALTH CORPORATION",
    "contactEmail": "MARGARITAVELASQUEZ@NEVHC.ORG",
    "categoryName": "PRIMARY CARE CLINIC",
    "categoryCode": "COMTYC",
    "licenseStatus": "ACTIVE",
    "inService": true,
    "licenseNumber": "550000755",
    "licenseEffectiveDate": "04/17/2025",
    "licenseExpirationDate": "04/16/2026",
    "dataDate": "10/18/2025",
    "capacity": 0,
    "address": "7223 FAIR AVE",
    "city": "SUN VALLEY",
    "zip": "91352",
    "county": "LOS ANGELES",
    "phone": "(818) 432-4400",
    "lat": 34.20174944,
    "lng": -118.3747489
  },
  {
    "id": "630020098",
    "name": "SUN VALLEY HOME HEALTH CARE INC.",
    "npi": null,
    "hcaiId": "406195678",
    "businessName": "SUN VALLEY HOME HEALTH CARE INC.",
    "contactEmail": "SUNVALLEYHHC@GMAIL.COM",
    "categoryName": "HOME HEALTH AGENCY",
    "categoryCode": "HHA",
    "licenseStatus": "ACTIVE",
    "inService": true,
    "licenseNumber": "550006251",
    "licenseEffectiveDate": "04/09/2025",
    "licenseExpirationDate": "04/08/2026",
    "dataDate": "10/18/2025",
    "capacity": 0,
    "address": "8133 SAN FERNANDO RD, SUITE A",
    "city": "SUN VALLEY",
    "zip": "91352",
    "county": "LOS ANGELES",
    "phone": "(747) 261-0599",
    "lat": 34.218135,
    "lng": -118.3678965
  },
  {
    "id": "630019985",
    "name": "SUN VALLEY HOSPICE INC",
    "npi": null,
    "hcaiId": "406190236",
    "businessName": "SUN VALLEY HOSPICE INC",
    "contactEmail": "SUNVALLEYHOSP@GMAIL.COM",
    "categoryName": "HOSPICE",
    "categoryCode": "HOSPICE",
    "licenseStatus": "ACTIVE",
    "inService": true,
    "licenseNumber": "550006026",
    "licenseEffectiveDate": "02/06/2025",
    "licenseExpirationDate": "02/05/2027",
    "dataDate": "10/18/2025",
    "capacity": 0,
    "address": "8135 SAN FERNANDO RD",
    "city": "SUN VALLEY",
    "zip": "91352",
    "county": "LOS ANGELES",
    "phone": "(818) 484-0458",
    "lat": 34.218153,
    "lng": -118.367919
  },
  {
    "id": "630027426",
    "name": "SUNLAND ADHC",
    "npi": null,
    "hcaiId": null,
    "businessName": "SUNLAND ADHC, INC.",
    "contactEmail": "SUNLANDADHC@GMAIL.COM",
    "categoryName": "ADULT DAY HEALTH CARE",
    "categoryCode": "ADHC",
    "licenseStatus": "ACTIVE",
    "inService": true,
    "licenseNumber": "550009953",
    "licenseEffectiveDate": "09/18/2025",
    "licenseExpirationDate": "09/17/2026",
    "dataDate": "10/18/2025",
    "capacity": 0,
    "address": "8701 SUNLAND BLVD",
    "city": "SUN VALLEY",
    "zip": "91352",
    "county": "LOS ANGELES",
    "phone": "(747) 256-1144",
    "lat": 34.22783501,
    "lng": -118.366514
  },
  {
    "id": "630020296",
    "name": "SUNLAND HOSPICE CARE INC",
    "npi": null,
    "hcaiId": "406195673",
    "businessName": "SUNLAND HOSPICE CARE INC",
    "contactEmail": "SUNLANDHOSPICE@GMAIL.COM",
    "categoryName": "HOSPICE",
    "categoryCode": "HOSPICE",
    "licenseStatus": "ACTIVE",
    "inService": true,
    "licenseNumber": "550006118",
    "licenseEffectiveDate": "02/24/2025",
    "licenseExpirationDate": "02/23/2027",
    "dataDate": "10/18/2025",
    "capacity": 0,
    "address": "8133 SAN FERNANDO RD, SUITE 6",
    "city": "SUN VALLEY",
    "zip": "91352",
    "county": "LOS ANGELES",
    "phone": "(818) 484-0458",
    "lat": 34.218135,
    "lng": -118.3678965
  },
  {
    "id": "960000939",
    "name": "TERHUNE DIVISION",
    "npi": "1790813822",
    "hcaiId": null,
    "businessName": "ABILITY PATHWAYS INCORPORATED",
    "contactEmail": "TATEQIDP2022@GMAIL.COM",
    "categoryName": "INTERMEDIATE CARE FACILITY-DD/H/N/CN/IID",
    "categoryCode": "ICFDDH",
    "licenseStatus": "ACTIVE",
    "inService": true,
    "licenseNumber": "960000511",
    "licenseEffectiveDate": "06/19/2025",
    "licenseExpirationDate": "06/18/2026",
    "dataDate": "10/18/2025",
    "capacity": 6,
    "address": "9003 TERHUNE AVE",
    "city": "SUN VALLEY",
    "zip": "91352",
    "county": "LOS ANGELES",
    "phone": "(747) 223-2588",
    "lat": 34.232553,
    "lng": -118.3635405
  },
  {
    "id": "630014709",
    "name": "THE COMMUNITY HOME, INC.",
    "npi": null,
    "hcaiId": "206198002",
    "businessName": "THE COMMUNITY HOME, INC.",
    "contactEmail": "TCHLIVING@GMAIL.COM",
    "categoryName": "CONGREGATE LIVING HEALTH FACILITY",
    "categoryCode": "CLHF",
    "licenseStatus": "ACTIVE",
    "inService": true,
    "licenseNumber": "550002930",
    "licenseEffectiveDate": "12/26/2024",
    "licenseExpirationDate": "12/25/2025",
    "dataDate": "10/18/2025",
    "capacity": 6,
    "address": "12244 COMMUNITY ST",
    "city": "SUN VALLEY",
    "zip": "91352",
    "county": "LOS ANGELES",
    "phone": "(415) 254-9066",
    "lat": 34.222329,
    "lng": -118.400355
  },
  {
    "id": "920000312",
    "name": "TOTALLY KIDS SPECIALTY HEALTHCARE-SUN VALLEY",
    "npi": "1285049619",
    "hcaiId": "206196609",
    "businessName": "SUN VALLEY SPECIALTY HEALTHCARE, INC.",
    "contactEmail": "ADMINISTRATOR@TOTALLYKIDSSVSH.COM",
    "categoryName": "SKILLED NURSING FACILITY",
    "categoryCode": "SNF",
    "licenseStatus": "ACTIVE",
    "inService": true,
    "licenseNumber": "920000129",
    "licenseEffectiveDate": "01/30/2025",
    "licenseExpirationDate": "01/29/2026",
    "dataDate": "10/18/2025",
    "capacity": 45,
    "address": "10716 LA TUNA CANYON RD",
    "city": "SUN VALLEY",
    "zip": "91352",
    "county": "LOS ANGELES",
    "phone": "(818) 252-5863",
    "lat": 34.233867,
    "lng": -118.36413
  },
  {
    "id": "630024262",
    "name": "TREE OF LIFE HOME HEALTH CARE INC",
    "npi": null,
    "hcaiId": "406190172",
    "businessName": "TREE OF LIFE HOME HEALTH CARE INC",
    "contactEmail": "TREEOFLIFEHOMEHEALTH@YAHOO.COM",
    "categoryName": "HOME HEALTH AGENCY",
    "categoryCode": "HHA",
    "licenseStatus": "ACTIVE",
    "inService": true,
    "licenseNumber": "550008310",
    "licenseEffectiveDate": "01/05/2025",
    "licenseExpirationDate": "01/04/2026",
    "dataDate": "10/18/2025",
    "capacity": 0,
    "address": "8416 NORTH LANKERSHIM BOULEVARD, UNIT 203",
    "city": "SUN VALLEY",
    "zip": "91352",
    "county": "LOS ANGELES",
    "phone": "(818) 743-4656",
    "lat": 34.22326595,
    "lng": -118.3875878
  },
  {
    "id": "920000269",
    "name": "VILLA SCALABRINI SPECIAL CARE UNIT",
    "npi": "1538221288",
    "hcaiId": "206194113",
    "businessName": "FATHERS OF ST CHARLES",
    "contactEmail": "ARDY@VILLASCALABRINI.COM",
    "categoryName": "SKILLED NURSING FACILITY",
    "categoryCode": "SNF",
    "licenseStatus": "ACTIVE",
    "inService": true,
    "licenseNumber": "920000120",
    "licenseEffectiveDate": "12/13/2024",
    "licenseExpirationDate": "12/12/2025",
    "dataDate": "10/18/2025",
    "capacity": 58,
    "address": "10631 VINEDALE ST",
    "city": "SUN VALLEY",
    "zip": "91352",
    "county": "LOS ANGELES",
    "phone": "(818) 768-6500",
    "lat": 34.228782,
    "lng": -118.3628565
  },
  {
    "id": "630015115",
    "name": "VINE VALLEY HOMES-SHARP",
    "npi": "1376968289",
    "hcaiId": null,
    "businessName": "VINE VALLEY HOMES-SHARP",
    "contactEmail": "VINEVALLEYHOMES.SHARP@GMAIL.COM",
    "categoryName": "INTERMEDIATE CARE FACILITY-DD/H/N/CN/IID",
    "categoryCode": "ICFDDN",
    "licenseStatus": "ACTIVE",
    "inService": true,
    "licenseNumber": "550002892",
    "licenseEffectiveDate": "11/26/2024",
    "licenseExpirationDate": "11/25/2025",
    "dataDate": "10/18/2025",
    "capacity": 6,
    "address": "8782 SHARP AVE",
    "city": "SUN VALLEY",
    "zip": "91352",
    "county": "LOS ANGELES",
    "phone": "(818) 394-9769",
    "lat": 34.229493,
    "lng": -118.406583
  },
  {
    "id": "630015835",
    "name": "VISTA HOME HEALTH CARE, INC.",
    "npi": "1902295686",
    "hcaiId": "406190816",
    "businessName": "VISTA HOME HEALTH CARE, INC.",
    "contactEmail": "VISTAHOMEHEALTH@YAHOO.COM",
    "categoryName": "HOME HEALTH AGENCY",
    "categoryCode": "HHA",
    "licenseStatus": "ACTIVE",
    "inService": true,
    "licenseNumber": "550004017",
    "licenseEffectiveDate": "10/23/2025",
    "licenseExpirationDate": "10/22/2026",
    "dataDate": "10/18/2025",
    "capacity": 0,
    "address": "7200 VINELAND AVE, SUITE 204B",
    "city": "SUN VALLEY",
    "zip": "91352",
    "county": "LOS ANGELES",
    "phone": "(818) 505-3339",
    "lat": 34.201683,
    "lng": -118.370115
  },
  {
    "id": "060001835",
    "name": "WELLCARE ADULT DAY HEALTH CARE CENTER",
    "npi": null,
    "hcaiId": null,
    "businessName": "HICHOICE HEALTH CARE, INC.",
    "contactEmail": null,
    "categoryName": "ADULT DAY HEALTH CARE",
    "categoryCode": "ADHC",
    "licenseStatus": "ACTIVE",
    "inService": true,
    "licenseNumber": "060000652",
    "licenseEffectiveDate": "11/26/2024",
    "licenseExpirationDate": "11/25/2025",
    "dataDate": "10/18/2025",
    "capacity": 0,
    "address": "7626 VINELAND AVE, SUITE 110-150",
    "city": "SUN VALLEY",
    "zip": "91352",
    "county": "LOS ANGELES",
    "phone": "(818) 988-2273",
    "lat": 34.20914802,
    "lng": -118.370108
  },
  {
    "id": "630025397",
    "name": "YOUR LIFE HOME HEALTH",
    "npi": null,
    "hcaiId": "406190076",
    "businessName": "YOUR LIFE HOME HEALTH",
    "contactEmail": "YOURLIFEHOMEHEALTH@GMAIL.COM",
    "categoryName": "HOME HEALTH AGENCY",
    "categoryCode": "HHA",
    "licenseStatus": "ACTIVE",
    "inService": true,
    "licenseNumber": "550008813",
    "licenseEffectiveDate": "11/09/2025",
    "licenseExpirationDate": "11/08/2026",
    "dataDate": "10/18/2025",
    "capacity": 0,
    "address": "8705 SUNLAND BLVD, UNIT B",
    "city": "SUN VALLEY",
    "zip": "91352",
    "county": "LOS ANGELES",
    "phone": "(818) 237-5362",
    "lat": 34.22783501,
    "lng": -118.366514
  }
]