[
  {
    "id": "630026139",
    "name": "BRIDGE TO COMFORT HOME HEALTH",
    "npi": null,
    "hcaiId": null,
    "businessName": "BRIDGE TO COMFORT HOME HEALTH",
    "contactEmail": "BRIDGETOCOMFORT@OUTLOOK.COM",
    "categoryName": "HOME HEALTH AGENCY",
    "categoryCode": "HHA",
    "licenseStatus": "ACTIVE",
    "inService": true,
    "licenseNumber": "550009332",
    "licenseEffectiveDate": "08/26/2025",
    "licenseExpirationDate": "08/25/2026",
    "dataDate": "10/18/2025",
    "capacity": 0,
    "address": "27125 SIERRA HWY, SUITE 320",
    "city": "SANTA CLARITA",
    "zip": "91351",
    "county": "LOS ANGELES",
    "phone": "(747) 253-0456",
    "lat": 34.408526,
    "lng": -118.461496
  },
  {
    "id": "630018723",
    "name": "CANYON VISTA CONGREGATE LIVING",
    "npi": null,
    "hcaiId": "206190289",
    "businessName": "OPTION ONE CONGREGATE LIVING FACILITY SANTA CLARITA, INC.",
    "contactEmail": "CANYONVISTACLHF@GMAIL.COM",
    "categoryName": "CONGREGATE LIVING HEALTH FACILITY",
    "categoryCode": "CLHF",
    "licenseStatus": "ACTIVE",
    "inService": true,
    "licenseNumber": "550005907",
    "licenseEffectiveDate": "09/21/2025",
    "licenseExpirationDate": "09/20/2026",
    "dataDate": "10/18/2025",
    "capacity": 6,
    "address": "20251 LAKEMORE DR",
    "city": "CANYON COUNTRY",
    "zip": "91351",
    "county": "LOS ANGELES",
    "phone": "(661) 977-1989",
    "lat": 34.426791,
    "lng": -118.4893695
  },
  {
    "id": "630026008",
    "name": "EMPATHY CARE HOME HEALTH, INC.",
    "npi": null,
    "hcaiId": null,
    "businessName": "EMPATHY CARE HOME HEALTH, INC.",
    "contactEmail": "EMPATHYCAREHHC@GMAIL.COM",
    "categoryName": "HOME HEALTH AGENCY",
    "categoryCode": "HHA",
    "licenseStatus": "ACTIVE",
    "inService": true,
    "licenseNumber": "550009072",
    "licenseEffectiveDate": "04/22/2025",
    "licenseExpirationDate": "04/21/2026",
    "dataDate": "10/18/2025",
    "capacity": 0,
    "address": "27141 HIDAWAY AVE, SUITE 102",
    "city": "SANTA CLARITA",
    "zip": "91351",
    "county": "LOS ANGELES",
    "phone": "(661) 367-6212",
    "lat": 34.414832,
    "lng": -118.46928
  },
  {
    "id": "630026725",
    "name": "IMMEDIATE HOME HEALTH CARE, INC.",
    "npi": null,
    "hcaiId": null,
    "businessName": "IMMEDIATE HOME HEALTH CARE, INC.",
    "contactEmail": "IMMEDIATEHHC@ICLOUD.COM",
    "categoryName": "HOME HEALTH AGENCY",
    "categoryCode": "HHA",
    "licenseStatus": "ACTIVE",
    "inService": true,
    "licenseNumber": "550009265",
    "licenseEffectiveDate": "07/29/2025",
    "licenseExpirationDate": "07/28/2026",
    "dataDate": "10/18/2025",
    "capacity": 0,
    "address": "27225 CAMP PLENTY RD, SUITE 1C",
    "city": "SANTA CLARITA",
    "zip": "91351",
    "county": "LOS ANGELES",
    "phone": "(661) 360-7269",
    "lat": 34.41608199,
    "lng": -118.476535
  },
  {
    "id": "630026119",
    "name": "INVINCIBLE VILLAS",
    "npi": "1457966822",
    "hcaiId": null,
    "businessName": "INVINCIBLE VILLAS, INC.",
    "contactEmail": "INVINCIBLEVILLAS@GMAIL.COM",
    "categoryName": "INTERMEDIATE CARE FACILITY-DD/H/N/CN/IID",
    "categoryCode": "ICFDDH",
    "licenseStatus": "ACTIVE",
    "inService": true,
    "licenseNumber": "550008714",
    "licenseEffectiveDate": "08/11/2025",
    "licenseExpirationDate": "08/10/2026",
    "dataDate": "10/18/2025",
    "capacity": 6,
    "address": "27539 GLASSER AVE",
    "city": "CANYON COUNTRY",
    "zip": "91351",
    "county": "LOS ANGELES",
    "phone": "(661) 593-9247",
    "lat": 34.424811,
    "lng": -118.480464
  },
  {
    "id": "630018369",
    "name": "OASIS HOME HEALTH CARE AGENCY INC.",
    "npi": null,
    "hcaiId": "406195819",
    "businessName": "OASIS HOME HEALTH CARE AGENCY INC.",
    "contactEmail": "SUSANK@OASISHHCA.COM",
    "categoryName": "HOME HEALTH AGENCY",
    "categoryCode": "HHA",
    "licenseStatus": "ACTIVE",
    "inService": true,
    "licenseNumber": "550007851",
    "licenseEffectiveDate": "01/14/2024",
    "licenseExpirationDate": "01/13/2025",
    "dataDate": "10/18/2025",
    "capacity": 0,
    "address": "27225 CAMP PLENTY RD, SUITE 7C",
    "city": "SANTA CLARITA",
    "zip": "91351",
    "county": "LOS ANGELES",
    "phone": "(661) 481-3041",
    "lat": 34.416099,
    "lng": -118.4765355
  },
  {
    "id": "630026941",
    "name": "RESPECTFUL HOME HEALTH CARE, INC.",
    "npi": null,
    "hcaiId": null,
    "businessName": "RESPECTFUL HOME HEALTH CARE, INC.",
    "contactEmail": "RESPECTFULHOMEHEALTH@GMAIL.COM",
    "categoryName": "HOME HEALTH AGENCY",
    "categoryCode": "HHA",
    "licenseStatus": "ACTIVE",
    "inService": true,
    "licenseNumber": "550009337",
    "licenseEffectiveDate": "08/26/2025",
    "licenseExpirationDate": "08/25/2026",
    "dataDate": "10/18/2025",
    "capacity": 0,
    "address": "27141 HIDAWAY AVE, SUITE 205",
    "city": "SANTA CLARITA",
    "zip": "91351",
    "county": "LOS ANGELES",
    "phone": "(661) 422-6518",
    "lat": 34.414832,
    "lng": -118.46928
  },
  {
    "id": "960002615",
    "name": "SAMUEL DIXON FAMILY HEALTH CENTER CYN CNTRY CLINIC",
    "npi": null,
    "hcaiId": "306196160",
    "businessName": "SAMUEL DIXON FAMILY HEALTH CENTER, INC.",
    "contactEmail": "DAISY@SDFHC.ORG",
    "categoryName": "PRIMARY CARE CLINIC",
    "categoryCode": "COMTYC",
    "licenseStatus": "ACTIVE",
    "inService": true,
    "licenseNumber": "960001265",
    "licenseEffectiveDate": "11/04/2025",
    "licenseExpirationDate": "11/03/2026",
    "dataDate": "10/18/2025",
    "capacity": 0,
    "address": "27225 CAMP PLENTY RD, SUITE 4",
    "city": "CANYON COUNTRY",
    "zip": "91351",
    "county": "LOS ANGELES",
    "phone": "(661) 257-2339",
    "lat": 34.416099,
    "lng": -118.47654
  },
  {
    "id": "630012764",
    "name": "SANTA CLARITA HEALTH CENTER",
    "npi": null,
    "hcaiId": "306196865",
    "businessName": "NORTHEAST VALLEY HEALTH CORPORATION",
    "contactEmail": "MELISSASUALEZ@NEVHC.ORG",
    "categoryName": "PRIMARY CARE CLINIC",
    "categoryCode": "COMTYC",
    "licenseStatus": "ACTIVE",
    "inService": true,
    "licenseNumber": "550001428",
    "licenseEffectiveDate": "12/02/2024",
    "licenseExpirationDate": "12/01/2025",
    "dataDate": "10/18/2025",
    "capacity": 0,
    "address": "18533 SOLEDAD CANYON RD",
    "city": "CANYON COUNTRY",
    "zip": "91351",
    "county": "LOS ANGELES",
    "phone": "(661) 673-8800",
    "lat": 34.41771,
    "lng": -118.4566005
  },
  {
    "id": "630021635",
    "name": "SCV HOSPICE CARE",
    "npi": null,
    "hcaiId": "406190023",
    "businessName": "SCV HOSPICE CARE",
    "contactEmail": "SCVHOSPICECARE@YAHOO.COM",
    "categoryName": "HOSPICE",
    "categoryCode": "HOSPICE",
    "licenseStatus": "ACTIVE",
    "inService": true,
    "licenseNumber": "550007252",
    "licenseEffectiveDate": "11/23/2025",
    "licenseExpirationDate": "11/22/2027",
    "dataDate": "10/18/2025",
    "capacity": 0,
    "address": "27013 LANGSIDE AVE, SUITE O",
    "city": "CANYON COUNTRY",
    "zip": "91351",
    "county": "LOS ANGELES",
    "phone": "(661) 360-7274",
    "lat": 34.421112,
    "lng": -118.484973
  },
  {
    "id": "630023749",
    "name": "SIERRA HOME HEALTH CARE",
    "npi": null,
    "hcaiId": "406195461",
    "businessName": "SIERRA HOME HEALTH CARE",
    "contactEmail": "SIERRAHOMEHEALTH.INC@GMAIL.COM",
    "categoryName": "HOME HEALTH AGENCY",
    "categoryCode": "HHA",
    "licenseStatus": "ACTIVE",
    "inService": true,
    "licenseNumber": "550008055",
    "licenseEffectiveDate": "06/20/2024",
    "licenseExpirationDate": "06/19/2025",
    "dataDate": "10/18/2025",
    "capacity": 0,
    "address": "17718 SIERRA HWY",
    "city": "CANYON COUNTRY",
    "zip": "91351",
    "county": "LOS ANGELES",
    "phone": "(661) 523-7147",
    "lat": 34.42857463,
    "lng": -118.4453138
  },
  {
    "id": "630019824",
    "name": "SYNCHRONY HOSPICE INC",
    "npi": null,
    "hcaiId": "406192845",
    "businessName": "SYNCHRONY HOSPICE INC",
    "contactEmail": "SYNCHRONYHINC@YAHOO.COM",
    "categoryName": "HOSPICE",
    "categoryCode": "HOSPICE",
    "licenseStatus": "ACTIVE",
    "inService": true,
    "licenseNumber": "550005648",
    "licenseEffectiveDate": "07/03/2024",
    "licenseExpirationDate": "07/02/2026",
    "dataDate": "10/18/2025",
    "capacity": 0,
    "address": "27141 HIDAWAY AVE, SUITE 206",
    "city": "CANYON COUNTRY",
    "zip": "91351",
    "county": "LOS ANGELES",
    "phone": "(818) 488-9998",
    "lat": 34.414821,
    "lng": -118.46925
  }
]