[
  {
    "id": "630013411",
    "name": "24-7 QUALITY HOSPICE CARE INC",
    "npi": "1295014058",
    "hcaiId": "406197649",
    "businessName": "24-7 QUALITY HOSPICE CARE INC",
    "contactEmail": "QUALITYHOSPICE@YAHOO.COM",
    "categoryName": "HOSPICE",
    "categoryCode": "HOSPICE",
    "licenseStatus": "ACTIVE",
    "inService": true,
    "licenseNumber": "550001834",
    "licenseEffectiveDate": "02/10/2024",
    "licenseExpirationDate": "02/09/2026",
    "dataDate": "10/18/2025",
    "capacity": 0,
    "address": "2659 TOWNSGATE RD, SUITE 128",
    "city": "WESTLAKE VILLAGE",
    "zip": "91361",
    "county": "VENTURA",
    "phone": "(805) 230-9939",
    "lat": 34.156422,
    "lng": -118.827342
  },
  {
    "id": "630012104",
    "name": "24-7 QUALITY INFUSION & HOME HEALTH, INC.",
    "npi": "1447404595",
    "hcaiId": "406564200",
    "businessName": "24-7 QUALITY INFUSION & HOME HEALTH INC",
    "contactEmail": "INFUSIONHOMEHEALTH@YAHOO.COM",
    "categoryName": "HOME HEALTH AGENCY",
    "categoryCode": "HHA",
    "licenseStatus": "ACTIVE",
    "inService": true,
    "licenseNumber": "550001147",
    "licenseEffectiveDate": "11/23/2024",
    "licenseExpirationDate": "11/22/2025",
    "dataDate": "10/18/2025",
    "capacity": 0,
    "address": "2659 TOWNSGATE RD, SUITE 132",
    "city": "WESTLAKE VILLAGE",
    "zip": "91361",
    "county": "VENTURA",
    "phone": "(805) 494-6700",
    "lat": 34.156422,
    "lng": -118.827342
  },
  {
    "id": "630016687",
    "name": "CENTER FOR DISCOVERY-THOUSAND OAKS",
    "npi": null,
    "hcaiId": "206560931",
    "businessName": "DISCOVERY PRACTICE MANAGEMENT, INC.",
    "contactEmail": "JMARSHALL@DISCOVERYBH.COM",
    "categoryName": "CONGREGATE LIVING HEALTH FACILITY",
    "categoryCode": "CLHF",
    "licenseStatus": "ACTIVE",
    "inService": true,
    "licenseNumber": "550003758",
    "licenseEffectiveDate": "01/17/2025",
    "licenseExpirationDate": "01/16/2026",
    "dataDate": "10/18/2025",
    "capacity": 6,
    "address": "228 RIMROCK ROAD",
    "city": "THOUSAND OAKS",
    "zip": "91361",
    "county": "VENTURA",
    "phone": "(909) 816-1049",
    "lat": 34.173315,
    "lng": -118.8668565
  },
  {
    "id": "050001411",
    "name": "CONEJO SURGICAL CENTER",
    "npi": "1629179205",
    "hcaiId": "306196303",
    "businessName": "JOURNEY LITE OF THE CENTRAL COAST LLC",
    "contactEmail": null,
    "categoryName": "SURGICAL CLINIC",
    "categoryCode": "ASC",
    "licenseStatus": "INACTIVE - CAPEN DECISION",
    "inService": false,
    "licenseNumber": "050000568",
    "licenseEffectiveDate": "11/24/2007",
    "licenseExpirationDate": "05/23/2008",
    "dataDate": "10/18/2025",
    "capacity": 0,
    "address": "339 S MOORPARK RD, SUITE 339",
    "city": "THOUSAND OAKS",
    "zip": "91361",
    "county": "VENTURA",
    "phone": "(805) 497-3690",
    "lat": 34.174062,
    "lng": -118.8770265
  },
  {
    "id": "630019792",
    "name": "DLV VISION ASC",
    "npi": "1902436348",
    "hcaiId": null,
    "businessName": null,
    "contactEmail": null,
    "categoryName": "SURGICAL CLINIC",
    "categoryCode": "ASC",
    "licenseStatus": null,
    "inService": null,
    "licenseNumber": null,
    "licenseEffectiveDate": null,
    "licenseExpirationDate": null,
    "dataDate": "10/18/2025",
    "capacity": 0,
    "address": "3180 WILLOW LN, SUITE 118",
    "city": "THOUSAND OAKS",
    "zip": "91361",
    "county": "VENTURA",
    "phone": null,
    "lat": 34.16535,
    "lng": -118.839231
  },
  {
    "id": "630020456",
    "name": "ETERNAL LIFE HOSPICE, INC",
    "npi": "1053936534",
    "hcaiId": "406560025",
    "businessName": "ETERNAL LIFE HOSPICE, INC",
    "contactEmail": "ETERNALLIFEHOSPICE@YAHOO.COM",
    "categoryName": "HOSPICE",
    "categoryCode": "HOSPICE",
    "licenseStatus": "ACTIVE",
    "inService": true,
    "licenseNumber": "550006464",
    "licenseEffectiveDate": "05/19/2025",
    "licenseExpirationDate": "05/18/2027",
    "dataDate": "10/18/2025",
    "capacity": 0,
    "address": "30941 AGOURA RD, SUITE 112",
    "city": "WESTLAKE VILLAGE",
    "zip": "91361",
    "county": "VENTURA",
    "phone": "(805) 953-7273",
    "lat": 34.14555,
    "lng": -118.795356
  },
  {
    "id": "630025744",
    "name": "HEAVENLY GARDEN HOME HEALTH CARE INC",
    "npi": null,
    "hcaiId": "406568173",
    "businessName": "HEAVENLY GARDEN HOME HEALTH CARE INC",
    "contactEmail": "HEAVENLYYGARDENHOMEHEALTHCARE@GMAIL.COM",
    "categoryName": "HOME HEALTH AGENCY",
    "categoryCode": "HHA",
    "licenseStatus": "ACTIVE",
    "inService": true,
    "licenseNumber": "550008812",
    "licenseEffectiveDate": "11/09/2024",
    "licenseExpirationDate": "11/08/2025",
    "dataDate": "10/18/2025",
    "capacity": 0,
    "address": "2625 TOWNSGATE RD, SUITE 330",
    "city": "WESTLAKE VILLAGE",
    "zip": "91361",
    "county": "VENTURA",
    "phone": "(805) 980-7838",
    "lat": 34.158483,
    "lng": -118.8291015
  },
  {
    "id": "050001469",
    "name": "INFINITE HOME HEALTH INC",
    "npi": "1396832952",
    "hcaiId": "406564143",
    "businessName": "INFINITE HOME HEALTH INC",
    "contactEmail": "REZA@INFINITEHHA.COM",
    "categoryName": "HOME HEALTH AGENCY",
    "categoryCode": "HHA",
    "licenseStatus": "ACTIVE",
    "inService": true,
    "licenseNumber": "050000594",
    "licenseEffectiveDate": "11/04/2023",
    "licenseExpirationDate": "11/03/2024",
    "dataDate": "10/18/2025",
    "capacity": 0,
    "address": "875 S WESTLAKE BLVD",
    "city": "WESTLAKE VILLAGE",
    "zip": "91361",
    "county": "VENTURA",
    "phone": "(805) 497-1777",
    "lat": 34.155576,
    "lng": -118.8276075
  },
  {
    "id": "630017275",
    "name": "LA BELLA VITA HOSPICE, INC.",
    "npi": "1275064735",
    "hcaiId": "406561468",
    "businessName": "LA BELLA VITA HOSPICE, INC.",
    "contactEmail": "LABELLAVITAHOSPICE@YAHOO.COM",
    "categoryName": "HOSPICE",
    "categoryCode": "HOSPICE",
    "licenseStatus": "ACTIVE",
    "inService": true,
    "licenseNumber": "550004406",
    "licenseEffectiveDate": "08/29/2024",
    "licenseExpirationDate": "08/28/2026",
    "dataDate": "10/18/2025",
    "capacity": 0,
    "address": "30941 AGOURA RD, SUITE 124",
    "city": "WESTLAKE VILLAGE",
    "zip": "91361",
    "county": "VENTURA",
    "phone": "(805) 200-4102",
    "lat": 34.14555,
    "lng": -118.795356
  },
  {
    "id": "630025371",
    "name": "METACARE HOME HEALTH, INC.",
    "npi": null,
    "hcaiId": null,
    "businessName": "METACARE HOME HEALTH, INC.",
    "contactEmail": "DUCHITEL1@GMAIL.COM",
    "categoryName": "HOME HEALTH AGENCY",
    "categoryCode": "HHA",
    "licenseStatus": "ACTIVE",
    "inService": true,
    "licenseNumber": "550009037",
    "licenseEffectiveDate": "03/22/2025",
    "licenseExpirationDate": "03/21/2026",
    "dataDate": "10/18/2025",
    "capacity": 0,
    "address": "2239 TOWNSGATE RD, SUITE 205",
    "city": "WESTLAKE VILLAGE",
    "zip": "91361",
    "county": "VENTURA",
    "phone": "(424) 430-0844",
    "lat": 34.16166,
    "lng": -118.83708
  },
  {
    "id": "630000421",
    "name": "MISSION HOSPICE SERVICES OF LOS ANGELES LLC",
    "npi": null,
    "hcaiId": "406192088",
    "businessName": "MISSION HOSPICE SERVICES OF LOS ANGELES, LLC",
    "contactEmail": "CORPLICENSESANDCREDENTIALS@MISSIONHH.COM",
    "categoryName": "HOSPICE",
    "categoryCode": "HOSPICE",
    "licenseStatus": "ACTIVE",
    "inService": true,
    "licenseNumber": "550000050",
    "licenseEffectiveDate": "11/25/2023",
    "licenseExpirationDate": "11/24/2025",
    "dataDate": "10/18/2025",
    "capacity": 0,
    "address": "875 S WESTLAKE BLVD, SUITE 110",
    "city": "WESTLAKE VILLAGE",
    "zip": "91361",
    "county": "VENTURA",
    "phone": "(805) 230-2626",
    "lat": 34.15560899,
    "lng": -118.827722
  },
  {
    "id": "630025678",
    "name": "PRIMARY HOME HEALTH, INC.",
    "npi": null,
    "hcaiId": null,
    "businessName": "PRIMARY HOME HEALTH, INC",
    "contactEmail": "PRIMARYHHI@GMAIL.COM",
    "categoryName": "HOME HEALTH AGENCY",
    "categoryCode": "HHA",
    "licenseStatus": "ACTIVE",
    "inService": true,
    "licenseNumber": "550009221",
    "licenseEffectiveDate": "10/29/2024",
    "licenseExpirationDate": "04/28/2025",
    "dataDate": "10/18/2025",
    "capacity": 0,
    "address": "30941 AGOURA RD, SUITE 222",
    "city": "WESTLAKE VILLAGE",
    "zip": "91361",
    "county": "VENTURA",
    "phone": "(818) 962-0750",
    "lat": 34.145532,
    "lng": -118.7953605
  },
  {
    "id": "630016096",
    "name": "ROLLING OAKS SURGERY CENTER, LLC",
    "npi": "1003216276",
    "hcaiId": null,
    "businessName": null,
    "contactEmail": "DAWN.HILL.ROSC@GMAIL.COM",
    "categoryName": "SURGICAL CLINIC",
    "categoryCode": "ASC",
    "licenseStatus": null,
    "inService": null,
    "licenseNumber": null,
    "licenseEffectiveDate": null,
    "licenseExpirationDate": null,
    "dataDate": "10/18/2025",
    "capacity": 0,
    "address": "415 E. ROLLING OAKS DRIVE, SUITE 115",
    "city": "THOUSAND OAKS",
    "zip": "91361",
    "county": "VENTURA",
    "phone": "(805) 379-4421",
    "lat": 34.175025,
    "lng": -118.86903
  },
  {
    "id": "630005461",
    "name": "ROYAL HOME CARE INC",
    "npi": "1366613325",
    "hcaiId": "406196980",
    "businessName": "ROYAL HOME CARE INC",
    "contactEmail": "ROYALHOMECARE1@YAHOO.COM",
    "categoryName": "HOME HEALTH AGENCY",
    "categoryCode": "HHA",
    "licenseStatus": "ACTIVE",
    "inService": true,
    "licenseNumber": "550000519",
    "licenseEffectiveDate": "06/25/2025",
    "licenseExpirationDate": "06/24/2026",
    "dataDate": "10/18/2025",
    "capacity": 0,
    "address": "2393 TOWNSGATE RD, SUITE 200",
    "city": "THOUSAND OAKS",
    "zip": "91361",
    "county": "VENTURA",
    "phone": "(805) 230-3033",
    "lat": 34.161435,
    "lng": -118.8338085
  },
  {
    "id": "050001409",
    "name": "SHERWOOD OAKS POST ACUTE",
    "npi": "1982089348",
    "hcaiId": "206564120",
    "businessName": "WESTLAKE OAKS HEALTHCARE, LLC",
    "contactEmail": "DEVIN.DELDO@SHERWOODOAKSPA.COM",
    "categoryName": "SKILLED NURSING FACILITY",
    "categoryCode": "SNF",
    "licenseStatus": "ACTIVE",
    "inService": true,
    "licenseNumber": "050000569",
    "licenseEffectiveDate": "04/22/2025",
    "licenseExpirationDate": "04/21/2026",
    "dataDate": "10/18/2025",
    "capacity": 99,
    "address": "250 FAIRVIEW RD",
    "city": "THOUSAND OAKS",
    "zip": "91361",
    "county": "VENTURA",
    "phone": "(805) 494-1233",
    "lat": 34.165035,
    "lng": -118.8400365
  },
  {
    "id": "630011452",
    "name": "SPECIALTY SURGICAL CENTER OF WESTLAKE VILLAGE",
    "npi": "1366643751",
    "hcaiId": null,
    "businessName": null,
    "contactEmail": "MROUB@SPECIALTYSURGICAL.COM",
    "categoryName": "SURGICAL CLINIC",
    "categoryCode": "ASC",
    "licenseStatus": null,
    "inService": null,
    "licenseNumber": null,
    "licenseEffectiveDate": null,
    "licenseExpirationDate": null,
    "dataDate": "10/18/2025",
    "capacity": 0,
    "address": "696 HAMPSHIRE RD, SUITE 100",
    "city": "WESTLAKE VILLAGE",
    "zip": "91361",
    "county": "VENTURA",
    "phone": "(818) 907-1099",
    "lat": 34.158672,
    "lng": -118.834218
  },
  {
    "id": "080001688",
    "name": "SRS-THOUSAND OAKS",
    "npi": "1912654468",
    "hcaiId": "306196256",
    "businessName": "SRS-THOUSAND OAKS",
    "contactEmail": "DRUPP@SANDERLINGLLC.COM",
    "categoryName": "CHRONIC DIALYSIS CLINIC",
    "categoryCode": "ESRD/CDC",
    "licenseStatus": "ACTIVE",
    "inService": true,
    "licenseNumber": "080000747",
    "licenseEffectiveDate": "04/01/2025",
    "licenseExpirationDate": "03/31/2026",
    "dataDate": "10/18/2025",
    "capacity": 15,
    "address": "375 ROLLING OAKS DR, SUITE 100",
    "city": "THOUSAND OAKS",
    "zip": "91361",
    "county": "VENTURA",
    "phone": "(615) 988-1060",
    "lat": 34.174782,
    "lng": -118.870569
  },
  {
    "id": "630019677",
    "name": "SYNERGY SURGICAL CENTER, LLC",
    "npi": "1881150233",
    "hcaiId": null,
    "businessName": null,
    "contactEmail": null,
    "categoryName": "SURGICAL CLINIC",
    "categoryCode": "ASC",
    "licenseStatus": null,
    "inService": null,
    "licenseNumber": null,
    "licenseEffectiveDate": null,
    "licenseExpirationDate": null,
    "dataDate": "10/18/2025",
    "capacity": 0,
    "address": "696 HAMPSHIRE RD, SUITE 160",
    "city": "WESTLAKE VILLAGE",
    "zip": "91361",
    "county": "VENTURA",
    "phone": "(818) 348-7246",
    "lat": 34.158672,
    "lng": -118.834218
  },
  {
    "id": "050001468",
    "name": "THOUSAND OAKS SURGICAL HOSP., A CAMPUS OF LOS ROBLES HOSP. & MEDICAL CTR.",
    "npi": "1306890389",
    "hcaiId": "106564121",
    "businessName": "LOS ROBLES REGIONAL MEDICAL CENTER",
    "contactEmail": "CONTACTUS@TOHOSPITAL.COM",
    "categoryName": "GENERAL ACUTE CARE HOSPITAL",
    "categoryCode": "GACH",
    "licenseStatus": "ACTIVE",
    "inService": true,
    "licenseNumber": "050000039",
    "licenseEffectiveDate": "11/01/2025",
    "licenseExpirationDate": "10/31/2026",
    "dataDate": "10/18/2025",
    "capacity": 21,
    "address": "401 ROLLING OAKS DR",
    "city": "THOUSAND OAKS",
    "zip": "91361",
    "county": "VENTURA",
    "phone": "(805) 777-7750",
    "lat": 34.174971,
    "lng": -118.869147
  },
  {
    "id": "630027796",
    "name": "UCLA DEPT OF MEDICINE",
    "npi": null,
    "hcaiId": null,
    "businessName": null,
    "contactEmail": "MAGDELENASULLIVAN@MEDNET.UCLA.EDU",
    "categoryName": "SURGICAL CLINIC",
    "categoryCode": "ASC",
    "licenseStatus": null,
    "inService": null,
    "licenseNumber": null,
    "licenseEffectiveDate": null,
    "licenseExpirationDate": null,
    "dataDate": "10/18/2025",
    "capacity": 0,
    "address": "248 HAMPSHIRE RD, SUITE 210",
    "city": "THOUSAND OAKS",
    "zip": "91361",
    "county": "VENTURA",
    "phone": "(424) 440-0475",
    "lat": 34.16442801,
    "lng": -118.837597
  },
  {
    "id": "050000177",
    "name": "WESTLAKE EYE SURGERY CENTER",
    "npi": "1518901651",
    "hcaiId": "306564081",
    "businessName": "THE WESTLAKE OPTHALMOLOGY ASC LP",
    "contactEmail": null,
    "categoryName": "SURGICAL CLINIC",
    "categoryCode": "ASC",
    "licenseStatus": "INACTIVE - CAPEN DECISION",
    "inService": false,
    "licenseNumber": "050000450",
    "licenseEffectiveDate": "11/29/2007",
    "licenseExpirationDate": "11/28/2008",
    "dataDate": "10/18/2025",
    "capacity": 0,
    "address": "2900 TOWNSGATE RD, SUITE 201",
    "city": "WESTLAKE VILLAGE",
    "zip": "91361",
    "county": "VENTURA",
    "phone": "(805) 496-6789",
    "lat": 34.151328,
    "lng": -118.8234225
  },
  {
    "id": "630005442",
    "name": "WESTLAKE SURGICAL CENTER",
    "npi": "1346374014",
    "hcaiId": "306196803",
    "businessName": "WESTLAKE SURGICAL CENTER LLC",
    "contactEmail": null,
    "categoryName": "SURGICAL CLINIC",
    "categoryCode": "ASC",
    "licenseStatus": "INACTIVE - CAPEN DECISION",
    "inService": false,
    "licenseNumber": "550000254",
    "licenseEffectiveDate": "08/22/2007",
    "licenseExpirationDate": "11/21/2008",
    "dataDate": "10/18/2025",
    "capacity": 0,
    "address": "911 HAMPSHIRE RD, SUITE 2",
    "city": "WESTLAKE VILLAGE",
    "zip": "91361",
    "county": "VENTURA",
    "phone": "(805) 370-5522",
    "lat": 34.153461,
    "lng": -118.8317295
  },
  {
    "id": "630016427",
    "name": "WESTLAKE VILLAGE HOSPICE, INC.",
    "npi": "1174996219",
    "hcaiId": "406564277",
    "businessName": "WESTLAKE VILLAGE HOSPICE, INC.",
    "contactEmail": "WESTLAKEVILLAGEHOSPICE@YAHOO.COM",
    "categoryName": "HOSPICE",
    "categoryCode": "HOSPICE",
    "licenseStatus": "ACTIVE",
    "inService": true,
    "licenseNumber": "550003421",
    "licenseEffectiveDate": "03/04/2024",
    "licenseExpirationDate": "03/03/2026",
    "dataDate": "10/18/2025",
    "capacity": 0,
    "address": "2659 TOWNSGATE ROAD, SUITE #102",
    "city": "WESTLAKE VILLAGE",
    "zip": "91361",
    "county": "VENTURA",
    "phone": "(805) 870-0103",
    "lat": 34.156422,
    "lng": -118.827342
  }
]