[
  {
    "id": "630012750",
    "name": "ACA HOME HEALTH CARE INC",
    "npi": "1467684993",
    "hcaiId": "406564218",
    "businessName": "ACA HOME HEALTH CARE INC",
    "contactEmail": "ANNA4ACA@GMAIL.COM",
    "categoryName": "HOME HEALTH AGENCY",
    "categoryCode": "HHA",
    "licenseStatus": "ACTIVE",
    "inService": true,
    "licenseNumber": "550001446",
    "licenseEffectiveDate": "11/12/2024",
    "licenseExpirationDate": "11/11/2025",
    "dataDate": "10/18/2025",
    "capacity": 0,
    "address": "223 E THOUSAND OAKS BLVD, SUITE 407",
    "city": "THOUSAND OAKS",
    "zip": "91360",
    "county": "VENTURA",
    "phone": "(805) 497-2773",
    "lat": 34.180038,
    "lng": -118.8724005
  },
  {
    "id": "630018784",
    "name": "ADVANCED QUALITY HOSPICE, INC.",
    "npi": null,
    "hcaiId": "406562540",
    "businessName": "ADVANCED QUALITY HOSPICE, INC.",
    "contactEmail": "ADVANCEDQUALITYHOSPICE@YAHOO.COM",
    "categoryName": "HOSPICE",
    "categoryCode": "HOSPICE",
    "licenseStatus": "ACTIVE",
    "inService": true,
    "licenseNumber": "550005414",
    "licenseEffectiveDate": "12/05/2024",
    "licenseExpirationDate": "03/16/2026",
    "dataDate": "10/18/2025",
    "capacity": 0,
    "address": "509 MARIN ST, SUITE 229",
    "city": "THOUSAND OAKS",
    "zip": "91360",
    "county": "VENTURA",
    "phone": "(805) 585-5080",
    "lat": 34.18459696,
    "lng": -118.8828523
  },
  {
    "id": "630022123",
    "name": "ALSANA - FLORA",
    "npi": null,
    "hcaiId": "206560326",
    "businessName": "ALSANA WEST LLC",
    "contactEmail": "GAYLE.DEVIN@ALSANA.COM",
    "categoryName": "CONGREGATE LIVING HEALTH FACILITY",
    "categoryCode": "CLHF",
    "licenseStatus": "ACTIVE",
    "inService": true,
    "licenseNumber": "550007248",
    "licenseEffectiveDate": "11/18/2024",
    "licenseExpirationDate": "11/17/2025",
    "dataDate": "10/18/2025",
    "capacity": 6,
    "address": "1235 SUNSET HILLS BLVD",
    "city": "THOUSAND OAKS",
    "zip": "91360",
    "county": "VENTURA",
    "phone": "(806) 273-5248",
    "lat": 34.232697,
    "lng": -118.858311
  },
  {
    "id": "980001793",
    "name": "ASSISTED HEALTH CARE SERVICES - BRANCH",
    "npi": "1356396410",
    "hcaiId": "406564108",
    "businessName": "STAFF ASSISTANCE, INC.",
    "contactEmail": "EDONLEY@ASSISTEDCA.COM",
    "categoryName": "HOME HEALTH AGENCY",
    "categoryCode": "HHA",
    "licenseStatus": "ACTIVE",
    "inService": true,
    "licenseNumber": "980000879",
    "licenseEffectiveDate": "03/16/2025",
    "licenseExpirationDate": "03/15/2026",
    "dataDate": "10/18/2025",
    "capacity": 0,
    "address": "72 MOODY CT, SUITE 203",
    "city": "THOUSAND OAKS",
    "zip": "91360",
    "county": "VENTURA",
    "phone": "(805) 371-9988",
    "lat": 34.178103,
    "lng": -118.8654255
  },
  {
    "id": "980001761",
    "name": "ASSISTED HOME CARE - BRANCH",
    "npi": "1033156765",
    "hcaiId": "406564063",
    "businessName": "ASSISTED HOME RECOVERY, INC.",
    "contactEmail": "AWATARI@ASSISTEDCA.COM",
    "categoryName": "HOME HEALTH AGENCY",
    "categoryCode": "HHA",
    "licenseStatus": "ACTIVE",
    "inService": true,
    "licenseNumber": "980000571",
    "licenseEffectiveDate": "06/28/2025",
    "licenseExpirationDate": "06/27/2026",
    "dataDate": "10/18/2025",
    "capacity": 0,
    "address": "72 MOODY CT, SUITE 200",
    "city": "THOUSAND OAKS",
    "zip": "91360",
    "county": "VENTURA",
    "phone": "(805) 371-9988",
    "lat": 34.178103,
    "lng": -118.8654255
  },
  {
    "id": "980002173",
    "name": "ASSISTED HOME HOSPICE",
    "npi": null,
    "hcaiId": "406564109",
    "businessName": "ASSISTED HOME CARE, INC.",
    "contactEmail": "EDONLEY@ASSISTEDCA.COM",
    "categoryName": "HOSPICE",
    "categoryCode": "HOSPICE",
    "licenseStatus": "ACTIVE",
    "inService": true,
    "licenseNumber": "980001295",
    "licenseEffectiveDate": "05/01/2024",
    "licenseExpirationDate": "04/30/2026",
    "dataDate": "10/18/2025",
    "capacity": 0,
    "address": "72 MOODY CT, SUITE 201",
    "city": "THOUSAND OAKS",
    "zip": "91360",
    "county": "VENTURA",
    "phone": "(818) 830-5003",
    "lat": 34.178076,
    "lng": -118.8654165
  },
  {
    "id": "630018199",
    "name": "AUTHENTIC HOME HEALTH CARE, INC.",
    "npi": null,
    "hcaiId": "406562613",
    "businessName": "AUTHENTIC HOME HEALTH CARE, INC.",
    "contactEmail": "AUTHENTICHHCINC@GMAIL.COM",
    "categoryName": "HOME HEALTH AGENCY",
    "categoryCode": "HHA",
    "licenseStatus": "ACTIVE",
    "inService": true,
    "licenseNumber": "550005227",
    "licenseEffectiveDate": "11/15/2024",
    "licenseExpirationDate": "11/14/2025",
    "dataDate": "10/18/2025",
    "capacity": 0,
    "address": "2667 N MOORPARK RD, SUITE 203",
    "city": "THOUSAND OAKS",
    "zip": "91360",
    "county": "VENTURA",
    "phone": "(805) 241-4411",
    "lat": 34.216938,
    "lng": -118.8689175
  },
  {
    "id": "630018392",
    "name": "AUTHENTIC HOSPICE CARE, INC.",
    "npi": null,
    "hcaiId": "406563716",
    "businessName": "AUTHENTIC HOSPICE CARE, INC.",
    "contactEmail": "AUTHENTICHC@YAHOO.COM",
    "categoryName": "HOSPICE",
    "categoryCode": "HOSPICE",
    "licenseStatus": "ACTIVE",
    "inService": true,
    "licenseNumber": "550006786",
    "licenseEffectiveDate": "08/12/2025",
    "licenseExpirationDate": "08/11/2027",
    "dataDate": "10/18/2025",
    "capacity": 0,
    "address": "2667 N MOORPARK RD, SUITE 205",
    "city": "THOUSAND OAKS",
    "zip": "91360",
    "county": "VENTURA",
    "phone": "(818) 802-2779",
    "lat": 34.216938,
    "lng": -118.8689175
  },
  {
    "id": "630015886",
    "name": "AVENIDA LIVING HOME, INC.",
    "npi": null,
    "hcaiId": "206564265",
    "businessName": "AVENIDA LIVING HOME, INC.",
    "contactEmail": "CLHFGROUP@GMAIL.COM",
    "categoryName": "CONGREGATE LIVING HEALTH FACILITY",
    "categoryCode": "CLHF",
    "licenseStatus": "ACTIVE",
    "inService": true,
    "licenseNumber": "550003098",
    "licenseEffectiveDate": "07/11/2025",
    "licenseExpirationDate": "07/10/2026",
    "dataDate": "10/18/2025",
    "capacity": 6,
    "address": "2465 AVENIDA DE LAS PLANTAS",
    "city": "THOUSAND OAKS",
    "zip": "91360",
    "county": "VENTURA",
    "phone": "(805) 557-0010",
    "lat": 34.2117,
    "lng": -118.859418
  },
  {
    "id": "630019717",
    "name": "BELLA VISTA HOSPICE CARE, INC.",
    "npi": "1073158770",
    "hcaiId": "406565910",
    "businessName": "BELLA VISTA HOSPICE CARE, INC.",
    "contactEmail": "BELLAVISTAHOSPICECARE@GMAIL.COM",
    "categoryName": "HOSPICE",
    "categoryCode": "HOSPICE",
    "licenseStatus": "ACTIVE",
    "inService": true,
    "licenseNumber": "550005822",
    "licenseEffectiveDate": "10/12/2024",
    "licenseExpirationDate": "10/11/2026",
    "dataDate": "10/18/2025",
    "capacity": 0,
    "address": "889 PIERCE CT, SUITE 103",
    "city": "THOUSAND OAKS",
    "zip": "91360",
    "county": "VENTURA",
    "phone": "(805) 434-6109",
    "lat": 34.177878,
    "lng": -118.862145
  },
  {
    "id": "630020050",
    "name": "BILLET HOME HEALTH - THOUSAND OAKS",
    "npi": null,
    "hcaiId": "406192904",
    "businessName": "AN DILIGENT HOME HEALTH",
    "contactEmail": "ANDILIGENTHOMEHEALTH@GMAIL.COM",
    "categoryName": "HOME HEALTH AGENCY",
    "categoryCode": "HHA",
    "licenseStatus": "ACTIVE",
    "inService": true,
    "licenseNumber": "550005784",
    "licenseEffectiveDate": "10/14/2024",
    "licenseExpirationDate": "10/13/2025",
    "dataDate": "10/18/2025",
    "capacity": 0,
    "address": "2667 N MOORPARK RD, SUITE 108",
    "city": "THOUSAND OAKS",
    "zip": "91360",
    "county": "VENTURA",
    "phone": "(747) 265-3555",
    "lat": 34.217026,
    "lng": -118.868894
  },
  {
    "id": "630020043",
    "name": "BLUE RIBBON HOSPICE, INC.",
    "npi": "1821629973",
    "hcaiId": "406564612",
    "businessName": "BLUE RIBBON HOSPICE, INC.",
    "contactEmail": "BLUERIBBONHOSPICE@GMAIL.COM",
    "categoryName": "HOSPICE",
    "categoryCode": "HOSPICE",
    "licenseStatus": "ACTIVE",
    "inService": true,
    "licenseNumber": "550006170",
    "licenseEffectiveDate": "03/05/2025",
    "licenseExpirationDate": "03/04/2027",
    "dataDate": "10/18/2025",
    "capacity": 0,
    "address": "187 E WILBUR RD, SUITE 9",
    "city": "THOUSAND OAKS",
    "zip": "91360",
    "county": "VENTURA",
    "phone": "(805) 601-7711",
    "lat": 34.18686,
    "lng": -118.872072
  },
  {
    "id": "630018791",
    "name": "CAMBRIDGE HHA LLC",
    "npi": null,
    "hcaiId": "406562214",
    "businessName": "CAMBRIDGE HHA LLC",
    "contactEmail": "CONTACT@CAMBRIDGEHHC.COM",
    "categoryName": "HOME HEALTH AGENCY",
    "categoryCode": "HHA",
    "licenseStatus": "ACTIVE",
    "inService": true,
    "licenseNumber": "550005240",
    "licenseEffectiveDate": "12/19/2024",
    "licenseExpirationDate": "12/18/2025",
    "dataDate": "10/18/2025",
    "capacity": 0,
    "address": "250 LOMBARD ST, ROOM 7",
    "city": "THOUSAND OAKS",
    "zip": "91360",
    "county": "VENTURA",
    "phone": "(323) 831-0031",
    "lat": 34.177806,
    "lng": -118.872243
  },
  {
    "id": "630011931",
    "name": "CARELINK HOME HEALTH INC",
    "npi": "1760657761",
    "hcaiId": "406564187",
    "businessName": "CARELINK HOME HEALTH  INC",
    "contactEmail": "CARELINKHHI@YAHOO.COM",
    "categoryName": "HOME HEALTH AGENCY",
    "categoryCode": "HHA",
    "licenseStatus": "ACTIVE",
    "inService": true,
    "licenseNumber": "550000867",
    "licenseEffectiveDate": "01/30/2025",
    "licenseExpirationDate": "01/29/2026",
    "dataDate": "10/18/2025",
    "capacity": 0,
    "address": "187 E WILBUR RD, SUITE 16",
    "city": "THOUSAND OAKS",
    "zip": "91360",
    "county": "VENTURA",
    "phone": "(805) 230-1211",
    "lat": 34.18686,
    "lng": -118.872072
  },
  {
    "id": "630013393",
    "name": "CARELINK HOSPICE, INC.",
    "npi": null,
    "hcaiId": "406564223",
    "businessName": "CARELINK HOSPICE, INC.",
    "contactEmail": "CARELINKHOSPICE@YAHOO.COM",
    "categoryName": "HOSPICE",
    "categoryCode": "HOSPICE",
    "licenseStatus": "ACTIVE",
    "inService": true,
    "licenseNumber": "550001833",
    "licenseEffectiveDate": "02/01/2024",
    "licenseExpirationDate": "01/31/2026",
    "dataDate": "10/18/2025",
    "capacity": 0,
    "address": "187 E WILBUR RD",
    "city": "THOUSAND OAKS",
    "zip": "91360",
    "county": "VENTURA",
    "phone": "(805) 494-9199",
    "lat": 34.186716,
    "lng": -118.8720225
  },
  {
    "id": "630016785",
    "name": "CENTER FOR ADVANCED PLASTIC SURGERY, INC.",
    "npi": "1679949234",
    "hcaiId": null,
    "businessName": null,
    "contactEmail": null,
    "categoryName": "SURGICAL CLINIC",
    "categoryCode": "ASC",
    "licenseStatus": null,
    "inService": null,
    "licenseNumber": null,
    "licenseEffectiveDate": null,
    "licenseExpirationDate": null,
    "dataDate": "10/18/2025",
    "capacity": 0,
    "address": "947 E. THOUSAND OAKS BLVD.",
    "city": "THOUSAND OAKS",
    "zip": "91360",
    "county": "VENTURA",
    "phone": "(805) 777-3877",
    "lat": 34.179741,
    "lng": -118.8616905
  },
  {
    "id": "630026021",
    "name": "COMPLETE CARE HOME HEALTH, INC",
    "npi": null,
    "hcaiId": null,
    "businessName": "COMPLETE CARE HOME HEALTH, INC",
    "contactEmail": "COMPLETECHH@GMAIL.COM",
    "categoryName": "HOME HEALTH AGENCY",
    "categoryCode": "HHA",
    "licenseStatus": "ACTIVE",
    "inService": true,
    "licenseNumber": "550009660",
    "licenseEffectiveDate": "08/28/2025",
    "licenseExpirationDate": "02/27/2026",
    "dataDate": "10/18/2025",
    "capacity": 0,
    "address": "2667 N MOORPARK RD, SUITE 102",
    "city": "THOUSAND OAKS",
    "zip": "91360",
    "county": "VENTURA",
    "phone": "(805) 261-5252",
    "lat": 34.216938,
    "lng": -118.8689175
  },
  {
    "id": "050000107",
    "name": "CONEJO FREE CLINIC",
    "npi": null,
    "hcaiId": "306561159",
    "businessName": "CONEJO FREE CLINIC",
    "contactEmail": "ERICKNIGHT@CONEJOFREECLINIC.ORG",
    "categoryName": "PRIMARY CARE CLINIC",
    "categoryCode": "FREEC",
    "licenseStatus": "ACTIVE",
    "inService": true,
    "licenseNumber": "050000103",
    "licenseEffectiveDate": "12/17/2024",
    "licenseExpirationDate": "12/16/2025",
    "dataDate": "10/18/2025",
    "capacity": 0,
    "address": "80 E HILLCREST DR, SUITE 102",
    "city": "THOUSAND OAKS",
    "zip": "91360",
    "county": "VENTURA",
    "phone": "(805) 497-3575",
    "lat": 34.180758,
    "lng": -118.874763
  },
  {
    "id": "630017812",
    "name": "CONEJO FREE CLINIC DENTAL CLINIC",
    "npi": null,
    "hcaiId": null,
    "businessName": "CONEJO FREE CLINIC",
    "contactEmail": null,
    "categoryName": "PRIMARY CARE CLINIC",
    "categoryCode": "FREEC",
    "licenseStatus": "ACTIVE",
    "inService": true,
    "licenseNumber": "050000103",
    "licenseEffectiveDate": "12/17/2024",
    "licenseExpirationDate": "12/16/2025",
    "dataDate": "10/18/2025",
    "capacity": 0,
    "address": "80 EAST HILLCREST DRIVE, SUITE 102",
    "city": "THOUSAND OAKS",
    "zip": "91360",
    "county": "VENTURA",
    "phone": null,
    "lat": 34.180758,
    "lng": -118.874763
  },
  {
    "id": "630012486",
    "name": "CONEJO VALLEY MEDICAL GROUP",
    "npi": "1316188253",
    "hcaiId": null,
    "businessName": null,
    "contactEmail": null,
    "categoryName": "PRIMARY CARE CLINIC",
    "categoryCode": "FQHC",
    "licenseStatus": null,
    "inService": null,
    "licenseNumber": null,
    "licenseEffectiveDate": null,
    "licenseExpirationDate": null,
    "dataDate": "10/18/2025",
    "capacity": 0,
    "address": "125 W THOUSAND OAKS BLVD, SUITE 200",
    "city": "THOUSAND OAKS",
    "zip": "91360",
    "county": "VENTURA",
    "phone": "(805) 418-9100",
    "lat": 34.179021,
    "lng": -118.880199
  },
  {
    "id": "080001566",
    "name": "CONEJO VALLEY RENAL CENTER",
    "npi": "1124130026",
    "hcaiId": "306561168",
    "businessName": "CONEJO VALLEY DIALYSIS INC",
    "contactEmail": "CLINIC1383@FMC-NA.COM",
    "categoryName": "CHRONIC DIALYSIS CLINIC",
    "categoryCode": "ESRD/CDC",
    "licenseStatus": "ACTIVE",
    "inService": true,
    "licenseNumber": "080000660",
    "licenseEffectiveDate": "12/14/2024",
    "licenseExpirationDate": "12/13/2025",
    "dataDate": "10/18/2025",
    "capacity": 16,
    "address": "227 W JANSS RD, SUITE 115",
    "city": "THOUSAND OAKS",
    "zip": "91360",
    "county": "VENTURA",
    "phone": "(805) 496-6071",
    "lat": 34.206804,
    "lng": -118.88424
  },
  {
    "id": "050001391",
    "name": "CONEJO VALLEY WOMENS RESOURCE CENTER",
    "npi": null,
    "hcaiId": "306564156",
    "businessName": "CONEJO VALLEY WOMENS RESOURCE CENTER",
    "contactEmail": "DIRECTOR@OHANAHEALTHCLINIC.COM",
    "categoryName": "PRIMARY CARE CLINIC",
    "categoryCode": "COMTYC",
    "licenseStatus": "ACTIVE",
    "inService": true,
    "licenseNumber": "050000558",
    "licenseEffectiveDate": "05/24/2025",
    "licenseExpirationDate": "05/23/2026",
    "dataDate": "10/18/2025",
    "capacity": 0,
    "address": "80 E HILLCREST DR, SUITE 130",
    "city": "THOUSAND OAKS",
    "zip": "91360",
    "county": "VENTURA",
    "phone": "(805) 373-1222",
    "lat": 34.180758,
    "lng": -118.874763
  },
  {
    "id": "630021435",
    "name": "DEDICATION HOSPICE CARE INC.",
    "npi": null,
    "hcaiId": null,
    "businessName": "DEDICATION HOSPICE CARE INC.",
    "contactEmail": "DEDICATIONHOSPICE@GMAIL.COM",
    "categoryName": "HOSPICE",
    "categoryCode": "HOSPICE",
    "licenseStatus": "ACTIVE",
    "inService": true,
    "licenseNumber": "550007571",
    "licenseEffectiveDate": "12/15/2023",
    "licenseExpirationDate": "12/14/2025",
    "dataDate": "10/18/2025",
    "capacity": 0,
    "address": "516 PENNSFIELD PL, SUITE 206",
    "city": "THOUSAND OAKS",
    "zip": "91360",
    "county": "VENTURA",
    "phone": "(805) 371-7171",
    "lat": 34.185392,
    "lng": -118.874126
  },
  {
    "id": "630011590",
    "name": "DIGESTIVE HEALTH CENTER OF THOUSAND OAKS THE",
    "npi": "1174715445",
    "hcaiId": null,
    "businessName": null,
    "contactEmail": null,
    "categoryName": "SURGICAL CLINIC",
    "categoryCode": "ASC",
    "licenseStatus": null,
    "inService": null,
    "licenseNumber": null,
    "licenseEffectiveDate": null,
    "licenseExpirationDate": null,
    "dataDate": "10/18/2025",
    "capacity": 0,
    "address": "3510 N MOORPARK RD, SUITE 101",
    "city": "THOUSAND OAKS",
    "zip": "91360",
    "county": "VENTURA",
    "phone": "(805) 492-9000",
    "lat": 34.227567,
    "lng": -118.8690525
  },
  {
    "id": "630021302",
    "name": "FORTIS HOSPICE & PALLIATIVE CARE, INC.",
    "npi": null,
    "hcaiId": "406194778",
    "businessName": "FORTIS HOSPICE & PALLIATIVE CARE, INC.",
    "contactEmail": "FORTISHOSPICEINC@GMAIL.COM",
    "categoryName": "HOSPICE",
    "categoryCode": "HOSPICE",
    "licenseStatus": "ACTIVE",
    "inService": true,
    "licenseNumber": "550006816",
    "licenseEffectiveDate": "09/01/2025",
    "licenseExpirationDate": "08/31/2027",
    "dataDate": "10/18/2025",
    "capacity": 0,
    "address": "101 MOODY CT, SUITE 202",
    "city": "THOUSAND OAKS",
    "zip": "91360",
    "county": "VENTURA",
    "phone": "(805) 512-7788",
    "lat": 34.17716997,
    "lng": -118.8658744
  },
  {
    "id": "630021656",
    "name": "FULL CARE HOSPICE AND PALLIATIVE CARE INC",
    "npi": null,
    "hcaiId": "406563813",
    "businessName": "FULL CARE HOSPICE AND PALLIATIVE CARE INC",
    "contactEmail": "FULLCAREHOSPICE@GMAIL.COM",
    "categoryName": "HOSPICE",
    "categoryCode": "HOSPICE",
    "licenseStatus": "ACTIVE",
    "inService": true,
    "licenseNumber": "550007195",
    "licenseEffectiveDate": "10/23/2025",
    "licenseExpirationDate": "10/22/2027",
    "dataDate": "10/18/2025",
    "capacity": 0,
    "address": "223 E THOUSAND OAKS BLVD, SUITE 320",
    "city": "THOUSAND OAKS",
    "zip": "91360",
    "county": "VENTURA",
    "phone": "(805) 371-6190",
    "lat": 34.18004001,
    "lng": -118.872409
  },
  {
    "id": "630016295",
    "name": "GENERATION CARE INC.",
    "npi": "1316335896",
    "hcaiId": "406564278",
    "businessName": "GENERATION CARE INC.",
    "contactEmail": "ANNA@GENERATIONCAREINC.COM",
    "categoryName": "HOSPICE",
    "categoryCode": "HOSPICE",
    "licenseStatus": "ACTIVE",
    "inService": true,
    "licenseNumber": "550003417",
    "licenseEffectiveDate": "03/01/2024",
    "licenseExpirationDate": "02/28/2026",
    "dataDate": "10/18/2025",
    "capacity": 0,
    "address": "516 PENNSFIELD PL, SUITE 109",
    "city": "THOUSAND OAKS",
    "zip": "91360",
    "county": "VENTURA",
    "phone": "(805) 496-0044",
    "lat": 34.185424,
    "lng": -118.873787
  },
  {
    "id": "630011326",
    "name": "H & A HOSPICE INC",
    "npi": "1689854010",
    "hcaiId": "406564167",
    "businessName": "H & A HOSPICE INC",
    "contactEmail": "HAHOSPICECARE@GMAIL.COM",
    "categoryName": "HOSPICE",
    "categoryCode": "HOSPICE",
    "licenseStatus": "ACTIVE",
    "inService": true,
    "licenseNumber": "550000514",
    "licenseEffectiveDate": "05/23/2025",
    "licenseExpirationDate": "05/22/2027",
    "dataDate": "10/18/2025",
    "capacity": 0,
    "address": "299 W HILLCREST DR, SUITE 116 A",
    "city": "THOUSAND OAKS",
    "zip": "91360",
    "county": "VENTURA",
    "phone": "(805) 583-3565",
    "lat": 34.183872,
    "lng": -118.8840465
  },
  {
    "id": "050001390",
    "name": "LOS ROBLES HEALTHCARE",
    "npi": null,
    "hcaiId": "406564112",
    "businessName": "LOS ROBLES HOMECARE SERVICES INC",
    "contactEmail": "HGOULDING@IMPACTHC.ORG",
    "categoryName": "HOME HEALTH AGENCY",
    "categoryCode": "HHA",
    "licenseStatus": "ACTIVE",
    "inService": true,
    "licenseNumber": "050000552",
    "licenseEffectiveDate": "10/24/2025",
    "licenseExpirationDate": "11/26/2025",
    "dataDate": "10/18/2025",
    "capacity": 0,
    "address": "509 MARIN ST, SUITE 135",
    "city": "THOUSAND OAKS",
    "zip": "91360",
    "county": "VENTURA",
    "phone": "(805) 777-7234",
    "lat": 34.18475802,
    "lng": -118.882917
  },
  {
    "id": "630014834",
    "name": "LOS ROBLES HEALTHCARE",
    "npi": "1538598131",
    "hcaiId": "406304558",
    "businessName": "LOS ROBLES HOSPICE INC.",
    "contactEmail": "MIKE@IMPACTHC.ORG",
    "categoryName": "HOSPICE",
    "categoryCode": "HOSPICE",
    "licenseStatus": "ACTIVE",
    "inService": true,
    "licenseNumber": "550002861",
    "licenseEffectiveDate": "02/04/2025",
    "licenseExpirationDate": "10/05/2026",
    "dataDate": "10/18/2025",
    "capacity": 0,
    "address": "509 MARIN ST, SUITE 233",
    "city": "THOUSAND OAKS",
    "zip": "91360",
    "county": "VENTURA",
    "phone": "(949) 252-2640",
    "lat": 34.18459696,
    "lng": -118.8828523
  },
  {
    "id": "050000020",
    "name": "LOS ROBLES HOSPITAL & MEDICAL CENTER",
    "npi": "1306890389",
    "hcaiId": "106560492",
    "businessName": "LOS ROBLES REGIONAL MEDICAL CENTER",
    "contactEmail": "PATRICK.SMITH@HCAHEALTHCARE.COM",
    "categoryName": "GENERAL ACUTE CARE HOSPITAL",
    "categoryCode": "GACH",
    "licenseStatus": "ACTIVE",
    "inService": true,
    "licenseNumber": "050000039",
    "licenseEffectiveDate": "11/01/2025",
    "licenseExpirationDate": "10/31/2026",
    "dataDate": "10/18/2025",
    "capacity": 312,
    "address": "215 W JANSS RD",
    "city": "THOUSAND OAKS",
    "zip": "91360",
    "county": "VENTURA",
    "phone": "(805) 231-8462",
    "lat": 34.20747,
    "lng": -118.8824355
  },
  {
    "id": "050000616",
    "name": "LOS ROBLES SURGICENTER",
    "npi": "1336294859",
    "hcaiId": "306564027",
    "businessName": "LOS ROBLES SURGICENTER",
    "contactEmail": null,
    "categoryName": "SURGICAL CLINIC",
    "categoryCode": "ASC",
    "licenseStatus": "INACTIVE - CAPEN DECISION",
    "inService": false,
    "licenseNumber": "050000280",
    "licenseEffectiveDate": "11/08/2007",
    "licenseExpirationDate": "11/07/2008",
    "dataDate": "10/18/2025",
    "capacity": 0,
    "address": "2190 LYNN RD, SUITE 100",
    "city": "THOUSAND OAKS",
    "zip": "91360",
    "county": "VENTURA",
    "phone": "(805) 497-3737",
    "lat": 34.206804,
    "lng": -118.88424
  },
  {
    "id": "050000173",
    "name": "LYNN EYE SURGERY CENTER",
    "npi": "1255472841",
    "hcaiId": null,
    "businessName": null,
    "contactEmail": null,
    "categoryName": "SURGICAL CLINIC",
    "categoryCode": "ASC",
    "licenseStatus": null,
    "inService": null,
    "licenseNumber": null,
    "licenseEffectiveDate": null,
    "licenseExpirationDate": null,
    "dataDate": "10/18/2025",
    "capacity": 0,
    "address": "2230 LYNN RD",
    "city": "THOUSAND OAKS",
    "zip": "91360",
    "county": "VENTURA",
    "phone": "(805) 370-3137",
    "lat": 34.20882,
    "lng": -118.8845865
  },
  {
    "id": "630012766",
    "name": "OAK TREE SURGICAL CENTER LLC",
    "npi": "1831428861",
    "hcaiId": null,
    "businessName": null,
    "contactEmail": null,
    "categoryName": "SURGICAL CLINIC",
    "categoryCode": "ASC",
    "licenseStatus": null,
    "inService": null,
    "licenseNumber": null,
    "licenseEffectiveDate": null,
    "licenseExpirationDate": null,
    "dataDate": "10/18/2025",
    "capacity": 0,
    "address": "2230 LYNN RD, SUITE 320",
    "city": "THOUSAND OAKS",
    "zip": "91360",
    "county": "VENTURA",
    "phone": "(805) 371-8400",
    "lat": 34.20882,
    "lng": -118.8845865
  },
  {
    "id": "630011658",
    "name": "OAKVIEW SKILLED NURSING",
    "npi": "1083892350",
    "hcaiId": "206564129",
    "businessName": "OAKVIEW HC LLC",
    "contactEmail": "MACKAYJ@VISITOAKVIEW.COM",
    "categoryName": "SKILLED NURSING FACILITY",
    "categoryCode": "SNF",
    "licenseStatus": "ACTIVE",
    "inService": true,
    "licenseNumber": "550000791",
    "licenseEffectiveDate": "11/26/2024",
    "licenseExpirationDate": "11/25/2025",
    "dataDate": "10/18/2025",
    "capacity": 48,
    "address": "3557 CAMPUS DR",
    "city": "THOUSAND OAKS",
    "zip": "91360",
    "county": "VENTURA",
    "phone": "(805) 241-2000",
    "lat": 34.228332,
    "lng": -118.882053
  },
  {
    "id": "630022782",
    "name": "ONENESS HOME HEALTH CARE INC",
    "npi": null,
    "hcaiId": "406195353",
    "businessName": "ONENESS HOME HEALTH CARE INC",
    "contactEmail": "ONENESSHOMEHEALTHCARE@GMAIL.COM",
    "categoryName": "HOME HEALTH AGENCY",
    "categoryCode": "HHA",
    "licenseStatus": "ACTIVE",
    "inService": true,
    "licenseNumber": "550007975",
    "licenseEffectiveDate": "04/14/2025",
    "licenseExpirationDate": "04/13/2026",
    "dataDate": "10/18/2025",
    "capacity": 0,
    "address": "100 E THOUSAND OAKS BLVD, SUITE 101",
    "city": "THOUSAND OAKS",
    "zip": "91360",
    "county": "VENTURA",
    "phone": "(818) 809-2434",
    "lat": 34.178284,
    "lng": -118.874833
  },
  {
    "id": "050001405",
    "name": "SAXON SURGICAL CENTER INC",
    "npi": "1447215850",
    "hcaiId": "306564118",
    "businessName": "KAMYAR ASSIL MD",
    "contactEmail": null,
    "categoryName": "SURGICAL CLINIC",
    "categoryCode": "ASC",
    "licenseStatus": "INACTIVE - CAPEN DECISION",
    "inService": false,
    "licenseNumber": "050000564",
    "licenseEffectiveDate": "12/06/2007",
    "licenseExpirationDate": "12/05/2008",
    "dataDate": "10/18/2025",
    "capacity": 0,
    "address": "430 E AVENIDA DE LOS ARBOLES, SUITE 101",
    "city": "THOUSAND OAKS",
    "zip": "91360",
    "county": "VENTURA",
    "phone": "(805) 241-0151",
    "lat": 34.217487,
    "lng": -118.8694845
  },
  {
    "id": "630012198",
    "name": "SKIN SURGERY CENTER",
    "npi": "1740470053",
    "hcaiId": null,
    "businessName": null,
    "contactEmail": "CMEYER@DERMATOLOGY-CENTER.COM",
    "categoryName": "SURGICAL CLINIC",
    "categoryCode": "ASC",
    "licenseStatus": null,
    "inService": null,
    "licenseNumber": null,
    "licenseEffectiveDate": null,
    "licenseExpirationDate": null,
    "dataDate": "10/18/2025",
    "capacity": 0,
    "address": "267 W HILLCREST DR",
    "city": "THOUSAND OAKS",
    "zip": "91360",
    "county": "VENTURA",
    "phone": "(805) 497-1694",
    "lat": 34.183224,
    "lng": -118.88379
  },
  {
    "id": "630017498",
    "name": "ST. CHARLES SURGICAL CENTER",
    "npi": "1912362955",
    "hcaiId": null,
    "businessName": null,
    "contactEmail": null,
    "categoryName": "SURGICAL CLINIC",
    "categoryCode": "ASC",
    "licenseStatus": null,
    "inService": null,
    "licenseNumber": null,
    "licenseEffectiveDate": null,
    "licenseExpirationDate": null,
    "dataDate": "10/18/2025",
    "capacity": 0,
    "address": "550 SAINT CHARLES DR, SUITE 101",
    "city": "THOUSAND OAKS",
    "zip": "91360",
    "county": "VENTURA",
    "phone": null,
    "lat": 34.185843,
    "lng": -118.877328
  },
  {
    "id": "630005463",
    "name": "STARBRIGHT HOME HEALTH SERVICES, INC.",
    "npi": "1760429229",
    "hcaiId": "406190651",
    "businessName": "STARBRIGHT HOME HEALTH SERVICES, INC.",
    "contactEmail": "STARBRIGHTHOMEHEALTHSERV@GMAIL.COM",
    "categoryName": "HOME HEALTH AGENCY",
    "categoryCode": "HHA",
    "licenseStatus": "ACTIVE",
    "inService": true,
    "licenseNumber": "550000502",
    "licenseEffectiveDate": "06/11/2025",
    "licenseExpirationDate": "06/10/2026",
    "dataDate": "10/18/2025",
    "capacity": 0,
    "address": "299 W HILLCREST DR, SUITE 104",
    "city": "THOUSAND OAKS",
    "zip": "91360",
    "county": "VENTURA",
    "phone": "(626) 254-7306",
    "lat": 34.183863,
    "lng": -118.884042
  },
  {
    "id": "630019338",
    "name": "SUNSHINE LOVELY, INC.",
    "npi": null,
    "hcaiId": "206560317",
    "businessName": "SUNSHINE LOVELY, INC.",
    "contactEmail": "SUNSHINELOVELYCONGREGATE@GMAIL.COM",
    "categoryName": "CONGREGATE LIVING HEALTH FACILITY",
    "categoryCode": "CLHF",
    "licenseStatus": "ACTIVE",
    "inService": true,
    "licenseNumber": "550006874",
    "licenseEffectiveDate": "06/30/2025",
    "licenseExpirationDate": "06/29/2026",
    "dataDate": "10/18/2025",
    "capacity": 6,
    "address": "9 E GAINSBOROUGH RD",
    "city": "THOUSAND OAKS",
    "zip": "91360",
    "county": "VENTURA",
    "phone": "(805) 870-4682",
    "lat": 34.196103,
    "lng": -118.8754065
  },
  {
    "id": "050000067",
    "name": "THOUSAND OAKS POST ACUTE, LLC",
    "npi": "1134174501",
    "hcaiId": "206560531",
    "businessName": "THOUSAND OAKS POST ACUTE, LLC",
    "contactEmail": "CHAD.CARLSON@THOUSANDOAKSPOSTACUTE.COM",
    "categoryName": "SKILLED NURSING FACILITY",
    "categoryCode": "SNF",
    "licenseStatus": "ACTIVE",
    "inService": true,
    "licenseNumber": "050000065",
    "licenseEffectiveDate": "11/15/2024",
    "licenseExpirationDate": "11/14/2025",
    "dataDate": "10/18/2025",
    "capacity": 123,
    "address": "93 W AVENIDA DE LOS ARBOLES",
    "city": "THOUSAND OAKS",
    "zip": "91360",
    "county": "VENTURA",
    "phone": "(805) 492-2444",
    "lat": 34.219017,
    "lng": -118.877418
  },
  {
    "id": "630017292",
    "name": "UCLA HEALTH PAIN MANAGEMENT THOUSAND OAKS",
    "npi": "1518311141",
    "hcaiId": null,
    "businessName": null,
    "contactEmail": "KAKIAI@MEDNET.UCLA.EDU",
    "categoryName": "SURGICAL CLINIC",
    "categoryCode": "ASC",
    "licenseStatus": null,
    "inService": null,
    "licenseNumber": null,
    "licenseEffectiveDate": null,
    "licenseExpirationDate": null,
    "dataDate": "10/18/2025",
    "capacity": 0,
    "address": "100 MOODY CT, SUITE 100",
    "city": "THOUSAND OAKS",
    "zip": "91360",
    "county": "VENTURA",
    "phone": "(805) 418-3444",
    "lat": 34.177302,
    "lng": -118.8651645
  },
  {
    "id": "630020779",
    "name": "WELLNESS HOME HEALTH INC",
    "npi": null,
    "hcaiId": null,
    "businessName": "WELLNESS HOME HEALTH INC",
    "contactEmail": "DUCHITEL1@GMAIL.COM",
    "categoryName": "HOME HEALTH AGENCY",
    "categoryCode": "HHA",
    "licenseStatus": "ACTIVE",
    "inService": true,
    "licenseNumber": "550009666",
    "licenseEffectiveDate": "07/31/2025",
    "licenseExpirationDate": "01/30/2026",
    "dataDate": "10/18/2025",
    "capacity": 0,
    "address": "299 W HILLCREST DR, SUITE 104",
    "city": "THOUSAND OAKS",
    "zip": "91360",
    "county": "VENTURA",
    "phone": "(805) 900-6010",
    "lat": 34.18373601,
    "lng": -118.883943
  }
]