[
  {
    "id": "630016843",
    "name": "ACCESS HOSPICE",
    "npi": "1073905642",
    "hcaiId": "406191283",
    "businessName": "TARZANA HOME HEALTH CARE, INC.",
    "contactEmail": "THHCI@YAHOO.COM",
    "categoryName": "HOSPICE",
    "categoryCode": "HOSPICE",
    "licenseStatus": "ACTIVE",
    "inService": true,
    "licenseNumber": "550004331",
    "licenseEffectiveDate": "07/19/2020",
    "licenseExpirationDate": "07/18/2022",
    "dataDate": "10/18/2025",
    "capacity": 0,
    "address": "4869 TOPANGA CANYON BLVD, SUITE #5",
    "city": "WOODLAND HILLS",
    "zip": "91364",
    "county": "LOS ANGELES",
    "phone": "(818) 633-2400",
    "lat": 34.156386,
    "lng": -118.60614
  },
  {
    "id": "630019196",
    "name": "AMERICAN ATA HOME HEALTH AGENCY, INC.",
    "npi": null,
    "hcaiId": "406192870",
    "businessName": "AMERICAN ATA HOME HEALTH AGENCY INC.",
    "contactEmail": "ATAHHC@GMAIL.COM",
    "categoryName": "HOME HEALTH AGENCY",
    "categoryCode": "HHA",
    "licenseStatus": "ACTIVE",
    "inService": true,
    "licenseNumber": "550005735",
    "licenseEffectiveDate": "09/19/2025",
    "licenseExpirationDate": "09/18/2026",
    "dataDate": "10/18/2025",
    "capacity": 0,
    "address": "5311 TOPANGA CANYON BLVD, UNIT 202",
    "city": "WOODLAND HILLS",
    "zip": "91364",
    "county": "LOS ANGELES",
    "phone": "(818) 805-3478",
    "lat": 34.166358,
    "lng": -118.606131
  },
  {
    "id": "630016048",
    "name": "ANGELIC HOME HEALTH CARE LLC",
    "npi": null,
    "hcaiId": "406190810",
    "businessName": "ANGELIC HOME HEALTHCARE",
    "contactEmail": "ANGELICHOMEHEALTHCARELA@GMAIL.COM",
    "categoryName": "HOME HEALTH AGENCY",
    "categoryCode": "HHA",
    "licenseStatus": "ACTIVE",
    "inService": true,
    "licenseNumber": "550004204",
    "licenseEffectiveDate": "03/16/2025",
    "licenseExpirationDate": "03/15/2026",
    "dataDate": "10/18/2025",
    "capacity": 0,
    "address": "22141 VENTURA BLVD, SUITE 209",
    "city": "WOODLAND HILLS",
    "zip": "91364",
    "county": "LOS ANGELES",
    "phone": "(818) 960-5522",
    "lat": 34.168851,
    "lng": -118.6095825
  },
  {
    "id": "630014350",
    "name": "ANTHEM HOSPICE CARE, INC.",
    "npi": null,
    "hcaiId": "406198308",
    "businessName": "ANTHEM HOSPICE CARE, INC.",
    "contactEmail": "ANTHEM.HOSPICECARE@GMAIL.COM",
    "categoryName": "HOSPICE",
    "categoryCode": "HOSPICE",
    "licenseStatus": "ACTIVE",
    "inService": true,
    "licenseNumber": "550002594",
    "licenseEffectiveDate": "02/24/2024",
    "licenseExpirationDate": "02/23/2026",
    "dataDate": "10/18/2025",
    "capacity": 0,
    "address": "20121 VENTURA BLVD, SUITE 303",
    "city": "WOODLAND HILLS",
    "zip": "91364",
    "county": "LOS ANGELES",
    "phone": "(818) 812-7005",
    "lat": 34.170939,
    "lng": -118.572174
  },
  {
    "id": "630022499",
    "name": "APRICUS HOSPICE INC",
    "npi": null,
    "hcaiId": null,
    "businessName": "APRICUS HOSPICE INC",
    "contactEmail": "HOSPICE@AVICENNAHEALTHCARE.ORG",
    "categoryName": "HOSPICE",
    "categoryCode": "HOSPICE",
    "licenseStatus": "ACTIVE",
    "inService": true,
    "licenseNumber": "550007599",
    "licenseEffectiveDate": "10/15/2024",
    "licenseExpirationDate": "12/17/2025",
    "dataDate": "10/18/2025",
    "capacity": 0,
    "address": "19730 VENTURA BLVD, SUITE 17",
    "city": "WOODLAND HILLS",
    "zip": "91364",
    "county": "LOS ANGELES",
    "phone": "(818) 217-0927",
    "lat": 34.171905,
    "lng": -118.563277
  },
  {
    "id": "630017205",
    "name": "ART OF NURSING HOME CARE, INC.",
    "npi": "1407391535",
    "hcaiId": "406191435",
    "businessName": "ART OF NURSING HOME CARE, INC.",
    "contactEmail": "ADMIN@ARTOFNURSINGHOMECARE.COM",
    "categoryName": "HOME HEALTH AGENCY",
    "categoryCode": "HHA",
    "licenseStatus": "ACTIVE",
    "inService": true,
    "licenseNumber": "550004485",
    "licenseEffectiveDate": "10/18/2025",
    "licenseExpirationDate": "10/17/2026",
    "dataDate": "10/18/2025",
    "capacity": 0,
    "address": "20121 VENTURA BLVD, SUITE 206",
    "city": "WOODLAND HILLS",
    "zip": "91364",
    "county": "LOS ANGELES",
    "phone": "(818) 914-4453",
    "lat": 34.170939,
    "lng": -118.572174
  },
  {
    "id": "630024154",
    "name": "ASTER HOME HEALTH SERVICES, INC",
    "npi": null,
    "hcaiId": "406197824",
    "businessName": "ASTER HOME HEALTH SERVICES, INC",
    "contactEmail": "ASTERHHS@YAHOO.COM",
    "categoryName": "HOME HEALTH AGENCY",
    "categoryCode": "HHA",
    "licenseStatus": "ACTIVE",
    "inService": true,
    "licenseNumber": "550008383",
    "licenseEffectiveDate": "02/09/2025",
    "licenseExpirationDate": "02/08/2026",
    "dataDate": "10/18/2025",
    "capacity": 0,
    "address": "19737 VENTURA BLVD, UNIT 310B",
    "city": "WOODLAND HILLS",
    "zip": "91364",
    "county": "LOS ANGELES",
    "phone": "(747) 201-7418",
    "lat": 34.172784,
    "lng": -118.563579
  },
  {
    "id": "630020355",
    "name": "AT EASE HOME HEALTH CARE, INC.",
    "npi": null,
    "hcaiId": "406193175",
    "businessName": "AT EASE HOME HEALTH CARE, INC.",
    "contactEmail": "FELIXK@ATEASEHHC.COM",
    "categoryName": "HOME HEALTH AGENCY",
    "categoryCode": "HHA",
    "licenseStatus": "ACTIVE",
    "inService": true,
    "licenseNumber": "550007020",
    "licenseEffectiveDate": "10/13/2025",
    "licenseExpirationDate": "10/12/2026",
    "dataDate": "10/18/2025",
    "capacity": 0,
    "address": "22801 VENTURA BLVD, SUITE 202",
    "city": "WOODLAND HILLS",
    "zip": "91364",
    "county": "LOS ANGELES",
    "phone": "(818) 574-5380",
    "lat": 34.16642001,
    "lng": -118.623624
  },
  {
    "id": "630026398",
    "name": "AVIS HOME HEALTH, INC.",
    "npi": null,
    "hcaiId": null,
    "businessName": "AVIS HOME HEALTH, INC.",
    "contactEmail": "AVISHOMEHEALTH@YAHOO.COM",
    "categoryName": "HOME HEALTH AGENCY",
    "categoryCode": "HHA",
    "licenseStatus": "ACTIVE",
    "inService": true,
    "licenseNumber": "550009177",
    "licenseEffectiveDate": "06/03/2025",
    "licenseExpirationDate": "06/02/2026",
    "dataDate": "10/18/2025",
    "capacity": 0,
    "address": "22900 VENTURA BLVD, SUITE 175",
    "city": "WOODLAND HILLS",
    "zip": "91364",
    "county": "LOS ANGELES",
    "phone": "(818) 835-9495",
    "lat": 34.164837,
    "lng": -118.6262595
  },
  {
    "id": "630020813",
    "name": "BEST CHANCE HOME HEALTH AGENCY CARE INC",
    "npi": null,
    "hcaiId": "406193204",
    "businessName": "BEST CHANCE HOME HEALTH AGENCY CARE INC",
    "contactEmail": "BCHHACI@GMAIL.COM",
    "categoryName": "HOME HEALTH AGENCY",
    "categoryCode": "HHA",
    "licenseStatus": "ACTIVE",
    "inService": true,
    "licenseNumber": "550006588",
    "licenseEffectiveDate": "07/12/2025",
    "licenseExpirationDate": "07/11/2026",
    "dataDate": "10/18/2025",
    "capacity": 0,
    "address": "5311 TOPANGA CANYON BLVD, SUITE 307",
    "city": "WOODLAND HILLS",
    "zip": "91364",
    "county": "LOS ANGELES",
    "phone": "(818) 854-6848",
    "lat": 34.166358,
    "lng": -118.606131
  },
  {
    "id": "630025820",
    "name": "BLOOM HOME HEALTH CARE INC",
    "npi": null,
    "hcaiId": "406190096",
    "businessName": "BLOOM HOME HEALTH CARE INC",
    "contactEmail": "BLOOMHOMEHEALTHCAREINC@GMAIL.COM",
    "categoryName": "HOME HEALTH AGENCY",
    "categoryCode": "HHA",
    "licenseStatus": "ACTIVE",
    "inService": true,
    "licenseNumber": "550008848",
    "licenseEffectiveDate": "12/06/2024",
    "licenseExpirationDate": "12/05/2025",
    "dataDate": "10/18/2025",
    "capacity": 0,
    "address": "22151 VENTURA BLVD, SUITE 204B",
    "city": "WOODLAND HILLS",
    "zip": "91364",
    "county": "LOS ANGELES",
    "phone": "(818) 970-7850",
    "lat": 34.168869,
    "lng": -118.609893
  },
  {
    "id": "980002393",
    "name": "BLUE STAR HOME HEALTH, INC.",
    "npi": "1508816299",
    "hcaiId": "406196476",
    "businessName": "BLUE STAR HOME HEALTH, INC.",
    "contactEmail": "VENUS@BLUESTARHOMEHEALTHINC.COM",
    "categoryName": "HOME HEALTH AGENCY",
    "categoryCode": "HHA",
    "licenseStatus": "ACTIVE",
    "inService": true,
    "licenseNumber": "980001503",
    "licenseEffectiveDate": "04/09/2025",
    "licenseExpirationDate": "04/08/2026",
    "dataDate": "10/18/2025",
    "capacity": 0,
    "address": "21731 VENTURA BLVD, SUITE 210",
    "city": "WOODLAND HILLS",
    "zip": "91364",
    "county": "LOS ANGELES",
    "phone": "(818) 772-7600",
    "lat": 34.16878999,
    "lng": -118.601581
  },
  {
    "id": "630018363",
    "name": "BRIGHT FUTURE HOME HEALTH, INC.",
    "npi": null,
    "hcaiId": "406192121",
    "businessName": "BRIGHT FUTURE HOME HEALTH, INC",
    "contactEmail": "BRIGHTFUTUREHOMEHEALTH@GMAIL.COM",
    "categoryName": "HOME HEALTH AGENCY",
    "categoryCode": "HHA",
    "licenseStatus": "ACTIVE",
    "inService": true,
    "licenseNumber": "550005154",
    "licenseEffectiveDate": "10/22/2025",
    "licenseExpirationDate": "10/21/2026",
    "dataDate": "10/18/2025",
    "capacity": 0,
    "address": "22151 VENTURA BLVD, SUITE 202",
    "city": "WOODLAND HILLS",
    "zip": "91364",
    "county": "LOS ANGELES",
    "phone": "(818) 914-4416",
    "lat": 34.16896299,
    "lng": -118.609892
  },
  {
    "id": "630023396",
    "name": "CA CHOICE HOME HEALTH CARE",
    "npi": null,
    "hcaiId": "406195477",
    "businessName": "CA CHOICE HOME HEALTH CARE",
    "contactEmail": "CACHOICE.HOMEHEALTH@GMAIL.COM",
    "categoryName": "HOME HEALTH AGENCY",
    "categoryCode": "HHA",
    "licenseStatus": "ACTIVE",
    "inService": true,
    "licenseNumber": "550007878",
    "licenseEffectiveDate": "03/08/2025",
    "licenseExpirationDate": "03/07/2026",
    "dataDate": "10/18/2025",
    "capacity": 0,
    "address": "19737 VENTURA BLVD, UNIT 300A",
    "city": "WOODLAND HILLS",
    "zip": "91364",
    "county": "LOS ANGELES",
    "phone": "(747) 302-2001",
    "lat": 34.172784,
    "lng": -118.563579
  },
  {
    "id": "630017471",
    "name": "CALABASAS CARE HOSPICE INC.",
    "npi": null,
    "hcaiId": "406192530",
    "businessName": "CALABASAS CARE HOSPICE INC.",
    "contactEmail": "FREDETTY@GMAIL.COM",
    "categoryName": "HOSPICE",
    "categoryCode": "HOSPICE",
    "licenseStatus": "ACTIVE",
    "inService": true,
    "licenseNumber": "550005398",
    "licenseEffectiveDate": "03/19/2024",
    "licenseExpirationDate": "03/18/2026",
    "dataDate": "10/18/2025",
    "capacity": 0,
    "address": "22949 VENTURA BLVD, SUITE F",
    "city": "WOODLAND HILLS",
    "zip": "91364",
    "county": "LOS ANGELES",
    "phone": "(818) 914-4981",
    "lat": 34.165233,
    "lng": -118.6268085
  },
  {
    "id": "630019793",
    "name": "CITY OF ANGELS HOME HEALTH, INC.",
    "npi": null,
    "hcaiId": "406194790",
    "businessName": "CITY OF ANGELS HOME HEALTH, INC.",
    "contactEmail": "COAHHC@GMAIL.COM",
    "categoryName": "HOME HEALTH AGENCY",
    "categoryCode": "HHA",
    "licenseStatus": "ACTIVE",
    "inService": true,
    "licenseNumber": "550006425",
    "licenseEffectiveDate": "11/18/2024",
    "licenseExpirationDate": "11/17/2025",
    "dataDate": "10/18/2025",
    "capacity": 0,
    "address": "22141 VENTURA BLVD, SUITE 207",
    "city": "WOODLAND HILLS",
    "zip": "91364",
    "county": "LOS ANGELES",
    "phone": "(818) 914-5861",
    "lat": 34.168851,
    "lng": -118.6095825
  },
  {
    "id": "630018559",
    "name": "COMFORT AT HOME",
    "npi": "1720552748",
    "hcaiId": "406192235",
    "businessName": "COMFORT AT HOME",
    "contactEmail": "ZHANNA@COMFORTATHOME.ORG",
    "categoryName": "HOME HEALTH AGENCY",
    "categoryCode": "HHA",
    "licenseStatus": "ACTIVE",
    "inService": true,
    "licenseNumber": "550004821",
    "licenseEffectiveDate": "08/14/2025",
    "licenseExpirationDate": "07/28/2026",
    "dataDate": "10/18/2025",
    "capacity": 0,
    "address": "21146 VENTURA BLVD, SUITE 1",
    "city": "WOODLAND HILLS",
    "zip": "91364",
    "county": "LOS ANGELES",
    "phone": "(818) 854-6650",
    "lat": 34.16692598,
    "lng": -118.594312
  },
  {
    "id": "630022403",
    "name": "COMMONWEALTH HOME HEALTH CARE, INC",
    "npi": null,
    "hcaiId": "406195794",
    "businessName": "COMMONWEALTH HOME HEALTH CARE, INC",
    "contactEmail": "COMMONWEALTHHHC@GMAIL.COM",
    "categoryName": "HOME HEALTH AGENCY",
    "categoryCode": "HHA",
    "licenseStatus": "ACTIVE",
    "inService": true,
    "licenseNumber": "550007824",
    "licenseEffectiveDate": "01/21/2025",
    "licenseExpirationDate": "01/20/2026",
    "dataDate": "10/18/2025",
    "capacity": 0,
    "address": "22025 VENTURA BLVD, SUITE 305",
    "city": "WOODLAND HILLS",
    "zip": "91364",
    "county": "LOS ANGELES",
    "phone": "(818) 456-4899",
    "lat": 34.168923,
    "lng": -118.606761
  },
  {
    "id": "630025743",
    "name": "COMMUNITY HOME HEALTH AGENCY",
    "npi": null,
    "hcaiId": null,
    "businessName": "COMMUNITY HOME HEALTH AGENCY",
    "contactEmail": "COMMUNITYHHA@GMAIL.COM",
    "categoryName": "HOME HEALTH AGENCY",
    "categoryCode": "HHA",
    "licenseStatus": "ACTIVE",
    "inService": true,
    "licenseNumber": "550009295",
    "licenseEffectiveDate": "08/07/2025",
    "licenseExpirationDate": "08/06/2026",
    "dataDate": "10/18/2025",
    "capacity": 0,
    "address": "19737 VENTURA BLVD, SUITE 305",
    "city": "WOODLAND HILLS",
    "zip": "91364",
    "county": "LOS ANGELES",
    "phone": "(408) 458-7356",
    "lat": 34.172784,
    "lng": -118.563579
  },
  {
    "id": "630023119",
    "name": "CURATIO HOME HEALTH",
    "npi": null,
    "hcaiId": "406193994",
    "businessName": "CURATIO HOME HEALTH",
    "contactEmail": "CURATIOHOMEHEALTH@GMAIL.COM",
    "categoryName": "HOME HEALTH AGENCY",
    "categoryCode": "HHA",
    "licenseStatus": "ACTIVE",
    "inService": true,
    "licenseNumber": "550007751",
    "licenseEffectiveDate": "01/05/2025",
    "licenseExpirationDate": "01/04/2026",
    "dataDate": "10/18/2025",
    "capacity": 0,
    "address": "5311 TOPANGA CANYON BLVD, SUITE 210",
    "city": "WOODLAND HILLS",
    "zip": "91364",
    "county": "LOS ANGELES",
    "phone": "(805) 585-7854",
    "lat": 34.166358,
    "lng": -118.606131
  },
  {
    "id": "630018978",
    "name": "CUTTING EDGE SURGICAL INSTITUTE INC",
    "npi": "1720483662",
    "hcaiId": null,
    "businessName": null,
    "contactEmail": null,
    "categoryName": "SURGICAL CLINIC",
    "categoryCode": "ASC",
    "licenseStatus": null,
    "inService": null,
    "licenseNumber": null,
    "licenseEffectiveDate": null,
    "licenseExpirationDate": null,
    "dataDate": "10/18/2025",
    "capacity": 0,
    "address": "23164 VENTURA BLVD",
    "city": "WOODLAND HILLS",
    "zip": "91364",
    "county": "LOS ANGELES",
    "phone": null,
    "lat": 34.16256,
    "lng": -118.630377
  },
  {
    "id": "630019043",
    "name": "DELANO HOME HEALTH CARE, INC.",
    "npi": "1710542642",
    "hcaiId": "406195557",
    "businessName": "DELANO HOME HEALTH CARE, INC.",
    "contactEmail": "CAREDELANO57@GMAIL.COM",
    "categoryName": "HOME HEALTH AGENCY",
    "categoryCode": "HHA",
    "licenseStatus": "ACTIVE",
    "inService": true,
    "licenseNumber": "550005550",
    "licenseEffectiveDate": "06/30/2025",
    "licenseExpirationDate": "06/29/2026",
    "dataDate": "10/18/2025",
    "capacity": 0,
    "address": "20501 VENTURA BLVD, SUITE 280",
    "city": "WOODLAND HILLS",
    "zip": "91364",
    "county": "LOS ANGELES",
    "phone": "(818) 835-9756",
    "lat": 34.168284,
    "lng": -118.57932
  },
  {
    "id": "630019212",
    "name": "DEMETRA HOME HEALTH CARE, INC",
    "npi": "1861034407",
    "hcaiId": "406192809",
    "businessName": "DEMETRA HOME HEALTH CARE, INC",
    "contactEmail": "DEMETRAHOMECARE@YAHOO.COM",
    "categoryName": "HOME HEALTH AGENCY",
    "categoryCode": "HHA",
    "licenseStatus": "ACTIVE",
    "inService": true,
    "licenseNumber": "550005658",
    "licenseEffectiveDate": "07/29/2025",
    "licenseExpirationDate": "07/28/2026",
    "dataDate": "10/18/2025",
    "capacity": 0,
    "address": "22543 VENTURA BLVD, SUITE 227",
    "city": "WOODLAND HILLS",
    "zip": "91364",
    "county": "LOS ANGELES",
    "phone": "(818) 855-9350",
    "lat": 34.167879,
    "lng": -118.6181055
  },
  {
    "id": "630025081",
    "name": "DIVINE TOUCH HOME HEALTH CARE, INC.",
    "npi": null,
    "hcaiId": "406196385",
    "businessName": "DIVINE TOUCH HOME HEALTH CARE, INC.",
    "contactEmail": "HHCDIVINETOUCH@GMAIL.COM",
    "categoryName": "HOME HEALTH AGENCY",
    "categoryCode": "HHA",
    "licenseStatus": "ACTIVE",
    "inService": true,
    "licenseNumber": "550008468",
    "licenseEffectiveDate": "02/20/2025",
    "licenseExpirationDate": "02/19/2026",
    "dataDate": "10/18/2025",
    "capacity": 0,
    "address": "5311 TOPANGA CANYON BLVD, UNIT 214",
    "city": "WOODLAND HILLS",
    "zip": "91364",
    "county": "LOS ANGELES",
    "phone": "(818) 626-3335",
    "lat": 34.166358,
    "lng": -118.606131
  },
  {
    "id": "630024721",
    "name": "DRIVEN HOME HEALTH, INC.",
    "npi": null,
    "hcaiId": "406195632",
    "businessName": "DRIVEN HOME HEALTH, INC.",
    "contactEmail": "DRIVENHOMEHEALTH@GMAIL.COM",
    "categoryName": "HOME HEALTH AGENCY",
    "categoryCode": "HHA",
    "licenseStatus": "ACTIVE",
    "inService": true,
    "licenseNumber": "550008189",
    "licenseEffectiveDate": "10/14/2023",
    "licenseExpirationDate": "10/13/2024",
    "dataDate": "10/18/2025",
    "capacity": 0,
    "address": "5311 TOPANGA CANYON BLVD, 219",
    "city": "WOODLAND HILLS",
    "zip": "91364",
    "county": "LOS ANGELES",
    "phone": "(800) 484-4238",
    "lat": 34.166358,
    "lng": -118.606131
  },
  {
    "id": "630011923",
    "name": "DYNAMIC HOME HEALTH",
    "npi": "1508049297",
    "hcaiId": "406197313",
    "businessName": "EXCEED HOME HEALTH, INC.",
    "contactEmail": "MKT8000@GMAIL.COM",
    "categoryName": "HOME HEALTH AGENCY",
    "categoryCode": "HHA",
    "licenseStatus": "ACTIVE",
    "inService": true,
    "licenseNumber": "550001077",
    "licenseEffectiveDate": "07/17/2025",
    "licenseExpirationDate": "07/16/2026",
    "dataDate": "10/18/2025",
    "capacity": 0,
    "address": "20121 VENTURA BLVD, SUITE 317",
    "city": "WOODLAND HILLS",
    "zip": "91364",
    "county": "LOS ANGELES",
    "phone": "(818) 854-6365",
    "lat": 34.170939,
    "lng": -118.572174
  },
  {
    "id": "630021199",
    "name": "ELI HOME HEALTH, INC",
    "npi": null,
    "hcaiId": "406195713",
    "businessName": "ELI HOME HEALTH, INC",
    "contactEmail": "ELIHOMEHEALTH@GMAIL.COM",
    "categoryName": "HOME HEALTH AGENCY",
    "categoryCode": "HHA",
    "licenseStatus": "ACTIVE",
    "inService": true,
    "licenseNumber": "550007680",
    "licenseEffectiveDate": "11/24/2025",
    "licenseExpirationDate": "11/23/2026",
    "dataDate": "10/18/2025",
    "capacity": 0,
    "address": "20812 VENTURA BLVD, SUITE 215",
    "city": "WOODLAND HILLS",
    "zip": "91364",
    "county": "LOS ANGELES",
    "phone": "(818) 456-4578",
    "lat": 34.165916,
    "lng": -118.58647
  },
  {
    "id": "630025207",
    "name": "EVERYDAY HOME HEALTH CARE",
    "npi": null,
    "hcaiId": "406197835",
    "businessName": "EVERYDAY HOME HEALTH CARE",
    "contactEmail": "EVERYDAYHOMEHC@GMAIL.COM",
    "categoryName": "HOME HEALTH AGENCY",
    "categoryCode": "HHA",
    "licenseStatus": "ACTIVE",
    "inService": true,
    "licenseNumber": "550008423",
    "licenseEffectiveDate": "08/06/2025",
    "licenseExpirationDate": "02/21/2026",
    "dataDate": "10/18/2025",
    "capacity": 0,
    "address": "22151 VENTURA BLVD, SUITE 200B",
    "city": "WOODLAND HILLS",
    "zip": "91364",
    "county": "LOS ANGELES",
    "phone": "(747) 799-0029",
    "lat": 34.168869,
    "lng": -118.609893
  },
  {
    "id": "630025474",
    "name": "EXCELLENT HEALTHCARE SERVICES GROUP",
    "npi": null,
    "hcaiId": "406190112",
    "businessName": "EXCELLENT HEALTHCARE SERVICES GROUP",
    "contactEmail": "NAZARYANS@GMAIL.COM",
    "categoryName": "HOME HEALTH AGENCY",
    "categoryCode": "HHA",
    "licenseStatus": "ACTIVE",
    "inService": true,
    "licenseNumber": "550008581",
    "licenseEffectiveDate": "06/08/2025",
    "licenseExpirationDate": "06/07/2026",
    "dataDate": "10/18/2025",
    "capacity": 0,
    "address": "5311 TOPANGA CANYON BLVD, SUITE 207",
    "city": "WOODLAND HILLS",
    "zip": "91364",
    "county": "LOS ANGELES",
    "phone": "(818) 798-3377",
    "lat": 34.166358,
    "lng": -118.606131
  },
  {
    "id": "630023079",
    "name": "EXCELLENT HOME CARE INC",
    "npi": null,
    "hcaiId": "406195773",
    "businessName": "EXCELLENT HOME CARE INC.",
    "contactEmail": "EXCELLENTHOMECARE.INC@GMAIL.COM",
    "categoryName": "HOME HEALTH AGENCY",
    "categoryCode": "HHA",
    "licenseStatus": "ACTIVE",
    "inService": true,
    "licenseNumber": "550007798",
    "licenseEffectiveDate": "01/21/2025",
    "licenseExpirationDate": "01/20/2026",
    "dataDate": "10/18/2025",
    "capacity": 0,
    "address": "5311 TOPANGA CANYON BLVD, SUITE 205",
    "city": "WOODLAND HILLS",
    "zip": "91364",
    "county": "LOS ANGELES",
    "phone": "(818) 697-4244",
    "lat": 34.166358,
    "lng": -118.606131
  },
  {
    "id": "930001777",
    "name": "FMC DIALYSIS SERVICES OF WOODLAND HILLS",
    "npi": "1780796581",
    "hcaiId": "306196431",
    "businessName": "BIO-MEDICAL APPLICATIONS OF CALIFORNIA, INC.",
    "contactEmail": "CLINIC3103@FMC-NA.COM",
    "categoryName": "CHRONIC DIALYSIS CLINIC",
    "categoryCode": "ESRD/CDC",
    "licenseStatus": "ACTIVE",
    "inService": true,
    "licenseNumber": "930000992",
    "licenseEffectiveDate": "04/24/2025",
    "licenseExpirationDate": "04/23/2026",
    "dataDate": "10/18/2025",
    "capacity": 21,
    "address": "19836 VENTURA BLVD, SUITE C",
    "city": "WOODLAND HILLS",
    "zip": "91364",
    "county": "LOS ANGELES",
    "phone": "(818) 713-9040",
    "lat": 34.172118,
    "lng": -118.565361
  },
  {
    "id": "630020347",
    "name": "FRIENDSHIP HOSPICE INC.",
    "npi": null,
    "hcaiId": "406193000",
    "businessName": "FRIENDSHIP HOSPICE INC.",
    "contactEmail": "FRIENDSHIPHOSPICE@GMAIL.COM",
    "categoryName": "HOSPICE",
    "categoryCode": "HOSPICE",
    "licenseStatus": "ACTIVE",
    "inService": true,
    "licenseNumber": "550005879",
    "licenseEffectiveDate": "12/05/2024",
    "licenseExpirationDate": "12/04/2026",
    "dataDate": "10/18/2025",
    "capacity": 0,
    "address": "20121 VENTURA BLVD, SUITE 314",
    "city": "WOODLAND HILLS",
    "zip": "91364",
    "county": "LOS ANGELES",
    "phone": "(818) 912-6365",
    "lat": 34.170939,
    "lng": -118.572174
  },
  {
    "id": "630027166",
    "name": "G & A HOME HEALTH, INC.",
    "npi": null,
    "hcaiId": null,
    "businessName": "G & A HOME HEALTH, INC.",
    "contactEmail": "4GANDAHOMEHEALTH@GMAIL.COM",
    "categoryName": "HOME HEALTH AGENCY",
    "categoryCode": "HHA",
    "licenseStatus": "ACTIVE",
    "inService": true,
    "licenseNumber": "550009643",
    "licenseEffectiveDate": "08/17/2025",
    "licenseExpirationDate": "02/16/2026",
    "dataDate": "10/18/2025",
    "capacity": 0,
    "address": "5311 TOPANGA CANYON BLVD, SUITE 220",
    "city": "WOODLAND HILLS",
    "zip": "91364",
    "county": "LOS ANGELES",
    "phone": "(818) 796-5888",
    "lat": 34.16631699,
    "lng": -118.606276
  },
  {
    "id": "630026841",
    "name": "GALAXI HOME HEALTH CARE",
    "npi": null,
    "hcaiId": null,
    "businessName": "GALAXI HOME HEALTH CARE",
    "contactEmail": "GALAXIHHC202@GMAIL.COM",
    "categoryName": "HOME HEALTH AGENCY",
    "categoryCode": "HHA",
    "licenseStatus": "ACTIVE",
    "inService": true,
    "licenseNumber": "550009333",
    "licenseEffectiveDate": "08/26/2025",
    "licenseExpirationDate": "08/25/2026",
    "dataDate": "10/18/2025",
    "capacity": 0,
    "address": "5311 TOPANGA CANYON BLVD, SUITE 202A",
    "city": "WOODLAND HILLS",
    "zip": "91364",
    "county": "LOS ANGELES",
    "phone": "(310) 666-6692",
    "lat": 34.166358,
    "lng": -118.606131
  },
  {
    "id": "630011424",
    "name": "GENTLE CARE HOME HEALTH SERVICES, INC.",
    "npi": "1730386350",
    "hcaiId": "406197233",
    "businessName": "GENTLE CARE HOME HEALTH SERVICES, INC.",
    "contactEmail": "GENTLECAREHOMEHEALTHSERVICES@YAHOO.COM",
    "categoryName": "HOME HEALTH AGENCY",
    "categoryCode": "HHA",
    "licenseStatus": "ACTIVE",
    "inService": true,
    "licenseNumber": "550001015",
    "licenseEffectiveDate": "11/24/2025",
    "licenseExpirationDate": "11/23/2026",
    "dataDate": "10/18/2025",
    "capacity": 0,
    "address": "23133 VENTURA BLVD, SUITE 201",
    "city": "WOODLAND HILLS",
    "zip": "91364",
    "county": "LOS ANGELES",
    "phone": "(818) 835-9403",
    "lat": 34.163388,
    "lng": -118.630017
  },
  {
    "id": "630020248",
    "name": "GENTLE CARE SERVICES HOSPICE, INC.",
    "npi": null,
    "hcaiId": "406196175",
    "businessName": "GENTLE CARE SERVICES HOSPICE, INC",
    "contactEmail": "GENTLECARESERVICE@YAHOO.COM",
    "categoryName": "HOSPICE",
    "categoryCode": "HOSPICE",
    "licenseStatus": "ACTIVE",
    "inService": true,
    "licenseNumber": "550006132",
    "licenseEffectiveDate": "03/12/2025",
    "licenseExpirationDate": "03/11/2027",
    "dataDate": "10/18/2025",
    "capacity": 0,
    "address": "19737 VENTURA BLVD, SUITE 301-D",
    "city": "WOODLAND HILLS",
    "zip": "91364",
    "county": "LOS ANGELES",
    "phone": "(747) 230-5540",
    "lat": 34.172784,
    "lng": -118.563579
  },
  {
    "id": "630026152",
    "name": "GENTLE WELL HOME HEALTH, INC.",
    "npi": null,
    "hcaiId": null,
    "businessName": "GENTLE WELL HOME HEALTH, INC.",
    "contactEmail": "GENTLEWELLHH@YAHOO.COM",
    "categoryName": "HOME HEALTH AGENCY",
    "categoryCode": "HHA",
    "licenseStatus": "ACTIVE",
    "inService": true,
    "licenseNumber": "550009113",
    "licenseEffectiveDate": "05/02/2025",
    "licenseExpirationDate": "05/01/2026",
    "dataDate": "10/18/2025",
    "capacity": 0,
    "address": "20301 VENTURA BLVD, SUITE 336",
    "city": "WOODLAND HILLS",
    "zip": "91364",
    "county": "LOS ANGELES",
    "phone": "(747) 888-3087",
    "lat": 34.16976,
    "lng": -118.5750945
  },
  {
    "id": "630010979",
    "name": "GIBRALTAR HOME HEALTH SERVICES LLC",
    "npi": "1215014956",
    "hcaiId": "406564172",
    "businessName": "GIBRALTAR HOME HEALTH SERVICES LLC",
    "contactEmail": "INFO@GIBRALTARHEALTHCARE.COM",
    "categoryName": "HOME HEALTH AGENCY",
    "categoryCode": "HHA",
    "licenseStatus": "ACTIVE",
    "inService": true,
    "licenseNumber": "550000587",
    "licenseEffectiveDate": "11/17/2025",
    "licenseExpirationDate": "11/16/2026",
    "dataDate": "10/18/2025",
    "capacity": 0,
    "address": "22141 VENTURA BLVD, SUITE 300",
    "city": "WOODLAND HILLS",
    "zip": "91364",
    "county": "LOS ANGELES",
    "phone": "(818) 880-8600",
    "lat": 34.168851,
    "lng": -118.6095825
  },
  {
    "id": "630013555",
    "name": "GIBRALTAR HOSPICE INC.",
    "npi": "1720353535",
    "hcaiId": "406198341",
    "businessName": "GIBRALTAR HOSPICE INC",
    "contactEmail": "INFO@GIBRALTARHOSPICE.COM",
    "categoryName": "HOSPICE",
    "categoryCode": "HOSPICE",
    "licenseStatus": "ACTIVE",
    "inService": true,
    "licenseNumber": "550001990",
    "licenseEffectiveDate": "11/03/2024",
    "licenseExpirationDate": "11/02/2026",
    "dataDate": "10/18/2025",
    "capacity": 0,
    "address": "22141 VENTURA BLVD, SUITE 301",
    "city": "WOODLAND HILLS",
    "zip": "91364",
    "county": "LOS ANGELES",
    "phone": "(818) 880-5500",
    "lat": 34.168851,
    "lng": -118.6095825
  },
  {
    "id": "630019251",
    "name": "GOLDEN AGE HOSPICE CARE, INC.",
    "npi": "1366090466",
    "hcaiId": "406192729",
    "businessName": "GOLDEN AGE HOSPICE CARE, INC.",
    "contactEmail": "GOLDENAGEHOSPICECARE@GMAIL.COM",
    "categoryName": "HOSPICE",
    "categoryCode": "HOSPICE",
    "licenseStatus": "ACTIVE",
    "inService": true,
    "licenseNumber": "550005513",
    "licenseEffectiveDate": "05/28/2024",
    "licenseExpirationDate": "05/27/2026",
    "dataDate": "10/18/2025",
    "capacity": 0,
    "address": "5311 TOPANGA CANYON BLVD, SUITE 305",
    "city": "WOODLAND HILLS",
    "zip": "91364",
    "county": "LOS ANGELES",
    "phone": "(818) 533-2340",
    "lat": 34.166358,
    "lng": -118.606131
  },
  {
    "id": "630018466",
    "name": "GOLDEN HEALTH HOME CARE, INC",
    "npi": "1013487057",
    "hcaiId": "406191713",
    "businessName": "GOLDEN HEALTH HOME CARE, INC",
    "contactEmail": "GOLDENHHCI@GMAIL.COM",
    "categoryName": "HOME HEALTH AGENCY",
    "categoryCode": "HHA",
    "licenseStatus": "ACTIVE",
    "inService": true,
    "licenseNumber": "550004735",
    "licenseEffectiveDate": "06/11/2025",
    "licenseExpirationDate": "06/10/2026",
    "dataDate": "10/18/2025",
    "capacity": 0,
    "address": "5311 TOPANGA CANYON BLVD, SUITE 304",
    "city": "WOODLAND HILLS",
    "zip": "91364",
    "county": "LOS ANGELES",
    "phone": "(626) 873-1170",
    "lat": 34.166358,
    "lng": -118.606131
  },
  {
    "id": "630026908",
    "name": "GOOD CARE HOME HEALTH LLC",
    "npi": null,
    "hcaiId": null,
    "businessName": "GOOD CARE HOME HEALTH LLC",
    "contactEmail": "GOODCAREHH@GMAIL.COM",
    "categoryName": "HOME HEALTH AGENCY",
    "categoryCode": "HHA",
    "licenseStatus": "ACTIVE",
    "inService": true,
    "licenseNumber": "550009475",
    "licenseEffectiveDate": "04/08/2025",
    "licenseExpirationDate": "10/07/2025",
    "dataDate": "10/18/2025",
    "capacity": 0,
    "address": "20300 VENTURA BLVD, SUITE 230",
    "city": "WOODLAND HILLS",
    "zip": "91364",
    "county": "LOS ANGELES",
    "phone": "(800) 482-8552",
    "lat": 34.169121,
    "lng": -118.5753105
  },
  {
    "id": "630021657",
    "name": "GRACE AND COMFORT HOSPICE CARE",
    "npi": null,
    "hcaiId": null,
    "businessName": "GRACE AND COMFORT HOSPICE CARE",
    "contactEmail": "GRACEANDCOMFORTHOSPICE@GMAIL.COM",
    "categoryName": "HOSPICE",
    "categoryCode": "HOSPICE",
    "licenseStatus": "ACTIVE",
    "inService": true,
    "licenseNumber": "550007640",
    "licenseEffectiveDate": "12/18/2023",
    "licenseExpirationDate": "12/17/2025",
    "dataDate": "10/18/2025",
    "capacity": 0,
    "address": "4869 TOPANGA CANYON BLVD, SUITE 10",
    "city": "WOODLAND HILLS",
    "zip": "91364",
    "county": "LOS ANGELES",
    "phone": "(818) 334-7060",
    "lat": 34.156386,
    "lng": -118.60614
  },
  {
    "id": "630021938",
    "name": "H&A HOME HEALTH CARE, INC.",
    "npi": null,
    "hcaiId": "406195255",
    "businessName": "H&A HOME HEALTH CARE, INC.",
    "contactEmail": "H_AHOMEHEALTHCARE@YAHOO.COM",
    "categoryName": "HOME HEALTH AGENCY",
    "categoryCode": "HHA",
    "licenseStatus": "ACTIVE",
    "inService": true,
    "licenseNumber": "550007369",
    "licenseEffectiveDate": "12/01/2024",
    "licenseExpirationDate": "11/30/2025",
    "dataDate": "10/18/2025",
    "capacity": 0,
    "address": "21241 VENTURA BLVD, SUITE 254",
    "city": "WOODLAND HILLS",
    "zip": "91364",
    "county": "LOS ANGELES",
    "phone": "(818) 564-4170",
    "lat": 34.167798,
    "lng": -118.5950565
  },
  {
    "id": "630026633",
    "name": "HAMSA HOME HEALTH INC",
    "npi": null,
    "hcaiId": null,
    "businessName": "HAMSA HOME HEALTH INC",
    "contactEmail": "HAMSAHOMEHEALTH@GMAIL.COM",
    "categoryName": "HOME HEALTH AGENCY",
    "categoryCode": "HHA",
    "licenseStatus": "ACTIVE",
    "inService": true,
    "licenseNumber": "550009495",
    "licenseEffectiveDate": "05/11/2025",
    "licenseExpirationDate": "11/10/2025",
    "dataDate": "10/18/2025",
    "capacity": 0,
    "address": "22543 VENTURA BLVD, SUITE 210",
    "city": "WOODLAND HILLS",
    "zip": "91364",
    "county": "LOS ANGELES",
    "phone": "(747) 204-3727",
    "lat": 34.167879,
    "lng": -118.6181055
  },
  {
    "id": "630019206",
    "name": "HAPPY CARING HOME HEALTH CARE, INC.",
    "npi": null,
    "hcaiId": "406193115",
    "businessName": "HAPPY CARING HOME HEALTH CARE INC.",
    "contactEmail": "HAPPYCARINGHHC@GMAIL.COM",
    "categoryName": "HOME HEALTH AGENCY",
    "categoryCode": "HHA",
    "licenseStatus": "ACTIVE",
    "inService": true,
    "licenseNumber": "550005958",
    "licenseEffectiveDate": "09/19/2025",
    "licenseExpirationDate": "09/18/2026",
    "dataDate": "10/18/2025",
    "capacity": 0,
    "address": "5311 TOPANGA CANYON BLVD, SUITE 223",
    "city": "WOODLAND HILLS",
    "zip": "91364",
    "county": "LOS ANGELES",
    "phone": "(818) 961-7071",
    "lat": 34.16631699,
    "lng": -118.606276
  },
  {
    "id": "630026159",
    "name": "HEALING QUEST HEALTH SERVICES, INC.",
    "npi": null,
    "hcaiId": "406190227",
    "businessName": "HEALING QUEST HEALTH SERVICES, INC.",
    "contactEmail": "HEALINGQUESTHS@YAHOO.COM",
    "categoryName": "HOME HEALTH AGENCY",
    "categoryCode": "HHA",
    "licenseStatus": "ACTIVE",
    "inService": true,
    "licenseNumber": "550008953",
    "licenseEffectiveDate": "02/22/2025",
    "licenseExpirationDate": "02/21/2026",
    "dataDate": "10/18/2025",
    "capacity": 0,
    "address": "20301 VENTURA BLVD, SUITE 336A",
    "city": "WOODLAND HILLS",
    "zip": "91364",
    "county": "LOS ANGELES",
    "phone": "(747) 888-3093",
    "lat": 34.16976,
    "lng": -118.5750945
  },
  {
    "id": "630024913",
    "name": "HILLSIDE HOME HEALTH, INC",
    "npi": null,
    "hcaiId": "406195997",
    "businessName": "HILLSIDE HOME HEALTH, INC",
    "contactEmail": "HILLSIDEHOMEH@GMAIL.COM",
    "categoryName": "HOME HEALTH AGENCY",
    "categoryCode": "HHA",
    "licenseStatus": "ACTIVE",
    "inService": true,
    "licenseNumber": "550008377",
    "licenseEffectiveDate": "01/16/2025",
    "licenseExpirationDate": "01/15/2026",
    "dataDate": "10/18/2025",
    "capacity": 0,
    "address": "20969 VENTURA BLVD, SUITE 213",
    "city": "WOODLAND HILLS",
    "zip": "91364",
    "county": "LOS ANGELES",
    "phone": "(818) 813-8905",
    "lat": 34.166763,
    "lng": -118.590093
  },
  {
    "id": "630026022",
    "name": "HOMESIDE HOME HEALTH CARE",
    "npi": null,
    "hcaiId": null,
    "businessName": "HOMESIDE HOME HEALTH CARE",
    "contactEmail": "HOMESIDEHOMEHEALTH@YAHOO.COM",
    "categoryName": "HOME HEALTH AGENCY",
    "categoryCode": "HHA",
    "licenseStatus": "ACTIVE",
    "inService": true,
    "licenseNumber": "550009428",
    "licenseEffectiveDate": "04/10/2025",
    "licenseExpirationDate": "10/09/2025",
    "dataDate": "10/18/2025",
    "capacity": 0,
    "address": "21208 COSTANSO ST, SUITE 3",
    "city": "WOODLAND HILLS",
    "zip": "91364",
    "county": "LOS ANGELES",
    "phone": "(818) 805-0330",
    "lat": 34.166295,
    "lng": -118.595097
  },
  {
    "id": "630020942",
    "name": "IMED HOSPICE",
    "npi": null,
    "hcaiId": "406193846",
    "businessName": "IMED HOSPICE",
    "contactEmail": "IMEDHOSPICE@GMAIL.COM",
    "categoryName": "HOSPICE",
    "categoryCode": "HOSPICE",
    "licenseStatus": "ACTIVE",
    "inService": true,
    "licenseNumber": "550007370",
    "licenseEffectiveDate": "12/02/2023",
    "licenseExpirationDate": "12/01/2025",
    "dataDate": "10/18/2025",
    "capacity": 0,
    "address": "22543 VENTURA BLVD, SUITE 223",
    "city": "WOODLAND HILLS",
    "zip": "91364",
    "county": "LOS ANGELES",
    "phone": "(888) 886-6461",
    "lat": 34.167879,
    "lng": -118.6181055
  },
  {
    "id": "630010741",
    "name": "INFINITE HOME HEALTH, INC.",
    "npi": "1548441645",
    "hcaiId": "406196793",
    "businessName": "INFINITE HOME HEALTH INC",
    "contactEmail": "REZA@INFINITEHHA.COM",
    "categoryName": "HOME HEALTH AGENCY",
    "categoryCode": "HHA",
    "licenseStatus": "ACTIVE",
    "inService": true,
    "licenseNumber": "550000241",
    "licenseEffectiveDate": "06/24/2025",
    "licenseExpirationDate": "06/23/2026",
    "dataDate": "10/18/2025",
    "capacity": 0,
    "address": "22151 VENTURA BLVD, SUITE 201",
    "city": "WOODLAND HILLS",
    "zip": "91364",
    "county": "LOS ANGELES",
    "phone": "(818) 888-7772",
    "lat": 34.168869,
    "lng": -118.609893
  },
  {
    "id": "630019431",
    "name": "LAKESHORE HOSPICE INC",
    "npi": "1336782481",
    "hcaiId": "406192252",
    "businessName": "LAKESHORE HOSPICE INC",
    "contactEmail": "LAKESHOREHOSPICEINC@GMAIL.COM",
    "categoryName": "HOSPICE",
    "categoryCode": "HOSPICE",
    "licenseStatus": "ACTIVE",
    "inService": true,
    "licenseNumber": "550005257",
    "licenseEffectiveDate": "11/10/2022",
    "licenseExpirationDate": "01/27/2024",
    "dataDate": "10/18/2025",
    "capacity": 0,
    "address": "20700 VENTURA BLVD, SUITE 327",
    "city": "WOODLAND HILLS",
    "zip": "91364",
    "county": "LOS ANGELES",
    "phone": "(626) 415-0105",
    "lat": 34.166556,
    "lng": -118.5843465
  },
  {
    "id": "630019075",
    "name": "LIFESTAR HOME HEALTH CARE, INC.",
    "npi": null,
    "hcaiId": "406192709",
    "businessName": "LIFESTAR HOME HEALTH CARE, INC.",
    "contactEmail": "INFO@LIFESTARCARE.COM",
    "categoryName": "HOME HEALTH AGENCY",
    "categoryCode": "HHA",
    "licenseStatus": "ACTIVE",
    "inService": true,
    "licenseNumber": "550005578",
    "licenseEffectiveDate": "07/01/2025",
    "licenseExpirationDate": "06/30/2026",
    "dataDate": "10/18/2025",
    "capacity": 0,
    "address": "20501 VENTURA BLVD, SUITE 217",
    "city": "WOODLAND HILLS",
    "zip": "91364",
    "county": "LOS ANGELES",
    "phone": "(800) 607-6077",
    "lat": 34.16829001,
    "lng": -118.579884
  },
  {
    "id": "630023083",
    "name": "LIVING TREE HOME HEALTH",
    "npi": null,
    "hcaiId": "406195471",
    "businessName": "LIVING TREE HOME HEALTH",
    "contactEmail": "LIVINGTREEHOMEHEALTH@GMAIL.COM",
    "categoryName": "HOME HEALTH AGENCY",
    "categoryCode": "HHA",
    "licenseStatus": "ACTIVE",
    "inService": true,
    "licenseNumber": "550007887",
    "licenseEffectiveDate": "03/08/2025",
    "licenseExpirationDate": "03/07/2026",
    "dataDate": "10/18/2025",
    "capacity": 0,
    "address": "5311 TOPANGA CANYON BLVD, SUITE 212",
    "city": "WOODLAND HILLS",
    "zip": "91364",
    "county": "LOS ANGELES",
    "phone": "(805) 728-5365",
    "lat": 34.166358,
    "lng": -118.606131
  },
  {
    "id": "630018633",
    "name": "LIVLIFE HOME HEALTH, INC.",
    "npi": "1265094163",
    "hcaiId": "406191850",
    "businessName": "LIVLIFE HOME HEALTH, INC.",
    "contactEmail": "LIVLIFEHOMEHEALTHCARE@GMAIL.COM",
    "categoryName": "HOME HEALTH AGENCY",
    "categoryCode": "HHA",
    "licenseStatus": "ACTIVE",
    "inService": true,
    "licenseNumber": "550005037",
    "licenseEffectiveDate": "10/26/2025",
    "licenseExpirationDate": "10/25/2026",
    "dataDate": "10/18/2025",
    "capacity": 0,
    "address": "22151 VENTURA BLVD, SUITE 203",
    "city": "WOODLAND HILLS",
    "zip": "91364",
    "county": "LOS ANGELES",
    "phone": "(818) 812-6505",
    "lat": 34.168869,
    "lng": -118.609893
  },
  {
    "id": "630020510",
    "name": "MED-CARE",
    "npi": null,
    "hcaiId": "406196683",
    "businessName": "CEDARS SINAI HOME HEALTH CARE, INC.",
    "contactEmail": "CEDHHCI@GMAIL.COM",
    "categoryName": "HOSPICE",
    "categoryCode": "HOSPICE",
    "licenseStatus": "ACTIVE",
    "inService": true,
    "licenseNumber": "550006317",
    "licenseEffectiveDate": "05/20/2023",
    "licenseExpirationDate": "05/19/2025",
    "dataDate": "10/18/2025",
    "capacity": 0,
    "address": "4869 TOPANGA CANYON BLVD, SUITE 205",
    "city": "WOODLAND HILLS",
    "zip": "91364",
    "county": "LOS ANGELES",
    "phone": "(310) 430-6429",
    "lat": 34.156386,
    "lng": -118.60614
  },
  {
    "id": "630015739",
    "name": "MEGACARE HOSPICE AND PALLIATIVE CARE, INC.",
    "npi": null,
    "hcaiId": "406198328",
    "businessName": "MEGACARE HOSPICE AND PALLIATIVE CARE, INC",
    "contactEmail": "MEGACAREHSI@GMAIL.COM",
    "categoryName": "HOSPICE",
    "categoryCode": "HOSPICE",
    "licenseStatus": "ACTIVE",
    "inService": true,
    "licenseNumber": "550003696",
    "licenseEffectiveDate": "10/21/2024",
    "licenseExpirationDate": "10/20/2026",
    "dataDate": "10/18/2025",
    "capacity": 0,
    "address": "21243 VENTURA BLVD, SUITE 245",
    "city": "WOODLAND HILLS",
    "zip": "91364",
    "county": "LOS ANGELES",
    "phone": "(949) 464-4555",
    "lat": 34.167735,
    "lng": -118.594684
  },
  {
    "id": "630025619",
    "name": "MILLENNIUM HEALTH SERVICES",
    "npi": null,
    "hcaiId": null,
    "businessName": "MILLENNIUM HEALTH SERVICES",
    "contactEmail": "ARCHIL.UUFF@GMAIL.COM",
    "categoryName": "HOME HEALTH AGENCY",
    "categoryCode": "HHA",
    "licenseStatus": "ACTIVE",
    "inService": true,
    "licenseNumber": "550008688",
    "licenseEffectiveDate": "08/03/2025",
    "licenseExpirationDate": "08/02/2026",
    "dataDate": "10/18/2025",
    "capacity": 0,
    "address": "22141 VENTURA BLVD, SUITE 305",
    "city": "WOODLAND HILLS",
    "zip": "91364",
    "county": "LOS ANGELES",
    "phone": "(747) 477-4079",
    "lat": 34.168851,
    "lng": -118.6095825
  },
  {
    "id": "630027422",
    "name": "MOMENTUM AGENCIES WOODLAND HILLS HOUSE",
    "npi": "1689395519",
    "hcaiId": null,
    "businessName": "MOMENTUM AGENCIES",
    "contactEmail": "SSADIQ@MOMENTUM4ALL.ORG",
    "categoryName": "INTERMEDIATE CARE FACILITY-DD/H/N/CN/IID",
    "categoryCode": "ICFDDN",
    "licenseStatus": "ACTIVE",
    "inService": true,
    "licenseNumber": "550009447",
    "licenseEffectiveDate": "03/26/2025",
    "licenseExpirationDate": "09/25/2025",
    "dataDate": "10/18/2025",
    "capacity": 6,
    "address": "19745 REDWING ST",
    "city": "WOODLAND HILLS",
    "zip": "91364",
    "county": "LOS ANGELES",
    "phone": "(818) 782-2211",
    "lat": 34.17106098,
    "lng": -118.563877
  },
  {
    "id": "630019870",
    "name": "MONA HOSPICE, INC",
    "npi": null,
    "hcaiId": "406182851",
    "businessName": "MONA HOSPICE, INC",
    "contactEmail": "MONAHOSPICE1@GMAIL.COM",
    "categoryName": "HOSPICE",
    "categoryCode": "HOSPICE",
    "licenseStatus": "ACTIVE",
    "inService": true,
    "licenseNumber": "550005701",
    "licenseEffectiveDate": "08/07/2024",
    "licenseExpirationDate": "08/25/2024",
    "dataDate": "10/18/2025",
    "capacity": 0,
    "address": "21031 VENTURA BLVD, SUITE 307",
    "city": "WOODLAND HILLS",
    "zip": "91364",
    "county": "LOS ANGELES",
    "phone": "(747) 208-9707",
    "lat": 34.16772,
    "lng": -118.591375
  },
  {
    "id": "930000109",
    "name": "MOTION PICTURE & TELEVISION HOSPITAL",
    "npi": null,
    "hcaiId": "106190552",
    "businessName": "MOTION PICTURE AND TELEVISION FUND",
    "contactEmail": "LINDA.HEALY@MPTF.COM",
    "categoryName": "ACUTE PSYCHIATRIC HOSPITAL",
    "categoryCode": "APH",
    "licenseStatus": "ACTIVE",
    "inService": true,
    "licenseNumber": "930000109",
    "licenseEffectiveDate": "11/01/2025",
    "licenseExpirationDate": "10/31/2026",
    "dataDate": "10/18/2025",
    "capacity": 12,
    "address": "23388 MULHOLLAND DR",
    "city": "WOODLAND HILLS",
    "zip": "91364",
    "county": "LOS ANGELES",
    "phone": "(818) 876-1042",
    "lat": 34.156458,
    "lng": -118.6351785
  },
  {
    "id": "930000744",
    "name": "MOTION PICTURE & TELEVISION HOSPITAL D/P SNF",
    "npi": "1336289966",
    "hcaiId": null,
    "businessName": "MOTION PICTURE AND TELEVISION FUND",
    "contactEmail": "SHIRLEY.HEIDERSBACH@MPTF.COM",
    "categoryName": "SKILLED NURSING FACILITY",
    "categoryCode": "SNF",
    "licenseStatus": "ACTIVE",
    "inService": true,
    "licenseNumber": "930000109",
    "licenseEffectiveDate": "11/01/2025",
    "licenseExpirationDate": "10/31/2026",
    "dataDate": "10/18/2025",
    "capacity": 110,
    "address": "23388 MULHOLLAND DR",
    "city": "WOODLAND HILLS",
    "zip": "91364",
    "county": "LOS ANGELES",
    "phone": "(818) 876-1096",
    "lat": 34.156458,
    "lng": -118.6351785
  },
  {
    "id": "630025102",
    "name": "NEXT LEVEL HOME HEALTH INC",
    "npi": null,
    "hcaiId": "406195975",
    "businessName": "NEXT LEVEL HOME HEALTH INC",
    "contactEmail": "NEXTLEVELHOMEHEALTHINC@GMAIL.COM",
    "categoryName": "HOME HEALTH AGENCY",
    "categoryCode": "HHA",
    "licenseStatus": "ACTIVE",
    "inService": true,
    "licenseNumber": "550008298",
    "licenseEffectiveDate": "12/28/2024",
    "licenseExpirationDate": "12/27/2025",
    "dataDate": "10/18/2025",
    "capacity": 0,
    "address": "21243 VENTURA BLVD, SUITE 121",
    "city": "WOODLAND HILLS",
    "zip": "91364",
    "county": "LOS ANGELES",
    "phone": "(747) 444-9244",
    "lat": 34.167798,
    "lng": -118.5950565
  },
  {
    "id": "630016821",
    "name": "OAKS HOME HEALTH",
    "npi": "1750732988",
    "hcaiId": "406195614",
    "businessName": "ELITE HEALTH & WELLNESS INC.",
    "contactEmail": "OAKSHOMEHEALTHCARE@GMAIL.COM",
    "categoryName": "HOME HEALTH AGENCY",
    "categoryCode": "HHA",
    "licenseStatus": "ACTIVE",
    "inService": true,
    "licenseNumber": "550004040",
    "licenseEffectiveDate": "12/06/2024",
    "licenseExpirationDate": "12/05/2025",
    "dataDate": "10/18/2025",
    "capacity": 0,
    "address": "22949 VENTURA BLVD, SUITE E",
    "city": "WOODLAND HILLS",
    "zip": "91364",
    "county": "LOS ANGELES",
    "phone": "(818) 397-0440",
    "lat": 34.165152,
    "lng": -118.626741
  },
  {
    "id": "630019278",
    "name": "ON CALL HOSPICE CARE, INC.",
    "npi": "1134780604",
    "hcaiId": "406192556",
    "businessName": "ON CALL HOSPICE CARE, INC.",
    "contactEmail": "ONCALLHOSPICECARE@GMAIL.COM",
    "categoryName": "HOSPICE",
    "categoryCode": "HOSPICE",
    "licenseStatus": "ACTIVE",
    "inService": true,
    "licenseNumber": "550005376",
    "licenseEffectiveDate": "02/27/2024",
    "licenseExpirationDate": "02/26/2026",
    "dataDate": "10/18/2025",
    "capacity": 0,
    "address": "5311 TOPANGA CANYON BLVD, SUITE 314",
    "city": "WOODLAND HILLS",
    "zip": "91364",
    "county": "LOS ANGELES",
    "phone": "(818) 962-0402",
    "lat": 34.166358,
    "lng": -118.606131
  },
  {
    "id": "630012430",
    "name": "OPTIMAL HOME HEALTH",
    "npi": "1548597479",
    "hcaiId": "406197466",
    "businessName": "OPTIMAL HOME HEALTH",
    "contactEmail": "OPTIMALHH@YAHOO.COM",
    "categoryName": "HOME HEALTH AGENCY",
    "categoryCode": "HHA",
    "licenseStatus": "ACTIVE",
    "inService": true,
    "licenseNumber": "550001403",
    "licenseEffectiveDate": "11/01/2024",
    "licenseExpirationDate": "10/31/2025",
    "dataDate": "10/18/2025",
    "capacity": 0,
    "address": "19720 VENTURA BLVD, SUITE C",
    "city": "WOODLAND HILLS",
    "zip": "91364",
    "county": "LOS ANGELES",
    "phone": "(818) 578-8516",
    "lat": 34.172325,
    "lng": -118.5631785
  },
  {
    "id": "630011171",
    "name": "OPTIMUM HOME HEALTHCARE, INC.",
    "npi": "1013046416",
    "hcaiId": "406197156",
    "businessName": "OPTIMUM HOME HEALTHCARE, INC.",
    "contactEmail": "OPTIMUMS10@YAHOO.COM",
    "categoryName": "HOME HEALTH AGENCY",
    "categoryCode": "HHA",
    "licenseStatus": "ACTIVE",
    "inService": true,
    "licenseNumber": "550000671",
    "licenseEffectiveDate": "04/16/2025",
    "licenseExpirationDate": "04/15/2026",
    "dataDate": "10/18/2025",
    "capacity": 0,
    "address": "20121 VENTURA BLVD, SUITE 302",
    "city": "WOODLAND HILLS",
    "zip": "91364",
    "county": "LOS ANGELES",
    "phone": "(818) 888-5889",
    "lat": 34.170939,
    "lng": -118.572174
  },
  {
    "id": "630025553",
    "name": "PEACEFUL HARBORS HOME HEALTH, INC.",
    "npi": null,
    "hcaiId": "406190166",
    "businessName": "PEACEFUL HARBORS HOME HEALTH",
    "contactEmail": "PEACEFULHARBORSHH@GMAIL.COM",
    "categoryName": "HOME HEALTH AGENCY",
    "categoryCode": "HHA",
    "licenseStatus": "ACTIVE",
    "inService": true,
    "licenseNumber": "550008914",
    "licenseEffectiveDate": "11/30/2024",
    "licenseExpirationDate": "11/29/2025",
    "dataDate": "10/18/2025",
    "capacity": 0,
    "address": "5311 TOPANGA CANYON BLVD, SUITE 209",
    "city": "WOODLAND HILLS",
    "zip": "91364",
    "county": "LOS ANGELES",
    "phone": "(747) 336-9648",
    "lat": 34.166358,
    "lng": -118.606131
  },
  {
    "id": "630021292",
    "name": "PHYSICIANS FAVORITE HOME HEALTH",
    "npi": null,
    "hcaiId": "406193465",
    "businessName": "PHYSICIANS FAVORITE HOME HEALTH",
    "contactEmail": "INFO@PHYSICIANSFAVORITE.COM",
    "categoryName": "HOME HEALTH AGENCY",
    "categoryCode": "HHA",
    "licenseStatus": "ACTIVE",
    "inService": true,
    "licenseNumber": "550006909",
    "licenseEffectiveDate": "09/23/2025",
    "licenseExpirationDate": "09/22/2026",
    "dataDate": "10/18/2025",
    "capacity": 0,
    "address": "20501 VENTURA BLVD, SUITE 219",
    "city": "WOODLAND HILLS",
    "zip": "91364",
    "county": "LOS ANGELES",
    "phone": "(800) 648-9989",
    "lat": 34.16828984,
    "lng": -118.5793334
  },
  {
    "id": "630021673",
    "name": "PINNACLE PALLIATIVE SERVICES, INC.",
    "npi": null,
    "hcaiId": "406193826",
    "businessName": "PINNACLE PALLIATIVE SERVICES, INC.",
    "contactEmail": "PINNACLEPALLIATIVE@YAHOO.COM",
    "categoryName": "HOSPICE",
    "categoryCode": "HOSPICE",
    "licenseStatus": "ACTIVE",
    "inService": true,
    "licenseNumber": "550007244",
    "licenseEffectiveDate": "11/18/2023",
    "licenseExpirationDate": "11/17/2025",
    "dataDate": "10/18/2025",
    "capacity": 0,
    "address": "19737 VENTURA BLVD, SUITE 202",
    "city": "WOODLAND HILLS",
    "zip": "91364",
    "county": "LOS ANGELES",
    "phone": "(818) 350-7721",
    "lat": 34.172784,
    "lng": -118.563579
  },
  {
    "id": "630017039",
    "name": "PRESIDENTIAL HOME HEALTH, INC.",
    "npi": "1487107603",
    "hcaiId": "406191737",
    "businessName": "PRESIDENTIAL HOME HEALTH CARE, INC.",
    "contactEmail": "PRESIDENTIALHOMEHEALTH@GMAIL.COM",
    "categoryName": "HOME HEALTH AGENCY",
    "categoryCode": "HHA",
    "licenseStatus": "ACTIVE",
    "inService": true,
    "licenseNumber": "550004755",
    "licenseEffectiveDate": "08/14/2025",
    "licenseExpirationDate": "05/20/2026",
    "dataDate": "10/18/2025",
    "capacity": 0,
    "address": "22151 VENTURA BLVD, SUITE 206",
    "city": "WOODLAND HILLS",
    "zip": "91364",
    "county": "LOS ANGELES",
    "phone": "(818) 927-0065",
    "lat": 34.16896299,
    "lng": -118.609892
  },
  {
    "id": "980002533",
    "name": "PROFESSIONAL HOME CARE SERVICE",
    "npi": "1073732590",
    "hcaiId": "406196893",
    "businessName": "PALMIRA DEVELOPMENT, INC.",
    "contactEmail": "FELIX@PROFESSIONELHOMECARESERVICE.COM",
    "categoryName": "HOME HEALTH AGENCY",
    "categoryCode": "HHA",
    "licenseStatus": "ACTIVE",
    "inService": true,
    "licenseNumber": "550000372",
    "licenseEffectiveDate": "12/29/2024",
    "licenseExpirationDate": "12/28/2025",
    "dataDate": "10/18/2025",
    "capacity": 0,
    "address": "22801 VENTURA BLVD, SUITE 111",
    "city": "WOODLAND HILLS",
    "zip": "91364",
    "county": "LOS ANGELES",
    "phone": "(213) 385-1848",
    "lat": 34.166411,
    "lng": -118.623623
  },
  {
    "id": "630021813",
    "name": "PROMISED HOPE HOSPICE",
    "npi": null,
    "hcaiId": "406195092",
    "businessName": "PROMISED HOPE HOSPICE",
    "contactEmail": "PROMISEDHOPEHOSPICE@GMAIL.COM",
    "categoryName": "HOSPICE",
    "categoryCode": "HOSPICE",
    "licenseStatus": "ACTIVE",
    "inService": true,
    "licenseNumber": "550007515",
    "licenseEffectiveDate": "04/21/2025",
    "licenseExpirationDate": "12/16/2025",
    "dataDate": "10/18/2025",
    "capacity": 0,
    "address": "5311 TOPANGA CANYON BLVD, SUITE 208",
    "city": "WOODLAND HILLS",
    "zip": "91364",
    "county": "LOS ANGELES",
    "phone": "(818) 805-3478",
    "lat": 34.16632102,
    "lng": -118.606283
  },
  {
    "id": "630026271",
    "name": "PURE SHIELD HEALTH SERVICES, INC.",
    "npi": null,
    "hcaiId": "406190238",
    "businessName": "PURE SHIELD HEALTH SERVICES, INC.",
    "contactEmail": "PURESHIELDHS@YAHOO.COM",
    "categoryName": "HOME HEALTH AGENCY",
    "categoryCode": "HHA",
    "licenseStatus": "ACTIVE",
    "inService": true,
    "licenseNumber": "550008957",
    "licenseEffectiveDate": "02/22/2025",
    "licenseExpirationDate": "02/21/2026",
    "dataDate": "10/18/2025",
    "capacity": 0,
    "address": "20301 VENTURA BLVD, SUITE 336B",
    "city": "WOODLAND HILLS",
    "zip": "91364",
    "county": "LOS ANGELES",
    "phone": "(747) 888-3095",
    "lat": 34.16976,
    "lng": -118.5750945
  },
  {
    "id": "630015910",
    "name": "QUALITY CHOICE HOSPICE INC.",
    "npi": null,
    "hcaiId": "406191284",
    "businessName": "QUALITY CHOICE HOSPICE INC.",
    "contactEmail": "QUALITYCHOICEHOSPICE.JOE@GMAIL.COM",
    "categoryName": "HOSPICE",
    "categoryCode": "HOSPICE",
    "licenseStatus": "ACTIVE",
    "inService": true,
    "licenseNumber": "550004261",
    "licenseEffectiveDate": "01/10/2024",
    "licenseExpirationDate": "01/09/2026",
    "dataDate": "10/18/2025",
    "capacity": 0,
    "address": "20335 VENTURA BLVD, SUITE 220",
    "city": "WOODLAND HILLS",
    "zip": "91364",
    "county": "LOS ANGELES",
    "phone": "(747) 888-3137",
    "lat": 34.16943502,
    "lng": -118.5763062
  },
  {
    "id": "630025831",
    "name": "QUICK CARE HOME HEALTH, INC.",
    "npi": null,
    "hcaiId": "406190206",
    "businessName": "QUICK CARE HOME HEALTH, INC.",
    "contactEmail": "QUICKCAREHOMEHEALTH@GMAIL.COM",
    "categoryName": "HOME HEALTH AGENCY",
    "categoryCode": "HHA",
    "licenseStatus": "ACTIVE",
    "inService": true,
    "licenseNumber": "550008939",
    "licenseEffectiveDate": "02/01/2025",
    "licenseExpirationDate": "01/31/2026",
    "dataDate": "10/18/2025",
    "capacity": 0,
    "address": "22151 VENTURA BLVD, SUITE 204A",
    "city": "WOODLAND HILLS",
    "zip": "91364",
    "county": "LOS ANGELES",
    "phone": "(818) 862-1315",
    "lat": 34.168869,
    "lng": -118.609893
  },
  {
    "id": "630019156",
    "name": "SILVER SKY HOSPICE, INC.",
    "npi": "1407400351",
    "hcaiId": "406192191",
    "businessName": "SILVER SKY HOSPICE, INC.",
    "contactEmail": "SILVERSKYHOSPICE@GMAIL.COM",
    "categoryName": "HOSPICE",
    "categoryCode": "HOSPICE",
    "licenseStatus": "ACTIVE",
    "inService": true,
    "licenseNumber": "550005205",
    "licenseEffectiveDate": "12/21/2023",
    "licenseExpirationDate": "12/20/2025",
    "dataDate": "10/18/2025",
    "capacity": 0,
    "address": "20121 VENTURA BLVD, SUITE 309",
    "city": "WOODLAND HILLS",
    "zip": "91364",
    "county": "LOS ANGELES",
    "phone": "(818) 290-3208",
    "lat": 34.17093898,
    "lng": -118.571972
  },
  {
    "id": "630027959",
    "name": "SOUTHERN CALIFORNIA MEDICAL CENTER INC. - WOODLAND HILLS",
    "npi": null,
    "hcaiId": null,
    "businessName": "SOUTHERN CALIFORNIA MEDICAL CENTER, INC.",
    "contactEmail": null,
    "categoryName": "PRIMARY CARE CLINIC",
    "categoryCode": "COMTYC",
    "licenseStatus": "ACTIVE",
    "inService": true,
    "licenseNumber": "550001363",
    "licenseEffectiveDate": "11/20/2025",
    "licenseExpirationDate": "11/19/2026",
    "dataDate": "10/18/2025",
    "capacity": 0,
    "address": "20011 VENTURA BLVD",
    "city": "WOODLAND HILLS",
    "zip": "91364",
    "county": "LOS ANGELES",
    "phone": null,
    "lat": 34.1720271,
    "lng": -118.5713577
  },
  {
    "id": "630015829",
    "name": "SPECIAL CARE HOSPICE SERVICES, INC.",
    "npi": "1306234497",
    "hcaiId": "406191792",
    "businessName": "SPECIAL CARE HOSPICE SERVICES, INC.",
    "contactEmail": "SPECIALCAREHSI@GMAIL.COM",
    "categoryName": "HOSPICE",
    "categoryCode": "HOSPICE",
    "licenseStatus": "ACTIVE",
    "inService": true,
    "licenseNumber": "550003936",
    "licenseEffectiveDate": "07/26/2024",
    "licenseExpirationDate": "07/30/2025",
    "dataDate": "10/18/2025",
    "capacity": 0,
    "address": "21241 VENTURA BLVD, SUITE 269",
    "city": "WOODLAND HILLS",
    "zip": "91364",
    "county": "LOS ANGELES",
    "phone": "(818) 245-6008",
    "lat": 34.167735,
    "lng": -118.594684
  },
  {
    "id": "630026148",
    "name": "SPES HOME HEALTH INC",
    "npi": null,
    "hcaiId": null,
    "businessName": "SPES HOME HEALTH INC",
    "contactEmail": "SPESHH@YAHOO.COM",
    "categoryName": "HOME HEALTH AGENCY",
    "categoryCode": "HHA",
    "licenseStatus": "ACTIVE",
    "inService": true,
    "licenseNumber": "550009218",
    "licenseEffectiveDate": "06/21/2025",
    "licenseExpirationDate": "06/20/2026",
    "dataDate": "10/18/2025",
    "capacity": 0,
    "address": "22543 VENTURA BLVD, SUITE 213",
    "city": "WOODLAND HILLS",
    "zip": "91364",
    "county": "LOS ANGELES",
    "phone": "(818) 453-3129",
    "lat": 34.167879,
    "lng": -118.6181055
  },
  {
    "id": "630024645",
    "name": "SUNNY SMILE HOME HEALTH, INC.",
    "npi": null,
    "hcaiId": "406196247",
    "businessName": "SUNNY SMILE HOME HEALTH, INC.",
    "contactEmail": "SUNNYSMILEHH@GMAIL.COM",
    "categoryName": "HOME HEALTH AGENCY",
    "categoryCode": "HHA",
    "licenseStatus": "ACTIVE",
    "inService": true,
    "licenseNumber": "550008246",
    "licenseEffectiveDate": "01/03/2025",
    "licenseExpirationDate": "12/01/2025",
    "dataDate": "10/18/2025",
    "capacity": 0,
    "address": "22151 VENTURA BLVD, SUITE 207",
    "city": "WOODLAND HILLS",
    "zip": "91364",
    "county": "LOS ANGELES",
    "phone": "(818) 963-7616",
    "lat": 34.1689461,
    "lng": -118.6098926
  },
  {
    "id": "630020823",
    "name": "TOPANGA HOME HEALTH CARE, INC.",
    "npi": null,
    "hcaiId": "406194753",
    "businessName": "TOPANGA HOME HEALTH CARE, INC.",
    "contactEmail": "TOPANGAHHCI@GMAIL.COM",
    "categoryName": "HOME HEALTH AGENCY",
    "categoryCode": "HHA",
    "licenseStatus": "ACTIVE",
    "inService": true,
    "licenseNumber": "550007096",
    "licenseEffectiveDate": "10/29/2025",
    "licenseExpirationDate": "10/28/2026",
    "dataDate": "10/18/2025",
    "capacity": 0,
    "address": "5311 TOPANGA CANYON BLVD, SUITE 309",
    "city": "WOODLAND HILLS",
    "zip": "91364",
    "county": "LOS ANGELES",
    "phone": "(747) 900-6868",
    "lat": 34.166358,
    "lng": -118.606131
  },
  {
    "id": "630021579",
    "name": "TOUCH OF HOPE HOSPICE, INC.",
    "npi": null,
    "hcaiId": "406193326",
    "businessName": "TOUCH OF HOPE HOSPICE, INC.",
    "contactEmail": "TOUCHOFHOPEHOSPICE@GMAIL.COM",
    "categoryName": "HOSPICE",
    "categoryCode": "HOSPICE",
    "licenseStatus": "ACTIVE",
    "inService": true,
    "licenseNumber": "550007164",
    "licenseEffectiveDate": "10/20/2025",
    "licenseExpirationDate": "10/19/2027",
    "dataDate": "10/18/2025",
    "capacity": 0,
    "address": "5311 TOPANGA CANYON BLVD, SUITE #306",
    "city": "WOODLAND HILLS",
    "zip": "91364",
    "county": "LOS ANGELES",
    "phone": "(747) 242-1135",
    "lat": 34.166358,
    "lng": -118.606131
  },
  {
    "id": "630024602",
    "name": "TRUE HANDS HOME HEALTH INC",
    "npi": null,
    "hcaiId": "406195884",
    "businessName": "TRUE HANDS HOME HEALTH INC",
    "contactEmail": "TRUEHANDSHH@GMAIL.COM",
    "categoryName": "HOME HEALTH AGENCY",
    "categoryCode": "HHA",
    "licenseStatus": "ACTIVE",
    "inService": true,
    "licenseNumber": "550008552",
    "licenseEffectiveDate": "10/06/2025",
    "licenseExpirationDate": "05/31/2026",
    "dataDate": "10/18/2025",
    "capacity": 0,
    "address": "20335 VENTURA BLVD, SUITE 425",
    "city": "WOODLAND HILLS",
    "zip": "91364",
    "county": "LOS ANGELES",
    "phone": "(818) 705-0595",
    "lat": 34.169472,
    "lng": -118.576305
  },
  {
    "id": "630024024",
    "name": "VAP HOME HEALTH CARE, INC",
    "npi": null,
    "hcaiId": "406195946",
    "businessName": "VAP HOME HEALTH CARE, INC",
    "contactEmail": "VAPHOMEHEALTHSERVICES@GMAIL.COM",
    "categoryName": "HOME HEALTH AGENCY",
    "categoryCode": "HHA",
    "licenseStatus": "ACTIVE",
    "inService": true,
    "licenseNumber": "550008198",
    "licenseEffectiveDate": "04/01/2025",
    "licenseExpirationDate": "10/16/2025",
    "dataDate": "10/18/2025",
    "capacity": 0,
    "address": "5311 TOPANGA CANYON BLVD, 303",
    "city": "WOODLAND HILLS",
    "zip": "91364",
    "county": "LOS ANGELES",
    "phone": "(818) 436-2479",
    "lat": 34.166358,
    "lng": -118.606131
  },
  {
    "id": "630026995",
    "name": "VNS HOME HEALTH, INC",
    "npi": null,
    "hcaiId": null,
    "businessName": "VNS HOME HEALTH, INC",
    "contactEmail": "VNSHOMEHEALTH.INC@GMAIL.COM",
    "categoryName": "HOME HEALTH AGENCY",
    "categoryCode": "HHA",
    "licenseStatus": "ACTIVE",
    "inService": true,
    "licenseNumber": "550009384",
    "licenseEffectiveDate": "09/13/2025",
    "licenseExpirationDate": "09/12/2026",
    "dataDate": "10/18/2025",
    "capacity": 0,
    "address": "5311 TOPANGA CANYON BLVD, SUITE 221",
    "city": "WOODLAND HILLS",
    "zip": "91364",
    "county": "LOS ANGELES",
    "phone": "(818) 823-0007",
    "lat": 34.166358,
    "lng": -118.606131
  },
  {
    "id": "630014785",
    "name": "WELLSPRING HOSPICE",
    "npi": "1598164089",
    "hcaiId": "406198216",
    "businessName": "WELLSPRING HOSPICE",
    "contactEmail": "WELLSPRINGHOSPICE@YAHOO.COM",
    "categoryName": "HOSPICE",
    "categoryCode": "HOSPICE",
    "licenseStatus": "ACTIVE",
    "inService": true,
    "licenseNumber": "550003742",
    "licenseEffectiveDate": "10/10/2024",
    "licenseExpirationDate": "10/09/2026",
    "dataDate": "10/18/2025",
    "capacity": 0,
    "address": "19730 VENTURA BLVD, SUITE 25",
    "city": "WOODLAND HILLS",
    "zip": "91364",
    "county": "LOS ANGELES",
    "phone": "(818) 616-3535",
    "lat": 34.172316,
    "lng": -118.5632775
  },
  {
    "id": "630027808",
    "name": "WEST VALLEY HOME HEALTH",
    "npi": null,
    "hcaiId": null,
    "businessName": "WEST VALLEY HOME HEALTH, INC.",
    "contactEmail": "WESTVALLEYHOMEHEALTH@YAHOO.COM",
    "categoryName": "HOME HEALTH AGENCY",
    "categoryCode": "HHA",
    "licenseStatus": "ACTIVE",
    "inService": true,
    "licenseNumber": "550009697",
    "licenseEffectiveDate": "09/06/2025",
    "licenseExpirationDate": "03/05/2026",
    "dataDate": "10/18/2025",
    "capacity": 0,
    "address": "21243 VENTURA BLVD, SUITE 210",
    "city": "WOODLAND HILLS",
    "zip": "91364",
    "county": "LOS ANGELES",
    "phone": "(818) 806-6966",
    "lat": 34.167735,
    "lng": -118.594684
  },
  {
    "id": "630025528",
    "name": "WILLOWS HOME HEALTH SERVICES, INC.",
    "npi": null,
    "hcaiId": "406198025",
    "businessName": "WILLOWS HOME HEALTH SERVICES, INC.",
    "contactEmail": "WILLOWSHHS@GMAIL.COM",
    "categoryName": "HOME HEALTH AGENCY",
    "categoryCode": "HHA",
    "licenseStatus": "ACTIVE",
    "inService": true,
    "licenseNumber": "550008808",
    "licenseEffectiveDate": "10/27/2024",
    "licenseExpirationDate": "10/26/2025",
    "dataDate": "10/18/2025",
    "capacity": 0,
    "address": "5311 TOPANGA CANYON BLVD, SUITE 211",
    "city": "WOODLAND HILLS",
    "zip": "91364",
    "county": "LOS ANGELES",
    "phone": "(747) 336-9635",
    "lat": 34.166358,
    "lng": -118.606131
  },
  {
    "id": "630020824",
    "name": "WIND BREEZE HOSPICE, INC.",
    "npi": null,
    "hcaiId": "406194890",
    "businessName": "WIND BREEZE HOSPICE, INC.",
    "contactEmail": "WINDBREEZEHOSPICE@GMAIL.COM",
    "categoryName": "HOSPICE",
    "categoryCode": "HOSPICE",
    "licenseStatus": "ACTIVE",
    "inService": true,
    "licenseNumber": "550007345",
    "licenseEffectiveDate": "10/21/2025",
    "licenseExpirationDate": "10/20/2027",
    "dataDate": "10/18/2025",
    "capacity": 0,
    "address": "5311 TOPANGA CANYON BLVD, SUITE 311",
    "city": "WOODLAND HILLS",
    "zip": "91364",
    "county": "LOS ANGELES",
    "phone": "(747) 900-6200",
    "lat": 34.166358,
    "lng": -118.606131
  },
  {
    "id": "630022436",
    "name": "WOODLAND HOSPICE CARE, INC.",
    "npi": null,
    "hcaiId": "406193907",
    "businessName": "WOODLAND HOSPICE CARE, INC.",
    "contactEmail": "WOODLANDHOSPICECARE@GMAIL.COM",
    "categoryName": "HOSPICE",
    "categoryCode": "HOSPICE",
    "licenseStatus": "ACTIVE",
    "inService": true,
    "licenseNumber": "550007389",
    "licenseEffectiveDate": "12/01/2021",
    "licenseExpirationDate": "11/30/2023",
    "dataDate": "10/18/2025",
    "capacity": 0,
    "address": "21241 VENTURA BLVD, SUITE 260",
    "city": "WOODLAND HILLS",
    "zip": "91364",
    "county": "LOS ANGELES",
    "phone": "(818) 805-3042",
    "lat": 34.167798,
    "lng": -118.5950565
  },
  {
    "id": "980002368",
    "name": "XL CARE, INC.",
    "npi": "1588655112",
    "hcaiId": "406197071",
    "businessName": "XL CARE, INC.",
    "contactEmail": "INGA@XLHOMEHEALTH.NET",
    "categoryName": "HOME HEALTH AGENCY",
    "categoryCode": "HHA",
    "licenseStatus": "ACTIVE",
    "inService": true,
    "licenseNumber": "980001478",
    "licenseEffectiveDate": "11/03/2024",
    "licenseExpirationDate": "11/02/2025",
    "dataDate": "10/18/2025",
    "capacity": 0,
    "address": "20350 VENTURA BLVD, SUITE 140",
    "city": "WOODLAND HILLS",
    "zip": "91364",
    "county": "LOS ANGELES",
    "phone": "(818) 785-2944",
    "lat": 34.168833,
    "lng": -118.5758325
  },
  {
    "id": "630025550",
    "name": "XTRA CARING HOME HEALTH, INC.",
    "npi": null,
    "hcaiId": "406190104",
    "businessName": "XTRA CARING HOME HEALTH, INC.",
    "contactEmail": "XTRACARINGHH@GMAIL.COM",
    "categoryName": "HOME HEALTH AGENCY",
    "categoryCode": "HHA",
    "licenseStatus": "ACTIVE",
    "inService": true,
    "licenseNumber": "550008874",
    "licenseEffectiveDate": "11/30/2024",
    "licenseExpirationDate": "11/29/2025",
    "dataDate": "10/18/2025",
    "capacity": 0,
    "address": "4881 TOPANGA CANYON BLVD, SUITE 201",
    "city": "WOODLAND HILLS",
    "zip": "91364",
    "county": "LOS ANGELES",
    "phone": "(818) 697-0022",
    "lat": 34.156701,
    "lng": -118.606302
  }
]