[
  {
    "id": "630018779",
    "name": "A&M ALLIANCE HOME HEALTH CARE, INC.",
    "npi": null,
    "hcaiId": "406192236",
    "businessName": "A&M ALLIANCE HOME HEALTH CARE, INC.",
    "contactEmail": "AMALLIANCEHHC@GMAIL.COM",
    "categoryName": "HOME HEALTH AGENCY",
    "categoryCode": "HHA",
    "licenseStatus": "ACTIVE",
    "inService": true,
    "licenseNumber": "550005202",
    "licenseEffectiveDate": "04/21/2025",
    "licenseExpirationDate": "01/07/2026",
    "dataDate": "10/18/2025",
    "capacity": 0,
    "address": "22020 CLARENDON ST, SUITE 200",
    "city": "WOODLAND HILLS",
    "zip": "91367",
    "county": "LOS ANGELES",
    "phone": "(818) 600-8226",
    "lat": 34.16945899,
    "lng": -118.606698
  },
  {
    "id": "630025423",
    "name": "A.S.H. HOME HEALTH CARE SERVICES, INC.",
    "npi": null,
    "hcaiId": "406190269",
    "businessName": "A.S.H. HOME HEALTH CARE SERVICES, INC.",
    "contactEmail": "4ASHHOMEHEALTHCARE@GMAIL.COM",
    "categoryName": "HOME HEALTH AGENCY",
    "categoryCode": "HHA",
    "licenseStatus": "ACTIVE",
    "inService": true,
    "licenseNumber": "550009013",
    "licenseEffectiveDate": "02/05/2025",
    "licenseExpirationDate": "02/04/2026",
    "dataDate": "10/18/2025",
    "capacity": 0,
    "address": "6200 CANOGA AVE, SUITE 106",
    "city": "WOODLAND HILLS",
    "zip": "91367",
    "county": "LOS ANGELES",
    "phone": null,
    "lat": 34.18288544,
    "lng": -118.5973436
  },
  {
    "id": "630024481",
    "name": "AA CARE HOME HEALTH",
    "npi": null,
    "hcaiId": null,
    "businessName": "AA CARE HOME HEALTH",
    "contactEmail": "AACAREHH@YAHOO.COM",
    "categoryName": "HOME HEALTH AGENCY",
    "categoryCode": "HHA",
    "licenseStatus": "ACTIVE",
    "inService": true,
    "licenseNumber": "550009898",
    "licenseEffectiveDate": "07/18/2025",
    "licenseExpirationDate": "01/17/2026",
    "dataDate": "10/18/2025",
    "capacity": 0,
    "address": "6320 CANOGA AVE, SUITE 1502",
    "city": "WOODLAND HILLS",
    "zip": "91367",
    "county": "LOS ANGELES",
    "phone": "(323) 804-9971",
    "lat": 34.185121,
    "lng": -118.59675
  },
  {
    "id": "630014956",
    "name": "ALL CARE - AMALFI",
    "npi": null,
    "hcaiId": "206190171",
    "businessName": "STR, LP",
    "contactEmail": "INFO@ALLCARELIVINGHOME2.COM",
    "categoryName": "CONGREGATE LIVING HEALTH FACILITY",
    "categoryCode": "CLHF",
    "licenseStatus": "ACTIVE",
    "inService": true,
    "licenseNumber": "550003406",
    "licenseEffectiveDate": "02/05/2025",
    "licenseExpirationDate": "02/04/2026",
    "dataDate": "10/18/2025",
    "capacity": 6,
    "address": "5418 SADRING AVE",
    "city": "WOODLAND HILLS",
    "zip": "91367",
    "county": "LOS ANGELES",
    "phone": "(818) 704-0081",
    "lat": 34.169031,
    "lng": -118.6360875
  },
  {
    "id": "630021180",
    "name": "ALLIANCE HOME HEALTH GROUP",
    "npi": null,
    "hcaiId": "406193340",
    "businessName": "EM HOME HEALTH, INC.",
    "contactEmail": "EMHOMEHEALTHINC@GMAIL.COM",
    "categoryName": "HOME HEALTH AGENCY",
    "categoryCode": "HHA",
    "licenseStatus": "ACTIVE",
    "inService": true,
    "licenseNumber": "550006951",
    "licenseEffectiveDate": "09/21/2025",
    "licenseExpirationDate": "09/20/2026",
    "dataDate": "10/18/2025",
    "capacity": 0,
    "address": "21900 BURBANK BLVD, SUITE 116",
    "city": "WOODLAND HILLS",
    "zip": "91367",
    "county": "LOS ANGELES",
    "phone": "(818) 251-5668",
    "lat": 34.171315,
    "lng": -118.604418
  },
  {
    "id": "980002283",
    "name": "ANNEX HEALTHCARE PROVIDERS, INC.",
    "npi": "1992799928",
    "hcaiId": "406196921",
    "businessName": "ANNEX HEALTHCARE PROVIDERS, INC.",
    "contactEmail": "ACCOUNTING@ANNEXHEALTHCARE.COM",
    "categoryName": "HOME HEALTH AGENCY",
    "categoryCode": "HHA",
    "licenseStatus": "ACTIVE",
    "inService": true,
    "licenseNumber": "980001397",
    "licenseEffectiveDate": "12/01/2025",
    "licenseExpirationDate": "11/30/2026",
    "dataDate": "10/18/2025",
    "capacity": 0,
    "address": "22041 CLARENDON ST, SUITE 200",
    "city": "WOODLAND HILLS",
    "zip": "91367",
    "county": "LOS ANGELES",
    "phone": "(818) 509-2661",
    "lat": 34.16976,
    "lng": -118.60731
  },
  {
    "id": "630018876",
    "name": "APGUARD HOSPICE, LLC",
    "npi": null,
    "hcaiId": "406192064",
    "businessName": "APGUARD HOSPICE, LLC",
    "contactEmail": "INFO@APGUARDHOSPICE.COM",
    "categoryName": "HOSPICE",
    "categoryCode": "HOSPICE",
    "licenseStatus": "ACTIVE",
    "inService": true,
    "licenseNumber": "550005148",
    "licenseEffectiveDate": "11/23/2023",
    "licenseExpirationDate": "11/22/2025",
    "dataDate": "10/18/2025",
    "capacity": 0,
    "address": "6404A INDEPENDENCE AVE",
    "city": "WOODLAND HILLS",
    "zip": "91367",
    "county": "LOS ANGELES",
    "phone": "(424) 271-2522",
    "lat": 34.18716691,
    "lng": -118.5905441
  },
  {
    "id": "630026854",
    "name": "CA HOME HEALTH AGENCY, INC.",
    "npi": null,
    "hcaiId": null,
    "businessName": "CA HOME HEALTH AGENCY, INC.",
    "contactEmail": "CAHOMEHEALTHAGENCYINC@GMAIL.COM",
    "categoryName": "HOME HEALTH AGENCY",
    "categoryCode": "HHA",
    "licenseStatus": "ACTIVE",
    "inService": true,
    "licenseNumber": "550009950",
    "licenseEffectiveDate": "10/22/2025",
    "licenseExpirationDate": "04/21/2026",
    "dataDate": "10/18/2025",
    "capacity": 0,
    "address": "21550 OXNARD ST, SUITE 300",
    "city": "WOODLAND HILLS",
    "zip": "91367",
    "county": "LOS ANGELES",
    "phone": "(424) 448-8615",
    "lat": 34.178769,
    "lng": -118.5998535
  },
  {
    "id": "630018186",
    "name": "CALIFORNIA CARE SERVICES",
    "npi": null,
    "hcaiId": "406198123",
    "businessName": "SHN CARE SERVICES, INC.",
    "contactEmail": "HCNSUNSHINE@GMAIL.COM",
    "categoryName": "HOME HEALTH AGENCY",
    "categoryCode": "HHA",
    "licenseStatus": "ACTIVE",
    "inService": true,
    "licenseNumber": "550008798",
    "licenseEffectiveDate": "08/18/2025",
    "licenseExpirationDate": "08/17/2026",
    "dataDate": "10/18/2025",
    "capacity": 0,
    "address": "21300 VICTORY BLVD, SUITE 130",
    "city": "WOODLAND HILLS",
    "zip": "91367",
    "county": "LOS ANGELES",
    "phone": "(858) 752-1251",
    "lat": 34.187823,
    "lng": -118.595943
  },
  {
    "id": "630026468",
    "name": "CANOGA HOMECARE, INC.",
    "npi": null,
    "hcaiId": null,
    "businessName": "CANOGA HOMECARE, INC.",
    "contactEmail": "CANOGAHHC@GMAIL.COM",
    "categoryName": "HOME HEALTH AGENCY",
    "categoryCode": "HHA",
    "licenseStatus": "ACTIVE",
    "inService": true,
    "licenseNumber": "550009146",
    "licenseEffectiveDate": "05/10/2025",
    "licenseExpirationDate": "05/09/2026",
    "dataDate": "10/18/2025",
    "capacity": 0,
    "address": "6200 CANOGA AVE, SUITE 211",
    "city": "WOODLAND HILLS",
    "zip": "91367",
    "county": "LOS ANGELES",
    "phone": "(747) 230-4285",
    "lat": 34.18288544,
    "lng": -118.5973436
  },
  {
    "id": "630011586",
    "name": "CAREMERIDIAN - VICTORY HOUSE",
    "npi": null,
    "hcaiId": "206197073",
    "businessName": "CAREMERIDIAN, LLC",
    "contactEmail": "LYDIA.CHOWA@SEVITAHEALTH.COM",
    "categoryName": "CONGREGATE LIVING HEALTH FACILITY",
    "categoryCode": "CLHF",
    "licenseStatus": "ACTIVE",
    "inService": true,
    "licenseNumber": "550000664",
    "licenseEffectiveDate": "01/28/2025",
    "licenseExpirationDate": "01/27/2026",
    "dataDate": "10/18/2025",
    "capacity": 6,
    "address": "22524 VICTORY BLVD",
    "city": "WOODLAND HILLS",
    "zip": "91367",
    "county": "LOS ANGELES",
    "phone": "(818) 527-0464",
    "lat": 34.186149,
    "lng": -118.617948
  },
  {
    "id": "980001351",
    "name": "COSMOPOLITAN HEALTHCARE INC.",
    "npi": "1164818225",
    "hcaiId": "406194535",
    "businessName": "COSMOPOLITAN HEALTHCARE, INC.",
    "contactEmail": "ELISAROD27@YAHOO.COM",
    "categoryName": "HOME HEALTH AGENCY",
    "categoryCode": "HHA",
    "licenseStatus": "ACTIVE",
    "inService": true,
    "licenseNumber": "980000779",
    "licenseEffectiveDate": "11/13/2024",
    "licenseExpirationDate": "11/12/2025",
    "dataDate": "10/18/2025",
    "capacity": 0,
    "address": "21860 BURBANK BLVD, SUITE 180",
    "city": "WOODLAND HILLS",
    "zip": "91367",
    "county": "LOS ANGELES",
    "phone": "(818) 888-3385",
    "lat": 34.171344,
    "lng": -118.6036245
  },
  {
    "id": "630011907",
    "name": "CVHCARE LOS ANGELES",
    "npi": "1558534115",
    "hcaiId": "406197218",
    "businessName": "CVHCARE HOLDINGS, INC.",
    "contactEmail": "COMPLIANCE@CVHCARE.COM",
    "categoryName": "HOME HEALTH AGENCY",
    "categoryCode": "HHA",
    "licenseStatus": "ACTIVE",
    "inService": true,
    "licenseNumber": "550000946",
    "licenseEffectiveDate": "11/04/2025",
    "licenseExpirationDate": "11/03/2026",
    "dataDate": "10/18/2025",
    "capacity": 0,
    "address": "5550 TOPANGA CANYON BLVD, SUITE 170",
    "city": "WOODLAND HILLS",
    "zip": "91367",
    "county": "LOS ANGELES",
    "phone": "(510) 690-1930",
    "lat": 34.171479,
    "lng": -118.605375
  },
  {
    "id": "630014479",
    "name": "EDEN HOME HEALTH, INC.",
    "npi": "1043658602",
    "hcaiId": "406198119",
    "businessName": "EDEN HOME HEALTH, INC",
    "contactEmail": "ARTIN.EDEN@GMAIL.COM",
    "categoryName": "HOME HEALTH AGENCY",
    "categoryCode": "HHA",
    "licenseStatus": "ACTIVE",
    "inService": true,
    "licenseNumber": "550002891",
    "licenseEffectiveDate": "10/24/2025",
    "licenseExpirationDate": "10/23/2026",
    "dataDate": "10/18/2025",
    "capacity": 0,
    "address": "6300 CANOGA AVE, SUITE 1310",
    "city": "WOODLAND HILLS",
    "zip": "91367",
    "county": "LOS ANGELES",
    "phone": "(818) 324-0728",
    "lat": 34.185003,
    "lng": -118.597367
  },
  {
    "id": "980001871",
    "name": "EXCELLENT IN-HOME CARE, INC.",
    "npi": "1659365948",
    "hcaiId": "406196987",
    "businessName": "EXCELLENT IN-HOME CARE, INC.",
    "contactEmail": "ACCOUNTING@EXCELLENTHOMECARE.COM",
    "categoryName": "HOME HEALTH AGENCY",
    "categoryCode": "HHA",
    "licenseStatus": "ACTIVE",
    "inService": true,
    "licenseNumber": "980001145",
    "licenseEffectiveDate": "01/26/2025",
    "licenseExpirationDate": "01/25/2026",
    "dataDate": "10/18/2025",
    "capacity": 0,
    "address": "22041 CLARENDON ST, SUITE 100",
    "city": "WOODLAND HILLS",
    "zip": "91367",
    "county": "LOS ANGELES",
    "phone": "(818) 755-4900",
    "lat": 34.16976,
    "lng": -118.60731
  },
  {
    "id": "630025099",
    "name": "GOLANI HOME HEALTH CARE, INC.",
    "npi": null,
    "hcaiId": "406196403",
    "businessName": "GOLANI HOME HEALTH CARE, INC.",
    "contactEmail": "GOLANIHOMEHEALTH@GMAIL.COM",
    "categoryName": "HOME HEALTH AGENCY",
    "categoryCode": "HHA",
    "licenseStatus": "ACTIVE",
    "inService": true,
    "licenseNumber": "550008479",
    "licenseEffectiveDate": "08/07/2025",
    "licenseExpirationDate": "03/12/2026",
    "dataDate": "10/18/2025",
    "capacity": 0,
    "address": "6200 CANOGA AVE, UNIT 430",
    "city": "WOODLAND HILLS",
    "zip": "91367",
    "county": "LOS ANGELES",
    "phone": "(818) 926-0152",
    "lat": 34.18344101,
    "lng": -118.596771
  },
  {
    "id": "630016382",
    "name": "HARBOR HOSPICE OF LOS ANGELES LP",
    "npi": null,
    "hcaiId": "406190860",
    "businessName": "HARBOR HOSPICE OF LOS ANGELES LP",
    "contactEmail": "KCARTER@HARBORHCS.COM",
    "categoryName": "HOSPICE",
    "categoryCode": "HOSPICE",
    "licenseStatus": "ACTIVE",
    "inService": true,
    "licenseNumber": "550004226",
    "licenseEffectiveDate": "04/26/2024",
    "licenseExpirationDate": "04/25/2026",
    "dataDate": "10/18/2025",
    "capacity": 0,
    "address": "6320 CANOGA AVE, SUITE 1568",
    "city": "WOODLAND HILLS",
    "zip": "91367",
    "county": "LOS ANGELES",
    "phone": "(213) 358-5090",
    "lat": 34.185105,
    "lng": -118.596861
  },
  {
    "id": "630025630",
    "name": "HEARTS AND HALOS HEALTHCARE PROVIDERS",
    "npi": null,
    "hcaiId": "406190074",
    "businessName": "HEARTS AND HALOS HEALTHCARE PROVIDERS",
    "contactEmail": "HEARTSANDHALOSHCP@GMAIL.COM",
    "categoryName": "HOME HEALTH AGENCY",
    "categoryCode": "HHA",
    "licenseStatus": "ACTIVE",
    "inService": true,
    "licenseNumber": "550008811",
    "licenseEffectiveDate": "11/15/2024",
    "licenseExpirationDate": "11/14/2025",
    "dataDate": "10/18/2025",
    "capacity": 0,
    "address": "6303 OWENSMOUTH AVE, SUITE 991",
    "city": "WOODLAND HILLS",
    "zip": "91367",
    "county": "LOS ANGELES",
    "phone": "(818) 936-2124",
    "lat": 34.184547,
    "lng": -118.6021395
  },
  {
    "id": "630025428",
    "name": "HELPNETIC HOME HEALTH SERVICES, INC.",
    "npi": null,
    "hcaiId": null,
    "businessName": "HELPNETIC HOME HEALTH SERVICES, INC.",
    "contactEmail": "HELPNETICHHS@GMAIL.COM",
    "categoryName": "HOME HEALTH AGENCY",
    "categoryCode": "HHA",
    "licenseStatus": "ACTIVE",
    "inService": true,
    "licenseNumber": "550008972",
    "licenseEffectiveDate": "02/05/2025",
    "licenseExpirationDate": "02/04/2026",
    "dataDate": "10/18/2025",
    "capacity": 0,
    "address": "6200 CANOGA AVE, SUITE 113",
    "city": "WOODLAND HILLS",
    "zip": "91367",
    "county": "LOS ANGELES",
    "phone": "(818) 570-7997",
    "lat": 34.18288544,
    "lng": -118.5973436
  },
  {
    "id": "930000290",
    "name": "KAISER FOUNDATION HOSPITAL - WOODLAND HILLS",
    "npi": "1295880912",
    "hcaiId": "106191450",
    "businessName": "KAISER FOUNDATION HOSPITALS",
    "contactEmail": "MURTAZA.X.SANWARI@KP.ORG",
    "categoryName": "GENERAL ACUTE CARE HOSPITAL",
    "categoryCode": "GACH",
    "licenseStatus": "ACTIVE",
    "inService": true,
    "licenseNumber": "930000358",
    "licenseEffectiveDate": "04/08/2025",
    "licenseExpirationDate": "04/07/2026",
    "dataDate": "10/18/2025",
    "capacity": 274,
    "address": "5601 DE SOTO AVE",
    "city": "WOODLAND HILLS",
    "zip": "91367",
    "county": "LOS ANGELES",
    "phone": "(818) 719-2000",
    "lat": 34.171263,
    "lng": -118.5886125
  },
  {
    "id": "980000993",
    "name": "KAISER FOUNDATION HOSPITAL VALLEY CONTINUING CARE",
    "npi": null,
    "hcaiId": "406190722",
    "businessName": "KAISER FOUNDATION HOSPITALS",
    "contactEmail": "SHERILL.A.AGDEPPA@KP.ORG",
    "categoryName": "HOME HEALTH AGENCY",
    "categoryCode": "HHA",
    "licenseStatus": "ACTIVE",
    "inService": true,
    "licenseNumber": "980000511",
    "licenseEffectiveDate": "11/27/2025",
    "licenseExpirationDate": "11/26/2026",
    "dataDate": "10/18/2025",
    "capacity": 0,
    "address": "21263 ERWIN ST",
    "city": "WOODLAND HILLS",
    "zip": "91367",
    "county": "LOS ANGELES",
    "phone": "(323) 251-6504",
    "lat": 34.183458,
    "lng": -118.5949215
  },
  {
    "id": "630012291",
    "name": "KAISER FOUNDATION HOSPITAL, WOOLAND HILLS/PD",
    "npi": null,
    "hcaiId": null,
    "businessName": "KAISER FOUNDATION HOSPITALS",
    "contactEmail": null,
    "categoryName": "CHRONIC DIALYSIS CLINIC",
    "categoryCode": "ESRD",
    "licenseStatus": "ACTIVE",
    "inService": true,
    "licenseNumber": "930000358",
    "licenseEffectiveDate": "04/08/2025",
    "licenseExpirationDate": "04/07/2026",
    "dataDate": "10/18/2025",
    "capacity": 0,
    "address": "5601 DE SOTO AVE",
    "city": "WOODLAND HILLS",
    "zip": "91367",
    "county": "LOS ANGELES",
    "phone": null,
    "lat": 34.171263,
    "lng": -118.5886125
  },
  {
    "id": "630025634",
    "name": "KATHARI HOME HEALTH, INC.",
    "npi": null,
    "hcaiId": null,
    "businessName": "KATHARI HOME HEALTH, INC.",
    "contactEmail": "KATHARIHH@GMAIL.COM",
    "categoryName": "HOME HEALTH AGENCY",
    "categoryCode": "HHA",
    "licenseStatus": "ACTIVE",
    "inService": true,
    "licenseNumber": "550009817",
    "licenseEffectiveDate": "11/09/2025",
    "licenseExpirationDate": "05/08/2026",
    "dataDate": "10/18/2025",
    "capacity": 0,
    "address": "21900 BURBANK BLVD, SUITE 3009A",
    "city": "WOODLAND HILLS",
    "zip": "91367",
    "county": "LOS ANGELES",
    "phone": "(800) 296-0575",
    "lat": 34.171315,
    "lng": -118.604418
  },
  {
    "id": "980001395",
    "name": "MADISON HEALTHCARE, INC",
    "npi": "1366448441",
    "hcaiId": "406197140",
    "businessName": "MADISON HEALTHCARE INC",
    "contactEmail": "PARISA@MADISONHEALTHCARE.COM",
    "categoryName": "HOME HEALTH AGENCY",
    "categoryCode": "HHA",
    "licenseStatus": "ACTIVE",
    "inService": true,
    "licenseNumber": "980000782",
    "licenseEffectiveDate": "06/09/2025",
    "licenseExpirationDate": "06/08/2026",
    "dataDate": "10/18/2025",
    "capacity": 0,
    "address": "21250 CALIFA ST, UNIT 113",
    "city": "WOODLAND HILLS",
    "zip": "91367",
    "county": "LOS ANGELES",
    "phone": "(818) 345-1111",
    "lat": 34.17656198,
    "lng": -118.593921
  },
  {
    "id": "630014638",
    "name": "MEDI-KARE1 INC",
    "npi": "1083056360",
    "hcaiId": "406198120",
    "businessName": "MEDI-KARE1 INC",
    "contactEmail": "MEDIKARE1HHS@YAHOO.COM",
    "categoryName": "HOME HEALTH AGENCY",
    "categoryCode": "HHA",
    "licenseStatus": "ACTIVE",
    "inService": true,
    "licenseNumber": "550003053",
    "licenseEffectiveDate": "04/07/2025",
    "licenseExpirationDate": "04/06/2026",
    "dataDate": "10/18/2025",
    "capacity": 0,
    "address": "21300 VICTORY BLVD, SUITE 680",
    "city": "WOODLAND HILLS",
    "zip": "91367",
    "county": "LOS ANGELES",
    "phone": "(818) 888-8252",
    "lat": 34.187823,
    "lng": -118.595943
  },
  {
    "id": "980001356",
    "name": "NEW START HOME HEALTH CARE, INC.",
    "npi": "1346266830",
    "hcaiId": "406194587",
    "businessName": "NEW START HOME HEALTH CARE, INC.",
    "contactEmail": "MICHELLE@NEWSTARTHOMECARE.COM",
    "categoryName": "HOME HEALTH AGENCY",
    "categoryCode": "HHA",
    "licenseStatus": "ACTIVE",
    "inService": true,
    "licenseNumber": "980000800",
    "licenseEffectiveDate": "05/03/2025",
    "licenseExpirationDate": "05/02/2026",
    "dataDate": "10/18/2025",
    "capacity": 0,
    "address": "21255 BURBANK BLVD, SUITE 120",
    "city": "WOODLAND HILLS",
    "zip": "91367",
    "county": "LOS ANGELES",
    "phone": "(818) 223-1958",
    "lat": 34.17335231,
    "lng": -118.5941257
  },
  {
    "id": "630021645",
    "name": "NEWSTART HOME HEALTH, INC",
    "npi": null,
    "hcaiId": "406193398",
    "businessName": "RELIACARE HOME HEALTH, INC.",
    "contactEmail": "NEWSTARTHHEALTH@GMAIL.COM",
    "categoryName": "HOME HEALTH AGENCY",
    "categoryCode": "HHA",
    "licenseStatus": "ACTIVE",
    "inService": true,
    "licenseNumber": "550007173",
    "licenseEffectiveDate": "11/11/2024",
    "licenseExpirationDate": "11/10/2025",
    "dataDate": "10/18/2025",
    "capacity": 0,
    "address": "6262 GLADE AVE, UNIT 26",
    "city": "WOODLAND HILLS",
    "zip": "91367",
    "county": "LOS ANGELES",
    "phone": "(747) 287-4978",
    "lat": 34.18479723,
    "lng": -118.6076201
  },
  {
    "id": "630018851",
    "name": "PRESTIGE HOSPICE INC",
    "npi": null,
    "hcaiId": "406191956",
    "businessName": "PRESTIGE HOSPICE INC",
    "contactEmail": "PRESTIGEHOSPICE@GMAIL.COM",
    "categoryName": "HOSPICE",
    "categoryCode": "HOSPICE",
    "licenseStatus": "ACTIVE",
    "inService": true,
    "licenseNumber": "550005018",
    "licenseEffectiveDate": "10/24/2025",
    "licenseExpirationDate": "10/23/2027",
    "dataDate": "10/18/2025",
    "capacity": 0,
    "address": "6303 OWENSMOUTH AVE, SUITE 1082",
    "city": "WOODLAND HILLS",
    "zip": "91367",
    "county": "LOS ANGELES",
    "phone": "(818) 936-2182",
    "lat": 34.184547,
    "lng": -118.6021395
  },
  {
    "id": "630021280",
    "name": "RELAXED HOME HOSPICE CARE",
    "npi": null,
    "hcaiId": "406195129",
    "businessName": "RELAXED HOME HOSPICE CARE",
    "contactEmail": "RELAXEDHOMEHOPICE@GMAIL.COM",
    "categoryName": "HOSPICE",
    "categoryCode": "HOSPICE",
    "licenseStatus": "ACTIVE",
    "inService": true,
    "licenseNumber": "550007469",
    "licenseEffectiveDate": "12/17/2023",
    "licenseExpirationDate": "12/16/2025",
    "dataDate": "10/18/2025",
    "capacity": 0,
    "address": "6303 OWENSMOUTH AVE, SUITE 1069",
    "city": "WOODLAND HILLS",
    "zip": "91367",
    "county": "LOS ANGELES",
    "phone": "(818) 457-1391",
    "lat": 34.184547,
    "lng": -118.6021395
  },
  {
    "id": "630022259",
    "name": "SERENADE HEALTHCARE",
    "npi": null,
    "hcaiId": "406193870",
    "businessName": "PURE BLISS HOSPICE CARE, INC",
    "contactEmail": "NEOCAREPALLIATIVEHOSPICE@GMAIL.COM",
    "categoryName": "HOSPICE",
    "categoryCode": "HOSPICE",
    "licenseStatus": "ACTIVE",
    "inService": true,
    "licenseNumber": "550007365",
    "licenseEffectiveDate": "04/07/2025",
    "licenseExpirationDate": "12/02/2025",
    "dataDate": "10/18/2025",
    "capacity": 0,
    "address": "6355 TOPANGA CANYON BLVD, SUITE 355",
    "city": "WOODLAND HILLS",
    "zip": "91367",
    "county": "LOS ANGELES",
    "phone": "(310) 429-2550",
    "lat": 34.186336,
    "lng": -118.60657
  },
  {
    "id": "630018248",
    "name": "SILVER CARE, INC.",
    "npi": null,
    "hcaiId": "206190143",
    "businessName": "SILVER CARE, INC.",
    "contactEmail": "5683MAJA@GMAIL.COM",
    "categoryName": "CONGREGATE LIVING HEALTH FACILITY",
    "categoryCode": "CLHF",
    "licenseStatus": "ACTIVE",
    "inService": true,
    "licenseNumber": "550004729",
    "licenseEffectiveDate": "05/30/2025",
    "licenseExpirationDate": "05/29/2026",
    "dataDate": "10/18/2025",
    "capacity": 6,
    "address": "23635 COLLINS ST",
    "city": "WOODLAND HILLS",
    "zip": "91367",
    "county": "LOS ANGELES",
    "phone": "(747) 226-0503",
    "lat": 34.174053,
    "lng": -118.642032
  },
  {
    "id": "630018828",
    "name": "SOLID CARE HOME HEALTH, INC.",
    "npi": "1295398303",
    "hcaiId": "406192619",
    "businessName": "SOLID CARE HOME HEALTH, INC.",
    "contactEmail": "SOLIDCAREHOMEHEALTH@GMAIL.COM",
    "categoryName": "HOME HEALTH AGENCY",
    "categoryCode": "HHA",
    "licenseStatus": "ACTIVE",
    "inService": true,
    "licenseNumber": "550005419",
    "licenseEffectiveDate": "09/17/2025",
    "licenseExpirationDate": "12/12/2025",
    "dataDate": "10/18/2025",
    "capacity": 0,
    "address": "6355 TOPANGA CANYON BLVD, SUITE 355B",
    "city": "WOODLAND HILLS",
    "zip": "91367",
    "county": "LOS ANGELES",
    "phone": "(626) 495-0001",
    "lat": 34.186336,
    "lng": -118.60657
  },
  {
    "id": "630011251",
    "name": "THE DOCTOR'S CHOICE HOME HEALTH",
    "npi": "1972790897",
    "hcaiId": "406197203",
    "businessName": "GRATITUDE HEALTH CARE, INC.",
    "contactEmail": "DAVID@THEDOCTORSCHOICEAGENCY.COM",
    "categoryName": "HOME HEALTH AGENCY",
    "categoryCode": "HHA",
    "licenseStatus": "ACTIVE",
    "inService": true,
    "licenseNumber": "550000888",
    "licenseEffectiveDate": "03/15/2025",
    "licenseExpirationDate": "03/14/2026",
    "dataDate": "10/18/2025",
    "capacity": 0,
    "address": "21800 OXNARD ST, SUITE 910",
    "city": "WOODLAND HILLS",
    "zip": "91367",
    "county": "LOS ANGELES",
    "phone": "(818) 593-7846",
    "lat": 34.17867,
    "lng": -118.6028145
  },
  {
    "id": "630018091",
    "name": "UNITED HOME HEALTH CARE GROUP",
    "npi": "1063909042",
    "hcaiId": "406191630",
    "businessName": "UNITED HOME HEALTH CARE GROUP",
    "contactEmail": "UNITEDHOMEHEALTHC@GMAIL.COM",
    "categoryName": "HOME HEALTH AGENCY",
    "categoryCode": "HHA",
    "licenseStatus": "ACTIVE",
    "inService": true,
    "licenseNumber": "550004671",
    "licenseEffectiveDate": "05/04/2025",
    "licenseExpirationDate": "05/03/2026",
    "dataDate": "10/18/2025",
    "capacity": 0,
    "address": "21700 OXNARD ST, SUITE 1295",
    "city": "WOODLAND HILLS",
    "zip": "91367",
    "county": "LOS ANGELES",
    "phone": "(818) 805-3821",
    "lat": 34.17881701,
    "lng": -118.602014
  },
  {
    "id": "630015608",
    "name": "VILLA MARTHA",
    "npi": null,
    "hcaiId": "206198484",
    "businessName": "GLOBAL CARE SOLUTIONS, INC.",
    "contactEmail": "MTOKAR1957@GMAIL.COM",
    "categoryName": "CONGREGATE LIVING HEALTH FACILITY",
    "categoryCode": "CLHF",
    "licenseStatus": "ACTIVE",
    "inService": true,
    "licenseNumber": "550003598",
    "licenseEffectiveDate": "07/18/2025",
    "licenseExpirationDate": "07/17/2026",
    "dataDate": "10/18/2025",
    "capacity": 6,
    "address": "22411 MARTHA STREET",
    "city": "WOODLAND HILLS",
    "zip": "91367",
    "county": "LOS ANGELES",
    "phone": "(747) 242-1467",
    "lat": 34.173873,
    "lng": -118.61523
  },
  {
    "id": "630016781",
    "name": "WARNER CENTER DIALYSIS",
    "npi": "1730558750",
    "hcaiId": "306198493",
    "businessName": "DALE DIALYSIS LLC",
    "contactEmail": "CAL_C@DAVITA.COM",
    "categoryName": "CHRONIC DIALYSIS CLINIC",
    "categoryCode": "ESRD/CDC",
    "licenseStatus": "ACTIVE",
    "inService": true,
    "licenseNumber": "550003916",
    "licenseEffectiveDate": "05/09/2025",
    "licenseExpirationDate": "05/08/2026",
    "dataDate": "10/18/2025",
    "capacity": 0,
    "address": "21040 CALIFA STREET, SUITE A",
    "city": "WOODLAND HILLS",
    "zip": "91367",
    "county": "LOS ANGELES",
    "phone": "(818) 715-9602",
    "lat": 34.176933,
    "lng": -118.591407
  },
  {
    "id": "630024153",
    "name": "WEST VALLEY ADULT DAY HEALTH CARE",
    "npi": null,
    "hcaiId": null,
    "businessName": "WEST VALLEY ADULT DAY HEALTH CARE, INC",
    "contactEmail": "WESTVALLEYADHC@GMAIL.COM",
    "categoryName": "ADULT DAY HEALTH CARE",
    "categoryCode": "ADHC",
    "licenseStatus": "ACTIVE",
    "inService": true,
    "licenseNumber": "550007705",
    "licenseEffectiveDate": "09/03/2025",
    "licenseExpirationDate": "12/23/2025",
    "dataDate": "10/18/2025",
    "capacity": 0,
    "address": "21045 CALIFA ST",
    "city": "WOODLAND HILLS",
    "zip": "91367",
    "county": "LOS ANGELES",
    "phone": "(818) 805-3166",
    "lat": 34.177795,
    "lng": -118.5918541
  },
  {
    "id": "630014528",
    "name": "WESTERN PALLIATIVE CARE, INC.",
    "npi": "1215218896",
    "hcaiId": "406191293",
    "businessName": "WESTERN PALLIATIVE CARE, INC.",
    "contactEmail": "WESTERNPALLIATIVECAREINC@GMAIL.COM",
    "categoryName": "HOSPICE",
    "categoryCode": "HOSPICE",
    "licenseStatus": "ACTIVE",
    "inService": true,
    "licenseNumber": "550003656",
    "licenseEffectiveDate": "09/09/2022",
    "licenseExpirationDate": "09/08/2024",
    "dataDate": "10/18/2025",
    "capacity": 0,
    "address": "21860 BURBANK BLVD, SUITE 180 B",
    "city": "WOODLAND HILLS",
    "zip": "91367",
    "county": "LOS ANGELES",
    "phone": "(818) 888-8451",
    "lat": 34.171344,
    "lng": -118.6036245
  },
  {
    "id": "630019415",
    "name": "WOODLAND HILLS DIALYSIS LLC",
    "npi": null,
    "hcaiId": "306190550",
    "businessName": "WOODLAND HILLS DIALYSIS CENTER, LLC",
    "contactEmail": "INFO@NATIONALRENALCARE.COM",
    "categoryName": "CHRONIC DIALYSIS CLINIC",
    "categoryCode": "ESRD/CDC",
    "licenseStatus": "ACTIVE",
    "inService": true,
    "licenseNumber": "550005443",
    "licenseEffectiveDate": "04/16/2025",
    "licenseExpirationDate": "04/15/2026",
    "dataDate": "10/18/2025",
    "capacity": 14,
    "address": "5939 CANOGA AVE",
    "city": "WOODLAND HILLS",
    "zip": "91367",
    "county": "LOS ANGELES",
    "phone": "(818) 884-9999",
    "lat": 34.178157,
    "lng": -118.597716
  }
]