[
  {
    "id": "630013917",
    "name": "ALSANA - THOUSAND OAKS NORTH",
    "npi": null,
    "hcaiId": "206564282",
    "businessName": "ALSANA WEST LLC",
    "contactEmail": "ALEXANDER.BETETTA@ALSANA.COM",
    "categoryName": "CONGREGATE LIVING HEALTH FACILITY",
    "categoryCode": "CLHF",
    "licenseStatus": "ACTIVE",
    "inService": true,
    "licenseNumber": "550002229",
    "licenseEffectiveDate": "03/27/2025",
    "licenseExpirationDate": "03/26/2026",
    "dataDate": "10/18/2025",
    "capacity": 6,
    "address": "1590 LA GRANADA DRIVE",
    "city": "THOUSAND OAKS",
    "zip": "91362",
    "county": "VENTURA",
    "phone": "(805) 273-5358",
    "lat": 34.193286,
    "lng": -118.850265
  },
  {
    "id": "630016215",
    "name": "ALSANA - THOUSAND OAKS SOUTH",
    "npi": null,
    "hcaiId": "206564275",
    "businessName": "ALSANA WEST LLC",
    "contactEmail": "ALEXANDER.BETETTA@ALSANA.COM",
    "categoryName": "CONGREGATE LIVING HEALTH FACILITY",
    "categoryCode": "CLHF",
    "licenseStatus": "ACTIVE",
    "inService": true,
    "licenseNumber": "550003416",
    "licenseEffectiveDate": "03/02/2025",
    "licenseExpirationDate": "03/01/2026",
    "dataDate": "10/18/2025",
    "capacity": 6,
    "address": "913 BRUCE CIR",
    "city": "THOUSAND OAKS",
    "zip": "91362",
    "county": "VENTURA",
    "phone": "(805) 273-5358",
    "lat": 34.189731,
    "lng": -118.8528435
  },
  {
    "id": "630010701",
    "name": "AMERICAN DREAM HOME HEALTH CARE, INC.",
    "npi": "1346274362",
    "hcaiId": "406196959",
    "businessName": "AMERICAN DREAM HOME HEALTH CARE, INC.",
    "contactEmail": "ADMIN@AMERDREAMHOME.COM",
    "categoryName": "HOME HEALTH AGENCY",
    "categoryCode": "HHA",
    "licenseStatus": "ACTIVE",
    "inService": true,
    "licenseNumber": "550000412",
    "licenseEffectiveDate": "12/09/2024",
    "licenseExpirationDate": "12/08/2025",
    "dataDate": "10/18/2025",
    "capacity": 0,
    "address": "31194 LA BAYA DR, SUITE 107",
    "city": "WESTLAKE VILLAGE",
    "zip": "91362",
    "county": "VENTURA",
    "phone": "(818) 707-8999",
    "lat": 34.155981,
    "lng": -118.802079
  },
  {
    "id": "630013524",
    "name": "BRIGHTSTAR CARE CONEJO VALLEY",
    "npi": "1710267034",
    "hcaiId": "406564237",
    "businessName": "RGAC ENTERPRISES, INC.",
    "contactEmail": "BRIGHTSTARCVLAENTERPRISE@BRIGHTSTARCARE.COM",
    "categoryName": "HOME HEALTH AGENCY",
    "categoryCode": "HHA",
    "licenseStatus": "ACTIVE",
    "inService": true,
    "licenseNumber": "550002234",
    "licenseEffectiveDate": "04/12/2025",
    "licenseExpirationDate": "04/11/2026",
    "dataDate": "10/18/2025",
    "capacity": 0,
    "address": "370 N WESTLAKE BLVD, SUITE 120",
    "city": "THOUSAND OAKS",
    "zip": "91362",
    "county": "VENTURA",
    "phone": "(805) 233-3800",
    "lat": 34.164369,
    "lng": -118.821168
  },
  {
    "id": "630025111",
    "name": "CARE 4U HOME HEALTH SERVICES, INC.",
    "npi": null,
    "hcaiId": "406567791",
    "businessName": "CARE 4U HOME HEALTH SERVICES, INC.",
    "contactEmail": "CARE4UHOMEHEALTHCARE@GMAIL.COM",
    "categoryName": "HOME HEALTH AGENCY",
    "categoryCode": "HHA",
    "licenseStatus": "ACTIVE",
    "inService": true,
    "licenseNumber": "550008343",
    "licenseEffectiveDate": "01/23/2025",
    "licenseExpirationDate": "01/22/2026",
    "dataDate": "10/18/2025",
    "capacity": 0,
    "address": "3075 E THOUSAND OAKS BLVD, SUITE 29",
    "city": "WESTLAKE VILLAGE",
    "zip": "91362",
    "county": "VENTURA",
    "phone": "(818) 660-5664",
    "lat": 34.16978501,
    "lng": -118.835679
  },
  {
    "id": "630017557",
    "name": "CONEJO VALLEY HOSPICE",
    "npi": "1447778394",
    "hcaiId": "406566559",
    "businessName": "SPIRIT HEALTHCARE HOSPICE, INC.",
    "contactEmail": "SPIRITHEALTHCAREHOSPICE@YAHOO.COM",
    "categoryName": "HOSPICE",
    "categoryCode": "HOSPICE",
    "licenseStatus": "ACTIVE",
    "inService": true,
    "licenseNumber": "550004634",
    "licenseEffectiveDate": "03/15/2023",
    "licenseExpirationDate": "03/14/2025",
    "dataDate": "10/18/2025",
    "capacity": 0,
    "address": "1337 E THOUSAND OAKS BLVD, SUITE 202",
    "city": "THOUSAND OAKS",
    "zip": "91362",
    "county": "VENTURA",
    "phone": "(805) 232-7111",
    "lat": 34.179363,
    "lng": -118.8563175
  },
  {
    "id": "630011883",
    "name": "FLORENCE HOME HEALTH CARE",
    "npi": "1295990034",
    "hcaiId": "406564196",
    "businessName": "FLORENCE HOME HEALTH CARE",
    "contactEmail": "REZA1375@HOTMAIL.COM",
    "categoryName": "HOME HEALTH AGENCY",
    "categoryCode": "HHA",
    "licenseStatus": "ACTIVE",
    "inService": true,
    "licenseNumber": "550001062",
    "licenseEffectiveDate": "05/04/2025",
    "licenseExpirationDate": "05/03/2026",
    "dataDate": "10/18/2025",
    "capacity": 0,
    "address": "2521 E THOUSAND OAKS BLVD",
    "city": "THOUSAND OAKS",
    "zip": "91362",
    "county": "VENTURA",
    "phone": "(805) 497-1674",
    "lat": 34.173792,
    "lng": -118.8409725
  },
  {
    "id": "630021438",
    "name": "HEALING ANGELS HOME HEALTH INC",
    "npi": null,
    "hcaiId": "406560028",
    "businessName": "HEALING ANGELS HOME HEALTH INC",
    "contactEmail": "MAHZAD@HEALINGANGELSHH.COM",
    "categoryName": "HOME HEALTH AGENCY",
    "categoryCode": "HHA",
    "licenseStatus": "ACTIVE",
    "inService": true,
    "licenseNumber": "550006653",
    "licenseEffectiveDate": "08/16/2025",
    "licenseExpirationDate": "08/15/2026",
    "dataDate": "10/18/2025",
    "capacity": 0,
    "address": "30700 RUSSELL RANCH RD, SUITE 254",
    "city": "WESTLAKE VILLAGE",
    "zip": "91362",
    "county": "VENTURA",
    "phone": "(818) 223-1738",
    "lat": 34.14975498,
    "lng": -118.793706
  },
  {
    "id": "630020172",
    "name": "HILLCREST HOSPICE INC.",
    "npi": null,
    "hcaiId": "406563225",
    "businessName": "HILLCREST HOSPICE, INC.",
    "contactEmail": "INFO.HILLCRESTHOSPICE@GMAIL.COM",
    "categoryName": "HOSPICE",
    "categoryCode": "HOSPICE",
    "licenseStatus": "ACTIVE",
    "inService": true,
    "licenseNumber": "550006228",
    "licenseEffectiveDate": "07/02/2025",
    "licenseExpirationDate": "03/31/2027",
    "dataDate": "10/18/2025",
    "capacity": 0,
    "address": "2985 E HILLCREST DR, SUITE 203",
    "city": "WESTLAKE VILLAGE",
    "zip": "91362",
    "county": "VENTURA",
    "phone": "(805) 370-0050",
    "lat": 34.173358,
    "lng": -118.834039
  },
  {
    "id": "630025116",
    "name": "HOMEAID HOME HEALTH CARE, INC.",
    "npi": null,
    "hcaiId": "406560023",
    "businessName": "HOMEAID HOME HEALTH CARE, INC.",
    "contactEmail": "HOMEAIDHOMEHEALTHCARE@GMAIL.COM",
    "categoryName": "HOME HEALTH AGENCY",
    "categoryCode": "HHA",
    "licenseStatus": "ACTIVE",
    "inService": true,
    "licenseNumber": "550008344",
    "licenseEffectiveDate": "01/23/2025",
    "licenseExpirationDate": "01/22/2026",
    "dataDate": "10/18/2025",
    "capacity": 0,
    "address": "3075 E THOUSAND OAKS BLVD, SUITE 28",
    "city": "WESTLAKE VILLAGE",
    "zip": "91362",
    "county": "VENTURA",
    "phone": "(855) 677-0777",
    "lat": 34.16976,
    "lng": -118.835676
  },
  {
    "id": "630017856",
    "name": "INFINITY ADULT DAY HEALTH CARE CENTER",
    "npi": null,
    "hcaiId": null,
    "businessName": "S & K HEALTH SERVICES, INC.",
    "contactEmail": "INFINITYADHC@GMAIL.COM",
    "categoryName": "ADULT DAY HEALTH CARE",
    "categoryCode": "ADHC",
    "licenseStatus": "ACTIVE",
    "inService": true,
    "licenseNumber": "550004836",
    "licenseEffectiveDate": "08/12/2025",
    "licenseExpirationDate": "08/11/2026",
    "dataDate": "10/18/2025",
    "capacity": 0,
    "address": "5703 CORSA AVE, SUITE 100",
    "city": "WESTLAKE VILLAGE",
    "zip": "91362",
    "county": "VENTURA",
    "phone": "(818) 532-6974",
    "lat": 34.155342,
    "lng": -118.799811
  },
  {
    "id": "050000553",
    "name": "LOS ROBLES HOSPITAL & MEDICAL CENTER - EAST CAMPUS",
    "npi": null,
    "hcaiId": "106564018",
    "businessName": "LOS ROBLES REGIONAL MEDICAL CENTER",
    "contactEmail": null,
    "categoryName": "GENERAL ACUTE CARE HOSPITAL",
    "categoryCode": "GACH",
    "licenseStatus": "ACTIVE",
    "inService": true,
    "licenseNumber": "050000039",
    "licenseEffectiveDate": "11/01/2025",
    "licenseExpirationDate": "10/31/2026",
    "dataDate": "10/18/2025",
    "capacity": 40,
    "address": "150 VIA MERIDA",
    "city": "WESTLAKE VILLAGE",
    "zip": "91362",
    "county": "VENTURA",
    "phone": "(805) 370-4421",
    "lat": 34.155018,
    "lng": -118.8156375
  },
  {
    "id": "050000469",
    "name": "MOMENTUM AGENCIES BEL AIR HOUSE",
    "npi": "1669622353",
    "hcaiId": null,
    "businessName": "MOMENTUM AGENCIES",
    "contactEmail": "LJAMERSON@MOMENTUM4ALL.ORG",
    "categoryName": "INTERMEDIATE CARE FACILITY-DD/H/N/CN/IID",
    "categoryCode": "ICFDDN",
    "licenseStatus": "ACTIVE",
    "inService": true,
    "licenseNumber": "050000222",
    "licenseEffectiveDate": "04/21/2025",
    "licenseExpirationDate": "04/20/2026",
    "dataDate": "10/18/2025",
    "capacity": 15,
    "address": "2220 N WESTLAKE BLVD",
    "city": "WESTLAKE VILLAGE",
    "zip": "91362",
    "county": "VENTURA",
    "phone": "(805) 371-0080",
    "lat": 34.202727,
    "lng": -118.825929
  },
  {
    "id": "050000468",
    "name": "MOMENTUM AGENCIES ICF/DD-N HILLCREST",
    "npi": "1720254535",
    "hcaiId": null,
    "businessName": "MOMENTUM AGENCIES",
    "contactEmail": "BILAILAIRE@MOMENTUM4ALL.ORG",
    "categoryName": "INTERMEDIATE CARE FACILITY-DD/H/N/CN/IID",
    "categoryCode": "ICFDDN",
    "licenseStatus": "ACTIVE",
    "inService": true,
    "licenseNumber": "050000221",
    "licenseEffectiveDate": "01/08/2025",
    "licenseExpirationDate": "01/07/2026",
    "dataDate": "10/18/2025",
    "capacity": 15,
    "address": "2170 N WESTLAKE BLVD",
    "city": "WESTLAKE VILLAGE",
    "zip": "91362",
    "county": "VENTURA",
    "phone": null,
    "lat": 34.201701,
    "lng": -118.825191
  },
  {
    "id": "630012467",
    "name": "NEIGHBOR CARE HOME HEALTH",
    "npi": "1790013894",
    "hcaiId": "406564209",
    "businessName": "ROSALES INC",
    "contactEmail": "INFO@NEIGHBORCAREINC.COM",
    "categoryName": "HOME HEALTH AGENCY",
    "categoryCode": "HHA",
    "licenseStatus": "ACTIVE",
    "inService": true,
    "licenseNumber": "550001339",
    "licenseEffectiveDate": "11/22/2024",
    "licenseExpirationDate": "11/21/2025",
    "dataDate": "10/18/2025",
    "capacity": 0,
    "address": "2955 E HILLCREST DR, SUITE 123",
    "city": "WESTLAKE VILLAGE",
    "zip": "91362",
    "county": "VENTURA",
    "phone": "(805) 496-8183",
    "lat": 34.17345,
    "lng": -118.834443
  },
  {
    "id": "630015486",
    "name": "NEIGHBOR CARE HOSPICE",
    "npi": "1386057594",
    "hcaiId": "406564268",
    "businessName": "ROSALES, INC.",
    "contactEmail": "INFO.HOSPICE@NEIGHBORCAREINC.COM",
    "categoryName": "HOSPICE",
    "categoryCode": "HOSPICE",
    "licenseStatus": "ACTIVE",
    "inService": true,
    "licenseNumber": "550003203",
    "licenseEffectiveDate": "10/11/2024",
    "licenseExpirationDate": "08/31/2025",
    "dataDate": "10/18/2025",
    "capacity": 0,
    "address": "2985 E HILLCREST DR, SUITE 210",
    "city": "WESTLAKE VILLAGE",
    "zip": "91362",
    "county": "VENTURA",
    "phone": "(805) 379-2398",
    "lat": 34.173358,
    "lng": -118.834039
  },
  {
    "id": "630027069",
    "name": "UNIQUE SERVICES CARE, INC.",
    "npi": null,
    "hcaiId": null,
    "businessName": "UNIQUE SERVICES CARE, INC.",
    "contactEmail": "UNIQUESERVICESCAREINC@GMAIL.COM",
    "categoryName": "HOME HEALTH AGENCY",
    "categoryCode": "HHA",
    "licenseStatus": "ACTIVE",
    "inService": true,
    "licenseNumber": "550009446",
    "licenseEffectiveDate": "09/09/2025",
    "licenseExpirationDate": "09/08/2026",
    "dataDate": "10/18/2025",
    "capacity": 0,
    "address": "2537 E THOUSAND OAKS BLVD",
    "city": "THOUSAND OAKS",
    "zip": "91362",
    "county": "VENTURA",
    "phone": "(805) 517-4477",
    "lat": 34.17379399,
    "lng": -118.840981
  },
  {
    "id": "630010908",
    "name": "WEST COAST NURSING VENTURA INC",
    "npi": "1134289598",
    "hcaiId": "406564180",
    "businessName": "WEST COAST NURSING VENTURA INC",
    "contactEmail": "SRBUI@WCNVENTURA.COM",
    "categoryName": "HOME HEALTH AGENCY",
    "categoryCode": "HHA",
    "licenseStatus": "ACTIVE",
    "inService": true,
    "licenseNumber": "550000571",
    "licenseEffectiveDate": "11/04/2023",
    "licenseExpirationDate": "11/03/2024",
    "dataDate": "10/18/2025",
    "capacity": 0,
    "address": "2955 E HILLCREST DR, SUITE 121",
    "city": "WESTLAKE VILLAGE",
    "zip": "91362",
    "county": "VENTURA",
    "phone": "(805) 496-0900",
    "lat": 34.17345,
    "lng": -118.834443
  }
]