[
  {
    "id": "630011823",
    "name": "AVEANNA HEALTHCARE",
    "npi": "1093946238",
    "hcaiId": "406197479",
    "businessName": "PREMIER HEALTHCARE SERVICES, LLC",
    "contactEmail": "CREDENTIALING@AVEANNA.COM",
    "categoryName": "HOME HEALTH AGENCY",
    "categoryCode": "HHA",
    "licenseStatus": "ACTIVE",
    "inService": true,
    "licenseNumber": "550001478",
    "licenseEffectiveDate": "02/03/2025",
    "licenseExpirationDate": "02/02/2026",
    "dataDate": "10/18/2025",
    "capacity": 0,
    "address": "25129 THE OLD RD, SUITE 320",
    "city": "STEVENSON RANCH",
    "zip": "91381",
    "county": "LOS ANGELES",
    "phone": "(661) 253-1100",
    "lat": 34.374933,
    "lng": -118.5644565
  },
  {
    "id": "630006381",
    "name": "LOS ANGELES HOSPICE - NORTH",
    "npi": null,
    "hcaiId": "406196702",
    "businessName": "LOS ANGELES HOSPICE, INC.",
    "contactEmail": "PB@LAHOSPICE.COM",
    "categoryName": "HOSPICE",
    "categoryCode": "HOSPICE",
    "licenseStatus": "ACTIVE",
    "inService": true,
    "licenseNumber": "980001542",
    "licenseEffectiveDate": "03/31/2023",
    "licenseExpirationDate": "03/30/2025",
    "dataDate": "10/18/2025",
    "capacity": 0,
    "address": "25101 THE OLD ROAD, SUITE 218",
    "city": "SANTA CLARITA",
    "zip": "91381",
    "county": "LOS ANGELES",
    "phone": "(661) 799-5826",
    "lat": 34.3738971,
    "lng": -118.5656438
  },
  {
    "id": "630023744",
    "name": "ROYALTY HOME HEALTH",
    "npi": null,
    "hcaiId": "406195606",
    "businessName": "UNI HEALTHCARE INC",
    "contactEmail": "BINZIERD@YAHOO.COM",
    "categoryName": "HOME HEALTH AGENCY",
    "categoryCode": "HHA",
    "licenseStatus": "ACTIVE",
    "inService": true,
    "licenseNumber": "550008169",
    "licenseEffectiveDate": "09/20/2025",
    "licenseExpirationDate": "09/19/2026",
    "dataDate": "10/18/2025",
    "capacity": 0,
    "address": "25129 THE OLD RD, SUITE 204",
    "city": "STEVENSON RANCH",
    "zip": "91381",
    "county": "LOS ANGELES",
    "phone": "(661) 222-9984",
    "lat": 34.3749711,
    "lng": -118.5645368
  }
]