[
  {
    "id": "630025772",
    "name": "BRIDGEPORT HOMEHEALTH",
    "npi": null,
    "hcaiId": null,
    "businessName": null,
    "contactEmail": "BRIDGEPORTHH@GMAIL.COM",
    "categoryName": "HOME HEALTH AGENCY",
    "categoryCode": "HHA",
    "licenseStatus": null,
    "inService": null,
    "licenseNumber": null,
    "licenseEffectiveDate": null,
    "licenseExpirationDate": null,
    "dataDate": "10/18/2025",
    "capacity": 0,
    "address": "27936 LOST CANYON RD, SUITE 205",
    "city": "SANTA CLARITA",
    "zip": "91387",
    "county": "LOS ANGELES",
    "phone": "(888) 988-2743",
    "lat": 34.41966199,
    "lng": -118.437138
  },
  {
    "id": "630002921",
    "name": "CANYON COUNTRY DIALYSIS CENTER",
    "npi": "1932170008",
    "hcaiId": "306196635",
    "businessName": "CANYON COUNTRY DIALYSIS CENTER, LLC",
    "contactEmail": "AP@NATIONALRENALCARE.COM",
    "categoryName": "CHRONIC DIALYSIS CLINIC",
    "categoryCode": "ESRD/CDC",
    "licenseStatus": "ACTIVE",
    "inService": true,
    "licenseNumber": "550000035",
    "licenseEffectiveDate": "06/17/2025",
    "licenseExpirationDate": "06/16/2026",
    "dataDate": "10/18/2025",
    "capacity": 31,
    "address": "18520 VIA PRINCESSA, BUILDING C-1, STE. A",
    "city": "CANYON COUNTRY",
    "zip": "91387",
    "county": "LOS ANGELES",
    "phone": "(562) 421-2690",
    "lat": 34.403004,
    "lng": -118.458531
  },
  {
    "id": "630027991",
    "name": "LITTLE ANGELS PDHC, LLC",
    "npi": null,
    "hcaiId": null,
    "businessName": "LITTLE ANGELS PDHC, LLC",
    "contactEmail": "CONTACT@LITTLEANGELSHEALTHCARE.COM",
    "categoryName": "PEDIATRIC DAY HEALTH & RESPITE CARE FACILITY",
    "categoryCode": "PDHRCF",
    "licenseStatus": "ACTIVE",
    "inService": true,
    "licenseNumber": "550009889",
    "licenseEffectiveDate": "04/23/2025",
    "licenseExpirationDate": "04/22/2026",
    "dataDate": "10/18/2025",
    "capacity": 15,
    "address": "18534 VIA PRINCESSA",
    "city": "CANYON COUNTRY",
    "zip": "91387",
    "county": "LOS ANGELES",
    "phone": "(877) 717-3920",
    "lat": 34.40317057,
    "lng": -118.4583695
  },
  {
    "id": "630020842",
    "name": "PRIORITY HOME HEALTH GROUP, INC.",
    "npi": null,
    "hcaiId": "406193827",
    "businessName": "PRIORITY HOME HEALTH GROUP, INC.",
    "contactEmail": "PRIORITYHHGROUPINC@GMAIL.COM",
    "categoryName": "HOME HEALTH AGENCY",
    "categoryCode": "HHA",
    "licenseStatus": "ACTIVE",
    "inService": true,
    "licenseNumber": "550007240",
    "licenseEffectiveDate": "11/18/2025",
    "licenseExpirationDate": "11/17/2026",
    "dataDate": "10/18/2025",
    "capacity": 0,
    "address": "27936 VISTA CANYON BLVD, SUITE 100",
    "city": "SANTA CLARITA",
    "zip": "91387",
    "county": "LOS ANGELES",
    "phone": "(747) 248-2671",
    "lat": 34.4547412,
    "lng": -119.100805
  },
  {
    "id": "630016493",
    "name": "SANTA CLARITA CONGREGATE LIVING",
    "npi": null,
    "hcaiId": "206190095",
    "businessName": "SANTA CLARITA CONGREGATE LIVING INC.",
    "contactEmail": "SCCLIVING@OUTLOOK.COM",
    "categoryName": "CONGREGATE LIVING HEALTH FACILITY",
    "categoryCode": "CLHF",
    "licenseStatus": "ACTIVE",
    "inService": true,
    "licenseNumber": "550004476",
    "licenseEffectiveDate": "12/20/2024",
    "licenseExpirationDate": "12/19/2025",
    "dataDate": "10/18/2025",
    "capacity": 6,
    "address": "29830 WISTERIA VALLEY ROAD",
    "city": "SANTA CLARITA",
    "zip": "91387",
    "county": "LOS ANGELES",
    "phone": "(661) 367-6990",
    "lat": 34.448013,
    "lng": -118.3995135
  },
  {
    "id": "630027161",
    "name": "SCV DENTAL AND WELLNESS CENTER",
    "npi": null,
    "hcaiId": null,
    "businessName": "NORTHEAST VALLEY HEALTH CORPORATION",
    "contactEmail": "MELISSARAMOS@NEVHC.ORG",
    "categoryName": "PRIMARY CARE CLINIC",
    "categoryCode": "COMTYC",
    "licenseStatus": "ACTIVE",
    "inService": true,
    "licenseNumber": "550009523",
    "licenseEffectiveDate": "11/05/2025",
    "licenseExpirationDate": "11/04/2026",
    "dataDate": "10/18/2025",
    "capacity": 0,
    "address": "17909 SOLEDAD CANYON RD, FLOOR 2ND",
    "city": "SANTA CLARITA",
    "zip": "91387",
    "county": "LOS ANGELES",
    "phone": "(661) 673-8888",
    "lat": 34.41679399,
    "lng": -118.445859
  },
  {
    "id": "630016551",
    "name": "VALENCIA HOME HEALTH CARE, LLC",
    "npi": "1154789485",
    "hcaiId": "406190873",
    "businessName": "VALENCIA HOME HEALTH  CARE, LLC",
    "contactEmail": "DOKESOLA@VALENCIAHOMEHEALTH.COM",
    "categoryName": "HOME HEALTH AGENCY",
    "categoryCode": "HHA",
    "licenseStatus": "ACTIVE",
    "inService": true,
    "licenseNumber": "550004088",
    "licenseEffectiveDate": "12/27/2024",
    "licenseExpirationDate": "12/26/2025",
    "dataDate": "10/18/2025",
    "capacity": 0,
    "address": "18333 DOLAN WAY, SUITE 206",
    "city": "CANYON COUNTRY",
    "zip": "91387",
    "county": "LOS ANGELES",
    "phone": "(661) 424-9590",
    "lat": 34.419798,
    "lng": -118.45314
  }
]