[
  {
    "id": "630018391",
    "name": "ABSOLUTE HOSPICE AGENCY LLC",
    "npi": "1366925778",
    "hcaiId": "406191801",
    "businessName": "ABSOLUTE HOSPICE AGENCY LLC",
    "contactEmail": "ABSOLUTEHOSPICEAGENCY@GMAIL.COM",
    "categoryName": "HOSPICE",
    "categoryCode": "HOSPICE",
    "licenseStatus": "ACTIVE",
    "inService": true,
    "licenseNumber": "550004770",
    "licenseEffectiveDate": "10/09/2024",
    "licenseExpirationDate": "06/21/2025",
    "dataDate": "10/18/2025",
    "capacity": 0,
    "address": "4910 VAN NUYS BLVD, SUITE 212",
    "city": "SHERMAN OAKS",
    "zip": "91403",
    "county": "LOS ANGELES",
    "phone": "(424) 317-5040",
    "lat": 34.15978699,
    "lng": -118.448172
  },
  {
    "id": "630017775",
    "name": "ADDISON ASC",
    "npi": "1467903716",
    "hcaiId": null,
    "businessName": null,
    "contactEmail": "LUIS@ADDISONSURGERYCENTER.COM",
    "categoryName": "SURGICAL CLINIC",
    "categoryCode": "ASC",
    "licenseStatus": null,
    "inService": null,
    "licenseNumber": null,
    "licenseEffectiveDate": null,
    "licenseExpirationDate": null,
    "dataDate": "10/18/2025",
    "capacity": 0,
    "address": "4955 VAN NUYS BLVD, SUITE 719",
    "city": "SHERMAN OAKS",
    "zip": "91403",
    "county": "LOS ANGELES",
    "phone": "(818) 905-7191",
    "lat": 34.160778,
    "lng": -118.4488965
  },
  {
    "id": "960002512",
    "name": "AHF HEALTHCARE CENTER / VALLEY",
    "npi": "1598740177",
    "hcaiId": "306196135",
    "businessName": "AIDS HEALTHCARE FOUNDATION",
    "contactEmail": "PHARMACYOPERATIONS@AHFRX.ORG",
    "categoryName": "PRIMARY CARE CLINIC",
    "categoryCode": "COMTYC",
    "licenseStatus": "ACTIVE",
    "inService": true,
    "licenseNumber": "960001164",
    "licenseEffectiveDate": "01/02/2025",
    "licenseExpirationDate": "01/01/2026",
    "dataDate": "10/18/2025",
    "capacity": 0,
    "address": "4940 VAN NUYS BLVD, SUITE 200",
    "city": "SHERMAN OAKS",
    "zip": "91403",
    "county": "LOS ANGELES",
    "phone": "(310) 999-6089",
    "lat": 34.16059345,
    "lng": -118.4483508
  },
  {
    "id": "630014722",
    "name": "ALEVE HOSPICE CARE OF LOS ANGELES, INC.",
    "npi": "1164859708",
    "hcaiId": "406198397",
    "businessName": "ALEVE HOSPICE CARE OF LOS ANGELES, INC.",
    "contactEmail": "ALEVEHOSPICECARE@GMAIL.COM",
    "categoryName": "HOSPICE",
    "categoryCode": "HOSPICE",
    "licenseStatus": "ACTIVE",
    "inService": true,
    "licenseNumber": "550003120",
    "licenseEffectiveDate": "06/11/2025",
    "licenseExpirationDate": "06/10/2027",
    "dataDate": "10/18/2025",
    "capacity": 0,
    "address": "5121 VAN NUYS BLVD, SUITE 210-211",
    "city": "SHERMAN OAKS",
    "zip": "91403",
    "county": "LOS ANGELES",
    "phone": "(818) 891-1000",
    "lat": 34.163748,
    "lng": -118.4491575
  },
  {
    "id": "630012997",
    "name": "ALLEVIATION HEALTHCARE SERVICES INC",
    "npi": "1013210707",
    "hcaiId": "406192069",
    "businessName": "ALLEVIATION HEALTHCARE SERVICES INC",
    "contactEmail": "TRJOHN@ALLEVIATIONHS.COM",
    "categoryName": "HOME HEALTH AGENCY",
    "categoryCode": "HHA",
    "licenseStatus": "ACTIVE",
    "inService": true,
    "licenseNumber": "550001682",
    "licenseEffectiveDate": "11/01/2025",
    "licenseExpirationDate": "10/31/2026",
    "dataDate": "10/18/2025",
    "capacity": 0,
    "address": "15335 MORRISON ST, SUITE 103B",
    "city": "SHERMAN OAKS",
    "zip": "91403",
    "county": "LOS ANGELES",
    "phone": "(818) 647-1160",
    "lat": 34.161174,
    "lng": -118.467765
  },
  {
    "id": "630026107",
    "name": "AMERIBEST CARE HOME HEALTH, INC.",
    "npi": null,
    "hcaiId": null,
    "businessName": "AMERIBEST CARE HOME HEALTH, INC.",
    "contactEmail": "AMERIBESTCAREHHINC@GMAIL.COM",
    "categoryName": "HOME HEALTH AGENCY",
    "categoryCode": "HHA",
    "licenseStatus": "ACTIVE",
    "inService": true,
    "licenseNumber": "550009407",
    "licenseEffectiveDate": "03/26/2025",
    "licenseExpirationDate": "09/25/2025",
    "dataDate": "10/18/2025",
    "capacity": 0,
    "address": "4854 VAN NUYS BLVD, SUITE 210B",
    "city": "SHERMAN OAKS",
    "zip": "91403",
    "county": "LOS ANGELES",
    "phone": "(747) 212-4548",
    "lat": 34.159167,
    "lng": -118.448496
  },
  {
    "id": "630025627",
    "name": "AMHH HEALTH SERVICES, INC.",
    "npi": null,
    "hcaiId": "406198195",
    "businessName": "AMHH HEALTH SERVICES, INC.",
    "contactEmail": "AMHHHEALTHSERVICES@YAHOO.COM",
    "categoryName": "HOME HEALTH AGENCY",
    "categoryCode": "HHA",
    "licenseStatus": "ACTIVE",
    "inService": true,
    "licenseNumber": "550008784",
    "licenseEffectiveDate": "09/28/2024",
    "licenseExpirationDate": "09/27/2025",
    "dataDate": "10/18/2025",
    "capacity": 0,
    "address": "14542 VENTURA BLVD, SUITE 206A",
    "city": "SHERMAN OAKS",
    "zip": "91403",
    "county": "LOS ANGELES",
    "phone": "(818) 582-3279",
    "lat": 34.150995,
    "lng": -118.450179
  },
  {
    "id": "630021489",
    "name": "AMHH HOSPICE, INC.",
    "npi": null,
    "hcaiId": "406193709",
    "businessName": "AMHH HOSPICE, INC.",
    "contactEmail": "AMHHHOSPICE@YAHOO.COM",
    "categoryName": "HOSPICE",
    "categoryCode": "HOSPICE",
    "licenseStatus": "ACTIVE",
    "inService": true,
    "licenseNumber": "550006846",
    "licenseEffectiveDate": "09/10/2023",
    "licenseExpirationDate": "09/09/2025",
    "dataDate": "10/18/2025",
    "capacity": 0,
    "address": "14542 VENTURA BLVD, SUITE 206",
    "city": "SHERMAN OAKS",
    "zip": "91403",
    "county": "LOS ANGELES",
    "phone": "(818) 582-3411",
    "lat": 34.151123,
    "lng": -118.450144
  },
  {
    "id": "630020541",
    "name": "AMPM HOSPICE, INC.",
    "npi": null,
    "hcaiId": "406196138",
    "businessName": "AMPM HOSPICE, INC.",
    "contactEmail": "AMPMCARE@YAHOO.COM",
    "categoryName": "HOSPICE",
    "categoryCode": "HOSPICE",
    "licenseStatus": "ACTIVE",
    "inService": true,
    "licenseNumber": "550006321",
    "licenseEffectiveDate": "04/29/2025",
    "licenseExpirationDate": "04/28/2027",
    "dataDate": "10/18/2025",
    "capacity": 0,
    "address": "14542 VENTURA BLVD, SUITE 202",
    "city": "SHERMAN OAKS",
    "zip": "91403",
    "county": "LOS ANGELES",
    "phone": "(818) 809-2374",
    "lat": 34.150995,
    "lng": -118.450179
  },
  {
    "id": "630024129",
    "name": "ANIMA HOME HEALTH CARE, INC.",
    "npi": null,
    "hcaiId": "406195899",
    "businessName": "ANIMA HOME HEALTH CARE, INC.",
    "contactEmail": "LUKE@MERIDIANPRIMENURSING.COM",
    "categoryName": "HOME HEALTH AGENCY",
    "categoryCode": "HHA",
    "licenseStatus": "ACTIVE",
    "inService": true,
    "licenseNumber": "550008095",
    "licenseEffectiveDate": "08/21/2025",
    "licenseExpirationDate": "07/25/2026",
    "dataDate": "10/18/2025",
    "capacity": 0,
    "address": "15125 VENTURA BLVD, SUITE 2-8",
    "city": "SHERMAN OAKS",
    "zip": "91403",
    "county": "LOS ANGELES",
    "phone": "(888) 959-2744",
    "lat": 34.15327858,
    "lng": -118.46254
  },
  {
    "id": "630026559",
    "name": "ARN HOME HEALTH",
    "npi": null,
    "hcaiId": null,
    "businessName": "ARN HOME HEALTH",
    "contactEmail": "ARNHOMEHEALTH@GMAIL.COM",
    "categoryName": "HOME HEALTH AGENCY",
    "categoryCode": "HHA",
    "licenseStatus": "ACTIVE",
    "inService": true,
    "licenseNumber": "550009691",
    "licenseEffectiveDate": "08/18/2025",
    "licenseExpirationDate": "02/17/2026",
    "dataDate": "10/18/2025",
    "capacity": 0,
    "address": "4910 VAN NUYS BLVD, SUITE 105",
    "city": "SHERMAN OAKS",
    "zip": "91403",
    "county": "LOS ANGELES",
    "phone": "(310) 735-9695",
    "lat": 34.159842,
    "lng": -118.448496
  },
  {
    "id": "930001476",
    "name": "ASI SURGERY CENTER INC",
    "npi": "1215286083",
    "hcaiId": null,
    "businessName": null,
    "contactEmail": "NONE@DHS.CA.GOV",
    "categoryName": "SURGICAL CLINIC",
    "categoryCode": "ASC",
    "licenseStatus": null,
    "inService": null,
    "licenseNumber": null,
    "licenseEffectiveDate": null,
    "licenseExpirationDate": null,
    "dataDate": "10/18/2025",
    "capacity": 0,
    "address": "4836 VAN NUYS BLVD",
    "city": "SHERMAN OAKS",
    "zip": "91403",
    "county": "LOS ANGELES",
    "phone": "(818) 907-7546",
    "lat": 34.15869,
    "lng": -118.448496
  },
  {
    "id": "630018459",
    "name": "ATENA HOSPICE, INC.",
    "npi": null,
    "hcaiId": "406192796",
    "businessName": "ATENA HOSPICE, INC.",
    "contactEmail": "ATENAHOSPICE@YAHOO.COM",
    "categoryName": "HOSPICE",
    "categoryCode": "HOSPICE",
    "licenseStatus": "ACTIVE",
    "inService": true,
    "licenseNumber": "550005646",
    "licenseEffectiveDate": "08/06/2024",
    "licenseExpirationDate": "08/05/2026",
    "dataDate": "10/18/2025",
    "capacity": 0,
    "address": "15450 VENTURA BLVD, SUITE 200",
    "city": "SHERMAN OAKS",
    "zip": "91403",
    "county": "LOS ANGELES",
    "phone": "(818) 302-0026",
    "lat": 34.15422702,
    "lng": -118.470371
  },
  {
    "id": "630012571",
    "name": "AVEANNA HEALTHCARE",
    "npi": "1114159381",
    "hcaiId": "406197436",
    "businessName": "PREMIER HEALTHCARE SERVICES, LLC",
    "contactEmail": "CREDENTIALING@AVEANNA.COM",
    "categoryName": "HOME HEALTH AGENCY",
    "categoryCode": "HHA",
    "licenseStatus": "ACTIVE",
    "inService": true,
    "licenseNumber": "550001385",
    "licenseEffectiveDate": "11/05/2025",
    "licenseExpirationDate": "11/04/2026",
    "dataDate": "10/18/2025",
    "capacity": 0,
    "address": "14724 VENTURA BLVD, SUITE 400",
    "city": "SHERMAN OAKS",
    "zip": "91403",
    "county": "LOS ANGELES",
    "phone": "(818) 986-9940",
    "lat": 34.151229,
    "lng": -118.454283
  },
  {
    "id": "630025147",
    "name": "AVENTUS HOME HEALTH",
    "npi": null,
    "hcaiId": "406196829",
    "businessName": "AVENTUS HOME HEALTH",
    "contactEmail": "4AVENTUSHH@GMAIL.COM",
    "categoryName": "HOME HEALTH AGENCY",
    "categoryCode": "HHA",
    "licenseStatus": "ACTIVE",
    "inService": true,
    "licenseNumber": "550008363",
    "licenseEffectiveDate": "01/23/2025",
    "licenseExpirationDate": "01/22/2026",
    "dataDate": "10/18/2025",
    "capacity": 0,
    "address": "15016 VENTURA BLVD, #5",
    "city": "SHERMAN OAKS",
    "zip": "91403",
    "county": "LOS ANGELES",
    "phone": "(800) 646-9145",
    "lat": 34.152633,
    "lng": -118.460043
  },
  {
    "id": "630024942",
    "name": "AZA HOME HEALTH CARE",
    "npi": null,
    "hcaiId": "406196504",
    "businessName": "AZA HOME HEALTH CARE INC",
    "contactEmail": "AZAHHCARE@GMAIL.COM",
    "categoryName": "HOME HEALTH AGENCY",
    "categoryCode": "HHA",
    "licenseStatus": "ACTIVE",
    "inService": true,
    "licenseNumber": "550008435",
    "licenseEffectiveDate": "03/14/2025",
    "licenseExpirationDate": "03/13/2026",
    "dataDate": "10/18/2025",
    "capacity": 0,
    "address": "15206 VENTURA BLVD, SUITE 204",
    "city": "SHERMAN OAKS",
    "zip": "91403",
    "county": "LOS ANGELES",
    "phone": "(747) 767-7658",
    "lat": 34.15311499,
    "lng": -118.464258
  },
  {
    "id": "630023750",
    "name": "BALANCED CARE HOME HEALTH",
    "npi": null,
    "hcaiId": "406195347",
    "businessName": "BALANCED CARE HOME HEALTH",
    "contactEmail": "BALANCEDCAREHH@GMAIL.COM",
    "categoryName": "HOME HEALTH AGENCY",
    "categoryCode": "HHA",
    "licenseStatus": "ACTIVE",
    "inService": true,
    "licenseNumber": "550007930",
    "licenseEffectiveDate": "03/31/2025",
    "licenseExpirationDate": "03/30/2026",
    "dataDate": "10/18/2025",
    "capacity": 0,
    "address": "15125 VENTURA BLVD, SUITE 2-19",
    "city": "SHERMAN OAKS",
    "zip": "91403",
    "county": "LOS ANGELES",
    "phone": "(818) 588-4450",
    "lat": 34.153371,
    "lng": -118.462428
  },
  {
    "id": "630020719",
    "name": "BCP HOSPICE, INC.",
    "npi": null,
    "hcaiId": null,
    "businessName": "BCP HOSPICE, INC.",
    "contactEmail": "BCPHOSPICE@GMAIL.COM",
    "categoryName": "HOSPICE",
    "categoryCode": "HOSPICE",
    "licenseStatus": "ACTIVE",
    "inService": true,
    "licenseNumber": "550006394",
    "licenseEffectiveDate": "05/17/2025",
    "licenseExpirationDate": "05/16/2027",
    "dataDate": "10/18/2025",
    "capacity": 0,
    "address": "15233 VENTURA BLVD, SUITE 500",
    "city": "SHERMAN OAKS",
    "zip": "91403",
    "county": "LOS ANGELES",
    "phone": "(818) 206-4745",
    "lat": 34.154001,
    "lng": -118.4652945
  },
  {
    "id": "630018653",
    "name": "BEST RESULT HOME HEALTH CARE",
    "npi": null,
    "hcaiId": "406192465",
    "businessName": "BEST RESULT HOME HEALTH CARE",
    "contactEmail": "BESTRESULTHHC@GMAIL.COM",
    "categoryName": "HOME HEALTH AGENCY",
    "categoryCode": "HHA",
    "licenseStatus": "ACTIVE",
    "inService": true,
    "licenseNumber": "550005271",
    "licenseEffectiveDate": "01/31/2024",
    "licenseExpirationDate": "01/30/2025",
    "dataDate": "10/18/2025",
    "capacity": 0,
    "address": "4854 VAN NUYS BLVD, SUITE 230",
    "city": "SHERMAN OAKS",
    "zip": "91403",
    "county": "LOS ANGELES",
    "phone": "(818) 616-1173",
    "lat": 34.159167,
    "lng": -118.448496
  },
  {
    "id": "630013461",
    "name": "BEVERLY OAKS PHYSICIANS SURGICAL CENTER, LLC",
    "npi": "1396054599",
    "hcaiId": null,
    "businessName": null,
    "contactEmail": null,
    "categoryName": "SURGICAL CLINIC",
    "categoryCode": "ASC",
    "licenseStatus": null,
    "inService": null,
    "licenseNumber": null,
    "licenseEffectiveDate": null,
    "licenseExpirationDate": null,
    "dataDate": "10/18/2025",
    "capacity": 0,
    "address": "4910 VAN NUYS BLVD",
    "city": "SHERMAN OAKS",
    "zip": "91403",
    "county": "LOS ANGELES",
    "phone": "(818) 986-9099",
    "lat": 34.159842,
    "lng": -118.448496
  },
  {
    "id": "630020448",
    "name": "CA HOSPICE CARE,INC",
    "npi": null,
    "hcaiId": "406193578",
    "businessName": "CA HOSPICE CARE, INC",
    "contactEmail": "CAHOSPICECARE1@GMAIL.COM",
    "categoryName": "HOSPICE",
    "categoryCode": "HOSPICE",
    "licenseStatus": "ACTIVE",
    "inService": true,
    "licenseNumber": "550006498",
    "licenseEffectiveDate": "09/15/2023",
    "licenseExpirationDate": "06/24/2025",
    "dataDate": "10/18/2025",
    "capacity": 0,
    "address": "15300 VENTURA BLVD, SUITE 520A",
    "city": "SHERMAN OAKS",
    "zip": "91403",
    "county": "LOS ANGELES",
    "phone": "(818) 457-1372",
    "lat": 34.15358501,
    "lng": -118.466725
  },
  {
    "id": "630027100",
    "name": "CALCO HOME HEALTH",
    "npi": null,
    "hcaiId": null,
    "businessName": "CALCO HOME HEALTH",
    "contactEmail": "CALCOHH@GMAIL.COM",
    "categoryName": "HOME HEALTH AGENCY",
    "categoryCode": "HHA",
    "licenseStatus": "ACTIVE",
    "inService": true,
    "licenseNumber": "550009356",
    "licenseEffectiveDate": "09/09/2025",
    "licenseExpirationDate": "09/08/2026",
    "dataDate": "10/18/2025",
    "capacity": 0,
    "address": "15124 VENTURA BLVD, SUITE 205",
    "city": "SHERMAN OAKS",
    "zip": "91403",
    "county": "LOS ANGELES",
    "phone": "(818) 208-7766",
    "lat": 34.15312889,
    "lng": -118.4624243
  },
  {
    "id": "630016537",
    "name": "CARE 1ST HEALTH SERVICES, INC.",
    "npi": "1255797791",
    "hcaiId": "406190693",
    "businessName": "CARE 1ST HEALTH SERVICES, INC.",
    "contactEmail": "CARE1SHEALTHSERVICES@YAHOO.COM",
    "categoryName": "HOME HEALTH AGENCY",
    "categoryCode": "HHA",
    "licenseStatus": "ACTIVE",
    "inService": true,
    "licenseNumber": "550004117",
    "licenseEffectiveDate": "01/08/2025",
    "licenseExpirationDate": "01/07/2026",
    "dataDate": "10/18/2025",
    "capacity": 0,
    "address": "14542 VENTURA BLVD., SUITE 203",
    "city": "SHERMAN OAKS",
    "zip": "91403",
    "county": "LOS ANGELES",
    "phone": "(818) 465-3617",
    "lat": 34.150995,
    "lng": -118.450179
  },
  {
    "id": "630022080",
    "name": "CARE ON DEMAND HOME HEALTH",
    "npi": null,
    "hcaiId": "406195327",
    "businessName": "CARE ON DEMAND HOME HEALTH",
    "contactEmail": "CAREONDEMANDHH@GMAIL.COM",
    "categoryName": "HOME HEALTH AGENCY",
    "categoryCode": "HHA",
    "licenseStatus": "ACTIVE",
    "inService": true,
    "licenseNumber": "550007896",
    "licenseEffectiveDate": "03/10/2025",
    "licenseExpirationDate": "03/09/2026",
    "dataDate": "10/18/2025",
    "capacity": 0,
    "address": "15125 VENTURA BLVD, SUITE 2-21",
    "city": "SHERMAN OAKS",
    "zip": "91403",
    "county": "LOS ANGELES",
    "phone": "(818) 208-9141",
    "lat": 34.153371,
    "lng": -118.462428
  },
  {
    "id": "980001359",
    "name": "CELEBRITY HEALTH SERVICES, INC.",
    "npi": "1023078763",
    "hcaiId": "406194883",
    "businessName": "CELEBRITY HEALTH SERVICES, INC.",
    "contactEmail": "DAVID@CELEBRITYHOMEHEALTH.COM",
    "categoryName": "HOME HEALTH AGENCY",
    "categoryCode": "HHA",
    "licenseStatus": "ACTIVE",
    "inService": true,
    "licenseNumber": "980001020",
    "licenseEffectiveDate": "03/01/2025",
    "licenseExpirationDate": "02/28/2026",
    "dataDate": "10/18/2025",
    "capacity": 0,
    "address": "14950 VENTURA BLVD",
    "city": "SHERMAN OAKS",
    "zip": "91403",
    "county": "LOS ANGELES",
    "phone": "(818) 343-4001",
    "lat": 34.15240999,
    "lng": -118.459141
  },
  {
    "id": "630020492",
    "name": "CENTURION HOME HEALTH CARE, INC.",
    "npi": null,
    "hcaiId": "406193254",
    "businessName": "CENTURION HOME HEALTH CARE, INC.",
    "contactEmail": "CENTURIONHOMEHEALTHCARE@GMAIL.COM",
    "categoryName": "HOME HEALTH AGENCY",
    "categoryCode": "HHA",
    "licenseStatus": "ACTIVE",
    "inService": true,
    "licenseNumber": "550006783",
    "licenseEffectiveDate": "03/18/2025",
    "licenseExpirationDate": "03/17/2026",
    "dataDate": "10/18/2025",
    "capacity": 0,
    "address": "15130 VENTURA BLVD, SUITE 203",
    "city": "SHERMAN OAKS",
    "zip": "91403",
    "county": "LOS ANGELES",
    "phone": "(747) 264-1489",
    "lat": 34.15316835,
    "lng": -118.4627029
  },
  {
    "id": "630015756",
    "name": "CHARITABLE HOME HEALTH, INC.",
    "npi": "1780072769",
    "hcaiId": "406190989",
    "businessName": "CHARITABLE HOME HEALTH, INC.",
    "contactEmail": "CHARITABLEHH@GMAIL.COM",
    "categoryName": "HOME HEALTH AGENCY",
    "categoryCode": "HHA",
    "licenseStatus": "ACTIVE",
    "inService": true,
    "licenseNumber": "550004247",
    "licenseEffectiveDate": "04/16/2025",
    "licenseExpirationDate": "04/15/2026",
    "dataDate": "10/18/2025",
    "capacity": 0,
    "address": "15315 MAGNOLIA BLVD, SUITE 404",
    "city": "SHERMAN OAKS",
    "zip": "91403",
    "county": "LOS ANGELES",
    "phone": "(818) 785-4882",
    "lat": 34.164963,
    "lng": -118.466802
  },
  {
    "id": "630026326",
    "name": "CITYWIDE HOME HEALTH CARE INC.",
    "npi": null,
    "hcaiId": null,
    "businessName": "CITYWIDE HOME HEALTH CARE INC.",
    "contactEmail": "CITIWIDEHH@YAHOO.COM",
    "categoryName": "HOME HEALTH AGENCY",
    "categoryCode": "HHA",
    "licenseStatus": "ACTIVE",
    "inService": true,
    "licenseNumber": "550009117",
    "licenseEffectiveDate": "05/09/2025",
    "licenseExpirationDate": "05/08/2026",
    "dataDate": "10/18/2025",
    "capacity": 0,
    "address": "14542 VENTURA BLVD, SUITE 201",
    "city": "SHERMAN OAKS",
    "zip": "91403",
    "county": "LOS ANGELES",
    "phone": "(818) 387-8859",
    "lat": 34.150995,
    "lng": -118.450179
  },
  {
    "id": "630018249",
    "name": "COMMITTED HOME HEALTH CARE, INC.",
    "npi": null,
    "hcaiId": "406191593",
    "businessName": "COMMITTED HOME HEALTH CARE, INC.",
    "contactEmail": "COMMITTEDHHCI@GMAIL.COM",
    "categoryName": "HOME HEALTH AGENCY",
    "categoryCode": "HHA",
    "licenseStatus": "ACTIVE",
    "inService": true,
    "licenseNumber": "550004616",
    "licenseEffectiveDate": "03/22/2025",
    "licenseExpirationDate": "03/21/2026",
    "dataDate": "10/18/2025",
    "capacity": 0,
    "address": "14852 VENTURA BLVD, SUITE 210A",
    "city": "SHERMAN OAKS",
    "zip": "91403",
    "county": "LOS ANGELES",
    "phone": "(818) 975-8282",
    "lat": 34.15218869,
    "lng": -118.4568479
  },
  {
    "id": "630019154",
    "name": "COMMUNITY HEALTH CARE HOSPICE, INC.",
    "npi": "1699320887",
    "hcaiId": "406192549",
    "businessName": "COMMUNITY HEALTH CARE HOSPICE, INC.",
    "contactEmail": "COMMUNITYHOSPICE@YAHOO.COM",
    "categoryName": "HOSPICE",
    "categoryCode": "HOSPICE",
    "licenseStatus": "ACTIVE",
    "inService": true,
    "licenseNumber": "550005487",
    "licenseEffectiveDate": "07/22/2025",
    "licenseExpirationDate": "05/14/2026",
    "dataDate": "10/18/2025",
    "capacity": 0,
    "address": "15315 MAGNOLIA BLVD, SUITE 314",
    "city": "SHERMAN OAKS",
    "zip": "91403",
    "county": "LOS ANGELES",
    "phone": "(818) 937-9609",
    "lat": 34.16524801,
    "lng": -118.466652
  },
  {
    "id": "630020325",
    "name": "COMPLETE CARE COMMUNITY HEALTH CENTER - SHERMAN OAKS",
    "npi": "1215113964",
    "hcaiId": null,
    "businessName": "COMPLETE CARE COMMUNITY HEALTH CENTER, INC.",
    "contactEmail": "K@CCCHCLINIC.COM",
    "categoryName": "PRIMARY CARE CLINIC",
    "categoryCode": "COMTYC",
    "licenseStatus": "ACTIVE",
    "inService": true,
    "licenseNumber": "550000639",
    "licenseEffectiveDate": "12/10/2024",
    "licenseExpirationDate": "12/09/2025",
    "dataDate": "10/18/2025",
    "capacity": 0,
    "address": "4910 VAN NUYS BLVD, SUITE 303",
    "city": "SHERMAN OAKS",
    "zip": "91403",
    "county": "LOS ANGELES",
    "phone": "(310) 430-5884",
    "lat": 34.159842,
    "lng": -118.448496
  },
  {
    "id": "630027107",
    "name": "COMPLETE CARE COMMUNITY HEALTH CENTER - SHERMAN OAKS 2",
    "npi": "1215113964",
    "hcaiId": null,
    "businessName": "COMPLETE CARE COMMUNITY HEALTH CENTER, INC.",
    "contactEmail": "K@CCCHCLINIC.COM",
    "categoryName": "PRIMARY CARE CLINIC",
    "categoryCode": "COMTYC",
    "licenseStatus": "ACTIVE",
    "inService": true,
    "licenseNumber": "550000639",
    "licenseEffectiveDate": "12/10/2024",
    "licenseExpirationDate": "12/09/2025",
    "dataDate": "10/18/2025",
    "capacity": 0,
    "address": "4849 VAN NUYS BLVD, SUITE 102",
    "city": "SHERMAN OAKS",
    "zip": "91403",
    "county": "LOS ANGELES",
    "phone": "(310) 430-5884",
    "lat": 34.15910998,
    "lng": -118.449163
  },
  {
    "id": "630026405",
    "name": "DAVA HHC, INC.",
    "npi": null,
    "hcaiId": null,
    "businessName": "DAVA HHC, INC.",
    "contactEmail": "DAVAHHC@GMAIL.COM",
    "categoryName": "HOME HEALTH AGENCY",
    "categoryCode": "HHA",
    "licenseStatus": "ACTIVE",
    "inService": true,
    "licenseNumber": "550009318",
    "licenseEffectiveDate": "02/05/2025",
    "licenseExpirationDate": "08/04/2025",
    "dataDate": "10/18/2025",
    "capacity": 0,
    "address": "14542 VENTURA BLVD, SUITE 204",
    "city": "SHERMAN OAKS",
    "zip": "91403",
    "county": "LOS ANGELES",
    "phone": "(818) 658-9310",
    "lat": 34.150995,
    "lng": -118.450179
  },
  {
    "id": "630019057",
    "name": "DEVOTED HEARTS HOSPICE CORP.",
    "npi": "1396305074",
    "hcaiId": "406192203",
    "businessName": "DEVOTED HEARTS HOSPICE CORP.",
    "contactEmail": "DEVOTEDHEARTSHOSPICE@GMAIL.COM",
    "categoryName": "HOSPICE",
    "categoryCode": "HOSPICE",
    "licenseStatus": "ACTIVE",
    "inService": true,
    "licenseNumber": "550005172",
    "licenseEffectiveDate": "12/10/2023",
    "licenseExpirationDate": "12/09/2025",
    "dataDate": "10/18/2025",
    "capacity": 0,
    "address": "15300 VENTURA BLVD, SUITE 505",
    "city": "SHERMAN OAKS",
    "zip": "91403",
    "county": "LOS ANGELES",
    "phone": "(818) 222-2344",
    "lat": 34.15358501,
    "lng": -118.466725
  },
  {
    "id": "630025157",
    "name": "DM HOME HEALTH, INC.",
    "npi": null,
    "hcaiId": "406196223",
    "businessName": "DM HOME HEALTH, INC.",
    "contactEmail": "4DMHOMEHEALTH@GMAIL.COM",
    "categoryName": "HOME HEALTH AGENCY",
    "categoryCode": "HHA",
    "licenseStatus": "ACTIVE",
    "inService": true,
    "licenseNumber": "550008403",
    "licenseEffectiveDate": "02/21/2025",
    "licenseExpirationDate": "02/20/2026",
    "dataDate": "10/18/2025",
    "capacity": 0,
    "address": "15124 VENTURA BLVD, SUITE 210",
    "city": "SHERMAN OAKS",
    "zip": "91403",
    "county": "LOS ANGELES",
    "phone": "(800) 574-4348",
    "lat": 34.15314399,
    "lng": -118.4625613
  },
  {
    "id": "630023848",
    "name": "EDER HOME HEALTH CARE, INC.",
    "npi": null,
    "hcaiId": "406195316",
    "businessName": "EDER HOME HEALTH CARE, INC.",
    "contactEmail": "EDERHOMEHEALTHCARE@YAHOO.COM",
    "categoryName": "HOME HEALTH AGENCY",
    "categoryCode": "HHA",
    "licenseStatus": "ACTIVE",
    "inService": true,
    "licenseNumber": "550008044",
    "licenseEffectiveDate": "06/15/2025",
    "licenseExpirationDate": "06/14/2026",
    "dataDate": "10/18/2025",
    "capacity": 0,
    "address": "15125 VENTURA BLVD, SUITE 2-7",
    "city": "SHERMAN OAKS",
    "zip": "91403",
    "county": "LOS ANGELES",
    "phone": "(818) 478-8709",
    "lat": 34.153371,
    "lng": -118.462428
  },
  {
    "id": "630018714",
    "name": "EISNER HEALTH DERMATOLOGY AT SHERMAN OAKS",
    "npi": "1982075107",
    "hcaiId": null,
    "businessName": "PEDIATRIC & FAMILY MEDICAL CENTER",
    "contactEmail": null,
    "categoryName": "PRIMARY CARE CLINIC",
    "categoryCode": "COMTYC",
    "licenseStatus": "ACTIVE",
    "inService": true,
    "licenseNumber": "550003550",
    "licenseEffectiveDate": "06/20/2025",
    "licenseExpirationDate": "06/19/2026",
    "dataDate": "10/18/2025",
    "capacity": 0,
    "address": "15477 VENTURA BLVD, SUITE 100",
    "city": "SHERMAN OAKS",
    "zip": "91403",
    "county": "LOS ANGELES",
    "phone": null,
    "lat": 34.154964,
    "lng": -118.4711175
  },
  {
    "id": "630024816",
    "name": "EISNER HEALTH-MOBILE CARE VAN #1",
    "npi": "1982075107",
    "hcaiId": null,
    "businessName": "PEDIATRIC & FAMILY MEDICAL CENTER",
    "contactEmail": null,
    "categoryName": "PRIMARY CARE CLINIC",
    "categoryCode": "COMTYC",
    "licenseStatus": "ACTIVE",
    "inService": true,
    "licenseNumber": "550003550",
    "licenseEffectiveDate": "06/20/2025",
    "licenseExpirationDate": "06/19/2026",
    "dataDate": "10/18/2025",
    "capacity": 0,
    "address": "15477 VENTURA BLVD, SUITE 300",
    "city": "SHERMAN OAKS",
    "zip": "91403",
    "county": "LOS ANGELES",
    "phone": null,
    "lat": 34.154838,
    "lng": -118.471257
  },
  {
    "id": "630016693",
    "name": "EISNER PEDIATRIC & FAMILY MEDICAL CENTER - SHERMAN OAKS",
    "npi": "1982075107",
    "hcaiId": "306198274",
    "businessName": "PEDIATRIC & FAMILY MEDICAL CENTER",
    "contactEmail": "WBRODINE@EISNERHEALTH.ORG",
    "categoryName": "PRIMARY CARE CLINIC",
    "categoryCode": "COMTYC",
    "licenseStatus": "ACTIVE",
    "inService": true,
    "licenseNumber": "550003550",
    "licenseEffectiveDate": "06/20/2025",
    "licenseExpirationDate": "06/19/2026",
    "dataDate": "10/18/2025",
    "capacity": 0,
    "address": "15477 VENTURA BLVD., SUITE 300",
    "city": "SHERMAN OAKS",
    "zip": "91403",
    "county": "LOS ANGELES",
    "phone": "(213) 747-5542",
    "lat": 34.154964,
    "lng": -118.4711175
  },
  {
    "id": "630017359",
    "name": "EISNER PEDIATRIC & FAMILY MEDICAL CENTER - SHERMAN OAKS DENTAL",
    "npi": null,
    "hcaiId": null,
    "businessName": "PEDIATRIC & FAMILY MEDICAL CENTER",
    "contactEmail": null,
    "categoryName": "PRIMARY CARE CLINIC",
    "categoryCode": "COMTYC",
    "licenseStatus": "ACTIVE",
    "inService": true,
    "licenseNumber": "550003550",
    "licenseEffectiveDate": "06/20/2025",
    "licenseExpirationDate": "06/19/2026",
    "dataDate": "10/18/2025",
    "capacity": 0,
    "address": "15477 VENTURA BLVD, UNIT LOWER LEVEL",
    "city": "SHERMAN OAKS",
    "zip": "91403",
    "county": "LOS ANGELES",
    "phone": null,
    "lat": 34.154838,
    "lng": -118.471257
  },
  {
    "id": "630018185",
    "name": "FAST AID HOME CARE, INC.",
    "npi": "1558854570",
    "hcaiId": "406192159",
    "businessName": "FAST AID HOME CARE, INC.",
    "contactEmail": "FASTAIDHOMECARE@YAHOO.COM",
    "categoryName": "HOME HEALTH AGENCY",
    "categoryCode": "HHA",
    "licenseStatus": "ACTIVE",
    "inService": true,
    "licenseNumber": "550004854",
    "licenseEffectiveDate": "08/10/2024",
    "licenseExpirationDate": "08/09/2025",
    "dataDate": "10/18/2025",
    "capacity": 0,
    "address": "14542 VENTURA BLVD, SUITE 210",
    "city": "SHERMAN OAKS",
    "zip": "91403",
    "county": "LOS ANGELES",
    "phone": "(818) 878-8558",
    "lat": 34.150995,
    "lng": -118.450179
  },
  {
    "id": "630024248",
    "name": "FIDELITE HOME HEALTH CARE, INC.",
    "npi": null,
    "hcaiId": "406196884",
    "businessName": "FIDELITE HOME HEALTH CARE, INC.",
    "contactEmail": "FIDELITEHH@GMAIL.COM",
    "categoryName": "HOME HEALTH AGENCY",
    "categoryCode": "HHA",
    "licenseStatus": "ACTIVE",
    "inService": true,
    "licenseNumber": "550008414",
    "licenseEffectiveDate": "01/20/2025",
    "licenseExpirationDate": "01/19/2026",
    "dataDate": "10/18/2025",
    "capacity": 0,
    "address": "15053 VENTURA BLVD, SUITE 202A",
    "city": "SHERMAN OAKS",
    "zip": "91403",
    "county": "LOS ANGELES",
    "phone": "(818) 916-3962",
    "lat": 34.153191,
    "lng": -118.4613165
  },
  {
    "id": "630024741",
    "name": "GABONE HOME HEALTH",
    "npi": null,
    "hcaiId": "406197647",
    "businessName": "GABONE HOME HEALTH",
    "contactEmail": "GABONEHH@GMAIL.COM",
    "categoryName": "HOME HEALTH AGENCY",
    "categoryCode": "HHA",
    "licenseStatus": "ACTIVE",
    "inService": true,
    "licenseNumber": "550008393",
    "licenseEffectiveDate": "02/21/2025",
    "licenseExpirationDate": "02/20/2026",
    "dataDate": "10/18/2025",
    "capacity": 0,
    "address": "15206 VENTURA BLVD, SUITE 206",
    "city": "SHERMAN OAKS",
    "zip": "91403",
    "county": "LOS ANGELES",
    "phone": "(818) 237-3003",
    "lat": 34.15329,
    "lng": -118.4641245
  },
  {
    "id": "630021261",
    "name": "GOLDEN AGE HOSPICE & PALLIATIVE CARE, INC.",
    "npi": null,
    "hcaiId": "406193597",
    "businessName": "GOLDEN AGE HOSPICE & PALLIATIVE CARE, INC.",
    "contactEmail": "GOLDENAGEHOSPICEPC@GMAIL.COM",
    "categoryName": "HOSPICE",
    "categoryCode": "HOSPICE",
    "licenseStatus": "ACTIVE",
    "inService": true,
    "licenseNumber": "550006493",
    "licenseEffectiveDate": "07/09/2023",
    "licenseExpirationDate": "07/08/2025",
    "dataDate": "10/18/2025",
    "capacity": 0,
    "address": "15300 VENTURA BLVD, SUITE 200A",
    "city": "SHERMAN OAKS",
    "zip": "91403",
    "county": "LOS ANGELES",
    "phone": "(818) 290-3730",
    "lat": 34.153578,
    "lng": -118.4667075
  },
  {
    "id": "630015123",
    "name": "GOLDSTAR HOSPICE, INC.",
    "npi": null,
    "hcaiId": "406198499",
    "businessName": "GOLDSTAR HOSPICE, INC.",
    "contactEmail": "GOLDSTARHOSPICE@GMAIL.COM",
    "categoryName": "HOSPICE",
    "categoryCode": "HOSPICE",
    "licenseStatus": "ACTIVE",
    "inService": true,
    "licenseNumber": "550003162",
    "licenseEffectiveDate": "07/08/2023",
    "licenseExpirationDate": "07/07/2025",
    "dataDate": "10/18/2025",
    "capacity": 0,
    "address": "4629 VAN NUYS BLVD, SUITE G",
    "city": "SHERMAN OAKS",
    "zip": "91403",
    "county": "LOS ANGELES",
    "phone": "(818) 906-9840",
    "lat": 34.155675,
    "lng": -118.448964
  },
  {
    "id": "630011127",
    "name": "GOOD SPIRIT HOME HEALTH SERVICES, INC.",
    "npi": "1740408947",
    "hcaiId": "406196993",
    "businessName": "GOOD SPIRIT HOME HEALTH SERVICES, INC.",
    "contactEmail": "GOODSPIRITHHS@GMAIL.COM",
    "categoryName": "HOME HEALTH AGENCY",
    "categoryCode": "HHA",
    "licenseStatus": "ACTIVE",
    "inService": true,
    "licenseNumber": "550000522",
    "licenseEffectiveDate": "03/31/2023",
    "licenseExpirationDate": "03/30/2024",
    "dataDate": "10/18/2025",
    "capacity": 0,
    "address": "4454 VAN NUYS BLVD, SUITE D",
    "city": "SHERMAN OAKS",
    "zip": "91403",
    "county": "LOS ANGELES",
    "phone": "(818) 946-8385",
    "lat": 34.152525,
    "lng": -118.4477985
  },
  {
    "id": "630018874",
    "name": "GUARDIAN HOSPICE, INC.",
    "npi": null,
    "hcaiId": "406191958",
    "businessName": "GUARDIAN HOSPICE, INC.",
    "contactEmail": "GUARDIANHOSPICE19@GMAIL.COM",
    "categoryName": "HOSPICE",
    "categoryCode": "HOSPICE",
    "licenseStatus": "ACTIVE",
    "inService": true,
    "licenseNumber": "550005023",
    "licenseEffectiveDate": "10/24/2023",
    "licenseExpirationDate": "10/23/2025",
    "dataDate": "10/18/2025",
    "capacity": 0,
    "address": "15130 VENTURA BLVD, SUITE 301",
    "city": "SHERMAN OAKS",
    "zip": "91403",
    "county": "LOS ANGELES",
    "phone": "(818) 285-8600",
    "lat": 34.15316835,
    "lng": -118.4627029
  },
  {
    "id": "630019600",
    "name": "HA DECISIONS HOSPICE INC",
    "npi": "1891332565",
    "hcaiId": "406192594",
    "businessName": "HA DECISIONS HOSPICE INC",
    "contactEmail": "HADECISIONSHOSPICE@GMAIL.COM",
    "categoryName": "HOSPICE",
    "categoryCode": "HOSPICE",
    "licenseStatus": "ACTIVE",
    "inService": true,
    "licenseNumber": "550005387",
    "licenseEffectiveDate": "03/09/2024",
    "licenseExpirationDate": "03/08/2026",
    "dataDate": "10/18/2025",
    "capacity": 0,
    "address": "14845 MAGNOLIA BLVD, SUITE 202",
    "city": "SHERMAN OAKS",
    "zip": "91403",
    "county": "LOS ANGELES",
    "phone": "(818) 287-8469",
    "lat": 34.16508,
    "lng": -118.4568345
  },
  {
    "id": "630027349",
    "name": "HARMONY HOMEHEALTH CARE AGENCY INC",
    "npi": null,
    "hcaiId": null,
    "businessName": "HARMONY HOMEHEALTH CARE AGENCY INC",
    "contactEmail": "HARMONYHHCA@GMAIL.COM",
    "categoryName": "HOME HEALTH AGENCY",
    "categoryCode": "HHA",
    "licenseStatus": "ACTIVE",
    "inService": true,
    "licenseNumber": "550009685",
    "licenseEffectiveDate": "09/06/2025",
    "licenseExpirationDate": "03/05/2026",
    "dataDate": "10/18/2025",
    "capacity": 0,
    "address": "15125 VENTURA BLVD, SUITE 2-6",
    "city": "SHERMAN OAKS",
    "zip": "91403",
    "county": "LOS ANGELES",
    "phone": "(747) 877-9610",
    "lat": 34.153526,
    "lng": -118.462555
  },
  {
    "id": "630025905",
    "name": "HEALTH HUB HOME HEALTH INC",
    "npi": null,
    "hcaiId": null,
    "businessName": "HEALTH HUB HOME HEALTH INC",
    "contactEmail": "HEALTHHUBHHC@YAHOO.COM",
    "categoryName": "HOME HEALTH AGENCY",
    "categoryCode": "HHA",
    "licenseStatus": "ACTIVE",
    "inService": true,
    "licenseNumber": "550008978",
    "licenseEffectiveDate": "03/01/2025",
    "licenseExpirationDate": "02/28/2026",
    "dataDate": "10/18/2025",
    "capacity": 0,
    "address": "15130 VENTURA BLVD, SUITE 307",
    "city": "SHERMAN OAKS",
    "zip": "91403",
    "county": "LOS ANGELES",
    "phone": "(424) 888-4847",
    "lat": 34.15316835,
    "lng": -118.4627029
  },
  {
    "id": "630012299",
    "name": "HEALTHY CHOICE HOME CARE, INC.",
    "npi": null,
    "hcaiId": "406197366",
    "businessName": "HEALTHY CHOICE HOME CARE, INC.",
    "contactEmail": "HEALTHYCHOICEHCI@YAHOO.COM",
    "categoryName": "HOME HEALTH AGENCY",
    "categoryCode": "HHA",
    "licenseStatus": "ACTIVE",
    "inService": true,
    "licenseNumber": "550001224",
    "licenseEffectiveDate": "02/26/2025",
    "licenseExpirationDate": "02/25/2026",
    "dataDate": "10/18/2025",
    "capacity": 0,
    "address": "14827 VENTURA BLVD, SUITE 216",
    "city": "SHERMAN OAKS",
    "zip": "91403",
    "county": "LOS ANGELES",
    "phone": "(818) 787-2482",
    "lat": 34.15248,
    "lng": -118.4562315
  },
  {
    "id": "630020222",
    "name": "HOSPICE OF PROVIDENCE, INC.",
    "npi": null,
    "hcaiId": "406193730",
    "businessName": "HOSPICE OF PROVIDENCE, INC.",
    "contactEmail": "HOSPICEOFPROVIDENCE@YAHOO.COM",
    "categoryName": "HOSPICE",
    "categoryCode": "HOSPICE",
    "licenseStatus": "ACTIVE",
    "inService": true,
    "licenseNumber": "550006698",
    "licenseEffectiveDate": "08/06/2023",
    "licenseExpirationDate": "08/05/2025",
    "dataDate": "10/18/2025",
    "capacity": 0,
    "address": "4533 VAN NUYS BLVD, SUITE 301-B",
    "city": "SHERMAN OAKS",
    "zip": "91403",
    "county": "LOS ANGELES",
    "phone": "(818) 855-1411",
    "lat": 34.153992,
    "lng": -118.448892
  },
  {
    "id": "630022453",
    "name": "HOSPICE PLUS INC",
    "npi": null,
    "hcaiId": "406193903",
    "businessName": "HOSPICE PLUS INC",
    "contactEmail": "HOSPICEPLUS@YAHOO.COM",
    "categoryName": "HOSPICE",
    "categoryCode": "HOSPICE",
    "licenseStatus": "ACTIVE",
    "inService": true,
    "licenseNumber": "550007388",
    "licenseEffectiveDate": "11/23/2023",
    "licenseExpirationDate": "11/22/2025",
    "dataDate": "10/18/2025",
    "capacity": 0,
    "address": "15130 VENTURA BLVD, SUITE 324",
    "city": "SHERMAN OAKS",
    "zip": "91403",
    "county": "LOS ANGELES",
    "phone": "(818) 530-1430",
    "lat": 34.15294899,
    "lng": -118.462773
  },
  {
    "id": "630021514",
    "name": "IDEAL CHOICE HOME HEALTH",
    "npi": null,
    "hcaiId": "406193206",
    "businessName": "IDEAL CHOICE HOME HEALTH",
    "contactEmail": "IDEALCHOICEHH@GMAIL.COM",
    "categoryName": "HOME HEALTH AGENCY",
    "categoryCode": "HHA",
    "licenseStatus": "ACTIVE",
    "inService": true,
    "licenseNumber": "550006575",
    "licenseEffectiveDate": "07/28/2025",
    "licenseExpirationDate": "07/27/2026",
    "dataDate": "10/18/2025",
    "capacity": 0,
    "address": "14852 VENTURA BLVD, SUITE 207",
    "city": "SHERMAN OAKS",
    "zip": "91403",
    "county": "LOS ANGELES",
    "phone": "(747) 877-8440",
    "lat": 34.15218869,
    "lng": -118.4568479
  },
  {
    "id": "630020771",
    "name": "INFINITE HOSPICE",
    "npi": null,
    "hcaiId": "406193755",
    "businessName": "INFINITE HOSPICE",
    "contactEmail": "SEROB@INFINITEHOSPICE.COM",
    "categoryName": "HOSPICE",
    "categoryCode": "HOSPICE",
    "licenseStatus": "ACTIVE",
    "inService": true,
    "licenseNumber": "550006508",
    "licenseEffectiveDate": "07/06/2025",
    "licenseExpirationDate": "07/05/2027",
    "dataDate": "10/18/2025",
    "capacity": 0,
    "address": "5121 VAN NUYS BLVD, SUITE 202",
    "city": "SHERMAN OAKS",
    "zip": "91403",
    "county": "LOS ANGELES",
    "phone": "(818) 745-7659",
    "lat": 34.16374899,
    "lng": -118.449058
  },
  {
    "id": "630025973",
    "name": "J&N HOME CARE INC",
    "npi": null,
    "hcaiId": null,
    "businessName": "J&N HOME CARE INC",
    "contactEmail": "JANDNHOMECARE@GMAIL.COM",
    "categoryName": "HOME HEALTH AGENCY",
    "categoryCode": "HHA",
    "licenseStatus": "ACTIVE",
    "inService": true,
    "licenseNumber": "550008996",
    "licenseEffectiveDate": "09/04/2024",
    "licenseExpirationDate": "03/03/2025",
    "dataDate": "10/18/2025",
    "capacity": 0,
    "address": "5121 VAN NUYS BLVD, SUITE 222",
    "city": "SHERMAN OAKS",
    "zip": "91403",
    "county": "LOS ANGELES",
    "phone": "(818) 383-8852",
    "lat": 34.163874,
    "lng": -118.4488965
  },
  {
    "id": "630020215",
    "name": "L & H HOSPICE CARE, INC.",
    "npi": null,
    "hcaiId": "406195537",
    "businessName": "L & H HOSPICE CARE, INC.",
    "contactEmail": "LHHOSPICECARE2020@GMAIL.COM",
    "categoryName": "HOSPICE",
    "categoryCode": "HOSPICE",
    "licenseStatus": "ACTIVE",
    "inService": true,
    "licenseNumber": "550005992",
    "licenseEffectiveDate": "01/08/2025",
    "licenseExpirationDate": "01/07/2027",
    "dataDate": "10/18/2025",
    "capacity": 0,
    "address": "15335 MORRISON ST, SUITE 140",
    "city": "SHERMAN OAKS",
    "zip": "91403",
    "county": "LOS ANGELES",
    "phone": "(818) 700-0818",
    "lat": 34.161174,
    "lng": -118.467765
  },
  {
    "id": "630018605",
    "name": "LAVENDER HOME HEALTH",
    "npi": "1104390384",
    "hcaiId": "406191988",
    "businessName": "LAVENDER HOME HEALTH",
    "contactEmail": "LAVENDERHOMEHEALTH@GMAIL.COM",
    "categoryName": "HOME HEALTH AGENCY",
    "categoryCode": "HHA",
    "licenseStatus": "ACTIVE",
    "inService": true,
    "licenseNumber": "550005003",
    "licenseEffectiveDate": "10/12/2025",
    "licenseExpirationDate": "10/11/2026",
    "dataDate": "10/18/2025",
    "capacity": 0,
    "address": "14827 VENTURA BLVD, SUITE 218",
    "city": "SHERMAN OAKS",
    "zip": "91403",
    "county": "LOS ANGELES",
    "phone": "(760) 925-3087",
    "lat": 34.152318,
    "lng": -118.4561685
  },
  {
    "id": "630020283",
    "name": "LIFE START HOME HEALTH CARE, INC.",
    "npi": null,
    "hcaiId": "406192969",
    "businessName": "LIFE START HOME HEALTH CARE, INC.",
    "contactEmail": "ADMIN@LIFESTARTHOMEHEALTHCARE.COM",
    "categoryName": "HOME HEALTH AGENCY",
    "categoryCode": "HHA",
    "licenseStatus": "ACTIVE",
    "inService": true,
    "licenseNumber": "550005828",
    "licenseEffectiveDate": "10/29/2025",
    "licenseExpirationDate": "10/28/2026",
    "dataDate": "10/18/2025",
    "capacity": 0,
    "address": "5121 VAN NUYS BLVD, SUITE 203",
    "city": "SHERMAN OAKS",
    "zip": "91403",
    "county": "LOS ANGELES",
    "phone": "(747) 247-1242",
    "lat": 34.16374874,
    "lng": -118.4490386
  },
  {
    "id": "630011821",
    "name": "MD SURGICAL SOLUTIONS, LLC",
    "npi": "1134327182",
    "hcaiId": null,
    "businessName": null,
    "contactEmail": null,
    "categoryName": "SURGICAL CLINIC",
    "categoryCode": "ASC",
    "licenseStatus": null,
    "inService": null,
    "licenseNumber": null,
    "licenseEffectiveDate": null,
    "licenseExpirationDate": null,
    "dataDate": "10/18/2025",
    "capacity": 0,
    "address": "15477 VENTURA BLVD, SUITE 103",
    "city": "SHERMAN OAKS",
    "zip": "91403",
    "county": "LOS ANGELES",
    "phone": null,
    "lat": 34.154838,
    "lng": -118.471257
  },
  {
    "id": "630026500",
    "name": "MEDFAST HOME HEALTH",
    "npi": null,
    "hcaiId": null,
    "businessName": "MEDFAST HOME HEALTH",
    "contactEmail": "MEDFASTHH@GMAIL.COM",
    "categoryName": "HOME HEALTH AGENCY",
    "categoryCode": "HHA",
    "licenseStatus": "ACTIVE",
    "inService": true,
    "licenseNumber": "550009502",
    "licenseEffectiveDate": "05/14/2025",
    "licenseExpirationDate": "11/13/2025",
    "dataDate": "10/18/2025",
    "capacity": 0,
    "address": "15016 VENTURA BLVD, SUITE 11",
    "city": "SHERMAN OAKS",
    "zip": "91403",
    "county": "LOS ANGELES",
    "phone": "(800) 664-0383",
    "lat": 34.152633,
    "lng": -118.460043
  },
  {
    "id": "630027826",
    "name": "MEDVERSE HOME HEALTH INC",
    "npi": null,
    "hcaiId": null,
    "businessName": "MEDVERSE HOME HEALTH INC",
    "contactEmail": "MEDVERSEHOMEHEALTH@GMAIL.COM",
    "categoryName": "HOME HEALTH AGENCY",
    "categoryCode": "HHA",
    "licenseStatus": "ACTIVE",
    "inService": true,
    "licenseNumber": "550009849",
    "licenseEffectiveDate": "06/06/2025",
    "licenseExpirationDate": "12/05/2025",
    "dataDate": "10/18/2025",
    "capacity": 0,
    "address": "15130 VENTURA BLVD, SUITE 249",
    "city": "SHERMAN OAKS",
    "zip": "91403",
    "county": "LOS ANGELES",
    "phone": "(818) 697-0013",
    "lat": 34.15294899,
    "lng": -118.462773
  },
  {
    "id": "630016486",
    "name": "MIRACLE HOSPICE & PALLIATIVE CARE, INC.",
    "npi": "1891160255",
    "hcaiId": "406190799",
    "businessName": "MIRACLE HOSPICE & PALLIATIVE CARE, INC.",
    "contactEmail": "INFO@MIRACLEHOSPICELA.COM",
    "categoryName": "HOSPICE",
    "categoryCode": "HOSPICE",
    "licenseStatus": "ACTIVE",
    "inService": true,
    "licenseNumber": "550004022",
    "licenseEffectiveDate": "11/20/2023",
    "licenseExpirationDate": "11/19/2025",
    "dataDate": "10/18/2025",
    "capacity": 0,
    "address": "15300 VENTURA BLVD, SUITE 218",
    "city": "SHERMAN OAKS",
    "zip": "91403",
    "county": "LOS ANGELES",
    "phone": "(818) 358-2668",
    "lat": 34.153677,
    "lng": -118.466496
  },
  {
    "id": "630008681",
    "name": "MISSION HOSPICE OF SOUTH BAY",
    "npi": null,
    "hcaiId": "406196974",
    "businessName": "COMFORT CARE HOSPICE, INC",
    "contactEmail": "CPAZ@MISSIONHOSPICE.NET",
    "categoryName": "HOSPICE",
    "categoryCode": "HOSPICE",
    "licenseStatus": "ACTIVE",
    "inService": true,
    "licenseNumber": "550000454",
    "licenseEffectiveDate": "02/19/2025",
    "licenseExpirationDate": "02/18/2027",
    "dataDate": "10/18/2025",
    "capacity": 0,
    "address": "5170 SEPULVEDA BLVD, SUITE 290",
    "city": "SHERMAN OAKS",
    "zip": "91403",
    "county": "LOS ANGELES",
    "phone": "(626) 799-2727",
    "lat": 34.164612,
    "lng": -118.46592
  },
  {
    "id": "630018556",
    "name": "MOBILE-CARE HOME HEALTH AGENCY, INC.",
    "npi": null,
    "hcaiId": "406192352",
    "businessName": "MOBILE-CARE HOME HEALTH AGENCY INC",
    "contactEmail": "MOBILEHHCSERVICES@GMAIL.COM",
    "categoryName": "HOME HEALTH AGENCY",
    "categoryCode": "HHA",
    "licenseStatus": "ACTIVE",
    "inService": true,
    "licenseNumber": "550005277",
    "licenseEffectiveDate": "01/17/2025",
    "licenseExpirationDate": "01/16/2026",
    "dataDate": "10/18/2025",
    "capacity": 0,
    "address": "4419 VAN NUYS BLVD, SUITE 404",
    "city": "SHERMAN OAKS",
    "zip": "91403",
    "county": "LOS ANGELES",
    "phone": "(747) 281-2303",
    "lat": 34.151571,
    "lng": -118.4489055
  },
  {
    "id": "630012498",
    "name": "NCA HOME HEALTH CARE, INC",
    "npi": "1477888782",
    "hcaiId": "406197472",
    "businessName": "NCA HOME HEALTH CARE, INC.",
    "contactEmail": "NCAHHC@GMAIL.COM",
    "categoryName": "HOME HEALTH AGENCY",
    "categoryCode": "HHA",
    "licenseStatus": "ACTIVE",
    "inService": true,
    "licenseNumber": "550001409",
    "licenseEffectiveDate": "09/26/2025",
    "licenseExpirationDate": "09/25/2026",
    "dataDate": "10/18/2025",
    "capacity": 0,
    "address": "4533 VAN NUYS BLVD, SUITE 202",
    "city": "SHERMAN OAKS",
    "zip": "91403",
    "county": "LOS ANGELES",
    "phone": "(818) 453-8122",
    "lat": 34.154028,
    "lng": -118.448964
  },
  {
    "id": "980002337",
    "name": "NEOGEN CARE CORP",
    "npi": "1851768410",
    "hcaiId": "406196350",
    "businessName": "NEOGEN CARE CORP",
    "contactEmail": "ANJUS@NEOGENCARE.COM",
    "categoryName": "HOME HEALTH AGENCY",
    "categoryCode": "HHA",
    "licenseStatus": "ACTIVE",
    "inService": true,
    "licenseNumber": "980001447",
    "licenseEffectiveDate": "12/26/2024",
    "licenseExpirationDate": "12/25/2025",
    "dataDate": "10/18/2025",
    "capacity": 0,
    "address": "15260 VENTURA BLVD, SUITE 670",
    "city": "SHERMAN OAKS",
    "zip": "91403",
    "county": "LOS ANGELES",
    "phone": "(818) 658-3323",
    "lat": 34.15356,
    "lng": -118.465803
  },
  {
    "id": "630018862",
    "name": "NURSE'S HHA CO, INC.",
    "npi": "1245793116",
    "hcaiId": "406192255",
    "businessName": "NURSE'S HHA CO, INC.",
    "contactEmail": "NURSEHHA@GMAIL.COM",
    "categoryName": "HOME HEALTH AGENCY",
    "categoryCode": "HHA",
    "licenseStatus": "ACTIVE",
    "inService": true,
    "licenseNumber": "550005246",
    "licenseEffectiveDate": "01/15/2025",
    "licenseExpirationDate": "01/14/2026",
    "dataDate": "10/18/2025",
    "capacity": 0,
    "address": "5121 VAN NUYS BLVD, SUITE 206",
    "city": "SHERMAN OAKS",
    "zip": "91403",
    "county": "LOS ANGELES",
    "phone": "(818) 949-6556",
    "lat": 34.163748,
    "lng": -118.4491575
  },
  {
    "id": "630025190",
    "name": "OLORA HOME HEALTH CARE",
    "npi": null,
    "hcaiId": "406190164",
    "businessName": "OLORA HOME HEALTH CARE",
    "contactEmail": "OLOAHHC@GMAIL.COM",
    "categoryName": "HOME HEALTH AGENCY",
    "categoryCode": "HHA",
    "licenseStatus": "ACTIVE",
    "inService": true,
    "licenseNumber": "550008917",
    "licenseEffectiveDate": "11/30/2024",
    "licenseExpirationDate": "11/29/2025",
    "dataDate": "10/18/2025",
    "capacity": 0,
    "address": "15016 VENTURA BLVD, SUITE 12",
    "city": "SHERMAN OAKS",
    "zip": "91403",
    "county": "LOS ANGELES",
    "phone": "(800) 484-1027",
    "lat": 34.152633,
    "lng": -118.460043
  },
  {
    "id": "630018764",
    "name": "PACIFIC CARE GROUP, LLC",
    "npi": null,
    "hcaiId": "406562618",
    "businessName": "PACIFIC CARE GROUP, LLC",
    "contactEmail": "PACIFICCAREGROUP@GMAIL.COM",
    "categoryName": "HOME HEALTH AGENCY",
    "categoryCode": "HHA",
    "licenseStatus": "ACTIVE",
    "inService": true,
    "licenseNumber": "550005281",
    "licenseEffectiveDate": "12/18/2024",
    "licenseExpirationDate": "12/17/2025",
    "dataDate": "10/18/2025",
    "capacity": 0,
    "address": "15300 VENTURA BLVD, SUITE 305",
    "city": "SHERMAN OAKS",
    "zip": "91403",
    "county": "LOS ANGELES",
    "phone": "(818) 741-2541",
    "lat": 34.15358501,
    "lng": -118.466725
  },
  {
    "id": "630027169",
    "name": "PEACE OF MIND CARING HOME HEALTH",
    "npi": null,
    "hcaiId": null,
    "businessName": "PEACE OF MIND CARING HOME HEALTH",
    "contactEmail": "PEACEOFMINDCARINGHH@GMAIL.COM",
    "categoryName": "HOME HEALTH AGENCY",
    "categoryCode": "HHA",
    "licenseStatus": "ACTIVE",
    "inService": true,
    "licenseNumber": "550009734",
    "licenseEffectiveDate": "09/20/2025",
    "licenseExpirationDate": "03/19/2026",
    "dataDate": "10/18/2025",
    "capacity": 0,
    "address": "15125 VENTURA BLVD, SUITE 2-2",
    "city": "SHERMAN OAKS",
    "zip": "91403",
    "county": "LOS ANGELES",
    "phone": "(818) 459-4536",
    "lat": 34.153526,
    "lng": -118.462555
  },
  {
    "id": "630014114",
    "name": "PLATINUM HOSPICE CARE, INC.",
    "npi": null,
    "hcaiId": "406198196",
    "businessName": "PLATINUM HOSPICE CARE, INC.",
    "contactEmail": "PLATINUMHOSPICEINC@YAHOO.COM",
    "categoryName": "HOSPICE",
    "categoryCode": "HOSPICE",
    "licenseStatus": "ACTIVE",
    "inService": true,
    "licenseNumber": "550002618",
    "licenseEffectiveDate": "01/28/2022",
    "licenseExpirationDate": "01/27/2024",
    "dataDate": "10/18/2025",
    "capacity": 0,
    "address": "4533 VAN NUYS BLVD, SUITE 302",
    "city": "SHERMAN OAKS",
    "zip": "91403",
    "county": "LOS ANGELES",
    "phone": "(818) 809-2301",
    "lat": 34.154028,
    "lng": -118.448964
  },
  {
    "id": "630024627",
    "name": "PLATINUM WELLNESS HOME HEALTH INC",
    "npi": null,
    "hcaiId": "406195947",
    "businessName": "PLATINUM WELLNESS HOME HEALTH INC.",
    "contactEmail": "PLATINUMWELLNESSHEALTH@GMAIL.COM",
    "categoryName": "HOME HEALTH AGENCY",
    "categoryCode": "HHA",
    "licenseStatus": "ACTIVE",
    "inService": true,
    "licenseNumber": "550008199",
    "licenseEffectiveDate": "10/21/2025",
    "licenseExpirationDate": "10/20/2026",
    "dataDate": "10/18/2025",
    "capacity": 0,
    "address": "5121 VAN NUYS BLVD, SUITE 222",
    "city": "SHERMAN OAKS",
    "zip": "91403",
    "county": "LOS ANGELES",
    "phone": "(424) 284-2218",
    "lat": 34.16374874,
    "lng": -118.4490386
  },
  {
    "id": "630026205",
    "name": "PREMIUM HOME HEALTH SERVICES",
    "npi": null,
    "hcaiId": null,
    "businessName": "PREMIUM HOME HEALTH SERVICES",
    "contactEmail": "4PREMIUMHH@GMAIL.COM",
    "categoryName": "HOME HEALTH AGENCY",
    "categoryCode": "HHA",
    "licenseStatus": "ACTIVE",
    "inService": true,
    "licenseNumber": "550009311",
    "licenseEffectiveDate": "08/12/2025",
    "licenseExpirationDate": "08/11/2026",
    "dataDate": "10/18/2025",
    "capacity": 0,
    "address": "15016 VENTURA BLVD, SUITE 3",
    "city": "SHERMAN OAKS",
    "zip": "91403",
    "county": "LOS ANGELES",
    "phone": "(800) 484-6110",
    "lat": 34.152633,
    "lng": -118.460043
  },
  {
    "id": "980001737",
    "name": "PRIME HOME HEALTH",
    "npi": "1740752997",
    "hcaiId": "406194762",
    "businessName": "PINE STREET HEALTHCARE PARTNERS, LLC",
    "contactEmail": "NORTHLA@PRIMEHH.COM",
    "categoryName": "HOME HEALTH AGENCY",
    "categoryCode": "HHA",
    "licenseStatus": "ACTIVE",
    "inService": true,
    "licenseNumber": "980000988",
    "licenseEffectiveDate": "11/23/2024",
    "licenseExpirationDate": "11/22/2025",
    "dataDate": "10/18/2025",
    "capacity": 0,
    "address": "15315 MAGNOLIA BLVD, SUITE 401",
    "city": "SHERMAN OAKS",
    "zip": "91403",
    "county": "LOS ANGELES",
    "phone": "(818) 386-6358",
    "lat": 34.164963,
    "lng": -118.466802
  },
  {
    "id": "630018481",
    "name": "PROCARE HOSPICE INC.",
    "npi": "1689146532",
    "hcaiId": "406191953",
    "businessName": "PROCARE HOSPICE INC.",
    "contactEmail": "PROCAREHOSPICEINC@GMAIL.COM",
    "categoryName": "HOSPICE",
    "categoryCode": "HOSPICE",
    "licenseStatus": "ACTIVE",
    "inService": true,
    "licenseNumber": "550005000",
    "licenseEffectiveDate": "10/10/2025",
    "licenseExpirationDate": "10/09/2027",
    "dataDate": "10/18/2025",
    "capacity": 0,
    "address": "14852 VENTURA BLVD, SUITE 201",
    "city": "SHERMAN OAKS",
    "zip": "91403",
    "county": "LOS ANGELES",
    "phone": "(818) 660-2931",
    "lat": 34.1519714,
    "lng": -118.4597038
  },
  {
    "id": "630018566",
    "name": "PRONTO HEALTHCARE, INC.",
    "npi": null,
    "hcaiId": "406192616",
    "businessName": "PRONTO HEALTHCARE, INC.",
    "contactEmail": "ADMIN@PRONTO-HEALTHCARE.COM",
    "categoryName": "HOME HEALTH AGENCY",
    "categoryCode": "HHA",
    "licenseStatus": "ACTIVE",
    "inService": true,
    "licenseNumber": "550005473",
    "licenseEffectiveDate": "12/20/2024",
    "licenseExpirationDate": "12/19/2025",
    "dataDate": "10/18/2025",
    "capacity": 0,
    "address": "4717 VAN NUYS BLVD, SUITE PH - 2",
    "city": "SHERMAN OAKS",
    "zip": "91403",
    "county": "LOS ANGELES",
    "phone": "(818) 629-2296",
    "lat": 34.15650799,
    "lng": -118.449094
  },
  {
    "id": "630020859",
    "name": "REAL MIND HOSPICE & PALLIATIVE CARE, INC",
    "npi": null,
    "hcaiId": "406195984",
    "businessName": "REAL MIND HOSPICE & PALLIATIVE CARE INC",
    "contactEmail": "REALMINDHOSPICE@GMAIL.COM",
    "categoryName": "HOSPICE",
    "categoryCode": "HOSPICE",
    "licenseStatus": "ACTIVE",
    "inService": true,
    "licenseNumber": "550006608",
    "licenseEffectiveDate": "08/02/2025",
    "licenseExpirationDate": "08/01/2027",
    "dataDate": "10/18/2025",
    "capacity": 0,
    "address": "15130 VENTURA BLVD, SUITE 318",
    "city": "SHERMAN OAKS",
    "zip": "91403",
    "county": "LOS ANGELES",
    "phone": "(818) 806-9727",
    "lat": 34.15294899,
    "lng": -118.462773
  },
  {
    "id": "630013667",
    "name": "SACRED LIFE HOSPICE",
    "npi": null,
    "hcaiId": "406197891",
    "businessName": "INTEGRITY CARE OF THE WEST, INC.",
    "contactEmail": "THERESA@SACREDLIFEHOSPICE.COM",
    "categoryName": "HOSPICE",
    "categoryCode": "HOSPICE",
    "licenseStatus": "ACTIVE",
    "inService": true,
    "licenseNumber": "550002268",
    "licenseEffectiveDate": "05/07/2025",
    "licenseExpirationDate": "05/06/2027",
    "dataDate": "10/18/2025",
    "capacity": 0,
    "address": "15130 VENTURA BLVD, SUITE 304",
    "city": "SHERMAN OAKS",
    "zip": "91403",
    "county": "LOS ANGELES",
    "phone": "(818) 275-4649",
    "lat": 34.15316835,
    "lng": -118.4627029
  },
  {
    "id": "630023894",
    "name": "SAINT AMARAS HOME HEALTH CARE, INC.",
    "npi": null,
    "hcaiId": "406195841",
    "businessName": "SAINT AMARAS HOME HEALTH CARE, INC.",
    "contactEmail": "STAMARASHHC@GMAIL.COM",
    "categoryName": "HOME HEALTH AGENCY",
    "categoryCode": "HHA",
    "licenseStatus": "ACTIVE",
    "inService": true,
    "licenseNumber": "550007984",
    "licenseEffectiveDate": "05/13/2025",
    "licenseExpirationDate": "05/12/2026",
    "dataDate": "10/18/2025",
    "capacity": 0,
    "address": "4629 VAN NUYS BLVD, SUITE A",
    "city": "SHERMAN OAKS",
    "zip": "91403",
    "county": "LOS ANGELES",
    "phone": "(747) 202-3655",
    "lat": 34.15561397,
    "lng": -118.4489085
  },
  {
    "id": "630017901",
    "name": "SERAFIM HOSPICE INC",
    "npi": "1487158218",
    "hcaiId": "406191829",
    "businessName": "SERAFIM HOSPICE, INC.",
    "contactEmail": "SERAFIMHOSPICE@GMAIL.COM",
    "categoryName": "HOSPICE",
    "categoryCode": "HOSPICE",
    "licenseStatus": "ACTIVE",
    "inService": true,
    "licenseNumber": "550004892",
    "licenseEffectiveDate": "08/03/2023",
    "licenseExpirationDate": "08/02/2025",
    "dataDate": "10/18/2025",
    "capacity": 0,
    "address": "4419 VAN NUYS BLVD, SUITE 401",
    "city": "SHERMAN OAKS",
    "zip": "91403",
    "county": "LOS ANGELES",
    "phone": "(805) 250-5363",
    "lat": 34.151571,
    "lng": -118.4489055
  },
  {
    "id": "630021010",
    "name": "SHEPHERD HOSPICE INC.",
    "npi": null,
    "hcaiId": "406193772",
    "businessName": "SHEPHERD HOSPICE INC.",
    "contactEmail": "SHEPHERDHOSPICECARE@GMAIL.COM",
    "categoryName": "HOSPICE",
    "categoryCode": "HOSPICE",
    "licenseStatus": "ACTIVE",
    "inService": true,
    "licenseNumber": "550006766",
    "licenseEffectiveDate": "07/30/2025",
    "licenseExpirationDate": "07/29/2027",
    "dataDate": "10/18/2025",
    "capacity": 0,
    "address": "14827 VENTURA BLVD, SUITE 226",
    "city": "SHERMAN OAKS",
    "zip": "91403",
    "county": "LOS ANGELES",
    "phone": "(323) 243-5322",
    "lat": 34.15248,
    "lng": -118.4562315
  },
  {
    "id": "630027605",
    "name": "SHERMAN OAKS AMBULATORY SURGERY CENTER",
    "npi": null,
    "hcaiId": null,
    "businessName": null,
    "contactEmail": null,
    "categoryName": "SURGICAL CLINIC",
    "categoryCode": "ASC",
    "licenseStatus": null,
    "inService": null,
    "licenseNumber": null,
    "licenseEffectiveDate": null,
    "licenseExpirationDate": null,
    "dataDate": "10/18/2025",
    "capacity": 0,
    "address": "4940 VAN NUYS BLVD, SUITE 103",
    "city": "SHERMAN OAKS",
    "zip": "91403",
    "county": "LOS ANGELES",
    "phone": null,
    "lat": 34.16059098,
    "lng": -118.448371
  },
  {
    "id": "930000140",
    "name": "SHERMAN OAKS HOSPITAL",
    "npi": "1750491247",
    "hcaiId": "106190708",
    "businessName": "PRIME HEALTHCARE SERVICES - SHERMAN OAKS, LLC",
    "contactEmail": "ROLAND.SANTOS@PRIMEHEALTHCARE.COM",
    "categoryName": "GENERAL ACUTE CARE HOSPITAL",
    "categoryCode": "GACH",
    "licenseStatus": "ACTIVE",
    "inService": true,
    "licenseNumber": "930000149",
    "licenseEffectiveDate": "03/01/2025",
    "licenseExpirationDate": "02/28/2026",
    "dataDate": "10/18/2025",
    "capacity": 112,
    "address": "4929 VAN NUYS BLVD",
    "city": "SHERMAN OAKS",
    "zip": "91403",
    "county": "LOS ANGELES",
    "phone": "(818) 981-7111",
    "lat": 34.160256,
    "lng": -118.4488965
  },
  {
    "id": "930001552",
    "name": "SHERMAN OAKS HOSPITAL",
    "npi": "1396031639",
    "hcaiId": null,
    "businessName": "PRIME HEALTHCARE SERVICES - SHERMAN OAKS, LLC",
    "contactEmail": "FAC98ADMIN@LONGWOODMGNT.COM",
    "categoryName": "SKILLED NURSING FACILITY",
    "categoryCode": "SNF",
    "licenseStatus": "ACTIVE",
    "inService": true,
    "licenseNumber": "930000149",
    "licenseEffectiveDate": "03/01/2025",
    "licenseExpirationDate": "02/28/2026",
    "dataDate": "10/18/2025",
    "capacity": 22,
    "address": "4929 VAN NUYS BLVD",
    "city": "SHERMAN OAKS",
    "zip": "91403",
    "county": "LOS ANGELES",
    "phone": null,
    "lat": 34.160256,
    "lng": -118.4488965
  },
  {
    "id": "930001621",
    "name": "SHERMAN OAKS HOSPITAL AND HEALTH CENTER, D/P APH",
    "npi": "1750491247",
    "hcaiId": null,
    "businessName": "PRIME HEALTHCARE SERVICES - SHERMAN OAKS, LLC",
    "contactEmail": null,
    "categoryName": "ACUTE PSYCHIATRIC HOSPITAL",
    "categoryCode": "APH",
    "licenseStatus": "ACTIVE",
    "inService": true,
    "licenseNumber": "930000149",
    "licenseEffectiveDate": "03/01/2025",
    "licenseExpirationDate": "02/28/2026",
    "dataDate": "10/18/2025",
    "capacity": 19,
    "address": "4929 VAN NUYS BLVD",
    "city": "SHERMAN OAKS",
    "zip": "91403",
    "county": "LOS ANGELES",
    "phone": "(818) 981-7111",
    "lat": 34.160256,
    "lng": -118.4488965
  },
  {
    "id": "930001706",
    "name": "SHERMAN OAKS SURGERY CENTER",
    "npi": "1790834612",
    "hcaiId": "306196174",
    "businessName": "SHERMAN OAKS SURGERY CENTER, INC., A MEDICAL CORP.",
    "contactEmail": "SOSC@SBCGLOBAL.NET",
    "categoryName": "SURGICAL CLINIC",
    "categoryCode": "ASC",
    "licenseStatus": "INACTIVE - CAPEN DECISION",
    "inService": false,
    "licenseNumber": "930000946",
    "licenseEffectiveDate": "11/07/2007",
    "licenseExpirationDate": "11/06/2008",
    "dataDate": "10/18/2025",
    "capacity": 0,
    "address": "5170 SEPULVEDA BLVD, SUITE 140",
    "city": "SHERMAN OAKS",
    "zip": "91403",
    "county": "LOS ANGELES",
    "phone": "(818) 783-5000",
    "lat": 34.164612,
    "lng": -118.46592
  },
  {
    "id": "630018027",
    "name": "SKYLAR HOME HEALTH, INC.",
    "npi": "1972092468",
    "hcaiId": "406191581",
    "businessName": "SKYLAR HOME HEALTH, INC.",
    "contactEmail": "INFO@SKYLARCARE.COM",
    "categoryName": "HOME HEALTH AGENCY",
    "categoryCode": "HHA",
    "licenseStatus": "ACTIVE",
    "inService": true,
    "licenseNumber": "550004614",
    "licenseEffectiveDate": "03/20/2025",
    "licenseExpirationDate": "03/19/2026",
    "dataDate": "10/18/2025",
    "capacity": 0,
    "address": "15450 VENTURA BLVD, UNIT 201",
    "city": "SHERMAN OAKS",
    "zip": "91403",
    "county": "LOS ANGELES",
    "phone": "(818) 574-5950",
    "lat": 34.154334,
    "lng": -118.470438
  },
  {
    "id": "630020617",
    "name": "SKYLAR HOSPICE CARE, INC",
    "npi": null,
    "hcaiId": "406196095",
    "businessName": "SKYLAR HOSPICE CARE, INC",
    "contactEmail": "SKYLARHOSPICECARE@YAHOO.COM",
    "categoryName": "HOSPICE",
    "categoryCode": "HOSPICE",
    "licenseStatus": "ACTIVE",
    "inService": true,
    "licenseNumber": "550006312",
    "licenseEffectiveDate": "03/05/2025",
    "licenseExpirationDate": "03/04/2027",
    "dataDate": "10/18/2025",
    "capacity": 0,
    "address": "15450 VENTURA BLVD, SUITE 104",
    "city": "SHERMAN OAKS",
    "zip": "91403",
    "county": "LOS ANGELES",
    "phone": "(818) 452-5655",
    "lat": 34.15422702,
    "lng": -118.470371
  },
  {
    "id": "930001301",
    "name": "SOUTHERN CALIFORNIA STONE CENTER",
    "npi": null,
    "hcaiId": null,
    "businessName": null,
    "contactEmail": "NONE@DHS.CA.GOV",
    "categoryName": "SURGICAL CLINIC",
    "categoryCode": "ASC",
    "licenseStatus": null,
    "inService": null,
    "licenseNumber": null,
    "licenseEffectiveDate": null,
    "licenseExpirationDate": null,
    "dataDate": "10/18/2025",
    "capacity": 0,
    "address": "15233 VENTURA BLVD",
    "city": "SHERMAN OAKS",
    "zip": "91403",
    "county": "LOS ANGELES",
    "phone": "(818) 784-8799",
    "lat": 34.153803,
    "lng": -118.46502
  },
  {
    "id": "630024133",
    "name": "SPIRITUM HOME HEALTH CARE, INC.",
    "npi": null,
    "hcaiId": "406195494",
    "businessName": "SPIRITUM HOME HEALTH CARE, INC.",
    "contactEmail": "SPIRITUMHOMEHEALTHCARE@GMAIL.COM",
    "categoryName": "HOME HEALTH AGENCY",
    "categoryCode": "HHA",
    "licenseStatus": "ACTIVE",
    "inService": true,
    "licenseNumber": "550008136",
    "licenseEffectiveDate": "08/22/2023",
    "licenseExpirationDate": "08/21/2024",
    "dataDate": "10/18/2025",
    "capacity": 0,
    "address": "15125 VENTURA BLVD, SUITE 2-10",
    "city": "SHERMAN OAKS",
    "zip": "91403",
    "county": "LOS ANGELES",
    "phone": "(747) 737-3171",
    "lat": 34.153371,
    "lng": -118.462428
  },
  {
    "id": "630018162",
    "name": "ST. MARY'S HOSPICE AND PALLIATIVE CARE, INC.",
    "npi": "1992295075",
    "hcaiId": "406192640",
    "businessName": "ST. MARY'S HOSPICE AND PALLIATIVE CARE, INC.",
    "contactEmail": "AMHOSPICE818@GMAIL.COM",
    "categoryName": "HOSPICE",
    "categoryCode": "HOSPICE",
    "licenseStatus": "ACTIVE",
    "inService": true,
    "licenseNumber": "550004929",
    "licenseEffectiveDate": "08/01/2025",
    "licenseExpirationDate": "07/31/2027",
    "dataDate": "10/18/2025",
    "capacity": 0,
    "address": "15300 VENTURA BLVD, SUITE 309",
    "city": "SHERMAN OAKS",
    "zip": "91403",
    "county": "LOS ANGELES",
    "phone": "(818) 245-6361",
    "lat": 34.15358501,
    "lng": -118.466725
  },
  {
    "id": "630024858",
    "name": "STIMULUS LIFE HOME HEALTH CARE SERVICES",
    "npi": null,
    "hcaiId": null,
    "businessName": "STIMULUS LIFE HOME HEALTH CARE SERVICES",
    "contactEmail": "STIMULUSLIFEHHCS@GMAIL.COM",
    "categoryName": "HOME HEALTH AGENCY",
    "categoryCode": "HHA",
    "licenseStatus": "ACTIVE",
    "inService": true,
    "licenseNumber": "550009310",
    "licenseEffectiveDate": "08/12/2025",
    "licenseExpirationDate": "08/11/2026",
    "dataDate": "10/18/2025",
    "capacity": 0,
    "address": "14945 VENTURA BLVD, SUITE 200",
    "city": "SHERMAN OAKS",
    "zip": "91403",
    "county": "LOS ANGELES",
    "phone": "(800) 451-8308",
    "lat": 34.152786,
    "lng": -118.458963
  },
  {
    "id": "630020473",
    "name": "SUBLIME HOSPICE",
    "npi": null,
    "hcaiId": "406193686",
    "businessName": "SUBLIME HOSPICE",
    "contactEmail": "SUBLIMEHOSPICE@GMAIL.COM",
    "categoryName": "HOSPICE",
    "categoryCode": "HOSPICE",
    "licenseStatus": "ACTIVE",
    "inService": true,
    "licenseNumber": "550006937",
    "licenseEffectiveDate": "10/30/2023",
    "licenseExpirationDate": "09/21/2025",
    "dataDate": "10/18/2025",
    "capacity": 0,
    "address": "15300 VENTURA BLVD, SUITE 212",
    "city": "SHERMAN OAKS",
    "zip": "91403",
    "county": "LOS ANGELES",
    "phone": "(747) 214-4428",
    "lat": 34.15358501,
    "lng": -118.466725
  },
  {
    "id": "630017594",
    "name": "TLC HOME HEALTH SERVICES",
    "npi": null,
    "hcaiId": "406191494",
    "businessName": "G&H HOME HEALTH CARE, INC.",
    "contactEmail": "INFO@TLCHOMEHS.COM",
    "categoryName": "HOME HEALTH AGENCY",
    "categoryCode": "HHA",
    "licenseStatus": "ACTIVE",
    "inService": true,
    "licenseNumber": "550004585",
    "licenseEffectiveDate": "01/14/2025",
    "licenseExpirationDate": "01/13/2026",
    "dataDate": "10/18/2025",
    "capacity": 0,
    "address": "14652 VENTURA BLVD, SUITE 201",
    "city": "SHERMAN OAKS",
    "zip": "91403",
    "county": "LOS ANGELES",
    "phone": "(888) 852-4886",
    "lat": 34.15130899,
    "lng": -118.452807
  },
  {
    "id": "630015897",
    "name": "TRINITY HOME HEALTH, INC.",
    "npi": "1780077727",
    "hcaiId": "406198504",
    "businessName": "TRINITY HOME HEALTH, INC.",
    "contactEmail": "TRINITYHHC@YAHOO.COM",
    "categoryName": "HOME HEALTH AGENCY",
    "categoryCode": "HHA",
    "licenseStatus": "ACTIVE",
    "inService": true,
    "licenseNumber": "550003976",
    "licenseEffectiveDate": "10/12/2025",
    "licenseExpirationDate": "10/11/2026",
    "dataDate": "10/18/2025",
    "capacity": 0,
    "address": "5170 SEPULVEDA BLVD, SUITE 260",
    "city": "SHERMAN OAKS",
    "zip": "91403",
    "county": "LOS ANGELES",
    "phone": "(818) 779-0664",
    "lat": 34.164558,
    "lng": -118.4657895
  },
  {
    "id": "930001794",
    "name": "U.S. RENAL CARE SHERMAN OAKS DIALYSIS",
    "npi": "1710923677",
    "hcaiId": "306196430",
    "businessName": "KIDNEY CENTER OF SHERMAN OAKS, INC.",
    "contactEmail": "LICENSING@USRENALCARE.COM",
    "categoryName": "CHRONIC DIALYSIS CLINIC",
    "categoryCode": "ESRD/CDC",
    "licenseStatus": "ACTIVE",
    "inService": true,
    "licenseNumber": "930000991",
    "licenseEffectiveDate": "04/14/2025",
    "licenseExpirationDate": "04/13/2026",
    "dataDate": "10/18/2025",
    "capacity": 19,
    "address": "4955 VAN NUYS BLVD, SUITE 111",
    "city": "SHERMAN OAKS",
    "zip": "91403",
    "county": "LOS ANGELES",
    "phone": "(818) 285-5913",
    "lat": 34.160778,
    "lng": -118.4488965
  },
  {
    "id": "630025742",
    "name": "UNCONDITIONAL LOVE HOME HEALTH CARE, INC.",
    "npi": null,
    "hcaiId": null,
    "businessName": "UNCONDITIONAL LOVE HOME HEALTH CARE, INC.",
    "contactEmail": "ANNA@HOMEHEALTHCONSULTING.NET",
    "categoryName": "HOME HEALTH AGENCY",
    "categoryCode": "HHA",
    "licenseStatus": "ACTIVE",
    "inService": true,
    "licenseNumber": "550008912",
    "licenseEffectiveDate": "12/29/2024",
    "licenseExpirationDate": "12/28/2025",
    "dataDate": "10/18/2025",
    "capacity": 0,
    "address": "15130 VENTURA BLVD, SUITE 329",
    "city": "SHERMAN OAKS",
    "zip": "91403",
    "county": "LOS ANGELES",
    "phone": "(747) 666-1358",
    "lat": 34.15316835,
    "lng": -118.4627029
  },
  {
    "id": "630025209",
    "name": "VA HOME HEALTH CARE INC",
    "npi": null,
    "hcaiId": "406196808",
    "businessName": "VA HOME HEALTH CARE INC",
    "contactEmail": "VAHHCARE2000@YAHOO.COM",
    "categoryName": "HOME HEALTH AGENCY",
    "categoryCode": "HHA",
    "licenseStatus": "ACTIVE",
    "inService": true,
    "licenseNumber": "550008349",
    "licenseEffectiveDate": "01/20/2025",
    "licenseExpirationDate": "01/19/2026",
    "dataDate": "10/18/2025",
    "capacity": 0,
    "address": "15053 VENTURA BLVD, SUITE 202B",
    "city": "SHERMAN OAKS",
    "zip": "91403",
    "county": "LOS ANGELES",
    "phone": "(747) 345-3034",
    "lat": 34.153274,
    "lng": -118.461497
  },
  {
    "id": "630014585",
    "name": "VALLEY VIEW HOSPICE INC",
    "npi": "1679909923",
    "hcaiId": "406198338",
    "businessName": "VALLEY VIEW HOSPICE INC",
    "contactEmail": "VALLEYVIEWHOSPICE@YAHOO.COM",
    "categoryName": "HOSPICE",
    "categoryCode": "HOSPICE",
    "licenseStatus": "ACTIVE",
    "inService": true,
    "licenseNumber": "550002908",
    "licenseEffectiveDate": "11/26/2024",
    "licenseExpirationDate": "11/25/2026",
    "dataDate": "10/18/2025",
    "capacity": 0,
    "address": "15477 VENTURA BLVD, SUITE 201",
    "city": "SHERMAN OAKS",
    "zip": "91403",
    "county": "LOS ANGELES",
    "phone": "(818) 385-1680",
    "lat": 34.154964,
    "lng": -118.4711175
  },
  {
    "id": "630026323",
    "name": "VALLEYWIDE HOME HEALTH CARE INC.",
    "npi": null,
    "hcaiId": null,
    "businessName": "VALLEYWIDE HOME HEALTH CARE INC.",
    "contactEmail": "VALLEYWIDEHH@YAHOO.COM",
    "categoryName": "HOME HEALTH AGENCY",
    "categoryCode": "HHA",
    "licenseStatus": "ACTIVE",
    "inService": true,
    "licenseNumber": "550009416",
    "licenseEffectiveDate": "02/21/2025",
    "licenseExpirationDate": "08/20/2025",
    "dataDate": "10/18/2025",
    "capacity": 0,
    "address": "14542 VENTURA BLVD, SUITE 200",
    "city": "SHERMAN OAKS",
    "zip": "91403",
    "county": "LOS ANGELES",
    "phone": "(818) 387-8359",
    "lat": 34.150995,
    "lng": -118.450179
  },
  {
    "id": "630017778",
    "name": "VN HOME HEALTH SERVICES INC",
    "npi": "1437651874",
    "hcaiId": "406191653",
    "businessName": "VN HOME HEALTH SERVICES, INC.",
    "contactEmail": "VNHOMEHEALTHSERVICES@GMAIL.COM",
    "categoryName": "HOME HEALTH AGENCY",
    "categoryCode": "HHA",
    "licenseStatus": "ACTIVE",
    "inService": true,
    "licenseNumber": "550004653",
    "licenseEffectiveDate": "03/23/2025",
    "licenseExpirationDate": "03/22/2026",
    "dataDate": "10/18/2025",
    "capacity": 0,
    "address": "5121 VAN NUYS BLVD, SUITE 212",
    "city": "SHERMAN OAKS",
    "zip": "91403",
    "county": "LOS ANGELES",
    "phone": "(818) 967-5567",
    "lat": 34.16374899,
    "lng": -118.449058
  },
  {
    "id": "630022256",
    "name": "WARM HANDS HOSPICE INC",
    "npi": null,
    "hcaiId": "406193842",
    "businessName": "WARM HANDS HOSPICE INC",
    "contactEmail": "DIANA.WARMHANDS@GMAIL.COM",
    "categoryName": "HOSPICE",
    "categoryCode": "HOSPICE",
    "licenseStatus": "ACTIVE",
    "inService": true,
    "licenseNumber": "550007375",
    "licenseEffectiveDate": "02/27/2024",
    "licenseExpirationDate": "12/02/2025",
    "dataDate": "10/18/2025",
    "capacity": 0,
    "address": "14542 VENTURA BLVD, SUITE 209",
    "city": "SHERMAN OAKS",
    "zip": "91403",
    "county": "LOS ANGELES",
    "phone": "(818) 394-0620",
    "lat": 34.15089299,
    "lng": -118.450101
  },
  {
    "id": "630026092",
    "name": "WE THE BEST HOME HEALTH",
    "npi": null,
    "hcaiId": null,
    "businessName": "WE THE BEST HOME HEALTH",
    "contactEmail": "4WETHEBESTHH@GMAIL.COM",
    "categoryName": "HOME HEALTH AGENCY",
    "categoryCode": "HHA",
    "licenseStatus": "ACTIVE",
    "inService": true,
    "licenseNumber": "550009159",
    "licenseEffectiveDate": "05/24/2025",
    "licenseExpirationDate": "05/23/2026",
    "dataDate": "10/18/2025",
    "capacity": 0,
    "address": "15206 VENTURA BLVD, SUITE 301",
    "city": "SHERMAN OAKS",
    "zip": "91403",
    "county": "LOS ANGELES",
    "phone": "(213) 269-5225",
    "lat": 34.15329,
    "lng": -118.4641245
  },
  {
    "id": "630020638",
    "name": "YNG HOSPICE, INC.",
    "npi": null,
    "hcaiId": "406193797",
    "businessName": "YNG HOSPICE INC.",
    "contactEmail": "YNGHOSPICEINC@GMAIL.COM",
    "categoryName": "HOSPICE",
    "categoryCode": "HOSPICE",
    "licenseStatus": "ACTIVE",
    "inService": true,
    "licenseNumber": "550006841",
    "licenseEffectiveDate": "09/01/2025",
    "licenseExpirationDate": "08/31/2027",
    "dataDate": "10/18/2025",
    "capacity": 0,
    "address": "15300 VENTURA BLVD, SUITE 214",
    "city": "SHERMAN OAKS",
    "zip": "91403",
    "county": "LOS ANGELES",
    "phone": "(818) 934-9002",
    "lat": 34.15358501,
    "lng": -118.466725
  }
]