[
  {
    "id": "630020326",
    "name": "1ST FAMILY HOME HEALTH, INC.",
    "npi": null,
    "hcaiId": "406195670",
    "businessName": "1ST FAMILY HOME HEALTH CARE, INC.",
    "contactEmail": "FAMILYCAREHH@YAHOO.COM",
    "categoryName": "HOME HEALTH AGENCY",
    "categoryCode": "HHA",
    "licenseStatus": "ACTIVE",
    "inService": true,
    "licenseNumber": "550005949",
    "licenseEffectiveDate": "12/30/2024",
    "licenseExpirationDate": "12/29/2025",
    "dataDate": "10/18/2025",
    "capacity": 0,
    "address": "14621 TITUS ST, SUITE 132",
    "city": "PANORAMA CITY",
    "zip": "91402",
    "county": "LOS ANGELES",
    "phone": "(818) 732-7300",
    "lat": 34.22024201,
    "lng": -118.451797
  },
  {
    "id": "630017078",
    "name": "AAAA HOME HEALTH CARE",
    "npi": null,
    "hcaiId": "406191537",
    "businessName": "AAAA HOME HEALTH CARE",
    "contactEmail": "AAAAHOMEHEALTHCARE@GMAIL.COM",
    "categoryName": "HOME HEALTH AGENCY",
    "categoryCode": "HHA",
    "licenseStatus": "ACTIVE",
    "inService": true,
    "licenseNumber": "550004337",
    "licenseEffectiveDate": "07/28/2025",
    "licenseExpirationDate": "07/27/2026",
    "dataDate": "10/18/2025",
    "capacity": 0,
    "address": "9561 VAN NUYS BLVD, UNIT 3",
    "city": "PANORAMA CITY",
    "zip": "91402",
    "county": "LOS ANGELES",
    "phone": "(626) 727-6222",
    "lat": 34.244429,
    "lng": -118.450508
  },
  {
    "id": "630026015",
    "name": "ADVANCE LIFE HOME HEALTH INC",
    "npi": null,
    "hcaiId": null,
    "businessName": "ADVANCE LIFE HOME HEALTH, INC.",
    "contactEmail": "ADVANCELIFEHH@GMAIL.COM",
    "categoryName": "HOME HEALTH AGENCY",
    "categoryCode": "HHA",
    "licenseStatus": "ACTIVE",
    "inService": true,
    "licenseNumber": "550009275",
    "licenseEffectiveDate": "07/03/2025",
    "licenseExpirationDate": "07/02/2026",
    "dataDate": "10/18/2025",
    "capacity": 0,
    "address": "14547 TITUS ST, SUITE 104",
    "city": "PANORAMA CITY",
    "zip": "91402",
    "county": "LOS ANGELES",
    "phone": "(818) 264-4040",
    "lat": 34.219854,
    "lng": -118.45017
  },
  {
    "id": "630021906",
    "name": "AIDE HOSPICE CARE, INC.",
    "npi": null,
    "hcaiId": null,
    "businessName": "AIDE HOSPICE CARE, INC.",
    "contactEmail": "AIDEHOSPICECARE@GMAIL.COM",
    "categoryName": "HOSPICE",
    "categoryCode": "HOSPICE",
    "licenseStatus": "ACTIVE",
    "inService": true,
    "licenseNumber": "550007620",
    "licenseEffectiveDate": "12/15/2023",
    "licenseExpirationDate": "12/14/2025",
    "dataDate": "10/18/2025",
    "capacity": 0,
    "address": "14621 NORDHOFF ST, UNIT 1D",
    "city": "PANORAMA CITY",
    "zip": "91402",
    "county": "LOS ANGELES",
    "phone": "(818) 772-7723",
    "lat": 34.235676,
    "lng": -118.4510655
  },
  {
    "id": "630017575",
    "name": "AKESO HOME HEALTH CARE, INC.",
    "npi": null,
    "hcaiId": "406191787",
    "businessName": "AKESO HOME HEALTH CARE, INC.",
    "contactEmail": "AKESOHH@GMAIL.COM",
    "categoryName": "HOME HEALTH AGENCY",
    "categoryCode": "HHA",
    "licenseStatus": "ACTIVE",
    "inService": true,
    "licenseNumber": "550004921",
    "licenseEffectiveDate": "09/05/2025",
    "licenseExpirationDate": "09/04/2026",
    "dataDate": "10/18/2025",
    "capacity": 0,
    "address": "14621 TITUS ST, SUITE 127",
    "city": "VAN NUYS",
    "zip": "91402",
    "county": "LOS ANGELES",
    "phone": "(310) 774-7747",
    "lat": 34.219863,
    "lng": -118.4516415
  },
  {
    "id": "630027165",
    "name": "ALPINA HEALTHCARE CENTER",
    "npi": null,
    "hcaiId": null,
    "businessName": "ALPINA HEALTHCARE CENTER",
    "contactEmail": "ALPINAHEALTHCARE@YAHOO.COM",
    "categoryName": "CONGREGATE LIVING HEALTH FACILITY",
    "categoryCode": "CLHF",
    "licenseStatus": "ACTIVE",
    "inService": true,
    "licenseNumber": "550009474",
    "licenseEffectiveDate": "10/16/2025",
    "licenseExpirationDate": "10/15/2026",
    "dataDate": "10/18/2025",
    "capacity": 6,
    "address": "14637 W PLUMMER ST",
    "city": "PANORAMA CITY",
    "zip": "91402",
    "county": "LOS ANGELES",
    "phone": "(818) 287-7570",
    "lat": 34.2429264,
    "lng": -118.4538296
  },
  {
    "id": "630010401",
    "name": "ANGEL SENIOR PLACEMENT",
    "npi": null,
    "hcaiId": null,
    "businessName": null,
    "contactEmail": "REBECCA723@GMAIL.COM",
    "categoryName": "REFERRAL AGENCY",
    "categoryCode": "REFRLAG",
    "licenseStatus": "ACTIVE",
    "inService": true,
    "licenseNumber": "550000170",
    "licenseEffectiveDate": "06/01/2025",
    "licenseExpirationDate": "05/31/2026",
    "dataDate": "10/18/2025",
    "capacity": 0,
    "address": "14500 ROSCOE BLVD, SUITE 400",
    "city": "PANORAMA CITY",
    "zip": "91402",
    "county": "LOS ANGELES",
    "phone": "(818) 298-8970",
    "lat": 34.221168,
    "lng": -118.4492025
  },
  {
    "id": "630015405",
    "name": "AR HOSPICE CARE, INC.",
    "npi": null,
    "hcaiId": "406198273",
    "businessName": "AR HOSPICE CARE, INC.",
    "contactEmail": "ARHOSPICECARE@GMAIL.COM",
    "categoryName": "HOSPICE",
    "categoryCode": "HOSPICE",
    "licenseStatus": "ACTIVE",
    "inService": true,
    "licenseNumber": "550003573",
    "licenseEffectiveDate": "06/08/2024",
    "licenseExpirationDate": "06/07/2026",
    "dataDate": "10/18/2025",
    "capacity": 0,
    "address": "14547 TITUS ST, SUITE 214",
    "city": "VAN NUYS",
    "zip": "91402",
    "county": "LOS ANGELES",
    "phone": "(818) 946-8013",
    "lat": 34.220043,
    "lng": -118.4504265
  },
  {
    "id": "630025240",
    "name": "BELLA HOME HEALTH",
    "npi": null,
    "hcaiId": null,
    "businessName": "BELLA HOME HEALTH",
    "contactEmail": "HOMEHEALTHBELLA@GMAIL.COM",
    "categoryName": "HOME HEALTH AGENCY",
    "categoryCode": "HHA",
    "licenseStatus": "ACTIVE",
    "inService": true,
    "licenseNumber": "550008540",
    "licenseEffectiveDate": "04/18/2025",
    "licenseExpirationDate": "04/17/2026",
    "dataDate": "10/18/2025",
    "capacity": 0,
    "address": "14621 TITUS ST, SUITE 218",
    "city": "PANORAMA CITY",
    "zip": "91402",
    "county": "LOS ANGELES",
    "phone": "(747) 800-3872",
    "lat": 34.219863,
    "lng": -118.4516415
  },
  {
    "id": "630013699",
    "name": "BENEVOLENCE HOSPICE, INC.",
    "npi": null,
    "hcaiId": "406198114",
    "businessName": "BENEVOLENCE HOSPICE, INC.",
    "contactEmail": "HVELASQUEZ2018@YAHOO.COM",
    "categoryName": "HOSPICE",
    "categoryCode": "HOSPICE",
    "licenseStatus": "ACTIVE",
    "inService": true,
    "licenseNumber": "550002393",
    "licenseEffectiveDate": "08/13/2025",
    "licenseExpirationDate": "08/12/2027",
    "dataDate": "10/18/2025",
    "capacity": 0,
    "address": "14547 TITUS ST, SUITE 204",
    "city": "PANORAMA CITY",
    "zip": "91402",
    "county": "LOS ANGELES",
    "phone": "(818) 394-8588",
    "lat": 34.220043,
    "lng": -118.4504265
  },
  {
    "id": "630011019",
    "name": "BRAEWOOD HOME HEALTH INC",
    "npi": "1508072034",
    "hcaiId": "406192662",
    "businessName": "BRAEWOOD HOME HEALTH INC",
    "contactEmail": "CONTACT@BRAEWOODHOMEHEALTH.NET",
    "categoryName": "HOME HEALTH AGENCY",
    "categoryCode": "HHA",
    "licenseStatus": "ACTIVE",
    "inService": true,
    "licenseNumber": "550000477",
    "licenseEffectiveDate": "05/15/2025",
    "licenseExpirationDate": "05/14/2026",
    "dataDate": "10/18/2025",
    "capacity": 0,
    "address": "8215 VAN NUYS BLVD, SUITE 300-301",
    "city": "PANORAMA CITY",
    "zip": "91402",
    "county": "LOS ANGELES",
    "phone": "(818) 641-1444",
    "lat": 34.220367,
    "lng": -118.448964
  },
  {
    "id": "630023468",
    "name": "CALHOUN CONGREGATE LIVING INC",
    "npi": null,
    "hcaiId": "206190385",
    "businessName": "CALHOUN CONGREGATE LIVING INC",
    "contactEmail": "CALHOUNCONGREGATE@YAHOO.COM",
    "categoryName": "CONGREGATE LIVING HEALTH FACILITY",
    "categoryCode": "CLHF",
    "licenseStatus": "ACTIVE",
    "inService": true,
    "licenseNumber": "550008460",
    "licenseEffectiveDate": "03/23/2025",
    "licenseExpirationDate": "03/22/2026",
    "dataDate": "10/18/2025",
    "capacity": 6,
    "address": "8118 CALHOUN AVE",
    "city": "PANORAMA CITY",
    "zip": "91402",
    "county": "LOS ANGELES",
    "phone": "(818) 208-9343",
    "lat": 34.2188601,
    "lng": -118.4409924
  },
  {
    "id": "630028501",
    "name": "CARE COMMUNITY HEALTH CENTERS",
    "npi": null,
    "hcaiId": null,
    "businessName": null,
    "contactEmail": "SAMP@CCHCENTERS.ORG",
    "categoryName": "PRIMARY CARE CLINIC",
    "categoryCode": "COMTYC",
    "licenseStatus": null,
    "inService": null,
    "licenseNumber": null,
    "licenseEffectiveDate": null,
    "licenseExpirationDate": null,
    "dataDate": "10/18/2025",
    "capacity": 0,
    "address": "8215 VAN NUYS BLVD, SUITE 100",
    "city": "PANORAMA CITY",
    "zip": "91402",
    "county": "LOS ANGELES",
    "phone": "(818) 853-8989",
    "lat": 34.220259,
    "lng": -118.4491575
  },
  {
    "id": "630013859",
    "name": "CENTER FOR FAMILY HEALTH & EDUCATION, INC.",
    "npi": "1871853481",
    "hcaiId": "306197742",
    "businessName": "CENTER FOR FAMILY HEALTH & EDUCATION, INC.",
    "contactEmail": "MRAMIREZ@CFFHAE.ORG",
    "categoryName": "PRIMARY CARE CLINIC",
    "categoryCode": "COMTYC",
    "licenseStatus": "ACTIVE",
    "inService": true,
    "licenseNumber": "550002136",
    "licenseEffectiveDate": "11/21/2025",
    "licenseExpirationDate": "11/20/2026",
    "dataDate": "10/18/2025",
    "capacity": 0,
    "address": "8727 VAN NUYS BLVD, SUITE 101 & 102",
    "city": "PANORAMA CITY",
    "zip": "91402",
    "county": "LOS ANGELES",
    "phone": "(818) 660-1877",
    "lat": 34.228179,
    "lng": -118.4505975
  },
  {
    "id": "630015693",
    "name": "COVENANT HOSPICE & PALLIATIVE CARE OF CALIFORNIA, INC",
    "npi": "1922404144",
    "hcaiId": "406191346",
    "businessName": "COVENANT HOSPICE & PALLIATIVE CARE OF CALIFORNIA, INC",
    "contactEmail": "COVENANTHOSPICECA@GMAIL.COM",
    "categoryName": "HOSPICE",
    "categoryCode": "HOSPICE",
    "licenseStatus": "ACTIVE",
    "inService": true,
    "licenseNumber": "550003716",
    "licenseEffectiveDate": "11/23/2024",
    "licenseExpirationDate": "11/22/2026",
    "dataDate": "10/18/2025",
    "capacity": 0,
    "address": "14534 BLYTHE ST, SUITE A",
    "city": "PANORAMA CITY",
    "zip": "91402",
    "county": "LOS ANGELES",
    "phone": "(626) 531-7101",
    "lat": 34.21479,
    "lng": -118.45014
  },
  {
    "id": "630017902",
    "name": "DIGNIFIED HOME HEALTH CARE, INC.",
    "npi": null,
    "hcaiId": "406192134",
    "businessName": "DIGNIFIED HOME HEALTH CARE, INC.",
    "contactEmail": "DIGNIFIEDINC@GMAIL.COM",
    "categoryName": "HOME HEALTH AGENCY",
    "categoryCode": "HHA",
    "licenseStatus": "ACTIVE",
    "inService": true,
    "licenseNumber": "550005134",
    "licenseEffectiveDate": "11/16/2024",
    "licenseExpirationDate": "11/15/2025",
    "dataDate": "10/18/2025",
    "capacity": 0,
    "address": "14547 TITUS ST, SUITE 208",
    "city": "PANORAMA CITY",
    "zip": "91402",
    "county": "LOS ANGELES",
    "phone": "(818) 616-3557",
    "lat": 34.220043,
    "lng": -118.4504265
  },
  {
    "id": "630025343",
    "name": "DISTINCT HOME HEALTH, INC.",
    "npi": null,
    "hcaiId": "406190270",
    "businessName": "DISTINCT HOME HEALTH, INC.",
    "contactEmail": "4DISTINCTHOMEHEALTH@GMAIL.COM",
    "categoryName": "HOME HEALTH AGENCY",
    "categoryCode": "HHA",
    "licenseStatus": "ACTIVE",
    "inService": true,
    "licenseNumber": "550009000",
    "licenseEffectiveDate": "03/02/2025",
    "licenseExpirationDate": "03/01/2026",
    "dataDate": "10/18/2025",
    "capacity": 0,
    "address": "14547 TITUS ST, #212B",
    "city": "PANORAMA CITY",
    "zip": "91402",
    "county": "LOS ANGELES",
    "phone": "(818) 452-5585",
    "lat": 34.219854,
    "lng": -118.45017
  },
  {
    "id": "060001841",
    "name": "EAST VALLEY ADULT DAY HEALTH CARE CENTER INC",
    "npi": null,
    "hcaiId": null,
    "businessName": "EAST VALLEY ADULT DAY HEALTH CARE CENTER, INC.",
    "contactEmail": "KATHYOHANIANS@GMAIL.COM",
    "categoryName": "ADULT DAY HEALTH CARE",
    "categoryCode": "ADHC",
    "licenseStatus": "ACTIVE",
    "inService": true,
    "licenseNumber": "060000658",
    "licenseEffectiveDate": "04/19/2025",
    "licenseExpirationDate": "04/18/2026",
    "dataDate": "10/18/2025",
    "capacity": 0,
    "address": "8612 VAN NUYS BLVD",
    "city": "PANORAMA CITY",
    "zip": "91402",
    "county": "LOS ANGELES",
    "phone": "(818) 951-8608",
    "lat": 34.226559,
    "lng": -118.449333
  },
  {
    "id": "630020007",
    "name": "EDNA HOME HEALTH, INC.",
    "npi": "1295361525",
    "hcaiId": "406194993",
    "businessName": "EDNA HOME HEALTH, INC.",
    "contactEmail": "INFO@EDNAHOMEHEALTHINC.COM",
    "categoryName": "HOME HEALTH AGENCY",
    "categoryCode": "HHA",
    "licenseStatus": "ACTIVE",
    "inService": true,
    "licenseNumber": "550006088",
    "licenseEffectiveDate": "01/30/2024",
    "licenseExpirationDate": "01/29/2025",
    "dataDate": "10/18/2025",
    "capacity": 0,
    "address": "14621 TITUS ST, SUITE 124",
    "city": "PANORAMA CITY",
    "zip": "91402",
    "county": "LOS ANGELES",
    "phone": "(888) 835-1562",
    "lat": 34.219863,
    "lng": -118.4516415
  },
  {
    "id": "630027921",
    "name": "EISNER HEALTH INTERGENERATIONAL HEALTH CENTER - PANORAMA CITY",
    "npi": null,
    "hcaiId": null,
    "businessName": "PEDIATRIC & FAMILY MEDICAL CENTER",
    "contactEmail": null,
    "categoryName": "PRIMARY CARE CLINIC",
    "categoryCode": "COMTYC",
    "licenseStatus": "ACTIVE",
    "inService": true,
    "licenseNumber": "550003550",
    "licenseEffectiveDate": "06/20/2025",
    "licenseExpirationDate": "06/19/2026",
    "dataDate": "10/18/2025",
    "capacity": 0,
    "address": "8700 VAN NUYS BLVD",
    "city": "PANORAMA CITY",
    "zip": "91402",
    "county": "LOS ANGELES",
    "phone": null,
    "lat": 34.22755501,
    "lng": -118.449746
  },
  {
    "id": "630015914",
    "name": "EL PROYECTO DEL BARRIO, INC., ESPERANZA CLINIC",
    "npi": "1568871143",
    "hcaiId": "306198123",
    "businessName": "EL PROYECTO DEL BARRIO, INC.",
    "contactEmail": "CTSE@ELPROYECTO.US",
    "categoryName": "PRIMARY CARE CLINIC",
    "categoryCode": "COMTYC",
    "licenseStatus": "ACTIVE",
    "inService": true,
    "licenseNumber": "550002824",
    "licenseEffectiveDate": "09/26/2025",
    "licenseExpirationDate": "09/25/2026",
    "dataDate": "10/18/2025",
    "capacity": 0,
    "address": "9140 VAN NUYS BLVD., SUITE 207",
    "city": "PANORAMA CITY",
    "zip": "91402",
    "county": "LOS ANGELES",
    "phone": "(818) 830-7181",
    "lat": 34.236603,
    "lng": -118.4500035
  },
  {
    "id": "630019529",
    "name": "ELATION HOSPICE CARE INC",
    "npi": null,
    "hcaiId": "406192589",
    "businessName": "ELATION HOSPICE CARE INC",
    "contactEmail": "ELATIONHOSPICE@GMAIL.COM",
    "categoryName": "HOSPICE",
    "categoryCode": "HOSPICE",
    "licenseStatus": "ACTIVE",
    "inService": true,
    "licenseNumber": "550005424",
    "licenseEffectiveDate": "04/23/2022",
    "licenseExpirationDate": "04/22/2024",
    "dataDate": "10/18/2025",
    "capacity": 0,
    "address": "14621 TITUS ST, SUITE 214",
    "city": "VAN NUYS",
    "zip": "91402",
    "county": "LOS ANGELES",
    "phone": "(747) 777-5785",
    "lat": 34.219863,
    "lng": -118.4516415
  },
  {
    "id": "630026911",
    "name": "ELEMENT HOME HEALTH INC.",
    "npi": null,
    "hcaiId": null,
    "businessName": "ELEMENT HOME HEALTH INC.",
    "contactEmail": "ELEMENTHOMEHEALTH@GMAIL.COM",
    "categoryName": "HOME HEALTH AGENCY",
    "categoryCode": "HHA",
    "licenseStatus": "ACTIVE",
    "inService": true,
    "licenseNumber": "550009638",
    "licenseEffectiveDate": "07/18/2025",
    "licenseExpirationDate": "01/17/2026",
    "dataDate": "10/18/2025",
    "capacity": 0,
    "address": "14547 TITUS ST, UNIT 105",
    "city": "PANORAMA CITY",
    "zip": "91402",
    "county": "LOS ANGELES",
    "phone": "(818) 208-9109",
    "lat": 34.219854,
    "lng": -118.45017
  },
  {
    "id": "630022107",
    "name": "ELEVATE HOME HEALTH, INC.",
    "npi": null,
    "hcaiId": "406195395",
    "businessName": "ELEVATE HOME HEALTH, INC.",
    "contactEmail": "ELEVATEHOMEHEALTH@GMAIL.COM",
    "categoryName": "HOME HEALTH AGENCY",
    "categoryCode": "HHA",
    "licenseStatus": "ACTIVE",
    "inService": true,
    "licenseNumber": "550007761",
    "licenseEffectiveDate": "12/02/2024",
    "licenseExpirationDate": "12/01/2025",
    "dataDate": "10/18/2025",
    "capacity": 0,
    "address": "14547 TITUS ST, SUITE 110A",
    "city": "PANORAMA CITY",
    "zip": "91402",
    "county": "LOS ANGELES",
    "phone": "(424) 222-7782",
    "lat": 34.219854,
    "lng": -118.45017
  },
  {
    "id": "630011288",
    "name": "EMILY ANNE CENTER, INC.",
    "npi": "1508029133",
    "hcaiId": null,
    "businessName": "EMILY-ANNE CENTER, INC.",
    "contactEmail": "EMILYANNECENTER@GMAIL.COM",
    "categoryName": "INTERMEDIATE CARE FACILITY-DD/H/N/CN/IID",
    "categoryCode": "ICFDDH",
    "licenseStatus": "ACTIVE",
    "inService": true,
    "licenseNumber": "550000627",
    "licenseEffectiveDate": "11/26/2024",
    "licenseExpirationDate": "11/25/2025",
    "dataDate": "10/18/2025",
    "capacity": 6,
    "address": "8679 CANTERBURY AVE",
    "city": "PANORAMA CITY",
    "zip": "91402",
    "county": "LOS ANGELES",
    "phone": "(818) 781-7244",
    "lat": 34.22727,
    "lng": -118.422459
  },
  {
    "id": "630025335",
    "name": "FULL LIFE HOME HEALTH, INC.",
    "npi": null,
    "hcaiId": null,
    "businessName": "FULL LIFE HOME HEALTH, INC.",
    "contactEmail": "FULLLIFEHHI@GMAIL.COM",
    "categoryName": "HOME HEALTH AGENCY",
    "categoryCode": "HHA",
    "licenseStatus": "ACTIVE",
    "inService": true,
    "licenseNumber": "550009478",
    "licenseEffectiveDate": "09/11/2025",
    "licenseExpirationDate": "09/10/2026",
    "dataDate": "10/18/2025",
    "capacity": 0,
    "address": "14547 TITUS ST, SUITE 102",
    "city": "PANORAMA CITY",
    "zip": "91402",
    "county": "LOS ANGELES",
    "phone": "(747) 205-0814",
    "lat": 34.219854,
    "lng": -118.45017
  },
  {
    "id": "630025338",
    "name": "FUTURE HOME HEALTH, INC.",
    "npi": null,
    "hcaiId": null,
    "businessName": "FUTURE HOME HEALTH, INC.",
    "contactEmail": "FUTUREHOMEHEALTHINC@GMAIL.COM",
    "categoryName": "HOME HEALTH AGENCY",
    "categoryCode": "HHA",
    "licenseStatus": "ACTIVE",
    "inService": true,
    "licenseNumber": "550009465",
    "licenseEffectiveDate": "09/11/2025",
    "licenseExpirationDate": "09/10/2026",
    "dataDate": "10/18/2025",
    "capacity": 0,
    "address": "14547 TITUS ST, SUITE 101",
    "city": "PANORAMA CITY",
    "zip": "91402",
    "county": "LOS ANGELES",
    "phone": "(747) 205-0847",
    "lat": 34.219854,
    "lng": -118.45017
  },
  {
    "id": "630018346",
    "name": "GOOD DAY HOME HEALTH CARE, INC",
    "npi": null,
    "hcaiId": "406193587",
    "businessName": "GOOD DAY HOME HEALTH CARE, INC",
    "contactEmail": "GOODDAYHOME7@GMAIL.COM",
    "categoryName": "HOME HEALTH AGENCY",
    "categoryCode": "HHA",
    "licenseStatus": "ACTIVE",
    "inService": true,
    "licenseNumber": "550004800",
    "licenseEffectiveDate": "06/27/2025",
    "licenseExpirationDate": "06/26/2026",
    "dataDate": "10/18/2025",
    "capacity": 0,
    "address": "9608 VAN NUYS BLVD, SUITE 207",
    "city": "PANORAMA CITY",
    "zip": "91402",
    "county": "LOS ANGELES",
    "phone": "(818) 830-8448",
    "lat": 34.244721,
    "lng": -118.4500305
  },
  {
    "id": "630017577",
    "name": "HERATSI HOME HEALTH CARE, INC.",
    "npi": null,
    "hcaiId": "406191881",
    "businessName": "HERATSI HOME HEALTH CARE, INC.",
    "contactEmail": "HERATSIHH@GMAIL.COM",
    "categoryName": "HOME HEALTH AGENCY",
    "categoryCode": "HHA",
    "licenseStatus": "ACTIVE",
    "inService": true,
    "licenseNumber": "550004581",
    "licenseEffectiveDate": "03/02/2024",
    "licenseExpirationDate": "03/01/2025",
    "dataDate": "10/18/2025",
    "capacity": 0,
    "address": "14621 TITUS ST, SUITE 128",
    "city": "VAN NUYS",
    "zip": "91402",
    "county": "LOS ANGELES",
    "phone": "(818) 290-3553",
    "lat": 34.219863,
    "lng": -118.4516415
  },
  {
    "id": "630023943",
    "name": "HONOR HOME HEALTH INC",
    "npi": null,
    "hcaiId": null,
    "businessName": "HONOR HOME HEALTH INC",
    "contactEmail": "HONORHOMEHEALTHINC@GMAIL.COM",
    "categoryName": "HOME HEALTH AGENCY",
    "categoryCode": "HHA",
    "licenseStatus": "ACTIVE",
    "inService": true,
    "licenseNumber": "550009572",
    "licenseEffectiveDate": "06/18/2025",
    "licenseExpirationDate": "12/17/2025",
    "dataDate": "10/18/2025",
    "capacity": 0,
    "address": "14547 TITUS ST, SUITE 212A",
    "city": "PANORAMA CITY",
    "zip": "91402",
    "county": "LOS ANGELES",
    "phone": "(818) 452-3680",
    "lat": 34.219854,
    "lng": -118.45017
  },
  {
    "id": "630020076",
    "name": "INTEGRAL HOME HEALTH CARE, INC.",
    "npi": null,
    "hcaiId": "406193598",
    "businessName": "INTEGRAL HOME HEALTH CARE, INC.",
    "contactEmail": "INTEGRALHHC@GMAIL.COM",
    "categoryName": "HOME HEALTH AGENCY",
    "categoryCode": "HHA",
    "licenseStatus": "ACTIVE",
    "inService": true,
    "licenseNumber": "550006835",
    "licenseEffectiveDate": "09/15/2025",
    "licenseExpirationDate": "09/14/2026",
    "dataDate": "10/18/2025",
    "capacity": 0,
    "address": "14547 TITUS ST, SUITE 203",
    "city": "PANORAMA CITY",
    "zip": "91402",
    "county": "LOS ANGELES",
    "phone": "(818) 208-2828",
    "lat": 34.219854,
    "lng": -118.45017
  },
  {
    "id": "930000050",
    "name": "KAISER FOUNDATION HOSPITAL - PANORAMA CITY",
    "npi": "1558418863",
    "hcaiId": "106190432",
    "businessName": "KAISER FOUNDATION HOSPITALS",
    "contactEmail": "ALLEN.L.ZAGHIKIAN@KP.ORG",
    "categoryName": "GENERAL ACUTE CARE HOSPITAL",
    "categoryCode": "GACH",
    "licenseStatus": "ACTIVE",
    "inService": true,
    "licenseNumber": "930000080",
    "licenseEffectiveDate": "06/01/2025",
    "licenseExpirationDate": "05/31/2026",
    "dataDate": "10/18/2025",
    "capacity": 218,
    "address": "13652 CANTARA ST",
    "city": "PANORAMA CITY",
    "zip": "91402",
    "county": "LOS ANGELES",
    "phone": "(818) 375-3781",
    "lat": 34.219737,
    "lng": -118.430838
  },
  {
    "id": "630014652",
    "name": "LAVISTA CONGREGATE LIVING HEALTH FACILITY, INC.",
    "npi": null,
    "hcaiId": "206198139",
    "businessName": "LAVISTA CONGREGATE LIVING HEALTH FACILITY, INC.",
    "contactEmail": "LAVISTACLHF@GMAIL.COM",
    "categoryName": "CONGREGATE LIVING HEALTH FACILITY",
    "categoryCode": "CLHF",
    "licenseStatus": "ACTIVE",
    "inService": true,
    "licenseNumber": "550003157",
    "licenseEffectiveDate": "07/09/2025",
    "licenseExpirationDate": "07/08/2026",
    "dataDate": "10/18/2025",
    "capacity": 6,
    "address": "7805 CLEARFIELD AVE",
    "city": "PANORAMA CITY",
    "zip": "91402",
    "county": "LOS ANGELES",
    "phone": "(818) 786-0521",
    "lat": 34.211574,
    "lng": -118.4350815
  },
  {
    "id": "630014460",
    "name": "LONGEVITY HOSPICE, INC.",
    "npi": "1497028021",
    "hcaiId": "406198037",
    "businessName": "LONGEVITY HOSPICE, INC.",
    "contactEmail": "LONGEVITYHOSPICE2012@GMAIL.COM",
    "categoryName": "HOSPICE",
    "categoryCode": "HOSPICE",
    "licenseStatus": "ACTIVE",
    "inService": true,
    "licenseNumber": "550002776",
    "licenseEffectiveDate": "07/11/2022",
    "licenseExpirationDate": "07/10/2024",
    "dataDate": "10/18/2025",
    "capacity": 0,
    "address": "8781 VAN NUYS BLVD",
    "city": "PANORAMA CITY",
    "zip": "91402",
    "county": "LOS ANGELES",
    "phone": "(818) 313-9011",
    "lat": 34.229592,
    "lng": -118.450575
  },
  {
    "id": "630027032",
    "name": "LOS ANGELES HEALTH AND REHAB, INC.",
    "npi": null,
    "hcaiId": null,
    "businessName": "LOS ANGELES HEALTH AND REHAB, INC.",
    "contactEmail": "LAHEALTHREHAB@YAHOO.COM",
    "categoryName": "CONGREGATE LIVING HEALTH FACILITY",
    "categoryCode": "CLHF",
    "licenseStatus": "ACTIVE",
    "inService": true,
    "licenseNumber": "550009494",
    "licenseEffectiveDate": "11/05/2025",
    "licenseExpirationDate": "11/04/2026",
    "dataDate": "10/18/2025",
    "capacity": 18,
    "address": "14724 GLEDHILL ST",
    "city": "PANORAMA CITY",
    "zip": "91402",
    "county": "LOS ANGELES",
    "phone": "(747) 977-3077",
    "lat": 34.241202,
    "lng": -118.4544
  },
  {
    "id": "630014799",
    "name": "LOYAL HOSPICE CARE, INC.",
    "npi": "1912328485",
    "hcaiId": "406198376",
    "businessName": "LOYAL HOSPICE CARE, INC.",
    "contactEmail": "LOYALHOSPICE@GMAIL.COM",
    "categoryName": "HOSPICE",
    "categoryCode": "HOSPICE",
    "licenseStatus": "ACTIVE",
    "inService": true,
    "licenseNumber": "550003237",
    "licenseEffectiveDate": "08/25/2025",
    "licenseExpirationDate": "08/24/2027",
    "dataDate": "10/18/2025",
    "capacity": 0,
    "address": "9608 VAN NUYS BLVD., SUITE 207-B",
    "city": "PANORAMA CITY",
    "zip": "91402",
    "county": "LOS ANGELES",
    "phone": "(818) 891-6777",
    "lat": 34.244721,
    "lng": -118.4500305
  },
  {
    "id": "980002413",
    "name": "MEDCARE HOME HEALTH SERVICES, INC.",
    "npi": null,
    "hcaiId": "406196438",
    "businessName": "MEDCARE HOME HEALTH SERVICES, INC.",
    "contactEmail": "JESSIE@MEDCAREHOMEHEALTH.COM",
    "categoryName": "HOME HEALTH AGENCY",
    "categoryCode": "HHA",
    "licenseStatus": "ACTIVE",
    "inService": true,
    "licenseNumber": "980001523",
    "licenseEffectiveDate": "03/15/2024",
    "licenseExpirationDate": "03/14/2025",
    "dataDate": "10/18/2025",
    "capacity": 0,
    "address": "14621 TITUS ST, SUITE 203",
    "city": "PANORAMA CITY",
    "zip": "91402",
    "county": "LOS ANGELES",
    "phone": "(818) 785-2152",
    "lat": 34.219863,
    "lng": -118.4516415
  },
  {
    "id": "630011471",
    "name": "MHIRAMARC MANAGEMENT LLC HOME HEALTH SERVICES",
    "npi": "1942494281",
    "hcaiId": "406197274",
    "businessName": "MHIRAMARC MANAGEMENT LLC HOME HEALTH SERVICES",
    "contactEmail": "ADMIN@MHIRAMARC.COM",
    "categoryName": "HOME HEALTH AGENCY",
    "categoryCode": "HHA",
    "licenseStatus": "ACTIVE",
    "inService": true,
    "licenseNumber": "550001086",
    "licenseEffectiveDate": "04/09/2025",
    "licenseExpirationDate": "04/08/2026",
    "dataDate": "10/18/2025",
    "capacity": 0,
    "address": "9608 VAN NUYS BLVD, SUITE 101",
    "city": "PANORAMA CITY",
    "zip": "91402",
    "county": "LOS ANGELES",
    "phone": "(818) 891-0998",
    "lat": 34.244721,
    "lng": -118.4500305
  },
  {
    "id": "630012473",
    "name": "MINUET HOMES, INC.",
    "npi": "1750617031",
    "hcaiId": null,
    "businessName": "MINUET HOMES, INC.",
    "contactEmail": "MSANTIAGO409@GMAIL.COM",
    "categoryName": "INTERMEDIATE CARE FACILITY-DD/H/N/CN/IID",
    "categoryCode": "ICFDDH",
    "licenseStatus": "ACTIVE",
    "inService": true,
    "licenseNumber": "550001313",
    "licenseEffectiveDate": "06/17/2025",
    "licenseExpirationDate": "06/16/2026",
    "dataDate": "10/18/2025",
    "capacity": 6,
    "address": "8566 MINUET PL",
    "city": "PANORAMA CITY",
    "zip": "91402",
    "county": "LOS ANGELES",
    "phone": "(818) 207-2718",
    "lat": 34.226604,
    "lng": -118.4335065
  },
  {
    "id": "630017453",
    "name": "MISSION CITY COMMUNITY NETWORK - PANORAMA",
    "npi": null,
    "hcaiId": null,
    "businessName": "MISSION CITY COMMUNITY NETWORK, INC.",
    "contactEmail": "NIKG@MCCN.ORG",
    "categoryName": "PRIMARY CARE CLINIC",
    "categoryCode": "COMTYC",
    "licenseStatus": "ACTIVE",
    "inService": true,
    "licenseNumber": "960000465",
    "licenseEffectiveDate": "03/01/2025",
    "licenseExpirationDate": "02/28/2026",
    "dataDate": "10/18/2025",
    "capacity": 0,
    "address": "8771 VAN NUYS BLVD",
    "city": "PANORAMA CITY",
    "zip": "91402",
    "county": "LOS ANGELES",
    "phone": "(818) 895-3100",
    "lat": 34.229385,
    "lng": -118.450449
  },
  {
    "id": "630013054",
    "name": "MISSION CITY COMMUNITY NETWORK, INC.",
    "npi": null,
    "hcaiId": null,
    "businessName": null,
    "contactEmail": null,
    "categoryName": "PRIMARY CARE CLINIC",
    "categoryCode": "FQHC",
    "licenseStatus": null,
    "inService": null,
    "licenseNumber": null,
    "licenseEffectiveDate": null,
    "licenseExpirationDate": null,
    "dataDate": "10/18/2025",
    "capacity": 0,
    "address": "14850 ROSCOE BLVD",
    "city": "PANORAMA CITY",
    "zip": "91402",
    "county": "LOS ANGELES",
    "phone": "(818) 895-3100",
    "lat": 34.220412,
    "lng": -118.456542
  },
  {
    "id": "630017430",
    "name": "MISSION CITY COMMUNITY NETWORK, INC.",
    "npi": null,
    "hcaiId": null,
    "businessName": null,
    "contactEmail": null,
    "categoryName": "PRIMARY CARE CLINIC",
    "categoryCode": "FQHC",
    "licenseStatus": null,
    "inService": null,
    "licenseNumber": null,
    "licenseEffectiveDate": null,
    "licenseExpirationDate": null,
    "dataDate": "10/18/2025",
    "capacity": 0,
    "address": "8771 VAN NUYS BLVD",
    "city": "PANORAMA CITY",
    "zip": "91402",
    "county": "LOS ANGELES",
    "phone": "(818) 895-3100",
    "lat": 34.229385,
    "lng": -118.450449
  },
  {
    "id": "930000027",
    "name": "MISSION COMMUNITY HOSPITAL",
    "npi": "1750365375",
    "hcaiId": "106190524",
    "businessName": "DEANCO HEALTHCARE, LLC",
    "contactEmail": "JTHEIRING@MCHONLINE.ORG",
    "categoryName": "GENERAL ACUTE CARE HOSPITAL",
    "categoryCode": "GACH",
    "licenseStatus": "ACTIVE",
    "inService": true,
    "licenseNumber": "930000101",
    "licenseEffectiveDate": "07/12/2025",
    "licenseExpirationDate": "07/11/2026",
    "dataDate": "10/18/2025",
    "capacity": 85,
    "address": "14850 ROSCOE BLVD",
    "city": "PANORAMA CITY",
    "zip": "91402",
    "county": "LOS ANGELES",
    "phone": "(818) 787-2222",
    "lat": 34.220412,
    "lng": -118.456542
  },
  {
    "id": "930001800",
    "name": "MISSION COMMUNITY HOSPITAL-PANORAMA CAMPUS-D/P APH",
    "npi": "1750365375",
    "hcaiId": null,
    "businessName": "DEANCO HEALTHCARE, LLC",
    "contactEmail": null,
    "categoryName": "ACUTE PSYCHIATRIC HOSPITAL",
    "categoryCode": "APH",
    "licenseStatus": "ACTIVE",
    "inService": true,
    "licenseNumber": "930000101",
    "licenseEffectiveDate": "07/12/2025",
    "licenseExpirationDate": "07/11/2026",
    "dataDate": "10/18/2025",
    "capacity": 60,
    "address": "14850 ROSCOE BLVD",
    "city": "PANORAMA CITY",
    "zip": "91402",
    "county": "LOS ANGELES",
    "phone": "(818) 787-2222",
    "lat": 34.220412,
    "lng": -118.456542
  },
  {
    "id": "630019535",
    "name": "ONE UP HOSPICE CARE INC",
    "npi": null,
    "hcaiId": "406192758",
    "businessName": "ONE UP HOSPICE CARE INC",
    "contactEmail": "ONEUPHC@GMAIL.COM",
    "categoryName": "HOSPICE",
    "categoryCode": "HOSPICE",
    "licenseStatus": "ACTIVE",
    "inService": true,
    "licenseNumber": "550005569",
    "licenseEffectiveDate": "05/26/2022",
    "licenseExpirationDate": "05/25/2024",
    "dataDate": "10/18/2025",
    "capacity": 0,
    "address": "14621 TITUS ST, SUITE 211",
    "city": "LOS ANGELES",
    "zip": "91402",
    "county": "LOS ANGELES",
    "phone": "(747) 777-5790",
    "lat": 34.219863,
    "lng": -118.4516415
  },
  {
    "id": "920000054",
    "name": "PANORAMA GARDENS NURSING AND REHABILITATION CENTER",
    "npi": "1467447037",
    "hcaiId": "206190596",
    "businessName": "ENSIGN PANORAMA, LLC",
    "contactEmail": "PASANCHEZ@ENSIGNSERVICES.NET",
    "categoryName": "SKILLED NURSING FACILITY",
    "categoryCode": "SNF",
    "licenseStatus": "ACTIVE",
    "inService": true,
    "licenseNumber": "920000053",
    "licenseEffectiveDate": "11/01/2025",
    "licenseExpirationDate": "10/31/2026",
    "dataDate": "10/18/2025",
    "capacity": 149,
    "address": "9541 VAN NUYS BLVD",
    "city": "PANORAMA CITY",
    "zip": "91402",
    "county": "LOS ANGELES",
    "phone": "(818) 893-6385",
    "lat": 34.24389085,
    "lng": -118.4502927
  },
  {
    "id": "630018750",
    "name": "PREFERRED HOME HEALTH SERVICES",
    "npi": null,
    "hcaiId": "406192474",
    "businessName": "PREFERRED HOME HEALTH SERVICES",
    "contactEmail": "PHHSPREFERRED@GMAIL.COM",
    "categoryName": "HOME HEALTH AGENCY",
    "categoryCode": "HHA",
    "licenseStatus": "ACTIVE",
    "inService": true,
    "licenseNumber": "550005231",
    "licenseEffectiveDate": "01/13/2024",
    "licenseExpirationDate": "01/12/2025",
    "dataDate": "10/18/2025",
    "capacity": 0,
    "address": "9608 VAN NUYS BLVD, SUITE 206",
    "city": "PANORAMA CITY",
    "zip": "91402",
    "county": "LOS ANGELES",
    "phone": "(626) 495-0003",
    "lat": 34.244721,
    "lng": -118.4500305
  },
  {
    "id": "630021217",
    "name": "PRINCIPLE HOME HEALTH, INC",
    "npi": null,
    "hcaiId": "406195540",
    "businessName": "PRINCIPLE HOME HEALTH, INC",
    "contactEmail": "PRINCIPLEHHINC@GMAIL.COM",
    "categoryName": "HOME HEALTH AGENCY",
    "categoryCode": "HHA",
    "licenseStatus": "ACTIVE",
    "inService": true,
    "licenseNumber": "550007035",
    "licenseEffectiveDate": "10/04/2024",
    "licenseExpirationDate": "10/03/2025",
    "dataDate": "10/18/2025",
    "capacity": 0,
    "address": "9608 VAN NUYS BLVD, SUITE 204B",
    "city": "PANORAMA CITY",
    "zip": "91402",
    "county": "LOS ANGELES",
    "phone": "(818) 830-0030",
    "lat": 34.244721,
    "lng": -118.4500305
  },
  {
    "id": "630018545",
    "name": "PRIORITY CARE MEDICAL GROUP - PANORAMA CITY",
    "npi": null,
    "hcaiId": "306190545",
    "businessName": "CENTER FOR FAMILY HEALTH & EDUCATION, INC.",
    "contactEmail": "MRAMIREZ@CFFHAE.ORG",
    "categoryName": "PRIMARY CARE CLINIC",
    "categoryCode": "COMTYC",
    "licenseStatus": "ACTIVE",
    "inService": true,
    "licenseNumber": "550004817",
    "licenseEffectiveDate": "08/12/2025",
    "licenseExpirationDate": "08/08/2026",
    "dataDate": "10/18/2025",
    "capacity": 0,
    "address": "8727 VAN NUYS BLVD, SUITE 105",
    "city": "PANORAMA CITY",
    "zip": "91402",
    "county": "LOS ANGELES",
    "phone": "(818) 528-6948",
    "lat": 34.228179,
    "lng": -118.4505975
  },
  {
    "id": "630028451",
    "name": "PRIORITY CARE MEDICAL GROUP - PANORAMA CITY -PD",
    "npi": null,
    "hcaiId": null,
    "businessName": "CENTER FOR FAMILY HEALTH & EDUCATION, INC.",
    "contactEmail": null,
    "categoryName": "PRIMARY CARE CLINIC",
    "categoryCode": "COMTYC",
    "licenseStatus": "ACTIVE",
    "inService": true,
    "licenseNumber": "550005412",
    "licenseEffectiveDate": "08/12/2025",
    "licenseExpirationDate": "04/18/2026",
    "dataDate": "10/18/2025",
    "capacity": 0,
    "address": "8727 NORTH VAN NUYS BOULEVARD, SUITE 201",
    "city": "PANORAMA CITY",
    "zip": "91402",
    "county": "LOS ANGELES",
    "phone": null,
    "lat": 34.22813529,
    "lng": -118.4503981
  },
  {
    "id": "630021023",
    "name": "PRIORITY CARE MEDICAL GROUP-MOBILE",
    "npi": null,
    "hcaiId": null,
    "businessName": "CENTER FOR FAMILY HEALTH & EDUCATION, INC.",
    "contactEmail": null,
    "categoryName": "PRIMARY CARE CLINIC",
    "categoryCode": "COMTYC",
    "licenseStatus": "ACTIVE",
    "inService": true,
    "licenseNumber": "550005891",
    "licenseEffectiveDate": "04/23/2025",
    "licenseExpirationDate": "12/15/2025",
    "dataDate": "10/18/2025",
    "capacity": 0,
    "address": "8727 VAN NUYS BLVD",
    "city": "PANORAMA CITY",
    "zip": "91402",
    "county": "LOS ANGELES",
    "phone": null,
    "lat": 34.228134,
    "lng": -118.450386
  },
  {
    "id": "630025558",
    "name": "R&J HOME HEALTH, INC.",
    "npi": null,
    "hcaiId": "406190207",
    "businessName": "R&J HOME HEALTH, INC.",
    "contactEmail": "RANDJHHI@GMAIL.COM",
    "categoryName": "HOME HEALTH AGENCY",
    "categoryCode": "HHA",
    "licenseStatus": "ACTIVE",
    "inService": true,
    "licenseNumber": "550008930",
    "licenseEffectiveDate": "10/27/2025",
    "licenseExpirationDate": "10/26/2026",
    "dataDate": "10/18/2025",
    "capacity": 0,
    "address": "13550 ROSCOE BLVD, SUITE 205A",
    "city": "PANORAMA CITY",
    "zip": "91402",
    "county": "LOS ANGELES",
    "phone": "(800) 648-1310",
    "lat": 34.221501,
    "lng": -118.4280795
  },
  {
    "id": "630021599",
    "name": "REAL CARE ADHC/CBAS",
    "npi": null,
    "hcaiId": null,
    "businessName": "REAL CARE ADHC/CBAS, INC.",
    "contactEmail": "ZARA@REALCAREADHC.COM",
    "categoryName": "ADULT DAY HEALTH CARE",
    "categoryCode": "ADHC",
    "licenseStatus": "ACTIVE",
    "inService": true,
    "licenseNumber": "550007840",
    "licenseEffectiveDate": "01/28/2025",
    "licenseExpirationDate": "01/27/2026",
    "dataDate": "10/18/2025",
    "capacity": 0,
    "address": "8158 VAN NUYS BLVD",
    "city": "PANORAMA CITY",
    "zip": "91402",
    "county": "LOS ANGELES",
    "phone": "(818) 588-5071",
    "lat": 34.219503,
    "lng": -118.448577
  },
  {
    "id": "630026681",
    "name": "SANTA MARIA HOME HEALTH INC",
    "npi": null,
    "hcaiId": null,
    "businessName": "SANTA MARIA HOME HEALTH INC",
    "contactEmail": "STMARIAHOMEHEALTH@GMAIL.COM",
    "categoryName": "HOME HEALTH AGENCY",
    "categoryCode": "HHA",
    "licenseStatus": "ACTIVE",
    "inService": true,
    "licenseNumber": "550009452",
    "licenseEffectiveDate": "10/16/2025",
    "licenseExpirationDate": "10/15/2026",
    "dataDate": "10/18/2025",
    "capacity": 0,
    "address": "9608 VAN NUYS BLVD, SUITE 105",
    "city": "PANORAMA CITY",
    "zip": "91402",
    "county": "LOS ANGELES",
    "phone": "(818) 851-6451",
    "lat": 34.244721,
    "lng": -118.4500305
  },
  {
    "id": "630026552",
    "name": "SANTO NINO HEALTH CENTER",
    "npi": null,
    "hcaiId": "306190763",
    "businessName": "SANTO NINO HEALTH CENTER",
    "contactEmail": "MARIETTE@SANTONINOHC.ORG",
    "categoryName": "PRIMARY CARE CLINIC",
    "categoryCode": "FQHC/COMTYC",
    "licenseStatus": "ACTIVE",
    "inService": true,
    "licenseNumber": "550008440",
    "licenseEffectiveDate": "03/08/2025",
    "licenseExpirationDate": "03/07/2026",
    "dataDate": "10/18/2025",
    "capacity": 0,
    "address": "14427 CHASE ST, SUITE 100",
    "city": "PANORAMA CITY",
    "zip": "91402",
    "county": "LOS ANGELES",
    "phone": "(818) 830-7751",
    "lat": 34.224912,
    "lng": -118.4478165
  },
  {
    "id": "630028241",
    "name": "SANTO NINO HEALTH CENTER",
    "npi": null,
    "hcaiId": null,
    "businessName": "SANTO NINO HEALTH CENTER",
    "contactEmail": null,
    "categoryName": "PRIMARY CARE CLINIC",
    "categoryCode": "COMTYC",
    "licenseStatus": "ACTIVE",
    "inService": true,
    "licenseNumber": "550008440",
    "licenseEffectiveDate": "03/08/2025",
    "licenseExpirationDate": "03/07/2026",
    "dataDate": "10/18/2025",
    "capacity": 0,
    "address": "14860 ROSCOE BLVD, SUITE 200",
    "city": "PANORAMA CITY",
    "zip": "91402",
    "county": "LOS ANGELES",
    "phone": null,
    "lat": 34.2208807,
    "lng": -118.4573166
  },
  {
    "id": "630019958",
    "name": "SIRIUS HOME HEALTH SERVICES, INC.",
    "npi": null,
    "hcaiId": "406194989",
    "businessName": "SIRIUS HOME HEALTH SERVICES, INC.",
    "contactEmail": "SIRIUSHHSERVICES@GMAIL.COM",
    "categoryName": "HOME HEALTH AGENCY",
    "categoryCode": "HHA",
    "licenseStatus": "ACTIVE",
    "inService": true,
    "licenseNumber": "550006001",
    "licenseEffectiveDate": "01/30/2025",
    "licenseExpirationDate": "01/29/2026",
    "dataDate": "10/18/2025",
    "capacity": 0,
    "address": "8215 VAN NUYS BLVD, SUITE 318",
    "city": "PANORAMA CITY",
    "zip": "91402",
    "county": "LOS ANGELES",
    "phone": "(747) 282-1477",
    "lat": 34.220367,
    "lng": -118.448964
  },
  {
    "id": "630019031",
    "name": "SIRIUS HOSPICE, INC.",
    "npi": "1811556574",
    "hcaiId": "406192082",
    "businessName": "SIRIUS HOSPICE, INC.",
    "contactEmail": "SIRIUSHOSPICEINC@GMAIL.COM",
    "categoryName": "HOSPICE",
    "categoryCode": "HOSPICE",
    "licenseStatus": "ACTIVE",
    "inService": true,
    "licenseNumber": "550005116",
    "licenseEffectiveDate": "11/16/2025",
    "licenseExpirationDate": "11/15/2027",
    "dataDate": "10/18/2025",
    "capacity": 0,
    "address": "14547 TITUS ST, SUITE 108",
    "city": "PANORAMA CITY",
    "zip": "91402",
    "county": "LOS ANGELES",
    "phone": "(818) 946-8088",
    "lat": 34.220043,
    "lng": -118.4504265
  },
  {
    "id": "630014113",
    "name": "ST. ELIZABETH HOMES CLHF, INC.",
    "npi": null,
    "hcaiId": "206197964",
    "businessName": "ST. ELIZABETH HOMES CLHF, INC.",
    "contactEmail": "STELIZABETHCLHF@GMAIL.COM",
    "categoryName": "CONGREGATE LIVING HEALTH FACILITY",
    "categoryCode": "CLHF",
    "licenseStatus": "ACTIVE",
    "inService": true,
    "licenseNumber": "550002679",
    "licenseEffectiveDate": "04/25/2025",
    "licenseExpirationDate": "04/24/2026",
    "dataDate": "10/18/2025",
    "capacity": 12,
    "address": "8536 SALOMA AVE",
    "city": "PANORAMA CITY",
    "zip": "91402",
    "county": "LOS ANGELES",
    "phone": "(818) 221-3669",
    "lat": 34.225902,
    "lng": -118.458153
  },
  {
    "id": "630017463",
    "name": "ST. RITA'S CONGREGATE, INC.",
    "npi": null,
    "hcaiId": "206190264",
    "businessName": "ST. RITA'S CONGREGATE, INC.",
    "contactEmail": "STRITASCONGREGATE@YAHOO.COM",
    "categoryName": "CONGREGATE LIVING HEALTH FACILITY",
    "categoryCode": "CLHF",
    "licenseStatus": "ACTIVE",
    "inService": true,
    "licenseNumber": "550005782",
    "licenseEffectiveDate": "09/16/2024",
    "licenseExpirationDate": "09/15/2025",
    "dataDate": "10/18/2025",
    "capacity": 6,
    "address": "7818 ALLOTT AVE",
    "city": "PANORAMA CITY",
    "zip": "91402",
    "county": "LOS ANGELES",
    "phone": "(800) 903-7172",
    "lat": 34.212672,
    "lng": -118.4273685
  },
  {
    "id": "920000056",
    "name": "THE MEADOWS POST ACUTE",
    "npi": "1174211072",
    "hcaiId": "206190770",
    "businessName": "ROSCOE CARE CENTER, LLC",
    "contactEmail": "ADMINISTRATOR@THEMEADOWSPA.COM",
    "categoryName": "SKILLED NURSING FACILITY",
    "categoryCode": "SNF",
    "licenseStatus": "ACTIVE",
    "inService": true,
    "licenseNumber": "920000072",
    "licenseEffectiveDate": "04/01/2025",
    "licenseExpirationDate": "03/31/2026",
    "dataDate": "10/18/2025",
    "capacity": 98,
    "address": "14857 ROSCOE BLVD",
    "city": "PANORAMA CITY",
    "zip": "91402",
    "county": "LOS ANGELES",
    "phone": "(818) 894-5707",
    "lat": 34.221978,
    "lng": -118.4571225
  },
  {
    "id": "630026499",
    "name": "THERAPEUTIC HOME HEALTH CARE INC",
    "npi": null,
    "hcaiId": null,
    "businessName": "THERAPEUTIC HOME HEALTH CARE INC",
    "contactEmail": "THERAPEUTICHHC@GMAIL.COM",
    "categoryName": "HOME HEALTH AGENCY",
    "categoryCode": "HHA",
    "licenseStatus": "ACTIVE",
    "inService": true,
    "licenseNumber": "550009329",
    "licenseEffectiveDate": "08/22/2025",
    "licenseExpirationDate": "08/21/2026",
    "dataDate": "10/18/2025",
    "capacity": 0,
    "address": "14547 TITUS ST, SUITE 211",
    "city": "PANORAMA CITY",
    "zip": "91402",
    "county": "LOS ANGELES",
    "phone": "(818) 616-8599",
    "lat": 34.219854,
    "lng": -118.45017
  },
  {
    "id": "630021186",
    "name": "TITAN HOME HEALTH INC",
    "npi": null,
    "hcaiId": null,
    "businessName": "TITAN HOME HEALTH INC",
    "contactEmail": "TITANHOMEHEALTH1@GMAIL.COM",
    "categoryName": "HOME HEALTH AGENCY",
    "categoryCode": "HHA",
    "licenseStatus": "ACTIVE",
    "inService": true,
    "licenseNumber": "550009442",
    "licenseEffectiveDate": "09/11/2025",
    "licenseExpirationDate": "09/10/2026",
    "dataDate": "10/18/2025",
    "capacity": 0,
    "address": "14547 TITUS ST, SUITE 103",
    "city": "PANORAMA CITY",
    "zip": "91402",
    "county": "LOS ANGELES",
    "phone": "(747) 205-0837",
    "lat": 34.220043,
    "lng": -118.4504265
  },
  {
    "id": "630021697",
    "name": "TITUS HOSPICE, INC.",
    "npi": null,
    "hcaiId": "406193262",
    "businessName": "TITUS HOSPICE, INC.",
    "contactEmail": "TITUSHOSPICE@GMAIL.COM",
    "categoryName": "HOSPICE",
    "categoryCode": "HOSPICE",
    "licenseStatus": "ACTIVE",
    "inService": true,
    "licenseNumber": "550007062",
    "licenseEffectiveDate": "10/22/2025",
    "licenseExpirationDate": "10/21/2027",
    "dataDate": "10/18/2025",
    "capacity": 0,
    "address": "14621 TITUS ST, SUITE 120",
    "city": "PANORAMA CITY",
    "zip": "91402",
    "county": "LOS ANGELES",
    "phone": "(747) 268-2818",
    "lat": 34.219863,
    "lng": -118.4516415
  },
  {
    "id": "930001644",
    "name": "U.S. RENAL CARE PANORAMA CITY DIALYSIS",
    "npi": "1881639342",
    "hcaiId": "306196041",
    "businessName": "KIDNEY CENTER OF PANORAMA CITY, INC.",
    "contactEmail": "LEGAL@USRENALCARE.COM",
    "categoryName": "CHRONIC DIALYSIS CLINIC",
    "categoryCode": "ESRD/CDC",
    "licenseStatus": "ACTIVE",
    "inService": true,
    "licenseNumber": "930000910",
    "licenseEffectiveDate": "04/08/2025",
    "licenseExpirationDate": "04/07/2026",
    "dataDate": "10/18/2025",
    "capacity": 39,
    "address": "14600 ROSCOE BLVD",
    "city": "PANORAMA CITY",
    "zip": "91402",
    "county": "LOS ANGELES",
    "phone": "(818) 901-9822",
    "lat": 34.221357,
    "lng": -118.450251
  },
  {
    "id": "630015635",
    "name": "UNITED CARE CENTER, INC.",
    "npi": null,
    "hcaiId": "206198477",
    "businessName": "UNITED CARE CENTER, INC.",
    "contactEmail": "UNITEDCARECENTER@YAHOO.COM",
    "categoryName": "CONGREGATE LIVING HEALTH FACILITY",
    "categoryCode": "CLHF",
    "licenseStatus": "ACTIVE",
    "inService": true,
    "licenseNumber": "550003635",
    "licenseEffectiveDate": "08/09/2025",
    "licenseExpirationDate": "08/08/2026",
    "dataDate": "10/18/2025",
    "capacity": 6,
    "address": "8721 CANTERBURY AVE",
    "city": "PANORAMA CITY",
    "zip": "91402",
    "county": "LOS ANGELES",
    "phone": "(818) 200-4110",
    "lat": 34.227981,
    "lng": -118.422981
  },
  {
    "id": "630022095",
    "name": "UNLIMITED HOSPICE SERVICES, INC",
    "npi": null,
    "hcaiId": "406195211",
    "businessName": "UNLIMITED HOSPICE SERVICES, INC",
    "contactEmail": "UNLIMITEDHOSPICESERVICES@GMAIL.COM",
    "categoryName": "HOSPICE",
    "categoryCode": "HOSPICE",
    "licenseStatus": "ACTIVE",
    "inService": true,
    "licenseNumber": "550007456",
    "licenseEffectiveDate": "12/08/2023",
    "licenseExpirationDate": "12/07/2025",
    "dataDate": "10/18/2025",
    "capacity": 0,
    "address": "14621 TITUS ST, SUITE 202",
    "city": "PANORAMA CITY",
    "zip": "91402",
    "county": "LOS ANGELES",
    "phone": "(818) 809-2418",
    "lat": 34.22024201,
    "lng": -118.451797
  },
  {
    "id": "960001444",
    "name": "VALLEY VILLAGE LANARK HOUSE",
    "npi": "1447301213",
    "hcaiId": null,
    "businessName": "VALLEY VILLAGE",
    "contactEmail": "SUSIE@VVC.ORG",
    "categoryName": "INTERMEDIATE CARE FACILITY-DD/H/N/CN/IID",
    "categoryCode": "ICFDDH",
    "licenseStatus": "ACTIVE",
    "inService": true,
    "licenseNumber": "960000741",
    "licenseEffectiveDate": "02/28/2025",
    "licenseExpirationDate": "02/27/2026",
    "dataDate": "10/18/2025",
    "capacity": 6,
    "address": "8033 MATILIJA AVE",
    "city": "PANORAMA CITY",
    "zip": "91402",
    "county": "LOS ANGELES",
    "phone": "(818) 587-9450",
    "lat": 34.21719,
    "lng": -118.4331555
  },
  {
    "id": "630026268",
    "name": "VERONA HOME HEALTH CARE, INC.",
    "npi": null,
    "hcaiId": null,
    "businessName": "VERONA HOME HEALTH CARE, INC.",
    "contactEmail": "VERONAHOMEHEALTHCARE@GMAIL.COM",
    "categoryName": "HOME HEALTH AGENCY",
    "categoryCode": "HHA",
    "licenseStatus": "ACTIVE",
    "inService": true,
    "licenseNumber": "550009325",
    "licenseEffectiveDate": "08/14/2025",
    "licenseExpirationDate": "08/13/2026",
    "dataDate": "10/18/2025",
    "capacity": 0,
    "address": "9608 VAN NUYS BLVD, SUITE 208",
    "city": "PANORAMA CITY",
    "zip": "91402",
    "county": "LOS ANGELES",
    "phone": "(818) 891-8891",
    "lat": 34.244721,
    "lng": -118.4500305
  },
  {
    "id": "630019597",
    "name": "VERONA HOSPICE, INC",
    "npi": "1811547383",
    "hcaiId": "406192592",
    "businessName": "VERONA HOSPICE, INC.",
    "contactEmail": "VERONAHOSPICE@GMAIL.COM",
    "categoryName": "HOSPICE",
    "categoryCode": "HOSPICE",
    "licenseStatus": "ACTIVE",
    "inService": true,
    "licenseNumber": "550005348",
    "licenseEffectiveDate": "03/09/2024",
    "licenseExpirationDate": "03/08/2026",
    "dataDate": "10/18/2025",
    "capacity": 0,
    "address": "9608 VAN NUYS BLVD, SUITE 204A",
    "city": "PANORAMA CITY",
    "zip": "91402",
    "county": "LOS ANGELES",
    "phone": "(818) 830-8883",
    "lat": 34.244721,
    "lng": -118.4500305
  },
  {
    "id": "630025681",
    "name": "VIGILANCE HOME HEALTH SERVICES, INC.",
    "npi": null,
    "hcaiId": null,
    "businessName": "VIGILANCE HOME HEALTH SERVICES, INC.",
    "contactEmail": "VIGILANCEHH@GMAIL.COM",
    "categoryName": "HOME HEALTH AGENCY",
    "categoryCode": "HHA",
    "licenseStatus": "ACTIVE",
    "inService": true,
    "licenseNumber": "550009444",
    "licenseEffectiveDate": "09/09/2025",
    "licenseExpirationDate": "09/08/2026",
    "dataDate": "10/18/2025",
    "capacity": 0,
    "address": "9501 VAN NUYS BLVD, SUITE 108",
    "city": "PANORAMA CITY",
    "zip": "91402",
    "county": "LOS ANGELES",
    "phone": "(800) 610-9828",
    "lat": 34.24297398,
    "lng": -118.450837
  },
  {
    "id": "630020768",
    "name": "ZENITH HOSPICE",
    "npi": null,
    "hcaiId": "406196178",
    "businessName": "ZENITH HOSPICE",
    "contactEmail": "ZENITHHOSPICECARE@GMAIL.COM",
    "categoryName": "HOSPICE",
    "categoryCode": "HOSPICE",
    "licenseStatus": "ACTIVE",
    "inService": true,
    "licenseNumber": "550006345",
    "licenseEffectiveDate": "05/25/2025",
    "licenseExpirationDate": "05/24/2027",
    "dataDate": "10/18/2025",
    "capacity": 0,
    "address": "8215 VAN NUYS BLVD, SUITE 308",
    "city": "PANORAMA CITY",
    "zip": "91402",
    "county": "LOS ANGELES",
    "phone": "(424) 421-5494",
    "lat": 34.220367,
    "lng": -118.448964
  }
]