[
  {
    "id": "630014071",
    "name": "ADONAI CONGREGATE LIVING, INC.",
    "npi": null,
    "hcaiId": "206198051",
    "businessName": "ADONAI CONGREGATE LIVING, INC.",
    "contactEmail": "SMNA888@GMAIL.COM",
    "categoryName": "CONGREGATE LIVING HEALTH FACILITY",
    "categoryCode": "CLHF",
    "licenseStatus": "ACTIVE",
    "inService": true,
    "licenseNumber": "550002564",
    "licenseEffectiveDate": "01/21/2025",
    "licenseExpirationDate": "01/20/2026",
    "dataDate": "10/18/2025",
    "capacity": 6,
    "address": "17527 COVELLO ST",
    "city": "VAN NUYS",
    "zip": "91406",
    "county": "LOS ANGELES",
    "phone": "(818) 697-5755",
    "lat": 34.207776,
    "lng": -118.515231
  },
  {
    "id": "630026209",
    "name": "ADVANTAGE HOME HEALTH",
    "npi": null,
    "hcaiId": null,
    "businessName": "ADVANTAGE HOME HEALTH",
    "contactEmail": "4ADVANTAGEHH@GMAIL.COM",
    "categoryName": "HOME HEALTH AGENCY",
    "categoryCode": "HHA",
    "licenseStatus": "ACTIVE",
    "inService": true,
    "licenseNumber": "550009636",
    "licenseEffectiveDate": "08/13/2025",
    "licenseExpirationDate": "02/12/2026",
    "dataDate": "10/18/2025",
    "capacity": 0,
    "address": "15904 STRATHERN ST, SUITE 10",
    "city": "VAN NUYS",
    "zip": "91406",
    "county": "LOS ANGELES",
    "phone": "(800) 690-1518",
    "lat": 34.215588,
    "lng": -118.479744
  },
  {
    "id": "630016503",
    "name": "ADVOCATE HOME HEALTH",
    "npi": "1982079406",
    "hcaiId": "406190864",
    "businessName": "ADVOCATE HOME HEALTH",
    "contactEmail": "ADVOCATEHH@YAHOO.COM",
    "categoryName": "HOME HEALTH AGENCY",
    "categoryCode": "HHA",
    "licenseStatus": "ACTIVE",
    "inService": true,
    "licenseNumber": "550004228",
    "licenseEffectiveDate": "04/20/2024",
    "licenseExpirationDate": "04/19/2025",
    "dataDate": "10/18/2025",
    "capacity": 0,
    "address": "16102 HART STREET",
    "city": "VAN NUYS",
    "zip": "91406",
    "county": "LOS ANGELES",
    "phone": "(818) 212-5085",
    "lat": 34.1973,
    "lng": -118.48437
  },
  {
    "id": "630023465",
    "name": "AGE HOME HEALTH CARE",
    "npi": null,
    "hcaiId": "406190080",
    "businessName": "AGE HOME HEALTH CARE",
    "contactEmail": "AGEHOMEHEALTHCARE@YAHOO.COM",
    "categoryName": "HOME HEALTH AGENCY",
    "categoryCode": "HHA",
    "licenseStatus": "ACTIVE",
    "inService": true,
    "licenseNumber": "550008850",
    "licenseEffectiveDate": "12/15/2024",
    "licenseExpirationDate": "12/14/2025",
    "dataDate": "10/18/2025",
    "capacity": 0,
    "address": "16430 VANOWEN ST, SUITE 206",
    "city": "VAN NUYS",
    "zip": "91406",
    "county": "LOS ANGELES",
    "phone": "(747) 245-9822",
    "lat": 34.1937,
    "lng": -118.491372
  },
  {
    "id": "630021251",
    "name": "ALL STAR HOSPICE CARE, INC.",
    "npi": null,
    "hcaiId": "406195149",
    "businessName": "ALL STAR HOSPICE CARE, INC.",
    "contactEmail": "ALLSTARHCI710@GMAIL.COM",
    "categoryName": "HOSPICE",
    "categoryCode": "HOSPICE",
    "licenseStatus": "ACTIVE",
    "inService": true,
    "licenseNumber": "550007606",
    "licenseEffectiveDate": "12/22/2023",
    "licenseExpirationDate": "12/21/2025",
    "dataDate": "10/18/2025",
    "capacity": 0,
    "address": "7100 HAYVENHURST AVE, SUITE 320",
    "city": "VAN NUYS",
    "zip": "91406",
    "county": "LOS ANGELES",
    "phone": "(818) 855-1002",
    "lat": 34.199172,
    "lng": -118.492218
  },
  {
    "id": "630023999",
    "name": "AMERICAN HOME HEALTH PROVIDERS, INC.",
    "npi": null,
    "hcaiId": "406195604",
    "businessName": "AMERICAN HOME HEALTH PROVIDERS, INC.",
    "contactEmail": "AMERICANHHP@GMAIL.COM",
    "categoryName": "HOME HEALTH AGENCY",
    "categoryCode": "HHA",
    "licenseStatus": "ACTIVE",
    "inService": true,
    "licenseNumber": "550008158",
    "licenseEffectiveDate": "09/03/2025",
    "licenseExpirationDate": "09/02/2026",
    "dataDate": "10/18/2025",
    "capacity": 0,
    "address": "16501 SHERMAN WAY, SUITE 100",
    "city": "VAN NUYS",
    "zip": "91406",
    "county": "LOS ANGELES",
    "phone": "(747) 737-3141",
    "lat": 34.201377,
    "lng": -118.4926905
  },
  {
    "id": "630013955",
    "name": "AMERICARE HOME HEALTH, INC.",
    "npi": "1033460795",
    "hcaiId": "406197957",
    "businessName": "AMERICARE HOME HEALTH, INC.",
    "contactEmail": "AMERICAREHH@GMAIL.COM",
    "categoryName": "HOME HEALTH AGENCY",
    "categoryCode": "HHA",
    "licenseStatus": "ACTIVE",
    "inService": true,
    "licenseNumber": "550002445",
    "licenseEffectiveDate": "08/16/2025",
    "licenseExpirationDate": "08/15/2026",
    "dataDate": "10/18/2025",
    "capacity": 0,
    "address": "16501 SHERMAN WAY, SUITE 225",
    "city": "VAN NUYS",
    "zip": "91406",
    "county": "LOS ANGELES",
    "phone": "(818) 881-0005",
    "lat": 34.201557,
    "lng": -118.4927625
  },
  {
    "id": "630020389",
    "name": "AVE MARIA HOSPICE, INC.",
    "npi": null,
    "hcaiId": "406193432",
    "businessName": "AVE MARIA HOSPICE, INC.",
    "contactEmail": "AVEMARIAHOSPICE@GMAIL.COM",
    "categoryName": "HOSPICE",
    "categoryCode": "HOSPICE",
    "licenseStatus": "ACTIVE",
    "inService": true,
    "licenseNumber": "550006727",
    "licenseEffectiveDate": "06/23/2025",
    "licenseExpirationDate": "06/22/2027",
    "dataDate": "10/18/2025",
    "capacity": 0,
    "address": "16438 VANOWEN ST, SUITE 208",
    "city": "VAN NUYS",
    "zip": "91406",
    "county": "LOS ANGELES",
    "phone": "(747) 262-7272",
    "lat": 34.193556,
    "lng": -118.4913675
  },
  {
    "id": "630021937",
    "name": "BEGINNING LIFE HOSPICE INC",
    "npi": null,
    "hcaiId": "406193959",
    "businessName": "BEGINNING LIFE HOSPICE INC",
    "contactEmail": "BEGINLIFEHOSPICE@GMAIL.COM",
    "categoryName": "HOSPICE",
    "categoryCode": "HOSPICE",
    "licenseStatus": "ACTIVE",
    "inService": true,
    "licenseNumber": "550007212",
    "licenseEffectiveDate": "11/16/2023",
    "licenseExpirationDate": "11/15/2025",
    "dataDate": "10/18/2025",
    "capacity": 0,
    "address": "17620 SHERMAN WAY, SUITE 213",
    "city": "VAN NUYS",
    "zip": "91406",
    "county": "LOS ANGELES",
    "phone": "(818) 306-8266",
    "lat": 34.200918,
    "lng": -118.516995
  },
  {
    "id": "630025829",
    "name": "BLUE CROSS HOME HEALTH, INC.",
    "npi": null,
    "hcaiId": null,
    "businessName": "BLUE CROSS HOME HEALTH, INC.",
    "contactEmail": "BLUECROSSHH@GMAIL.COM",
    "categoryName": "HOME HEALTH AGENCY",
    "categoryCode": "HHA",
    "licenseStatus": "ACTIVE",
    "inService": true,
    "licenseNumber": "550009003",
    "licenseEffectiveDate": "03/03/2025",
    "licenseExpirationDate": "12/19/2025",
    "dataDate": "10/18/2025",
    "capacity": 0,
    "address": "16946 SHERMAN WAY, SUITE 201",
    "city": "VAN NUYS",
    "zip": "91406",
    "county": "LOS ANGELES",
    "phone": "(323) 443-6633",
    "lat": 34.20086309,
    "lng": -118.5029874
  },
  {
    "id": "630011360",
    "name": "BLUE SKY HOME HEALTH CARE, INC.",
    "npi": "1578780185",
    "hcaiId": "406191508",
    "businessName": "BLUE SKY HOME HEALTH CARE, INC.",
    "contactEmail": "BLUESKYHOMEHEALTH@ATT.NET",
    "categoryName": "HOME HEALTH AGENCY",
    "categoryCode": "HHA",
    "licenseStatus": "ACTIVE",
    "inService": true,
    "licenseNumber": "550000916",
    "licenseEffectiveDate": "03/18/2025",
    "licenseExpirationDate": "03/17/2026",
    "dataDate": "10/18/2025",
    "capacity": 0,
    "address": "16501 SHERMAN WAY, SUITE 210",
    "city": "VAN NUYS",
    "zip": "91406",
    "county": "LOS ANGELES",
    "phone": "(818) 773-8787",
    "lat": 34.201557,
    "lng": -118.4927625
  },
  {
    "id": "630027038",
    "name": "BRILLIANT CARE HOME HEALTH",
    "npi": null,
    "hcaiId": null,
    "businessName": "BRILLIANT CARE HOME HEALTH",
    "contactEmail": "BRILLIANTCAREHHC@GMAIL.COM",
    "categoryName": "HOME HEALTH AGENCY",
    "categoryCode": "HHA",
    "licenseStatus": "ACTIVE",
    "inService": true,
    "licenseNumber": "550009678",
    "licenseEffectiveDate": "08/28/2025",
    "licenseExpirationDate": "02/27/2026",
    "dataDate": "10/18/2025",
    "capacity": 0,
    "address": "16438 VANOWEN ST, SUITE 205",
    "city": "VAN NUYS",
    "zip": "91406",
    "county": "LOS ANGELES",
    "phone": "(818) 208-9415",
    "lat": 34.193556,
    "lng": -118.4913675
  },
  {
    "id": "630018490",
    "name": "CARE FIRST HOME HEALTH, INC.",
    "npi": null,
    "hcaiId": "406192437",
    "businessName": "CARE FIRST HOME HEALTH, INC.",
    "contactEmail": "CAREFIRST@MAIL.COM",
    "categoryName": "HOME HEALTH AGENCY",
    "categoryCode": "HHA",
    "licenseStatus": "ACTIVE",
    "inService": true,
    "licenseNumber": "550005329",
    "licenseEffectiveDate": "03/01/2025",
    "licenseExpirationDate": "02/28/2026",
    "dataDate": "10/18/2025",
    "capacity": 0,
    "address": "7120 HAYVENHURST AVE, SUITE 206",
    "city": "VAN NUYS",
    "zip": "91406",
    "county": "LOS ANGELES",
    "phone": "(818) 453-5730",
    "lat": 34.199703,
    "lng": -118.492209
  },
  {
    "id": "630027092",
    "name": "CLIO HOME HEALTH, INC.",
    "npi": null,
    "hcaiId": null,
    "businessName": "CLIO HOME HEALTH, INC.",
    "contactEmail": "CLIOHOMEHEALTH@GMAIL.COM",
    "categoryName": "HOME HEALTH AGENCY",
    "categoryCode": "HHA",
    "licenseStatus": "ACTIVE",
    "inService": true,
    "licenseNumber": "550009542",
    "licenseEffectiveDate": "05/20/2025",
    "licenseExpirationDate": "11/19/2025",
    "dataDate": "10/18/2025",
    "capacity": 0,
    "address": "15904 STRATHERN ST, SUITE 4",
    "city": "VAN NUYS",
    "zip": "91406",
    "county": "LOS ANGELES",
    "phone": "(818) 296-9333",
    "lat": 34.21549701,
    "lng": -118.479468
  },
  {
    "id": "630017931",
    "name": "COMFORT CARE HOME HEALTH",
    "npi": "1295229128",
    "hcaiId": "406192013",
    "businessName": "COMFORT CARE HOME HEALTH",
    "contactEmail": "COMFORTCAREHOMEHEALTH@YAHOO.COM",
    "categoryName": "HOME HEALTH AGENCY",
    "categoryCode": "HHA",
    "licenseStatus": "ACTIVE",
    "inService": true,
    "licenseNumber": "550004905",
    "licenseEffectiveDate": "08/31/2025",
    "licenseExpirationDate": "08/30/2026",
    "dataDate": "10/18/2025",
    "capacity": 0,
    "address": "7065 HAYVENHURST AVE, SUITE 7",
    "city": "LAKE BALBOA",
    "zip": "91406",
    "county": "LOS ANGELES",
    "phone": "(818) 415-8985",
    "lat": 34.199379,
    "lng": -118.4951012
  },
  {
    "id": "630026239",
    "name": "COMPLETE HEALTH CARE SERVICES",
    "npi": null,
    "hcaiId": null,
    "businessName": "COMPLETE HEALTH CARE SERVICES",
    "contactEmail": "4COMPLETEHC@GMAIL.COM",
    "categoryName": "HOME HEALTH AGENCY",
    "categoryCode": "HHA",
    "licenseStatus": "ACTIVE",
    "inService": true,
    "licenseNumber": "550009833",
    "licenseEffectiveDate": "08/12/2025",
    "licenseExpirationDate": "08/11/2026",
    "dataDate": "10/18/2025",
    "capacity": 0,
    "address": "15904 STRATHERN ST, SUITE 13",
    "city": "VAN NUYS",
    "zip": "91406",
    "county": "LOS ANGELES",
    "phone": "(800) 806-5141",
    "lat": 34.215588,
    "lng": -118.479744
  },
  {
    "id": "630023113",
    "name": "DESANTE HOME HEALTH,INC.",
    "npi": null,
    "hcaiId": "406195815",
    "businessName": "DESANTE HOME HEALTH, INC.",
    "contactEmail": "DESANTEHH@GMAIL.COM",
    "categoryName": "HOME HEALTH AGENCY",
    "categoryCode": "HHA",
    "licenseStatus": "ACTIVE",
    "inService": true,
    "licenseNumber": "550007848",
    "licenseEffectiveDate": "02/15/2025",
    "licenseExpirationDate": "02/14/2026",
    "dataDate": "10/18/2025",
    "capacity": 0,
    "address": "7136 HASKELL AVE, SUITE 201A",
    "city": "VAN NUYS",
    "zip": "91406",
    "county": "LOS ANGELES",
    "phone": "(800) 527-0118",
    "lat": 34.200207,
    "lng": -118.474749
  },
  {
    "id": "630021857",
    "name": "DIRECT CARE HOME HEALTH SERVICES, INC.",
    "npi": null,
    "hcaiId": "406195595",
    "businessName": "DIRECT CARE HOME HEALTH SERVICES, INC.",
    "contactEmail": "DIRECTCAREHOMEHEALTHSERVICES@GMAIL.COM",
    "categoryName": "HOME HEALTH AGENCY",
    "categoryCode": "HHA",
    "licenseStatus": "ACTIVE",
    "inService": true,
    "licenseNumber": "550007407",
    "licenseEffectiveDate": "12/09/2024",
    "licenseExpirationDate": "12/08/2025",
    "dataDate": "10/18/2025",
    "capacity": 0,
    "address": "17622 SHERMAN WAY",
    "city": "VAN NUYS",
    "zip": "91406",
    "county": "LOS ANGELES",
    "phone": "(818) 296-9037",
    "lat": 34.200918,
    "lng": -118.517184
  },
  {
    "id": "630026418",
    "name": "ELEVATE HOME HEALTH CARE",
    "npi": null,
    "hcaiId": null,
    "businessName": "ELEVATE HOME HEALTH CARE",
    "contactEmail": "ELEVATEHOMEHEALTHCARE@GMAIL.COM",
    "categoryName": "HOME HEALTH AGENCY",
    "categoryCode": "HHA",
    "licenseStatus": "ACTIVE",
    "inService": true,
    "licenseNumber": "550009254",
    "licenseEffectiveDate": "07/08/2025",
    "licenseExpirationDate": "07/07/2026",
    "dataDate": "10/18/2025",
    "capacity": 0,
    "address": "17620 SHERMAN WAY, SUITE 105",
    "city": "VAN NUYS",
    "zip": "91406",
    "county": "LOS ANGELES",
    "phone": "(747) 273-0011",
    "lat": 34.200918,
    "lng": -118.516995
  },
  {
    "id": "630027035",
    "name": "ELLEN NURSING HOME HEALTH SERVICES INC",
    "npi": null,
    "hcaiId": null,
    "businessName": "ELLEN NURSING HOME HEALTH SERVICES INC",
    "contactEmail": "ELLENNURSINGHH@YAHOO.COM",
    "categoryName": "HOME HEALTH AGENCY",
    "categoryCode": "HHA",
    "licenseStatus": "ACTIVE",
    "inService": true,
    "licenseNumber": "550009573",
    "licenseEffectiveDate": "06/13/2025",
    "licenseExpirationDate": "12/12/2025",
    "dataDate": "10/18/2025",
    "capacity": 0,
    "address": "17620 SHERMAN WAY, SUITE 211",
    "city": "VAN NUYS",
    "zip": "91406",
    "county": "LOS ANGELES",
    "phone": "(747) 946-7705",
    "lat": 34.200918,
    "lng": -118.516995
  },
  {
    "id": "630018626",
    "name": "EMPOWER HOME HEALTH CARE",
    "npi": null,
    "hcaiId": "406191980",
    "businessName": "EMPOWER HOME HEALTH CARE",
    "contactEmail": "JEREMY@EMPOWERHHC.COM",
    "categoryName": "HOME HEALTH AGENCY",
    "categoryCode": "HHA",
    "licenseStatus": "ACTIVE",
    "inService": true,
    "licenseNumber": "550004985",
    "licenseEffectiveDate": "10/11/2025",
    "licenseExpirationDate": "10/10/2026",
    "dataDate": "10/18/2025",
    "capacity": 0,
    "address": "7065 HAYVENHURST AVE, SUITE 9",
    "city": "VAN NUYS",
    "zip": "91406",
    "county": "LOS ANGELES",
    "phone": "(818) 616-1111",
    "lat": 34.19919,
    "lng": -118.49256
  },
  {
    "id": "630021313",
    "name": "EMPYREAN HOSPICE AND PALLIATIVE CARE INC",
    "npi": null,
    "hcaiId": "406193361",
    "businessName": "EMPYREAN HOSPICE AND PALLIATIVE CARE INC",
    "contactEmail": "EMPYREANHOSPICE@GMAIL.COM",
    "categoryName": "HOSPICE",
    "categoryCode": "HOSPICE",
    "licenseStatus": "ACTIVE",
    "inService": true,
    "licenseNumber": "550006968",
    "licenseEffectiveDate": "10/04/2023",
    "licenseExpirationDate": "10/03/2025",
    "dataDate": "10/18/2025",
    "capacity": 0,
    "address": "7120 HAYVENHURST AVE, SUITE 404",
    "city": "VAN NUYS",
    "zip": "91406",
    "county": "LOS ANGELES",
    "phone": "(818) 415-8985",
    "lat": 34.20001799,
    "lng": -118.492068
  },
  {
    "id": "630019213",
    "name": "EPIONE HOSPICE CARE, INC.",
    "npi": null,
    "hcaiId": "406192551",
    "businessName": "EPIONE HOSPICE CARE, INC",
    "contactEmail": "EPIONEHOSPICE@YAHOO.COM",
    "categoryName": "HOSPICE",
    "categoryCode": "HOSPICE",
    "licenseStatus": "ACTIVE",
    "inService": true,
    "licenseNumber": "550005350",
    "licenseEffectiveDate": "02/15/2024",
    "licenseExpirationDate": "02/14/2026",
    "dataDate": "10/18/2025",
    "capacity": 0,
    "address": "17620 SHERMAN WAY, SUITE 216",
    "city": "VAN NUYS",
    "zip": "91406",
    "county": "LOS ANGELES",
    "phone": "(818) 885-8474",
    "lat": 34.200918,
    "lng": -118.516995
  },
  {
    "id": "630026432",
    "name": "ETIQUETTE HOME HEALTH, INC.",
    "npi": null,
    "hcaiId": null,
    "businessName": "ETIQUETTE HOME HEALTH, INC.",
    "contactEmail": "ETIQUETTEHH@GMAIL.COM",
    "categoryName": "HOME HEALTH AGENCY",
    "categoryCode": "HHA",
    "licenseStatus": "ACTIVE",
    "inService": true,
    "licenseNumber": "550009368",
    "licenseEffectiveDate": "08/12/2025",
    "licenseExpirationDate": "08/11/2026",
    "dataDate": "10/18/2025",
    "capacity": 0,
    "address": "15904 STRATHERN ST, SUITE 21",
    "city": "VAN NUYS",
    "zip": "91406",
    "county": "LOS ANGELES",
    "phone": "(800) 299-1787",
    "lat": 34.215588,
    "lng": -118.479744
  },
  {
    "id": "630017966",
    "name": "EXPRESS HOME CARE",
    "npi": "1962908756",
    "hcaiId": "406191733",
    "businessName": "EXPRESS HOME CARE",
    "contactEmail": "EHC247@YAHOO.COM",
    "categoryName": "HOME HEALTH AGENCY",
    "categoryCode": "HHA",
    "licenseStatus": "ACTIVE",
    "inService": true,
    "licenseNumber": "550004511",
    "licenseEffectiveDate": "01/15/2025",
    "licenseExpirationDate": "01/14/2026",
    "dataDate": "10/18/2025",
    "capacity": 0,
    "address": "15643 SHERMAN WAY, SUITE 270",
    "city": "VAN NUYS",
    "zip": "91406",
    "county": "LOS ANGELES",
    "phone": "(661) 418-0111",
    "lat": 34.201278,
    "lng": -118.474179
  },
  {
    "id": "630019253",
    "name": "EZRA HOSPICE, INC.",
    "npi": null,
    "hcaiId": "406192730",
    "businessName": "EZRA HOSPICE, INC.",
    "contactEmail": "EZRAHOSPICE@GMAIL.COM",
    "categoryName": "HOSPICE",
    "categoryCode": "HOSPICE",
    "licenseStatus": "ACTIVE",
    "inService": true,
    "licenseNumber": "550005613",
    "licenseEffectiveDate": "07/22/2024",
    "licenseExpirationDate": "07/21/2026",
    "dataDate": "10/18/2025",
    "capacity": 0,
    "address": "16114 HART ST",
    "city": "VAN NUYS",
    "zip": "91406",
    "county": "LOS ANGELES",
    "phone": "(310) 349-9312",
    "lat": 34.1973,
    "lng": -118.48437
  },
  {
    "id": "630016713",
    "name": "FAMILY CARE HOME HEALTH AGENCY, INC.",
    "npi": "1558724436",
    "hcaiId": "406190641",
    "businessName": "FAMILY CARE HOME HEALTH AGENCY, INC.",
    "contactEmail": "FAMILYCAREHHA@GMAIL.COM",
    "categoryName": "HOME HEALTH AGENCY",
    "categoryCode": "HHA",
    "licenseStatus": "ACTIVE",
    "inService": true,
    "licenseNumber": "550004146",
    "licenseEffectiveDate": "02/07/2024",
    "licenseExpirationDate": "02/06/2025",
    "dataDate": "10/18/2025",
    "capacity": 0,
    "address": "15643 SHERMAN WAY, SUITE 210",
    "city": "VAN NUYS",
    "zip": "91406",
    "county": "LOS ANGELES",
    "phone": "(818) 855-1401",
    "lat": 34.201386,
    "lng": -118.474002
  },
  {
    "id": "630009821",
    "name": "FAMILY HEALTH SERVICES, INC.",
    "npi": null,
    "hcaiId": "406196914",
    "businessName": "FAMILY HEALTH SERVICES, INC.",
    "contactEmail": "FAMILY.HEALTHSERVICES@YAHOO.COM",
    "categoryName": "HOME HEALTH AGENCY",
    "categoryCode": "HHA",
    "licenseStatus": "ACTIVE",
    "inService": true,
    "licenseNumber": "550000379",
    "licenseEffectiveDate": "11/21/2024",
    "licenseExpirationDate": "11/20/2025",
    "dataDate": "10/18/2025",
    "capacity": 0,
    "address": "7136 HASKELL AVE, SUITE 108",
    "city": "VAN NUYS",
    "zip": "91406",
    "county": "LOS ANGELES",
    "phone": "(818) 780-1355",
    "lat": 34.200252,
    "lng": -118.4746455
  },
  {
    "id": "630027081",
    "name": "FELICE HOME HEALTH, INC.",
    "npi": null,
    "hcaiId": null,
    "businessName": "FELICE HOME HEALTH, INC.",
    "contactEmail": "FELICEHOMEHEALTH@GMAIL.COM",
    "categoryName": "HOME HEALTH AGENCY",
    "categoryCode": "HHA",
    "licenseStatus": "ACTIVE",
    "inService": true,
    "licenseNumber": "550009530",
    "licenseEffectiveDate": "05/11/2025",
    "licenseExpirationDate": "11/10/2025",
    "dataDate": "10/18/2025",
    "capacity": 0,
    "address": "15904 STRATHERN ST, SUITE 25",
    "city": "VAN NUYS",
    "zip": "91406",
    "county": "LOS ANGELES",
    "phone": "(818) 305-5626",
    "lat": 34.21549701,
    "lng": -118.479468
  },
  {
    "id": "630021196",
    "name": "FIRST RELIABLE",
    "npi": null,
    "hcaiId": "406193161",
    "businessName": "FIRST RELIABLE HOME CARE INC",
    "contactEmail": "1RELIABLEHOMECARE@GMAIL.COM",
    "categoryName": "HOME HEALTH AGENCY",
    "categoryCode": "HHA",
    "licenseStatus": "ACTIVE",
    "inService": true,
    "licenseNumber": "550006431",
    "licenseEffectiveDate": "06/21/2025",
    "licenseExpirationDate": "06/20/2026",
    "dataDate": "10/18/2025",
    "capacity": 0,
    "address": "16501 SHERMAN WAY, SUITE 105",
    "city": "VAN NUYS",
    "zip": "91406",
    "county": "LOS ANGELES",
    "phone": "(818) 849-6357",
    "lat": 34.201557,
    "lng": -118.4927625
  },
  {
    "id": "630022012",
    "name": "FIRST RELIABLE HOSPICE CARE, INC.",
    "npi": null,
    "hcaiId": "406195727",
    "businessName": "FIRST RELIABLE HOSPICE CARE, INC.",
    "contactEmail": "1RELIABLEHOSPICECARE@GMAIL.COM",
    "categoryName": "HOSPICE",
    "categoryCode": "HOSPICE",
    "licenseStatus": "ACTIVE",
    "inService": true,
    "licenseNumber": "550007698",
    "licenseEffectiveDate": "12/18/2023",
    "licenseExpirationDate": "12/17/2025",
    "dataDate": "10/18/2025",
    "capacity": 0,
    "address": "16501 SHERMAN WAY, SUITE 105A",
    "city": "VAN NUYS",
    "zip": "91406",
    "county": "LOS ANGELES",
    "phone": "(818) 453-5124",
    "lat": 34.201377,
    "lng": -118.4926905
  },
  {
    "id": "630018866",
    "name": "FIRSTMED HOME HEALTH",
    "npi": null,
    "hcaiId": "406192483",
    "businessName": "FIRSTMED HOME HEALTH",
    "contactEmail": "FIRSTMEDHHC@GMAIL.COM",
    "categoryName": "HOME HEALTH AGENCY",
    "categoryCode": "HHA",
    "licenseStatus": "ACTIVE",
    "inService": true,
    "licenseNumber": "550005278",
    "licenseEffectiveDate": "02/13/2025",
    "licenseExpirationDate": "02/12/2026",
    "dataDate": "10/18/2025",
    "capacity": 0,
    "address": "17620 SHERMAN WAY, SUITE 209",
    "city": "VAN NUYS",
    "zip": "91406",
    "county": "LOS ANGELES",
    "phone": "(818) 293-9429",
    "lat": 34.200918,
    "lng": -118.516995
  },
  {
    "id": "630021960",
    "name": "FLAGSTAFF HOSPICE CARE, INC.",
    "npi": null,
    "hcaiId": "406193315",
    "businessName": "FLAGSTAFF HOSPICE CARE, INC.",
    "contactEmail": "HOSPICE.FLAGSTAFF@YAHOO.COM",
    "categoryName": "HOSPICE",
    "categoryCode": "HOSPICE",
    "licenseStatus": "ACTIVE",
    "inService": true,
    "licenseNumber": "550007120",
    "licenseEffectiveDate": "11/03/2023",
    "licenseExpirationDate": "11/02/2025",
    "dataDate": "10/18/2025",
    "capacity": 0,
    "address": "16955 SHERMAN WAY, UNIT B",
    "city": "VAN NUYS",
    "zip": "91406",
    "county": "LOS ANGELES",
    "phone": "(747) 400-2466",
    "lat": 34.201368,
    "lng": -118.502955
  },
  {
    "id": "630026193",
    "name": "FREEDOM HOME HEALTH CARE",
    "npi": null,
    "hcaiId": null,
    "businessName": "FREEDOM HOME HEALTH CARE",
    "contactEmail": "4FREEDOMHHC@GMAIL.COM",
    "categoryName": "HOME HEALTH AGENCY",
    "categoryCode": "HHA",
    "licenseStatus": "ACTIVE",
    "inService": true,
    "licenseNumber": "550009243",
    "licenseEffectiveDate": "07/08/2025",
    "licenseExpirationDate": "07/07/2026",
    "dataDate": "10/18/2025",
    "capacity": 0,
    "address": "17620 SHERMAN WAY, SUITE 103",
    "city": "VAN NUYS",
    "zip": "91406",
    "county": "LOS ANGELES",
    "phone": "(818) 446-7515",
    "lat": 34.200918,
    "lng": -118.516995
  },
  {
    "id": "630026027",
    "name": "G AND K HOME CARE INC.",
    "npi": null,
    "hcaiId": null,
    "businessName": "G AND K HOME CARE INC.",
    "contactEmail": "GKHOME1234@GMAIL.COM",
    "categoryName": "HOME HEALTH AGENCY",
    "categoryCode": "HHA",
    "licenseStatus": "ACTIVE",
    "inService": true,
    "licenseNumber": "550009238",
    "licenseEffectiveDate": "07/12/2025",
    "licenseExpirationDate": "07/11/2026",
    "dataDate": "10/18/2025",
    "capacity": 0,
    "address": "16430 VANOWEN ST, UNIT 204",
    "city": "LAKE BALBOA",
    "zip": "91406",
    "county": "LOS ANGELES",
    "phone": "(424) 354-9575",
    "lat": 34.19351501,
    "lng": -118.491429
  },
  {
    "id": "060002232",
    "name": "GRAND ADULT DAY HEALTH CARE CENTER",
    "npi": null,
    "hcaiId": null,
    "businessName": "GRAND ADULT DAY HEALTH CARE INC.",
    "contactEmail": "GRANDADHC@YAHOO.COM",
    "categoryName": "ADULT DAY HEALTH CARE",
    "categoryCode": "ADHC",
    "licenseStatus": "ACTIVE",
    "inService": true,
    "licenseNumber": "060000914",
    "licenseEffectiveDate": "03/02/2025",
    "licenseExpirationDate": "03/01/2026",
    "dataDate": "10/18/2025",
    "capacity": 0,
    "address": "6752 WHITE OAK AVE",
    "city": "VAN NUYS",
    "zip": "91406",
    "county": "LOS ANGELES",
    "phone": "(818) 344-3456",
    "lat": 34.193484,
    "lng": -118.518372
  },
  {
    "id": "630015468",
    "name": "GRIGMAR HOSPICE AND PALLIATIVE CARE, INC.",
    "npi": "1811302664",
    "hcaiId": "406198106",
    "businessName": "GRIGMAR HOSPICE AND PALLIATIVE CARE, INC.",
    "contactEmail": "GRIGMAR_HOSPICE@YAHOO.COM",
    "categoryName": "HOSPICE",
    "categoryCode": "HOSPICE",
    "licenseStatus": "ACTIVE",
    "inService": false,
    "licenseNumber": "550003240",
    "licenseEffectiveDate": "09/09/2019",
    "licenseExpirationDate": "09/08/2021",
    "dataDate": "10/18/2025",
    "capacity": 0,
    "address": "7141 VALJEAN AVE, SUITE 200",
    "city": "VAN NUYS",
    "zip": "91406",
    "county": "LOS ANGELES",
    "phone": "(818) 779-0565",
    "lat": 34.200468,
    "lng": -118.486197
  },
  {
    "id": "630021444",
    "name": "HART HOME HEALTH",
    "npi": null,
    "hcaiId": "406196246",
    "businessName": "HART HOME HEALTH",
    "contactEmail": "HARTHOMEHEALTH@GMAIL.COM",
    "categoryName": "HOME HEALTH AGENCY",
    "categoryCode": "HHA",
    "licenseStatus": "ACTIVE",
    "inService": true,
    "licenseNumber": "550007837",
    "licenseEffectiveDate": "02/11/2022",
    "licenseExpirationDate": "02/10/2023",
    "dataDate": "10/18/2025",
    "capacity": 0,
    "address": "16106B HART ST",
    "city": "VAN NUYS",
    "zip": "91406",
    "county": "LOS ANGELES",
    "phone": "(818) 802-2700",
    "lat": 34.1973164,
    "lng": -118.4864181
  },
  {
    "id": "630021459",
    "name": "HART HOSPICE",
    "npi": null,
    "hcaiId": "406194672",
    "businessName": "HART HOSPICE",
    "contactEmail": "HARTHOSPICE@GMAIL.COM",
    "categoryName": "HOSPICE",
    "categoryCode": "HOSPICE",
    "licenseStatus": "ACTIVE",
    "inService": true,
    "licenseNumber": "550007605",
    "licenseEffectiveDate": "12/16/2023",
    "licenseExpirationDate": "12/15/2025",
    "dataDate": "10/18/2025",
    "capacity": 0,
    "address": "16106C HART ST",
    "city": "VAN NUYS",
    "zip": "91406",
    "county": "LOS ANGELES",
    "phone": "(818) 802-2700",
    "lat": 34.19744471,
    "lng": -118.4839349
  },
  {
    "id": "630011427",
    "name": "HEALTHY LIFE HOME HEALTH CARE",
    "npi": "1336343136",
    "hcaiId": "406197342",
    "businessName": "HEALTHY LIFE HOME HEALTH CARE",
    "contactEmail": "HEALTHYLIFEHHC@SBCGLOBAL.NET",
    "categoryName": "HOME HEALTH AGENCY",
    "categoryCode": "HHA",
    "licenseStatus": "ACTIVE",
    "inService": true,
    "licenseNumber": "550000923",
    "licenseEffectiveDate": "03/23/2023",
    "licenseExpirationDate": "03/22/2024",
    "dataDate": "10/18/2025",
    "capacity": 0,
    "address": "7136 HASKELL AVE, SUITE 210",
    "city": "VAN NUYS",
    "zip": "91406",
    "county": "LOS ANGELES",
    "phone": "(818) 994-0182",
    "lat": 34.200252,
    "lng": -118.4746455
  },
  {
    "id": "630018711",
    "name": "HVH HOME HEALTH, INC.",
    "npi": null,
    "hcaiId": "406192438",
    "businessName": "HVH HOME HEALTH, INC.",
    "contactEmail": "HVHHOMEHEALTH@GMAIL.COM",
    "categoryName": "HOME HEALTH AGENCY",
    "categoryCode": "HHA",
    "licenseStatus": "ACTIVE",
    "inService": true,
    "licenseNumber": "550005331",
    "licenseEffectiveDate": "10/06/2025",
    "licenseExpirationDate": "03/05/2026",
    "dataDate": "10/18/2025",
    "capacity": 0,
    "address": "7100 HAYVENHURST AVE, SUITE 325",
    "city": "VAN NUYS",
    "zip": "91406",
    "county": "LOS ANGELES",
    "phone": "(818) 616-6011",
    "lat": 34.199064,
    "lng": -118.492065
  },
  {
    "id": "630016049",
    "name": "ICARE HOME HEALTH SERVICES, INC.",
    "npi": "1538547328",
    "hcaiId": "406190887",
    "businessName": "ICARE HOME HEALTH SERVICES, INC.",
    "contactEmail": "ICAREHOMEHEALTHINC@GMAIL.COM",
    "categoryName": "HOME HEALTH AGENCY",
    "categoryCode": "HHA",
    "licenseStatus": "ACTIVE",
    "inService": true,
    "licenseNumber": "550004056",
    "licenseEffectiveDate": "11/01/2024",
    "licenseExpirationDate": "10/31/2025",
    "dataDate": "10/18/2025",
    "capacity": 0,
    "address": "17620 SHERMAN WAY, SUITE 103",
    "city": "VAN NUYS",
    "zip": "91406",
    "county": "LOS ANGELES",
    "phone": "(818) 787-1548",
    "lat": 34.200918,
    "lng": -118.516995
  },
  {
    "id": "630018560",
    "name": "LA GLOBAL HOME HEALTH CARE, INC.",
    "npi": null,
    "hcaiId": "406192459",
    "businessName": "LA GLOBAL HOME HEALTH CARE, INC.",
    "contactEmail": "LAGLOBALHOMEHEALTH@GMAIL.COM",
    "categoryName": "HOME HEALTH AGENCY",
    "categoryCode": "HHA",
    "licenseStatus": "ACTIVE",
    "inService": true,
    "licenseNumber": "550005268",
    "licenseEffectiveDate": "01/30/2024",
    "licenseExpirationDate": "01/29/2025",
    "dataDate": "10/18/2025",
    "capacity": 0,
    "address": "7100 HAYVENHURST AVE, SUITE 113",
    "city": "VAN NUYS",
    "zip": "91406",
    "county": "LOS ANGELES",
    "phone": "(818) 922-2399",
    "lat": 34.199172,
    "lng": -118.492218
  },
  {
    "id": "630026416",
    "name": "LA MEMORIAL HOME HEALTH CARE",
    "npi": null,
    "hcaiId": null,
    "businessName": "LA MEMORIAL HOME HEALTH CARE",
    "contactEmail": "LAMEMORIALHHC@GMAIL.COM",
    "categoryName": "HOME HEALTH AGENCY",
    "categoryCode": "HHA",
    "licenseStatus": "ACTIVE",
    "inService": true,
    "licenseNumber": "550009277",
    "licenseEffectiveDate": "07/08/2025",
    "licenseExpirationDate": "07/07/2026",
    "dataDate": "10/18/2025",
    "capacity": 0,
    "address": "17620 SHERMAN WAY, SUITE 105A",
    "city": "VAN NUYS",
    "zip": "91406",
    "county": "LOS ANGELES",
    "phone": "(800) 551-9161",
    "lat": 34.200918,
    "lng": -118.516995
  },
  {
    "id": "630026440",
    "name": "LA'S FINEST HOME HEALTH, INC.",
    "npi": null,
    "hcaiId": null,
    "businessName": "LA'S FINEST HOME HEALTH, INC.",
    "contactEmail": "LAFINESTHH@GMAIL.COM",
    "categoryName": "HOME HEALTH AGENCY",
    "categoryCode": "HHA",
    "licenseStatus": "ACTIVE",
    "inService": true,
    "licenseNumber": "550009193",
    "licenseEffectiveDate": "06/07/2025",
    "licenseExpirationDate": "06/06/2026",
    "dataDate": "10/18/2025",
    "capacity": 0,
    "address": "16946 SHERMAN WAY, SUITE 200",
    "city": "VAN NUYS",
    "zip": "91406",
    "county": "LOS ANGELES",
    "phone": "(323) 443-6633",
    "lat": 34.20086309,
    "lng": -118.5029874
  },
  {
    "id": "920000059",
    "name": "LAKE BALBOA CARE CENTER",
    "npi": "1730892357",
    "hcaiId": "206190051",
    "businessName": "NIGHTFALL HEALTHCARE, INC.",
    "contactEmail": "CBARRON@ENSIGNSERVICES.NET",
    "categoryName": "SKILLED NURSING FACILITY",
    "categoryCode": "SNF",
    "licenseStatus": "ACTIVE",
    "inService": true,
    "licenseNumber": "920000005",
    "licenseEffectiveDate": "02/03/2025",
    "licenseExpirationDate": "02/02/2026",
    "dataDate": "10/18/2025",
    "capacity": 50,
    "address": "16955 VANOWEN ST",
    "city": "VAN NUYS",
    "zip": "91406",
    "county": "LOS ANGELES",
    "phone": "(818) 343-0700",
    "lat": 34.19394012,
    "lng": -118.5030551
  },
  {
    "id": "630014302",
    "name": "LEADWELL CARE HOME",
    "npi": "1356747059",
    "hcaiId": null,
    "businessName": "LEADWELL CARE HOME, INC.",
    "contactEmail": "LOVELY_ONG08@YAHOO.COM",
    "categoryName": "INTERMEDIATE CARE FACILITY-DD/H/N/CN/IID",
    "categoryCode": "ICFDDH",
    "licenseStatus": "ACTIVE",
    "inService": true,
    "licenseNumber": "550002447",
    "licenseEffectiveDate": "10/04/2025",
    "licenseExpirationDate": "10/03/2026",
    "dataDate": "10/18/2025",
    "capacity": 6,
    "address": "17256 LEADWELL ST",
    "city": "VAN NUYS",
    "zip": "91406",
    "county": "LOS ANGELES",
    "phone": "(818) 625-8874",
    "lat": 34.203699,
    "lng": -118.5096105
  },
  {
    "id": "630020519",
    "name": "LIFE RENEWAL HOSPICE CARE, INC.",
    "npi": null,
    "hcaiId": "406190224",
    "businessName": "LIFE RENEWAL HOSPICE CARE, INC.",
    "contactEmail": "LIFERENEWALHOSPICE@GMAIL.COM",
    "categoryName": "HOSPICE",
    "categoryCode": "HOSPICE",
    "licenseStatus": "ACTIVE",
    "inService": true,
    "licenseNumber": "550006083",
    "licenseEffectiveDate": "02/19/2023",
    "licenseExpirationDate": "02/18/2025",
    "dataDate": "10/18/2025",
    "capacity": 0,
    "address": "16442 VANOWEN ST, SUITE C",
    "city": "LAKE BALBOA",
    "zip": "91406",
    "county": "LOS ANGELES",
    "phone": "(323) 909-5655",
    "lat": 34.193565,
    "lng": -118.491714
  },
  {
    "id": "630024777",
    "name": "LUCKY HOME HEALTH CARE",
    "npi": null,
    "hcaiId": "406196561",
    "businessName": "LUCKY HOME HEALTH CARE",
    "contactEmail": "LUCKYHOMEHEALTHCARE9@GMAIL.COM",
    "categoryName": "HOME HEALTH AGENCY",
    "categoryCode": "HHA",
    "licenseStatus": "ACTIVE",
    "inService": true,
    "licenseNumber": "550008293",
    "licenseEffectiveDate": "10/07/2025",
    "licenseExpirationDate": "12/21/2025",
    "dataDate": "10/18/2025",
    "capacity": 0,
    "address": "17620 SHERMAN WAY, SUITE 207",
    "city": "VAN NUYS",
    "zip": "91406",
    "county": "LOS ANGELES",
    "phone": "(818) 237-3917",
    "lat": 34.200792,
    "lng": -118.517094
  },
  {
    "id": "630014538",
    "name": "MAKA HOSPICE, INC.",
    "npi": "1619301553",
    "hcaiId": "406198007",
    "businessName": "MAKA HOSPICE, INC.",
    "contactEmail": "MAKAHOSPICE@YAHOO.COM",
    "categoryName": "HOSPICE",
    "categoryCode": "HOSPICE",
    "licenseStatus": "ACTIVE",
    "inService": true,
    "licenseNumber": "550002793",
    "licenseEffectiveDate": "08/05/2024",
    "licenseExpirationDate": "08/04/2026",
    "dataDate": "10/18/2025",
    "capacity": 0,
    "address": "7120 HAYVENHURST AVE, SUITE 112",
    "city": "VAN NUYS",
    "zip": "91406",
    "county": "LOS ANGELES",
    "phone": "(818) 786-0035",
    "lat": 34.200018,
    "lng": -118.4920515
  },
  {
    "id": "630021647",
    "name": "MD HOME HEALTH CARE SERVICES INC",
    "npi": null,
    "hcaiId": "406205586",
    "businessName": "MD HOME HEALTH CARE SERVICES INC",
    "contactEmail": "MDCAREINC@GMAIL.COM",
    "categoryName": "HOME HEALTH AGENCY",
    "categoryCode": "HHA",
    "licenseStatus": "ACTIVE",
    "inService": true,
    "licenseNumber": "550007792",
    "licenseEffectiveDate": "01/17/2025",
    "licenseExpirationDate": "01/16/2026",
    "dataDate": "10/18/2025",
    "capacity": 0,
    "address": "6747 ODESSA AVE, SUITE 201",
    "city": "VAN NUYS",
    "zip": "91406",
    "county": "LOS ANGELES",
    "phone": "(747) 444-4171",
    "lat": 34.193214,
    "lng": -118.490391
  },
  {
    "id": "630022230",
    "name": "MEDICUS COMMUNITY HOME HEALTH",
    "npi": null,
    "hcaiId": "406195459",
    "businessName": "MEDICUS COMMUNITY HOME HEALTH",
    "contactEmail": "MEDICUSHOMEHEALTH@GMAIL.COM",
    "categoryName": "HOME HEALTH AGENCY",
    "categoryCode": "HHA",
    "licenseStatus": "ACTIVE",
    "inService": true,
    "licenseNumber": "550008079",
    "licenseEffectiveDate": "06/18/2025",
    "licenseExpirationDate": "06/17/2026",
    "dataDate": "10/18/2025",
    "capacity": 0,
    "address": "16555A GAULT ST",
    "city": "VAN NUYS",
    "zip": "91406",
    "county": "LOS ANGELES",
    "phone": "(818) 522-1716",
    "lat": 34.19941212,
    "lng": -118.4940926
  },
  {
    "id": "630018447",
    "name": "MILLENNIUM HEALTH CORP",
    "npi": "1407322571",
    "hcaiId": "406191731",
    "businessName": "MILLENNIUM HEALTH CORP",
    "contactEmail": "MILLENNIUMHEALTHCORP@YAHOO.COM",
    "categoryName": "HOME HEALTH AGENCY",
    "categoryCode": "HHA",
    "licenseStatus": "ACTIVE",
    "inService": true,
    "licenseNumber": "550004773",
    "licenseEffectiveDate": "06/14/2025",
    "licenseExpirationDate": "06/13/2026",
    "dataDate": "10/18/2025",
    "capacity": 0,
    "address": "16935 VANOWEN ST, SUITE D",
    "city": "VAN NUYS",
    "zip": "91406",
    "county": "LOS ANGELES",
    "phone": "(818) 337-7777",
    "lat": 34.194033,
    "lng": -118.502469
  },
  {
    "id": "630026547",
    "name": "MODERN DAY HOME HEALTH CARE INC.",
    "npi": null,
    "hcaiId": null,
    "businessName": "MODERN DAY HOME HEALTH CARE INC.",
    "contactEmail": "MODERNDAYHOMEHEALTH@GMAIL.COM",
    "categoryName": "HOME HEALTH AGENCY",
    "categoryCode": "HHA",
    "licenseStatus": "ACTIVE",
    "inService": true,
    "licenseNumber": "550009081",
    "licenseEffectiveDate": "04/24/2025",
    "licenseExpirationDate": "04/23/2026",
    "dataDate": "10/18/2025",
    "capacity": 0,
    "address": "7120 HAYVENHURST AVE, SUITE 207",
    "city": "VAN NUYS",
    "zip": "91406",
    "county": "LOS ANGELES",
    "phone": "(818) 922-2157",
    "lat": 34.199703,
    "lng": -118.492209
  },
  {
    "id": "630021156",
    "name": "MS HOSPICE & PALLIATIVE CARE, INC.",
    "npi": null,
    "hcaiId": "406193285",
    "businessName": "MS HOSPICE & PALLIATIVE CARE, INC.",
    "contactEmail": "CONTACT@MSHOSPICE.ORG",
    "categoryName": "HOSPICE",
    "categoryCode": "HOSPICE",
    "licenseStatus": "ACTIVE",
    "inService": true,
    "licenseNumber": "550007113",
    "licenseEffectiveDate": "09/20/2025",
    "licenseExpirationDate": "09/19/2027",
    "dataDate": "10/18/2025",
    "capacity": 0,
    "address": "16555 SHERMAN WAY, SUITE B-2",
    "city": "VAN NUYS",
    "zip": "91406",
    "county": "LOS ANGELES",
    "phone": "(747) 322-0126",
    "lat": 34.20128529,
    "lng": -118.4939992
  },
  {
    "id": "630026934",
    "name": "NATIONAL HOME HEALTH CARE SERVICES, INC",
    "npi": null,
    "hcaiId": null,
    "businessName": "NATIONAL HOME HEALTH CARE SERVICES, INC",
    "contactEmail": null,
    "categoryName": "HOME HEALTH AGENCY",
    "categoryCode": "HHA",
    "licenseStatus": "ACTIVE",
    "inService": true,
    "licenseNumber": "550009803",
    "licenseEffectiveDate": "11/14/2025",
    "licenseExpirationDate": "05/13/2026",
    "dataDate": "10/18/2025",
    "capacity": 0,
    "address": "15904 STRATHERN ST, SUITE 9",
    "city": "VAN NUYS",
    "zip": "91406",
    "county": "LOS ANGELES",
    "phone": "(424) 566-7656",
    "lat": 34.215588,
    "lng": -118.479744
  },
  {
    "id": "630020622",
    "name": "NEELIMA HOME HEALTH, INC.",
    "npi": null,
    "hcaiId": "406195621",
    "businessName": "NEELIMA HOME HEALTH, INC.",
    "contactEmail": "NEELIMAHHC1@GMAIL.COM",
    "categoryName": "HOME HEALTH AGENCY",
    "categoryCode": "HHA",
    "licenseStatus": "ACTIVE",
    "inService": true,
    "licenseNumber": "550006039",
    "licenseEffectiveDate": "02/03/2025",
    "licenseExpirationDate": "02/02/2026",
    "dataDate": "10/18/2025",
    "capacity": 0,
    "address": "17620 SHERMAN WAY, SUITE 102",
    "city": "VAN NUYS",
    "zip": "91406",
    "county": "LOS ANGELES",
    "phone": "(818) 305-4164",
    "lat": 34.200918,
    "lng": -118.516995
  },
  {
    "id": "630018644",
    "name": "NEW DREAM MANAGEMENT HEALTH CARE, INC.",
    "npi": "1215494182",
    "hcaiId": "406192462",
    "businessName": "NEW DREAM MANAGEMENT HEALTH CARE, INC.",
    "contactEmail": "NEWDREAM0101@GMAIL.COM",
    "categoryName": "HOME HEALTH AGENCY",
    "categoryCode": "HHA",
    "licenseStatus": "ACTIVE",
    "inService": true,
    "licenseNumber": "550005461",
    "licenseEffectiveDate": "05/04/2025",
    "licenseExpirationDate": "05/03/2026",
    "dataDate": "10/18/2025",
    "capacity": 0,
    "address": "15643 SHERMAN WAY, SUITE 330",
    "city": "VAN NUYS",
    "zip": "91406",
    "county": "LOS ANGELES",
    "phone": "(818) 646-1270",
    "lat": 34.201386,
    "lng": -118.474002
  },
  {
    "id": "060001795",
    "name": "ONEGENERATION ADULT DAY HEALTHCARE PROGRAM",
    "npi": null,
    "hcaiId": null,
    "businessName": "ONEGENERATION",
    "contactEmail": "APLYUGINA@ONEGENERATION.ORG",
    "categoryName": "ADULT DAY HEALTH CARE",
    "categoryCode": "ADHC",
    "licenseStatus": "ACTIVE",
    "inService": true,
    "licenseNumber": "060000612",
    "licenseEffectiveDate": "11/06/2024",
    "licenseExpirationDate": "11/05/2025",
    "dataDate": "10/18/2025",
    "capacity": 0,
    "address": "17400 VICTORY BLVD",
    "city": "VAN NUYS",
    "zip": "91406",
    "county": "LOS ANGELES",
    "phone": "(818) 708-6635",
    "lat": 34.18653098,
    "lng": -118.5120711
  },
  {
    "id": "630018516",
    "name": "PINK CROSS HOME HEALTH INC.",
    "npi": "1184196263",
    "hcaiId": "406191900",
    "businessName": "PINK CROSS HOME HEALTH INC.",
    "contactEmail": "PINKCROSSHOME@GMAIL.COM",
    "categoryName": "HOME HEALTH AGENCY",
    "categoryCode": "HHA",
    "licenseStatus": "ACTIVE",
    "inService": true,
    "licenseNumber": "550004960",
    "licenseEffectiveDate": "09/19/2025",
    "licenseExpirationDate": "09/18/2026",
    "dataDate": "10/18/2025",
    "capacity": 0,
    "address": "7250 VALJEAN AVE",
    "city": "VAN NUYS",
    "zip": "91406",
    "county": "LOS ANGELES",
    "phone": "(626) 331-0708",
    "lat": 34.202682,
    "lng": -118.4857515
  },
  {
    "id": "630020674",
    "name": "PRN HOSPICE",
    "npi": "1861002735",
    "hcaiId": "406193834",
    "businessName": "DM CARE HOSPICE",
    "contactEmail": "DMCAREHOSPICE@YAHOO.COM",
    "categoryName": "HOSPICE",
    "categoryCode": "HOSPICE",
    "licenseStatus": "ACTIVE",
    "inService": true,
    "licenseNumber": "550005997",
    "licenseEffectiveDate": "02/05/2023",
    "licenseExpirationDate": "02/04/2025",
    "dataDate": "10/18/2025",
    "capacity": 0,
    "address": "7100 HAYVENHURST AVE, UNIT 309",
    "city": "VAN NUYS",
    "zip": "91406",
    "county": "LOS ANGELES",
    "phone": "(818) 946-8242",
    "lat": 34.199172,
    "lng": -118.492218
  },
  {
    "id": "630025479",
    "name": "PROMED HOME HEALTH SERVICES, INC.",
    "npi": null,
    "hcaiId": null,
    "businessName": "PROMED HOME HEALTH SERVICES, INC.",
    "contactEmail": "PROMEDHHS@GMAIL.COM",
    "categoryName": "HOME HEALTH AGENCY",
    "categoryCode": "HHA",
    "licenseStatus": "ACTIVE",
    "inService": true,
    "licenseNumber": "550009653",
    "licenseEffectiveDate": "08/20/2025",
    "licenseExpirationDate": "02/19/2026",
    "dataDate": "10/18/2025",
    "capacity": 0,
    "address": "17620 SHERMAN WAY, SUITE 203",
    "city": "VAN NUYS",
    "zip": "91406",
    "county": "LOS ANGELES",
    "phone": "(818) 268-6517",
    "lat": 34.200918,
    "lng": -118.516995
  },
  {
    "id": "630026229",
    "name": "PROSPERITY HOME HEALTH",
    "npi": null,
    "hcaiId": null,
    "businessName": "PROSPERITY HOME HEALTH",
    "contactEmail": "4PROSPERITYHH@GMAIL.COM",
    "categoryName": "HOME HEALTH AGENCY",
    "categoryCode": "HHA",
    "licenseStatus": "ACTIVE",
    "inService": true,
    "licenseNumber": "550009204",
    "licenseEffectiveDate": "06/17/2025",
    "licenseExpirationDate": "06/16/2026",
    "dataDate": "10/18/2025",
    "capacity": 0,
    "address": "15904 STRATHERN ST, SUITE 15",
    "city": "VAN NUYS",
    "zip": "91406",
    "county": "LOS ANGELES",
    "phone": "(747) 477-4577",
    "lat": 34.215588,
    "lng": -118.479744
  },
  {
    "id": "630020558",
    "name": "PROVISION HOME HEALTH CARE INC",
    "npi": "1548878317",
    "hcaiId": "406194829",
    "businessName": "PROVISION HOME HEALTH CARE INC",
    "contactEmail": "INFO@PROVISIONHOMEHEALTHCAREINC.COM",
    "categoryName": "HOME HEALTH AGENCY",
    "categoryCode": "HHA",
    "licenseStatus": "ACTIVE",
    "inService": true,
    "licenseNumber": "550006123",
    "licenseEffectiveDate": "02/15/2025",
    "licenseExpirationDate": "02/14/2026",
    "dataDate": "10/18/2025",
    "capacity": 0,
    "address": "16600 SHERMAN WAY, SUITE 205",
    "city": "VAN NUYS",
    "zip": "91406",
    "county": "LOS ANGELES",
    "phone": "(747) 230-4406",
    "lat": 34.20074,
    "lng": -118.495147
  },
  {
    "id": "630026426",
    "name": "R&R HOME HEALTH, INC.",
    "npi": null,
    "hcaiId": null,
    "businessName": "R&R HOME HEALTH, INC.",
    "contactEmail": "RRHOMEHEALTHINC@GMAIL.COM",
    "categoryName": "HOME HEALTH AGENCY",
    "categoryCode": "HHA",
    "licenseStatus": "ACTIVE",
    "inService": true,
    "licenseNumber": "550009522",
    "licenseEffectiveDate": "10/07/2025",
    "licenseExpirationDate": "10/06/2026",
    "dataDate": "10/18/2025",
    "capacity": 0,
    "address": "15904 STRATHERN ST, SUITE 8",
    "city": "VAN NUYS",
    "zip": "91406",
    "county": "LOS ANGELES",
    "phone": "(877) 406-9727",
    "lat": 34.215588,
    "lng": -118.479744
  },
  {
    "id": "630019146",
    "name": "REST ASSURED HOSPICE, INC",
    "npi": "1811538010",
    "hcaiId": "406192717",
    "businessName": "REST ASSURED HOSPICE, INC",
    "contactEmail": "RESTASSUREDHOSPICEINC@GMAIL.COM",
    "categoryName": "HOSPICE",
    "categoryCode": "HOSPICE",
    "licenseStatus": "ACTIVE",
    "inService": true,
    "licenseNumber": "550005575",
    "licenseEffectiveDate": "11/20/2024",
    "licenseExpirationDate": "07/02/2026",
    "dataDate": "10/18/2025",
    "capacity": 0,
    "address": "16102B HART ST",
    "city": "VAN NUYS",
    "zip": "91406",
    "county": "LOS ANGELES",
    "phone": "(818) 655-0272",
    "lat": 34.19734299,
    "lng": -118.484299
  },
  {
    "id": "630023389",
    "name": "ROI HOME HEALTH CARE INC.",
    "npi": null,
    "hcaiId": "406195462",
    "businessName": "ROI HOME HEALTH CARE INC.",
    "contactEmail": "ROIHOMEHEALTH@GMAIL.COM",
    "categoryName": "HOME HEALTH AGENCY",
    "categoryCode": "HHA",
    "licenseStatus": "ACTIVE",
    "inService": true,
    "licenseNumber": "550008063",
    "licenseEffectiveDate": "06/21/2025",
    "licenseExpirationDate": "06/20/2026",
    "dataDate": "10/18/2025",
    "capacity": 0,
    "address": "7600 BALBOA BLVD, UNIT 204B",
    "city": "VAN NUYS",
    "zip": "91406",
    "county": "LOS ANGELES",
    "phone": "(747) 282-0446",
    "lat": 34.208694,
    "lng": -118.50093
  },
  {
    "id": "630024742",
    "name": "ROSEN HOME HEALTH, INC",
    "npi": null,
    "hcaiId": "406196153",
    "businessName": "ROSEN HOME HEALTH, INC",
    "contactEmail": "ADMIN@ROSENHOMEHEALTH.COM",
    "categoryName": "HOME HEALTH AGENCY",
    "categoryCode": "HHA",
    "licenseStatus": "ACTIVE",
    "inService": true,
    "licenseNumber": "550008221",
    "licenseEffectiveDate": "11/11/2024",
    "licenseExpirationDate": "11/10/2025",
    "dataDate": "10/18/2025",
    "capacity": 0,
    "address": "7136 HASKELL AVE, SUITE 215",
    "city": "VAN NUYS",
    "zip": "91406",
    "county": "LOS ANGELES",
    "phone": "(818) 617-2111",
    "lat": 34.20023998,
    "lng": -118.474662
  },
  {
    "id": "630021041",
    "name": "SAFE HANDS HOSPICE CARE INC.",
    "npi": null,
    "hcaiId": "406194634",
    "businessName": "SAFE HANDS HOSPICE CARE INC.",
    "contactEmail": "SAFEHANDSHOSPICE@GMAIL.COM",
    "categoryName": "HOSPICE",
    "categoryCode": "HOSPICE",
    "licenseStatus": "ACTIVE",
    "inService": true,
    "licenseNumber": "550007573",
    "licenseEffectiveDate": "02/11/2025",
    "licenseExpirationDate": "12/16/2025",
    "dataDate": "10/18/2025",
    "capacity": 0,
    "address": "16600 SHERMAN WAY, SUITE 225",
    "city": "VAN NUYS",
    "zip": "91406",
    "county": "LOS ANGELES",
    "phone": "(747) 234-0949",
    "lat": 34.20075044,
    "lng": -118.4951561
  },
  {
    "id": "630018293",
    "name": "ST PETER'S HOSPICE SERVICES",
    "npi": null,
    "hcaiId": "406192673",
    "businessName": "ST PETER'S HOSPICE SERVICES",
    "contactEmail": "SPP16106@GMAIL.COM",
    "categoryName": "HOSPICE",
    "categoryCode": "HOSPICE",
    "licenseStatus": "ACTIVE",
    "inService": true,
    "licenseNumber": "550005529",
    "licenseEffectiveDate": "01/18/2022",
    "licenseExpirationDate": "01/17/2024",
    "dataDate": "10/18/2025",
    "capacity": 0,
    "address": "16106 HART ST",
    "city": "VAN NUYS",
    "zip": "91406",
    "county": "LOS ANGELES",
    "phone": "(747) 900-8664",
    "lat": 34.1973,
    "lng": -118.48437
  },
  {
    "id": "630012865",
    "name": "ST. PETER'S HOSPICE CARE, INC.",
    "npi": "1497062046",
    "hcaiId": "406197533",
    "businessName": "ST. PETER'S HOSPICE CARE, INC.",
    "contactEmail": "STPETERSHOSPICECAREINC@GMAIL.COM",
    "categoryName": "HOSPICE",
    "categoryCode": "HOSPICE",
    "licenseStatus": "ACTIVE",
    "inService": true,
    "licenseNumber": "550001552",
    "licenseEffectiveDate": "04/07/2025",
    "licenseExpirationDate": "04/06/2027",
    "dataDate": "10/18/2025",
    "capacity": 0,
    "address": "16501 SHERMAN WAY, SUITE 215",
    "city": "VAN NUYS",
    "zip": "91406",
    "county": "LOS ANGELES",
    "phone": "(818) 394-9535",
    "lat": 34.201377,
    "lng": -118.4926905
  },
  {
    "id": "630027819",
    "name": "ST. RAPHAEL ARCHANGEL HOME HEALTH CARE INC",
    "npi": null,
    "hcaiId": null,
    "businessName": "ST RAPHAEL ARCHANGEL HOME HEALTH CARE INC",
    "contactEmail": "STRAPHAELARCHANGELHHC@GMAIL.COM",
    "categoryName": "HOME HEALTH AGENCY",
    "categoryCode": "HHA",
    "licenseStatus": "ACTIVE",
    "inService": true,
    "licenseNumber": "550009840",
    "licenseEffectiveDate": "11/21/2025",
    "licenseExpirationDate": "05/20/2026",
    "dataDate": "10/18/2025",
    "capacity": 0,
    "address": "7136 HASKELL AVE, SUITE 309A",
    "city": "VAN NUYS",
    "zip": "91406",
    "county": "LOS ANGELES",
    "phone": "(818) 922-2228",
    "lat": 34.20023998,
    "lng": -118.474662
  },
  {
    "id": "630020722",
    "name": "SUNSET HOSPICE INC.",
    "npi": null,
    "hcaiId": "406194782",
    "businessName": "SUNSET HOSPICE, INC.",
    "contactEmail": "SOCALSUNSETHOSPICE@GMAIL.COM",
    "categoryName": "HOSPICE",
    "categoryCode": "HOSPICE",
    "licenseStatus": "ACTIVE",
    "inService": true,
    "licenseNumber": "550007223",
    "licenseEffectiveDate": "11/16/2023",
    "licenseExpirationDate": "11/15/2025",
    "dataDate": "10/18/2025",
    "capacity": 0,
    "address": "16501 SHERMAN WAY, UNIT 215A",
    "city": "VAN NUYS",
    "zip": "91406",
    "county": "LOS ANGELES",
    "phone": "(818) 809-3780",
    "lat": 34.201377,
    "lng": -118.4926905
  },
  {
    "id": "630022427",
    "name": "SWIFT HOME HEALTH, INC.",
    "npi": null,
    "hcaiId": "406195797",
    "businessName": "SWIFT HOME HEALTH, INC.",
    "contactEmail": "SWIFTHOMEHEALTH@GMAIL.COM",
    "categoryName": "HOME HEALTH AGENCY",
    "categoryCode": "HHA",
    "licenseStatus": "ACTIVE",
    "inService": true,
    "licenseNumber": "550007825",
    "licenseEffectiveDate": "01/22/2025",
    "licenseExpirationDate": "01/21/2026",
    "dataDate": "10/18/2025",
    "capacity": 0,
    "address": "7120 HAYVENHURST AVE, SUITE 214",
    "city": "VAN NUYS",
    "zip": "91406",
    "county": "LOS ANGELES",
    "phone": "(818) 488-6688",
    "lat": 34.199703,
    "lng": -118.492209
  },
  {
    "id": "630021061",
    "name": "THE MISSION HOSPICE",
    "npi": null,
    "hcaiId": "406194859",
    "businessName": "MISSION HOSPICE & PALLIATIVE CARE, INC",
    "contactEmail": "INFO@THEMISSIONHOSPICE.COM",
    "categoryName": "HOSPICE",
    "categoryCode": "HOSPICE",
    "licenseStatus": "ACTIVE",
    "inService": true,
    "licenseNumber": "550006832",
    "licenseEffectiveDate": "09/16/2025",
    "licenseExpirationDate": "09/15/2027",
    "dataDate": "10/18/2025",
    "capacity": 0,
    "address": "7100 HAYVENHURST AVE, SUITE 206",
    "city": "VAN NUYS",
    "zip": "91406",
    "county": "LOS ANGELES",
    "phone": "(818) 290-3261",
    "lat": 34.19906798,
    "lng": -118.492063
  },
  {
    "id": "630018688",
    "name": "TRINITY HOME HEALTH CARE, INC.",
    "npi": "1801354691",
    "hcaiId": "406191975",
    "businessName": "TRINITY HOME HEALTH CARE, INC.",
    "contactEmail": "HHCBYTRINITY@GMAIL.COM",
    "categoryName": "HOME HEALTH AGENCY",
    "categoryCode": "HHA",
    "licenseStatus": "ACTIVE",
    "inService": true,
    "licenseNumber": "550005055",
    "licenseEffectiveDate": "11/05/2025",
    "licenseExpirationDate": "11/04/2026",
    "dataDate": "10/18/2025",
    "capacity": 0,
    "address": "7100 HAYVENHURST AVE, SUITE 309",
    "city": "VAN NUYS",
    "zip": "91406",
    "county": "LOS ANGELES",
    "phone": "(818) 514-0573",
    "lat": 34.19906798,
    "lng": -118.492063
  },
  {
    "id": "630025675",
    "name": "TRUE COMPASSION HOME HEALTH, INC.",
    "npi": null,
    "hcaiId": null,
    "businessName": "TRUE COMPASSION HOME HEALTH, INC.",
    "contactEmail": "TRUECOMPASSIONHH@GMAIL.COM",
    "categoryName": "HOME HEALTH AGENCY",
    "categoryCode": "HHA",
    "licenseStatus": "ACTIVE",
    "inService": true,
    "licenseNumber": "550009160",
    "licenseEffectiveDate": "04/29/2025",
    "licenseExpirationDate": "04/28/2026",
    "dataDate": "10/18/2025",
    "capacity": 0,
    "address": "7136 HASKELL AVE, SUITE 201",
    "city": "VAN NUYS",
    "zip": "91406",
    "county": "LOS ANGELES",
    "phone": "(800) 861-4745",
    "lat": 34.200207,
    "lng": -118.474749
  },
  {
    "id": "630013316",
    "name": "USM HOSPICE",
    "npi": "1790068765",
    "hcaiId": "406197691",
    "businessName": "US MEDTRADE HOSPICE, INC.",
    "contactEmail": "USM.HOSPICE@GMAIL.COM",
    "categoryName": "HOSPICE",
    "categoryCode": "HOSPICE",
    "licenseStatus": "ACTIVE",
    "inService": true,
    "licenseNumber": "550001897",
    "licenseEffectiveDate": "04/03/2024",
    "licenseExpirationDate": "04/02/2026",
    "dataDate": "10/18/2025",
    "capacity": 0,
    "address": "16159 COHASSET ST, SUITE 201",
    "city": "VAN NUYS",
    "zip": "91406",
    "county": "LOS ANGELES",
    "phone": "(818) 761-2721",
    "lat": 34.206723,
    "lng": -118.4856255
  },
  {
    "id": "630017119",
    "name": "VALLEY SURGERY CENTER, INC.",
    "npi": "1124411848",
    "hcaiId": null,
    "businessName": null,
    "contactEmail": null,
    "categoryName": "SURGICAL CLINIC",
    "categoryCode": "ASC",
    "licenseStatus": null,
    "inService": null,
    "licenseNumber": null,
    "licenseEffectiveDate": null,
    "licenseExpirationDate": null,
    "dataDate": "10/18/2025",
    "capacity": 0,
    "address": "16917 ENADIA WAY",
    "city": "VAN NUYS",
    "zip": "91406",
    "county": "LOS ANGELES",
    "phone": null,
    "lat": 34.200234,
    "lng": -118.5018075
  },
  {
    "id": "630020597",
    "name": "VERITY HOME HEALTH, INC.",
    "npi": null,
    "hcaiId": "406193473",
    "businessName": "VERITY HOME HEALTH, INC.",
    "contactEmail": "VERITYHHC@GMAIL.COM",
    "categoryName": "HOME HEALTH AGENCY",
    "categoryCode": "HHA",
    "licenseStatus": "ACTIVE",
    "inService": true,
    "licenseNumber": "550007095",
    "licenseEffectiveDate": "10/29/2025",
    "licenseExpirationDate": "10/28/2026",
    "dataDate": "10/18/2025",
    "capacity": 0,
    "address": "17620 SHERMAN WAY, SUITE 101",
    "city": "VAN NUYS",
    "zip": "91406",
    "county": "LOS ANGELES",
    "phone": "(818) 588-4247",
    "lat": 34.200918,
    "lng": -118.516995
  },
  {
    "id": "630017569",
    "name": "VIGOROUS HOME HEALTH CARE",
    "npi": "1790200913",
    "hcaiId": "406191694",
    "businessName": "VIGOROUS HOME HEALTH CARE",
    "contactEmail": "VIGOROUSHHC@GMAIL.COM",
    "categoryName": "HOME HEALTH AGENCY",
    "categoryCode": "HHA",
    "licenseStatus": "ACTIVE",
    "inService": true,
    "licenseNumber": "550004687",
    "licenseEffectiveDate": "03/09/2025",
    "licenseExpirationDate": "03/08/2026",
    "dataDate": "10/18/2025",
    "capacity": 0,
    "address": "17620 SHERMAN WAY, SUITE 214",
    "city": "VAN NUYS",
    "zip": "91406",
    "county": "LOS ANGELES",
    "phone": "(818) 938-9201",
    "lat": 34.200918,
    "lng": -118.516995
  },
  {
    "id": "630016722",
    "name": "VILLA BLANCA HOSPICE, INC.",
    "npi": "1891159729",
    "hcaiId": "406191281",
    "businessName": "VILLA BLANCA HOSPICE, INC.",
    "contactEmail": "VILLABLANCAHOSPICE@YAHOO.COM",
    "categoryName": "HOSPICE",
    "categoryCode": "HOSPICE",
    "licenseStatus": "ACTIVE",
    "inService": true,
    "licenseNumber": "550004260",
    "licenseEffectiveDate": "04/18/2024",
    "licenseExpirationDate": "04/17/2026",
    "dataDate": "10/18/2025",
    "capacity": 0,
    "address": "16120 SHERMAN WAY",
    "city": "VAN NUYS",
    "zip": "91406",
    "county": "LOS ANGELES",
    "phone": "(818) 600-2499",
    "lat": 34.200747,
    "lng": -118.4845545
  },
  {
    "id": "630025051",
    "name": "VIVIDUS HOME CARE, INC",
    "npi": null,
    "hcaiId": "406196772",
    "businessName": "VIVIDUS HOME CARE, INC",
    "contactEmail": "VIVIDUSHOMECARE@GMAIL.COM",
    "categoryName": "HOME HEALTH AGENCY",
    "categoryCode": "HHA",
    "licenseStatus": "ACTIVE",
    "inService": true,
    "licenseNumber": "550008334",
    "licenseEffectiveDate": "01/19/2025",
    "licenseExpirationDate": "01/18/2026",
    "dataDate": "10/18/2025",
    "capacity": 0,
    "address": "15643 SHERMAN WAY, SUITE 430",
    "city": "VAN NUYS",
    "zip": "91406",
    "county": "LOS ANGELES",
    "phone": "(818) 698-0657",
    "lat": 34.201386,
    "lng": -118.474002
  },
  {
    "id": "630012902",
    "name": "WEST COAST HOSPICE MANAGEMENT, INC.",
    "npi": "1699084970",
    "hcaiId": "406197555",
    "businessName": "WEST COAST HOSPICE MANAGEMENT, INC",
    "contactEmail": "WESTCOASTHOSPICE4@GMAIL.COM",
    "categoryName": "HOSPICE",
    "categoryCode": "HOSPICE",
    "licenseStatus": "ACTIVE",
    "inService": true,
    "licenseNumber": "550001579",
    "licenseEffectiveDate": "05/04/2021",
    "licenseExpirationDate": "05/03/2023",
    "dataDate": "10/18/2025",
    "capacity": 0,
    "address": "7100 HAYVENHURST AVE, SUITE 210",
    "city": "VAN NUYS",
    "zip": "91406",
    "county": "LOS ANGELES",
    "phone": "(805) 501-7759",
    "lat": 34.199172,
    "lng": -118.492218
  },
  {
    "id": "630018790",
    "name": "WHITE GLOVE HOME HEALTH INC",
    "npi": "1710447180",
    "hcaiId": "406192022",
    "businessName": "WHITE GLOVE HOME HEALTH INC",
    "contactEmail": "WHITEGLOVEHOMEHEALTH@GMAIL.COM",
    "categoryName": "HOME HEALTH AGENCY",
    "categoryCode": "HHA",
    "licenseStatus": "ACTIVE",
    "inService": true,
    "licenseNumber": "550005074",
    "licenseEffectiveDate": "11/14/2024",
    "licenseExpirationDate": "11/13/2025",
    "dataDate": "10/18/2025",
    "capacity": 0,
    "address": "15643 SHERMAN WAY, SUITE 420",
    "city": "VAN NUYS",
    "zip": "91406",
    "county": "LOS ANGELES",
    "phone": "(818) 650-8206",
    "lat": 34.201503,
    "lng": -118.4741415
  },
  {
    "id": "630019598",
    "name": "YOUNG AT HEART HOSPICE, INC.",
    "npi": null,
    "hcaiId": "406192832",
    "businessName": "YOUNG AT HEART HOSPICE, INC.",
    "contactEmail": "YOUNGATHEARTHOSPICE@GMAIL.COM",
    "categoryName": "HOSPICE",
    "categoryCode": "HOSPICE",
    "licenseStatus": "ACTIVE",
    "inService": true,
    "licenseNumber": "550005697",
    "licenseEffectiveDate": "08/28/2024",
    "licenseExpirationDate": "08/27/2026",
    "dataDate": "10/18/2025",
    "capacity": 0,
    "address": "17620 SHERMAN WAY, SUITE 217",
    "city": "VAN NUYS",
    "zip": "91406",
    "county": "LOS ANGELES",
    "phone": "(818) 855-8553",
    "lat": 34.200918,
    "lng": -118.516995
  }
]