[
  {
    "id": "630020319",
    "name": "5 STAR HOME HEALTH CARE, INC.",
    "npi": null,
    "hcaiId": "406193131",
    "businessName": "5 STAR HOME HEALTH CARE, INC.",
    "contactEmail": "5STARHHCARE@GMAIL.COM",
    "categoryName": "HOME HEALTH AGENCY",
    "categoryCode": "HHA",
    "licenseStatus": "ACTIVE",
    "inService": true,
    "licenseNumber": "550006446",
    "licenseEffectiveDate": "12/07/2024",
    "licenseExpirationDate": "12/06/2025",
    "dataDate": "10/18/2025",
    "capacity": 0,
    "address": "14126 SHERMAN WAY, UNIT 10",
    "city": "VAN NUYS",
    "zip": "91405",
    "county": "LOS ANGELES",
    "phone": "(818) 927-2181",
    "lat": 34.201026,
    "lng": -118.4409495
  },
  {
    "id": "630020124",
    "name": "A CHOICE HOSPICE CORP",
    "npi": null,
    "hcaiId": "406195338",
    "businessName": "A CHOICE HOSPICE CORP.",
    "contactEmail": "ACHOICEHOSPICE@GMAIL.COM",
    "categoryName": "HOSPICE",
    "categoryCode": "HOSPICE",
    "licenseStatus": "ACTIVE",
    "inService": true,
    "licenseNumber": "550006030",
    "licenseEffectiveDate": "02/12/2025",
    "licenseExpirationDate": "02/11/2027",
    "dataDate": "10/18/2025",
    "capacity": 0,
    "address": "6621 VAN NUYS BLVD, SUITE 102",
    "city": "VAN NUYS",
    "zip": "91405",
    "county": "LOS ANGELES",
    "phone": "(323) 272-2446",
    "lat": 34.191378,
    "lng": -118.449153
  },
  {
    "id": "630020921",
    "name": "A&G HOSPICE CARE LLC",
    "npi": null,
    "hcaiId": "406197000",
    "businessName": "A&G HOSPICE CARE LLC",
    "contactEmail": "TDANCE@SUNCRESTCARE.COM",
    "categoryName": "HOSPICE",
    "categoryCode": "HOSPICE",
    "licenseStatus": "ACTIVE",
    "inService": true,
    "licenseNumber": "550006401",
    "licenseEffectiveDate": "06/08/2025",
    "licenseExpirationDate": "06/07/2027",
    "dataDate": "10/18/2025",
    "capacity": 0,
    "address": "6621 VAN NUYS BLVD, SUITE 116",
    "city": "VAN NUYS",
    "zip": "91405",
    "county": "LOS ANGELES",
    "phone": "(801) 916-1114",
    "lat": 34.19136,
    "lng": -118.449018
  },
  {
    "id": "630015751",
    "name": "A1 PALLIATIVE AND HOSPICE CARE, INC.",
    "npi": "1578960910",
    "hcaiId": "406191618",
    "businessName": "A1 PALLIATIVE AND HOSPICE CARE, INC.",
    "contactEmail": "A1PALLIATIVEHOSPICE@YAHOO.COM",
    "categoryName": "HOSPICE",
    "categoryCode": "HOSPICE",
    "licenseStatus": "ACTIVE",
    "inService": true,
    "licenseNumber": "550003920",
    "licenseEffectiveDate": "05/19/2025",
    "licenseExpirationDate": "05/18/2027",
    "dataDate": "10/18/2025",
    "capacity": 0,
    "address": "13645 VANOWEN STREET, SUITE B",
    "city": "VAN NUYS",
    "zip": "91405",
    "county": "LOS ANGELES",
    "phone": "(818) 390-9892",
    "lat": 34.194078,
    "lng": -118.4305095
  },
  {
    "id": "630024535",
    "name": "ADMIRING HOME HEALTH INC",
    "npi": null,
    "hcaiId": null,
    "businessName": "ADMIRING HOME HEALTH INC",
    "contactEmail": "ADMIRINGHOMEHEALTH@GMAIL.COM",
    "categoryName": "HOME HEALTH AGENCY",
    "categoryCode": "HHA",
    "licenseStatus": "ACTIVE",
    "inService": true,
    "licenseNumber": "550008432",
    "licenseEffectiveDate": "03/07/2025",
    "licenseExpirationDate": "03/06/2026",
    "dataDate": "10/18/2025",
    "capacity": 0,
    "address": "14126 SHERMAN WAY, SUITE 3C",
    "city": "VAN NUYS",
    "zip": "91405",
    "county": "LOS ANGELES",
    "phone": "(818) 453-8298",
    "lat": 34.201026,
    "lng": -118.4409495
  },
  {
    "id": "630020046",
    "name": "ADVANCED CARE HOSPICE INC",
    "npi": null,
    "hcaiId": "406196179",
    "businessName": "ADVANCED CARE HOSPICE, INC.",
    "contactEmail": "ADVANCEDCAREHOSPICE@YAHOO.COM",
    "categoryName": "HOSPICE",
    "categoryCode": "HOSPICE",
    "licenseStatus": "ACTIVE",
    "inService": true,
    "licenseNumber": "550006410",
    "licenseEffectiveDate": "06/09/2025",
    "licenseExpirationDate": "06/08/2027",
    "dataDate": "10/18/2025",
    "capacity": 0,
    "address": "6931 VAN NUYS BLVD, SUITE 315-1",
    "city": "VAN NUYS",
    "zip": "91405",
    "county": "LOS ANGELES",
    "phone": "(323) 530-0281",
    "lat": 34.19648899,
    "lng": -118.449185
  },
  {
    "id": "630021400",
    "name": "ADVENT HOSPICE CARE INC",
    "npi": null,
    "hcaiId": "406195209",
    "businessName": "ADVENT HOSPICE CARE INC",
    "contactEmail": "ADVENTHOSPICECARE1@GMAIL.COM",
    "categoryName": "HOSPICE",
    "categoryCode": "HOSPICE",
    "licenseStatus": "ACTIVE",
    "inService": true,
    "licenseNumber": "550007494",
    "licenseEffectiveDate": "12/20/2023",
    "licenseExpirationDate": "12/19/2025",
    "dataDate": "10/18/2025",
    "capacity": 0,
    "address": "6711 VAN NUYS BLVD, SUITE 300, OFFICE 329",
    "city": "VAN NUYS",
    "zip": "91405",
    "county": "LOS ANGELES",
    "phone": "(818) 646-2447",
    "lat": 34.19253601,
    "lng": -118.449177
  },
  {
    "id": "630018662",
    "name": "ADVENTIST HOSPICE CARE, INC.",
    "npi": "1104386401",
    "hcaiId": "406192039",
    "businessName": "ADVENTIST HOSPICE CARE, INC.",
    "contactEmail": "ADVENTISTHOSPICE@GMAIL.COM",
    "categoryName": "HOSPICE",
    "categoryCode": "HOSPICE",
    "licenseStatus": "ACTIVE",
    "inService": true,
    "licenseNumber": "550005152",
    "licenseEffectiveDate": "11/07/2023",
    "licenseExpirationDate": "11/06/2025",
    "dataDate": "10/18/2025",
    "capacity": 0,
    "address": "14549 ARCHWOOD ST, SUITE 202",
    "city": "VAN NUYS",
    "zip": "91405",
    "county": "LOS ANGELES",
    "phone": "(818) 691-1316",
    "lat": 34.193106,
    "lng": -118.45053
  },
  {
    "id": "630025573",
    "name": "AGAPI HOME HEALTH SERVICES, INC.",
    "npi": null,
    "hcaiId": "406190090",
    "businessName": "AGAPI HOME HEALTH SERVICES, INC.",
    "contactEmail": "AGAPIHHS@GMAIL.COM",
    "categoryName": "HOME HEALTH AGENCY",
    "categoryCode": "HHA",
    "licenseStatus": "ACTIVE",
    "inService": true,
    "licenseNumber": "550008833",
    "licenseEffectiveDate": "11/30/2024",
    "licenseExpirationDate": "11/29/2025",
    "dataDate": "10/18/2025",
    "capacity": 0,
    "address": "6850 VAN NUYS BLVD, SUITE 207",
    "city": "VAN NUYS",
    "zip": "91405",
    "county": "LOS ANGELES",
    "phone": "(818) 714-1970",
    "lat": 34.195329,
    "lng": -118.4484645
  },
  {
    "id": "630026414",
    "name": "AKA HOME HEALTH INC.",
    "npi": null,
    "hcaiId": null,
    "businessName": "AKA HOME HEALTH INC.",
    "contactEmail": "AKAHOMEHEALTH@GMAIL.COM",
    "categoryName": "HOME HEALTH AGENCY",
    "categoryCode": "HHA",
    "licenseStatus": "ACTIVE",
    "inService": true,
    "licenseNumber": "550009167",
    "licenseEffectiveDate": "05/31/2025",
    "licenseExpirationDate": "05/30/2026",
    "dataDate": "10/18/2025",
    "capacity": 0,
    "address": "14529 ARCHWOOD ST, SUITE 202",
    "city": "VAN NUYS",
    "zip": "91405",
    "county": "LOS ANGELES",
    "phone": "(818) 855-9636",
    "lat": 34.193079,
    "lng": -118.449981
  },
  {
    "id": "630019399",
    "name": "ALL DAY HOSPICE CARE, INC",
    "npi": null,
    "hcaiId": "406192742",
    "businessName": "ALL DAY HOSPICE CARE, INC",
    "contactEmail": "ALLDAYHOSPICE@GMAIL.COM",
    "categoryName": "HOSPICE",
    "categoryCode": "HOSPICE",
    "licenseStatus": "ACTIVE",
    "inService": true,
    "licenseNumber": "550005573",
    "licenseEffectiveDate": "07/02/2024",
    "licenseExpirationDate": "07/01/2026",
    "dataDate": "10/18/2025",
    "capacity": 0,
    "address": "6742 VAN NUYS BLVD, SUITE 204",
    "city": "VAN NUYS",
    "zip": "91405",
    "county": "LOS ANGELES",
    "phone": "(747) 212-1525",
    "lat": 34.193439,
    "lng": -118.448343
  },
  {
    "id": "630026707",
    "name": "ALL GOOD AIDE HOME CARE INC.",
    "npi": null,
    "hcaiId": null,
    "businessName": "ALL GOOD AIDE HOME CARE INC.",
    "contactEmail": "ALLGOODAIDEHOMECARE@GMAIL.COM",
    "categoryName": "HOME HEALTH AGENCY",
    "categoryCode": "HHA",
    "licenseStatus": "ACTIVE",
    "inService": true,
    "licenseNumber": "550009727",
    "licenseEffectiveDate": "09/25/2025",
    "licenseExpirationDate": "03/24/2026",
    "dataDate": "10/18/2025",
    "capacity": 0,
    "address": "6931 VAN NUYS BLVD, SUITE 311",
    "city": "VAN NUYS",
    "zip": "91405",
    "county": "LOS ANGELES",
    "phone": "(818) 855-1732",
    "lat": 34.1964,
    "lng": -118.4489775
  },
  {
    "id": "630020877",
    "name": "ALL INCLUSIVE HOME CARE INC",
    "npi": null,
    "hcaiId": "406194716",
    "businessName": "ALL INCLUSIVE HOME CARE INC",
    "contactEmail": "ALLINCLUSIVEHC@YAHOO.COM",
    "categoryName": "HOME HEALTH AGENCY",
    "categoryCode": "HHA",
    "licenseStatus": "ACTIVE",
    "inService": true,
    "licenseNumber": "550006211",
    "licenseEffectiveDate": "04/23/2025",
    "licenseExpirationDate": "04/22/2026",
    "dataDate": "10/18/2025",
    "capacity": 0,
    "address": "6819 SEPULVEDA BLVD, SUITE 206",
    "city": "VAN NUYS",
    "zip": "91405",
    "county": "LOS ANGELES",
    "phone": "(818) 396-9416",
    "lat": 34.194564,
    "lng": -118.4664915
  },
  {
    "id": "630015495",
    "name": "ALL LINKED HOME HEALTH INC.",
    "npi": "1104250836",
    "hcaiId": "406198208",
    "businessName": "ALL LINKED HOME HEALTH INC.",
    "contactEmail": "ADMIN@ALLLINKEDHH.COM",
    "categoryName": "HOME HEALTH AGENCY",
    "categoryCode": "HHA",
    "licenseStatus": "ACTIVE",
    "inService": true,
    "licenseNumber": "550003390",
    "licenseEffectiveDate": "08/21/2025",
    "licenseExpirationDate": "02/02/2026",
    "dataDate": "10/18/2025",
    "capacity": 0,
    "address": "6819 SEPULVEDA BLVD., SUITE 211",
    "city": "VAN NUYS",
    "zip": "91405",
    "county": "LOS ANGELES",
    "phone": "(818) 786-1209",
    "lat": 34.194564,
    "lng": -118.4664915
  },
  {
    "id": "630027869",
    "name": "ALPHA MED SOLUTIONS, INC",
    "npi": null,
    "hcaiId": null,
    "businessName": "ALPHA MED SOLUTIONS, INC",
    "contactEmail": "ALPHAMEDHHC@GMAIL.COM",
    "categoryName": "HOME HEALTH AGENCY",
    "categoryCode": "HHA",
    "licenseStatus": "ACTIVE",
    "inService": true,
    "licenseNumber": "550009702",
    "licenseEffectiveDate": "09/07/2025",
    "licenseExpirationDate": "03/06/2026",
    "dataDate": "10/18/2025",
    "capacity": 0,
    "address": "6711 VAN NUYS BLVD, SUITE 400",
    "city": "VAN NUYS",
    "zip": "91405",
    "county": "LOS ANGELES",
    "phone": null,
    "lat": 34.19253601,
    "lng": -118.449177
  },
  {
    "id": "630017053",
    "name": "AMERIA HOSPICE CARE, INC.",
    "npi": "1083164180",
    "hcaiId": "406190897",
    "businessName": "AMERIA HOSPICE CARE, INC.",
    "contactEmail": "AMERIAHOSPICE12@GMAIL.COM",
    "categoryName": "HOSPICE",
    "categoryCode": "HOSPICE",
    "licenseStatus": "ACTIVE",
    "inService": true,
    "licenseNumber": "550004288",
    "licenseEffectiveDate": "06/19/2022",
    "licenseExpirationDate": "06/18/2024",
    "dataDate": "10/18/2025",
    "capacity": 0,
    "address": "6819 SEPULVEDA BLVD., SUITE 212",
    "city": "VAN NUYS",
    "zip": "91405",
    "county": "LOS ANGELES",
    "phone": "(818) 528-6834",
    "lat": 34.194564,
    "lng": -118.4664915
  },
  {
    "id": "630021096",
    "name": "AN HOME HEALTH CARE, INC.",
    "npi": null,
    "hcaiId": "406195659",
    "businessName": "AN HOME HEALTH CARE, INC.",
    "contactEmail": "ANHOMEHEALTH@YAHOO.COM",
    "categoryName": "HOME HEALTH AGENCY",
    "categoryCode": "HHA",
    "licenseStatus": "ACTIVE",
    "inService": true,
    "licenseNumber": "550006563",
    "licenseEffectiveDate": "07/23/2025",
    "licenseExpirationDate": "07/22/2026",
    "dataDate": "10/18/2025",
    "capacity": 0,
    "address": "7220 WOODMAN AVE, SUITE 207A",
    "city": "VAN NUYS",
    "zip": "91405",
    "county": "LOS ANGELES",
    "phone": "(818) 809-2273",
    "lat": 34.20188698,
    "lng": -118.430907
  },
  {
    "id": "630019671",
    "name": "ANGEL HOSPICE SERVICE, INC.",
    "npi": "1689210783",
    "hcaiId": "406192774",
    "businessName": "ANGEL HOSPICE SERVICE, INC.",
    "contactEmail": "ANGELHOSPICE5@GMAIL.COM",
    "categoryName": "HOSPICE",
    "categoryCode": "HOSPICE",
    "licenseStatus": "ACTIVE",
    "inService": true,
    "licenseNumber": "550005574",
    "licenseEffectiveDate": "05/29/2024",
    "licenseExpirationDate": "05/28/2026",
    "dataDate": "10/18/2025",
    "capacity": 0,
    "address": "6850 VAN NUYS BLVD, SUITE 320",
    "city": "VAN NUYS",
    "zip": "91405",
    "county": "LOS ANGELES",
    "phone": "(818) 334-2701",
    "lat": 34.195401,
    "lng": -118.4481675
  },
  {
    "id": "630019483",
    "name": "ANGELIC TOUCH HOSPICE",
    "npi": null,
    "hcaiId": "406192581",
    "businessName": "ANGELIC TOUCH HOSPICE",
    "contactEmail": "ANGELICTOUCHHOSPICE@GMAIL.COM",
    "categoryName": "HOSPICE",
    "categoryCode": "HOSPICE",
    "licenseStatus": "ACTIVE",
    "inService": true,
    "licenseNumber": "550005450",
    "licenseEffectiveDate": "07/12/2024",
    "licenseExpirationDate": "05/12/2026",
    "dataDate": "10/18/2025",
    "capacity": 0,
    "address": "6931 VAN NUYS BLVD, SUITE 331H",
    "city": "VAN NUYS",
    "zip": "91405",
    "county": "LOS ANGELES",
    "phone": "(747) 248-2481",
    "lat": 34.19648899,
    "lng": -118.449185
  },
  {
    "id": "630016884",
    "name": "ARCHWOOD HOUSE CLHF, INC.",
    "npi": null,
    "hcaiId": "206190093",
    "businessName": "ARCHWOOD HOUSE CLHF, INC.",
    "contactEmail": "ARCHWOODHOUSE55@YAHOO.COM",
    "categoryName": "CONGREGATE LIVING HEALTH FACILITY",
    "categoryCode": "CLHF",
    "licenseStatus": "ACTIVE",
    "inService": true,
    "licenseNumber": "550004478",
    "licenseEffectiveDate": "11/26/2025",
    "licenseExpirationDate": "11/25/2026",
    "dataDate": "10/18/2025",
    "capacity": 10,
    "address": "14011 ARCHWOOD STREET",
    "city": "VALLEY GLEN",
    "zip": "91405",
    "county": "LOS ANGELES",
    "phone": "(818) 212-2979",
    "lat": 34.193268,
    "lng": -118.4381775
  },
  {
    "id": "630018646",
    "name": "ARDENT HOME HEALTH CARE SERVICES",
    "npi": null,
    "hcaiId": "406192463",
    "businessName": "ARDENT HOME HEALTH CARE SERVICES",
    "contactEmail": "ARDENTHHCSERVICES@GMAIL.COM",
    "categoryName": "HOME HEALTH AGENCY",
    "categoryCode": "HHA",
    "licenseStatus": "ACTIVE",
    "inService": true,
    "licenseNumber": "550005228",
    "licenseEffectiveDate": "01/18/2025",
    "licenseExpirationDate": "01/17/2026",
    "dataDate": "10/18/2025",
    "capacity": 0,
    "address": "6621 VAN NUYS BLVD, SUITE 103",
    "city": "VAN NUYS",
    "zip": "91405",
    "county": "LOS ANGELES",
    "phone": "(818) 813-5854",
    "lat": 34.19136,
    "lng": -118.449018
  },
  {
    "id": "630016642",
    "name": "ART OF HEALING HOME HEALTH CARE, INC.",
    "npi": "1467818419",
    "hcaiId": "406191448",
    "businessName": "ART OF HEALING HOME HEALTH CARE, INC.",
    "contactEmail": "ARTOFHEALINGHHC@GMAIL.COM",
    "categoryName": "HOME HEALTH AGENCY",
    "categoryCode": "HHA",
    "licenseStatus": "ACTIVE",
    "inService": true,
    "licenseNumber": "550004387",
    "licenseEffectiveDate": "07/28/2025",
    "licenseExpirationDate": "07/27/2026",
    "dataDate": "10/18/2025",
    "capacity": 0,
    "address": "6850 VAN NUYS BLVD, SUITE 303",
    "city": "VAN NUYS",
    "zip": "91405",
    "county": "LOS ANGELES",
    "phone": "(747) 233-1934",
    "lat": 34.19540098,
    "lng": -118.448189
  },
  {
    "id": "630020013",
    "name": "AURORA HOSPICE CARE, INC.",
    "npi": null,
    "hcaiId": "406192858",
    "businessName": "AURORA HOSPICE CARE, INC.",
    "contactEmail": "AURORAHOSPICE5@GMAIL.COM",
    "categoryName": "HOSPICE",
    "categoryCode": "HOSPICE",
    "licenseStatus": "ACTIVE",
    "inService": true,
    "licenseNumber": "550005666",
    "licenseEffectiveDate": "07/28/2024",
    "licenseExpirationDate": "07/27/2026",
    "dataDate": "10/18/2025",
    "capacity": 0,
    "address": "6850 VAN NUYS BLVD, SUITE 322",
    "city": "VAN NUYS",
    "zip": "91405",
    "county": "LOS ANGELES",
    "phone": "(818) 436-5885",
    "lat": 34.195329,
    "lng": -118.4484645
  },
  {
    "id": "630020353",
    "name": "AUXILIARY HOME HEALTH CARE",
    "npi": null,
    "hcaiId": "406195513",
    "businessName": "AUXILIARY HOME HEALTH CARE",
    "contactEmail": "INFO@AUXILIARYHHC.ORG",
    "categoryName": "HOME HEALTH AGENCY",
    "categoryCode": "HHA",
    "licenseStatus": "ACTIVE",
    "inService": true,
    "licenseNumber": "550006075",
    "licenseEffectiveDate": "02/27/2024",
    "licenseExpirationDate": "02/26/2025",
    "dataDate": "10/18/2025",
    "capacity": 0,
    "address": "6742 VAN NUYS BLVD, SUITE 100",
    "city": "VAN NUYS",
    "zip": "91405",
    "county": "LOS ANGELES",
    "phone": "(424) 372-9090",
    "lat": 34.193439,
    "lng": -118.448343
  },
  {
    "id": "630013013",
    "name": "AVIA",
    "npi": null,
    "hcaiId": null,
    "businessName": null,
    "contactEmail": null,
    "categoryName": "CHRONIC DIALYSIS CLINIC",
    "categoryCode": "ESRD",
    "licenseStatus": null,
    "inService": null,
    "licenseNumber": null,
    "licenseEffectiveDate": null,
    "licenseExpirationDate": null,
    "dataDate": "10/18/2025",
    "capacity": 0,
    "address": "15211 VANOWEN STREET, SUITE 204",
    "city": "VAN NUYS",
    "zip": "91405",
    "county": "LOS ANGELES",
    "phone": "(818) 374-1000",
    "lat": 34.194501,
    "lng": -118.4642775
  },
  {
    "id": "630024782",
    "name": "BEN HEALTH HOME HEALTH CARE, INC.",
    "npi": null,
    "hcaiId": "406195960",
    "businessName": "BEN HEALTH HOME HEALTH CARE, INC.",
    "contactEmail": "BENHEALTH7344@GMAIL.COM",
    "categoryName": "HOME HEALTH AGENCY",
    "categoryCode": "HHA",
    "licenseStatus": "ACTIVE",
    "inService": true,
    "licenseNumber": "550008206",
    "licenseEffectiveDate": "10/20/2024",
    "licenseExpirationDate": "10/19/2025",
    "dataDate": "10/18/2025",
    "capacity": 0,
    "address": "7344 VAN NUYS BLVD, SUITE 11",
    "city": "VAN NUYS",
    "zip": "91405",
    "county": "LOS ANGELES",
    "phone": "(818) 510-0997",
    "lat": 34.203996,
    "lng": -118.448316
  },
  {
    "id": "630026738",
    "name": "BEST ANGEL HOME HEALTH",
    "npi": null,
    "hcaiId": null,
    "businessName": "BEST ANGEL HOME HEALTH",
    "contactEmail": "BESTANGELHOMEHEALTH@GMAIL.COM",
    "categoryName": "HOME HEALTH AGENCY",
    "categoryCode": "HHA",
    "licenseStatus": "ACTIVE",
    "inService": true,
    "licenseNumber": "550009150",
    "licenseEffectiveDate": "05/10/2025",
    "licenseExpirationDate": "05/09/2026",
    "dataDate": "10/18/2025",
    "capacity": 0,
    "address": "6850 VAN NUYS BLVD, SUITE 209",
    "city": "VAN NUYS",
    "zip": "91405",
    "county": "LOS ANGELES",
    "phone": "(818) 616-3232",
    "lat": 34.195329,
    "lng": -118.4484645
  },
  {
    "id": "630020044",
    "name": "BEVERLY HOSPICE CARE, INC.",
    "npi": null,
    "hcaiId": "406196186",
    "businessName": "BEVERLY HOSPICE CARE, INC.",
    "contactEmail": "BEVERLYHOSPICECARE@YAHOO.COM",
    "categoryName": "HOSPICE",
    "categoryCode": "HOSPICE",
    "licenseStatus": "ACTIVE",
    "inService": true,
    "licenseNumber": "550006315",
    "licenseEffectiveDate": "05/19/2025",
    "licenseExpirationDate": "05/18/2027",
    "dataDate": "10/18/2025",
    "capacity": 0,
    "address": "6931 VAN NUYS BLVD, SUITE 332B",
    "city": "VAN NUYS",
    "zip": "91405",
    "county": "LOS ANGELES",
    "phone": "(323) 516-6299",
    "lat": 34.19648899,
    "lng": -118.449185
  },
  {
    "id": "630025793",
    "name": "BIG HEARTS HOME HEALTH CARE INC.",
    "npi": null,
    "hcaiId": null,
    "businessName": "BIG HEARTS HOME HEALTH CARE INC.",
    "contactEmail": "BIGHEARTSHOMEHEALTHCARE1@GMAIL.COM",
    "categoryName": "HOME HEALTH AGENCY",
    "categoryCode": "HHA",
    "licenseStatus": "ACTIVE",
    "inService": true,
    "licenseNumber": "550010002",
    "licenseEffectiveDate": "09/11/2025",
    "licenseExpirationDate": "03/10/2026",
    "dataDate": "10/18/2025",
    "capacity": 0,
    "address": "6819 SEPULVEDA BLVD, SUITE 101A",
    "city": "VAN NUYS",
    "zip": "91405",
    "county": "LOS ANGELES",
    "phone": "(747) 228-1816",
    "lat": 34.194562,
    "lng": -118.466503
  },
  {
    "id": "630025967",
    "name": "BLAZING HOME HEALTH CARE INC",
    "npi": null,
    "hcaiId": "406190321",
    "businessName": "BLAZING HOME HEALTH CARE INC",
    "contactEmail": "BLAZINGHHC@GMAIL.COM",
    "categoryName": "HOME HEALTH AGENCY",
    "categoryCode": "HHA",
    "licenseStatus": "ACTIVE",
    "inService": true,
    "licenseNumber": "550009039",
    "licenseEffectiveDate": "03/04/2025",
    "licenseExpirationDate": "03/03/2026",
    "dataDate": "10/18/2025",
    "capacity": 0,
    "address": "6742 VAN NUYS BLVD, SUITE 202",
    "city": "VAN NUYS",
    "zip": "91405",
    "county": "LOS ANGELES",
    "phone": "(818) 795-1321",
    "lat": 34.193421,
    "lng": -118.448451
  },
  {
    "id": "630017363",
    "name": "BLOOMING ROSE GARDEN CONGREGATE LIVING FACILITY",
    "npi": null,
    "hcaiId": "206190065",
    "businessName": "BLOOMING ROSE GARDEN CONGREGATE LIVING, INC.",
    "contactEmail": "BLOOMINGROSEGARDEN@YAHOO.COM",
    "categoryName": "CONGREGATE LIVING HEALTH FACILITY",
    "categoryCode": "CLHF",
    "licenseStatus": "ACTIVE",
    "inService": true,
    "licenseNumber": "550004410",
    "licenseEffectiveDate": "10/02/2024",
    "licenseExpirationDate": "10/01/2025",
    "dataDate": "10/18/2025",
    "capacity": 6,
    "address": "14417 COHASSET ST",
    "city": "VAN NUYS",
    "zip": "91405",
    "county": "LOS ANGELES",
    "phone": "(747) 264-0744",
    "lat": 34.206867,
    "lng": -118.4470695
  },
  {
    "id": "630025457",
    "name": "BLUE SKY HOME HEALTH CARE SERVICES, INC",
    "npi": null,
    "hcaiId": null,
    "businessName": "BLUE SKY HOME HEALTH CARE SERVICES, INC",
    "contactEmail": "BLUESKYHOMEHEALTHCARESERVICES@GMAIL.COM",
    "categoryName": "HOME HEALTH AGENCY",
    "categoryCode": "HHA",
    "licenseStatus": "ACTIVE",
    "inService": true,
    "licenseNumber": "550008512",
    "licenseEffectiveDate": "05/05/2025",
    "licenseExpirationDate": "05/04/2026",
    "dataDate": "10/18/2025",
    "capacity": 0,
    "address": "6621 VAN NUYS BLVD, UNIT 104",
    "city": "VAN NUYS",
    "zip": "91405",
    "county": "LOS ANGELES",
    "phone": "(747) 737-3143",
    "lat": 34.19146254,
    "lng": -118.4491041
  },
  {
    "id": "630020494",
    "name": "BLUE SKY HOSPICE CARE, INC.",
    "npi": null,
    "hcaiId": "406193202",
    "businessName": "BLUE SKY HOSPICE CARE, INC.",
    "contactEmail": "BLUESKYHOSPICE512@GMAIL.COM",
    "categoryName": "HOSPICE",
    "categoryCode": "HOSPICE",
    "licenseStatus": "ACTIVE",
    "inService": true,
    "licenseNumber": "550006222",
    "licenseEffectiveDate": "04/23/2025",
    "licenseExpirationDate": "04/22/2027",
    "dataDate": "10/18/2025",
    "capacity": 0,
    "address": "6621 VAN NUYS BLVD, SUITE 105",
    "city": "VAN NUYS",
    "zip": "91405",
    "county": "LOS ANGELES",
    "phone": "(747) 282-1743",
    "lat": 34.19138199,
    "lng": -118.449175
  },
  {
    "id": "630021317",
    "name": "BRIGHT NIGHT HOSPICE",
    "npi": null,
    "hcaiId": "406195722",
    "businessName": "BRIGHT NIGHT HOSPICE",
    "contactEmail": "BRIGHTNIGHTHOSPICE2023@GMAIL.COM",
    "categoryName": "HOSPICE",
    "categoryCode": "HOSPICE",
    "licenseStatus": "ACTIVE",
    "inService": true,
    "licenseNumber": "550007694",
    "licenseEffectiveDate": "12/24/2023",
    "licenseExpirationDate": "12/23/2025",
    "dataDate": "10/18/2025",
    "capacity": 0,
    "address": "13647 VANOWEN ST, SUITE A",
    "city": "VAN NUYS",
    "zip": "91405",
    "county": "LOS ANGELES",
    "phone": "(818) 290-3547",
    "lat": 34.194078,
    "lng": -118.430541
  },
  {
    "id": "630027651",
    "name": "BRIGHTEN HOME HEALTH",
    "npi": null,
    "hcaiId": null,
    "businessName": "BRIGHTEN HOME HEALTH",
    "contactEmail": "BRIGHTENHH@GMAIL.COM",
    "categoryName": "HOME HEALTH AGENCY",
    "categoryCode": "HHA",
    "licenseStatus": "ACTIVE",
    "inService": true,
    "licenseNumber": "550009826",
    "licenseEffectiveDate": "11/09/2025",
    "licenseExpirationDate": "05/08/2026",
    "dataDate": "10/18/2025",
    "capacity": 0,
    "address": "14039 SHERMAN WAY, SUITE 201",
    "city": "VAN NUYS",
    "zip": "91405",
    "county": "LOS ANGELES",
    "phone": "(747) 255-1555",
    "lat": 34.201524,
    "lng": -118.439076
  },
  {
    "id": "630021095",
    "name": "BRILLIANT HOSPICE CARE, INC",
    "npi": null,
    "hcaiId": "406193443",
    "businessName": "BRILLIANT HOSPICE CARE, INC",
    "contactEmail": "BRILLIANTHOSPICECARE@GMAIL.COM",
    "categoryName": "HOSPICE",
    "categoryCode": "HOSPICE",
    "licenseStatus": "ACTIVE",
    "inService": true,
    "licenseNumber": "550006679",
    "licenseEffectiveDate": "08/04/2025",
    "licenseExpirationDate": "08/03/2027",
    "dataDate": "10/18/2025",
    "capacity": 0,
    "address": "6931 VAN NUYS BLVD, SUITE 331 A",
    "city": "VAN NUYS",
    "zip": "91405",
    "county": "LOS ANGELES",
    "phone": "(818) 649-3028",
    "lat": 34.19649,
    "lng": -118.449189
  },
  {
    "id": "630026063",
    "name": "CALI MED HOME HEALTH, INC.",
    "npi": null,
    "hcaiId": null,
    "businessName": "CALI MED HOME HEALTH, INC.",
    "contactEmail": "4CALIMEDHC@GMAIL.COM",
    "categoryName": "HOME HEALTH AGENCY",
    "categoryCode": "HHA",
    "licenseStatus": "ACTIVE",
    "inService": true,
    "licenseNumber": "550009206",
    "licenseEffectiveDate": "06/17/2025",
    "licenseExpirationDate": "06/16/2026",
    "dataDate": "10/18/2025",
    "capacity": 0,
    "address": "7017 VAN NUYS BLVD, SUITE 2",
    "city": "VAN NUYS",
    "zip": "91405",
    "county": "LOS ANGELES",
    "phone": "(818) 937-4466",
    "lat": 34.19793,
    "lng": -118.4489775
  },
  {
    "id": "630021868",
    "name": "CALIMED HOSPICE CARE, INC.",
    "npi": null,
    "hcaiId": "406195928",
    "businessName": "CALIMED HOSPICE CARE INC",
    "contactEmail": "HOSPICE.CALIMED@YAHOO.COM",
    "categoryName": "HOSPICE",
    "categoryCode": "HOSPICE",
    "licenseStatus": "ACTIVE",
    "inService": true,
    "licenseNumber": "550007512",
    "licenseEffectiveDate": "09/15/2025",
    "licenseExpirationDate": "12/08/2025",
    "dataDate": "10/18/2025",
    "capacity": 0,
    "address": "7220 WOODMAN AVE, SUITE 203",
    "city": "VAN NUYS",
    "zip": "91405",
    "county": "LOS ANGELES",
    "phone": "(747) 300-8288",
    "lat": 34.20199052,
    "lng": -118.4311964
  },
  {
    "id": "630021109",
    "name": "CANESTRO CARE HOSPICE INC.",
    "npi": null,
    "hcaiId": "406193923",
    "businessName": "CANESTRO CARE HOSPICE INC.",
    "contactEmail": "CANESTROHOSPICE@GMAIL.COM",
    "categoryName": "HOSPICE",
    "categoryCode": "HOSPICE",
    "licenseStatus": "ACTIVE",
    "inService": true,
    "licenseNumber": "550007083",
    "licenseEffectiveDate": "10/08/2023",
    "licenseExpirationDate": "10/07/2025",
    "dataDate": "10/18/2025",
    "capacity": 0,
    "address": "7335 VAN NUYS BLVD, SUITE 226",
    "city": "VAN NUYS",
    "zip": "91405",
    "county": "LOS ANGELES",
    "phone": "(818) 219-9013",
    "lat": 34.204014,
    "lng": -118.448991
  },
  {
    "id": "960002750",
    "name": "CANTLAY HOUSE",
    "npi": "1083800890",
    "hcaiId": null,
    "businessName": "KMB RESIDENTIAL CARE, INC.",
    "contactEmail": "PSYCHKING@AOL.COM",
    "categoryName": "INTERMEDIATE CARE FACILITY-DD/H/N/CN/IID",
    "categoryCode": "ICFDDH",
    "licenseStatus": "ACTIVE",
    "inService": true,
    "licenseNumber": "960001364",
    "licenseEffectiveDate": "06/29/2025",
    "licenseExpirationDate": "06/28/2026",
    "dataDate": "10/18/2025",
    "capacity": 6,
    "address": "14160 CANTLAY ST",
    "city": "VAN NUYS",
    "zip": "91405",
    "county": "LOS ANGELES",
    "phone": "(818) 989-3334",
    "lat": 34.202115,
    "lng": -118.4421105
  },
  {
    "id": "630025027",
    "name": "CARE ADVISORS, INC.",
    "npi": null,
    "hcaiId": null,
    "businessName": "CARE ADVISORS, INC.",
    "contactEmail": "CAREADVISORSINC@GMAIL.COM",
    "categoryName": "HOME HEALTH AGENCY",
    "categoryCode": "HHA",
    "licenseStatus": "ACTIVE",
    "inService": true,
    "licenseNumber": "550008481",
    "licenseEffectiveDate": "03/06/2025",
    "licenseExpirationDate": "03/05/2026",
    "dataDate": "10/18/2025",
    "capacity": 0,
    "address": "6850 VAN NUYS BLVD, SUITE 318",
    "city": "VAN NUYS",
    "zip": "91405",
    "county": "LOS ANGELES",
    "phone": "(818) 208-9134",
    "lat": 34.195329,
    "lng": -118.4484645
  },
  {
    "id": "630025538",
    "name": "CARE FOR HEALTH SERVICES INC",
    "npi": null,
    "hcaiId": "406197592",
    "businessName": "CARE FOR HEALTH SERVICES INC",
    "contactEmail": "CAREFORHEALTHSERVICESINC@GMAIL.COM",
    "categoryName": "HOME HEALTH AGENCY",
    "categoryCode": "HHA",
    "licenseStatus": "ACTIVE",
    "inService": true,
    "licenseNumber": "550008754",
    "licenseEffectiveDate": "09/05/2025",
    "licenseExpirationDate": "09/04/2026",
    "dataDate": "10/18/2025",
    "capacity": 0,
    "address": "14525 VANOWEN ST, UNIT 4",
    "city": "VAN NUYS",
    "zip": "91405",
    "county": "LOS ANGELES",
    "phone": "(818) 962-7751",
    "lat": 34.194069,
    "lng": -118.449729
  },
  {
    "id": "060001927",
    "name": "CENTER FOR HEALTHY LIVING",
    "npi": null,
    "hcaiId": null,
    "businessName": "CENTER FOR HEALTHY LIVING, INC.",
    "contactEmail": "ADELONAY@CS.COM",
    "categoryName": "ADULT DAY HEALTH CARE",
    "categoryCode": "ADHC",
    "licenseStatus": "ACTIVE",
    "inService": true,
    "licenseNumber": "060000744",
    "licenseEffectiveDate": "06/01/2025",
    "licenseExpirationDate": "05/31/2026",
    "dataDate": "10/18/2025",
    "capacity": 0,
    "address": "15220 VANOWEN ST",
    "city": "VAN NUYS",
    "zip": "91405",
    "county": "LOS ANGELES",
    "phone": "(818) 780-2466",
    "lat": 34.193709,
    "lng": -118.4644035
  },
  {
    "id": "930001616",
    "name": "CENTER FOR ORTHOPEDIC SURGERY",
    "npi": "1699780247",
    "hcaiId": "306195011",
    "businessName": "CENTER FOR ORTHOPEDIC SURGERY, LLC",
    "contactEmail": "NONE@DHS.CA.GOV",
    "categoryName": "SURGICAL CLINIC",
    "categoryCode": "ASC",
    "licenseStatus": "INACTIVE - CAPEN DECISION",
    "inService": false,
    "licenseNumber": "930000898",
    "licenseEffectiveDate": "11/01/2007",
    "licenseExpirationDate": "10/31/2008",
    "dataDate": "10/18/2025",
    "capacity": 0,
    "address": "6815 NOBLE AVE, SUITE 400",
    "city": "VAN NUYS",
    "zip": "91405",
    "county": "LOS ANGELES",
    "phone": "(818) 901-6600",
    "lat": 34.194402,
    "lng": -118.462131
  },
  {
    "id": "630012214",
    "name": "CERTIFIED HOME HEALTH CARE INC",
    "npi": "1558501841",
    "hcaiId": "406195455",
    "businessName": "CERTIFIED HOME HEALTH CARE INC",
    "contactEmail": "CERTIFIEDHHC@YAHOO.COM",
    "categoryName": "HOME HEALTH AGENCY",
    "categoryCode": "HHA",
    "licenseStatus": "ACTIVE",
    "inService": true,
    "licenseNumber": "550001347",
    "licenseEffectiveDate": "08/12/2025",
    "licenseExpirationDate": "06/11/2026",
    "dataDate": "10/18/2025",
    "capacity": 0,
    "address": "6931 VAN NUYS BLVD, SUITE 101A",
    "city": "VAN NUYS",
    "zip": "91405",
    "county": "LOS ANGELES",
    "phone": "(747) 300-2172",
    "lat": 34.19649,
    "lng": -118.4491845
  },
  {
    "id": "630026026",
    "name": "CITY HHA INC.",
    "npi": null,
    "hcaiId": null,
    "businessName": "CITY HHA INC.",
    "contactEmail": "CITYHHA@GMAIL.COM",
    "categoryName": "HOME HEALTH AGENCY",
    "categoryCode": "HHA",
    "licenseStatus": "ACTIVE",
    "inService": true,
    "licenseNumber": "550009115",
    "licenseEffectiveDate": "05/09/2025",
    "licenseExpirationDate": "05/08/2026",
    "dataDate": "10/18/2025",
    "capacity": 0,
    "address": "6621 VAN NUYS BLVD, UNIT 115",
    "city": "VAN NUYS",
    "zip": "91405",
    "county": "LOS ANGELES",
    "phone": "(818) 743-9991",
    "lat": 34.19138199,
    "lng": -118.449175
  },
  {
    "id": "630020466",
    "name": "CLEAR WATER HOSPICE, INC",
    "npi": null,
    "hcaiId": "406193720",
    "businessName": "CLEAR WATER HOSPICE, INC",
    "contactEmail": "CLEARWATERHOSPICEINC@GMAIL.COM",
    "categoryName": "HOSPICE",
    "categoryCode": "HOSPICE",
    "licenseStatus": "ACTIVE",
    "inService": true,
    "licenseNumber": "550006760",
    "licenseEffectiveDate": "08/04/2025",
    "licenseExpirationDate": "08/03/2027",
    "dataDate": "10/18/2025",
    "capacity": 0,
    "address": "6931 VAN NUYS BLVD, SUITE 315 A",
    "city": "VAN NUYS",
    "zip": "91405",
    "county": "LOS ANGELES",
    "phone": "(747) 262-5396",
    "lat": 34.19649,
    "lng": -118.449189
  },
  {
    "id": "630026173",
    "name": "CLINICA MONSENOR OSCAR A. ROMERO - VAN NUYS",
    "npi": null,
    "hcaiId": null,
    "businessName": "CLINICA MSR. OSCAR A ROMERO",
    "contactEmail": "CVAQUERANO@CLINICAROMERO.COM",
    "categoryName": "PRIMARY CARE CLINIC",
    "categoryCode": "FQHC/COMTYC",
    "licenseStatus": "ACTIVE",
    "inService": true,
    "licenseNumber": "960000308",
    "licenseEffectiveDate": "11/05/2025",
    "licenseExpirationDate": "11/04/2026",
    "dataDate": "10/18/2025",
    "capacity": 0,
    "address": "7400 VAN NUYS BLVD, SUITE 120",
    "city": "VAN NUYS",
    "zip": "91405",
    "county": "LOS ANGELES",
    "phone": "(818) 782-9892",
    "lat": 34.205193,
    "lng": -118.4484645
  },
  {
    "id": "630026863",
    "name": "COMFORT TOUCH HOME HEALTH",
    "npi": null,
    "hcaiId": null,
    "businessName": "COMFORT TOUCH HOME HEALTH",
    "contactEmail": "COMFORTTOUCHHH@GMAIL.COM",
    "categoryName": "HOME HEALTH AGENCY",
    "categoryCode": "HHA",
    "licenseStatus": "ACTIVE",
    "inService": true,
    "licenseNumber": "550009756",
    "licenseEffectiveDate": "09/20/2025",
    "licenseExpirationDate": "03/19/2026",
    "dataDate": "10/18/2025",
    "capacity": 0,
    "address": "14126 SHERMAN WAY, SUITE 203A",
    "city": "VAN NUYS",
    "zip": "91405",
    "county": "LOS ANGELES",
    "phone": "(818) 497-4728",
    "lat": 34.201026,
    "lng": -118.4409495
  },
  {
    "id": "630024973",
    "name": "CREED HOME HEALTH CARE, INC.",
    "npi": null,
    "hcaiId": "406195935",
    "businessName": "CREED HOME HEALTH CARE, INC.",
    "contactEmail": "CREEDHHC@GMAIL.COM",
    "categoryName": "HOME HEALTH AGENCY",
    "categoryCode": "HHA",
    "licenseStatus": "ACTIVE",
    "inService": true,
    "licenseNumber": "550008261",
    "licenseEffectiveDate": "12/02/2024",
    "licenseExpirationDate": "12/01/2025",
    "dataDate": "10/18/2025",
    "capacity": 0,
    "address": "6742 VAN NUYS BLVD, SUITE 111",
    "city": "VAN NUYS",
    "zip": "91405",
    "county": "LOS ANGELES",
    "phone": "(818) 817-6001",
    "lat": 34.193421,
    "lng": -118.448451
  },
  {
    "id": "630021959",
    "name": "CRISIS HOSPICE AND PALLIATIVE CARE, INC.",
    "npi": null,
    "hcaiId": "406193957",
    "businessName": "CRISIS HOSPICE AND PALLIATIVE CARE, INC.",
    "contactEmail": "CRISISHOSPICE@GMAIL.COM",
    "categoryName": "HOSPICE",
    "categoryCode": "HOSPICE",
    "licenseStatus": "ACTIVE",
    "inService": true,
    "licenseNumber": "550007307",
    "licenseEffectiveDate": "07/16/2025",
    "licenseExpirationDate": "11/24/2025",
    "dataDate": "10/18/2025",
    "capacity": 0,
    "address": "6819 SEPULVEDA BLVD, SUITE 101",
    "city": "VAN NUYS",
    "zip": "91405",
    "county": "LOS ANGELES",
    "phone": "(747) 205-1905",
    "lat": 34.194562,
    "lng": -118.466503
  },
  {
    "id": "630019378",
    "name": "CURE HOME HEALTH, INC.",
    "npi": null,
    "hcaiId": "406192874",
    "businessName": "CURE HOME HEALTH, INC.",
    "contactEmail": "CUREHH@GMAIL.COM",
    "categoryName": "HOME HEALTH AGENCY",
    "categoryCode": "HHA",
    "licenseStatus": "ACTIVE",
    "inService": true,
    "licenseNumber": "550005736",
    "licenseEffectiveDate": "08/14/2025",
    "licenseExpirationDate": "08/13/2026",
    "dataDate": "10/18/2025",
    "capacity": 0,
    "address": "14126 SHERMAN WAY, SUITE 207",
    "city": "VAN NUYS",
    "zip": "91405",
    "county": "LOS ANGELES",
    "phone": "(818) 761-7770",
    "lat": 34.20081,
    "lng": -118.441008
  },
  {
    "id": "630015682",
    "name": "DA & AR HOSPICE CARE, INC.",
    "npi": "1154728434",
    "hcaiId": "406191348",
    "businessName": "DA & AR HOSPICE CARE, INC",
    "contactEmail": "DAANDAR.CARE@GMAIL.COM",
    "categoryName": "HOSPICE",
    "categoryCode": "HOSPICE",
    "licenseStatus": "ACTIVE",
    "inService": true,
    "licenseNumber": "550003404",
    "licenseEffectiveDate": "02/05/2024",
    "licenseExpirationDate": "02/04/2026",
    "dataDate": "10/18/2025",
    "capacity": 0,
    "address": "6850 VAN NUYS BLVD, SUITE 206",
    "city": "VAN NUYS",
    "zip": "91405",
    "county": "LOS ANGELES",
    "phone": "(818) 465-3004",
    "lat": 34.195401,
    "lng": -118.4481675
  },
  {
    "id": "630025075",
    "name": "DECENT HOME HEALTH CARE INC",
    "npi": null,
    "hcaiId": "406190210",
    "businessName": "DECENT HOME HEALTH CARE INC",
    "contactEmail": "DECENT.HHC@GMAIL.COM",
    "categoryName": "HOME HEALTH AGENCY",
    "categoryCode": "HHA",
    "licenseStatus": "ACTIVE",
    "inService": true,
    "licenseNumber": "550008337",
    "licenseEffectiveDate": "01/16/2025",
    "licenseExpirationDate": "01/15/2026",
    "dataDate": "10/18/2025",
    "capacity": 0,
    "address": "6742 VAN NUYS BLVD, SUITE 113",
    "city": "VAN NUYS",
    "zip": "91405",
    "county": "LOS ANGELES",
    "phone": "(818) 817-6566",
    "lat": 34.193421,
    "lng": -118.448451
  },
  {
    "id": "630018715",
    "name": "DIVINE ADULT DAY HEALTH CARE CENTER",
    "npi": null,
    "hcaiId": null,
    "businessName": "DIVINE ADULT DAY HEALTH CARE",
    "contactEmail": "INFO@DIVINEADHC.COM",
    "categoryName": "ADULT DAY HEALTH CARE",
    "categoryCode": "ADHC",
    "licenseStatus": "ACTIVE",
    "inService": true,
    "licenseNumber": "550005661",
    "licenseEffectiveDate": "08/18/2025",
    "licenseExpirationDate": "08/17/2026",
    "dataDate": "10/18/2025",
    "capacity": 0,
    "address": "6650 VAN NUYS BLVD",
    "city": "VAN NUYS",
    "zip": "91405",
    "county": "LOS ANGELES",
    "phone": "(747) 250-7305",
    "lat": 34.192152,
    "lng": -118.4484465
  },
  {
    "id": "630020971",
    "name": "EDEM HOSPICE INC",
    "npi": null,
    "hcaiId": "406190237",
    "businessName": "EDEM HOSPICE INC",
    "contactEmail": "EDEMHOSPICECARE@GMAIL.COM",
    "categoryName": "HOSPICE",
    "categoryCode": "HOSPICE",
    "licenseStatus": "ACTIVE",
    "inService": true,
    "licenseNumber": "550006200",
    "licenseEffectiveDate": "04/21/2025",
    "licenseExpirationDate": "04/20/2027",
    "dataDate": "10/18/2025",
    "capacity": 0,
    "address": "6742 VAN NUYS BLVD, SUITE 207",
    "city": "VAN NUYS",
    "zip": "91405",
    "county": "LOS ANGELES",
    "phone": "(818) 528-8018",
    "lat": 34.193439,
    "lng": -118.448343
  },
  {
    "id": "630025858",
    "name": "EDGEWOOD HOME HEALTH CARE INC",
    "npi": null,
    "hcaiId": "406190151",
    "businessName": "EDGEWOOD HOME HEALTH CARE INC",
    "contactEmail": "EDGEWOODHOMEHEALTH@GMAIL.COM",
    "categoryName": "HOME HEALTH AGENCY",
    "categoryCode": "HHA",
    "licenseStatus": "ACTIVE",
    "inService": true,
    "licenseNumber": "550008926",
    "licenseEffectiveDate": "12/20/2024",
    "licenseExpirationDate": "12/19/2025",
    "dataDate": "10/18/2025",
    "capacity": 0,
    "address": "7324 SEPULVEDA BLVD, SUITE 170",
    "city": "VAN NUYS",
    "zip": "91405",
    "county": "LOS ANGELES",
    "phone": "(747) 219-0990",
    "lat": 34.203663,
    "lng": -118.4659965
  },
  {
    "id": "630016692",
    "name": "EISNER HEALTH AT VAN NUYS",
    "npi": "1982075115",
    "hcaiId": "306198275",
    "businessName": "PEDIATRIC & FAMILY MEDICAL CENTER",
    "contactEmail": "DMENG@ESINERHEALTH.ORG",
    "categoryName": "PRIMARY CARE CLINIC",
    "categoryCode": "COMTYC",
    "licenseStatus": "ACTIVE",
    "inService": true,
    "licenseNumber": "550003550",
    "licenseEffectiveDate": "06/20/2025",
    "licenseExpirationDate": "06/19/2026",
    "dataDate": "10/18/2025",
    "capacity": 0,
    "address": "6618 VAN NUYS BLVD.",
    "city": "VAN NUYS",
    "zip": "91405",
    "county": "LOS ANGELES",
    "phone": "(213) 342-3325",
    "lat": 34.191216,
    "lng": -118.4484645
  },
  {
    "id": "630017772",
    "name": "EISNER HEALTH MID-VALLEY",
    "npi": null,
    "hcaiId": null,
    "businessName": "PEDIATRIC & FAMILY MEDICAL CENTER",
    "contactEmail": null,
    "categoryName": "PRIMARY CARE CLINIC",
    "categoryCode": "COMTYC",
    "licenseStatus": "ACTIVE",
    "inService": true,
    "licenseNumber": "550003550",
    "licenseEffectiveDate": "06/20/2025",
    "licenseExpirationDate": "06/19/2026",
    "dataDate": "10/18/2025",
    "capacity": 0,
    "address": "15211 VANOWEN ST, SUITE 315",
    "city": "VAN NUYS",
    "zip": "91405",
    "county": "LOS ANGELES",
    "phone": "(818) 894-8080",
    "lat": 34.19450898,
    "lng": -118.464269
  },
  {
    "id": "630025895",
    "name": "EL PRIMERO HOME HEALTH CARE INC",
    "npi": null,
    "hcaiId": null,
    "businessName": "EL PRIMERO HOME HEALTH CARE INC",
    "contactEmail": "ELPRIMEROHOMEHEALTH@GMAIL.COM",
    "categoryName": "HOME HEALTH AGENCY",
    "categoryCode": "HHA",
    "licenseStatus": "ACTIVE",
    "inService": true,
    "licenseNumber": "550009119",
    "licenseEffectiveDate": "05/10/2025",
    "licenseExpirationDate": "05/09/2026",
    "dataDate": "10/18/2025",
    "capacity": 0,
    "address": "7335 VAN NUYS BLVD, SUITE 223",
    "city": "VAN NUYS",
    "zip": "91405",
    "county": "LOS ANGELES",
    "phone": "(747) 966-2120",
    "lat": 34.204014,
    "lng": -118.448991
  },
  {
    "id": "630020458",
    "name": "EMERALD HOSPICE CARE INC",
    "npi": null,
    "hcaiId": "406193459",
    "businessName": "EMERALD HOSPICE CARE INC",
    "contactEmail": "EMERALDHOSPICECARE@GMAIL.COM",
    "categoryName": "HOSPICE",
    "categoryCode": "HOSPICE",
    "licenseStatus": "ACTIVE",
    "inService": true,
    "licenseNumber": "550006681",
    "licenseEffectiveDate": "07/12/2025",
    "licenseExpirationDate": "07/11/2027",
    "dataDate": "10/18/2025",
    "capacity": 0,
    "address": "6931 VAN NUYS BLVD, SUITE 316B",
    "city": "VAN NUYS",
    "zip": "91405",
    "county": "LOS ANGELES",
    "phone": "(858) 947-4286",
    "lat": 34.1964,
    "lng": -118.4489775
  },
  {
    "id": "630020105",
    "name": "EQUINOX HOSPICE INC.",
    "npi": null,
    "hcaiId": null,
    "businessName": "EQUINOX HOSPICE INC.",
    "contactEmail": "MAYKWOK1416@GMAIL.COM",
    "categoryName": "HOSPICE",
    "categoryCode": "HOSPICE",
    "licenseStatus": "ACTIVE",
    "inService": true,
    "licenseNumber": "550005966",
    "licenseEffectiveDate": "01/12/2025",
    "licenseExpirationDate": "01/11/2027",
    "dataDate": "10/18/2025",
    "capacity": 0,
    "address": "6621 VAN NUYS BLVD, UNIT 115",
    "city": "VAN NUYS",
    "zip": "91405",
    "county": "LOS ANGELES",
    "phone": "(949) 991-4677",
    "lat": 34.191378,
    "lng": -118.449153
  },
  {
    "id": "630020108",
    "name": "ESCEND HOSPICE LLC",
    "npi": null,
    "hcaiId": "406190225",
    "businessName": "ESCEND HOSPICE LLC",
    "contactEmail": "MFILHART@SUNCRESTCARE.COM",
    "categoryName": "HOSPICE",
    "categoryCode": "HOSPICE",
    "licenseStatus": "ACTIVE",
    "inService": true,
    "licenseNumber": "550005964",
    "licenseEffectiveDate": "01/12/2025",
    "licenseExpirationDate": "01/11/2027",
    "dataDate": "10/18/2025",
    "capacity": 0,
    "address": "6621 VAN NUYS BLVD, UNIT 104",
    "city": "VAN NUYS",
    "zip": "91405",
    "county": "LOS ANGELES",
    "phone": "(951) 400-5580",
    "lat": 34.191378,
    "lng": -118.449153
  },
  {
    "id": "630020459",
    "name": "ETERNAL HOSPICE INC",
    "npi": null,
    "hcaiId": "406195035",
    "businessName": "ETERNAL HOSPICE,INC",
    "contactEmail": "ETERNALHOSPICE24@GMAIL.COM",
    "categoryName": "HOSPICE",
    "categoryCode": "HOSPICE",
    "licenseStatus": "ACTIVE",
    "inService": true,
    "licenseNumber": "550007377",
    "licenseEffectiveDate": "12/06/2023",
    "licenseExpirationDate": "12/05/2025",
    "dataDate": "10/18/2025",
    "capacity": 0,
    "address": "6931 VAN NUYS BLVD, SUITE 314",
    "city": "VAN NUYS",
    "zip": "91405",
    "county": "LOS ANGELES",
    "phone": "(818) 649-3020",
    "lat": 34.19649,
    "lng": -118.449189
  },
  {
    "id": "630019133",
    "name": "EXPRESS HOMESERVICE INC",
    "npi": "1467004101",
    "hcaiId": "406192716",
    "businessName": "EXPRESS HOMESERVICE INC",
    "contactEmail": "INFO@EXPRESSHOMESERVICEINC.COM",
    "categoryName": "HOME HEALTH AGENCY",
    "categoryCode": "HHA",
    "licenseStatus": "ACTIVE",
    "inService": true,
    "licenseNumber": "550005539",
    "licenseEffectiveDate": "06/26/2025",
    "licenseExpirationDate": "06/25/2026",
    "dataDate": "10/18/2025",
    "capacity": 0,
    "address": "7220 WOODMAN AVE, SUITE 205",
    "city": "VAN NUYS",
    "zip": "91405",
    "county": "LOS ANGELES",
    "phone": "(818) 452-5484",
    "lat": 34.20188698,
    "lng": -118.430907
  },
  {
    "id": "630027948",
    "name": "FAIRY DUST HEALTH SERVICES, INC.",
    "npi": null,
    "hcaiId": null,
    "businessName": "FAIRY DUST HEALTH SERVICES, INC.",
    "contactEmail": null,
    "categoryName": "HOME HEALTH AGENCY",
    "categoryCode": "HHA",
    "licenseStatus": "ACTIVE",
    "inService": true,
    "licenseNumber": "550009881",
    "licenseEffectiveDate": "06/23/2025",
    "licenseExpirationDate": "12/22/2025",
    "dataDate": "10/18/2025",
    "capacity": 0,
    "address": "6741 VAN NUYS BLVD, SUITE 500",
    "city": "VAN NUYS",
    "zip": "91405",
    "county": "LOS ANGELES",
    "phone": null,
    "lat": 34.19332202,
    "lng": -118.449142
  },
  {
    "id": "630026474",
    "name": "FAMILY HOPE HOME HEALTH CARE, INC.",
    "npi": null,
    "hcaiId": null,
    "businessName": "FAMILY HOPE HOME HEALTH CARE, INC.",
    "contactEmail": "FAMILYHOPEHHC@YAHOO.COM",
    "categoryName": "HOME HEALTH AGENCY",
    "categoryCode": "HHA",
    "licenseStatus": "ACTIVE",
    "inService": true,
    "licenseNumber": "550009253",
    "licenseEffectiveDate": "07/15/2025",
    "licenseExpirationDate": "07/14/2026",
    "dataDate": "10/18/2025",
    "capacity": 0,
    "address": "14529 ARCHWOOD ST, SUITE 100C",
    "city": "VAN NUYS",
    "zip": "91405",
    "county": "LOS ANGELES",
    "phone": "(747) 331-0188",
    "lat": 34.193079,
    "lng": -118.449981
  },
  {
    "id": "630026706",
    "name": "FIRST CALL HEALTH CARE INC",
    "npi": null,
    "hcaiId": null,
    "businessName": "FIRST CALL HEALTH CARE INC",
    "contactEmail": "FIRSTCALLHEALTHCARECA@GMAIL.COM",
    "categoryName": "HOME HEALTH AGENCY",
    "categoryCode": "HHA",
    "licenseStatus": "ACTIVE",
    "inService": true,
    "licenseNumber": "550009712",
    "licenseEffectiveDate": "03/14/2025",
    "licenseExpirationDate": "09/13/2025",
    "dataDate": "10/18/2025",
    "capacity": 0,
    "address": "6931 VAN NUYS BLVD, SUITE #311C",
    "city": "VAN NUYS",
    "zip": "91405",
    "county": "LOS ANGELES",
    "phone": "(818) 849-5353",
    "lat": 34.1964,
    "lng": -118.4489775
  },
  {
    "id": "630015435",
    "name": "FOREVER HOSPICE, INC.",
    "npi": "1568882512",
    "hcaiId": "406198109",
    "businessName": "FOREVER HOSPICE, INC.",
    "contactEmail": "FOREVERHOSPICE1@YAHOO.COM",
    "categoryName": "HOSPICE",
    "categoryCode": "HOSPICE",
    "licenseStatus": "ACTIVE",
    "inService": true,
    "licenseNumber": "550003371",
    "licenseEffectiveDate": "12/30/2023",
    "licenseExpirationDate": "12/29/2025",
    "dataDate": "10/18/2025",
    "capacity": 0,
    "address": "14550 ARCHWOOD ST, SUITE 101",
    "city": "VAN NUYS",
    "zip": "91405",
    "county": "LOS ANGELES",
    "phone": "(818) 779-7937",
    "lat": 34.192764,
    "lng": -118.450692
  },
  {
    "id": "630021325",
    "name": "GALAXY HOME HEALTH",
    "npi": null,
    "hcaiId": "406195768",
    "businessName": "GALAXY HOME HEALTH",
    "contactEmail": "ADMIN@GALAXYHOMEHEALTHINC.COM",
    "categoryName": "HOME HEALTH AGENCY",
    "categoryCode": "HHA",
    "licenseStatus": "ACTIVE",
    "inService": true,
    "licenseNumber": "550007790",
    "licenseEffectiveDate": "01/05/2025",
    "licenseExpirationDate": "01/04/2026",
    "dataDate": "10/18/2025",
    "capacity": 0,
    "address": "13647 VANOWEN ST, SUITE C",
    "city": "VAN NUYS",
    "zip": "91405",
    "county": "LOS ANGELES",
    "phone": "(805) 404-2148",
    "lat": 34.194078,
    "lng": -118.430541
  },
  {
    "id": "630025867",
    "name": "GALEN HOME HEALTH CARE INC.",
    "npi": null,
    "hcaiId": null,
    "businessName": "GALEN HOME HEALTH CARE INC.",
    "contactEmail": "GALENHHC2022@GMAIL.COM",
    "categoryName": "HOME HEALTH AGENCY",
    "categoryCode": "HHA",
    "licenseStatus": "ACTIVE",
    "inService": true,
    "licenseNumber": "550009489",
    "licenseEffectiveDate": "10/14/2025",
    "licenseExpirationDate": "10/13/2026",
    "dataDate": "10/18/2025",
    "capacity": 0,
    "address": "14126 SHERMAN WAY, UNIT 202",
    "city": "VAN NUYS",
    "zip": "91405",
    "county": "LOS ANGELES",
    "phone": "(747) 899-7741",
    "lat": 34.201026,
    "lng": -118.4409495
  },
  {
    "id": "630026917",
    "name": "GET BETTER HOME HEALTH CARE, INC.",
    "npi": null,
    "hcaiId": null,
    "businessName": "GET BETTER HOME HEALTH CARE, INC.",
    "contactEmail": "GETBETTERHHC@GMAIL.COM",
    "categoryName": "HOME HEALTH AGENCY",
    "categoryCode": "HHA",
    "licenseStatus": "ACTIVE",
    "inService": true,
    "licenseNumber": "550009322",
    "licenseEffectiveDate": "07/31/2025",
    "licenseExpirationDate": "07/30/2026",
    "dataDate": "10/18/2025",
    "capacity": 0,
    "address": "14039 SHERMAN WAY, SUITE 203",
    "city": "VAN NUYS",
    "zip": "91405",
    "county": "LOS ANGELES",
    "phone": "(818) 929-4845",
    "lat": 34.201359,
    "lng": -118.4391315
  },
  {
    "id": "630026127",
    "name": "GOLD SPRINGS HHA",
    "npi": null,
    "hcaiId": null,
    "businessName": "GOLD SPRINGS HHA",
    "contactEmail": "GOLDSPRINGSHHA@YAHOO.COM",
    "categoryName": "HOME HEALTH AGENCY",
    "categoryCode": "HHA",
    "licenseStatus": "ACTIVE",
    "inService": true,
    "licenseNumber": "550009226",
    "licenseEffectiveDate": "06/21/2025",
    "licenseExpirationDate": "06/20/2026",
    "dataDate": "10/18/2025",
    "capacity": 0,
    "address": "14529 ARCHWOOD ST, SUITE 201",
    "city": "VAN NUYS",
    "zip": "91405",
    "county": "LOS ANGELES",
    "phone": "(818) 399-6827",
    "lat": 34.193079,
    "lng": -118.449981
  },
  {
    "id": "630020951",
    "name": "GOOD CHOICE HOSPICE INC.",
    "npi": null,
    "hcaiId": "406193476",
    "businessName": "GOOD CHOICE HOSPICE INC.",
    "contactEmail": "GDCHOICEH@GMAIL.COM",
    "categoryName": "HOSPICE",
    "categoryCode": "HOSPICE",
    "licenseStatus": "ACTIVE",
    "inService": true,
    "licenseNumber": "550006712",
    "licenseEffectiveDate": "08/03/2021",
    "licenseExpirationDate": "08/02/2023",
    "dataDate": "10/18/2025",
    "capacity": 0,
    "address": "7311 VAN NUYS BLVD, UNIT 13",
    "city": "VAN NUYS",
    "zip": "91405",
    "county": "LOS ANGELES",
    "phone": "(747) 205-1376",
    "lat": 34.203366,
    "lng": -118.449
  },
  {
    "id": "630020380",
    "name": "GP HOSPICE, INC.",
    "npi": null,
    "hcaiId": "406195028",
    "businessName": "GP HOSPICE, INC.",
    "contactEmail": "HOSPICE.GP@YAHOO.COM",
    "categoryName": "HOSPICE",
    "categoryCode": "HOSPICE",
    "licenseStatus": "ACTIVE",
    "inService": true,
    "licenseNumber": "550006965",
    "licenseEffectiveDate": "10/08/2023",
    "licenseExpirationDate": "10/07/2025",
    "dataDate": "10/18/2025",
    "capacity": 0,
    "address": "7034 VAN NUYS BLVD, SUITE L",
    "city": "VAN NUYS",
    "zip": "91405",
    "county": "LOS ANGELES",
    "phone": "(747) 248-4877",
    "lat": 34.1982,
    "lng": -118.447884
  },
  {
    "id": "630025411",
    "name": "GRAND SOLUTIONS INC",
    "npi": null,
    "hcaiId": null,
    "businessName": "GRAND SOLUTIONS INC",
    "contactEmail": "GRANDSOLUTIONSHOMEHEALTH@GMAIL.COM",
    "categoryName": "HOME HEALTH AGENCY",
    "categoryCode": "HHA",
    "licenseStatus": "ACTIVE",
    "inService": true,
    "licenseNumber": "550008816",
    "licenseEffectiveDate": "11/13/2024",
    "licenseExpirationDate": "11/12/2025",
    "dataDate": "10/18/2025",
    "capacity": 0,
    "address": "6742 VAN NUYS BLVD, SUITE 107",
    "city": "VAN NUYS",
    "zip": "91405",
    "county": "LOS ANGELES",
    "phone": "(747) 264-1927",
    "lat": 34.193421,
    "lng": -118.448451
  },
  {
    "id": "920000055",
    "name": "GRAND VALLEY HEALTH CARE CENTER",
    "npi": "1073950614",
    "hcaiId": "206190711",
    "businessName": "GRAND VALLEY HEALTH CARE CENTER, LLC",
    "contactEmail": "MITCHR@GRANDVALLEYHCC.NET",
    "categoryName": "SKILLED NURSING FACILITY",
    "categoryCode": "SNF",
    "licenseStatus": "ACTIVE",
    "inService": true,
    "licenseNumber": "920000067",
    "licenseEffectiveDate": "08/07/2025",
    "licenseExpirationDate": "08/06/2026",
    "dataDate": "10/18/2025",
    "capacity": 99,
    "address": "13524 SHERMAN WAY",
    "city": "VAN NUYS",
    "zip": "91405",
    "county": "LOS ANGELES",
    "phone": "(818) 786-3470",
    "lat": 34.200792,
    "lng": -118.4276655
  },
  {
    "id": "630017974",
    "name": "GREEN LIGHT HOME HEALTH INC.",
    "npi": "1952807901",
    "hcaiId": "406191772",
    "businessName": "GREEN LIGHT HOME HEALTH INC.",
    "contactEmail": "GREENLIGHTHH@YAHOO.COM",
    "categoryName": "HOME HEALTH AGENCY",
    "categoryCode": "HHA",
    "licenseStatus": "ACTIVE",
    "inService": true,
    "licenseNumber": "550004801",
    "licenseEffectiveDate": "06/27/2025",
    "licenseExpirationDate": "06/26/2026",
    "dataDate": "10/18/2025",
    "capacity": 0,
    "address": "6850 VAN NUYS BLVD, SUITE 311",
    "city": "VAN NUYS",
    "zip": "91405",
    "county": "LOS ANGELES",
    "phone": "(818) 616-3568",
    "lat": 34.195401,
    "lng": -118.4481675
  },
  {
    "id": "630021522",
    "name": "GSG HOSPICE, INC",
    "npi": null,
    "hcaiId": "406193891",
    "businessName": "GSG HOSPICE, INC",
    "contactEmail": "GSGHOSPICE@GMAIL.COM",
    "categoryName": "HOSPICE",
    "categoryCode": "HOSPICE",
    "licenseStatus": "ACTIVE",
    "inService": true,
    "licenseNumber": "550007214",
    "licenseEffectiveDate": "11/15/2025",
    "licenseExpirationDate": "11/14/2027",
    "dataDate": "10/18/2025",
    "capacity": 0,
    "address": "7034 VAN NUYS BLVD, SUITE G",
    "city": "VAN NUYS",
    "zip": "91405",
    "county": "LOS ANGELES",
    "phone": "(818) 818-8281",
    "lat": 34.198143,
    "lng": -118.448094
  },
  {
    "id": "630019869",
    "name": "HARMONIA HOSPICE AND PALLIATIVE CARE, INC.",
    "npi": null,
    "hcaiId": "406193221",
    "businessName": "HARMONIA HOSPICE AND PALLIATIVE CARE, INC.",
    "contactEmail": "HARMONIACARE@GMAIL.COM",
    "categoryName": "HOSPICE",
    "categoryCode": "HOSPICE",
    "licenseStatus": "ACTIVE",
    "inService": true,
    "licenseNumber": "550006242",
    "licenseEffectiveDate": "04/06/2025",
    "licenseExpirationDate": "04/05/2027",
    "dataDate": "10/18/2025",
    "capacity": 0,
    "address": "6621 VAN NUYS BLVD, SUITE 117",
    "city": "VAN NUYS",
    "zip": "91405",
    "county": "LOS ANGELES",
    "phone": "(818) 408-9259",
    "lat": 34.19136,
    "lng": -118.449018
  },
  {
    "id": "630017170",
    "name": "HEALTHELECT CARE, INC.",
    "npi": "1629510409",
    "hcaiId": "406190807",
    "businessName": "HEALTHELECT CARE INC",
    "contactEmail": "HEALTHELECTCAREINC@GMAIL.COM",
    "categoryName": "HOME HEALTH AGENCY",
    "categoryCode": "HHA",
    "licenseStatus": "ACTIVE",
    "inService": true,
    "licenseNumber": "550004193",
    "licenseEffectiveDate": "03/15/2025",
    "licenseExpirationDate": "03/14/2026",
    "dataDate": "10/18/2025",
    "capacity": 0,
    "address": "6742 VAN NUYS BLVD, UNIT 210",
    "city": "VAN NUYS",
    "zip": "91405",
    "county": "LOS ANGELES",
    "phone": "(818) 387-8393",
    "lat": 34.193439,
    "lng": -118.448343
  },
  {
    "id": "630021072",
    "name": "HEALTHY HOSPICE INC",
    "npi": null,
    "hcaiId": "406194884",
    "businessName": "HEALTHY HOSPICE INC",
    "contactEmail": "HEALTHYHOSPICE@GMAIL.COM",
    "categoryName": "HOSPICE",
    "categoryCode": "HOSPICE",
    "licenseStatus": "ACTIVE",
    "inService": true,
    "licenseNumber": "550007137",
    "licenseEffectiveDate": "09/03/2023",
    "licenseExpirationDate": "09/02/2025",
    "dataDate": "10/18/2025",
    "capacity": 0,
    "address": "6735 VAN NUYS BLVD, UNIT 304",
    "city": "VAN NUYS",
    "zip": "91405",
    "county": "LOS ANGELES",
    "phone": "(818) 245-4445",
    "lat": 34.193106,
    "lng": -118.449036
  },
  {
    "id": "060001919",
    "name": "HEALTHY SOLUTIONS ADHC",
    "npi": null,
    "hcaiId": null,
    "businessName": "QUALITY FUTURE, LLC",
    "contactEmail": "ADHCINC@YAHOO.COM",
    "categoryName": "ADULT DAY HEALTH CARE",
    "categoryCode": "ADHC",
    "licenseStatus": "ACTIVE",
    "inService": true,
    "licenseNumber": "060000736",
    "licenseEffectiveDate": "11/09/2024",
    "licenseExpirationDate": "11/08/2025",
    "dataDate": "10/18/2025",
    "capacity": 0,
    "address": "6711 VAN NUYS BLVD",
    "city": "VAN NUYS",
    "zip": "91405",
    "county": "LOS ANGELES",
    "phone": "(818) 787-2828",
    "lat": 34.192521,
    "lng": -118.449045
  },
  {
    "id": "630026530",
    "name": "HELPING ARMS HOME HEALTH CARE INC.",
    "npi": null,
    "hcaiId": null,
    "businessName": "HELPING ARMS HOME HEALTH CARE INC.",
    "contactEmail": "HELPINGARMSHHC@GMAIL.COM",
    "categoryName": "HOME HEALTH AGENCY",
    "categoryCode": "HHA",
    "licenseStatus": "ACTIVE",
    "inService": true,
    "licenseNumber": "550009357",
    "licenseEffectiveDate": "08/23/2025",
    "licenseExpirationDate": "08/22/2026",
    "dataDate": "10/18/2025",
    "capacity": 0,
    "address": "14529 ARCHWOOD ST, SUITE 203",
    "city": "VAN NUYS",
    "zip": "91405",
    "county": "LOS ANGELES",
    "phone": "(818) 809-2230",
    "lat": 34.193079,
    "lng": -118.449981
  },
  {
    "id": "630020598",
    "name": "HELPING LIFE HOME HEALTH CARE, INC.",
    "npi": null,
    "hcaiId": "306190690",
    "businessName": "HELPING LIFE HOME HEALTH CARE, INC.",
    "contactEmail": "HELPINGLIFEHOMEHEALTHINC@GMAIL.COM",
    "categoryName": "HOME HEALTH AGENCY",
    "categoryCode": "HHA",
    "licenseStatus": "ACTIVE",
    "inService": true,
    "licenseNumber": "550007950",
    "licenseEffectiveDate": "10/22/2022",
    "licenseExpirationDate": "04/21/2023",
    "dataDate": "10/18/2025",
    "capacity": 0,
    "address": "7400 VAN NUYS BLVD, #113B",
    "city": "VAN NUYS",
    "zip": "91405",
    "county": "LOS ANGELES",
    "phone": "(707) 377-0008",
    "lat": 34.205193,
    "lng": -118.4484645
  },
  {
    "id": "630021437",
    "name": "HFS HOSPICE CARE, INC",
    "npi": null,
    "hcaiId": "406193354",
    "businessName": "HFS HOSPICE CARE, INC",
    "contactEmail": "HFSHOSPICECARE@GMAIL.COM",
    "categoryName": "HOSPICE",
    "categoryCode": "HOSPICE",
    "licenseStatus": "ACTIVE",
    "inService": true,
    "licenseNumber": "550006954",
    "licenseEffectiveDate": "10/08/2023",
    "licenseExpirationDate": "10/07/2025",
    "dataDate": "10/18/2025",
    "capacity": 0,
    "address": "7335 VAN NUYS BLVD, SUITE 202",
    "city": "VAN NUYS",
    "zip": "91405",
    "county": "LOS ANGELES",
    "phone": "(818) 626-3676",
    "lat": 34.20383,
    "lng": -118.448783
  },
  {
    "id": "630022296",
    "name": "HOSPICE OF 1ST CHOICE INC.",
    "npi": null,
    "hcaiId": null,
    "businessName": "HOSPICE OF 1ST CHOICE INC.",
    "contactEmail": "HOSPICEOF1@GMAIL.COM",
    "categoryName": "HOSPICE",
    "categoryCode": "HOSPICE",
    "licenseStatus": "ACTIVE",
    "inService": true,
    "licenseNumber": "550007681",
    "licenseEffectiveDate": "12/17/2023",
    "licenseExpirationDate": "12/16/2025",
    "dataDate": "10/18/2025",
    "capacity": 0,
    "address": "7311 VAN NUYS BLVD, UNIT 15",
    "city": "VAN NUYS",
    "zip": "91405",
    "county": "LOS ANGELES",
    "phone": "(747) 205-1377",
    "lat": 34.203366,
    "lng": -118.449
  },
  {
    "id": "630021562",
    "name": "HOSPICE OF CARING HEARTS, INC.",
    "npi": null,
    "hcaiId": "406193365",
    "businessName": "HOSPICE OF CARING HEARTS, INC.",
    "contactEmail": "HEARTSHOSP@GMAIL.COM",
    "categoryName": "HOSPICE",
    "categoryCode": "HOSPICE",
    "licenseStatus": "ACTIVE",
    "inService": true,
    "licenseNumber": "550006999",
    "licenseEffectiveDate": "10/21/2021",
    "licenseExpirationDate": "10/20/2023",
    "dataDate": "10/18/2025",
    "capacity": 0,
    "address": "7311 VAN NUYS BLVD, UNIT 17",
    "city": "VAN NUYS",
    "zip": "91405",
    "county": "LOS ANGELES",
    "phone": "(747) 205-1365",
    "lat": 34.203366,
    "lng": -118.449
  },
  {
    "id": "630021026",
    "name": "HOSPICE OF PRISTINE CARE, INC.",
    "npi": null,
    "hcaiId": "406193567",
    "businessName": "HOSPICE OF PRISTINE CARE, INC.",
    "contactEmail": "HOSPICEOFPRISTINECAREINC@GMAIL.COM",
    "categoryName": "HOSPICE",
    "categoryCode": "HOSPICE",
    "licenseStatus": "ACTIVE",
    "inService": true,
    "licenseNumber": "550006617",
    "licenseEffectiveDate": "08/03/2025",
    "licenseExpirationDate": "08/02/2027",
    "dataDate": "10/18/2025",
    "capacity": 0,
    "address": "7311 VAN NUYS BLVD, UNIT 10",
    "city": "VAN NUYS",
    "zip": "91405",
    "county": "LOS ANGELES",
    "phone": "(747) 263-0335",
    "lat": 34.203366,
    "lng": -118.449
  },
  {
    "id": "630021580",
    "name": "HOSPICE OF SERENE CARE, INC.",
    "npi": null,
    "hcaiId": "406193669",
    "businessName": "HOSPICE OF SERENE CARE, INC.",
    "contactEmail": "HOSPICEOFSERENECARE@GMAIL.COM",
    "categoryName": "HOSPICE",
    "categoryCode": "HOSPICE",
    "licenseStatus": "ACTIVE",
    "inService": true,
    "licenseNumber": "550006888",
    "licenseEffectiveDate": "10/01/2025",
    "licenseExpirationDate": "09/30/2027",
    "dataDate": "10/18/2025",
    "capacity": 0,
    "address": "7311 VAN NUYS BLVD, UNIT 16",
    "city": "VAN NUYS",
    "zip": "91405",
    "county": "LOS ANGELES",
    "phone": "(747) 205-1369",
    "lat": 34.203366,
    "lng": -118.449
  },
  {
    "id": "630012275",
    "name": "INFINITY HEALTHCARE SOLUTIONS INC.",
    "npi": "1073745170",
    "hcaiId": "406191507",
    "businessName": "INFINITY HEALTHCARE SOLUTIONS INC.",
    "contactEmail": "INFINITYHEALTH1@GMAIL.COM",
    "categoryName": "HOME HEALTH AGENCY",
    "categoryCode": "HHA",
    "licenseStatus": "ACTIVE",
    "inService": true,
    "licenseNumber": "550001252",
    "licenseEffectiveDate": "03/20/2025",
    "licenseExpirationDate": "03/19/2026",
    "dataDate": "10/18/2025",
    "capacity": 0,
    "address": "14550 ARCHWOOD ST, SUITE 107",
    "city": "VAN NUYS",
    "zip": "91405",
    "county": "LOS ANGELES",
    "phone": "(818) 831-2121",
    "lat": 34.192764,
    "lng": -118.450692
  },
  {
    "id": "630015812",
    "name": "INSTANT CARE HOSPICE, INC.",
    "npi": "1437557881",
    "hcaiId": "406190890",
    "businessName": "INSTANT CARE HOSPICE, INC.",
    "contactEmail": "INSTANTCAREHOSPICE@GMAIL.COM",
    "categoryName": "HOSPICE",
    "categoryCode": "HOSPICE",
    "licenseStatus": "ACTIVE",
    "inService": true,
    "licenseNumber": "550003625",
    "licenseEffectiveDate": "08/05/2024",
    "licenseExpirationDate": "08/04/2026",
    "dataDate": "10/18/2025",
    "capacity": 0,
    "address": "6850 SEPULVEDA BLVD, SUITE 215",
    "city": "VAN NUYS",
    "zip": "91405",
    "county": "LOS ANGELES",
    "phone": "(818) 732-4326",
    "lat": 34.195392,
    "lng": -118.4654385
  },
  {
    "id": "630017329",
    "name": "IVS HOSPICE, INC.",
    "npi": null,
    "hcaiId": "406192043",
    "businessName": "IVS HOSPICE, INC.",
    "contactEmail": "IVSHOSPICE@GMAIL.COM",
    "categoryName": "HOSPICE",
    "categoryCode": "HOSPICE",
    "licenseStatus": "ACTIVE",
    "inService": true,
    "licenseNumber": "550005146",
    "licenseEffectiveDate": "10/12/2025",
    "licenseExpirationDate": "10/11/2027",
    "dataDate": "10/18/2025",
    "capacity": 0,
    "address": "7034 VAN NUYS BLVD, SUITE F",
    "city": "VAN NUYS",
    "zip": "91405",
    "county": "LOS ANGELES",
    "phone": "(818) 296-9561",
    "lat": 34.1982,
    "lng": -118.447884
  },
  {
    "id": "630024443",
    "name": "LA COMMUNITY HEALTH CENTER",
    "npi": null,
    "hcaiId": "306190696",
    "businessName": "LA COMMUNITY HEALTH CENTER",
    "contactEmail": "AS.LACHC@YAHOO.COM",
    "categoryName": "PRIMARY CARE CLINIC",
    "categoryCode": "COMTYC",
    "licenseStatus": "ACTIVE",
    "inService": true,
    "licenseNumber": "550008069",
    "licenseEffectiveDate": "07/07/2025",
    "licenseExpirationDate": "07/06/2026",
    "dataDate": "10/18/2025",
    "capacity": 0,
    "address": "7335 VAN NUYS BLVD, SUITE 117",
    "city": "VAN NUYS",
    "zip": "91405",
    "county": "LOS ANGELES",
    "phone": "(747) 266-2666",
    "lat": 34.204014,
    "lng": -118.448991
  },
  {
    "id": "630021782",
    "name": "LAVENDER NIGHTS HOSPICE, INC",
    "npi": null,
    "hcaiId": "406193855",
    "businessName": "LAVENDER NIGHTS HOSPICE, INC.",
    "contactEmail": "LAVENDERNIGHTSHOSPICE@GMAIL.COM",
    "categoryName": "HOSPICE",
    "categoryCode": "HOSPICE",
    "licenseStatus": "ACTIVE",
    "inService": true,
    "licenseNumber": "550007362",
    "licenseEffectiveDate": "12/06/2023",
    "licenseExpirationDate": "12/05/2025",
    "dataDate": "10/18/2025",
    "capacity": 0,
    "address": "6391 VAN NUYS BLVD, SUITE 331L",
    "city": "VAN NUYS",
    "zip": "91405",
    "county": "LOS ANGELES",
    "phone": "(818) 732-4406",
    "lat": 34.18650838,
    "lng": -118.4487938
  },
  {
    "id": "630021472",
    "name": "LEGACY HOSPICE INC.",
    "npi": null,
    "hcaiId": "406193737",
    "businessName": "LEGACY HOSPICE INC.",
    "contactEmail": "LEGACYHOSPICE2020@GMAIL.COM",
    "categoryName": "HOSPICE",
    "categoryCode": "HOSPICE",
    "licenseStatus": "ACTIVE",
    "inService": true,
    "licenseNumber": "550006719",
    "licenseEffectiveDate": "08/18/2023",
    "licenseExpirationDate": "08/17/2025",
    "dataDate": "10/18/2025",
    "capacity": 0,
    "address": "7311 VAN NUYS BLVD, UNIT 11",
    "city": "VAN NUYS",
    "zip": "91405",
    "county": "LOS ANGELES",
    "phone": "(818) 666-3353",
    "lat": 34.203326,
    "lng": -118.448783
  },
  {
    "id": "630019301",
    "name": "LEKAR HOME HEALTH CARE INC",
    "npi": null,
    "hcaiId": "406193020",
    "businessName": "LEKAR HOME HEALTH CARE INC",
    "contactEmail": "LEKARHOMEHEALTHCARE@GMAIL.COM",
    "categoryName": "HOME HEALTH AGENCY",
    "categoryCode": "HHA",
    "licenseStatus": "ACTIVE",
    "inService": true,
    "licenseNumber": "550005847",
    "licenseEffectiveDate": "10/29/2025",
    "licenseExpirationDate": "10/28/2026",
    "dataDate": "10/18/2025",
    "capacity": 0,
    "address": "6742 VAN NUYS BLVD, SUITE 205",
    "city": "VAN NUYS",
    "zip": "91405",
    "county": "LOS ANGELES",
    "phone": "(818) 382-3312",
    "lat": 34.193439,
    "lng": -118.448343
  },
  {
    "id": "630018852",
    "name": "LIBERTY HOME HEALTH CARE",
    "npi": null,
    "hcaiId": "406195300",
    "businessName": "LIBERTY HOME HEALTH CARE",
    "contactEmail": "LIBERTY.HOMEHEALTHCARE@YAHOO.COM",
    "categoryName": "HOME HEALTH AGENCY",
    "categoryCode": "HHA",
    "licenseStatus": "ACTIVE",
    "inService": true,
    "licenseNumber": "550006677",
    "licenseEffectiveDate": "08/19/2025",
    "licenseExpirationDate": "08/18/2026",
    "dataDate": "10/18/2025",
    "capacity": 0,
    "address": "7226 SEPULVEDA BLVD, UNIT 1",
    "city": "VAN NUYS",
    "zip": "91405",
    "county": "LOS ANGELES",
    "phone": "(818) 616-4959",
    "lat": 34.20197801,
    "lng": -118.465812
  },
  {
    "id": "630019073",
    "name": "LIFE SOURCE HOSPICE",
    "npi": null,
    "hcaiId": "406192543",
    "businessName": "LIFE SOURCE HOSPICE",
    "contactEmail": "LIFESOURCEHOSPICEINC@GMAIL.COM",
    "categoryName": "HOSPICE",
    "categoryCode": "HOSPICE",
    "licenseStatus": "ACTIVE",
    "inService": true,
    "licenseNumber": "550005380",
    "licenseEffectiveDate": "04/23/2024",
    "licenseExpirationDate": "03/08/2026",
    "dataDate": "10/18/2025",
    "capacity": 0,
    "address": "6819 SEPULVEDA BLVD, SUITE 209",
    "city": "VAN NUYS",
    "zip": "91405",
    "county": "LOS ANGELES",
    "phone": "(626) 263-2323",
    "lat": 34.194562,
    "lng": -118.466503
  },
  {
    "id": "630026476",
    "name": "LONG LIFE HOME HEALTH CARE INC",
    "npi": null,
    "hcaiId": null,
    "businessName": "LONG LIFE HOME HEALTH CARE INC",
    "contactEmail": "LONGLIFEHHC@YAHOO.COM",
    "categoryName": "HOME HEALTH AGENCY",
    "categoryCode": "HHA",
    "licenseStatus": "ACTIVE",
    "inService": true,
    "licenseNumber": "550009382",
    "licenseEffectiveDate": "09/20/2025",
    "licenseExpirationDate": "09/19/2026",
    "dataDate": "10/18/2025",
    "capacity": 0,
    "address": "14529 ARCHWOOD ST, SUITE 100",
    "city": "VAN NUYS",
    "zip": "91405",
    "county": "LOS ANGELES",
    "phone": "(818) 383-3207",
    "lat": 34.193079,
    "lng": -118.449981
  },
  {
    "id": "630017721",
    "name": "LOS ANGELES CARE CENTER, INC.",
    "npi": null,
    "hcaiId": "206190175",
    "businessName": "LOS ANGELES CARE CENTER, INC.",
    "contactEmail": "LACARECENTER@YAHOO.COM",
    "categoryName": "CONGREGATE LIVING HEALTH FACILITY",
    "categoryCode": "CLHF",
    "licenseStatus": "ACTIVE",
    "inService": true,
    "licenseNumber": "550004910",
    "licenseEffectiveDate": "08/30/2025",
    "licenseExpirationDate": "08/29/2026",
    "dataDate": "10/18/2025",
    "capacity": 18,
    "address": "6854 TYRONE AVE",
    "city": "VAN NUYS",
    "zip": "91405",
    "county": "LOS ANGELES",
    "phone": "(747) 777-9584",
    "lat": 34.1955,
    "lng": -118.444113
  },
  {
    "id": "630019641",
    "name": "LOVE AND LIGHT HOSPICE CARE INC.",
    "npi": "1336787803",
    "hcaiId": "406192597",
    "businessName": "LOVE AND LIGHT HOSPICE CARE INC.",
    "contactEmail": "LOVELIGHTHOSPICE@GMAIL.COM",
    "categoryName": "HOSPICE",
    "categoryCode": "HOSPICE",
    "licenseStatus": "ACTIVE",
    "inService": true,
    "licenseNumber": "550005355",
    "licenseEffectiveDate": "03/06/2024",
    "licenseExpirationDate": "03/05/2026",
    "dataDate": "10/18/2025",
    "capacity": 0,
    "address": "6931 VAN NUYS BLVD, SUITE 332A",
    "city": "VAN NUYS",
    "zip": "91405",
    "county": "LOS ANGELES",
    "phone": "(818) 809-2059",
    "lat": 34.19648899,
    "lng": -118.449185
  },
  {
    "id": "630014527",
    "name": "LUNA HOME HEALTH, INC.",
    "npi": "1295174464",
    "hcaiId": "406198138",
    "businessName": "LUNA HOME HEALTH, INC.",
    "contactEmail": "LUNAHHA2014@YAHOO.COM",
    "categoryName": "HOME HEALTH AGENCY",
    "categoryCode": "HHA",
    "licenseStatus": "ACTIVE",
    "inService": true,
    "licenseNumber": "550002851",
    "licenseEffectiveDate": "09/03/2025",
    "licenseExpirationDate": "09/02/2026",
    "dataDate": "10/18/2025",
    "capacity": 0,
    "address": "14126 SHERMAN WAY, SUITE 204",
    "city": "VAN NUYS",
    "zip": "91405",
    "county": "LOS ANGELES",
    "phone": "(818) 988-8623",
    "lat": 34.20081,
    "lng": -118.441008
  },
  {
    "id": "630024958",
    "name": "MED VALLEY HOMEHEALTH INC.",
    "npi": null,
    "hcaiId": "406190233",
    "businessName": "MED VALLEY HOMEHEALTH INC.",
    "contactEmail": "MEDVALLEYHOMEHEALTH@GMAIL.COM",
    "categoryName": "HOME HEALTH AGENCY",
    "categoryCode": "HHA",
    "licenseStatus": "ACTIVE",
    "inService": true,
    "licenseNumber": "550008276",
    "licenseEffectiveDate": "11/30/2023",
    "licenseExpirationDate": "11/29/2024",
    "dataDate": "10/18/2025",
    "capacity": 0,
    "address": "7311 VAN NUYS BLVD, UNIT 20",
    "city": "VAN NUYS",
    "zip": "91405",
    "county": "LOS ANGELES",
    "phone": "(424) 372-4151",
    "lat": 34.203366,
    "lng": -118.449
  },
  {
    "id": "630019836",
    "name": "MEDINA HOSPICE, INC",
    "npi": null,
    "hcaiId": "406193522",
    "businessName": "MEDINA HOSPICE, INC.",
    "contactEmail": "MEDINAHOSPICE@GMAIL.COM",
    "categoryName": "HOSPICE",
    "categoryCode": "HOSPICE",
    "licenseStatus": "ACTIVE",
    "inService": true,
    "licenseNumber": "550006448",
    "licenseEffectiveDate": "06/25/2023",
    "licenseExpirationDate": "06/24/2025",
    "dataDate": "10/18/2025",
    "capacity": 0,
    "address": "6850 VAN NUYS BLVD, SUITE 204",
    "city": "VAN NUYS",
    "zip": "91405",
    "county": "LOS ANGELES",
    "phone": "(818) 640-6752",
    "lat": 34.195401,
    "lng": -118.4481675
  },
  {
    "id": "630021115",
    "name": "MEDLIFE HOSPICE INC.",
    "npi": null,
    "hcaiId": "406195924",
    "businessName": "MEDLIFE HOSPICE INC.",
    "contactEmail": "HOSPICE.MEDLIFE@YAHOO.COM",
    "categoryName": "HOSPICE",
    "categoryCode": "HOSPICE",
    "licenseStatus": "ACTIVE",
    "inService": true,
    "licenseNumber": "550006584",
    "licenseEffectiveDate": "07/29/2025",
    "licenseExpirationDate": "07/28/2027",
    "dataDate": "10/18/2025",
    "capacity": 0,
    "address": "7311 VAN NUYS BLVD, UNIT 9",
    "city": "VAN NUYS",
    "zip": "91405",
    "county": "LOS ANGELES",
    "phone": "(747) 297-0050",
    "lat": 34.203366,
    "lng": -118.449
  },
  {
    "id": "630026178",
    "name": "MEDPRO CARE INC.",
    "npi": null,
    "hcaiId": null,
    "businessName": "MEDPRO CARE INC.",
    "contactEmail": "MEDPROCAREINC@GMAIL.COM",
    "categoryName": "HOME HEALTH AGENCY",
    "categoryCode": "HHA",
    "licenseStatus": "ACTIVE",
    "inService": true,
    "licenseNumber": "550009592",
    "licenseEffectiveDate": "07/14/2025",
    "licenseExpirationDate": "01/13/2026",
    "dataDate": "10/18/2025",
    "capacity": 0,
    "address": "6742 VAN NUYS BLVD, SUITE 103",
    "city": "VAN NUYS",
    "zip": "91405",
    "county": "LOS ANGELES",
    "phone": "(818) 322-8343",
    "lat": 34.193421,
    "lng": -118.448451
  },
  {
    "id": "060002078",
    "name": "MEJOR VIDA ADULT DAY HEALTH CARE CENTER",
    "npi": null,
    "hcaiId": null,
    "businessName": "BETTER LIFE ADULT DAY HEALTH CENTER, INC.",
    "contactEmail": "MEJORVIDAADHC@YAHOO.COM",
    "categoryName": "ADULT DAY HEALTH CARE",
    "categoryCode": "ADHC",
    "licenseStatus": "ACTIVE",
    "inService": true,
    "licenseNumber": "060000837",
    "licenseEffectiveDate": "12/19/2024",
    "licenseExpirationDate": "12/18/2025",
    "dataDate": "10/18/2025",
    "capacity": 0,
    "address": "13550 SHERMAN WAY",
    "city": "VAN NUYS",
    "zip": "91405",
    "county": "LOS ANGELES",
    "phone": "(818) 780-3900",
    "lat": 34.201026,
    "lng": -118.4283405
  },
  {
    "id": "630012600",
    "name": "MID VALLEY HOME HEALTH CARE, INC.",
    "npi": null,
    "hcaiId": "406197525",
    "businessName": "MID VALLEY HOME HEALTH CARE, INC.",
    "contactEmail": "MIDVALLEYHH@YAHOO.COM",
    "categoryName": "HOME HEALTH AGENCY",
    "categoryCode": "HHA",
    "licenseStatus": "ACTIVE",
    "inService": true,
    "licenseNumber": "550001583",
    "licenseEffectiveDate": "05/09/2025",
    "licenseExpirationDate": "05/08/2026",
    "dataDate": "10/18/2025",
    "capacity": 0,
    "address": "7220 WOODMAN AVE, SUITE 206",
    "city": "VAN NUYS",
    "zip": "91405",
    "county": "LOS ANGELES",
    "phone": "(818) 781-3175",
    "lat": 34.201881,
    "lng": -118.430892
  },
  {
    "id": "630021318",
    "name": "MORNING LIGHT HOSPICE",
    "npi": null,
    "hcaiId": "406195747",
    "businessName": "MORNING LIGHT HOSPICE",
    "contactEmail": "MORNINGLIGHTHOSPICE@GMAIL.COM",
    "categoryName": "HOSPICE",
    "categoryCode": "HOSPICE",
    "licenseStatus": "ACTIVE",
    "inService": true,
    "licenseNumber": "550007727",
    "licenseEffectiveDate": "12/24/2023",
    "licenseExpirationDate": "12/23/2025",
    "dataDate": "10/18/2025",
    "capacity": 0,
    "address": "13647 VANOWEN ST, SUITE B",
    "city": "VAN NUYS",
    "zip": "91405",
    "county": "LOS ANGELES",
    "phone": "(213) 703-0303",
    "lat": 34.194254,
    "lng": -118.430393
  },
  {
    "id": "630017190",
    "name": "MOUNT SINAI HOSPICE, INC.",
    "npi": null,
    "hcaiId": "406192663",
    "businessName": "MOUNT SINAI HOSPICE, INC.",
    "contactEmail": "MOUNTSINAIHOSPICE@GMAIL.COM",
    "categoryName": "HOSPICE",
    "categoryCode": "HOSPICE",
    "licenseStatus": "ACTIVE",
    "inService": true,
    "licenseNumber": "550005534",
    "licenseEffectiveDate": "06/19/2024",
    "licenseExpirationDate": "06/18/2026",
    "dataDate": "10/18/2025",
    "capacity": 0,
    "address": "6819 SEPULVEDA BLVD, SUITE 302A",
    "city": "VAN NUYS",
    "zip": "91405",
    "county": "LOS ANGELES",
    "phone": "(818) 849-5154",
    "lat": 34.194447,
    "lng": -118.466397
  },
  {
    "id": "630026919",
    "name": "MULTI GROUP HOME HEALTH INC",
    "npi": null,
    "hcaiId": null,
    "businessName": "MULTI GROUP HOME HEALTH INC.",
    "contactEmail": "MULTIGROUPHHC@GMAIL.COM",
    "categoryName": "HOME HEALTH AGENCY",
    "categoryCode": "HHA",
    "licenseStatus": "ACTIVE",
    "inService": true,
    "licenseNumber": "550009088",
    "licenseEffectiveDate": "04/30/2025",
    "licenseExpirationDate": "04/29/2026",
    "dataDate": "10/18/2025",
    "capacity": 0,
    "address": "14039 SHERMAN WAY, SUITE 202",
    "city": "VAN NUYS",
    "zip": "91405",
    "county": "LOS ANGELES",
    "phone": "(747) 977-0301",
    "lat": 34.201359,
    "lng": -118.4391315
  },
  {
    "id": "630020303",
    "name": "N.S. HOSPICE, INC.",
    "npi": null,
    "hcaiId": "406195683",
    "businessName": "N.S. HOSPICE, INC.",
    "contactEmail": "NSHOSPICE@YAHOO.COM",
    "categoryName": "HOSPICE",
    "categoryCode": "HOSPICE",
    "licenseStatus": "ACTIVE",
    "inService": true,
    "licenseNumber": "550006411",
    "licenseEffectiveDate": "06/10/2023",
    "licenseExpirationDate": "06/09/2025",
    "dataDate": "10/18/2025",
    "capacity": 0,
    "address": "14550 ARCHWOOD ST, SUITE 103",
    "city": "VAN NUYS",
    "zip": "91405",
    "county": "LOS ANGELES",
    "phone": "(818) 290-3601",
    "lat": 34.192764,
    "lng": -118.450692
  },
  {
    "id": "630020975",
    "name": "NEW CARE HOSPICE, INC.",
    "npi": null,
    "hcaiId": "406193488",
    "businessName": "NEW CARE HOSPICE, INC.",
    "contactEmail": "NEWCAREHOSPICE@GMAIL.COM",
    "categoryName": "HOSPICE",
    "categoryCode": "HOSPICE",
    "licenseStatus": "ACTIVE",
    "inService": true,
    "licenseNumber": "550006685",
    "licenseEffectiveDate": "08/13/2023",
    "licenseExpirationDate": "08/12/2025",
    "dataDate": "10/18/2025",
    "capacity": 0,
    "address": "6741 VAN NUYS BLVD, SUITE 220",
    "city": "VAN NUYS",
    "zip": "91405",
    "county": "LOS ANGELES",
    "phone": "(747) 877-3059",
    "lat": 34.193304,
    "lng": -118.449036
  },
  {
    "id": "630027947",
    "name": "NEW ENERGY HOME HEALTH, INC.",
    "npi": null,
    "hcaiId": null,
    "businessName": "NEW ENERGY HOME HEALTH, INC.",
    "contactEmail": "NEWENERGYHH@YAHOO.COM",
    "categoryName": "HOME HEALTH AGENCY",
    "categoryCode": "HHA",
    "licenseStatus": "ACTIVE",
    "inService": true,
    "licenseNumber": "550009860",
    "licenseEffectiveDate": "06/23/2025",
    "licenseExpirationDate": "12/22/2025",
    "dataDate": "10/18/2025",
    "capacity": 0,
    "address": "6741 VAN NUYS BLVD, SUITE 501",
    "city": "VAN NUYS",
    "zip": "91405",
    "county": "LOS ANGELES",
    "phone": "(747) 218-9635",
    "lat": 34.19332202,
    "lng": -118.449142
  },
  {
    "id": "630016768",
    "name": "NOAH HOME HEALTH CARE, INC.",
    "npi": "1013364033",
    "hcaiId": "406191441",
    "businessName": "NOAH HOME HEALTH CARE, INC.",
    "contactEmail": "NOAHHHCARE@GMAIL.COM",
    "categoryName": "HOME HEALTH AGENCY",
    "categoryCode": "HHA",
    "licenseStatus": "ACTIVE",
    "inService": true,
    "licenseNumber": "550004376",
    "licenseEffectiveDate": "09/17/2025",
    "licenseExpirationDate": "09/16/2026",
    "dataDate": "10/18/2025",
    "capacity": 0,
    "address": "6850 VAN NUYS BLVD., SUITE 205",
    "city": "VAN NUYS",
    "zip": "91405",
    "county": "LOS ANGELES",
    "phone": "(818) 743-9466",
    "lat": 34.195401,
    "lng": -118.4481675
  },
  {
    "id": "960001967",
    "name": "NORTHEAST VALLEY HEALTH CORPORATION - VAN NUYS ADULT HEALTH CENTER",
    "npi": "1629079009",
    "hcaiId": "306198432",
    "businessName": "NORTHEAST VALLEY HEALTH CORPORATION",
    "contactEmail": "HOWARDMALDONADO@NEVHC.ORG",
    "categoryName": "PRIMARY CARE CLINIC",
    "categoryCode": "COMTYC",
    "licenseStatus": "ACTIVE",
    "inService": true,
    "licenseNumber": "960000947",
    "licenseEffectiveDate": "05/09/2025",
    "licenseExpirationDate": "05/08/2026",
    "dataDate": "10/18/2025",
    "capacity": 0,
    "address": "14624 SHERMAN WAY, FLOOR 6TH",
    "city": "VAN NUYS",
    "zip": "91405",
    "county": "LOS ANGELES",
    "phone": "(818) 988-6335",
    "lat": 34.200675,
    "lng": -118.451493
  },
  {
    "id": "630014987",
    "name": "NUHOPE HOSPICE, INC.",
    "npi": null,
    "hcaiId": "406198516",
    "businessName": "NUHOPE HOSPICE, INC.",
    "contactEmail": "NUHOPEHOSPICEINC@GMAIL.COM",
    "categoryName": "HOSPICE",
    "categoryCode": "HOSPICE",
    "licenseStatus": "ACTIVE",
    "inService": true,
    "licenseNumber": "550003207",
    "licenseEffectiveDate": "08/28/2025",
    "licenseExpirationDate": "08/27/2027",
    "dataDate": "10/18/2025",
    "capacity": 0,
    "address": "6946 VAN NUYS BLVD, SUITE 202",
    "city": "VAN NUYS",
    "zip": "91405",
    "county": "LOS ANGELES",
    "phone": "(818) 858-7397",
    "lat": 34.197021,
    "lng": -118.447974
  },
  {
    "id": "630020924",
    "name": "NURTURING ANGELS HOSPICE",
    "npi": null,
    "hcaiId": "406193990",
    "businessName": "NURTURING ANGELS HOSPICE",
    "contactEmail": "NANGELHOSPICE@GMAIL.COM",
    "categoryName": "HOSPICE",
    "categoryCode": "HOSPICE",
    "licenseStatus": "ACTIVE",
    "inService": true,
    "licenseNumber": "550007235",
    "licenseEffectiveDate": "07/16/2024",
    "licenseExpirationDate": "11/16/2025",
    "dataDate": "10/18/2025",
    "capacity": 0,
    "address": "14215 SHERMAN WAY",
    "city": "VAN NUYS",
    "zip": "91405",
    "county": "LOS ANGELES",
    "phone": "(818) 862-4462",
    "lat": 34.20149002,
    "lng": -118.442862
  },
  {
    "id": "630017751",
    "name": "OPEN LIFE HOME HEALTH, INC.",
    "npi": null,
    "hcaiId": "406191977",
    "businessName": "OPEN LIFE HOME HEALTH, INC.",
    "contactEmail": "OPENLIFEHH@GMAIL.COM",
    "categoryName": "HOME HEALTH AGENCY",
    "categoryCode": "HHA",
    "licenseStatus": "ACTIVE",
    "inService": true,
    "licenseNumber": "550005050",
    "licenseEffectiveDate": "10/25/2024",
    "licenseExpirationDate": "10/24/2025",
    "dataDate": "10/18/2025",
    "capacity": 0,
    "address": "6740 VESPER AVE, SUITE 203",
    "city": "VAN NUYS",
    "zip": "91405",
    "county": "LOS ANGELES",
    "phone": "(818) 616-8479",
    "lat": 34.193385,
    "lng": -118.450647
  },
  {
    "id": "630021120",
    "name": "OPTIMUM HOSPICE INC.",
    "npi": null,
    "hcaiId": "406197675",
    "businessName": "OPTIMUM HOSPICE INC.",
    "contactEmail": "OPTIMUMHOSPICE2020@GMAIL.COM",
    "categoryName": "HOSPICE",
    "categoryCode": "HOSPICE",
    "licenseStatus": "ACTIVE",
    "inService": true,
    "licenseNumber": "550006625",
    "licenseEffectiveDate": "07/29/2025",
    "licenseExpirationDate": "07/28/2027",
    "dataDate": "10/18/2025",
    "capacity": 0,
    "address": "7311 VAN NUYS BLVD, UNIT 7",
    "city": "VAN NUYS",
    "zip": "91405",
    "county": "LOS ANGELES",
    "phone": "(818) 459-4950",
    "lat": 34.203366,
    "lng": -118.449
  },
  {
    "id": "630020729",
    "name": "OUR CARE HOME HEALTH INC.",
    "npi": null,
    "hcaiId": "406193143",
    "businessName": "OUR CARE HOME HEALTH INC.",
    "contactEmail": "OURCAREHH@GMAIL.COM",
    "categoryName": "HOME HEALTH AGENCY",
    "categoryCode": "HHA",
    "licenseStatus": "ACTIVE",
    "inService": true,
    "licenseNumber": "550006279",
    "licenseEffectiveDate": "05/19/2025",
    "licenseExpirationDate": "05/18/2026",
    "dataDate": "10/18/2025",
    "capacity": 0,
    "address": "6621 VAN NUYS BLVD, UNIT 93",
    "city": "VAN NUYS",
    "zip": "91405",
    "county": "LOS ANGELES",
    "phone": "(747) 200-1410",
    "lat": 34.19136,
    "lng": -118.449018
  },
  {
    "id": "630016501",
    "name": "PARADISE POINT CARE CENTER, INC.",
    "npi": null,
    "hcaiId": "206190228",
    "businessName": "PARADISE POINT CARE CENTER, INC.",
    "contactEmail": "PPCAREINC@GMAIL.COM",
    "categoryName": "CONGREGATE LIVING HEALTH FACILITY",
    "categoryCode": "CLHF",
    "licenseStatus": "ACTIVE",
    "inService": true,
    "licenseNumber": "550005469",
    "licenseEffectiveDate": "04/15/2025",
    "licenseExpirationDate": "04/14/2026",
    "dataDate": "10/18/2025",
    "capacity": 6,
    "address": "13636 VOSE ST",
    "city": "VALLEY GLEN",
    "zip": "91405",
    "county": "LOS ANGELES",
    "phone": "(818) 616-1465",
    "lat": 34.19840088,
    "lng": -118.4288668
  },
  {
    "id": "960002473",
    "name": "PEDIATRIC HEALTH AND WIC CENTER",
    "npi": "1629079009",
    "hcaiId": "306196105",
    "businessName": "NORTHEAST VALLEY HEALTH CORPORATION",
    "contactEmail": "SOLALIZHERNANDEZ@NEVHC.ORG",
    "categoryName": "PRIMARY CARE CLINIC",
    "categoryCode": "COMTYC",
    "licenseStatus": "ACTIVE",
    "inService": true,
    "licenseNumber": "960000947",
    "licenseEffectiveDate": "05/09/2025",
    "licenseExpirationDate": "05/08/2026",
    "dataDate": "10/18/2025",
    "capacity": 0,
    "address": "7138 VAN NUYS BLVD",
    "city": "VAN NUYS",
    "zip": "91405",
    "county": "LOS ANGELES",
    "phone": "(818) 778-6240",
    "lat": 34.200441,
    "lng": -118.448442
  },
  {
    "id": "960000201",
    "name": "PLANNED PARENTHOOD LOS ANGELES VAN NUYS CENTER",
    "npi": null,
    "hcaiId": "306191040",
    "businessName": "PLANNED PARENTHOOD LOS ANGELES",
    "contactEmail": "BRENDA.GUERRERO@PP-LA.ORG",
    "categoryName": "PRIMARY CARE CLINIC",
    "categoryCode": "COMTYC",
    "licenseStatus": "ACTIVE",
    "inService": true,
    "licenseNumber": "960000207",
    "licenseEffectiveDate": "11/30/2024",
    "licenseExpirationDate": "11/29/2025",
    "dataDate": "10/18/2025",
    "capacity": 0,
    "address": "7100 VAN NUYS BLVD, SUITE 108",
    "city": "VAN NUYS",
    "zip": "91405",
    "county": "LOS ANGELES",
    "phone": "(213) 284-3200",
    "lat": 34.199622,
    "lng": -118.44846
  },
  {
    "id": "630021676",
    "name": "PRIME PLUS HOSPICE, INC.",
    "npi": null,
    "hcaiId": "406195923",
    "businessName": "PRIME PLUS HOSPICE, INC.",
    "contactEmail": "PRIMEPLUSHOSPICE@GMAIL.COM",
    "categoryName": "HOSPICE",
    "categoryCode": "HOSPICE",
    "licenseStatus": "ACTIVE",
    "inService": true,
    "licenseNumber": "550007250",
    "licenseEffectiveDate": "11/18/2025",
    "licenseExpirationDate": "11/17/2027",
    "dataDate": "10/18/2025",
    "capacity": 0,
    "address": "7311 VAN NUYS BLVD, UNIT 23",
    "city": "VAN NUYS",
    "zip": "91405",
    "county": "LOS ANGELES",
    "phone": "(818) 616-9999",
    "lat": 34.203366,
    "lng": -118.449
  },
  {
    "id": "630020978",
    "name": "PRISTINE CARE HOSPICE CORP.",
    "npi": null,
    "hcaiId": "406195927",
    "businessName": "PRISTINE CARE HOSPICE CORP.",
    "contactEmail": "PRISTINECARE2@GMAIL.COM",
    "categoryName": "HOSPICE",
    "categoryCode": "HOSPICE",
    "licenseStatus": "ACTIVE",
    "inService": true,
    "licenseNumber": "550006633",
    "licenseEffectiveDate": "08/12/2025",
    "licenseExpirationDate": "08/11/2027",
    "dataDate": "10/18/2025",
    "capacity": 0,
    "address": "7311 VAN NUYS BLVD, UNIT 12",
    "city": "VAN NUYS",
    "zip": "91405",
    "county": "LOS ANGELES",
    "phone": "(818) 290-3432",
    "lat": 34.203366,
    "lng": -118.449
  },
  {
    "id": "630021518",
    "name": "PRO-MED HOSPICE, INC.",
    "npi": null,
    "hcaiId": "406193679",
    "businessName": "PRO-MED HOSPICE, INC.",
    "contactEmail": "PROMEDHOSPICE@GMAIL.COM",
    "categoryName": "HOSPICE",
    "categoryCode": "HOSPICE",
    "licenseStatus": "ACTIVE",
    "inService": true,
    "licenseNumber": "550006922",
    "licenseEffectiveDate": "10/07/2023",
    "licenseExpirationDate": "10/06/2025",
    "dataDate": "10/18/2025",
    "capacity": 0,
    "address": "6621 VAN NUYS BLVD, UNIT 108",
    "city": "VAN NUYS",
    "zip": "91405",
    "county": "LOS ANGELES",
    "phone": "(818) 852-9718",
    "lat": 34.19136,
    "lng": -118.449018
  },
  {
    "id": "630015802",
    "name": "PROACTIVE CARE",
    "npi": null,
    "hcaiId": "206198463",
    "businessName": "GVK ASSOCIATES, INC.",
    "contactEmail": "VINCE@PROACTIVECAREINC.COM",
    "categoryName": "CONGREGATE LIVING HEALTH FACILITY",
    "categoryCode": "CLHF",
    "licenseStatus": "ACTIVE",
    "inService": true,
    "licenseNumber": "550003700",
    "licenseEffectiveDate": "10/14/2023",
    "licenseExpirationDate": "10/13/2024",
    "dataDate": "10/18/2025",
    "capacity": 6,
    "address": "7461 VISTA DEL MONTE AVE",
    "city": "VAN NUYS",
    "zip": "91405",
    "county": "LOS ANGELES",
    "phone": "(818) 616-2404",
    "lat": 34.206471,
    "lng": -118.4506155
  },
  {
    "id": "630020297",
    "name": "PURIFIED HOSPICE, INC.",
    "npi": null,
    "hcaiId": "406193613",
    "businessName": "PURIFIED HOSPICE, INC.",
    "contactEmail": "PURIFIEDHOSPICE@YAHOO.COM",
    "categoryName": "HOSPICE",
    "categoryCode": "HOSPICE",
    "licenseStatus": "ACTIVE",
    "inService": true,
    "licenseNumber": "550006925",
    "licenseEffectiveDate": "08/27/2025",
    "licenseExpirationDate": "08/26/2027",
    "dataDate": "10/18/2025",
    "capacity": 0,
    "address": "14550 ARCHWOOD ST, SUITE 104",
    "city": "VAN NUYS",
    "zip": "91405",
    "county": "LOS ANGELES",
    "phone": "(818) 825-5556",
    "lat": 34.192764,
    "lng": -118.450692
  },
  {
    "id": "630021238",
    "name": "QR HOME HEALTH CARE",
    "npi": null,
    "hcaiId": "406195241",
    "businessName": "QR HOME HEALTH CARE",
    "contactEmail": "QRHOMEHEALTHCARE@YAHOO.COM",
    "categoryName": "HOME HEALTH AGENCY",
    "categoryCode": "HHA",
    "licenseStatus": "ACTIVE",
    "inService": true,
    "licenseNumber": "550007918",
    "licenseEffectiveDate": "03/31/2025",
    "licenseExpirationDate": "03/30/2026",
    "dataDate": "10/18/2025",
    "capacity": 0,
    "address": "7320 SEPULVEDA BLVD",
    "city": "VAN NUYS",
    "zip": "91405",
    "county": "LOS ANGELES",
    "phone": "(818) 599-4829",
    "lat": 34.203537,
    "lng": -118.4659965
  },
  {
    "id": "630026343",
    "name": "QUIETUDE HOME HEALTH CARE",
    "npi": null,
    "hcaiId": null,
    "businessName": "QUIETUDE HOME HEALTH CARE",
    "contactEmail": "QUIETUDEHHC@GMAIL.COM",
    "categoryName": "HOME HEALTH AGENCY",
    "categoryCode": "HHA",
    "licenseStatus": "ACTIVE",
    "inService": true,
    "licenseNumber": "550009980",
    "licenseEffectiveDate": "08/28/2025",
    "licenseExpirationDate": "02/27/2026",
    "dataDate": "10/18/2025",
    "capacity": 0,
    "address": "6931 VAN NUYS BLVD, SUITE 327",
    "city": "VAN NUYS",
    "zip": "91405",
    "county": "LOS ANGELES",
    "phone": "(818) 422-8338",
    "lat": 34.1964,
    "lng": -118.4489775
  },
  {
    "id": "630017726",
    "name": "RAINBOW COLORS HOME HEALTH SERVICE INC.",
    "npi": null,
    "hcaiId": "406195555",
    "businessName": "RAINBOW COLORS HOME HEALTH SERVICES INC.",
    "contactEmail": "RAINBOWCOLORSHHS@GMAIL.COM",
    "categoryName": "HOME HEALTH AGENCY",
    "categoryCode": "HHA",
    "licenseStatus": "ACTIVE",
    "inService": true,
    "licenseNumber": "550004724",
    "licenseEffectiveDate": "06/11/2025",
    "licenseExpirationDate": "06/10/2026",
    "dataDate": "10/18/2025",
    "capacity": 0,
    "address": "6931 VAN NUYS BLVD, SUITE 207A",
    "city": "VAN NUYS",
    "zip": "91405",
    "county": "LOS ANGELES",
    "phone": "(805) 426-4448",
    "lat": 34.1964,
    "lng": -118.4489775
  },
  {
    "id": "630025217",
    "name": "REAL CARE HOME HEALTH",
    "npi": null,
    "hcaiId": "406197825",
    "businessName": "REAL CARE HOME HEALTH",
    "contactEmail": "REALCAREHOMEHEALTH@GMAIL.COM",
    "categoryName": "HOME HEALTH AGENCY",
    "categoryCode": "HHA",
    "licenseStatus": "ACTIVE",
    "inService": true,
    "licenseNumber": "550008418",
    "licenseEffectiveDate": "02/03/2025",
    "licenseExpirationDate": "02/02/2026",
    "dataDate": "10/18/2025",
    "capacity": 0,
    "address": "7335 VAN NUYS BLVD, SUITE 107-B",
    "city": "VAN NUYS",
    "zip": "91405",
    "county": "LOS ANGELES",
    "phone": "(818) 787-1302",
    "lat": 34.204014,
    "lng": -118.448991
  },
  {
    "id": "630021825",
    "name": "RECOVERY HOSPICE, INC.",
    "npi": null,
    "hcaiId": "406195120",
    "businessName": "RECOVERY HOSPICE, INC.",
    "contactEmail": "RECOVEYHOSPICE@GMAIL.COM",
    "categoryName": "HOSPICE",
    "categoryCode": "HOSPICE",
    "licenseStatus": "ACTIVE",
    "inService": true,
    "licenseNumber": "550007519",
    "licenseEffectiveDate": "12/19/2021",
    "licenseExpirationDate": "12/18/2023",
    "dataDate": "10/18/2025",
    "capacity": 0,
    "address": "7017 VAN NUYS BLVD, SUITE 4",
    "city": "VAN NUYS",
    "zip": "91405",
    "county": "LOS ANGELES",
    "phone": "(747) 307-3197",
    "lat": 34.19793,
    "lng": -118.4489775
  },
  {
    "id": "630016685",
    "name": "REGAL HOME HEALTH, INC.",
    "npi": "1568817419",
    "hcaiId": "406190676",
    "businessName": "REGAL HOME HEALTH, INC.",
    "contactEmail": "REGALHOMEHEALTH@YAHOO.COM",
    "categoryName": "HOME HEALTH AGENCY",
    "categoryCode": "HHA",
    "licenseStatus": "ACTIVE",
    "inService": true,
    "licenseNumber": "550004177",
    "licenseEffectiveDate": "02/27/2025",
    "licenseExpirationDate": "02/26/2026",
    "dataDate": "10/18/2025",
    "capacity": 0,
    "address": "14549 ARCHWOOD STREET, SUITE 321",
    "city": "VAN NUYS",
    "zip": "91405",
    "county": "LOS ANGELES",
    "phone": "(818) 781-7898",
    "lat": 34.193106,
    "lng": -118.45053
  },
  {
    "id": "630017212",
    "name": "RELIEF HOME HEALTH CARE, INC.",
    "npi": "1770934291",
    "hcaiId": "406191732",
    "businessName": "RELIEF HOME HEALTH CARE, INC.",
    "contactEmail": "RELIEFHOMEHEALTH7@GMAIL.COM",
    "categoryName": "HOME HEALTH AGENCY",
    "categoryCode": "HHA",
    "licenseStatus": "ACTIVE",
    "inService": true,
    "licenseNumber": "550004513",
    "licenseEffectiveDate": "12/01/2024",
    "licenseExpirationDate": "11/30/2025",
    "dataDate": "10/18/2025",
    "capacity": 0,
    "address": "7335 VAN NUYS BLVD, SUITE 203",
    "city": "VAN NUYS",
    "zip": "91405",
    "county": "LOS ANGELES",
    "phone": "(818) 588-4881",
    "lat": 34.204014,
    "lng": -118.448991
  },
  {
    "id": "630021811",
    "name": "REQUIEM HOSPICE, INC.",
    "npi": null,
    "hcaiId": "406194912",
    "businessName": "REQUIEM HOSPICE, INC.",
    "contactEmail": "REQUIEMHOSPICE@GMAIL.COM",
    "categoryName": "HOSPICE",
    "categoryCode": "HOSPICE",
    "licenseStatus": "ACTIVE",
    "inService": true,
    "licenseNumber": "550007207",
    "licenseEffectiveDate": "11/18/2025",
    "licenseExpirationDate": "11/17/2027",
    "dataDate": "10/18/2025",
    "capacity": 0,
    "address": "6931 VAN NUYS BLVD, SUITE 331K",
    "city": "VAN NUYS",
    "zip": "91405",
    "county": "LOS ANGELES",
    "phone": "(818) 732-4418",
    "lat": 34.1964,
    "lng": -118.4489775
  },
  {
    "id": "630020210",
    "name": "RIGEL HOSPICE AND PALLIATIVE CARE, INC.",
    "npi": null,
    "hcaiId": "406196981",
    "businessName": "RIGEL HOSPICE AND PALLIATIVE CARE, INC.",
    "contactEmail": "RIGELHOSPICEPALLIATIVE@GMAIL.COM",
    "categoryName": "HOSPICE",
    "categoryCode": "HOSPICE",
    "licenseStatus": "ACTIVE",
    "inService": true,
    "licenseNumber": "550006376",
    "licenseEffectiveDate": "06/03/2023",
    "licenseExpirationDate": "06/02/2025",
    "dataDate": "10/18/2025",
    "capacity": 0,
    "address": "6621 VAN NUYS BLVD, UNIT 100",
    "city": "VAN NUYS",
    "zip": "91405",
    "county": "LOS ANGELES",
    "phone": "(747) 240-6090",
    "lat": 34.19136,
    "lng": -118.449018
  },
  {
    "id": "630025326",
    "name": "ROYALE LIFE HOME HEALTH CARE, INC.",
    "npi": null,
    "hcaiId": null,
    "businessName": "ROYALE LIFE HOME HEALTH CARE, INC.",
    "contactEmail": "ROYALELIFEHOMEHEALTH@GMAIL.COM",
    "categoryName": "HOME HEALTH AGENCY",
    "categoryCode": "HHA",
    "licenseStatus": "ACTIVE",
    "inService": true,
    "licenseNumber": "550009462",
    "licenseEffectiveDate": "10/15/2025",
    "licenseExpirationDate": "10/14/2026",
    "dataDate": "10/18/2025",
    "capacity": 0,
    "address": "6850 VAN NUYS BLVD, SUITE 325",
    "city": "VAN NUYS",
    "zip": "91405",
    "county": "LOS ANGELES",
    "phone": "(818) 254-8404",
    "lat": 34.195329,
    "lng": -118.4484645
  },
  {
    "id": "630018006",
    "name": "SAFECO HOME HEALTH SERVICES, INC.",
    "npi": "1912494832",
    "hcaiId": "406191570",
    "businessName": "SAFECO HOME HEALTH SERVICES, INC.",
    "contactEmail": "SAFECOHOMEHEALTH@GMAIL.COM",
    "categoryName": "HOME HEALTH AGENCY",
    "categoryCode": "HHA",
    "licenseStatus": "ACTIVE",
    "inService": true,
    "licenseNumber": "550004597",
    "licenseEffectiveDate": "02/06/2025",
    "licenseExpirationDate": "02/05/2026",
    "dataDate": "10/18/2025",
    "capacity": 0,
    "address": "6850 VAN NUYS BLVD, SUITE 208",
    "city": "VAN NUYS",
    "zip": "91405",
    "county": "LOS ANGELES",
    "phone": "(818) 465-3204",
    "lat": 34.195401,
    "lng": -118.4481675
  },
  {
    "id": "630017835",
    "name": "SAGE HOME HEALTH CARE, INC.",
    "npi": "1497126296",
    "hcaiId": "406191490",
    "businessName": "SAGE HOME HEALTH CARE, INC.",
    "contactEmail": "SAGEHHC@GMAIL.COM",
    "categoryName": "HOME HEALTH AGENCY",
    "categoryCode": "HHA",
    "licenseStatus": "ACTIVE",
    "inService": true,
    "licenseNumber": "550004570",
    "licenseEffectiveDate": "02/26/2025",
    "licenseExpirationDate": "02/25/2026",
    "dataDate": "10/18/2025",
    "capacity": 0,
    "address": "6850 VAN NUYS BLVD, SUITE 216",
    "city": "VAN NUYS",
    "zip": "91405",
    "county": "LOS ANGELES",
    "phone": "(747) 321-2424",
    "lat": 34.195329,
    "lng": -118.4484645
  },
  {
    "id": "630018018",
    "name": "SAGE HOME HEALTH INC",
    "npi": "1710476981",
    "hcaiId": "406191674",
    "businessName": "SAGE HOME HEALTH INC",
    "contactEmail": "SAGEHH77@GMAIL.COM",
    "categoryName": "HOME HEALTH AGENCY",
    "categoryCode": "HHA",
    "licenseStatus": "ACTIVE",
    "inService": true,
    "licenseNumber": "550004678",
    "licenseEffectiveDate": "08/21/2025",
    "licenseExpirationDate": "05/02/2026",
    "dataDate": "10/18/2025",
    "capacity": 0,
    "address": "7220 WOODMAN AVE, SUITE 207B",
    "city": "VAN NUYS",
    "zip": "91405",
    "county": "LOS ANGELES",
    "phone": "(818) 813-0061",
    "lat": 34.20199052,
    "lng": -118.4311964
  },
  {
    "id": "630021333",
    "name": "SAINT MARK HOSPICE, INC",
    "npi": null,
    "hcaiId": "406193325",
    "businessName": "SAINT MARK HOSPICE, INC",
    "contactEmail": "SAINTMARKHOSPICEINC@GMAIL.COM",
    "categoryName": "HOSPICE",
    "categoryCode": "HOSPICE",
    "licenseStatus": "ACTIVE",
    "inService": true,
    "licenseNumber": "550007163",
    "licenseEffectiveDate": "11/05/2023",
    "licenseExpirationDate": "11/04/2025",
    "dataDate": "10/18/2025",
    "capacity": 0,
    "address": "7311 VAN NUYS BLVD, UNIT 3",
    "city": "VAN NUYS",
    "zip": "91405",
    "county": "LOS ANGELES",
    "phone": "(818) 514-5666",
    "lat": 34.203366,
    "lng": -118.449
  },
  {
    "id": "630021636",
    "name": "SANTA RITA HOSPICE, INC.",
    "npi": null,
    "hcaiId": "406193828",
    "businessName": "SANTA RITA HOSPICE, INC.",
    "contactEmail": "HOSPICE.SANTARITA@YAHOO.COM",
    "categoryName": "HOSPICE",
    "categoryCode": "HOSPICE",
    "licenseStatus": "ACTIVE",
    "inService": true,
    "licenseNumber": "550007243",
    "licenseEffectiveDate": "11/18/2023",
    "licenseExpirationDate": "11/17/2025",
    "dataDate": "10/18/2025",
    "capacity": 0,
    "address": "7311 VAN NUYS BLVD, UNIT 22",
    "city": "VAN NUYS",
    "zip": "91405",
    "county": "LOS ANGELES",
    "phone": "(747) 922-7980",
    "lat": 34.203366,
    "lng": -118.449
  },
  {
    "id": "630028242",
    "name": "SANTO NINO HEALTH CENTER",
    "npi": null,
    "hcaiId": null,
    "businessName": "SANTO NINO HEALTH CENTER",
    "contactEmail": null,
    "categoryName": "PRIMARY CARE CLINIC",
    "categoryCode": "COMTYC",
    "licenseStatus": "ACTIVE",
    "inService": true,
    "licenseNumber": "550008440",
    "licenseEffectiveDate": "03/08/2025",
    "licenseExpirationDate": "03/07/2026",
    "dataDate": "10/18/2025",
    "capacity": 0,
    "address": "15243 VANOWEN ST, SUITE 502",
    "city": "VAN NUYS",
    "zip": "91405",
    "county": "LOS ANGELES",
    "phone": null,
    "lat": 34.19420463,
    "lng": -118.4655246
  },
  {
    "id": "630021086",
    "name": "SAPPHIRE HOSPICE, INC",
    "npi": null,
    "hcaiId": "406193252",
    "businessName": "SAPPHIRE HOSPICE, INC",
    "contactEmail": "SAPPHIREHOSPICE@GMAIL.COM",
    "categoryName": "HOSPICE",
    "categoryCode": "HOSPICE",
    "licenseStatus": "ACTIVE",
    "inService": true,
    "licenseNumber": "550006644",
    "licenseEffectiveDate": "08/04/2025",
    "licenseExpirationDate": "08/03/2027",
    "dataDate": "10/18/2025",
    "capacity": 0,
    "address": "6931 VAN NUYS BLVD, SUITE 314A",
    "city": "VAN NUYS",
    "zip": "91405",
    "county": "LOS ANGELES",
    "phone": "(818) 649-3022",
    "lat": 34.1964,
    "lng": -118.4489775
  },
  {
    "id": "630025865",
    "name": "SEASONED HOME HEALTH",
    "npi": null,
    "hcaiId": "406190208",
    "businessName": "SEASONED HOME HEALTH",
    "contactEmail": "SEASONEDHH@GMAIL.COM",
    "categoryName": "HOME HEALTH AGENCY",
    "categoryCode": "HHA",
    "licenseStatus": "ACTIVE",
    "inService": true,
    "licenseNumber": "550008947",
    "licenseEffectiveDate": "02/05/2025",
    "licenseExpirationDate": "02/04/2026",
    "dataDate": "10/18/2025",
    "capacity": 0,
    "address": "6741 VAN NUYS BLVD, UNIT 252",
    "city": "VAN NUYS",
    "zip": "91405",
    "county": "LOS ANGELES",
    "phone": "(818) 530-4567",
    "lat": 34.193304,
    "lng": -118.449036
  },
  {
    "id": "630021921",
    "name": "SEDONA HOSPICE CARE INC.",
    "npi": null,
    "hcaiId": "406195005",
    "businessName": "SEDONA HOSPICE CARE INC.",
    "contactEmail": "SADONAHOSPICE24@GMAIL.COM",
    "categoryName": "HOSPICE",
    "categoryCode": "HOSPICE",
    "licenseStatus": "ACTIVE",
    "inService": true,
    "licenseNumber": "550007219",
    "licenseEffectiveDate": "01/31/2024",
    "licenseExpirationDate": "11/17/2025",
    "dataDate": "10/18/2025",
    "capacity": 0,
    "address": "7311 VAN NUYS BLVD, UNIT 19",
    "city": "VAN NUYS",
    "zip": "91405",
    "county": "LOS ANGELES",
    "phone": "(747) 268-2828",
    "lat": 34.20339099,
    "lng": -118.449106
  },
  {
    "id": "630025898",
    "name": "SERVE YOU WELL HOME HEALTH CARE",
    "npi": null,
    "hcaiId": "406190347",
    "businessName": "SERVE YOU WELL HOME HEALTH CARE",
    "contactEmail": "SERVEYOUWELLHHC@GMAIL.COM",
    "categoryName": "HOME HEALTH AGENCY",
    "categoryCode": "HHA",
    "licenseStatus": "ACTIVE",
    "inService": true,
    "licenseNumber": "550009105",
    "licenseEffectiveDate": "04/04/2025",
    "licenseExpirationDate": "04/03/2026",
    "dataDate": "10/18/2025",
    "capacity": 0,
    "address": "7324 SEPULVEDA BLVD, SUITE 160",
    "city": "VAN NUYS",
    "zip": "91405",
    "county": "LOS ANGELES",
    "phone": "(747) 233-8023",
    "lat": 34.203663,
    "lng": -118.4659965
  },
  {
    "id": "630021341",
    "name": "SIRIUS HOSPICE CARE SERVICES INC",
    "npi": null,
    "hcaiId": "406195003",
    "businessName": "SIRIUS HOSPICE CARE SERVICES INC",
    "contactEmail": "SIRIUSHOSPICESERVICES@GMAIL.COM",
    "categoryName": "HOSPICE",
    "categoryCode": "HOSPICE",
    "licenseStatus": "ACTIVE",
    "inService": true,
    "licenseNumber": "550007333",
    "licenseEffectiveDate": "11/20/2025",
    "licenseExpirationDate": "11/19/2027",
    "dataDate": "10/18/2025",
    "capacity": 0,
    "address": "6819 SEPULVEDA BLVD, SUITE 212B",
    "city": "VAN NUYS",
    "zip": "91405",
    "county": "LOS ANGELES",
    "phone": "(818) 514-0432",
    "lat": 34.194447,
    "lng": -118.466397
  },
  {
    "id": "630025856",
    "name": "SIX HARMONY HOME HEALTH CARE INC.",
    "npi": null,
    "hcaiId": "406190061",
    "businessName": "SIX HARMONY HOME HEALTH CARE INC",
    "contactEmail": "SIXHARMONYHOMEHEALTH@YAHOO.COM",
    "categoryName": "HOME HEALTH AGENCY",
    "categoryCode": "HHA",
    "licenseStatus": "ACTIVE",
    "inService": true,
    "licenseNumber": "550008882",
    "licenseEffectiveDate": "11/22/2024",
    "licenseExpirationDate": "11/21/2025",
    "dataDate": "10/18/2025",
    "capacity": 0,
    "address": "7324 SEPULVEDA BLVD, SUITE 180",
    "city": "VAN NUYS",
    "zip": "91405",
    "county": "LOS ANGELES",
    "phone": "(747) 577-8495",
    "lat": 34.203663,
    "lng": -118.4659965
  },
  {
    "id": "630025722",
    "name": "SPLENDID HOME HEALTH CARE",
    "npi": null,
    "hcaiId": null,
    "businessName": "SPLENDID HOME HEALTH CARE",
    "contactEmail": "SPLENDIDHHCARE@GMAIL.COM",
    "categoryName": "HOME HEALTH AGENCY",
    "categoryCode": "HHA",
    "licenseStatus": "ACTIVE",
    "inService": true,
    "licenseNumber": "550008879",
    "licenseEffectiveDate": "06/18/2024",
    "licenseExpirationDate": "12/17/2024",
    "dataDate": "10/18/2025",
    "capacity": 0,
    "address": "6742 VAN NUYS BLVD, SUITE 109",
    "city": "VAN NUYS",
    "zip": "91405",
    "county": "LOS ANGELES",
    "phone": "(818) 527-2161",
    "lat": 34.19343299,
    "lng": -118.448391
  },
  {
    "id": "630025863",
    "name": "SPRING HOME HEALTH SERVICES",
    "npi": null,
    "hcaiId": null,
    "businessName": "SPRING HOME HEALTH SERVICES",
    "contactEmail": "4SPRINGHHS@GMAIL.COM",
    "categoryName": "HOME HEALTH AGENCY",
    "categoryCode": "HHA",
    "licenseStatus": "ACTIVE",
    "inService": true,
    "licenseNumber": "550009808",
    "licenseEffectiveDate": "02/26/2025",
    "licenseExpirationDate": "02/25/2026",
    "dataDate": "10/18/2025",
    "capacity": 0,
    "address": "6741 VAN NUYS BLVD, UNIT 251",
    "city": "VAN NUYS",
    "zip": "91405",
    "county": "LOS ANGELES",
    "phone": "(818) 579-9977",
    "lat": 34.193304,
    "lng": -118.449036
  },
  {
    "id": "630021695",
    "name": "ST FRANCIS HOSPICE INC",
    "npi": null,
    "hcaiId": "406190193",
    "businessName": "ST FRANCIS HOSPICE INC",
    "contactEmail": "SAINTFRHOSPICE@GMAIL.COM",
    "categoryName": "HOSPICE",
    "categoryCode": "HOSPICE",
    "licenseStatus": "ACTIVE",
    "inService": true,
    "licenseNumber": "550007548",
    "licenseEffectiveDate": "12/14/2023",
    "licenseExpirationDate": "12/13/2025",
    "dataDate": "10/18/2025",
    "capacity": 0,
    "address": "6621 VAN NUYS BLVD, UNIT 95",
    "city": "VAN NUYS",
    "zip": "91405",
    "county": "LOS ANGELES",
    "phone": "(818) 280-9082",
    "lat": 34.19138199,
    "lng": -118.449175
  },
  {
    "id": "630019994",
    "name": "ST. CHARBEL HOSPICE",
    "npi": null,
    "hcaiId": "406192919",
    "businessName": "ST. CHARBEL HOSPICE, INC",
    "contactEmail": "STCHARBELHC@GMAIL.COM",
    "categoryName": "HOSPICE",
    "categoryCode": "HOSPICE",
    "licenseStatus": "ACTIVE",
    "inService": true,
    "licenseNumber": "550005745",
    "licenseEffectiveDate": "08/26/2024",
    "licenseExpirationDate": "08/25/2026",
    "dataDate": "10/18/2025",
    "capacity": 0,
    "address": "6850 VAN NUYS BLVD, SUITE 309",
    "city": "VAN NUYS",
    "zip": "91405",
    "county": "LOS ANGELES",
    "phone": "(747) 264-0168",
    "lat": 34.195401,
    "lng": -118.4481675
  },
  {
    "id": "980002520",
    "name": "STAR WORLD HOME HEALTH CARE SERVICES, INC.",
    "npi": null,
    "hcaiId": "406197095",
    "businessName": "STAR WORLD HOME HEALTH CARE SERVICES, INC.",
    "contactEmail": "ADMIN@STARWORLDHHCS.COM",
    "categoryName": "HOME HEALTH AGENCY",
    "categoryCode": "HHA",
    "licenseStatus": "ACTIVE",
    "inService": true,
    "licenseNumber": "980001615",
    "licenseEffectiveDate": "09/04/2025",
    "licenseExpirationDate": "09/03/2026",
    "dataDate": "10/18/2025",
    "capacity": 0,
    "address": "7400 VAN NUYS BLVD, SUITE 240",
    "city": "VAN NUYS",
    "zip": "91405",
    "county": "LOS ANGELES",
    "phone": "(818) 994-2224",
    "lat": 34.205193,
    "lng": -118.4484645
  },
  {
    "id": "630020864",
    "name": "STUDIO CARE HOSPICE INC",
    "npi": null,
    "hcaiId": "406193536",
    "businessName": "STUDIO CITY HOSPICE INC",
    "contactEmail": "STUDIOCAREHOSPICE@GMAIL.COM",
    "categoryName": "HOSPICE",
    "categoryCode": "HOSPICE",
    "licenseStatus": "ACTIVE",
    "inService": true,
    "licenseNumber": "550006541",
    "licenseEffectiveDate": "07/16/2025",
    "licenseExpirationDate": "07/15/2027",
    "dataDate": "10/18/2025",
    "capacity": 0,
    "address": "7335 VAN NUYS BLVD, SUITE 224",
    "city": "VAN NUYS",
    "zip": "91405",
    "county": "LOS ANGELES",
    "phone": "(747) 666-0147",
    "lat": 34.204014,
    "lng": -118.448991
  },
  {
    "id": "630016196",
    "name": "SUNRISE CONGREGATE CORP",
    "npi": null,
    "hcaiId": "206190992",
    "businessName": "SUNRISE CONGREGATE CORP",
    "contactEmail": "SUNRISECONCREGATEFACILITY@GMAIL.COM",
    "categoryName": "CONGREGATE LIVING HEALTH FACILITY",
    "categoryCode": "CLHF",
    "licenseStatus": "ACTIVE",
    "inService": true,
    "licenseNumber": "550004032",
    "licenseEffectiveDate": "09/19/2025",
    "licenseExpirationDate": "09/18/2026",
    "dataDate": "10/18/2025",
    "capacity": 6,
    "address": "14538 LEADWELL ST.",
    "city": "VAN NUYS",
    "zip": "91405",
    "county": "LOS ANGELES",
    "phone": "(818) 208-9593",
    "lat": 34.203699,
    "lng": -118.450251
  },
  {
    "id": "930001751",
    "name": "SUNRISE SURGICAL CENTER",
    "npi": null,
    "hcaiId": null,
    "businessName": null,
    "contactEmail": "NONE@DHS.CA.GOV",
    "categoryName": "SURGICAL CLINIC",
    "categoryCode": "ASC",
    "licenseStatus": null,
    "inService": null,
    "licenseNumber": null,
    "licenseEffectiveDate": null,
    "licenseExpirationDate": null,
    "dataDate": "10/18/2025",
    "capacity": 0,
    "address": "14600 SHERMAN WAY, SUITE 200A",
    "city": "VAN NUYS",
    "zip": "91405",
    "county": "LOS ANGELES",
    "phone": "(818) 782-0555",
    "lat": 34.200504,
    "lng": -118.45062
  },
  {
    "id": "060001921",
    "name": "SUNSHINE ADULT DAY HEALTH CARE CENTER",
    "npi": null,
    "hcaiId": null,
    "businessName": "VALLEY HEALTH CARE SERVICES, INC.",
    "contactEmail": "SUNSHINEADHCVN@YAHOO.COM",
    "categoryName": "ADULT DAY HEALTH CARE",
    "categoryCode": "ADHC",
    "licenseStatus": "ACTIVE",
    "inService": true,
    "licenseNumber": "060000738",
    "licenseEffectiveDate": "03/19/2025",
    "licenseExpirationDate": "03/18/2026",
    "dataDate": "10/18/2025",
    "capacity": 0,
    "address": "7400 VAN NUYS BLVD, SUITE 100",
    "city": "VAN NUYS",
    "zip": "91405",
    "county": "LOS ANGELES",
    "phone": "(818) 988-7779",
    "lat": 34.205193,
    "lng": -118.4484645
  },
  {
    "id": "630020765",
    "name": "SYMPATHY HOSPICE, INC",
    "npi": null,
    "hcaiId": "406194914",
    "businessName": "SYMPATHY HOSPICE, INC.",
    "contactEmail": "SYMPATHYHOSPICE@GMAIL.COM",
    "categoryName": "HOSPICE",
    "categoryCode": "HOSPICE",
    "licenseStatus": "ACTIVE",
    "inService": true,
    "licenseNumber": "550007072",
    "licenseEffectiveDate": "10/14/2023",
    "licenseExpirationDate": "10/13/2025",
    "dataDate": "10/18/2025",
    "capacity": 0,
    "address": "6621 VAN NUYS BLVD, SUITE 96",
    "city": "VAN NUYS",
    "zip": "91405",
    "county": "LOS ANGELES",
    "phone": "(747) 270-9040",
    "lat": 34.19136,
    "lng": -118.449018
  },
  {
    "id": "920000302",
    "name": "TERRACE POST ACUTE",
    "npi": "1780835611",
    "hcaiId": "206196069",
    "businessName": "WINDSOR TERRACE HEALTHCARE, LLC",
    "contactEmail": "ADMINISTRATOR@WINDSORTERRACECARE.COM",
    "categoryName": "SKILLED NURSING FACILITY",
    "categoryCode": "SNF",
    "licenseStatus": "ACTIVE",
    "inService": true,
    "licenseNumber": "920000125",
    "licenseEffectiveDate": "09/04/2025",
    "licenseExpirationDate": "12/21/2025",
    "dataDate": "10/18/2025",
    "capacity": 133,
    "address": "7447 SEPULVEDA BLVD",
    "city": "VAN NUYS",
    "zip": "91405",
    "county": "LOS ANGELES",
    "phone": "(818) 787-3400",
    "lat": 34.206282,
    "lng": -118.466775
  },
  {
    "id": "920000069",
    "name": "THE CARE CENTER ON HAZELTINE, LLC",
    "npi": "1831752377",
    "hcaiId": "206191274",
    "businessName": "THE CARE CENTER ON HAZELTINE, LLC",
    "contactEmail": "JOHN.VALENCIA@CARECENTERONHAZELTINE.COM",
    "categoryName": "SKILLED NURSING FACILITY",
    "categoryCode": "SNF",
    "licenseStatus": "ACTIVE",
    "inService": true,
    "licenseNumber": "920000087",
    "licenseEffectiveDate": "12/01/2024",
    "licenseExpirationDate": "11/30/2025",
    "dataDate": "10/18/2025",
    "capacity": 58,
    "address": "6835 HAZELTINE AVE",
    "city": "VAN NUYS",
    "zip": "91405",
    "county": "LOS ANGELES",
    "phone": "(818) 997-1841",
    "lat": 34.194951,
    "lng": -118.440495
  },
  {
    "id": "930000373",
    "name": "THOMAS MAZZOCCO AMBULATORY SURGICAL CENTER",
    "npi": "1255314662",
    "hcaiId": null,
    "businessName": null,
    "contactEmail": "NONE@DHS.CA.GOV",
    "categoryName": "SURGICAL CLINIC",
    "categoryCode": "ASC",
    "licenseStatus": null,
    "inService": null,
    "licenseNumber": null,
    "licenseEffectiveDate": null,
    "licenseExpirationDate": null,
    "dataDate": "10/18/2025",
    "capacity": 0,
    "address": "15243 VANOWEN ST",
    "city": "VAN NUYS",
    "zip": "91405",
    "county": "LOS ANGELES",
    "phone": "(818) 781-2020",
    "lat": 34.19406,
    "lng": -118.465047
  },
  {
    "id": "630012882",
    "name": "TRI-CARE HOME HEALTH SERVICES, INC.",
    "npi": null,
    "hcaiId": "406197550",
    "businessName": "TRI-CARE HOME HEALTH SERVICES, INC.",
    "contactEmail": "TRI-CARE@ATT.NET",
    "categoryName": "HOME HEALTH AGENCY",
    "categoryCode": "HHA",
    "licenseStatus": "ACTIVE",
    "inService": true,
    "licenseNumber": "550001582",
    "licenseEffectiveDate": "05/12/2024",
    "licenseExpirationDate": "05/11/2025",
    "dataDate": "10/18/2025",
    "capacity": 0,
    "address": "14126 SHERMAN WAY, SUITE 11",
    "city": "VAN NUYS",
    "zip": "91405",
    "county": "LOS ANGELES",
    "phone": "(818) 779-0654",
    "lat": 34.20081,
    "lng": -118.441008
  },
  {
    "id": "930000203",
    "name": "U.S. RENAL CARE VAN NUYS DIALYSIS",
    "npi": "1184660169",
    "hcaiId": "306191220",
    "businessName": "KIDNEY CENTER OF VAN NUYS, INC.",
    "contactEmail": "AHMAD.RASHID@USRENALCARE.COM",
    "categoryName": "CHRONIC DIALYSIS CLINIC",
    "categoryCode": "ESRD/CDC",
    "licenseStatus": "ACTIVE",
    "inService": true,
    "licenseNumber": "930000269",
    "licenseEffectiveDate": "11/20/2024",
    "licenseExpirationDate": "11/19/2025",
    "dataDate": "10/18/2025",
    "capacity": 15,
    "address": "14624 SHERMAN WAY, SUITE 106",
    "city": "VAN NUYS",
    "zip": "91405",
    "county": "LOS ANGELES",
    "phone": "(818) 994-2332",
    "lat": 34.200675,
    "lng": -118.451493
  },
  {
    "id": "630020900",
    "name": "ULTRA CARE HOSPICE, INC",
    "npi": null,
    "hcaiId": "406196729",
    "businessName": "ULTRA CARE HOSPICE, INC",
    "contactEmail": "ULTRA.CARE.HOSPICE2020@GMAIL.COM",
    "categoryName": "HOSPICE",
    "categoryCode": "HOSPICE",
    "licenseStatus": "ACTIVE",
    "inService": true,
    "licenseNumber": "550006294",
    "licenseEffectiveDate": "05/19/2025",
    "licenseExpirationDate": "05/18/2027",
    "dataDate": "10/18/2025",
    "capacity": 0,
    "address": "6850 VAN NUYS BLVD, SUITE 316",
    "city": "VAN NUYS",
    "zip": "91405",
    "county": "LOS ANGELES",
    "phone": "(818) 285-8359",
    "lat": 34.195401,
    "lng": -118.4481675
  },
  {
    "id": "630027265",
    "name": "UNITED CARE HOME HEALTH INC",
    "npi": null,
    "hcaiId": null,
    "businessName": "UNITED CARE HOME HEALTH INC",
    "contactEmail": "UNITEDCAREHHI@GMAIL.COM",
    "categoryName": "HOME HEALTH AGENCY",
    "categoryCode": "HHA",
    "licenseStatus": "ACTIVE",
    "inService": true,
    "licenseNumber": "550009895",
    "licenseEffectiveDate": "07/18/2025",
    "licenseExpirationDate": "01/17/2026",
    "dataDate": "10/18/2025",
    "capacity": 0,
    "address": "6742 VAN NUYS BLVD, SUITE 101",
    "city": "VAN NUYS",
    "zip": "91405",
    "county": "LOS ANGELES",
    "phone": "(818) 731-4114",
    "lat": 34.19343299,
    "lng": -118.448391
  },
  {
    "id": "630021319",
    "name": "V & A HOSPICE CARE, INC.",
    "npi": null,
    "hcaiId": "406195155",
    "businessName": "V & A HOSPICE CARE, INC.",
    "contactEmail": "VANDAHOSPICE1@GMAIL.COM",
    "categoryName": "HOSPICE",
    "categoryCode": "HOSPICE",
    "licenseStatus": "ACTIVE",
    "inService": true,
    "licenseNumber": "550007558",
    "licenseEffectiveDate": "12/14/2023",
    "licenseExpirationDate": "12/13/2025",
    "dataDate": "10/18/2025",
    "capacity": 0,
    "address": "13645 VANOWEN ST, SUITE A",
    "city": "VAN NUYS",
    "zip": "91405",
    "county": "LOS ANGELES",
    "phone": "(818) 616-3191",
    "lat": 34.194078,
    "lng": -118.4305095
  },
  {
    "id": "930000231",
    "name": "VALLEY DIALYSIS",
    "npi": "1437112414",
    "hcaiId": "306197819",
    "businessName": "TOTAL RENAL CARE, INC.",
    "contactEmail": "CAL_C@DAVITA.COM",
    "categoryName": "CHRONIC DIALYSIS CLINIC",
    "categoryCode": "ESRD/CDC",
    "licenseStatus": "ACTIVE",
    "inService": true,
    "licenseNumber": "930000247",
    "licenseEffectiveDate": "01/01/2025",
    "licenseExpirationDate": "12/31/2025",
    "dataDate": "10/18/2025",
    "capacity": 34,
    "address": "6840 SEPULVEDA BLVD, SUITE 101",
    "city": "VAN NUYS",
    "zip": "91405",
    "county": "LOS ANGELES",
    "phone": "(818) 779-1450",
    "lat": 34.195221,
    "lng": -118.465956
  },
  {
    "id": "630021470",
    "name": "VALLEY HOSPICE CARE, INC.",
    "npi": null,
    "hcaiId": "406195929",
    "businessName": "VALLEY HOSPICE CARE, INC.",
    "contactEmail": "VALLEYHOSPICE2020@GMAIL.COM",
    "categoryName": "HOSPICE",
    "categoryCode": "HOSPICE",
    "licenseStatus": "ACTIVE",
    "inService": true,
    "licenseNumber": "550007279",
    "licenseEffectiveDate": "11/23/2021",
    "licenseExpirationDate": "11/22/2023",
    "dataDate": "10/18/2025",
    "capacity": 0,
    "address": "7311 VAN NUYS BLVD, UNIT 24",
    "city": "VAN NUYS",
    "zip": "91405",
    "county": "LOS ANGELES",
    "phone": "(818) 659-6964",
    "lat": 34.203326,
    "lng": -118.448783
  },
  {
    "id": "930000129",
    "name": "VALLEY PRESBYTERIAN HOSPITAL",
    "npi": "1578529285",
    "hcaiId": "106190812",
    "businessName": "VALLEY PRESBYTERIAN HOSPITAL",
    "contactEmail": "LORI.CARDLE@VALLEYPRES.ORG",
    "categoryName": "GENERAL ACUTE CARE HOSPITAL",
    "categoryCode": "GACH",
    "licenseStatus": "ACTIVE",
    "inService": true,
    "licenseNumber": "930000170",
    "licenseEffectiveDate": "05/01/2025",
    "licenseExpirationDate": "04/30/2026",
    "dataDate": "10/18/2025",
    "capacity": 350,
    "address": "15107 VANOWEN ST",
    "city": "VAN NUYS",
    "zip": "91405",
    "county": "LOS ANGELES",
    "phone": "(818) 782-6600",
    "lat": 34.194384,
    "lng": -118.462752
  },
  {
    "id": "630017850",
    "name": "VALLEY VILLAGE HOME CARE, INC.",
    "npi": "1871007724",
    "hcaiId": "406191896",
    "businessName": "VALLEY VILLAGE HOME CARE, INC.",
    "contactEmail": "VVHC@YAHOO.COM",
    "categoryName": "HOME HEALTH AGENCY",
    "categoryCode": "HHA",
    "licenseStatus": "ACTIVE",
    "inService": true,
    "licenseNumber": "550004963",
    "licenseEffectiveDate": "06/26/2025",
    "licenseExpirationDate": "06/25/2026",
    "dataDate": "10/18/2025",
    "capacity": 0,
    "address": "6850 VAN NUYS BLVD, SUITE 220",
    "city": "VAN NUYS",
    "zip": "91405",
    "county": "LOS ANGELES",
    "phone": "(818) 579-4763",
    "lat": 34.19540098,
    "lng": -118.448189
  },
  {
    "id": "630017108",
    "name": "VAN NUYS DIALYSIS",
    "npi": null,
    "hcaiId": "306197666",
    "businessName": "CALANTE DIALYSIS LLC",
    "contactEmail": "CAL_C@DAVITA.COM",
    "categoryName": "CHRONIC DIALYSIS CLINIC",
    "categoryCode": "ESRD/CDC",
    "licenseStatus": "ACTIVE",
    "inService": true,
    "licenseNumber": "550004093",
    "licenseEffectiveDate": "12/13/2024",
    "licenseExpirationDate": "12/12/2025",
    "dataDate": "10/18/2025",
    "capacity": 37,
    "address": "14434 SHERMAN WAY",
    "city": "VAN NUYS",
    "zip": "91405",
    "county": "LOS ANGELES",
    "phone": "(818) 787-8225",
    "lat": 34.201026,
    "lng": -118.447632
  },
  {
    "id": "630027224",
    "name": "VAN NUYS WOMEN'S AND REPRODUCTIVE HEALTH CENTER",
    "npi": "1629079009",
    "hcaiId": null,
    "businessName": "NORTHEAST VALLEY HEALTH CORPORATION",
    "contactEmail": null,
    "categoryName": "PRIMARY CARE CLINIC",
    "categoryCode": "COMTYC",
    "licenseStatus": "ACTIVE",
    "inService": true,
    "licenseNumber": "960000947",
    "licenseEffectiveDate": "05/09/2025",
    "licenseExpirationDate": "05/08/2026",
    "dataDate": "10/18/2025",
    "capacity": 0,
    "address": "14624 SHERMAN WAY, SUITE 307",
    "city": "VAN NUYS",
    "zip": "91405",
    "county": "LOS ANGELES",
    "phone": null,
    "lat": 34.20047501,
    "lng": -118.451724
  },
  {
    "id": "630027226",
    "name": "VAN NUYS WOMEN'S AND REPRODUCTIVE HEALTH CENTER",
    "npi": "1629079009",
    "hcaiId": null,
    "businessName": "NORTHEAST VALLEY HEALTH CORPORATION",
    "contactEmail": null,
    "categoryName": "PRIMARY CARE CLINIC",
    "categoryCode": "COMTYC",
    "licenseStatus": "ACTIVE",
    "inService": true,
    "licenseNumber": "960000947",
    "licenseEffectiveDate": "05/09/2025",
    "licenseExpirationDate": "05/08/2026",
    "dataDate": "10/18/2025",
    "capacity": 0,
    "address": "14624 SHERMAN WAY, SUITE 306",
    "city": "VAN NUYS",
    "zip": "91405",
    "county": "LOS ANGELES",
    "phone": null,
    "lat": 34.20047501,
    "lng": -118.451724
  },
  {
    "id": "630020462",
    "name": "VIBRANT HOSPICE CARE, INC",
    "npi": null,
    "hcaiId": "406193604",
    "businessName": "VIBRANT HOSPICE CARE, INC",
    "contactEmail": "VIBRANTHOSPICECARE@GMAIL.COM",
    "categoryName": "HOSPICE",
    "categoryCode": "HOSPICE",
    "licenseStatus": "ACTIVE",
    "inService": true,
    "licenseNumber": "550006545",
    "licenseEffectiveDate": "07/12/2025",
    "licenseExpirationDate": "07/11/2027",
    "dataDate": "10/18/2025",
    "capacity": 0,
    "address": "6931 VAN NUYS BLVD, SUITE 331",
    "city": "VAN NUYS",
    "zip": "91405",
    "county": "LOS ANGELES",
    "phone": "(818) 649-3026",
    "lat": 34.19649,
    "lng": -118.449189
  },
  {
    "id": "630020555",
    "name": "VITAS HOSPICE CARE, INC",
    "npi": null,
    "hcaiId": "406196717",
    "businessName": "VITAS HOSPICE CARE, INC.",
    "contactEmail": "INFO@VITASCAREINC.COM",
    "categoryName": "HOSPICE",
    "categoryCode": "HOSPICE",
    "licenseStatus": "ACTIVE",
    "inService": true,
    "licenseNumber": "550006058",
    "licenseEffectiveDate": "02/04/2023",
    "licenseExpirationDate": "02/03/2025",
    "dataDate": "10/18/2025",
    "capacity": 0,
    "address": "6741 VAN NUYS BLVD, SUITE 208",
    "city": "VAN NUYS",
    "zip": "91405",
    "county": "LOS ANGELES",
    "phone": "(626) 313-2505",
    "lat": 34.193322,
    "lng": -118.449126
  },
  {
    "id": "630020693",
    "name": "WARM HEART HOSPICE, INC.",
    "npi": null,
    "hcaiId": "406193794",
    "businessName": "WARM HEART HOSPICE, INC.",
    "contactEmail": "WARMHEARTINC@GMAIL.COM",
    "categoryName": "HOSPICE",
    "categoryCode": "HOSPICE",
    "licenseStatus": "ACTIVE",
    "inService": true,
    "licenseNumber": "550006765",
    "licenseEffectiveDate": "09/03/2023",
    "licenseExpirationDate": "09/02/2025",
    "dataDate": "10/18/2025",
    "capacity": 0,
    "address": "14126 SHERMAN WAY, SUITE 3",
    "city": "VAN NUYS",
    "zip": "91405",
    "county": "LOS ANGELES",
    "phone": "(818) 616-3334",
    "lat": 34.201026,
    "lng": -118.4409495
  },
  {
    "id": "630020460",
    "name": "WATER LILY HOSPICE, INC.",
    "npi": null,
    "hcaiId": "406193413",
    "businessName": "WATER LILY HOSPICE, INC.",
    "contactEmail": "WATERLILYHOSPICEINC@GMAIL.COM",
    "categoryName": "HOSPICE",
    "categoryCode": "HOSPICE",
    "licenseStatus": "ACTIVE",
    "inService": true,
    "licenseNumber": "550007067",
    "licenseEffectiveDate": "09/14/2025",
    "licenseExpirationDate": "09/13/2027",
    "dataDate": "10/18/2025",
    "capacity": 0,
    "address": "6931 VAN NUYS BLVD, SUITE 315C",
    "city": "VAN NUYS",
    "zip": "91405",
    "county": "LOS ANGELES",
    "phone": "(602) 654-3573",
    "lat": 34.1964,
    "lng": -118.4489775
  },
  {
    "id": "630015096",
    "name": "WELL CARE CONGREGATE LIVING HEALTH FACILITY INC",
    "npi": null,
    "hcaiId": "206198401",
    "businessName": "WELL CARE CONGREGATE LIVING HEALTH FACILITY INC",
    "contactEmail": "WELLCARECLHFINC@YAHOO.COM",
    "categoryName": "CONGREGATE LIVING HEALTH FACILITY",
    "categoryCode": "CLHF",
    "licenseStatus": "ACTIVE",
    "inService": true,
    "licenseNumber": "550003825",
    "licenseEffectiveDate": "03/17/2025",
    "licenseExpirationDate": "03/16/2026",
    "dataDate": "10/18/2025",
    "capacity": 6,
    "address": "14926 VOSE ST",
    "city": "VAN NUYS",
    "zip": "91405",
    "county": "LOS ANGELES",
    "phone": "(818) 646-1138",
    "lat": 34.19838288,
    "lng": -118.4582316
  },
  {
    "id": "630024376",
    "name": "WISE CHOICE HOME HEALTH CARE, INC.",
    "npi": null,
    "hcaiId": "406196407",
    "businessName": "WISE CHOICE HOME HEALTH CARE, INC.",
    "contactEmail": "WISECHOICEHHC@GMAIL.COM",
    "categoryName": "HOME HEALTH AGENCY",
    "categoryCode": "HHA",
    "licenseStatus": "ACTIVE",
    "inService": true,
    "licenseNumber": "550008500",
    "licenseEffectiveDate": "04/27/2025",
    "licenseExpirationDate": "04/26/2026",
    "dataDate": "10/18/2025",
    "capacity": 0,
    "address": "7017 VAN NUYS BLVD, SUITE 3",
    "city": "VAN NUYS",
    "zip": "91405",
    "county": "LOS ANGELES",
    "phone": "(818) 561-1130",
    "lat": 34.19793,
    "lng": -118.4489775
  }
]