[
  {
    "id": "630026540",
    "name": "7 STAR HOME HEALTH CARE",
    "npi": null,
    "hcaiId": null,
    "businessName": "7 STAR HOME HEALTH CARE",
    "contactEmail": "7STARHHC@GMAIL.COM",
    "categoryName": "HOME HEALTH AGENCY",
    "categoryCode": "HHA",
    "licenseStatus": "ACTIVE",
    "inService": true,
    "licenseNumber": "550009628",
    "licenseEffectiveDate": "08/14/2025",
    "licenseExpirationDate": "02/13/2026",
    "dataDate": "10/18/2025",
    "capacity": 0,
    "address": "13615 VICTORY BLVD, SUITE 119",
    "city": "VAN NUYS",
    "zip": "91401",
    "county": "LOS ANGELES",
    "phone": "(310) 773-4485",
    "lat": 34.186833,
    "lng": -118.429578
  },
  {
    "id": "630026082",
    "name": "A.L CARE CORP",
    "npi": null,
    "hcaiId": null,
    "businessName": "A.L CARE CORP",
    "contactEmail": "A.L.CARE2022@GMAIL.COM",
    "categoryName": "HOME HEALTH AGENCY",
    "categoryCode": "HHA",
    "licenseStatus": "ACTIVE",
    "inService": true,
    "licenseNumber": "550009181",
    "licenseEffectiveDate": "03/08/2025",
    "licenseExpirationDate": "03/07/2026",
    "dataDate": "10/18/2025",
    "capacity": 0,
    "address": "6356 VAN NUYS BLVD, SUITE 217",
    "city": "VAN NUYS",
    "zip": "91401",
    "county": "LOS ANGELES",
    "phone": "(818) 530-4545",
    "lat": 34.185915,
    "lng": -118.448451
  },
  {
    "id": "630014926",
    "name": "ABUNDANT HOME HEALTH CARE, INC.",
    "npi": "1023440302",
    "hcaiId": "406198230",
    "businessName": "ABUNDANT HOME HEALTH CARE, INC.",
    "contactEmail": "ABUNDANTHHINC@GMAIL.COM",
    "categoryName": "HOME HEALTH AGENCY",
    "categoryCode": "HHA",
    "licenseStatus": "ACTIVE",
    "inService": true,
    "licenseNumber": "550003482",
    "licenseEffectiveDate": "04/25/2023",
    "licenseExpirationDate": "04/24/2024",
    "dataDate": "10/18/2025",
    "capacity": 0,
    "address": "6314 VAN NUYS BOULEVARD, SUITE 200",
    "city": "VAN NUYS",
    "zip": "91401",
    "county": "LOS ANGELES",
    "phone": "(818) 782-2826",
    "lat": 34.185132,
    "lng": -118.4484825
  },
  {
    "id": "630025926",
    "name": "ACTIVE HOME HEALTH",
    "npi": null,
    "hcaiId": "406190331",
    "businessName": "ACTIVE HOME HEALTH",
    "contactEmail": "ACTIVEHOMECARE_INC@YAHOO.COM",
    "categoryName": "HOME HEALTH AGENCY",
    "categoryCode": "HHA",
    "licenseStatus": "ACTIVE",
    "inService": true,
    "licenseNumber": "550009095",
    "licenseEffectiveDate": "04/01/2025",
    "licenseExpirationDate": "03/31/2026",
    "dataDate": "10/18/2025",
    "capacity": 0,
    "address": "6360 VAN NUYS BLVD, SUITE 201",
    "city": "VAN NUYS",
    "zip": "91401",
    "county": "LOS ANGELES",
    "phone": "(818) 387-6048",
    "lat": 34.186041,
    "lng": -118.4484285
  },
  {
    "id": "630011936",
    "name": "ADVANCED QUALITY HOME CARE, INC.",
    "npi": null,
    "hcaiId": "406197381",
    "businessName": "ADVANCED QUALITY HOME CARE, INC.",
    "contactEmail": "ADVANCEDQUALITYHOMECAREINC@GMAIL.COM",
    "categoryName": "HOME HEALTH AGENCY",
    "categoryCode": "HHA",
    "licenseStatus": "ACTIVE",
    "inService": true,
    "licenseNumber": "550001253",
    "licenseEffectiveDate": "11/05/2025",
    "licenseExpirationDate": "11/04/2026",
    "dataDate": "10/18/2025",
    "capacity": 0,
    "address": "6454 VAN NUYS BLVD, SUITE 111",
    "city": "VAN NUYS",
    "zip": "91401",
    "county": "LOS ANGELES",
    "phone": "(818) 778-6513",
    "lat": 34.1878736,
    "lng": -118.4503828
  },
  {
    "id": "630022912",
    "name": "AGAPI HOME HEALTH INC.",
    "npi": null,
    "hcaiId": "406195430",
    "businessName": "AGAPI HOME HEALTH INC.",
    "contactEmail": "AGAPIHH@GMAIL.COM",
    "categoryName": "HOME HEALTH AGENCY",
    "categoryCode": "HHA",
    "licenseStatus": "ACTIVE",
    "inService": true,
    "licenseNumber": "550007869",
    "licenseEffectiveDate": "03/01/2025",
    "licenseExpirationDate": "02/28/2026",
    "dataDate": "10/18/2025",
    "capacity": 0,
    "address": "6363 VAN NUYS BLVD, SUITE B",
    "city": "VAN NUYS",
    "zip": "91401",
    "county": "LOS ANGELES",
    "phone": "(818) 252-9155",
    "lat": 34.186113,
    "lng": -118.449027
  },
  {
    "id": "630019503",
    "name": "AGM HOSPICE CARE INC",
    "npi": null,
    "hcaiId": null,
    "businessName": "AGM HOSPICE CARE INC",
    "contactEmail": "HELENPAK425@GMAIL.COM",
    "categoryName": "HOSPICE",
    "categoryCode": "HOSPICE",
    "licenseStatus": "ACTIVE",
    "inService": true,
    "licenseNumber": "550005923",
    "licenseEffectiveDate": "12/05/2022",
    "licenseExpirationDate": "12/04/2024",
    "dataDate": "10/18/2025",
    "capacity": 0,
    "address": "14401 GILMORE ST, #103",
    "city": "VAN NUYS",
    "zip": "91401",
    "county": "LOS ANGELES",
    "phone": "(914) 227-9220",
    "lat": 34.187832,
    "lng": -118.446714
  },
  {
    "id": "630015516",
    "name": "ALL CARE LIVING HOME, INC.",
    "npi": null,
    "hcaiId": "206198462",
    "businessName": "ALL CARE LIVING HOME, INC.",
    "contactEmail": "INFO@ALLCARELIVINGHOME.COM",
    "categoryName": "CONGREGATE LIVING HEALTH FACILITY",
    "categoryCode": "CLHF",
    "licenseStatus": "ACTIVE",
    "inService": true,
    "licenseNumber": "550003824",
    "licenseEffectiveDate": "03/01/2025",
    "licenseExpirationDate": "02/28/2026",
    "dataDate": "10/18/2025",
    "capacity": 6,
    "address": "5450 TYRONE AVE",
    "city": "SHERMAN OAKS",
    "zip": "91401",
    "county": "LOS ANGELES",
    "phone": "(818) 616-3643",
    "lat": 34.170102,
    "lng": -118.443996
  },
  {
    "id": "630019448",
    "name": "ALL INCLUSIVE HOSPICE CARE, INC.",
    "npi": "1720629389",
    "hcaiId": "406192578",
    "businessName": "ALL INCLUSIVE HOSPICE CARE, INC.",
    "contactEmail": "ALLINCLUSIVEHC@GMAIL.COM",
    "categoryName": "HOSPICE",
    "categoryCode": "HOSPICE",
    "licenseStatus": "ACTIVE",
    "inService": true,
    "licenseNumber": "550005318",
    "licenseEffectiveDate": "01/29/2020",
    "licenseExpirationDate": "01/28/2022",
    "dataDate": "10/18/2025",
    "capacity": 0,
    "address": "6454 VAN NUYS BLVD, SUITE 5",
    "city": "VAN NUYS",
    "zip": "91401",
    "county": "LOS ANGELES",
    "phone": "(818) 756-2013",
    "lat": 34.187787,
    "lng": -118.4484465
  },
  {
    "id": "630018730",
    "name": "ALLEGIANCE HOME HEALTH SERVICES, INC.",
    "npi": null,
    "hcaiId": "406192471",
    "businessName": "ALLEGIANCE HOME HEALTH SERVICES, INC.",
    "contactEmail": "ALLEGIANCEHHSERVICES@GMAIL.COM",
    "categoryName": "HOME HEALTH AGENCY",
    "categoryCode": "HHA",
    "licenseStatus": "ACTIVE",
    "inService": true,
    "licenseNumber": "550005460",
    "licenseEffectiveDate": "02/07/2025",
    "licenseExpirationDate": "02/06/2026",
    "dataDate": "10/18/2025",
    "capacity": 0,
    "address": "13609 VICTORY BLVD, SUITE 234",
    "city": "VAN NUYS",
    "zip": "91401",
    "county": "LOS ANGELES",
    "phone": "(818) 740-8928",
    "lat": 34.186842,
    "lng": -118.4293575
  },
  {
    "id": "630020615",
    "name": "ALLEGIANCE HOSPICE, INC.",
    "npi": null,
    "hcaiId": "406194830",
    "businessName": "ALLEGIANCE HOSPICE, INC.",
    "contactEmail": "HOSPICE.ALLEGIANCE@GMAIL.COM",
    "categoryName": "HOSPICE",
    "categoryCode": "HOSPICE",
    "licenseStatus": "ACTIVE",
    "inService": true,
    "licenseNumber": "550006836",
    "licenseEffectiveDate": "09/10/2021",
    "licenseExpirationDate": "09/09/2023",
    "dataDate": "10/18/2025",
    "capacity": 0,
    "address": "13609 VICTORY BLVD, SUITE 247-A",
    "city": "VAN NUYS",
    "zip": "91401",
    "county": "LOS ANGELES",
    "phone": "(818) 290-3722",
    "lat": 34.186842,
    "lng": -118.4293575
  },
  {
    "id": "630022343",
    "name": "AMK HOME HEALTH CARE INC",
    "npi": null,
    "hcaiId": "406193808",
    "businessName": "AMK HOME HEALTH CARE INC",
    "contactEmail": "AMKHOMEHEALTH@YAHOO.COM",
    "categoryName": "HOME HEALTH AGENCY",
    "categoryCode": "HHA",
    "licenseStatus": "ACTIVE",
    "inService": true,
    "licenseNumber": "550007246",
    "licenseEffectiveDate": "11/23/2025",
    "licenseExpirationDate": "11/22/2026",
    "dataDate": "10/18/2025",
    "capacity": 0,
    "address": "14349 VICTORY BLVD, SUITE 307",
    "city": "VAN NUYS",
    "zip": "91401",
    "county": "LOS ANGELES",
    "phone": "(818) 452-8848",
    "lat": 34.186851,
    "lng": -118.4460705
  },
  {
    "id": "630021869",
    "name": "ANGEL WINGS HOME HEALTH SERVICES, INC.",
    "npi": null,
    "hcaiId": "406195894",
    "businessName": "ANGEL WINGS HOME HEALTH SERVICES, INC.",
    "contactEmail": "ANGELWINGSHHS@GMAIL.COM",
    "categoryName": "HOME HEALTH AGENCY",
    "categoryCode": "HHA",
    "licenseStatus": "ACTIVE",
    "inService": true,
    "licenseNumber": "550008088",
    "licenseEffectiveDate": "07/07/2025",
    "licenseExpirationDate": "07/06/2026",
    "dataDate": "10/18/2025",
    "capacity": 0,
    "address": "6410 VAN NUYS BLVD, SUITE F1",
    "city": "VAN NUYS",
    "zip": "91401",
    "county": "LOS ANGELES",
    "phone": "(747) 966-0009",
    "lat": 34.187076,
    "lng": -118.4484465
  },
  {
    "id": "630017680",
    "name": "ANGELICAL HOME HEALTH, INC.",
    "npi": null,
    "hcaiId": "406191993",
    "businessName": "ANGELICAL HOME HEALTH, INC.",
    "contactEmail": "ANGELICALHH22@GMAIL.COM",
    "categoryName": "HOME HEALTH AGENCY",
    "categoryCode": "HHA",
    "licenseStatus": "ACTIVE",
    "inService": true,
    "licenseNumber": "550004919",
    "licenseEffectiveDate": "09/07/2024",
    "licenseExpirationDate": "09/06/2025",
    "dataDate": "10/18/2025",
    "capacity": 0,
    "address": "14349 VICTORY BLVD, SUITE 203B",
    "city": "VAN NUYS",
    "zip": "91401",
    "county": "LOS ANGELES",
    "phone": "(818) 330-5577",
    "lat": 34.186851,
    "lng": -118.4460705
  },
  {
    "id": "630014481",
    "name": "ANGELICAL HOSPICE",
    "npi": "1073951851",
    "hcaiId": "406198380",
    "businessName": "ANGELICAL HOSPICE",
    "contactEmail": "ANGELICALHOSPICE@YAHOO.COM",
    "categoryName": "HOSPICE",
    "categoryCode": "HOSPICE",
    "licenseStatus": "ACTIVE",
    "inService": true,
    "licenseNumber": "550002965",
    "licenseEffectiveDate": "12/22/2024",
    "licenseExpirationDate": "12/21/2026",
    "dataDate": "10/18/2025",
    "capacity": 0,
    "address": "14349 VICTORY BLVD, SUITE 204",
    "city": "VAN NUYS",
    "zip": "91401",
    "county": "LOS ANGELES",
    "phone": "(818) 465-2266",
    "lat": 34.186977,
    "lng": -118.446021
  },
  {
    "id": "630021783",
    "name": "ANGELS OF PEACE HOSPICE, INC.",
    "npi": null,
    "hcaiId": "406193884",
    "businessName": "ANGELS OF PEACE HOSPICE, INC.",
    "contactEmail": "ANGELSPHIC@GMAIL.COM",
    "categoryName": "HOSPICE",
    "categoryCode": "HOSPICE",
    "licenseStatus": "ACTIVE",
    "inService": true,
    "licenseNumber": "550007264",
    "licenseEffectiveDate": "11/06/2023",
    "licenseExpirationDate": "11/05/2025",
    "dataDate": "10/18/2025",
    "capacity": 0,
    "address": "13609 VICTORY BLVD, SUITE 237",
    "city": "VAN NUYS",
    "zip": "91401",
    "county": "LOS ANGELES",
    "phone": "(323) 922-3424",
    "lat": 34.186842,
    "lng": -118.4293575
  },
  {
    "id": "630021484",
    "name": "ANGELS OF VALLEY HOSPICE CARE, INC.",
    "npi": null,
    "hcaiId": "406193881",
    "businessName": "ANGELS OF VALLEY HOSPICE CARE, INC.",
    "contactEmail": "ANGELSOFVALLEYOHHCI@GMAIL.COM",
    "categoryName": "HOSPICE",
    "categoryCode": "HOSPICE",
    "licenseStatus": "ACTIVE",
    "inService": true,
    "licenseNumber": "550007265",
    "licenseEffectiveDate": "11/13/2023",
    "licenseExpirationDate": "11/12/2025",
    "dataDate": "10/18/2025",
    "capacity": 0,
    "address": "13609 VICTORY BLVD, SUITE #127",
    "city": "VAN NUYS",
    "zip": "91401",
    "county": "LOS ANGELES",
    "phone": "(323) 765-0125",
    "lat": 34.186709,
    "lng": -118.429359
  },
  {
    "id": "630021951",
    "name": "ARCHO GROUP, INC",
    "npi": null,
    "hcaiId": "406193300",
    "businessName": "ARCHO GROUP, INC",
    "contactEmail": "ARCHOGROUPHOSPICE@GMAIL.COM",
    "categoryName": "HOSPICE",
    "categoryCode": "HOSPICE",
    "licenseStatus": "ACTIVE",
    "inService": true,
    "licenseNumber": "550007185",
    "licenseEffectiveDate": "11/11/2023",
    "licenseExpirationDate": "11/10/2025",
    "dataDate": "10/18/2025",
    "capacity": 0,
    "address": "6309 VAN NUYS BLVD, SUITE 209",
    "city": "VAN NUYS",
    "zip": "91401",
    "county": "LOS ANGELES",
    "phone": "(747) 666-1106",
    "lat": 34.184997,
    "lng": -118.448946
  },
  {
    "id": "630016654",
    "name": "ARCHWOOD CARE",
    "npi": "1972964815",
    "hcaiId": null,
    "businessName": "ARCHWOOD CARE, LLC",
    "contactEmail": "ARCHWOODCARE1@YAHOO.COM",
    "categoryName": "INTERMEDIATE CARE FACILITY-DD/H/N/CN/IID",
    "categoryCode": "ICFDDH",
    "licenseStatus": "ACTIVE",
    "inService": true,
    "licenseNumber": "550004058",
    "licenseEffectiveDate": "12/15/2024",
    "licenseExpirationDate": "12/14/2025",
    "dataDate": "10/18/2025",
    "capacity": 6,
    "address": "13245 ARCHWOOD STREET",
    "city": "VAN NUYS",
    "zip": "91401",
    "county": "LOS ANGELES",
    "phone": "(818) 770-1065",
    "lat": 34.19217,
    "lng": -118.4218425
  },
  {
    "id": "630018629",
    "name": "ARES HOME HEALTH INC.",
    "npi": null,
    "hcaiId": "406192363",
    "businessName": "ARES HOME HEALTH INC",
    "contactEmail": "ARESHOMEHEALTHINC@GMAIL.COM",
    "categoryName": "HOME HEALTH AGENCY",
    "categoryCode": "HHA",
    "licenseStatus": "ACTIVE",
    "inService": true,
    "licenseNumber": "550004934",
    "licenseEffectiveDate": "09/16/2024",
    "licenseExpirationDate": "09/15/2025",
    "dataDate": "10/18/2025",
    "capacity": 0,
    "address": "14412 FRIAR ST, SUITE 202",
    "city": "VAN NUYS",
    "zip": "91401",
    "county": "LOS ANGELES",
    "phone": "(818) 453-3080",
    "lat": 34.18541801,
    "lng": -118.447099
  },
  {
    "id": "630012744",
    "name": "ARGUS HOME HEALTH, INC",
    "npi": "1851603013",
    "hcaiId": "406197496",
    "businessName": "ARGUS HOME HEALTH, INC.",
    "contactEmail": "HHIARGUS@GMAIL.COM",
    "categoryName": "HOME HEALTH AGENCY",
    "categoryCode": "HHA",
    "licenseStatus": "ACTIVE",
    "inService": true,
    "licenseNumber": "550001553",
    "licenseEffectiveDate": "06/01/2025",
    "licenseExpirationDate": "05/31/2026",
    "dataDate": "10/18/2025",
    "capacity": 0,
    "address": "13746 VICTORY BLVD, SUITE 215",
    "city": "VAN NUYS",
    "zip": "91401",
    "county": "LOS ANGELES",
    "phone": "(818) 782-2939",
    "lat": 34.186356,
    "lng": -118.4328315
  },
  {
    "id": "630020351",
    "name": "ASCEND HOME HEALTH CARE, INC.",
    "npi": null,
    "hcaiId": "406196021",
    "businessName": "ASCEND HOME HEALTH CARE, INC.",
    "contactEmail": "ASCENDHHC@GMAIL.COM",
    "categoryName": "HOME HEALTH AGENCY",
    "categoryCode": "HHA",
    "licenseStatus": "ACTIVE",
    "inService": true,
    "licenseNumber": "550005951",
    "licenseEffectiveDate": "12/29/2024",
    "licenseExpirationDate": "12/28/2025",
    "dataDate": "10/18/2025",
    "capacity": 0,
    "address": "14435 HAMLIN ST, SUITE B-1",
    "city": "VAN NUYS",
    "zip": "91401",
    "county": "LOS ANGELES",
    "phone": "(818) 732-8586",
    "lat": 34.188849,
    "lng": -118.4477085
  },
  {
    "id": "630020434",
    "name": "AVE HOSPICE CARE, INC.",
    "npi": null,
    "hcaiId": null,
    "businessName": "AVE HOSPICE CARE, INC.",
    "contactEmail": "AVEHOSPICECARE@GMAIL.COM",
    "categoryName": "HOSPICE",
    "categoryCode": "HOSPICE",
    "licenseStatus": "ACTIVE",
    "inService": true,
    "licenseNumber": "550006632",
    "licenseEffectiveDate": "08/09/2023",
    "licenseExpirationDate": "08/08/2025",
    "dataDate": "10/18/2025",
    "capacity": 0,
    "address": "13749 VICTORY BLVD, #C",
    "city": "VAN NUYS",
    "zip": "91401",
    "county": "LOS ANGELES",
    "phone": "(818) 849-6075",
    "lat": 34.186833,
    "lng": -118.432962
  },
  {
    "id": "630023893",
    "name": "AVENUE HOME HEALTH, INC.",
    "npi": null,
    "hcaiId": "406195348",
    "businessName": "AVENUE HOME HEALTH, INC.",
    "contactEmail": "AVENUEHH22@GMAIL.COM",
    "categoryName": "HOME HEALTH AGENCY",
    "categoryCode": "HHA",
    "licenseStatus": "ACTIVE",
    "inService": true,
    "licenseNumber": "550007928",
    "licenseEffectiveDate": "03/16/2025",
    "licenseExpirationDate": "03/15/2026",
    "dataDate": "10/18/2025",
    "capacity": 0,
    "address": "14402 HAYNES ST, SUITE 203",
    "city": "VAN NUYS",
    "zip": "91401",
    "county": "LOS ANGELES",
    "phone": "(818) 858-0976",
    "lat": 34.18947099,
    "lng": -118.446816
  },
  {
    "id": "630026309",
    "name": "AVID HOME HEALTH CARE INC",
    "npi": null,
    "hcaiId": null,
    "businessName": "AVID HOME HEALTH CARE INC",
    "contactEmail": "AVIDHOMEHEALTHCARE@GMAIL.COM",
    "categoryName": "HOME HEALTH AGENCY",
    "categoryCode": "HHA",
    "licenseStatus": "ACTIVE",
    "inService": true,
    "licenseNumber": "550009539",
    "licenseEffectiveDate": "12/02/2025",
    "licenseExpirationDate": "12/01/2026",
    "dataDate": "10/18/2025",
    "capacity": 0,
    "address": "13735 VICTORY BLVD, UNIT 13",
    "city": "VAN NUYS",
    "zip": "91401",
    "county": "LOS ANGELES",
    "phone": "(424) 210-8414",
    "lat": 34.18686,
    "lng": -118.4323995
  },
  {
    "id": "630018159",
    "name": "AVON HOME HEALTH CARE",
    "npi": null,
    "hcaiId": "406191886",
    "businessName": "AVON HOME HEALTH CARE",
    "contactEmail": "AVONHOMEHEALTH@GMAIL.COM",
    "categoryName": "HOME HEALTH AGENCY",
    "categoryCode": "HHA",
    "licenseStatus": "ACTIVE",
    "inService": true,
    "licenseNumber": "550004851",
    "licenseEffectiveDate": "08/17/2025",
    "licenseExpirationDate": "08/16/2026",
    "dataDate": "10/18/2025",
    "capacity": 0,
    "address": "14328 VICTORY BLVD, SUITE 207",
    "city": "VAN NUYS",
    "zip": "91401",
    "county": "LOS ANGELES",
    "phone": "(818) 626-5917",
    "lat": 34.18660189,
    "lng": -118.4454106
  },
  {
    "id": "630024894",
    "name": "AXEL HOME HEALTH, INC.",
    "npi": null,
    "hcaiId": null,
    "businessName": "AXEL HOME HEALTH, INC.",
    "contactEmail": "AXELHOMEHEALTH@GMAIL.COM",
    "categoryName": "HOME HEALTH AGENCY",
    "categoryCode": "HHA",
    "licenseStatus": "ACTIVE",
    "inService": true,
    "licenseNumber": "550008522",
    "licenseEffectiveDate": "05/03/2025",
    "licenseExpirationDate": "05/02/2026",
    "dataDate": "10/18/2025",
    "capacity": 0,
    "address": "6308 WOODMAN AVE, SUITE 213",
    "city": "VAN NUYS",
    "zip": "91401",
    "county": "LOS ANGELES",
    "phone": "(818) 798-4049",
    "lat": 34.18524,
    "lng": -118.4310495
  },
  {
    "id": "630019409",
    "name": "AZ HOSPICE & PALLIATIVE CARE INC",
    "npi": "1154963932",
    "hcaiId": "406192182",
    "businessName": "AZ HOSPICE & PALLIATIVE CARE INC",
    "contactEmail": "AZHOSPICECARE@YAHOO.COM",
    "categoryName": "HOSPICE",
    "categoryCode": "HOSPICE",
    "licenseStatus": "ACTIVE",
    "inService": true,
    "licenseNumber": "550005192",
    "licenseEffectiveDate": "12/12/2023",
    "licenseExpirationDate": "12/11/2025",
    "dataDate": "10/18/2025",
    "capacity": 0,
    "address": "6320 VAN NUYS BLVD, SUITE 402A",
    "city": "VAN NUYS",
    "zip": "91401",
    "county": "LOS ANGELES",
    "phone": "(818) 538-5121",
    "lat": 34.185339,
    "lng": -118.4484825
  },
  {
    "id": "630019494",
    "name": "BARS HOSPICE CARE, INC.",
    "npi": "1780228031",
    "hcaiId": "406192423",
    "businessName": "BARS HOSPICE CARE, INC.",
    "contactEmail": "BARSHOSPICE@GMAIL.COM",
    "categoryName": "HOSPICE",
    "categoryCode": "HOSPICE",
    "licenseStatus": "ACTIVE",
    "inService": true,
    "licenseNumber": "550005286",
    "licenseEffectiveDate": "02/11/2022",
    "licenseExpirationDate": "02/10/2024",
    "dataDate": "10/18/2025",
    "capacity": 0,
    "address": "13735 VICTORY BLVD, SUITE 5A",
    "city": "VAN NUYS",
    "zip": "91401",
    "county": "LOS ANGELES",
    "phone": "(747) 877-8677",
    "lat": 34.18686,
    "lng": -118.4323995
  },
  {
    "id": "630025191",
    "name": "BELOVED HOME SERVICES INC.",
    "npi": null,
    "hcaiId": "406197590",
    "businessName": "BELOVED HOME SERVICES INC",
    "contactEmail": "BELOVEDHOMESERVICESINC@GMAIL.COM",
    "categoryName": "HOME HEALTH AGENCY",
    "categoryCode": "HHA",
    "licenseStatus": "ACTIVE",
    "inService": true,
    "licenseNumber": "550008757",
    "licenseEffectiveDate": "09/01/2025",
    "licenseExpirationDate": "08/31/2026",
    "dataDate": "10/18/2025",
    "capacity": 0,
    "address": "6551 VAN NUYS BLVD, UNIT 100",
    "city": "VAN NUYS",
    "zip": "91401",
    "county": "LOS ANGELES",
    "phone": "(800) 484-1696",
    "lat": 34.189803,
    "lng": -118.449
  },
  {
    "id": "630017918",
    "name": "BEST OF CARE HOME HEALTH INC",
    "npi": null,
    "hcaiId": "406192877",
    "businessName": "BEST OF CARE HOME HEALTH INC",
    "contactEmail": "BESTOFCAREHH@GMAIL.COM",
    "categoryName": "HOME HEALTH AGENCY",
    "categoryCode": "HHA",
    "licenseStatus": "ACTIVE",
    "inService": true,
    "licenseNumber": "550004647",
    "licenseEffectiveDate": "04/27/2025",
    "licenseExpirationDate": "04/26/2026",
    "dataDate": "10/18/2025",
    "capacity": 0,
    "address": "14328 VICTORY BLVD, SUITE 205",
    "city": "VAN NUYS",
    "zip": "91401",
    "county": "LOS ANGELES",
    "phone": "(818) 616-4255",
    "lat": 34.18660189,
    "lng": -118.4454106
  },
  {
    "id": "630021234",
    "name": "BEST QUALITY HOSPICE AND PALLIATIVE CARE INC.",
    "npi": null,
    "hcaiId": "406197662",
    "businessName": "BEST QUALITY HOSPICE AND PALLIATIVE CARE INC.",
    "contactEmail": "BESTQUALITYHOSPICE@GMAIL.COM",
    "categoryName": "HOSPICE",
    "categoryCode": "HOSPICE",
    "licenseStatus": "ACTIVE",
    "inService": true,
    "licenseNumber": "550006742",
    "licenseEffectiveDate": "08/12/2025",
    "licenseExpirationDate": "08/11/2027",
    "dataDate": "10/18/2025",
    "capacity": 0,
    "address": "6308 WOODMAN AVE, SUITE 104",
    "city": "VAN NUYS",
    "zip": "91401",
    "county": "LOS ANGELES",
    "phone": "(818) 533-2332",
    "lat": 34.185114,
    "lng": -118.4310585
  },
  {
    "id": "630027017",
    "name": "BEVERLY HOME HEALTHCARE, INC.",
    "npi": null,
    "hcaiId": null,
    "businessName": "BEVERLY HOME HEALTHCARE, INC.",
    "contactEmail": "BEVERLYHOMEHEALTHCARE23@GMAIL.COM",
    "categoryName": "HOME HEALTH AGENCY",
    "categoryCode": "HHA",
    "licenseStatus": "ACTIVE",
    "inService": true,
    "licenseNumber": "550009733",
    "licenseEffectiveDate": "07/18/2025",
    "licenseExpirationDate": "01/17/2026",
    "dataDate": "10/18/2025",
    "capacity": 0,
    "address": "6308 WOODMAN AVE, SUITE 206",
    "city": "VAN NUYS",
    "zip": "91401",
    "county": "LOS ANGELES",
    "phone": "(818) 646-7173",
    "lat": 34.18524,
    "lng": -118.4310495
  },
  {
    "id": "630020574",
    "name": "BIG HEARTS HOSPICE CORP.",
    "npi": null,
    "hcaiId": null,
    "businessName": "BIG HEARTS HOSPICE CORP.",
    "contactEmail": "BIGHEARTSHOSP@GMAIL.COM",
    "categoryName": "HOSPICE",
    "categoryCode": "HOSPICE",
    "licenseStatus": "ACTIVE",
    "inService": true,
    "licenseNumber": "550006293",
    "licenseEffectiveDate": "05/19/2023",
    "licenseExpirationDate": "05/18/2025",
    "dataDate": "10/18/2025",
    "capacity": 0,
    "address": "14349 VICTORY BLVD, UNIT 304",
    "city": "VAN NUYS",
    "zip": "91401",
    "county": "LOS ANGELES",
    "phone": "(747) 208-4450",
    "lat": 34.186977,
    "lng": -118.446021
  },
  {
    "id": "630015899",
    "name": "BLISS HOME HEALTH, INC.",
    "npi": "1417340456",
    "hcaiId": "406198512",
    "businessName": "BLISS HOME HEALTH, INC.",
    "contactEmail": "BLISSHOMEHEALTH.77@GMAIL.COM",
    "categoryName": "HOME HEALTH AGENCY",
    "categoryCode": "HHA",
    "licenseStatus": "ACTIVE",
    "inService": true,
    "licenseNumber": "550003977",
    "licenseEffectiveDate": "10/12/2025",
    "licenseExpirationDate": "10/11/2026",
    "dataDate": "10/18/2025",
    "capacity": 0,
    "address": "14349 VICTORY BLVD, SUITE 105B",
    "city": "VAN NUYS",
    "zip": "91401",
    "county": "LOS ANGELES",
    "phone": "(818) 779-0419",
    "lat": 34.18697801,
    "lng": -118.446043
  },
  {
    "id": "630018651",
    "name": "BLOOM HOME HEALTH, INC",
    "npi": null,
    "hcaiId": "406192464",
    "businessName": "BLOOM HOME HEALTH, INC.",
    "contactEmail": "BLOOMHOMEHEALTHINC@GMAIL.COM",
    "categoryName": "HOME HEALTH AGENCY",
    "categoryCode": "HHA",
    "licenseStatus": "ACTIVE",
    "inService": true,
    "licenseNumber": "550005232",
    "licenseEffectiveDate": "01/08/2025",
    "licenseExpirationDate": "01/07/2026",
    "dataDate": "10/18/2025",
    "capacity": 0,
    "address": "13746 VICTORY BLVD, SUITE 216",
    "city": "VAN NUYS",
    "zip": "91401",
    "county": "LOS ANGELES",
    "phone": "(818) 465-3001",
    "lat": 34.186356,
    "lng": -118.4328315
  },
  {
    "id": "630018259",
    "name": "BLOSSOM HOSPICE, INC.",
    "npi": "1538648449",
    "hcaiId": "406192035",
    "businessName": "BLOSSOM HOSPICE, INC.",
    "contactEmail": "BLOSSOMHOSPICE@YAHOO.COM",
    "categoryName": "HOSPICE",
    "categoryCode": "HOSPICE",
    "licenseStatus": "ACTIVE",
    "inService": true,
    "licenseNumber": "550005089",
    "licenseEffectiveDate": "09/25/2021",
    "licenseExpirationDate": "09/24/2023",
    "dataDate": "10/18/2025",
    "capacity": 0,
    "address": "13615 VICTORY BLVD, SUITE 213",
    "city": "VAN NUYS",
    "zip": "91401",
    "county": "LOS ANGELES",
    "phone": "(424) 230-2288",
    "lat": 34.186833,
    "lng": -118.429578
  },
  {
    "id": "630026951",
    "name": "BLUE HOME HEALTH SERVICES, INC.",
    "npi": null,
    "hcaiId": null,
    "businessName": "BLUE HOME HEALTH SERVICES, INC.",
    "contactEmail": "BLUEHOMEHEALTH@YAHOO.COM",
    "categoryName": "HOME HEALTH AGENCY",
    "categoryCode": "HHA",
    "licenseStatus": "ACTIVE",
    "inService": true,
    "licenseNumber": "550009430",
    "licenseEffectiveDate": "09/30/2025",
    "licenseExpirationDate": "09/29/2026",
    "dataDate": "10/18/2025",
    "capacity": 0,
    "address": "14431 HAMLIN ST, SUITE 204",
    "city": "VAN NUYS",
    "zip": "91401",
    "county": "LOS ANGELES",
    "phone": "(323) 366-5410",
    "lat": 34.188849,
    "lng": -118.4475735
  },
  {
    "id": "630024374",
    "name": "BRIGHTER LIFE HOME HEALTH, INC.",
    "npi": null,
    "hcaiId": null,
    "businessName": "BRIGHTER LIFE HOME HEALTH, INC.",
    "contactEmail": "BRIGHTERLIFEHOMEHEALTH@GMAIL.COM",
    "categoryName": "HOME HEALTH AGENCY",
    "categoryCode": "HHA",
    "licenseStatus": "ACTIVE",
    "inService": true,
    "licenseNumber": "550008627",
    "licenseEffectiveDate": "05/25/2025",
    "licenseExpirationDate": "05/24/2026",
    "dataDate": "10/18/2025",
    "capacity": 0,
    "address": "13758 VICTORY BLVD, SUITE 206",
    "city": "VAN NUYS",
    "zip": "91401",
    "county": "LOS ANGELES",
    "phone": "(818) 638-3392",
    "lat": 34.186491,
    "lng": -118.433259
  },
  {
    "id": "630026994",
    "name": "CAHAS HOME HEALTH CARE INC",
    "npi": null,
    "hcaiId": null,
    "businessName": "CAHAS HOME HEALTH CARE INC",
    "contactEmail": "CAHASHH92@YAHOO.COM",
    "categoryName": "HOME HEALTH AGENCY",
    "categoryCode": "HHA",
    "licenseStatus": "ACTIVE",
    "inService": true,
    "licenseNumber": "550009262",
    "licenseEffectiveDate": "07/12/2025",
    "licenseExpirationDate": "07/11/2026",
    "dataDate": "10/18/2025",
    "capacity": 0,
    "address": "6454 VAN NUYS BLVD, SUITE 150 RM 17",
    "city": "VAN NUYS",
    "zip": "91401",
    "county": "LOS ANGELES",
    "phone": "(818) 963-9980",
    "lat": 34.187787,
    "lng": -118.4484465
  },
  {
    "id": "630019980",
    "name": "CALSTATE HEALTHCARE INC.",
    "npi": null,
    "hcaiId": "406197714",
    "businessName": "CALSTATE HEALTHCARE INC.",
    "contactEmail": "CALSTATEHEALTHCARE@GMAIL.COM",
    "categoryName": "HOME HEALTH AGENCY",
    "categoryCode": "HHA",
    "licenseStatus": "ACTIVE",
    "inService": true,
    "licenseNumber": "550005888",
    "licenseEffectiveDate": "12/04/2024",
    "licenseExpirationDate": "12/03/2025",
    "dataDate": "10/18/2025",
    "capacity": 0,
    "address": "6308 WOODMAN AVE, SUITE 107",
    "city": "VAN NUYS",
    "zip": "91401",
    "county": "LOS ANGELES",
    "phone": "(818) 922-2727",
    "lat": 34.185114,
    "lng": -118.4310585
  },
  {
    "id": "630015576",
    "name": "CAMARILLO HOSPICE CARE, INC.",
    "npi": null,
    "hcaiId": "406198393",
    "businessName": "CAMARILLO HOSPICE CARE, INC.",
    "contactEmail": "CAMARILLOHOSPICE@GMAIL.COM",
    "categoryName": "HOSPICE",
    "categoryCode": "HOSPICE",
    "licenseStatus": "ACTIVE",
    "inService": true,
    "licenseNumber": "550003437",
    "licenseEffectiveDate": "03/19/2025",
    "licenseExpirationDate": "02/17/2026",
    "dataDate": "10/18/2025",
    "capacity": 0,
    "address": "5605 WOODMAN AVE, SUITE 205",
    "city": "VAN NUYS",
    "zip": "91401",
    "county": "LOS ANGELES",
    "phone": "(818) 377-3812",
    "lat": 34.17252207,
    "lng": -118.4314965
  },
  {
    "id": "630019940",
    "name": "CARE ANGELS HOSPICE, INC.",
    "npi": null,
    "hcaiId": "406192879",
    "businessName": "CARE ANGELS HOSPICE, INC.",
    "contactEmail": "CAREANGELSHOSPICE@YAHOO.COM",
    "categoryName": "HOSPICE",
    "categoryCode": "HOSPICE",
    "licenseStatus": "ACTIVE",
    "inService": true,
    "licenseNumber": "550005748",
    "licenseEffectiveDate": "09/22/2024",
    "licenseExpirationDate": "09/21/2026",
    "dataDate": "10/18/2025",
    "capacity": 0,
    "address": "6454 VAN NUYS BLVD, SUITE 217",
    "city": "VAN NUYS",
    "zip": "91401",
    "county": "LOS ANGELES",
    "phone": "(818) 330-1114",
    "lat": 34.187787,
    "lng": -118.4484465
  },
  {
    "id": "630019855",
    "name": "CARE PARTNER HOME HEALTH, INC.",
    "npi": null,
    "hcaiId": "406192848",
    "businessName": "CARE PARTNER HOME HEALTH, INC.",
    "contactEmail": "CAREPARTNERHH@YAHOO.COM",
    "categoryName": "HOME HEALTH AGENCY",
    "categoryCode": "HHA",
    "licenseStatus": "ACTIVE",
    "inService": true,
    "licenseNumber": "550005641",
    "licenseEffectiveDate": "07/06/2025",
    "licenseExpirationDate": "07/05/2026",
    "dataDate": "10/18/2025",
    "capacity": 0,
    "address": "6420 VAN NUYS BLVD, SUITE 101",
    "city": "VAN NUYS",
    "zip": "91401",
    "county": "LOS ANGELES",
    "phone": "(818) 660-1005",
    "lat": 34.187319,
    "lng": -118.4484465
  },
  {
    "id": "630026341",
    "name": "CAREMORE HOME HEALTH",
    "npi": null,
    "hcaiId": null,
    "businessName": "CAREMORE HOME HEALTH",
    "contactEmail": "CAREMOREHH@GMAIL.COM",
    "categoryName": "HOME HEALTH AGENCY",
    "categoryCode": "HHA",
    "licenseStatus": "ACTIVE",
    "inService": true,
    "licenseNumber": "550009505",
    "licenseEffectiveDate": "04/15/2025",
    "licenseExpirationDate": "10/14/2025",
    "dataDate": "10/18/2025",
    "capacity": 0,
    "address": "14414 HAMLIN ST, UNIT 215",
    "city": "VAN NUYS",
    "zip": "91401",
    "county": "LOS ANGELES",
    "phone": "(818) 935-5083",
    "lat": 34.188471,
    "lng": -118.4471775
  },
  {
    "id": "630015866",
    "name": "CARING HEARTS HOSPICE AND PALLIATIVE CARE, INC.",
    "npi": "1871984617",
    "hcaiId": "406190815",
    "businessName": "CARING HEARTS HOSPICE AND PALLIATIVE CARE, INC.",
    "contactEmail": "CARINGHEARTSHOSPICE123@GMAIL.COM",
    "categoryName": "HOSPICE",
    "categoryCode": "HOSPICE",
    "licenseStatus": "ACTIVE",
    "inService": false,
    "licenseNumber": "550004018",
    "licenseEffectiveDate": "10/01/2020",
    "licenseExpirationDate": "10/29/2021",
    "dataDate": "10/18/2025",
    "capacity": 0,
    "address": "6454 VAN NUYS BLVD, SUITE 150 #8",
    "city": "VAN NUYS",
    "zip": "91401",
    "county": "LOS ANGELES",
    "phone": "(818) 782-2234",
    "lat": 34.187787,
    "lng": -118.4484465
  },
  {
    "id": "630019337",
    "name": "CARING SOULS HOSPICE, INC.",
    "npi": null,
    "hcaiId": "406192818",
    "businessName": "CARING SOULS HOSPICE, INC.",
    "contactEmail": "CARINGSOULS@YAHOO.COM",
    "categoryName": "HOSPICE",
    "categoryCode": "HOSPICE",
    "licenseStatus": "ACTIVE",
    "inService": true,
    "licenseNumber": "550005702",
    "licenseEffectiveDate": "08/29/2024",
    "licenseExpirationDate": "08/28/2026",
    "dataDate": "10/18/2025",
    "capacity": 0,
    "address": "14349 VICTORY BLVD, SUITE 205",
    "city": "VAN NUYS",
    "zip": "91401",
    "county": "LOS ANGELES",
    "phone": "(818) 849-6060",
    "lat": 34.186977,
    "lng": -118.446021
  },
  {
    "id": "630021563",
    "name": "CIGNA HOSPICE CARE, INC.",
    "npi": null,
    "hcaiId": "406194962",
    "businessName": "CIGNA HOSPICE CARE, INC.",
    "contactEmail": "CIGNAHOSPICECARE@GMAIL.COM",
    "categoryName": "HOSPICE",
    "categoryCode": "HOSPICE",
    "licenseStatus": "ACTIVE",
    "inService": true,
    "licenseNumber": "550007055",
    "licenseEffectiveDate": "10/28/2023",
    "licenseExpirationDate": "10/27/2025",
    "dataDate": "10/18/2025",
    "capacity": 0,
    "address": "6356 VAN NUYS BLVD, SUITE 223",
    "city": "VAN NUYS",
    "zip": "91401",
    "county": "LOS ANGELES",
    "phone": "(747) 264-1282",
    "lat": 34.185915,
    "lng": -118.448451
  },
  {
    "id": "630026174",
    "name": "CLINICA MONSENOR OSCAR A. ROMERO - SAN FERNARNDO VALLEY",
    "npi": null,
    "hcaiId": null,
    "businessName": "CLINICA MSR. OSCAR A ROMERO",
    "contactEmail": "CVAQUERANO@CLINICAROMERO.COM",
    "categoryName": "PRIMARY CARE CLINIC",
    "categoryCode": "FQHC/COMTYC",
    "licenseStatus": "ACTIVE",
    "inService": true,
    "licenseNumber": "960000308",
    "licenseEffectiveDate": "11/05/2025",
    "licenseExpirationDate": "11/04/2026",
    "dataDate": "10/18/2025",
    "capacity": 0,
    "address": "6330 VAN NUYS BLVD, UNIT A",
    "city": "VAN NUYS",
    "zip": "91401",
    "county": "LOS ANGELES",
    "phone": "(818) 994-9822",
    "lat": 34.185546,
    "lng": -118.4484735
  },
  {
    "id": "630025830",
    "name": "COMMUNITY ADULT HOME HEALTH CARE, INC.",
    "npi": null,
    "hcaiId": "406190300",
    "businessName": "COMMUNITY ADULT HOME HEALTH CARE, INC.",
    "contactEmail": "COMMUNITYADULTHEALTHCARE@GMAIL.COM",
    "categoryName": "HOME HEALTH AGENCY",
    "categoryCode": "HHA",
    "licenseStatus": "ACTIVE",
    "inService": true,
    "licenseNumber": "550009021",
    "licenseEffectiveDate": "01/09/2025",
    "licenseExpirationDate": "01/08/2026",
    "dataDate": "10/18/2025",
    "capacity": 0,
    "address": "13615 VICTORY BLVD, SUITE 118",
    "city": "VAN NUYS",
    "zip": "91401",
    "county": "LOS ANGELES",
    "phone": "(747) 499-6223",
    "lat": 34.186833,
    "lng": -118.429578
  },
  {
    "id": "630018669",
    "name": "COMMUNITY CARE HOSPICE, INC",
    "npi": null,
    "hcaiId": "406192173",
    "businessName": "COMMUNITY CARE HOSPICE, INC",
    "contactEmail": "COMMUNITYCAREHOSPICE@YAHOO.COM",
    "categoryName": "HOSPICE",
    "categoryCode": "HOSPICE",
    "licenseStatus": "ACTIVE",
    "inService": true,
    "licenseNumber": "550005195",
    "licenseEffectiveDate": "12/20/2023",
    "licenseExpirationDate": "12/19/2025",
    "dataDate": "10/18/2025",
    "capacity": 0,
    "address": "13629 VICTORY BLVD, 1/2",
    "city": "VAN NUYS",
    "zip": "91401",
    "county": "LOS ANGELES",
    "phone": "(818) 616-4956",
    "lat": 34.186905,
    "lng": -118.4298615
  },
  {
    "id": "630025162",
    "name": "CORPORATION HOME HEALTH",
    "npi": null,
    "hcaiId": "406196523",
    "businessName": "CORPORATION HOME HEALTH",
    "contactEmail": "CORPORATIONHOMEHEALTH@GMAIL.COM",
    "categoryName": "HOME HEALTH AGENCY",
    "categoryCode": "HHA",
    "licenseStatus": "ACTIVE",
    "inService": true,
    "licenseNumber": "550008532",
    "licenseEffectiveDate": "07/23/2025",
    "licenseExpirationDate": "04/26/2026",
    "dataDate": "10/18/2025",
    "capacity": 0,
    "address": "14401 GILMORE ST, SUITE 200",
    "city": "VAN NUYS",
    "zip": "91401",
    "county": "LOS ANGELES",
    "phone": "(818) 813-2701",
    "lat": 34.18784801,
    "lng": -118.446725
  },
  {
    "id": "630026743",
    "name": "COZY CARE HOME HEALTH AGENCY, INC.",
    "npi": null,
    "hcaiId": null,
    "businessName": "COZY CARE HOME HEALTH AGENCY, INC.",
    "contactEmail": "COZYCAREHHA@GMAIL.COM",
    "categoryName": "HOME HEALTH AGENCY",
    "categoryCode": "HHA",
    "licenseStatus": "ACTIVE",
    "inService": true,
    "licenseNumber": "550009404",
    "licenseEffectiveDate": "09/27/2025",
    "licenseExpirationDate": "09/26/2026",
    "dataDate": "10/18/2025",
    "capacity": 0,
    "address": "6360 VAN NUYS BLVD, SUITE 224",
    "city": "VAN NUYS",
    "zip": "91401",
    "county": "LOS ANGELES",
    "phone": "(818) 646-0522",
    "lat": 34.186041,
    "lng": -118.4484285
  },
  {
    "id": "630024473",
    "name": "DEGA HOME HEALTH",
    "npi": null,
    "hcaiId": "406197793",
    "businessName": "DEGA HOME HEALTH",
    "contactEmail": "DEGAHOMEHEALTH@GMAIL.COM",
    "categoryName": "HOME HEALTH AGENCY",
    "categoryCode": "HHA",
    "licenseStatus": "ACTIVE",
    "inService": true,
    "licenseNumber": "550008386",
    "licenseEffectiveDate": "02/06/2025",
    "licenseExpirationDate": "02/05/2026",
    "dataDate": "10/18/2025",
    "capacity": 0,
    "address": "6356 VAN NUYS BLVD, SUITE 240",
    "city": "VAN NUYS",
    "zip": "91401",
    "county": "LOS ANGELES",
    "phone": "(818) 528-5360",
    "lat": 34.185915,
    "lng": -118.448451
  },
  {
    "id": "630016558",
    "name": "DELIGHT HOME HEALTH CARE",
    "npi": "1194180711",
    "hcaiId": "406190812",
    "businessName": "DELIGHT HOME HEALTH CARE, INC.",
    "contactEmail": "DELIGHTHHCI@YAHOO.COM",
    "categoryName": "HOME HEALTH AGENCY",
    "categoryCode": "HHA",
    "licenseStatus": "ACTIVE",
    "inService": true,
    "licenseNumber": "550004213",
    "licenseEffectiveDate": "03/03/2025",
    "licenseExpirationDate": "03/02/2026",
    "dataDate": "10/18/2025",
    "capacity": 0,
    "address": "14435 HAMLIN ST, SUITE 203",
    "city": "VAN NUYS",
    "zip": "91401",
    "county": "LOS ANGELES",
    "phone": "(562) 368-1331",
    "lat": 34.188984,
    "lng": -118.447713
  },
  {
    "id": "630020079",
    "name": "DOCTOR'S CHOICE PALLIATIVE AND HOSPICE CARE, INC.",
    "npi": null,
    "hcaiId": "406193659",
    "businessName": "DOCTORS CHOICE PALLIATIVE AND HOSPICE CARE, INC.",
    "contactEmail": "DOCTORSCHOICEPHC@GMAIL.COM",
    "categoryName": "HOSPICE",
    "categoryCode": "HOSPICE",
    "licenseStatus": "ACTIVE",
    "inService": true,
    "licenseNumber": "550006859",
    "licenseEffectiveDate": "09/14/2025",
    "licenseExpirationDate": "09/13/2027",
    "dataDate": "10/18/2025",
    "capacity": 0,
    "address": "14112 VICTORY BLVD, SUITE 101",
    "city": "VAN NUYS",
    "zip": "91401",
    "county": "LOS ANGELES",
    "phone": "(888) 979-0089",
    "lat": 34.1865,
    "lng": -118.440576
  },
  {
    "id": "630024981",
    "name": "DOOR TO DOOR HOME HEALTH CARE, INC.",
    "npi": null,
    "hcaiId": "406197818",
    "businessName": "DOOR TO DOOR HOME HEALTH CARE, INC.",
    "contactEmail": "DOORTD209@GMAIL.COM",
    "categoryName": "HOME HEALTH AGENCY",
    "categoryCode": "HHA",
    "licenseStatus": "ACTIVE",
    "inService": true,
    "licenseNumber": "550008379",
    "licenseEffectiveDate": "02/09/2025",
    "licenseExpirationDate": "02/08/2026",
    "dataDate": "10/18/2025",
    "capacity": 0,
    "address": "14435 HAMLIN ST, SUITE 209",
    "city": "VAN NUYS",
    "zip": "91401",
    "county": "LOS ANGELES",
    "phone": "(747) 264-0015",
    "lat": 34.188849,
    "lng": -118.4477085
  },
  {
    "id": "630021850",
    "name": "DYNASTY HOSPICE AND PALLIATIVE CARE, INC.",
    "npi": null,
    "hcaiId": "406194845",
    "businessName": "DYNASTY HOSPICE AND PALLIATIVE CARE, INC.",
    "contactEmail": "DYNASTYHOSPICEPALLIATIVE@GMAIL.COM",
    "categoryName": "HOSPICE",
    "categoryCode": "HOSPICE",
    "licenseStatus": "ACTIVE",
    "inService": true,
    "licenseNumber": "550006824",
    "licenseEffectiveDate": "09/23/2023",
    "licenseExpirationDate": "09/22/2025",
    "dataDate": "10/18/2025",
    "capacity": 0,
    "address": "6365 VAN NUYS BLVD, SUITE 1",
    "city": "VAN NUYS",
    "zip": "91401",
    "county": "LOS ANGELES",
    "phone": "(818) 386-8679",
    "lat": 34.186203,
    "lng": -118.4490225
  },
  {
    "id": "630025286",
    "name": "ELATED HOME HEALTH CARE INC.",
    "npi": null,
    "hcaiId": "406197792",
    "businessName": "ELATED HOME HEALTH CARE INC.",
    "contactEmail": "ELATEDHHC@YAHOO.COM",
    "categoryName": "HOME HEALTH AGENCY",
    "categoryCode": "HHA",
    "licenseStatus": "ACTIVE",
    "inService": true,
    "licenseNumber": "550008381",
    "licenseEffectiveDate": "02/09/2025",
    "licenseExpirationDate": "02/08/2026",
    "dataDate": "10/18/2025",
    "capacity": 0,
    "address": "14401 GILMORE ST., SUITE 201B",
    "city": "VAN NUYS",
    "zip": "91401",
    "county": "LOS ANGELES",
    "phone": "(818) 208-9879",
    "lat": 34.1878637,
    "lng": -118.4467484
  },
  {
    "id": "630020723",
    "name": "ELTA HOME HEALTH CARE, INC",
    "npi": null,
    "hcaiId": "406195385",
    "businessName": "ELTA HOME HEALTH CARE, INC",
    "contactEmail": "ELTAHOMEHEALTHCARE@GMAIL.COM",
    "categoryName": "HOME HEALTH AGENCY",
    "categoryCode": "HHA",
    "licenseStatus": "ACTIVE",
    "inService": true,
    "licenseNumber": "550006405",
    "licenseEffectiveDate": "06/11/2025",
    "licenseExpirationDate": "06/10/2026",
    "dataDate": "10/18/2025",
    "capacity": 0,
    "address": "6454 VAN NUYS BLVD, SUITE 6",
    "city": "VAN NUYS",
    "zip": "91401",
    "county": "LOS ANGELES",
    "phone": "(818) 207-0450",
    "lat": 34.187787,
    "lng": -118.4484465
  },
  {
    "id": "630018734",
    "name": "ELYSIUM HOME HEALTH CARE",
    "npi": null,
    "hcaiId": "406193028",
    "businessName": "ELYSIUM HOME HEALTH CARE",
    "contactEmail": "ELYSIUMHOMEHEALTH@YAHOO.COM",
    "categoryName": "HOME HEALTH AGENCY",
    "categoryCode": "HHA",
    "licenseStatus": "ACTIVE",
    "inService": true,
    "licenseNumber": "550005836",
    "licenseEffectiveDate": "10/29/2024",
    "licenseExpirationDate": "10/28/2025",
    "dataDate": "10/18/2025",
    "capacity": 0,
    "address": "13746 VICTORY BLVD, SUITE 214",
    "city": "VAN NUYS",
    "zip": "91401",
    "county": "LOS ANGELES",
    "phone": "(818) 813-7628",
    "lat": 34.1865,
    "lng": -118.432854
  },
  {
    "id": "630016684",
    "name": "ETERNITY HOSPICE, INC.",
    "npi": null,
    "hcaiId": "406190862",
    "businessName": "ETERNITY HOSPICE, INC.",
    "contactEmail": "ETERNITYHOSPICE@YAHOO.COM",
    "categoryName": "HOSPICE",
    "categoryCode": "HOSPICE",
    "licenseStatus": "ACTIVE",
    "inService": true,
    "licenseNumber": "550004223",
    "licenseEffectiveDate": "07/08/2024",
    "licenseExpirationDate": "04/05/2026",
    "dataDate": "10/18/2025",
    "capacity": 0,
    "address": "13746 VICTORY BLVD, SUITE 314",
    "city": "VAN NUYS",
    "zip": "91401",
    "county": "LOS ANGELES",
    "phone": "(818) 781-7719",
    "lat": 34.18635301,
    "lng": -118.432764
  },
  {
    "id": "630015602",
    "name": "EVE GARDEN, INC.",
    "npi": null,
    "hcaiId": "206198278",
    "businessName": "EVE GARDEN, INC.",
    "contactEmail": "SBANZUELA@GMAIL.COM",
    "categoryName": "CONGREGATE LIVING HEALTH FACILITY",
    "categoryCode": "CLHF",
    "licenseStatus": "ACTIVE",
    "inService": true,
    "licenseNumber": "550003457",
    "licenseEffectiveDate": "02/28/2025",
    "licenseExpirationDate": "02/27/2026",
    "dataDate": "10/18/2025",
    "capacity": 6,
    "address": "6703 NAGLE AVE",
    "city": "VAN NUYS",
    "zip": "91401",
    "county": "LOS ANGELES",
    "phone": "(626) 221-8801",
    "lat": 34.19226,
    "lng": -118.4239485
  },
  {
    "id": "630020865",
    "name": "EXCELLENT QUALITY HOSPICE INC.",
    "npi": null,
    "hcaiId": "406197005",
    "businessName": "EXCELLENT QUALITY HOSPICE, INC.",
    "contactEmail": "EXCELLENTQUALITY2020@GMAIL.COM",
    "categoryName": "HOSPICE",
    "categoryCode": "HOSPICE",
    "licenseStatus": "ACTIVE",
    "inService": true,
    "licenseNumber": "550006465",
    "licenseEffectiveDate": "06/24/2025",
    "licenseExpirationDate": "06/23/2027",
    "dataDate": "10/18/2025",
    "capacity": 0,
    "address": "6308 WOODMAN AVE, SUITE 103",
    "city": "VAN NUYS",
    "zip": "91401",
    "county": "LOS ANGELES",
    "phone": "(747) 208-4707",
    "lat": 34.185114,
    "lng": -118.4310585
  },
  {
    "id": "630022326",
    "name": "EXCLUSIVE HOSPICE INC",
    "npi": null,
    "hcaiId": "406195720",
    "businessName": "EXCLUSIVE HOSPICE INC",
    "contactEmail": "EXCLUSIVEHOSPICE@GMAIL.COM",
    "categoryName": "HOSPICE",
    "categoryCode": "HOSPICE",
    "licenseStatus": "ACTIVE",
    "inService": true,
    "licenseNumber": "550007692",
    "licenseEffectiveDate": "11/05/2024",
    "licenseExpirationDate": "12/22/2025",
    "dataDate": "10/18/2025",
    "capacity": 0,
    "address": "6356 VAN NUYS BLVD, SUITE 204",
    "city": "VAN NUYS",
    "zip": "91401",
    "county": "LOS ANGELES",
    "phone": "(978) 798-4159",
    "lat": 34.18586401,
    "lng": -118.448404
  },
  {
    "id": "630026076",
    "name": "FAMILY CARE",
    "npi": null,
    "hcaiId": null,
    "businessName": "FAMILY CARE",
    "contactEmail": "FAMILYCARESERVICES2022@GMAIL.COM",
    "categoryName": "HOME HEALTH AGENCY",
    "categoryCode": "HHA",
    "licenseStatus": "ACTIVE",
    "inService": true,
    "licenseNumber": "550009040",
    "licenseEffectiveDate": "03/13/2025",
    "licenseExpirationDate": "03/12/2026",
    "dataDate": "10/18/2025",
    "capacity": 0,
    "address": "6356 VAN NUYS BLVD, SUITE 219",
    "city": "VAN NUYS",
    "zip": "91401",
    "county": "LOS ANGELES",
    "phone": "(800) 676-8384",
    "lat": 34.185915,
    "lng": -118.448451
  },
  {
    "id": "630026267",
    "name": "FAMOUS HOME HEALTHCARE",
    "npi": null,
    "hcaiId": null,
    "businessName": "FAMOUS HOME HEALTHCARE",
    "contactEmail": "FAMOUSHOMEHEALTHCARE@GMAIL.COM",
    "categoryName": "HOME HEALTH AGENCY",
    "categoryCode": "HHA",
    "licenseStatus": "ACTIVE",
    "inService": true,
    "licenseNumber": "550009595",
    "licenseEffectiveDate": "07/06/2025",
    "licenseExpirationDate": "01/05/2026",
    "dataDate": "10/18/2025",
    "capacity": 0,
    "address": "6454 VAN NUYS BLVD, SUITE 8",
    "city": "VAN NUYS",
    "zip": "91401",
    "county": "LOS ANGELES",
    "phone": "(747) 900-0012",
    "lat": 34.187883,
    "lng": -118.448292
  },
  {
    "id": "630022456",
    "name": "FAMOUS HOSPICE CARE",
    "npi": null,
    "hcaiId": "406195750",
    "businessName": "FAMOUS HOSPICE CARE",
    "contactEmail": "FAMOUSHOSPICECARE@GMAIL.COM",
    "categoryName": "HOSPICE",
    "categoryCode": "HOSPICE",
    "licenseStatus": "ACTIVE",
    "inService": true,
    "licenseNumber": "550007730",
    "licenseEffectiveDate": "07/14/2025",
    "licenseExpirationDate": "12/15/2025",
    "dataDate": "10/18/2025",
    "capacity": 0,
    "address": "6454 VAN NUYS BLVD, SUITE 6",
    "city": "VAN NUYS",
    "zip": "91401",
    "county": "LOS ANGELES",
    "phone": "(747) 877-2707",
    "lat": 34.187883,
    "lng": -118.448292
  },
  {
    "id": "630025737",
    "name": "FAST RECOVERY HOME CARE INC",
    "npi": null,
    "hcaiId": null,
    "businessName": "FAST RECOVERY HOME CARE INC",
    "contactEmail": "FASTRECOVERYHOMEHEALTH@GMAIL.COM",
    "categoryName": "HOME HEALTH AGENCY",
    "categoryCode": "HHA",
    "licenseStatus": "ACTIVE",
    "inService": true,
    "licenseNumber": "550009185",
    "licenseEffectiveDate": "06/06/2025",
    "licenseExpirationDate": "06/05/2026",
    "dataDate": "10/18/2025",
    "capacity": 0,
    "address": "13749 VICTORY BLVD, UNIT D",
    "city": "VAN NUYS",
    "zip": "91401",
    "county": "LOS ANGELES",
    "phone": "(818) 473-5352",
    "lat": 34.186833,
    "lng": -118.432962
  },
  {
    "id": "630021925",
    "name": "FAST RESPONSE HOME HEALTH INC",
    "npi": null,
    "hcaiId": "406195593",
    "businessName": "FAST RESPONSE HOME HEALTH INC",
    "contactEmail": "FASTRESPONSEHOMEHEALTH@GMAIL.COM",
    "categoryName": "HOME HEALTH AGENCY",
    "categoryCode": "HHA",
    "licenseStatus": "ACTIVE",
    "inService": true,
    "licenseNumber": "550007417",
    "licenseEffectiveDate": "12/31/2024",
    "licenseExpirationDate": "12/09/2025",
    "dataDate": "10/18/2025",
    "capacity": 0,
    "address": "13746 VICTORY BLVD, SUITE 210",
    "city": "VAN NUYS",
    "zip": "91401",
    "county": "LOS ANGELES",
    "phone": "(747) 226-2248",
    "lat": 34.18636047,
    "lng": -118.4327887
  },
  {
    "id": "630026846",
    "name": "FIRST SERENITY HOME HEALTH, INC.",
    "npi": null,
    "hcaiId": null,
    "businessName": "FIRST SERENITY HOME HEALTH, INC.",
    "contactEmail": "FIRSTSERENITYHOMEHEALTH@GMAIL.COM",
    "categoryName": "HOME HEALTH AGENCY",
    "categoryCode": "HHA",
    "licenseStatus": "ACTIVE",
    "inService": true,
    "licenseNumber": "550009334",
    "licenseEffectiveDate": "08/23/2025",
    "licenseExpirationDate": "08/22/2026",
    "dataDate": "10/18/2025",
    "capacity": 0,
    "address": "13758 VICTORY BLVD, SUITE 203",
    "city": "VAN NUYS",
    "zip": "91401",
    "county": "LOS ANGELES",
    "phone": "(747) 877-2708",
    "lat": 34.186491,
    "lng": -118.433259
  },
  {
    "id": "630020503",
    "name": "FRIEDEN HOSPICE CARE",
    "npi": null,
    "hcaiId": "406193590",
    "businessName": "FRIEDEN HOSPICE CARE",
    "contactEmail": "FRIEDENHOSPICE@GMAIL.COM",
    "categoryName": "HOSPICE",
    "categoryCode": "HOSPICE",
    "licenseStatus": "ACTIVE",
    "inService": true,
    "licenseNumber": "550006486",
    "licenseEffectiveDate": "06/29/2025",
    "licenseExpirationDate": "06/28/2027",
    "dataDate": "10/18/2025",
    "capacity": 0,
    "address": "6308 WOODMAN AVE, SUITE 207",
    "city": "VAN NUYS",
    "zip": "91401",
    "county": "LOS ANGELES",
    "phone": "(818) 666-3440",
    "lat": 34.185114,
    "lng": -118.4310585
  },
  {
    "id": "630020055",
    "name": "G&D HOME HEALTH",
    "npi": null,
    "hcaiId": "406193039",
    "businessName": "G&D HOME HEALTH",
    "contactEmail": "GANDDHOMEHEALTH@GMAIL.COM",
    "categoryName": "HOME HEALTH AGENCY",
    "categoryCode": "HHA",
    "licenseStatus": "ACTIVE",
    "inService": true,
    "licenseNumber": "550006209",
    "licenseEffectiveDate": "03/31/2025",
    "licenseExpirationDate": "03/30/2026",
    "dataDate": "10/18/2025",
    "capacity": 0,
    "address": "6360 VAN NUYS BLVD, SUITE 166",
    "city": "VAN NUYS",
    "zip": "91401",
    "county": "LOS ANGELES",
    "phone": "(747) 264-0331",
    "lat": 34.186041,
    "lng": -118.4484285
  },
  {
    "id": "630018446",
    "name": "GASA HOME HEALTH CARE INC.",
    "npi": "1174018535",
    "hcaiId": "406192006",
    "businessName": "GASA HOME HEALTH CARE INC.",
    "contactEmail": "GASAHOMEHEALTH@GMAIL.COM",
    "categoryName": "HOME HEALTH AGENCY",
    "categoryCode": "HHA",
    "licenseStatus": "ACTIVE",
    "inService": true,
    "licenseNumber": "550005068",
    "licenseEffectiveDate": "10/10/2025",
    "licenseExpirationDate": "10/09/2026",
    "dataDate": "10/18/2025",
    "capacity": 0,
    "address": "13758 VICTORY BLVD, SUITE 204",
    "city": "VAN NUYS",
    "zip": "91401",
    "county": "LOS ANGELES",
    "phone": "(818) 616-4191",
    "lat": 34.186491,
    "lng": -118.433259
  },
  {
    "id": "630027156",
    "name": "GIVING HOME HEALTH CARE",
    "npi": null,
    "hcaiId": null,
    "businessName": "GIVING HOME HEALTH CARE",
    "contactEmail": "4GIVINGHHC@GMAIL.COM",
    "categoryName": "HOME HEALTH AGENCY",
    "categoryCode": "HHA",
    "licenseStatus": "ACTIVE",
    "inService": true,
    "licenseNumber": "550009777",
    "licenseEffectiveDate": "08/14/2025",
    "licenseExpirationDate": "02/13/2026",
    "dataDate": "10/18/2025",
    "capacity": 0,
    "address": "6308 WOODMAN AVE, SUITE 102",
    "city": "VAN NUYS",
    "zip": "91401",
    "county": "LOS ANGELES",
    "phone": "(818) 697-4664",
    "lat": 34.18512401,
    "lng": -118.430921
  },
  {
    "id": "630019668",
    "name": "GOLDEN GATE HOSPICE CARE",
    "npi": "1659919603",
    "hcaiId": "406192598",
    "businessName": "GOLDEN GATE HOSPICE CARE",
    "contactEmail": "GOLDENGATEHOSPICE@GMAIL.COM",
    "categoryName": "HOSPICE",
    "categoryCode": "HOSPICE",
    "licenseStatus": "ACTIVE",
    "inService": true,
    "licenseNumber": "550005316",
    "licenseEffectiveDate": "02/21/2024",
    "licenseExpirationDate": "02/20/2026",
    "dataDate": "10/18/2025",
    "capacity": 0,
    "address": "6420 VAN NUYS BLVD, SUITE 201",
    "city": "VAN NUYS",
    "zip": "91401",
    "county": "LOS ANGELES",
    "phone": "(747) 282-1515",
    "lat": 34.187319,
    "lng": -118.4484465
  },
  {
    "id": "630018964",
    "name": "GOOD EARTH HOME HEALTH, INC.",
    "npi": null,
    "hcaiId": "406192118",
    "businessName": "GOOD EARTH HOME HEALTH, INC.",
    "contactEmail": "GOODEARTHHOMEHEALTH@GMAIL.COM",
    "categoryName": "HOME HEALTH AGENCY",
    "categoryCode": "HHA",
    "licenseStatus": "ACTIVE",
    "inService": true,
    "licenseNumber": "550005123",
    "licenseEffectiveDate": "12/04/2024",
    "licenseExpirationDate": "12/03/2025",
    "dataDate": "10/18/2025",
    "capacity": 0,
    "address": "13609 VICTORY BLVD, SUITE 229",
    "city": "VAN NUYS",
    "zip": "91401",
    "county": "LOS ANGELES",
    "phone": "(818) 934-7755",
    "lat": 34.186842,
    "lng": -118.4293575
  },
  {
    "id": "630014714",
    "name": "GRACIOUS HOME HEALTH, INC.",
    "npi": "1346672623",
    "hcaiId": "406198240",
    "businessName": "GRACIOUS HOME HEALTH, INC.",
    "contactEmail": "GRACIOUSHHA@YAHOO.COM",
    "categoryName": "HOME HEALTH AGENCY",
    "categoryCode": "HHA",
    "licenseStatus": "ACTIVE",
    "inService": true,
    "licenseNumber": "550003226",
    "licenseEffectiveDate": "09/16/2022",
    "licenseExpirationDate": "09/15/2023",
    "dataDate": "10/18/2025",
    "capacity": 0,
    "address": "6314 VAN NUYS BLVD, SUITE 208",
    "city": "VAN NUYS",
    "zip": "91401",
    "county": "LOS ANGELES",
    "phone": "(818) 782-2723",
    "lat": 34.185132,
    "lng": -118.4484825
  },
  {
    "id": "630021447",
    "name": "GRANT PALLIATIVE SERVICES, INC.",
    "npi": null,
    "hcaiId": "406197400",
    "businessName": "GRANT PALLIATIVE SERVICES, INC.",
    "contactEmail": "GRANTPALLIATIVE@GMAIL.COM",
    "categoryName": "HOSPICE",
    "categoryCode": "HOSPICE",
    "licenseStatus": "ACTIVE",
    "inService": true,
    "licenseNumber": "550006553",
    "licenseEffectiveDate": "07/14/2023",
    "licenseExpirationDate": "07/13/2025",
    "dataDate": "10/18/2025",
    "capacity": 0,
    "address": "6320 VAN NUYS BLVD, SUITE 301",
    "city": "VAN NUYS",
    "zip": "91401",
    "county": "LOS ANGELES",
    "phone": "(818) 732-4346",
    "lat": 34.18545,
    "lng": -118.448706
  },
  {
    "id": "630024057",
    "name": "GRATEFUL HOME HEALTH LLC",
    "npi": null,
    "hcaiId": "406195511",
    "businessName": "GRATEFUL HOME HEALTH LLC",
    "contactEmail": "GRATEFULHOMEHEALTH@OUTLOOK.COM",
    "categoryName": "HOME HEALTH AGENCY",
    "categoryCode": "HHA",
    "licenseStatus": "ACTIVE",
    "inService": true,
    "licenseNumber": "550008141",
    "licenseEffectiveDate": "08/31/2024",
    "licenseExpirationDate": "08/30/2025",
    "dataDate": "10/18/2025",
    "capacity": 0,
    "address": "6308 WOODMAN AVE, SUITE 205",
    "city": "VAN NUYS",
    "zip": "91401",
    "county": "LOS ANGELES",
    "phone": "(818) 807-5024",
    "lat": 34.18524,
    "lng": -118.4310495
  },
  {
    "id": "630020607",
    "name": "GREEN ROAD HOSPICE, INC.",
    "npi": null,
    "hcaiId": "406193220",
    "businessName": "GREEN ROAD HOSPICE, INC.",
    "contactEmail": "GREENROADHOSPICE@YAHOO.COM",
    "categoryName": "HOSPICE",
    "categoryCode": "HOSPICE",
    "licenseStatus": "ACTIVE",
    "inService": true,
    "licenseNumber": "550006239",
    "licenseEffectiveDate": "04/05/2025",
    "licenseExpirationDate": "04/04/2027",
    "dataDate": "10/18/2025",
    "capacity": 0,
    "address": "6257 VAN NUYS BLVD, SUITE E",
    "city": "VAN NUYS",
    "zip": "91401",
    "county": "LOS ANGELES",
    "phone": "(747) 262-7255",
    "lat": 34.18389699,
    "lng": -118.449097
  },
  {
    "id": "630015731",
    "name": "GUARDIAN ANGELS HOSPICE CARE INC.",
    "npi": "1124448857",
    "hcaiId": "406198428",
    "businessName": "GUARDIAN ANGELS HOSPICE CARE INC.",
    "contactEmail": "GUARDIANANGELSHCI@GMAIL.COM",
    "categoryName": "HOSPICE",
    "categoryCode": "HOSPICE",
    "licenseStatus": "ACTIVE",
    "inService": true,
    "licenseNumber": "550003867",
    "licenseEffectiveDate": "04/27/2023",
    "licenseExpirationDate": "04/26/2025",
    "dataDate": "10/18/2025",
    "capacity": 0,
    "address": "14402 HAYNES ST, SUITE 101",
    "city": "VAN NUYS",
    "zip": "91401",
    "county": "LOS ANGELES",
    "phone": "(818) 781-7513",
    "lat": 34.189461,
    "lng": -118.446804
  },
  {
    "id": "630018808",
    "name": "HARMONY HOME HEALTH SERVICES, INC",
    "npi": null,
    "hcaiId": "406192682",
    "businessName": "HARMONY HOME HEALTH SERVICES, INC",
    "contactEmail": "HARMONYHHSERVICES@GMAIL.COM",
    "categoryName": "HOME HEALTH AGENCY",
    "categoryCode": "HHA",
    "licenseStatus": "ACTIVE",
    "inService": true,
    "licenseNumber": "550005579",
    "licenseEffectiveDate": "07/09/2025",
    "licenseExpirationDate": "07/08/2026",
    "dataDate": "10/18/2025",
    "capacity": 0,
    "address": "14349 VICTORY BLVD, SUITE 101",
    "city": "VAN NUYS",
    "zip": "91401",
    "county": "LOS ANGELES",
    "phone": "(323) 208-9282",
    "lat": 34.186977,
    "lng": -118.446021
  },
  {
    "id": "630019069",
    "name": "HEALING PATH HOME HEALTHCARE INC",
    "npi": "1114568730",
    "hcaiId": "406192507",
    "businessName": "HEALING PATH HOME HEALTHCARE INC",
    "contactEmail": "INFO@HEALINGHC.COM",
    "categoryName": "HOME HEALTH AGENCY",
    "categoryCode": "HHA",
    "licenseStatus": "ACTIVE",
    "inService": true,
    "licenseNumber": "550005454",
    "licenseEffectiveDate": "05/08/2025",
    "licenseExpirationDate": "05/07/2026",
    "dataDate": "10/18/2025",
    "capacity": 0,
    "address": "6320 VAN NUYS BLVD, SUITE 307B",
    "city": "VAN NUYS",
    "zip": "91401",
    "county": "LOS ANGELES",
    "phone": "(818) 922-2369",
    "lat": 34.185456,
    "lng": -118.4484195
  },
  {
    "id": "630018952",
    "name": "HEALING SOLUTIONS HOME CARE INC.",
    "npi": null,
    "hcaiId": "406192490",
    "businessName": "HEALING SOLUTIONS HOME CARE INC.",
    "contactEmail": "HEALINGSOLUTIONSHC@GMAIL.COM",
    "categoryName": "HOME HEALTH AGENCY",
    "categoryCode": "HHA",
    "licenseStatus": "ACTIVE",
    "inService": true,
    "licenseNumber": "550005456",
    "licenseEffectiveDate": "05/14/2025",
    "licenseExpirationDate": "05/13/2026",
    "dataDate": "10/18/2025",
    "capacity": 0,
    "address": "13746 VICTORY BLVD, UNIT 216",
    "city": "VAN NUYS",
    "zip": "91401",
    "county": "LOS ANGELES",
    "phone": "(818) 436-2206",
    "lat": 34.18635301,
    "lng": -118.432764
  },
  {
    "id": "630016702",
    "name": "HEALTH CARRIAGE HOSPICE, INC.",
    "npi": null,
    "hcaiId": "406190656",
    "businessName": "HEALTH CARRIAGE HOSPICE, INC.",
    "contactEmail": "HEALTHCARRIAGEHOSPICE@GMAIL.COM",
    "categoryName": "HOSPICE",
    "categoryCode": "HOSPICE",
    "licenseStatus": "ACTIVE",
    "inService": true,
    "licenseNumber": "550004190",
    "licenseEffectiveDate": "03/09/2024",
    "licenseExpirationDate": "03/08/2026",
    "dataDate": "10/18/2025",
    "capacity": 0,
    "address": "6320 VAN NUYS BLVD., SUITE 408",
    "city": "VAN NUYS",
    "zip": "91401",
    "county": "LOS ANGELES",
    "phone": "(818) 624-6360",
    "lat": 34.185456,
    "lng": -118.4484195
  },
  {
    "id": "630020207",
    "name": "HEALTHY LIFESTYLE HOSPICE CARE, INC.",
    "npi": null,
    "hcaiId": "406194692",
    "businessName": "HEALTHY LIFESTYLE HOSPICE CARE, INC.",
    "contactEmail": "HEALTHYLIFESTYLEHOSPICE@GMAIL.COM",
    "categoryName": "HOSPICE",
    "categoryCode": "HOSPICE",
    "licenseStatus": "ACTIVE",
    "inService": true,
    "licenseNumber": "550006300",
    "licenseEffectiveDate": "10/07/2024",
    "licenseExpirationDate": "10/06/2026",
    "dataDate": "10/18/2025",
    "capacity": 0,
    "address": "6420 VAN NUYS BLVD, SUITE 103",
    "city": "VAN NUYS",
    "zip": "91401",
    "county": "LOS ANGELES",
    "phone": "(747) 282-1585",
    "lat": 34.187319,
    "lng": -118.4484465
  },
  {
    "id": "630020986",
    "name": "HEALTHY WAY HOME HEALTH",
    "npi": null,
    "hcaiId": "406193451",
    "businessName": "HEALTHY WAY HOME HEALTH",
    "contactEmail": "HEALTHYWAYHH@GMAIL.COM",
    "categoryName": "HOME HEALTH AGENCY",
    "categoryCode": "HHA",
    "licenseStatus": "ACTIVE",
    "inService": true,
    "licenseNumber": "550007022",
    "licenseEffectiveDate": "09/24/2025",
    "licenseExpirationDate": "09/23/2026",
    "dataDate": "10/18/2025",
    "capacity": 0,
    "address": "6320 VAN NUYS BLVD, SUITE 207",
    "city": "VAN NUYS",
    "zip": "91401",
    "county": "LOS ANGELES",
    "phone": "(818) 392-6636",
    "lat": 34.18545099,
    "lng": -118.448414
  },
  {
    "id": "630021231",
    "name": "HEART AT HOME HEALTHCARE, INC",
    "npi": null,
    "hcaiId": "406193168",
    "businessName": "HEART AT HOME HEALTHCARE, INC",
    "contactEmail": "HEARTATHOMEHHCINC@GMAIL.COM",
    "categoryName": "HOME HEALTH AGENCY",
    "categoryCode": "HHA",
    "licenseStatus": "ACTIVE",
    "inService": true,
    "licenseNumber": "550006987",
    "licenseEffectiveDate": "10/15/2024",
    "licenseExpirationDate": "10/14/2025",
    "dataDate": "10/18/2025",
    "capacity": 0,
    "address": "6356 VAN NUYS BLVD, SUITE 212",
    "city": "VAN NUYS",
    "zip": "91401",
    "county": "LOS ANGELES",
    "phone": "(818) 387-6391",
    "lat": 34.185915,
    "lng": -118.448451
  },
  {
    "id": "630013124",
    "name": "HEART TO HEART HEALTH CARE, INC.",
    "npi": null,
    "hcaiId": "206197822",
    "businessName": "HEART TO HEART HEALTH CARE INC.",
    "contactEmail": "ECHAN1975@GMAIL.COM",
    "categoryName": "CONGREGATE LIVING HEALTH FACILITY",
    "categoryCode": "CLHF",
    "licenseStatus": "ACTIVE",
    "inService": true,
    "licenseNumber": "550002188",
    "licenseEffectiveDate": "12/26/2024",
    "licenseExpirationDate": "12/25/2025",
    "dataDate": "10/18/2025",
    "capacity": 6,
    "address": "13739 CHANDLER BLVD.",
    "city": "SHERMAN OAKS",
    "zip": "91401",
    "county": "LOS ANGELES",
    "phone": "(626) 297-5280",
    "lat": 34.168923,
    "lng": -118.4324355
  },
  {
    "id": "630024935",
    "name": "HEAVENLY HEALTHCARE SERVICES, INC",
    "npi": null,
    "hcaiId": "406195969",
    "businessName": "HEAVENLY HEALTHCARE SERVICES, INC.",
    "contactEmail": "HEAVNLYHH22@GMAIL.COM",
    "categoryName": "HOME HEALTH AGENCY",
    "categoryCode": "HHA",
    "licenseStatus": "ACTIVE",
    "inService": true,
    "licenseNumber": "550008264",
    "licenseEffectiveDate": "12/12/2024",
    "licenseExpirationDate": "12/11/2025",
    "dataDate": "10/18/2025",
    "capacity": 0,
    "address": "6470 VAN NUYS BLVD, SUITE E",
    "city": "VAN NUYS",
    "zip": "91401",
    "county": "LOS ANGELES",
    "phone": "(818) 671-1757",
    "lat": 34.188246,
    "lng": -118.4484645
  },
  {
    "id": "630021788",
    "name": "HEAVENLY HOSPICE CARE CENTER INC",
    "npi": null,
    "hcaiId": "406193900",
    "businessName": "HEAVENLY HOSPICE CARE CENTER INC.",
    "contactEmail": "HEAVENLYHOSPICEC@GMAIL.COM",
    "categoryName": "HOSPICE",
    "categoryCode": "HOSPICE",
    "licenseStatus": "ACTIVE",
    "inService": true,
    "licenseNumber": "550007267",
    "licenseEffectiveDate": "11/09/2025",
    "licenseExpirationDate": "11/08/2027",
    "dataDate": "10/18/2025",
    "capacity": 0,
    "address": "6308 WOODMAN AVE, SUITE 218",
    "city": "VAN NUYS",
    "zip": "91401",
    "county": "LOS ANGELES",
    "phone": "(818) 495-4744",
    "lat": 34.18524,
    "lng": -118.4310495
  },
  {
    "id": "630021233",
    "name": "HEAVENS ANGELS HOSPICE, INC",
    "npi": null,
    "hcaiId": "406193363",
    "businessName": "HEAVENS ANGELS HOSPICE, INC",
    "contactEmail": "HEAVENSANGELSHOSPICE@GMAIL.COM",
    "categoryName": "HOSPICE",
    "categoryCode": "HOSPICE",
    "licenseStatus": "ACTIVE",
    "inService": true,
    "licenseNumber": "550006997",
    "licenseEffectiveDate": "10/15/2023",
    "licenseExpirationDate": "10/14/2025",
    "dataDate": "10/18/2025",
    "capacity": 0,
    "address": "14416 VICTORY BLVD, SUITE 207",
    "city": "VAN NUYS",
    "zip": "91401",
    "county": "LOS ANGELES",
    "phone": "(747) 308-0312",
    "lat": 34.186464,
    "lng": -118.447164
  },
  {
    "id": "630021950",
    "name": "HELPFUL HEARTS HOSPICE CARE INC",
    "npi": null,
    "hcaiId": "406195930",
    "businessName": "HELPFUL HEARTS HOSPICE CARE INC",
    "contactEmail": "HOSPICE.HELPFULHEARTS@YAHOO.COM",
    "categoryName": "HOSPICE",
    "categoryCode": "HOSPICE",
    "licenseStatus": "ACTIVE",
    "inService": true,
    "licenseNumber": "550007540",
    "licenseEffectiveDate": "12/09/2021",
    "licenseExpirationDate": "12/08/2023",
    "dataDate": "10/18/2025",
    "capacity": 0,
    "address": "13609 VICTORY BLVD, SUITE 129",
    "city": "VAN NUYS",
    "zip": "91401",
    "county": "LOS ANGELES",
    "phone": "(747) 666-1568",
    "lat": 34.187055,
    "lng": -118.429355
  },
  {
    "id": "630023245",
    "name": "HIGHLIGHT HOME HEALTH",
    "npi": null,
    "hcaiId": "406195788",
    "businessName": "HIGHLIGHT HOME HEALTH",
    "contactEmail": "HIGHLIGHTHOMEHEALTH@GMAIL.COM",
    "categoryName": "HOME HEALTH AGENCY",
    "categoryCode": "HHA",
    "licenseStatus": "ACTIVE",
    "inService": true,
    "licenseNumber": "550007817",
    "licenseEffectiveDate": "03/25/2025",
    "licenseExpirationDate": "01/30/2026",
    "dataDate": "10/18/2025",
    "capacity": 0,
    "address": "14412 FRIAR ST, SUITE 204",
    "city": "VAN NUYS",
    "zip": "91401",
    "county": "LOS ANGELES",
    "phone": "(747) 356-4175",
    "lat": 34.18535586,
    "lng": -118.4471081
  },
  {
    "id": "630025928",
    "name": "HILL HOME HEALTH",
    "npi": null,
    "hcaiId": "406190338",
    "businessName": "HILL HOME HEALTH",
    "contactEmail": "HILLHOMEH@GMAIL.COM",
    "categoryName": "HOME HEALTH AGENCY",
    "categoryCode": "HHA",
    "licenseStatus": "ACTIVE",
    "inService": true,
    "licenseNumber": "550009096",
    "licenseEffectiveDate": "04/15/2025",
    "licenseExpirationDate": "04/14/2026",
    "dataDate": "10/18/2025",
    "capacity": 0,
    "address": "6368 VAN NUYS BLVD, UNIT L",
    "city": "VAN NUYS",
    "zip": "91401",
    "county": "LOS ANGELES",
    "phone": "(323) 491-8970",
    "lat": 34.18626739,
    "lng": -118.4482884
  },
  {
    "id": "630020089",
    "name": "HOLLY ANGELS OF LA HOSPICE CARE INC",
    "npi": null,
    "hcaiId": "406194706",
    "businessName": "HOLLY ANGELS OF LA HOSPICE CARE INC.",
    "contactEmail": "HOLLYHOSPICECARE@GMAIL.COM",
    "categoryName": "HOSPICE",
    "categoryCode": "HOSPICE",
    "licenseStatus": "ACTIVE",
    "inService": true,
    "licenseNumber": "550005931",
    "licenseEffectiveDate": "12/03/2024",
    "licenseExpirationDate": "12/02/2026",
    "dataDate": "10/18/2025",
    "capacity": 0,
    "address": "13615 VICTORY BLVD, SUITE 113",
    "city": "VAN NUYS",
    "zip": "91401",
    "county": "LOS ANGELES",
    "phone": "(818) 275-8373",
    "lat": 34.186833,
    "lng": -118.429578
  },
  {
    "id": "630017403",
    "name": "HOLY CARE HOME HEALTH & PALLIATIVE CARE",
    "npi": "1801245667",
    "hcaiId": "406191371",
    "businessName": "HOLY CARE HOME HEALTH & PALLIATIVE CARE",
    "contactEmail": "HOLYCAREHOMEHEALTH@GMAIL.COM",
    "categoryName": "HOME HEALTH AGENCY",
    "categoryCode": "HHA",
    "licenseStatus": "ACTIVE",
    "inService": true,
    "licenseNumber": "550004472",
    "licenseEffectiveDate": "11/17/2025",
    "licenseExpirationDate": "11/16/2026",
    "dataDate": "10/18/2025",
    "capacity": 0,
    "address": "13758 VICTORY BLVD, SUITE 210",
    "city": "VAN NUYS",
    "zip": "91401",
    "county": "LOS ANGELES",
    "phone": "(818) 922-2010",
    "lat": 34.186491,
    "lng": -118.433259
  },
  {
    "id": "630014329",
    "name": "HOLY CARE HOSPICE, INC.",
    "npi": null,
    "hcaiId": "406198212",
    "businessName": "HOLY CARE HOSPICE, INC.",
    "contactEmail": "INFO@HOLYCAREHOSPICE.COM",
    "categoryName": "HOSPICE",
    "categoryCode": "HOSPICE",
    "licenseStatus": "ACTIVE",
    "inService": true,
    "licenseNumber": "550002766",
    "licenseEffectiveDate": "07/11/2024",
    "licenseExpirationDate": "07/10/2026",
    "dataDate": "10/18/2025",
    "capacity": 0,
    "address": "13758 VICTORY BLVD, SUITE 200",
    "city": "VAN NUYS",
    "zip": "91401",
    "county": "LOS ANGELES",
    "phone": "(818) 786-1600",
    "lat": 34.186491,
    "lng": -118.433259
  },
  {
    "id": "630017325",
    "name": "HOMELESS HEALTH CARE",
    "npi": "1629079009",
    "hcaiId": null,
    "businessName": "NORTHEAST VALLEY HEALTH CORPORATION",
    "contactEmail": null,
    "categoryName": "PRIMARY CARE CLINIC",
    "categoryCode": "COMTYC",
    "licenseStatus": "ACTIVE",
    "inService": true,
    "licenseNumber": "960000947",
    "licenseEffectiveDate": "05/09/2025",
    "licenseExpirationDate": "05/08/2026",
    "dataDate": "10/18/2025",
    "capacity": 0,
    "address": "6551 VAN NUYS BLVD, SUITE 201",
    "city": "VAN NUYS",
    "zip": "91401",
    "county": "LOS ANGELES",
    "phone": null,
    "lat": 34.189803,
    "lng": -118.449
  },
  {
    "id": "630019689",
    "name": "HOPE & PEACE PALLIATIVE CARE",
    "npi": null,
    "hcaiId": "406195684",
    "businessName": "HOPE & PEACE HOSPICE",
    "contactEmail": "HOPEANDPEACEHOSPICE@GMAIL.COM",
    "categoryName": "HOSPICE",
    "categoryCode": "HOSPICE",
    "licenseStatus": "ACTIVE",
    "inService": true,
    "licenseNumber": "550006420",
    "licenseEffectiveDate": "12/12/2024",
    "licenseExpirationDate": "12/11/2026",
    "dataDate": "10/18/2025",
    "capacity": 0,
    "address": "6257 VAN NUYS BLVD, SUITE D",
    "city": "VAN NUYS",
    "zip": "91401",
    "county": "LOS ANGELES",
    "phone": "(818) 510-0207",
    "lat": 34.183881,
    "lng": -118.448973
  },
  {
    "id": "630018829",
    "name": "HVA HOME HEALTH CARE, INC.",
    "npi": "1225691173",
    "hcaiId": "406192095",
    "businessName": "HVA HOME HEALTH CARE, INC.",
    "contactEmail": "HVAHHC@YAHOO.COM",
    "categoryName": "HOME HEALTH AGENCY",
    "categoryCode": "HHA",
    "licenseStatus": "ACTIVE",
    "inService": true,
    "licenseNumber": "550005187",
    "licenseEffectiveDate": "12/18/2024",
    "licenseExpirationDate": "12/17/2025",
    "dataDate": "10/18/2025",
    "capacity": 0,
    "address": "6368 VAN NUYS BLVD, UNIT F",
    "city": "VAN NUYS",
    "zip": "91401",
    "county": "LOS ANGELES",
    "phone": "(818) 570-9093",
    "lat": 34.186257,
    "lng": -118.448451
  },
  {
    "id": "630026340",
    "name": "IMPRESSION HOME HEALTH",
    "npi": null,
    "hcaiId": null,
    "businessName": "IMPRESSION HOME HEALTH",
    "contactEmail": "IMPRESSIONHH@GMAIL.COM",
    "categoryName": "HOME HEALTH AGENCY",
    "categoryCode": "HHA",
    "licenseStatus": "ACTIVE",
    "inService": true,
    "licenseNumber": "550009503",
    "licenseEffectiveDate": "10/15/2025",
    "licenseExpirationDate": "10/14/2026",
    "dataDate": "10/18/2025",
    "capacity": 0,
    "address": "14414 HAMLIN ST, UNIT 216",
    "city": "VAN NUYS",
    "zip": "91401",
    "county": "LOS ANGELES",
    "phone": "(818) 826-2446",
    "lat": 34.188471,
    "lng": -118.4471775
  },
  {
    "id": "630021451",
    "name": "INTEGRATED HOSPICE CARE, INC",
    "npi": null,
    "hcaiId": "406193915",
    "businessName": "INTEGRATED HOSPICE CARE, INC",
    "contactEmail": "VAHANMANUKYAN0506@GMAIL.COM",
    "categoryName": "HOSPICE",
    "categoryCode": "HOSPICE",
    "licenseStatus": "ACTIVE",
    "inService": true,
    "licenseNumber": "550007134",
    "licenseEffectiveDate": "11/04/2023",
    "licenseExpirationDate": "11/03/2025",
    "dataDate": "10/18/2025",
    "capacity": 0,
    "address": "6354 1/2 VAN NUYS BLVD, SUITE 102",
    "city": "VAN NUYS",
    "zip": "91401",
    "county": "LOS ANGELES",
    "phone": "(818) 922-2138",
    "lat": 34.18584415,
    "lng": -118.4486726
  },
  {
    "id": "630020616",
    "name": "INTELLIGENT HOSPICE CARE, INC",
    "npi": null,
    "hcaiId": null,
    "businessName": "INTELLIGENT HOSPICE CARE, INC",
    "contactEmail": "INTELLIGENTHOSPICE@GMAIL.COM",
    "categoryName": "HOSPICE",
    "categoryCode": "HOSPICE",
    "licenseStatus": "ACTIVE",
    "inService": true,
    "licenseNumber": "550006153",
    "licenseEffectiveDate": "03/19/2021",
    "licenseExpirationDate": "03/18/2023",
    "dataDate": "10/18/2025",
    "capacity": 0,
    "address": "13609 VICTORY BLVD, SUITE 128",
    "city": "VAN NUYS",
    "zip": "91401",
    "county": "LOS ANGELES",
    "phone": "(818) 584-7657",
    "lat": 34.186842,
    "lng": -118.4293575
  },
  {
    "id": "630020663",
    "name": "JASMINE HOSPICE, INC.",
    "npi": null,
    "hcaiId": "406196007",
    "businessName": "JASMINE HOSPICE, INC.",
    "contactEmail": "JASMINEHOSPICE@GMAIL.COM",
    "categoryName": "HOSPICE",
    "categoryCode": "HOSPICE",
    "licenseStatus": "ACTIVE",
    "inService": true,
    "licenseNumber": "550006342",
    "licenseEffectiveDate": "05/04/2025",
    "licenseExpirationDate": "05/03/2027",
    "dataDate": "10/18/2025",
    "capacity": 0,
    "address": "14120 VICTORY BLVD, #105",
    "city": "VAN NUYS",
    "zip": "91401",
    "county": "LOS ANGELES",
    "phone": "(818) 806-9297",
    "lat": 34.1865,
    "lng": -118.440738
  },
  {
    "id": "630019864",
    "name": "JML HOSPICE, INC.",
    "npi": null,
    "hcaiId": "406193006",
    "businessName": "JML HOSPICE, INC.",
    "contactEmail": "JMLHOSPICEINC@YAHOO.COM",
    "categoryName": "HOSPICE",
    "categoryCode": "HOSPICE",
    "licenseStatus": "ACTIVE",
    "inService": true,
    "licenseNumber": "550005898",
    "licenseEffectiveDate": "08/24/2024",
    "licenseExpirationDate": "08/23/2026",
    "dataDate": "10/18/2025",
    "capacity": 0,
    "address": "6412 MATILIJA AVE, SUITE 202",
    "city": "VAN NUYS",
    "zip": "91401",
    "county": "LOS ANGELES",
    "phone": "(818) 387-6011",
    "lat": 34.187184,
    "lng": -118.433151
  },
  {
    "id": "630017596",
    "name": "KARMEL HOME HEALTH, INC.",
    "npi": null,
    "hcaiId": "406191901",
    "businessName": "KARMEL HOME HEALTH, INC.",
    "contactEmail": "KARMELHOMEHEALTH@GMAIL.COM",
    "categoryName": "HOME HEALTH AGENCY",
    "categoryCode": "HHA",
    "licenseStatus": "ACTIVE",
    "inService": true,
    "licenseNumber": "550004790",
    "licenseEffectiveDate": "05/04/2025",
    "licenseExpirationDate": "05/03/2026",
    "dataDate": "10/18/2025",
    "capacity": 0,
    "address": "13746 VICTORY BLVD, SUITE 301",
    "city": "VAN NUYS",
    "zip": "91401",
    "county": "LOS ANGELES",
    "phone": "(818) 900-0716",
    "lat": 34.186356,
    "lng": -118.4328315
  },
  {
    "id": "630020349",
    "name": "LA ASPIRE HOSPICE, INC",
    "npi": null,
    "hcaiId": "406196064",
    "businessName": "LA ASPIRE HOSPICE, INC.",
    "contactEmail": "LAASPIREHOSPICE@GMAIL.COM",
    "categoryName": "HOSPICE",
    "categoryCode": "HOSPICE",
    "licenseStatus": "ACTIVE",
    "inService": true,
    "licenseNumber": "550005975",
    "licenseEffectiveDate": "01/08/2023",
    "licenseExpirationDate": "01/07/2025",
    "dataDate": "10/18/2025",
    "capacity": 0,
    "address": "14435 HAMLIN ST, SUITE B",
    "city": "VAN NUYS",
    "zip": "91401",
    "county": "LOS ANGELES",
    "phone": "(818) 724-8580",
    "lat": 34.188984,
    "lng": -118.447713
  },
  {
    "id": "630019318",
    "name": "LA BEST HOSPICE CARE",
    "npi": null,
    "hcaiId": "406192560",
    "businessName": "LA BEST HOSPICE CARE",
    "contactEmail": "LABESTHOSPICE@YAHOO.COM",
    "categoryName": "HOSPICE",
    "categoryCode": "HOSPICE",
    "licenseStatus": "ACTIVE",
    "inService": true,
    "licenseNumber": "550005302",
    "licenseEffectiveDate": "02/06/2024",
    "licenseExpirationDate": "02/05/2026",
    "dataDate": "10/18/2025",
    "capacity": 0,
    "address": "13746 VICTORY BLVD, SUITE 201",
    "city": "VAN NUYS",
    "zip": "91401",
    "county": "LOS ANGELES",
    "phone": "(818) 453-5030",
    "lat": 34.186356,
    "lng": -118.4328315
  },
  {
    "id": "630022079",
    "name": "LA CASA CARE HOSPICE, INC.",
    "npi": null,
    "hcaiId": "406195060",
    "businessName": "LA CASA CARE HOSPICE, INC.",
    "contactEmail": "LACASAHOSPICE@GMAIL.COM",
    "categoryName": "HOSPICE",
    "categoryCode": "HOSPICE",
    "licenseStatus": "ACTIVE",
    "inService": true,
    "licenseNumber": "550007444",
    "licenseEffectiveDate": "12/10/2023",
    "licenseExpirationDate": "12/09/2025",
    "dataDate": "10/18/2025",
    "capacity": 0,
    "address": "6309 VAN NUYS BLVD, SUITE 104",
    "city": "VAN NUYS",
    "zip": "91401",
    "county": "LOS ANGELES",
    "phone": "(747) 264-0770",
    "lat": 34.184997,
    "lng": -118.448946
  },
  {
    "id": "630021015",
    "name": "LA ELDER HOSPICE AND PALLIATIVE CARE, INC",
    "npi": null,
    "hcaiId": "406193757",
    "businessName": "LA ELDER HOSPICE AND PALLIATIVE CARE, INC",
    "contactEmail": "LAELDERHC@GMAIL.COM",
    "categoryName": "HOSPICE",
    "categoryCode": "HOSPICE",
    "licenseStatus": "ACTIVE",
    "inService": true,
    "licenseNumber": "550006530",
    "licenseEffectiveDate": "07/07/2023",
    "licenseExpirationDate": "07/06/2025",
    "dataDate": "10/18/2025",
    "capacity": 0,
    "address": "6454 VAN NUYS BLVD, SUITE 110/8",
    "city": "VAN NUYS",
    "zip": "91401",
    "county": "LOS ANGELES",
    "phone": "(747) 877-2809",
    "lat": 34.187787,
    "lng": -118.4484465
  },
  {
    "id": "630020688",
    "name": "LA MEDICAL HOME HEALTH, INC.",
    "npi": null,
    "hcaiId": "406195698",
    "businessName": "LA MEDICAL HOME HEALTH, INC.",
    "contactEmail": "LAMEDICALHOMEHEALTH@GMAIL.COM",
    "categoryName": "HOME HEALTH AGENCY",
    "categoryCode": "HHA",
    "licenseStatus": "ACTIVE",
    "inService": true,
    "licenseNumber": "550007348",
    "licenseEffectiveDate": "11/05/2025",
    "licenseExpirationDate": "11/04/2026",
    "dataDate": "10/18/2025",
    "capacity": 0,
    "address": "13735 VICTORY BLVD, SUITE 12",
    "city": "VAN NUYS",
    "zip": "91401",
    "county": "LOS ANGELES",
    "phone": "(747) 262-5400",
    "lat": 34.186959,
    "lng": -118.4324085
  },
  {
    "id": "630021466",
    "name": "LA VIDA CARE HOSPICE, INC",
    "npi": null,
    "hcaiId": "406195225",
    "businessName": "LA VIDA CARE HOSPICE, INC",
    "contactEmail": "LAVIDHOSPICE@GMAIL.COM",
    "categoryName": "HOSPICE",
    "categoryCode": "HOSPICE",
    "licenseStatus": "ACTIVE",
    "inService": true,
    "licenseNumber": "550007453",
    "licenseEffectiveDate": "12/09/2023",
    "licenseExpirationDate": "12/08/2025",
    "dataDate": "10/18/2025",
    "capacity": 0,
    "address": "6309 VAN NUYS BLVD, SUITE 106",
    "city": "VAN NUYS",
    "zip": "91401",
    "county": "LOS ANGELES",
    "phone": "(747) 264-0778",
    "lat": 34.184992,
    "lng": -118.448783
  },
  {
    "id": "630025923",
    "name": "LAKE HOME HEALTH",
    "npi": null,
    "hcaiId": null,
    "businessName": "LAKE HOME HEALTH",
    "contactEmail": "LAKEHOMEHEALTHINC@GMAIL.COM",
    "categoryName": "HOME HEALTH AGENCY",
    "categoryCode": "HHA",
    "licenseStatus": "ACTIVE",
    "inService": true,
    "licenseNumber": "550009675",
    "licenseEffectiveDate": "08/28/2025",
    "licenseExpirationDate": "02/27/2026",
    "dataDate": "10/18/2025",
    "capacity": 0,
    "address": "6360 VAN NUYS BLVD, SUITE 167",
    "city": "VAN NUYS",
    "zip": "91401",
    "county": "LOS ANGELES",
    "phone": "(818) 510-0621",
    "lat": 34.186041,
    "lng": -118.4484285
  },
  {
    "id": "630025954",
    "name": "LEO HOME HEALTH INC",
    "npi": null,
    "hcaiId": "406190153",
    "businessName": "LEO HOME HEALTH INC",
    "contactEmail": "LEOHOMEHEALTH@GMAIL.COM",
    "categoryName": "HOME HEALTH AGENCY",
    "categoryCode": "HHA",
    "licenseStatus": "ACTIVE",
    "inService": true,
    "licenseNumber": "550008937",
    "licenseEffectiveDate": "01/17/2025",
    "licenseExpirationDate": "01/16/2026",
    "dataDate": "10/18/2025",
    "capacity": 0,
    "address": "6454 VAN NUYS BLVD, SUITE 150 SUITE 45",
    "city": "VAN NUYS",
    "zip": "91401",
    "county": "LOS ANGELES",
    "phone": "(818) 756-2026",
    "lat": 34.187787,
    "lng": -118.4484465
  },
  {
    "id": "630025000",
    "name": "LIA HELP HOME CARE",
    "npi": null,
    "hcaiId": "406198011",
    "businessName": "LIA HELP HOME CARE",
    "contactEmail": "LIAHELPHHC@GMAIL.COM",
    "categoryName": "HOME HEALTH AGENCY",
    "categoryCode": "HHA",
    "licenseStatus": "ACTIVE",
    "inService": true,
    "licenseNumber": "550008760",
    "licenseEffectiveDate": "02/16/2024",
    "licenseExpirationDate": "08/15/2024",
    "dataDate": "10/18/2025",
    "capacity": 0,
    "address": "13746 VICTORY BLVD, SUITE 107",
    "city": "VAN NUYS",
    "zip": "91401",
    "county": "LOS ANGELES",
    "phone": "(818) 433-6432",
    "lat": 34.1865,
    "lng": -118.432854
  },
  {
    "id": "630019511",
    "name": "LIBERTY HOSPICE CARE",
    "npi": null,
    "hcaiId": "406193228",
    "businessName": "LIBERTY HOSPICE CARE",
    "contactEmail": "LIBERTYHOSPICECARE1@GMAIL.COM",
    "categoryName": "HOSPICE",
    "categoryCode": "HOSPICE",
    "licenseStatus": "ACTIVE",
    "inService": true,
    "licenseNumber": "550006244",
    "licenseEffectiveDate": "05/04/2025",
    "licenseExpirationDate": "05/03/2027",
    "dataDate": "10/18/2025",
    "capacity": 0,
    "address": "14407 GILMORE ST, SUITE 202B",
    "city": "VAN NUYS",
    "zip": "91401",
    "county": "LOS ANGELES",
    "phone": "(747) 272-9887",
    "lat": 34.187796,
    "lng": -118.4468715
  },
  {
    "id": "630022010",
    "name": "LIFE ROOTS HOSPICE CARE, INC.",
    "npi": null,
    "hcaiId": null,
    "businessName": "LIFE ROOTS HOSPICE CARE, INC.",
    "contactEmail": "LIFEROOTSHOSPICE@GMAIL.COM",
    "categoryName": "HOSPICE",
    "categoryCode": "HOSPICE",
    "licenseStatus": "ACTIVE",
    "inService": true,
    "licenseNumber": "550007398",
    "licenseEffectiveDate": "12/07/2023",
    "licenseExpirationDate": "12/06/2025",
    "dataDate": "10/18/2025",
    "capacity": 0,
    "address": "6410 VAN NUYS BLVD, SUITE F203",
    "city": "VAN NUYS",
    "zip": "91401",
    "county": "LOS ANGELES",
    "phone": "(747) 666-0642",
    "lat": 34.187076,
    "lng": -118.4484465
  },
  {
    "id": "630018740",
    "name": "LIFESTAR HOME HEALTH INC",
    "npi": "1285104570",
    "hcaiId": "406192098",
    "businessName": "LIFESTAR HOME HEALTH INC",
    "contactEmail": "LIFESTARHOMEHEALTH@GMAIL.COM",
    "categoryName": "HOME HEALTH AGENCY",
    "categoryCode": "HHA",
    "licenseStatus": "ACTIVE",
    "inService": true,
    "licenseNumber": "550005189",
    "licenseEffectiveDate": "12/12/2024",
    "licenseExpirationDate": "12/11/2025",
    "dataDate": "10/18/2025",
    "capacity": 0,
    "address": "6320 VAN NUYS BLVD, SUITE 310",
    "city": "VAN NUYS",
    "zip": "91401",
    "county": "LOS ANGELES",
    "phone": "(818) 582-8068",
    "lat": 34.185339,
    "lng": -118.4484825
  },
  {
    "id": "630017045",
    "name": "LIGHT ANGEL HOSPICE INC.",
    "npi": "1033651096",
    "hcaiId": "406192114",
    "businessName": "LIGHT ANGEL HOSPICE INC.",
    "contactEmail": "LIGHTANGELHOSPICE@YAHOO.COM",
    "categoryName": "HOSPICE",
    "categoryCode": "HOSPICE",
    "licenseStatus": "ACTIVE",
    "inService": true,
    "licenseNumber": "550003729",
    "licenseEffectiveDate": "12/09/2024",
    "licenseExpirationDate": "12/08/2026",
    "dataDate": "10/18/2025",
    "capacity": 0,
    "address": "13609 VICTORY BLVD, SUITE 236",
    "city": "VAN NUYS",
    "zip": "91401",
    "county": "LOS ANGELES",
    "phone": "(747) 208-4477",
    "lat": 34.186842,
    "lng": -118.4293575
  },
  {
    "id": "630019734",
    "name": "LIGHT HOSPICE INC.",
    "npi": "1780223008",
    "hcaiId": "406192961",
    "businessName": "LIGHT HOSPICE INC.",
    "contactEmail": "LIGHTHOSPICEINC@GMAIL.COM",
    "categoryName": "HOSPICE",
    "categoryCode": "HOSPICE",
    "licenseStatus": "ACTIVE",
    "inService": true,
    "licenseNumber": "550005741",
    "licenseEffectiveDate": "09/02/2022",
    "licenseExpirationDate": "09/01/2024",
    "dataDate": "10/18/2025",
    "capacity": 0,
    "address": "13615 VICTORY BLVD, SUITE 112",
    "city": "VAN NUYS",
    "zip": "91401",
    "county": "LOS ANGELES",
    "phone": "(818) 538-5538",
    "lat": 34.186833,
    "lng": -118.429578
  },
  {
    "id": "630012255",
    "name": "LIGHT TOUCH HOME HEALTH CARE, INC.",
    "npi": "1225271497",
    "hcaiId": "406197362",
    "businessName": "LIGHT TOUCH HOME HEALTH CARE, INC.",
    "contactEmail": "LIGHTTOUCHHHC@GMAIL.COM",
    "categoryName": "HOME HEALTH AGENCY",
    "categoryCode": "HHA",
    "licenseStatus": "ACTIVE",
    "inService": false,
    "licenseNumber": "550001230",
    "licenseEffectiveDate": "03/06/2025",
    "licenseExpirationDate": "03/05/2026",
    "dataDate": "10/18/2025",
    "capacity": 0,
    "address": "13758 VICTORY BLVD, SUITE 207",
    "city": "VAN NUYS",
    "zip": "91401",
    "county": "LOS ANGELES",
    "phone": "(818) 638-3391",
    "lat": 34.186491,
    "lng": -118.433259
  },
  {
    "id": "630027309",
    "name": "LOYALTY PLUS HOME HEALTH",
    "npi": null,
    "hcaiId": null,
    "businessName": "LOYALTY PLUS HOME HEALTH",
    "contactEmail": "LOYALTYPLUSHEALTH@YAHOO.COM",
    "categoryName": "HOME HEALTH AGENCY",
    "categoryCode": "HHA",
    "licenseStatus": "ACTIVE",
    "inService": true,
    "licenseNumber": "550009445",
    "licenseEffectiveDate": "04/15/2025",
    "licenseExpirationDate": "10/14/2025",
    "dataDate": "10/18/2025",
    "capacity": 0,
    "address": "6412 MATILIJA AVE, SUITE 204",
    "city": "VAN NUYS",
    "zip": "91401",
    "county": "LOS ANGELES",
    "phone": "(747) 355-7714",
    "lat": 34.187185,
    "lng": -118.433163
  },
  {
    "id": "630017632",
    "name": "LUNA PLUS HOME HEALTH, INC.",
    "npi": "1346769270",
    "hcaiId": "406191497",
    "businessName": "LUNA PLUS HOME HEALTH,INC.",
    "contactEmail": "LUNAPLUSHHA2017@GMAIL.COM",
    "categoryName": "HOME HEALTH AGENCY",
    "categoryCode": "HHA",
    "licenseStatus": "ACTIVE",
    "inService": true,
    "licenseNumber": "550004580",
    "licenseEffectiveDate": "03/09/2025",
    "licenseExpirationDate": "03/08/2026",
    "dataDate": "10/18/2025",
    "capacity": 0,
    "address": "6308 WOODMAN AVE, SUITE 116",
    "city": "VAN NUYS",
    "zip": "91401",
    "county": "LOS ANGELES",
    "phone": "(818) 465-3601",
    "lat": 34.185114,
    "lng": -118.4310585
  },
  {
    "id": "630018728",
    "name": "MAMMOTH HOME HEALTH CARE INC",
    "npi": "1346709938",
    "hcaiId": "406192050",
    "businessName": "MAMMOTH HOME HEALTH CARE INC",
    "contactEmail": "MAMMOTHHOMEHEALTH@GMAIL.COM",
    "categoryName": "HOME HEALTH AGENCY",
    "categoryCode": "HHA",
    "licenseStatus": "ACTIVE",
    "inService": true,
    "licenseNumber": "550005101",
    "licenseEffectiveDate": "11/07/2025",
    "licenseExpirationDate": "11/06/2026",
    "dataDate": "10/18/2025",
    "capacity": 0,
    "address": "13743 VICTORY BLVD, SUITE A",
    "city": "VAN NUYS",
    "zip": "91401",
    "county": "LOS ANGELES",
    "phone": "(818) 208-6769",
    "lat": 34.186833,
    "lng": -118.432773
  },
  {
    "id": "630020684",
    "name": "MEDALLION HOSPICE CARE INC",
    "npi": null,
    "hcaiId": "406193372",
    "businessName": "MEDALLION HOSPICE CARE INC",
    "contactEmail": "MEDALLIONHOSPICECAREINC@GMAIL.COM",
    "categoryName": "HOSPICE",
    "categoryCode": "HOSPICE",
    "licenseStatus": "ACTIVE",
    "inService": true,
    "licenseNumber": "550007001",
    "licenseEffectiveDate": "10/13/2025",
    "licenseExpirationDate": "10/12/2027",
    "dataDate": "10/18/2025",
    "capacity": 0,
    "address": "6309 VAN NUYS BLVD, SUITE 204",
    "city": "VAN NUYS",
    "zip": "91401",
    "county": "LOS ANGELES",
    "phone": "(747) 240-0822",
    "lat": 34.184997,
    "lng": -118.448946
  },
  {
    "id": "630017187",
    "name": "MEDLINE HOME HEALTH CARE, INC.",
    "npi": null,
    "hcaiId": "406194816",
    "businessName": "MEDLINE HOME HEALTH CARE INC.",
    "contactEmail": "PREMIERHEALTHPHARM@GMAIL.COM",
    "categoryName": "HOME HEALTH AGENCY",
    "categoryCode": "HHA",
    "licenseStatus": "ACTIVE",
    "inService": true,
    "licenseNumber": "550006070",
    "licenseEffectiveDate": "12/28/2024",
    "licenseExpirationDate": "12/27/2025",
    "dataDate": "10/18/2025",
    "capacity": 0,
    "address": "5605 WOODMAN AVE, SUITE 203",
    "city": "VAN NUYS",
    "zip": "91401",
    "county": "LOS ANGELES",
    "phone": "(818) 787-8781",
    "lat": 34.17243009,
    "lng": -118.4313184
  },
  {
    "id": "630018787",
    "name": "MEDLINE HOME HEALTH, INC.",
    "npi": null,
    "hcaiId": "406195287",
    "businessName": "MEDLINE HOME HEALTH, INC.",
    "contactEmail": "MEDLINEHOMEHEALTH@GMAIL.COM",
    "categoryName": "HOME HEALTH AGENCY",
    "categoryCode": "HHA",
    "licenseStatus": "ACTIVE",
    "inService": true,
    "licenseNumber": "550006012",
    "licenseEffectiveDate": "02/02/2025",
    "licenseExpirationDate": "02/01/2026",
    "dataDate": "10/18/2025",
    "capacity": 0,
    "address": "13746 VICTORY BLVD, SUITE 300",
    "city": "VAN NUYS",
    "zip": "91401",
    "county": "LOS ANGELES",
    "phone": "(818) 809-2323",
    "lat": 34.186356,
    "lng": -118.4328315
  },
  {
    "id": "630020907",
    "name": "MERIDIAN HOME HEALTH CARE INC.",
    "npi": null,
    "hcaiId": "406195405",
    "businessName": "MERIDIAN HOME HEALTH CARE, INC",
    "contactEmail": "VAHANMANUKYAN0506@GMAIL.COM",
    "categoryName": "HOME HEALTH AGENCY",
    "categoryCode": "HHA",
    "licenseStatus": "ACTIVE",
    "inService": true,
    "licenseNumber": "550007858",
    "licenseEffectiveDate": "02/22/2024",
    "licenseExpirationDate": "02/21/2025",
    "dataDate": "10/18/2025",
    "capacity": 0,
    "address": "6356 VAN NUYS BLVD, SUITE 211",
    "city": "VAN NUYS",
    "zip": "91401",
    "county": "LOS ANGELES",
    "phone": "(747) 300-7389",
    "lat": 34.185915,
    "lng": -118.448451
  },
  {
    "id": "630023857",
    "name": "METRO HOME HEALTH CARE INC",
    "npi": null,
    "hcaiId": "406195374",
    "businessName": "METRO HOME HEALTH CARE INC",
    "contactEmail": "METROHHC2021@GMAIL.COM",
    "categoryName": "HOME HEALTH AGENCY",
    "categoryCode": "HHA",
    "licenseStatus": "ACTIVE",
    "inService": true,
    "licenseNumber": "550007948",
    "licenseEffectiveDate": "04/13/2025",
    "licenseExpirationDate": "04/12/2026",
    "dataDate": "10/18/2025",
    "capacity": 0,
    "address": "14402 HAYNES ST, SUITE 103",
    "city": "VAN NUYS",
    "zip": "91401",
    "county": "LOS ANGELES",
    "phone": "(818) 945-1450",
    "lat": 34.18949765,
    "lng": -118.4467199
  },
  {
    "id": "630012463",
    "name": "MILLENNIUM HOME HEALTH CARE, INC.",
    "npi": "1144468992",
    "hcaiId": "406197454",
    "businessName": "MILLENNIUM HOME HEALTH CARE, INC.",
    "contactEmail": "MILLENNIUMHH@YAHOO.COM",
    "categoryName": "HOME HEALTH AGENCY",
    "categoryCode": "HHA",
    "licenseStatus": "ACTIVE",
    "inService": true,
    "licenseNumber": "550001368",
    "licenseEffectiveDate": "11/06/2024",
    "licenseExpirationDate": "11/05/2025",
    "dataDate": "10/18/2025",
    "capacity": 0,
    "address": "13758 VICTORY BLVD, SUITE 208",
    "city": "VAN NUYS",
    "zip": "91401",
    "county": "LOS ANGELES",
    "phone": "(818) 779-8902",
    "lat": 34.186491,
    "lng": -118.433259
  },
  {
    "id": "630015712",
    "name": "MIRACLE HEALING HOSPICE, INC.",
    "npi": "1710383617",
    "hcaiId": "406198438",
    "businessName": "MIRACLE HEALING HOSPICE, INC.",
    "contactEmail": "MIRACLE.HEALING@YAHOO.COM",
    "categoryName": "HOSPICE",
    "categoryCode": "HOSPICE",
    "licenseStatus": "ACTIVE",
    "inService": true,
    "licenseNumber": "550003833",
    "licenseEffectiveDate": "04/04/2025",
    "licenseExpirationDate": "04/03/2027",
    "dataDate": "10/18/2025",
    "capacity": 0,
    "address": "13609-13615 VICTORY BLVD., SUITE 222 & 223",
    "city": "VAN NUYS",
    "zip": "91401",
    "county": "LOS ANGELES",
    "phone": "(818) 485-4010",
    "lat": 34.186833,
    "lng": -118.429578
  },
  {
    "id": "630026421",
    "name": "MONARCH HOME HEALTH CARE",
    "npi": null,
    "hcaiId": null,
    "businessName": "MONARCH HOME HEALTH CARE",
    "contactEmail": "MONARCHHOMEHEALTH@YAHOO.COM",
    "categoryName": "HOME HEALTH AGENCY",
    "categoryCode": "HHA",
    "licenseStatus": "ACTIVE",
    "inService": true,
    "licenseNumber": "550009190",
    "licenseEffectiveDate": "06/07/2025",
    "licenseExpirationDate": "06/06/2026",
    "dataDate": "10/18/2025",
    "capacity": 0,
    "address": "14349 VICTORY BLVD, SUITE 302B",
    "city": "VAN NUYS",
    "zip": "91401",
    "county": "LOS ANGELES",
    "phone": "(818) 646-0378",
    "lat": 34.186851,
    "lng": -118.4460705
  },
  {
    "id": "630014787",
    "name": "MONARCH HOSPICE, INC.",
    "npi": null,
    "hcaiId": "406198450",
    "businessName": "MONARCH HOSPICE, INC.",
    "contactEmail": "MONARCHHOSPICE@GMAIL.COM",
    "categoryName": "HOSPICE",
    "categoryCode": "HOSPICE",
    "licenseStatus": "ACTIVE",
    "inService": true,
    "licenseNumber": "550003055",
    "licenseEffectiveDate": "03/13/2023",
    "licenseExpirationDate": "03/12/2025",
    "dataDate": "10/18/2025",
    "capacity": 0,
    "address": "13746 VICTORY BLVD, SUITE 307",
    "city": "VAN NUYS",
    "zip": "91401",
    "county": "LOS ANGELES",
    "phone": "(818) 994-6000",
    "lat": 34.186356,
    "lng": -118.4328315
  },
  {
    "id": "630020727",
    "name": "MOUNTAIN VIEW HOME HEALTH CARE INC",
    "npi": null,
    "hcaiId": "406195766",
    "businessName": "MOUNTAIN VIEW HOME HEALTH CARE, INC",
    "contactEmail": "MOUNTAINVIEWHOMEHEALTH1@GMAIL.COM",
    "categoryName": "HOME HEALTH AGENCY",
    "categoryCode": "HHA",
    "licenseStatus": "ACTIVE",
    "inService": true,
    "licenseNumber": "550007788",
    "licenseEffectiveDate": "08/06/2025",
    "licenseExpirationDate": "01/11/2026",
    "dataDate": "10/18/2025",
    "capacity": 0,
    "address": "6454 VAN NUYS BOULEVARD, SUITE 43",
    "city": "VAN NUYS",
    "zip": "91401",
    "county": "LOS ANGELES",
    "phone": "(747) 202-2200",
    "lat": 34.18779197,
    "lng": -118.4484576
  },
  {
    "id": "630017739",
    "name": "MUSIC HOME HEALTH",
    "npi": "1720642697",
    "hcaiId": "406191872",
    "businessName": "MUSIC HOME HEALTH",
    "contactEmail": "INFO@MUSICHOMEHEALTH.COM",
    "categoryName": "HOME HEALTH AGENCY",
    "categoryCode": "HHA",
    "licenseStatus": "ACTIVE",
    "inService": true,
    "licenseNumber": "550004579",
    "licenseEffectiveDate": "03/02/2025",
    "licenseExpirationDate": "03/01/2026",
    "dataDate": "10/18/2025",
    "capacity": 0,
    "address": "13746 VICTORY BLVD, SUITE 302",
    "city": "VAN NUYS",
    "zip": "91401",
    "county": "LOS ANGELES",
    "phone": "(818) 582-3533",
    "lat": 34.186356,
    "lng": -118.4328315
  },
  {
    "id": "630025924",
    "name": "NEW DAWN HOME HEALTH",
    "npi": null,
    "hcaiId": "406190342",
    "businessName": "NEW DAWN HOME HEALTH",
    "contactEmail": "NEWDAWNHOMEH@GMAIL.COM",
    "categoryName": "HOME HEALTH AGENCY",
    "categoryCode": "HHA",
    "licenseStatus": "ACTIVE",
    "inService": true,
    "licenseNumber": "550009094",
    "licenseEffectiveDate": "04/15/2025",
    "licenseExpirationDate": "04/14/2026",
    "dataDate": "10/18/2025",
    "capacity": 0,
    "address": "6368 VAN NUYS BLVD, UNIT K",
    "city": "VAN NUYS",
    "zip": "91401",
    "county": "LOS ANGELES",
    "phone": "(213) 724-8216",
    "lat": 34.18626739,
    "lng": -118.4482884
  },
  {
    "id": "630021170",
    "name": "NEW FRONTIER HOME HEALTH, INC",
    "npi": null,
    "hcaiId": "406195526",
    "businessName": "NEW FRONTIER HOME HEALTH, INC",
    "contactEmail": "NEWFRONTIER023@GMAIL.COM",
    "categoryName": "HOME HEALTH AGENCY",
    "categoryCode": "HHA",
    "licenseStatus": "ACTIVE",
    "inService": true,
    "licenseNumber": "550006890",
    "licenseEffectiveDate": "09/27/2025",
    "licenseExpirationDate": "09/26/2026",
    "dataDate": "10/18/2025",
    "capacity": 0,
    "address": "13615 VICTORY BLVD, SUITE 108",
    "city": "VAN NUYS",
    "zip": "91401",
    "county": "LOS ANGELES",
    "phone": "(818) 600-8286",
    "lat": 34.187055,
    "lng": -118.429355
  },
  {
    "id": "630021738",
    "name": "NEW WAVE HOME HEALTH CARE, INC.",
    "npi": null,
    "hcaiId": "406195907",
    "businessName": "NEW WAVE HOME HEALTH CARE, INC.",
    "contactEmail": "NEWWAVEHOMEHEALTHCARE@GMAIL.COM",
    "categoryName": "HOME HEALTH AGENCY",
    "categoryCode": "HHA",
    "licenseStatus": "ACTIVE",
    "inService": true,
    "licenseNumber": "550008108",
    "licenseEffectiveDate": "07/07/2025",
    "licenseExpirationDate": "07/06/2026",
    "dataDate": "10/18/2025",
    "capacity": 0,
    "address": "6365 VAN NUYS BLVD, SUITE 3",
    "city": "VAN NUYS",
    "zip": "91401",
    "county": "LOS ANGELES",
    "phone": "(818) 616-4352",
    "lat": 34.186203,
    "lng": -118.4490225
  },
  {
    "id": "630022336",
    "name": "NIAGARA HOSPICE INC",
    "npi": null,
    "hcaiId": "406193999",
    "businessName": "NIAGARA HOSPICE INC",
    "contactEmail": "NIAGARAHOSPICEINC@GMAIL.COM",
    "categoryName": "HOSPICE",
    "categoryCode": "HOSPICE",
    "licenseStatus": "ACTIVE",
    "inService": true,
    "licenseNumber": "550007597",
    "licenseEffectiveDate": "12/20/2023",
    "licenseExpirationDate": "12/19/2025",
    "dataDate": "10/18/2025",
    "capacity": 0,
    "address": "6308 WOODMAN AVE, SUITE 110",
    "city": "VAN NUYS",
    "zip": "91401",
    "county": "LOS ANGELES",
    "phone": "(323) 963-6338",
    "lat": 34.18524,
    "lng": -118.4310495
  },
  {
    "id": "630020662",
    "name": "NIRVANA HOSPICE, INC.",
    "npi": null,
    "hcaiId": "406193998",
    "businessName": "NIRVANA HOSPICE, INC.",
    "contactEmail": "NIRVANAHOSPICEINC@GMAIL.COM",
    "categoryName": "HOSPICE",
    "categoryCode": "HOSPICE",
    "licenseStatus": "ACTIVE",
    "inService": true,
    "licenseNumber": "550006261",
    "licenseEffectiveDate": "05/01/2023",
    "licenseExpirationDate": "04/30/2025",
    "dataDate": "10/18/2025",
    "capacity": 0,
    "address": "14120 VICTORY BLVD, #104",
    "city": "VAN NUYS",
    "zip": "91401",
    "county": "LOS ANGELES",
    "phone": "(818) 538-5308",
    "lat": 34.1865,
    "lng": -118.440738
  },
  {
    "id": "630016230",
    "name": "NOBLEQUEST HEALTH FOUNDATION",
    "npi": null,
    "hcaiId": "306198492",
    "businessName": "NOBLEQUEST HEALTH FOUNDATION, INC.",
    "contactEmail": "ARIVERA@NQHEALTH.ORG",
    "categoryName": "PRIMARY CARE CLINIC",
    "categoryCode": "COMTYC",
    "licenseStatus": "ACTIVE",
    "inService": true,
    "licenseNumber": "550003956",
    "licenseEffectiveDate": "08/14/2025",
    "licenseExpirationDate": "08/13/2026",
    "dataDate": "10/18/2025",
    "capacity": 0,
    "address": "14435 HAMLIN ST., SUITE 108",
    "city": "VAN NUYS",
    "zip": "91401",
    "county": "LOS ANGELES",
    "phone": "(818) 997-7117",
    "lat": 34.188984,
    "lng": -118.447713
  },
  {
    "id": "630020592",
    "name": "NOHO CAREGIVERS, INC",
    "npi": null,
    "hcaiId": "406194717",
    "businessName": "NOHO CAREGIVERS, INC.",
    "contactEmail": "NOHOCAREGIVERS@GMAIL.COM",
    "categoryName": "HOME HEALTH AGENCY",
    "categoryCode": "HHA",
    "licenseStatus": "ACTIVE",
    "inService": true,
    "licenseNumber": "550007357",
    "licenseEffectiveDate": "09/03/2025",
    "licenseExpirationDate": "09/02/2026",
    "dataDate": "10/18/2025",
    "capacity": 0,
    "address": "13743 VICTORY BLVD, SUITE E",
    "city": "VAN NUYS",
    "zip": "91401",
    "county": "LOS ANGELES",
    "phone": "(818) 576-8284",
    "lat": 34.186833,
    "lng": -118.432773
  },
  {
    "id": "630019216",
    "name": "NOVA VITA HEALTH SERVICES, INC.",
    "npi": null,
    "hcaiId": "406192725",
    "businessName": "NOVA VITA HEALTH SERVICES, INC.",
    "contactEmail": "NOVAVITAHEALTH@GMAIL.COM",
    "categoryName": "HOME HEALTH AGENCY",
    "categoryCode": "HHA",
    "licenseStatus": "ACTIVE",
    "inService": true,
    "licenseNumber": "550005561",
    "licenseEffectiveDate": "07/08/2025",
    "licenseExpirationDate": "07/07/2026",
    "dataDate": "10/18/2025",
    "capacity": 0,
    "address": "14412 FRIAR ST, SUITE 203",
    "city": "VAN NUYS",
    "zip": "91401",
    "county": "LOS ANGELES",
    "phone": "(818) 291-3220",
    "lat": 34.18541801,
    "lng": -118.447099
  },
  {
    "id": "630018078",
    "name": "NOVA VITA HOME HEALTH, INC.",
    "npi": "1578054433",
    "hcaiId": "406191673",
    "businessName": "NOVA VITA HOME HEALTH, INC",
    "contactEmail": "INFO@NOVAVITAHH.COM",
    "categoryName": "HOME HEALTH AGENCY",
    "categoryCode": "HHA",
    "licenseStatus": "ACTIVE",
    "inService": true,
    "licenseNumber": "550004679",
    "licenseEffectiveDate": "05/06/2025",
    "licenseExpirationDate": "05/05/2026",
    "dataDate": "10/18/2025",
    "capacity": 0,
    "address": "13746 VICTORY BLVD, SUITE 105",
    "city": "VAN NUYS",
    "zip": "91401",
    "county": "LOS ANGELES",
    "phone": "(818) 290-3808",
    "lat": 34.186356,
    "lng": -118.4328315
  },
  {
    "id": "630021150",
    "name": "OAK TREE HOME HEALTH, INC.",
    "npi": null,
    "hcaiId": "406193599",
    "businessName": "OAK TREE HOME HEALTH, INC.",
    "contactEmail": "INFO@OAKTREEHH.COM",
    "categoryName": "HOME HEALTH AGENCY",
    "categoryCode": "HHA",
    "licenseStatus": "ACTIVE",
    "inService": true,
    "licenseNumber": "550006851",
    "licenseEffectiveDate": "09/27/2025",
    "licenseExpirationDate": "09/26/2026",
    "dataDate": "10/18/2025",
    "capacity": 0,
    "address": "13609 VICTORY BLVD, SUITE 131",
    "city": "VAN NUYS",
    "zip": "91401",
    "county": "LOS ANGELES",
    "phone": "(818) 650-1607",
    "lat": 34.187055,
    "lng": -118.429355
  },
  {
    "id": "630025935",
    "name": "OASIS CARE HOME HEALTH",
    "npi": null,
    "hcaiId": null,
    "businessName": "OASIS CARE HOME HEALTH",
    "contactEmail": "OASISCAREHOMEHEALTH@GMAIL.COM",
    "categoryName": "HOME HEALTH AGENCY",
    "categoryCode": "HHA",
    "licenseStatus": "ACTIVE",
    "inService": true,
    "licenseNumber": "550009209",
    "licenseEffectiveDate": "06/04/2025",
    "licenseExpirationDate": "06/03/2026",
    "dataDate": "10/18/2025",
    "capacity": 0,
    "address": "6368 VAN NUYS BLVD, UNIT J",
    "city": "VAN NUYS",
    "zip": "91401",
    "county": "LOS ANGELES",
    "phone": "(747) 279-7715",
    "lat": 34.18626739,
    "lng": -118.4482884
  },
  {
    "id": "630019908",
    "name": "ON CALL HOME CARE, INC.",
    "npi": null,
    "hcaiId": "406192994",
    "businessName": "ON CALL HOME CARE, INC.",
    "contactEmail": "ONCALL4HC@GMAIL.COM",
    "categoryName": "HOME HEALTH AGENCY",
    "categoryCode": "HHA",
    "licenseStatus": "ACTIVE",
    "inService": true,
    "licenseNumber": "550005868",
    "licenseEffectiveDate": "09/04/2025",
    "licenseExpirationDate": "11/24/2025",
    "dataDate": "10/18/2025",
    "capacity": 0,
    "address": "14412 FRIAR ST, SUITE 102",
    "city": "VAN NUYS",
    "zip": "91401",
    "county": "LOS ANGELES",
    "phone": "(818) 646-9275",
    "lat": 34.18541801,
    "lng": -118.447099
  },
  {
    "id": "630023416",
    "name": "ORANGE HOME HEALTH, INC.",
    "npi": null,
    "hcaiId": "406195429",
    "businessName": "ORANGE HOME HEALTH, INC.",
    "contactEmail": "ORANGEHOMEHEALTHINC@GMAIL.COM",
    "categoryName": "HOME HEALTH AGENCY",
    "categoryCode": "HHA",
    "licenseStatus": "ACTIVE",
    "inService": true,
    "licenseNumber": "550007884",
    "licenseEffectiveDate": "03/08/2025",
    "licenseExpirationDate": "03/07/2026",
    "dataDate": "10/18/2025",
    "capacity": 0,
    "address": "13735 VICTORY BLVD, SUITE 18",
    "city": "VAN NUYS",
    "zip": "91401",
    "county": "LOS ANGELES",
    "phone": "(818) 532-5353",
    "lat": 34.18686,
    "lng": -118.4323995
  },
  {
    "id": "630021901",
    "name": "OZONE GROUP, INC",
    "npi": null,
    "hcaiId": "406193976",
    "businessName": "OZONE GROUP, INC",
    "contactEmail": "OZONEGROUPHOSPICE@GMAIL.COM",
    "categoryName": "HOSPICE",
    "categoryCode": "HOSPICE",
    "licenseStatus": "ACTIVE",
    "inService": true,
    "licenseNumber": "550007231",
    "licenseEffectiveDate": "03/13/2024",
    "licenseExpirationDate": "11/17/2025",
    "dataDate": "10/18/2025",
    "capacity": 0,
    "address": "14349 VICTORY BLVD, SUITE 301",
    "city": "VAN NUYS",
    "zip": "91401",
    "county": "LOS ANGELES",
    "phone": "(747) 666-0664",
    "lat": 34.18697801,
    "lng": -118.446043
  },
  {
    "id": "630015810",
    "name": "PALLIATIVE CARE PROVIDER SOCAL, INC.",
    "npi": "1578961926",
    "hcaiId": "406190889",
    "businessName": "PALLIATIVE CARE PROVIDER SOCAL, INC.",
    "contactEmail": "PALLIATIVECAREPROVIDERSOCAL@GMAIL.COM",
    "categoryName": "HOSPICE",
    "categoryCode": "HOSPICE",
    "licenseStatus": "ACTIVE",
    "inService": true,
    "licenseNumber": "550003860",
    "licenseEffectiveDate": "04/14/2023",
    "licenseExpirationDate": "04/13/2025",
    "dataDate": "10/18/2025",
    "capacity": 0,
    "address": "13615 VICTORY BLVD., SUITE 120",
    "city": "VAN NUYS",
    "zip": "91401",
    "county": "LOS ANGELES",
    "phone": "(818) 779-7706",
    "lat": 34.186833,
    "lng": -118.429578
  },
  {
    "id": "630027045",
    "name": "PALMS HOME HEALTH INC",
    "npi": null,
    "hcaiId": null,
    "businessName": "PALMS HOME HEALTH INC",
    "contactEmail": "PALMSHOMEHEALTHINC@GMAIL.COM",
    "categoryName": "HOME HEALTH AGENCY",
    "categoryCode": "HHA",
    "licenseStatus": "ACTIVE",
    "inService": true,
    "licenseNumber": "550009790",
    "licenseEffectiveDate": "11/13/2025",
    "licenseExpirationDate": "05/12/2026",
    "dataDate": "10/18/2025",
    "capacity": 0,
    "address": "14051 BURBANK BLVD, UNIT 11",
    "city": "VAN NUYS",
    "zip": "91401",
    "county": "LOS ANGELES",
    "phone": "(323) 353-2212",
    "lat": 34.172334,
    "lng": -118.439388
  },
  {
    "id": "630020452",
    "name": "PAMPERED HOSPICE CARE, INC.",
    "npi": null,
    "hcaiId": "406196166",
    "businessName": "PAMPERED HOSPICE CARE, INC.",
    "contactEmail": "PAMPEREDHOSPICE@GMAIL.COM",
    "categoryName": "HOSPICE",
    "categoryCode": "HOSPICE",
    "licenseStatus": "ACTIVE",
    "inService": true,
    "licenseNumber": "550006364",
    "licenseEffectiveDate": "04/30/2025",
    "licenseExpirationDate": "04/29/2027",
    "dataDate": "10/18/2025",
    "capacity": 0,
    "address": "14051 BURBANK BLVD, SUITE 10",
    "city": "LOS ANGELES",
    "zip": "91401",
    "county": "LOS ANGELES",
    "phone": "(818) 922-2428",
    "lat": 34.172415,
    "lng": -118.4393565
  },
  {
    "id": "630013757",
    "name": "PANORAMA HOSPICE, INC.",
    "npi": "1194087817",
    "hcaiId": "406198027",
    "businessName": "PANORAMA HOSPICE, INC.",
    "contactEmail": "PANORAMAHOSPICE@GMAIL.COM",
    "categoryName": "HOSPICE",
    "categoryCode": "HOSPICE",
    "licenseStatus": "ACTIVE",
    "inService": true,
    "licenseNumber": "550002438",
    "licenseEffectiveDate": "09/16/2023",
    "licenseExpirationDate": "09/15/2025",
    "dataDate": "10/18/2025",
    "capacity": 0,
    "address": "6259 VAN NUYS BLVD, SUITE A",
    "city": "VAN NUYS",
    "zip": "91401",
    "county": "LOS ANGELES",
    "phone": "(818) 988-0792",
    "lat": 34.183953,
    "lng": -118.448955
  },
  {
    "id": "630018515",
    "name": "PEACE HOSPICE AND PALLIATIVE CARE, INC.",
    "npi": "1942768445",
    "hcaiId": "406192018",
    "businessName": "PEACE HOSPICE AND PALLIATIVE CARE, INC.",
    "contactEmail": "PHAPCARE@GMAIL.COM",
    "categoryName": "HOSPICE",
    "categoryCode": "HOSPICE",
    "licenseStatus": "ACTIVE",
    "inService": true,
    "licenseNumber": "550005078",
    "licenseEffectiveDate": "11/13/2023",
    "licenseExpirationDate": "11/12/2025",
    "dataDate": "10/18/2025",
    "capacity": 0,
    "address": "13743 VICTORY BLVD, SUITE F",
    "city": "VAN NUYS",
    "zip": "91401",
    "county": "LOS ANGELES",
    "phone": "(310) 667-6797",
    "lat": 34.186833,
    "lng": -118.432773
  },
  {
    "id": "630027297",
    "name": "PERFECT HOME HEALTH, INC",
    "npi": null,
    "hcaiId": null,
    "businessName": "PERFECT HOME HEALTH, INC",
    "contactEmail": "PERFECTHH.INC@GMAIL.COM",
    "categoryName": "HOME HEALTH AGENCY",
    "categoryCode": "HHA",
    "licenseStatus": "ACTIVE",
    "inService": true,
    "licenseNumber": "550009600",
    "licenseEffectiveDate": "07/06/2025",
    "licenseExpirationDate": "01/05/2026",
    "dataDate": "10/18/2025",
    "capacity": 0,
    "address": "13758 VICTORY BLVD, SUITE 209",
    "city": "VAN NUYS",
    "zip": "91401",
    "county": "LOS ANGELES",
    "phone": "(213) 802-0850",
    "lat": 34.18644299,
    "lng": -118.433283
  },
  {
    "id": "630019438",
    "name": "PMS HOME HEALTH CARE, INC",
    "npi": null,
    "hcaiId": "406193051",
    "businessName": "PMS HOME HEALTH CARE, INC",
    "contactEmail": "PMSHOMEHEALTHCAREINC@GMAIL.COM",
    "categoryName": "HOME HEALTH AGENCY",
    "categoryCode": "HHA",
    "licenseStatus": "ACTIVE",
    "inService": true,
    "licenseNumber": "550006110",
    "licenseEffectiveDate": "03/17/2025",
    "licenseExpirationDate": "03/16/2026",
    "dataDate": "10/18/2025",
    "capacity": 0,
    "address": "6314 VAN NUYS BLVD, SUITE 217",
    "city": "VAN NUYS",
    "zip": "91401",
    "county": "LOS ANGELES",
    "phone": "(818) 646-1585",
    "lat": 34.185132,
    "lng": -118.4484825
  },
  {
    "id": "630025518",
    "name": "PRAZYAN HOME HEALTH",
    "npi": null,
    "hcaiId": "406198740",
    "businessName": "PRAZYAN HOME HEALTH",
    "contactEmail": "PRAZYANHH@GMAIL.COM",
    "categoryName": "HOME HEALTH AGENCY",
    "categoryCode": "HHA",
    "licenseStatus": "ACTIVE",
    "inService": true,
    "licenseNumber": "550008770",
    "licenseEffectiveDate": "10/06/2025",
    "licenseExpirationDate": "10/05/2026",
    "dataDate": "10/18/2025",
    "capacity": 0,
    "address": "5605 WOODMAN AVE, SUITE 210",
    "city": "VAN NUYS",
    "zip": "91401",
    "county": "LOS ANGELES",
    "phone": "(747) 264-9807",
    "lat": 34.17243009,
    "lng": -118.4313184
  },
  {
    "id": "630022809",
    "name": "PRESTIGE LIFE HOME HEALTH CARE, INC.",
    "npi": null,
    "hcaiId": "406195366",
    "businessName": "PRESTIGE LIFE HOME HEALTH CARE, INC.",
    "contactEmail": "PRESTIGELIFEHH@GMAIL.COM",
    "categoryName": "HOME HEALTH AGENCY",
    "categoryCode": "HHA",
    "licenseStatus": "ACTIVE",
    "inService": true,
    "licenseNumber": "550007933",
    "licenseEffectiveDate": "03/31/2025",
    "licenseExpirationDate": "03/30/2026",
    "dataDate": "10/18/2025",
    "capacity": 0,
    "address": "13735 VICTORY BLVD, SUITE 8",
    "city": "VAN NUYS",
    "zip": "91401",
    "county": "LOS ANGELES",
    "phone": "(747) 444-9146",
    "lat": 34.18697088,
    "lng": -118.4324101
  },
  {
    "id": "630025181",
    "name": "PRIME VAN NUYS HOMECARE, INC.",
    "npi": null,
    "hcaiId": null,
    "businessName": "PRIME VAN NUYS HOMECARE, INC.",
    "contactEmail": "PRIMEVANNUYSHOMECARE@GMAIL.COM",
    "categoryName": "HOME HEALTH AGENCY",
    "categoryCode": "HHA",
    "licenseStatus": "ACTIVE",
    "inService": true,
    "licenseNumber": "550008353",
    "licenseEffectiveDate": "07/24/2023",
    "licenseExpirationDate": "01/23/2024",
    "dataDate": "10/18/2025",
    "capacity": 0,
    "address": "6360 VAN NUYS BLVD, SUITE 223",
    "city": "VAN NUYS",
    "zip": "91401",
    "county": "LOS ANGELES",
    "phone": "(818) 646-0029",
    "lat": 34.186041,
    "lng": -118.4484285
  },
  {
    "id": "630019109",
    "name": "PRIORITY CARE MEDICAL GROUP - VAN NUYS",
    "npi": null,
    "hcaiId": null,
    "businessName": "CENTER FOR FAMILY HEALTH & EDUCATION, INC.",
    "contactEmail": null,
    "categoryName": "PRIMARY CARE CLINIC",
    "categoryCode": "COMTYC",
    "licenseStatus": "ACTIVE",
    "inService": true,
    "licenseNumber": "550004642",
    "licenseEffectiveDate": "04/16/2025",
    "licenseExpirationDate": "04/15/2026",
    "dataDate": "10/18/2025",
    "capacity": 0,
    "address": "14407 HAMLIN ST, SUITE B",
    "city": "VAN NUYS",
    "zip": "91401",
    "county": "LOS ANGELES",
    "phone": null,
    "lat": 34.188849,
    "lng": -118.4468805
  },
  {
    "id": "630020365",
    "name": "PRO ACTIVE HOME HEALTHCARE, INC.",
    "npi": null,
    "hcaiId": "406196319",
    "businessName": "PRO ACTIVE HOME HEALTHCARE, INC.",
    "contactEmail": "PROACTIVEHOMECAREINC@MAIL.COM",
    "categoryName": "HOME HEALTH AGENCY",
    "categoryCode": "HHA",
    "licenseStatus": "ACTIVE",
    "inService": true,
    "licenseNumber": "550008457",
    "licenseEffectiveDate": "03/14/2025",
    "licenseExpirationDate": "03/13/2026",
    "dataDate": "10/18/2025",
    "capacity": 0,
    "address": "6360 VAN NUYS BLVD, SUITE 214",
    "city": "VAN NUYS",
    "zip": "91401",
    "county": "LOS ANGELES",
    "phone": "(818) 378-6745",
    "lat": 34.186041,
    "lng": -118.4484285
  },
  {
    "id": "630018615",
    "name": "PROTECTION HOME HEALTH CARE INC.",
    "npi": null,
    "hcaiId": "406191972",
    "businessName": "PROTECTION HOME HEALTH CARE INC.",
    "contactEmail": "PROTECTIONHOMEHEALTH@GMAIL.COM",
    "categoryName": "HOME HEALTH AGENCY",
    "categoryCode": "HHA",
    "licenseStatus": "ACTIVE",
    "inService": true,
    "licenseNumber": "550005040",
    "licenseEffectiveDate": "10/31/2025",
    "licenseExpirationDate": "10/30/2026",
    "dataDate": "10/18/2025",
    "capacity": 0,
    "address": "6360 VAN NUYS BLVD, SUITE 229",
    "city": "VAN NUYS",
    "zip": "91401",
    "county": "LOS ANGELES",
    "phone": "(310) 658-6875",
    "lat": 34.146306,
    "lng": -118.7775135
  },
  {
    "id": "630025282",
    "name": "PROUD TO SERVE HOME HEALTH CARE INC.",
    "npi": null,
    "hcaiId": "406196220",
    "businessName": "PROUD TO SERVE HOME HEALTH CARE INC.",
    "contactEmail": "PROUD2SERVEHHC@YAHOO.COM",
    "categoryName": "HOME HEALTH AGENCY",
    "categoryCode": "HHA",
    "licenseStatus": "ACTIVE",
    "inService": true,
    "licenseNumber": "550008398",
    "licenseEffectiveDate": "02/09/2025",
    "licenseExpirationDate": "02/08/2026",
    "dataDate": "10/18/2025",
    "capacity": 0,
    "address": "14401 GILMORE ST, SUITE 201A",
    "city": "VAN NUYS",
    "zip": "91401",
    "county": "LOS ANGELES",
    "phone": "(818) 646-0273",
    "lat": 34.187796,
    "lng": -118.4467005
  },
  {
    "id": "630024427",
    "name": "PURE HANDS HOME HEALTH, INC",
    "npi": null,
    "hcaiId": "406195891",
    "businessName": "PURE HANDS HOME HEALTH, INC",
    "contactEmail": "PUREHANDSHH@GMAIL.COM",
    "categoryName": "HOME HEALTH AGENCY",
    "categoryCode": "HHA",
    "licenseStatus": "ACTIVE",
    "inService": true,
    "licenseNumber": "550008084",
    "licenseEffectiveDate": "07/27/2025",
    "licenseExpirationDate": "07/26/2026",
    "dataDate": "10/18/2025",
    "capacity": 0,
    "address": "13615 VICTORY BLVD, SUITE 208",
    "city": "VAN NUYS",
    "zip": "91401",
    "county": "LOS ANGELES",
    "phone": "(626) 631-9200",
    "lat": 34.187055,
    "lng": -118.429355
  },
  {
    "id": "630022017",
    "name": "PURITY HOSPICE, INC",
    "npi": null,
    "hcaiId": "406195737",
    "businessName": "PURITY HOSPICE, INC.",
    "contactEmail": "PURITYHOSPICE@GMAIL.COM",
    "categoryName": "HOSPICE",
    "categoryCode": "HOSPICE",
    "licenseStatus": "ACTIVE",
    "inService": true,
    "licenseNumber": "550007710",
    "licenseEffectiveDate": "11/12/2025",
    "licenseExpirationDate": "12/28/2025",
    "dataDate": "10/18/2025",
    "capacity": 0,
    "address": "6454 VAN NUYS BLVD, SUITE 25",
    "city": "VAN NUYS",
    "zip": "91401",
    "county": "LOS ANGELES",
    "phone": "(747) 207-2709",
    "lat": 34.187886,
    "lng": -118.4482935
  },
  {
    "id": "630027730",
    "name": "PURPLE HOME HEALTH",
    "npi": null,
    "hcaiId": null,
    "businessName": "PURPLE HOME HEALTH",
    "contactEmail": "PURPLEHOMEHEALTH@GMAIL.COM",
    "categoryName": "HOME HEALTH AGENCY",
    "categoryCode": "HHA",
    "licenseStatus": "ACTIVE",
    "inService": true,
    "licenseNumber": "550009879",
    "licenseEffectiveDate": "09/20/2025",
    "licenseExpirationDate": "03/19/2026",
    "dataDate": "10/18/2025",
    "capacity": 0,
    "address": "13735 VICTORY BLVD, SUITE 17",
    "city": "VAN NUYS",
    "zip": "91401",
    "county": "LOS ANGELES",
    "phone": "(818) 305-0495",
    "lat": 34.186977,
    "lng": -118.432406
  },
  {
    "id": "630013596",
    "name": "RAFAELLA HOME HEALTH CARE, INC.",
    "npi": "1194095927",
    "hcaiId": "406197927",
    "businessName": "RAFAELLA HOME HEALTH CARE, INC.",
    "contactEmail": "RAFAELLAHHCA@YAHOO.COM",
    "categoryName": "HOME HEALTH AGENCY",
    "categoryCode": "HHA",
    "licenseStatus": "ACTIVE",
    "inService": true,
    "licenseNumber": "550002270",
    "licenseEffectiveDate": "05/01/2025",
    "licenseExpirationDate": "04/30/2026",
    "dataDate": "10/18/2025",
    "capacity": 0,
    "address": "14328 VICTORY BLVD, SUITE 209",
    "city": "VAN NUYS",
    "zip": "91401",
    "county": "LOS ANGELES",
    "phone": "(818) 510-0925",
    "lat": 34.18660189,
    "lng": -118.4454106
  },
  {
    "id": "630022287",
    "name": "RAY HOSPICE INC.",
    "npi": null,
    "hcaiId": "406193971",
    "businessName": "RAY HOSPICE INC.",
    "contactEmail": "RAYHOSPICEINC@GMAIL.COM",
    "categoryName": "HOSPICE",
    "categoryCode": "HOSPICE",
    "licenseStatus": "ACTIVE",
    "inService": true,
    "licenseNumber": "550007422",
    "licenseEffectiveDate": "12/07/2023",
    "licenseExpirationDate": "12/06/2025",
    "dataDate": "10/18/2025",
    "capacity": 0,
    "address": "14120 VICTORY BLVD, SUITE 103",
    "city": "VAN NUYS",
    "zip": "91401",
    "county": "LOS ANGELES",
    "phone": "(323) 970-2030",
    "lat": 34.1865,
    "lng": -118.440738
  },
  {
    "id": "630027729",
    "name": "RED HOME HEALTH",
    "npi": null,
    "hcaiId": null,
    "businessName": "RED HOME HEALTH",
    "contactEmail": "REDHOMEHEALTH@GMAIL.COM",
    "categoryName": "HOME HEALTH AGENCY",
    "categoryCode": "HHA",
    "licenseStatus": "ACTIVE",
    "inService": true,
    "licenseNumber": "550009754",
    "licenseEffectiveDate": "09/20/2025",
    "licenseExpirationDate": "03/19/2026",
    "dataDate": "10/18/2025",
    "capacity": 0,
    "address": "13735 VICTORY BLVD, SUITE 7",
    "city": "VAN NUYS",
    "zip": "91401",
    "county": "LOS ANGELES",
    "phone": "(818) 305-0547",
    "lat": 34.186977,
    "lng": -118.432406
  },
  {
    "id": "630019315",
    "name": "RED LINE HOSPICE, INC",
    "npi": null,
    "hcaiId": "406192419",
    "businessName": "RED LINE HOSPICE, INC.",
    "contactEmail": "REDLINEHOSPICE@GMAIL.COM",
    "categoryName": "HOSPICE",
    "categoryCode": "HOSPICE",
    "licenseStatus": "ACTIVE",
    "inService": true,
    "licenseNumber": "550005276",
    "licenseEffectiveDate": "02/06/2024",
    "licenseExpirationDate": "02/05/2026",
    "dataDate": "10/18/2025",
    "capacity": 0,
    "address": "13746 VICTORY BLVD, SUITE 202",
    "city": "VAN NUYS",
    "zip": "91401",
    "county": "LOS ANGELES",
    "phone": "(818) 922-2378",
    "lat": 34.186356,
    "lng": -118.4328315
  },
  {
    "id": "630021092",
    "name": "REGAL HOSPICE, INC.",
    "npi": null,
    "hcaiId": "406193964",
    "businessName": "REGAL HOSPICE, INC.",
    "contactEmail": "REGALHOSPICEINC@GMAIL.COM",
    "categoryName": "HOSPICE",
    "categoryCode": "HOSPICE",
    "licenseStatus": "ACTIVE",
    "inService": true,
    "licenseNumber": "550007142",
    "licenseEffectiveDate": "10/20/2025",
    "licenseExpirationDate": "10/19/2027",
    "dataDate": "10/18/2025",
    "capacity": 0,
    "address": "13746 VICTORY BLVD, SUITE 310",
    "city": "VAN NUYS",
    "zip": "91401",
    "county": "LOS ANGELES",
    "phone": "(818) 616-1010",
    "lat": 34.186356,
    "lng": -118.4328315
  },
  {
    "id": "630025421",
    "name": "RIGHTEOUS HOME HEALTH, INC",
    "npi": null,
    "hcaiId": "406190065",
    "businessName": "RIGHTEOUS HOME HEALTH, INC",
    "contactEmail": "RIGHTEOUSHH@GMAIL.COM",
    "categoryName": "HOME HEALTH AGENCY",
    "categoryCode": "HHA",
    "licenseStatus": "ACTIVE",
    "inService": true,
    "licenseNumber": "550008675",
    "licenseEffectiveDate": "06/16/2025",
    "licenseExpirationDate": "06/15/2026",
    "dataDate": "10/18/2025",
    "capacity": 0,
    "address": "6320 VAN NUYS BLVD, SUITE 303",
    "city": "VAN NUYS",
    "zip": "91401",
    "county": "LOS ANGELES",
    "phone": "(818) 510-0378",
    "lat": 34.165125,
    "lng": -118.3453155
  },
  {
    "id": "630020929",
    "name": "RIZE HOME HEALTH",
    "npi": null,
    "hcaiId": "406195527",
    "businessName": "RIZE HOME HEALTH",
    "contactEmail": "RIZEHHC@GMAIL.COM",
    "categoryName": "HOME HEALTH AGENCY",
    "categoryCode": "HHA",
    "licenseStatus": "ACTIVE",
    "inService": true,
    "licenseNumber": "550006897",
    "licenseEffectiveDate": "09/22/2025",
    "licenseExpirationDate": "09/21/2026",
    "dataDate": "10/18/2025",
    "capacity": 0,
    "address": "5605 NORTH WOODMAN AVENUE, SUITE 208",
    "city": "VAN NUYS",
    "zip": "91401",
    "county": "LOS ANGELES",
    "phone": "(818) 855-1112",
    "lat": 34.17252207,
    "lng": -118.4314965
  },
  {
    "id": "630021391",
    "name": "RMG HOSPICE CARE, INC.",
    "npi": null,
    "hcaiId": "406193652",
    "businessName": "RMG HOSPICE CARE, INC.",
    "contactEmail": "RMGHOSPICECARE@GMAIL.COM",
    "categoryName": "HOSPICE",
    "categoryCode": "HOSPICE",
    "licenseStatus": "ACTIVE",
    "inService": true,
    "licenseNumber": "550006869",
    "licenseEffectiveDate": "09/30/2025",
    "licenseExpirationDate": "09/29/2027",
    "dataDate": "10/18/2025",
    "capacity": 0,
    "address": "6320 VAN NUYS BLVD, SUITE 205",
    "city": "VAN NUYS",
    "zip": "91401",
    "county": "LOS ANGELES",
    "phone": "(747) 285-4499",
    "lat": 34.18545099,
    "lng": -118.448414
  },
  {
    "id": "630016436",
    "name": "ROYAL HOMEHEALTH CARE, INC.",
    "npi": "1831560184",
    "hcaiId": "406190910",
    "businessName": "ROYAL HOMEHEALTH CARE, INC.",
    "contactEmail": "ROYALHOMEHEALTHINC@GMAIL.COM",
    "categoryName": "HOME HEALTH AGENCY",
    "categoryCode": "HHA",
    "licenseStatus": "ACTIVE",
    "inService": true,
    "licenseNumber": "550004101",
    "licenseEffectiveDate": "01/08/2025",
    "licenseExpirationDate": "01/07/2026",
    "dataDate": "10/18/2025",
    "capacity": 0,
    "address": "14328 VICTORY BLVD., SUITE 203",
    "city": "VAN NUYS",
    "zip": "91401",
    "county": "LOS ANGELES",
    "phone": "(818) 630-5702",
    "lat": 34.18660189,
    "lng": -118.4454106
  },
  {
    "id": "630018256",
    "name": "SAFE GUARD HOME HEALTH",
    "npi": null,
    "hcaiId": "406192792",
    "businessName": "SAFE GUARD HOME HEALTH",
    "contactEmail": "SAFEGUARDHOMEHEALTH@GMAIL.COM",
    "categoryName": "HOME HEALTH AGENCY",
    "categoryCode": "HHA",
    "licenseStatus": "ACTIVE",
    "inService": true,
    "licenseNumber": "550005638",
    "licenseEffectiveDate": "08/04/2025",
    "licenseExpirationDate": "08/03/2026",
    "dataDate": "10/18/2025",
    "capacity": 0,
    "address": "14242 OXNARD ST, SUITE 205",
    "city": "VAN NUYS",
    "zip": "91401",
    "county": "LOS ANGELES",
    "phone": "(818) 946-8307",
    "lat": 34.179192,
    "lng": -118.443681
  },
  {
    "id": "630021524",
    "name": "SAINT GREGORY HOSPICE, INC",
    "npi": null,
    "hcaiId": "406193844",
    "businessName": "SAINT GREGORY HOSPICE, INC.",
    "contactEmail": "STGREGORYHOSPICE@GMAIL.COM",
    "categoryName": "HOSPICE",
    "categoryCode": "HOSPICE",
    "licenseStatus": "ACTIVE",
    "inService": true,
    "licenseNumber": "550007385",
    "licenseEffectiveDate": "07/23/2024",
    "licenseExpirationDate": "12/07/2025",
    "dataDate": "10/18/2025",
    "capacity": 0,
    "address": "6454 VAN NUYS BLVD, OFFICE # 44",
    "city": "VAN NUYS",
    "zip": "91401",
    "county": "LOS ANGELES",
    "phone": "(747) 202-2200",
    "lat": 34.187883,
    "lng": -118.448292
  },
  {
    "id": "630021172",
    "name": "SECURE HOME HEALTH SERVICES, INC",
    "npi": null,
    "hcaiId": "406195524",
    "businessName": "SECURE HOME HEALTH SERVICES, INC",
    "contactEmail": "SECUREHHSI@GMAIL.COM",
    "categoryName": "HOME HEALTH AGENCY",
    "categoryCode": "HHA",
    "licenseStatus": "ACTIVE",
    "inService": true,
    "licenseNumber": "550006865",
    "licenseEffectiveDate": "10/22/2024",
    "licenseExpirationDate": "09/26/2025",
    "dataDate": "10/18/2025",
    "capacity": 0,
    "address": "13615 VICTORY BLVD, SUITE 106",
    "city": "VAN NUYS",
    "zip": "91401",
    "county": "LOS ANGELES",
    "phone": "(818) 457-1486",
    "lat": 34.187055,
    "lng": -118.429355
  },
  {
    "id": "980002288",
    "name": "SERENE HOME HEALTH, INC.",
    "npi": null,
    "hcaiId": "406197013",
    "businessName": "SERENE HOME HEALTH, INC.",
    "contactEmail": "SERENEHOMECARE17@GMAIL.COM",
    "categoryName": "HOME HEALTH AGENCY",
    "categoryCode": "HHA",
    "licenseStatus": "ACTIVE",
    "inService": true,
    "licenseNumber": "980001403",
    "licenseEffectiveDate": "10/28/2025",
    "licenseExpirationDate": "08/13/2026",
    "dataDate": "10/18/2025",
    "capacity": 0,
    "address": "6412 MATILIJA AVE, SUITE 207",
    "city": "VAN NUYS",
    "zip": "91401",
    "county": "LOS ANGELES",
    "phone": "(747) 264-1510",
    "lat": 34.187184,
    "lng": -118.4331645
  },
  {
    "id": "630025429",
    "name": "SERENE TOUCH HOME HEALTH, INC.",
    "npi": null,
    "hcaiId": null,
    "businessName": "SERENE TOUCH HOME HEALTH, INC.",
    "contactEmail": "SERENETOUCHHHINC@GMAIL.COM",
    "categoryName": "HOME HEALTH AGENCY",
    "categoryCode": "HHA",
    "licenseStatus": "ACTIVE",
    "inService": true,
    "licenseNumber": "550008971",
    "licenseEffectiveDate": "01/12/2025",
    "licenseExpirationDate": "01/11/2026",
    "dataDate": "10/18/2025",
    "capacity": 0,
    "address": "13615 VICTORY BLVD, SUITE 216",
    "city": "VAN NUYS",
    "zip": "91401",
    "county": "LOS ANGELES",
    "phone": "(818) 471-4142",
    "lat": 34.186833,
    "lng": -118.429578
  },
  {
    "id": "630020525",
    "name": "SFV HOSPICE CARE, INC.",
    "npi": null,
    "hcaiId": "406193235",
    "businessName": "SFV HOSPICE CARE, INC.",
    "contactEmail": "SFVHOSPICECAREINC@GMAIL.COM",
    "categoryName": "HOSPICE",
    "categoryCode": "HOSPICE",
    "licenseStatus": "ACTIVE",
    "inService": true,
    "licenseNumber": "550006246",
    "licenseEffectiveDate": "03/19/2021",
    "licenseExpirationDate": "03/18/2023",
    "dataDate": "10/18/2025",
    "capacity": 0,
    "address": "6368 VAN NUYS BLVD, UNIT B",
    "city": "VAN NUYS",
    "zip": "91401",
    "county": "LOS ANGELES",
    "phone": "(818) 749-9525",
    "lat": 34.186257,
    "lng": -118.448451
  },
  {
    "id": "630009901",
    "name": "SHANT HOME HEALTH CARE",
    "npi": "1801831383",
    "hcaiId": "406196954",
    "businessName": "SHANT HOME HEALTH CARE, INC.",
    "contactEmail": "INFO@SHANTHOMEHEALTH.COM",
    "categoryName": "HOME HEALTH AGENCY",
    "categoryCode": "HHA",
    "licenseStatus": "ACTIVE",
    "inService": true,
    "licenseNumber": "550000453",
    "licenseEffectiveDate": "04/17/2025",
    "licenseExpirationDate": "04/16/2026",
    "dataDate": "10/18/2025",
    "capacity": 0,
    "address": "6033 WOODMAN AVE",
    "city": "VAN NUYS",
    "zip": "91401",
    "county": "LOS ANGELES",
    "phone": "(818) 782-9123",
    "lat": 34.180488,
    "lng": -118.4314455
  },
  {
    "id": "630019421",
    "name": "SHIELD HOSPICE & PALLIATIVE CARE, INC",
    "npi": null,
    "hcaiId": "406192573",
    "businessName": "SHIELD HOSPICE & PALLIATIVE CARE, INC",
    "contactEmail": "SHIELDHOSPICECARE@GMAIL.COM",
    "categoryName": "HOSPICE",
    "categoryCode": "HOSPICE",
    "licenseStatus": "ACTIVE",
    "inService": true,
    "licenseNumber": "550005448",
    "licenseEffectiveDate": "05/08/2024",
    "licenseExpirationDate": "05/07/2026",
    "dataDate": "10/18/2025",
    "capacity": 0,
    "address": "6320 VAN NUYS BLVD, SUITE 303",
    "city": "VAN NUYS",
    "zip": "91401",
    "county": "LOS ANGELES",
    "phone": "(818) 946-1022",
    "lat": 34.185339,
    "lng": -118.4484825
  },
  {
    "id": "630022054",
    "name": "SHORELINE HOSPICE, INC.",
    "npi": null,
    "hcaiId": "406190192",
    "businessName": "SHORELINE HOSPICE, INC.",
    "contactEmail": "SHORELINEHOSPICE@GMAIL.COM",
    "categoryName": "HOSPICE",
    "categoryCode": "HOSPICE",
    "licenseStatus": "ACTIVE",
    "inService": true,
    "licenseNumber": "550007684",
    "licenseEffectiveDate": "12/17/2023",
    "licenseExpirationDate": "12/16/2025",
    "dataDate": "10/18/2025",
    "capacity": 0,
    "address": "14402 HAYNES ST, SUITE 207",
    "city": "VAN NUYS",
    "zip": "91401",
    "county": "LOS ANGELES",
    "phone": "(818) 582-3208",
    "lat": 34.189497,
    "lng": -118.4467095
  },
  {
    "id": "630020511",
    "name": "SKYLINE HOSPICE CARE, INC",
    "npi": null,
    "hcaiId": "406196107",
    "businessName": "SKYLINE HOSPICE CARE, INC",
    "contactEmail": "SKYLINEHOSPICEINC@GMAIL.COM",
    "categoryName": "HOSPICE",
    "categoryCode": "HOSPICE",
    "licenseStatus": "ACTIVE",
    "inService": true,
    "licenseNumber": "550006063",
    "licenseEffectiveDate": "02/18/2025",
    "licenseExpirationDate": "02/17/2027",
    "dataDate": "10/18/2025",
    "capacity": 0,
    "address": "14349 VICTORY BLVD, SUITE 105",
    "city": "VAN NUYS",
    "zip": "91401",
    "county": "LOS ANGELES",
    "phone": "(818) 616-4318",
    "lat": 34.186977,
    "lng": -118.446021
  },
  {
    "id": "630020687",
    "name": "SOCAL MEDICAL HOME HEALTH",
    "npi": null,
    "hcaiId": "406195699",
    "businessName": "SOCAL MEDICAL HOME HEALTH",
    "contactEmail": "SCMHOMEHEALTH@GMAIL.COM",
    "categoryName": "HOME HEALTH AGENCY",
    "categoryCode": "HHA",
    "licenseStatus": "ACTIVE",
    "inService": true,
    "licenseNumber": "550007349",
    "licenseEffectiveDate": "11/05/2022",
    "licenseExpirationDate": "11/04/2023",
    "dataDate": "10/18/2025",
    "capacity": 0,
    "address": "13735 VICTORY BLVD, SUITE 16",
    "city": "VAN NUYS",
    "zip": "91401",
    "county": "LOS ANGELES",
    "phone": "(747) 800-6553",
    "lat": 34.186959,
    "lng": -118.4324085
  },
  {
    "id": "930000186",
    "name": "SOUTHERN CALIFORNIA HOSPITAL AT VAN NUYS D/P APH",
    "npi": "1245224732",
    "hcaiId": "106190814",
    "businessName": "SOUTHERN CALIFORNIA HEALTHCARE SYSTEM, INC.",
    "contactEmail": null,
    "categoryName": "ACUTE PSYCHIATRIC HOSPITAL",
    "categoryCode": "APH",
    "licenseStatus": "ACTIVE",
    "inService": true,
    "licenseNumber": "930000066",
    "licenseEffectiveDate": "02/25/2025",
    "licenseExpirationDate": "02/24/2026",
    "dataDate": "10/18/2025",
    "capacity": 59,
    "address": "14433 EMELITA ST",
    "city": "VAN NUYS",
    "zip": "91401",
    "county": "LOS ANGELES",
    "phone": "(818) 787-1511",
    "lat": 34.176816,
    "lng": -118.447677
  },
  {
    "id": "630021064",
    "name": "ST ALEX HOSPICE CARE, INC",
    "npi": null,
    "hcaiId": "406193393",
    "businessName": "ST ALEX HOSPICE CARE, INC",
    "contactEmail": "STALEXHOSPICECAREINC@GMAIL.COM",
    "categoryName": "HOSPICE",
    "categoryCode": "HOSPICE",
    "licenseStatus": "ACTIVE",
    "inService": true,
    "licenseNumber": "550006973",
    "licenseEffectiveDate": "07/02/2025",
    "licenseExpirationDate": "10/14/2025",
    "dataDate": "10/18/2025",
    "capacity": 0,
    "address": "6454 VAN NUYS BLVD, SUITE 150, OFFICE 3",
    "city": "VAN NUYS",
    "zip": "91401",
    "county": "LOS ANGELES",
    "phone": "(747) 234-0956",
    "lat": 34.18782225,
    "lng": -118.4486545
  },
  {
    "id": "630021287",
    "name": "ST ANN HOSPICE CARE",
    "npi": null,
    "hcaiId": "406194894",
    "businessName": "ST ANN HOSPICE CARE",
    "contactEmail": "STANNHOSPICECARE@GMAIL.COM",
    "categoryName": "HOSPICE",
    "categoryCode": "HOSPICE",
    "licenseStatus": "ACTIVE",
    "inService": true,
    "licenseNumber": "550007221",
    "licenseEffectiveDate": "10/15/2025",
    "licenseExpirationDate": "10/14/2027",
    "dataDate": "10/18/2025",
    "capacity": 0,
    "address": "13758 VICTORY BLVD, SUITE 200",
    "city": "VAN NUYS",
    "zip": "91401",
    "county": "LOS ANGELES",
    "phone": "(747) 301-4272",
    "lat": 34.18661584,
    "lng": -118.4330469
  },
  {
    "id": "630020430",
    "name": "ST. MARIAM HOSPICE CARE INC.",
    "npi": null,
    "hcaiId": "406194707",
    "businessName": "ST. MARIAM HOSPICE CARE INC.",
    "contactEmail": "STMARIAMHOSPICECAREINC@GMAIL.COM",
    "categoryName": "HOSPICE",
    "categoryCode": "HOSPICE",
    "licenseStatus": "ACTIVE",
    "inService": true,
    "licenseNumber": "550006343",
    "licenseEffectiveDate": "04/21/2023",
    "licenseExpirationDate": "04/20/2025",
    "dataDate": "10/18/2025",
    "capacity": 0,
    "address": "13609 VICTORY BLVD, SUITE 135",
    "city": "VAN NUYS",
    "zip": "91401",
    "county": "LOS ANGELES",
    "phone": "(888) 247-6067",
    "lat": 34.186842,
    "lng": -118.4293575
  },
  {
    "id": "630017435",
    "name": "ST. MICHAEL HOME HEALTH CARE INC.",
    "npi": "1710414925",
    "hcaiId": "406190997",
    "businessName": "ST.MICHAEL HOME HEALTH CARE INC.",
    "contactEmail": "ST.MICHAELSHHCI@GMAIL.COM",
    "categoryName": "HOME HEALTH AGENCY",
    "categoryCode": "HHA",
    "licenseStatus": "ACTIVE",
    "inService": true,
    "licenseNumber": "550004266",
    "licenseEffectiveDate": "06/14/2024",
    "licenseExpirationDate": "06/13/2025",
    "dataDate": "10/18/2025",
    "capacity": 0,
    "address": "13609 VICTORY BLVD, UNIT 212",
    "city": "VAN NUYS",
    "zip": "91401",
    "county": "LOS ANGELES",
    "phone": "(818) 970-8384",
    "lat": 34.186842,
    "lng": -118.4293575
  },
  {
    "id": "630012369",
    "name": "ST. PAUL HOME HEALTH SERVICES, INC.",
    "npi": "1558592451",
    "hcaiId": "406197409",
    "businessName": "ST. PAUL HOME HEALTH SERVICES, INC",
    "contactEmail": "STPAULHOMEHEALTH@YAHOO.COM",
    "categoryName": "HOME HEALTH AGENCY",
    "categoryCode": "HHA",
    "licenseStatus": "ACTIVE",
    "inService": true,
    "licenseNumber": "550001302",
    "licenseEffectiveDate": "06/10/2025",
    "licenseExpirationDate": "06/09/2026",
    "dataDate": "10/18/2025",
    "capacity": 0,
    "address": "14431 HAMLIN STREET, SUITE 202",
    "city": "VAN NUYS",
    "zip": "91401",
    "county": "LOS ANGELES",
    "phone": "(818) 488-1485",
    "lat": 34.188849,
    "lng": -118.4475735
  },
  {
    "id": "630017445",
    "name": "ST. RITA'S HOME HEALTH CARE, INC.",
    "npi": null,
    "hcaiId": "406191742",
    "businessName": "ST. RITA'S HOME HEALTH CARE, INC.",
    "contactEmail": "SRHHC_INC@YAHOO.COM",
    "categoryName": "HOME HEALTH AGENCY",
    "categoryCode": "HHA",
    "licenseStatus": "ACTIVE",
    "inService": true,
    "licenseNumber": "550004748",
    "licenseEffectiveDate": "06/09/2024",
    "licenseExpirationDate": "06/08/2025",
    "dataDate": "10/18/2025",
    "capacity": 0,
    "address": "6360 VAN NUYS BLVD, SUITE 233",
    "city": "VAN NUYS",
    "zip": "91401",
    "county": "LOS ANGELES",
    "phone": "(818) 646-1944",
    "lat": 34.186041,
    "lng": -118.4484285
  },
  {
    "id": "630021032",
    "name": "STORM HOME HEALTH CARE, INC.",
    "npi": null,
    "hcaiId": "406193266",
    "businessName": "STORM HOME HEALTH CARE, INC.",
    "contactEmail": "STORMHHC@GMAIL.COM",
    "categoryName": "HOME HEALTH AGENCY",
    "categoryCode": "HHA",
    "licenseStatus": "ACTIVE",
    "inService": true,
    "licenseNumber": "550006829",
    "licenseEffectiveDate": "09/23/2024",
    "licenseExpirationDate": "09/22/2025",
    "dataDate": "10/18/2025",
    "capacity": 0,
    "address": "6454 VAN NUYS BLVD, SUITE 110/10",
    "city": "VAN NUYS",
    "zip": "91401",
    "county": "LOS ANGELES",
    "phone": "(747) 251-4012",
    "lat": 34.187787,
    "lng": -118.4484465
  },
  {
    "id": "630025514",
    "name": "STRATBURG HOME HEALTH CARE, INC",
    "npi": null,
    "hcaiId": "406190133",
    "businessName": "STRATBURG HOME HEALTH CARE, INC",
    "contactEmail": "STRATBURGHHC@GMAIL.COM",
    "categoryName": "HOME HEALTH AGENCY",
    "categoryCode": "HHA",
    "licenseStatus": "ACTIVE",
    "inService": true,
    "licenseNumber": "550008622",
    "licenseEffectiveDate": "06/19/2024",
    "licenseExpirationDate": "06/18/2025",
    "dataDate": "10/18/2025",
    "capacity": 0,
    "address": "6320 VAN NUYS BLVD, SUITE 500",
    "city": "VAN NUYS",
    "zip": "91401",
    "county": "LOS ANGELES",
    "phone": "(747) 788-4056",
    "lat": 34.185339,
    "lng": -118.4484825
  },
  {
    "id": "630025643",
    "name": "SWIFT SWAN HOME HEALTH CARE INC.",
    "npi": null,
    "hcaiId": "406190187",
    "businessName": "SWIFT SWAN HOME HEALTH CARE INC.",
    "contactEmail": "SWIFTSWANHOMEHEALTH@GMAIL.COM",
    "categoryName": "HOME HEALTH AGENCY",
    "categoryCode": "HHA",
    "licenseStatus": "ACTIVE",
    "inService": true,
    "licenseNumber": "550008690",
    "licenseEffectiveDate": "08/08/2025",
    "licenseExpirationDate": "08/07/2026",
    "dataDate": "10/18/2025",
    "capacity": 0,
    "address": "6320 VAN NUYS BLVD, SUITE 205B",
    "city": "VAN NUYS",
    "zip": "91401",
    "county": "LOS ANGELES",
    "phone": "(818) 275-6272",
    "lat": 34.185339,
    "lng": -118.4484825
  },
  {
    "id": "630018386",
    "name": "SX HOME HEALTH INC",
    "npi": null,
    "hcaiId": "406192133",
    "businessName": "SX HOME HEALTH INC",
    "contactEmail": "ML.GAMBARINI@GMAIL.COM",
    "categoryName": "HOME HEALTH AGENCY",
    "categoryCode": "HHA",
    "licenseStatus": "ACTIVE",
    "inService": true,
    "licenseNumber": "550005133",
    "licenseEffectiveDate": "11/23/2024",
    "licenseExpirationDate": "11/22/2025",
    "dataDate": "10/18/2025",
    "capacity": 0,
    "address": "13615 VICTORY BLVD, SUITE 219",
    "city": "VAN NUYS",
    "zip": "91401",
    "county": "LOS ANGELES",
    "phone": "(818) 434-2414",
    "lat": 34.186833,
    "lng": -118.429578
  },
  {
    "id": "630021359",
    "name": "TAG HOSPICE, INC.",
    "npi": null,
    "hcaiId": "406198705",
    "businessName": "TAG HOSPICE, INC.",
    "contactEmail": "TAGHOSPICEINC@GMAIL.COM",
    "categoryName": "HOSPICE",
    "categoryCode": "HOSPICE",
    "licenseStatus": "ACTIVE",
    "inService": true,
    "licenseNumber": "550007607",
    "licenseEffectiveDate": "12/20/2023",
    "licenseExpirationDate": "12/19/2025",
    "dataDate": "10/18/2025",
    "capacity": 0,
    "address": "6412 MATILIJA AVE, UNIT 208",
    "city": "VAN NUYS",
    "zip": "91401",
    "county": "LOS ANGELES",
    "phone": "(747) 247-7234",
    "lat": 34.187184,
    "lng": -118.433151
  },
  {
    "id": "630019443",
    "name": "TALANO HOME HEALTH CARE, INC.",
    "npi": null,
    "hcaiId": "406195879",
    "businessName": "TALANO HOME HEALTH CARE, INC",
    "contactEmail": "TALANOHHINC@GMAIL.COM",
    "categoryName": "HOME HEALTH AGENCY",
    "categoryCode": "HHA",
    "licenseStatus": "ACTIVE",
    "inService": true,
    "licenseNumber": "550008052",
    "licenseEffectiveDate": "12/03/2022",
    "licenseExpirationDate": "06/02/2023",
    "dataDate": "10/18/2025",
    "capacity": 0,
    "address": "6314 VAN NUYS BLVD, SUITE 215",
    "city": "VAN NUYS",
    "zip": "91401",
    "county": "LOS ANGELES",
    "phone": "(818) 646-1580",
    "lat": 34.185132,
    "lng": -118.4484825
  },
  {
    "id": "630022165",
    "name": "TH CARING HOSPICE CARE, INC.",
    "npi": null,
    "hcaiId": "406195983",
    "businessName": "TH CARING HOSPICE CARE, INC.",
    "contactEmail": "THCARINGHOSPICECARE@YAHOO.COM",
    "categoryName": "HOSPICE",
    "categoryCode": "HOSPICE",
    "licenseStatus": "ACTIVE",
    "inService": true,
    "licenseNumber": "550007537",
    "licenseEffectiveDate": "12/08/2023",
    "licenseExpirationDate": "12/07/2025",
    "dataDate": "10/18/2025",
    "capacity": 0,
    "address": "13615 VICTORY BLVD, SUITE 111",
    "city": "VAN NUYS",
    "zip": "91401",
    "county": "LOS ANGELES",
    "phone": "(818) 290-3015",
    "lat": 34.20417046,
    "lng": -118.2276593
  },
  {
    "id": "630025193",
    "name": "THANKFUL HANDS HOME HEALTH CARE INC",
    "npi": null,
    "hcaiId": "406197527",
    "businessName": "THANKFUL HANDS HOME HEALTH CARE INC.",
    "contactEmail": "THANKFULHANDSHOMEHEALTH@GMAIL.COM",
    "categoryName": "HOME HEALTH AGENCY",
    "categoryCode": "HHA",
    "licenseStatus": "ACTIVE",
    "inService": true,
    "licenseNumber": "550008565",
    "licenseEffectiveDate": "06/01/2025",
    "licenseExpirationDate": "05/31/2026",
    "dataDate": "10/18/2025",
    "capacity": 0,
    "address": "6551 VAN NUYS BLVD, UNIT 110",
    "city": "VAN NUYS",
    "zip": "91401",
    "county": "LOS ANGELES",
    "phone": "(800) 484-7547",
    "lat": 34.189803,
    "lng": -118.449
  },
  {
    "id": "630021583",
    "name": "THE ANGELS OF HAVEN HOSPICE CARE INC.",
    "npi": null,
    "hcaiId": "406193943",
    "businessName": "THE ANGELS OF HAVEN HOSPICE CARE INC.",
    "contactEmail": "ANGELSOHHCI@GMAIL.COM",
    "categoryName": "HOSPICE",
    "categoryCode": "HOSPICE",
    "licenseStatus": "ACTIVE",
    "inService": true,
    "licenseNumber": "550007047",
    "licenseEffectiveDate": "10/06/2025",
    "licenseExpirationDate": "10/05/2027",
    "dataDate": "10/18/2025",
    "capacity": 0,
    "address": "13609 VICTORY BLVD, SUITE 133",
    "city": "VAN NUYS",
    "zip": "91401",
    "county": "LOS ANGELES",
    "phone": "(818) 290-3157",
    "lat": 34.186842,
    "lng": -118.4293575
  },
  {
    "id": "630022203",
    "name": "THE BEST HOME HEALTH AGENCY, INC.",
    "npi": null,
    "hcaiId": "406195906",
    "businessName": "THE BEST HOME HEALTH AGENCY, INC.",
    "contactEmail": "BESTHHA1@GMAIL.COM",
    "categoryName": "HOME HEALTH AGENCY",
    "categoryCode": "HHA",
    "licenseStatus": "ACTIVE",
    "inService": true,
    "licenseNumber": "550008107",
    "licenseEffectiveDate": "06/09/2025",
    "licenseExpirationDate": "06/08/2026",
    "dataDate": "10/18/2025",
    "capacity": 0,
    "address": "6356 VAN NUYS BLVD, SUITE 227",
    "city": "VAN NUYS",
    "zip": "91401",
    "county": "LOS ANGELES",
    "phone": "(818) 922-2184",
    "lat": 34.185915,
    "lng": -118.448451
  },
  {
    "id": "630014717",
    "name": "TOLUCA CONGREGATE LIVING",
    "npi": null,
    "hcaiId": "206198173",
    "businessName": "TOLUCA CONGREGATE LIVING, INC.",
    "contactEmail": "TOLUCACONGREGATE@GMAIL.COM",
    "categoryName": "CONGREGATE LIVING HEALTH FACILITY",
    "categoryCode": "CLHF",
    "licenseStatus": "ACTIVE",
    "inService": true,
    "licenseNumber": "550003119",
    "licenseEffectiveDate": "06/05/2025",
    "licenseExpirationDate": "06/04/2026",
    "dataDate": "10/18/2025",
    "capacity": 6,
    "address": "6339 MARY ELLEN AVE",
    "city": "VAN NUYS",
    "zip": "91401",
    "county": "LOS ANGELES",
    "phone": "(818) 616-3933",
    "lat": 34.185978,
    "lng": -118.419561
  },
  {
    "id": "630021640",
    "name": "TRILOGY HOSPICE, INC.",
    "npi": null,
    "hcaiId": "406194791",
    "businessName": "TRILOGY HOSPICE, INC.",
    "contactEmail": "BABKEN@TRILOGYHOSPICE.COM",
    "categoryName": "HOSPICE",
    "categoryCode": "HOSPICE",
    "licenseStatus": "ACTIVE",
    "inService": true,
    "licenseNumber": "550007421",
    "licenseEffectiveDate": "01/23/2025",
    "licenseExpirationDate": "12/12/2025",
    "dataDate": "10/18/2025",
    "capacity": 0,
    "address": "14328 VICTORY BLVD, SUITE K",
    "city": "VAN NUYS",
    "zip": "91401",
    "county": "LOS ANGELES",
    "phone": "(747) 207-9377",
    "lat": 34.18660485,
    "lng": -118.4453109
  },
  {
    "id": "630021090",
    "name": "TRINITY HOSPICE CARE, INC.",
    "npi": null,
    "hcaiId": "406193944",
    "businessName": "TRINITY HOSPICE CARE, INC.",
    "contactEmail": "TRINITYHOSPICECARE@GMAIL.COM",
    "categoryName": "HOSPICE",
    "categoryCode": "HOSPICE",
    "licenseStatus": "ACTIVE",
    "inService": true,
    "licenseNumber": "550007143",
    "licenseEffectiveDate": "10/22/2025",
    "licenseExpirationDate": "10/21/2027",
    "dataDate": "10/18/2025",
    "capacity": 0,
    "address": "13746 VICTORY BLVD, SUITE 320",
    "city": "VAN NUYS",
    "zip": "91401",
    "county": "LOS ANGELES",
    "phone": "(818) 855-1951",
    "lat": 34.1865,
    "lng": -118.432854
  },
  {
    "id": "630020231",
    "name": "TRUSTABLE HOSPICE, INC.",
    "npi": null,
    "hcaiId": "406196148",
    "businessName": "TRUSTABLE HOSPICE, INC.",
    "contactEmail": "TRUSTABLEHOSPICE@GMAIL.COM",
    "categoryName": "HOSPICE",
    "categoryCode": "HOSPICE",
    "licenseStatus": "ACTIVE",
    "inService": true,
    "licenseNumber": "550005988",
    "licenseEffectiveDate": "01/08/2025",
    "licenseExpirationDate": "01/07/2027",
    "dataDate": "10/18/2025",
    "capacity": 0,
    "address": "6422 VAN NUYS BLVD, SUITE 104",
    "city": "VAN NUYS",
    "zip": "91401",
    "county": "LOS ANGELES",
    "phone": "(323) 329-5001",
    "lat": 34.1874,
    "lng": -118.4484465
  },
  {
    "id": "630020980",
    "name": "TRUSTED ANGELS HOSPICE INC.",
    "npi": null,
    "hcaiId": "406193939",
    "businessName": "TRUSTED ANGELS HOSPICE INC.",
    "contactEmail": "TRUSTHOSLA@GMAIL.COM",
    "categoryName": "HOSPICE",
    "categoryCode": "HOSPICE",
    "licenseStatus": "ACTIVE",
    "inService": true,
    "licenseNumber": "550007048",
    "licenseEffectiveDate": "08/26/2023",
    "licenseExpirationDate": "08/25/2025",
    "dataDate": "10/18/2025",
    "capacity": 0,
    "address": "13615 VICTORY BLVD, SUITE 104",
    "city": "VAN NUYS",
    "zip": "91401",
    "county": "LOS ANGELES",
    "phone": "(818) 275-8052",
    "lat": 34.186833,
    "lng": -118.429578
  },
  {
    "id": "630016672",
    "name": "UNIQUE TOUCH HOME HEALTHCARE INC.",
    "npi": "1396106316",
    "hcaiId": "406190667",
    "businessName": "UNIQUE TOUCH HOME HEALTHCARE INC.",
    "contactEmail": "INFO@UTHHC.COM",
    "categoryName": "HOME HEALTH AGENCY",
    "categoryCode": "HHA",
    "licenseStatus": "ACTIVE",
    "inService": true,
    "licenseNumber": "550004162",
    "licenseEffectiveDate": "02/23/2025",
    "licenseExpirationDate": "02/22/2026",
    "dataDate": "10/18/2025",
    "capacity": 0,
    "address": "6320 VAN NUYS BLVD., SUITE 508",
    "city": "VAN NUYS",
    "zip": "91401",
    "county": "LOS ANGELES",
    "phone": "(818) 465-3158",
    "lat": 34.185456,
    "lng": -118.4484195
  },
  {
    "id": "630015318",
    "name": "VALLEY CREEK HOSPICE, INC.",
    "npi": "1083029367",
    "hcaiId": "406198434",
    "businessName": "VALLEY CREEK HOSPICE, INC.",
    "contactEmail": "VALLEYCREEKHOSPICE@GMAIL.COM",
    "categoryName": "HOSPICE",
    "categoryCode": "HOSPICE",
    "licenseStatus": "ACTIVE",
    "inService": true,
    "licenseNumber": "550003846",
    "licenseEffectiveDate": "03/22/2021",
    "licenseExpirationDate": "03/21/2023",
    "dataDate": "10/18/2025",
    "capacity": 0,
    "address": "6320 VAN NUYS BLVD, SUITE 402",
    "city": "VAN NUYS",
    "zip": "91401",
    "county": "LOS ANGELES",
    "phone": "(323) 512-2100",
    "lat": 34.185456,
    "lng": -118.4484195
  },
  {
    "id": "630018788",
    "name": "VALLEY HOSPICE, INC.",
    "npi": null,
    "hcaiId": "406196249",
    "businessName": "VALLEY HOSPICE, INC.",
    "contactEmail": "VALLEYHOSPICE@YAHOO.COM",
    "categoryName": "HOSPICE",
    "categoryCode": "HOSPICE",
    "licenseStatus": "ACTIVE",
    "inService": true,
    "licenseNumber": "550006025",
    "licenseEffectiveDate": "12/09/2022",
    "licenseExpirationDate": "12/08/2024",
    "dataDate": "10/18/2025",
    "capacity": 0,
    "address": "13746 VICTORY BLVD, SUITE 303",
    "city": "VAN NUYS",
    "zip": "91401",
    "county": "LOS ANGELES",
    "phone": "(818) 849-6111",
    "lat": 34.186356,
    "lng": -118.4328315
  },
  {
    "id": "630021467",
    "name": "VALLEY SERENITY HOSPICE CARE, INC",
    "npi": null,
    "hcaiId": "406190213",
    "businessName": "VALLEY SERENITY HOSPICE CARE, INC",
    "contactEmail": "VSHI20@YAHOO.COM",
    "categoryName": "HOSPICE",
    "categoryCode": "HOSPICE",
    "licenseStatus": "ACTIVE",
    "inService": true,
    "licenseNumber": "550007277",
    "licenseEffectiveDate": "11/23/2023",
    "licenseExpirationDate": "11/22/2025",
    "dataDate": "10/18/2025",
    "capacity": 0,
    "address": "14416 HAMLIN ST, SUITE 205",
    "city": "VAN NUYS",
    "zip": "91401",
    "county": "LOS ANGELES",
    "phone": "(747) 301-3011",
    "lat": 34.188643,
    "lng": -118.44721
  },
  {
    "id": "630020892",
    "name": "VALLEY SIDE HOSPICE, INC.",
    "npi": null,
    "hcaiId": "406190243",
    "businessName": "VALLEY SIDE HOSPICE, INC.",
    "contactEmail": "VALLEYSIDEHOSPICE@GMAIL.COM",
    "categoryName": "HOSPICE",
    "categoryCode": "HOSPICE",
    "licenseStatus": "ACTIVE",
    "inService": true,
    "licenseNumber": "550006771",
    "licenseEffectiveDate": "09/01/2025",
    "licenseExpirationDate": "08/31/2027",
    "dataDate": "10/18/2025",
    "capacity": 0,
    "address": "14120 VICTORY BLVD, SUITE 102",
    "city": "VAN NUYS",
    "zip": "91401",
    "county": "LOS ANGELES",
    "phone": "(818) 290-3332",
    "lat": 34.18642501,
    "lng": -118.440704
  },
  {
    "id": "630027874",
    "name": "VIA CARE VALLEY COMMUNITY COLLEGE",
    "npi": null,
    "hcaiId": null,
    "businessName": "VIA CARE COMMUNITY HEALTH CENTER, INC.",
    "contactEmail": null,
    "categoryName": "PRIMARY CARE CLINIC",
    "categoryCode": "COMTYC",
    "licenseStatus": "ACTIVE",
    "inService": true,
    "licenseNumber": "960001182",
    "licenseEffectiveDate": "11/15/2025",
    "licenseExpirationDate": "11/14/2026",
    "dataDate": "10/18/2025",
    "capacity": 0,
    "address": "5800 FULTON AVE",
    "city": "VALLEY GLEN",
    "zip": "91401",
    "county": "LOS ANGELES",
    "phone": null,
    "lat": 34.17548001,
    "lng": -118.420164
  },
  {
    "id": "630014314",
    "name": "VICTORY HOSPICE",
    "npi": null,
    "hcaiId": "406198300",
    "businessName": "VICTORY HOSPICE",
    "contactEmail": "VICTORYHOSPICE202@GMAIL.COM",
    "categoryName": "HOSPICE",
    "categoryCode": "HOSPICE",
    "licenseStatus": "ACTIVE",
    "inService": true,
    "licenseNumber": "550002803",
    "licenseEffectiveDate": "07/28/2022",
    "licenseExpirationDate": "07/27/2024",
    "dataDate": "10/18/2025",
    "capacity": 0,
    "address": "14349 VICTORY BLVD, SUITE 202",
    "city": "VAN NUYS",
    "zip": "91401",
    "county": "LOS ANGELES",
    "phone": "(818) 285-8035",
    "lat": 34.186977,
    "lng": -118.446021
  },
  {
    "id": "630013592",
    "name": "VICTORY HOSPICE CARE",
    "npi": "1255618039",
    "hcaiId": "406197811",
    "businessName": "VICTORY HOSPICE, INC.",
    "contactEmail": "VICTORY.HOSPICE@GMAIL.COM",
    "categoryName": "HOSPICE",
    "categoryCode": "HOSPICE",
    "licenseStatus": "ACTIVE",
    "inService": true,
    "licenseNumber": "550002223",
    "licenseEffectiveDate": "12/26/2024",
    "licenseExpirationDate": "12/25/2026",
    "dataDate": "10/18/2025",
    "capacity": 0,
    "address": "5500 VAN NUYS BLVD.",
    "city": "SHERMAN OAKS",
    "zip": "91401",
    "county": "LOS ANGELES",
    "phone": "(818) 392-5498",
    "lat": 34.170723,
    "lng": -118.4482755
  },
  {
    "id": "630020091",
    "name": "VISITING ANGELS OF LA HOSPICE INC.",
    "npi": null,
    "hcaiId": "406190252",
    "businessName": "VISITING ANGELS OF LA HOSPICE INC.",
    "contactEmail": "VISITINGANGELSDHI@GMAIL.COM",
    "categoryName": "HOSPICE",
    "categoryCode": "HOSPICE",
    "licenseStatus": "ACTIVE",
    "inService": true,
    "licenseNumber": "550005929",
    "licenseEffectiveDate": "12/03/2024",
    "licenseExpirationDate": "12/02/2026",
    "dataDate": "10/18/2025",
    "capacity": 0,
    "address": "13615 VICTORY BLVD, SUITE 224",
    "city": "VAN NUYS",
    "zip": "91401",
    "county": "LOS ANGELES",
    "phone": "(818) 477-3552",
    "lat": 34.186833,
    "lng": -118.429578
  },
  {
    "id": "630020792",
    "name": "VML HOSPICE, INC.",
    "npi": null,
    "hcaiId": "406196072",
    "businessName": "VML HOSPICE, INC.",
    "contactEmail": "VMLHOSPICEINC@YAHOO.COM",
    "categoryName": "HOSPICE",
    "categoryCode": "HOSPICE",
    "licenseStatus": "ACTIVE",
    "inService": true,
    "licenseNumber": "550006335",
    "licenseEffectiveDate": "05/25/2023",
    "licenseExpirationDate": "05/24/2025",
    "dataDate": "10/18/2025",
    "capacity": 0,
    "address": "14349 VICTORY BLVD, SUITE 201B",
    "city": "VAN NUYS",
    "zip": "91401",
    "county": "LOS ANGELES",
    "phone": "(818) 616-4637",
    "lat": 34.186851,
    "lng": -118.4460705
  },
  {
    "id": "630020828",
    "name": "WARMFUL LOVE HOME HEALTH, INC.",
    "npi": null,
    "hcaiId": "406195284",
    "businessName": "WARMFUL LOVE HOME HEALTH, INC.",
    "contactEmail": "WLHHI20@YAHOO.COM",
    "categoryName": "HOME HEALTH AGENCY",
    "categoryCode": "HHA",
    "licenseStatus": "ACTIVE",
    "inService": true,
    "licenseNumber": "550006013",
    "licenseEffectiveDate": "02/04/2025",
    "licenseExpirationDate": "02/03/2026",
    "dataDate": "10/18/2025",
    "capacity": 0,
    "address": "14416 HAMLIN ST, SUITE 203",
    "city": "VAN NUYS",
    "zip": "91401",
    "county": "LOS ANGELES",
    "phone": "(747) 322-7761",
    "lat": 34.188471,
    "lng": -118.447209
  },
  {
    "id": "630020826",
    "name": "WARMFUL LOVE HOSPICE,INC.",
    "npi": null,
    "hcaiId": "406196044",
    "businessName": "WARMFUL LOVE HOSPICE, INC.",
    "contactEmail": "WLHI20@YAHOO.COM",
    "categoryName": "HOSPICE",
    "categoryCode": "HOSPICE",
    "licenseStatus": "ACTIVE",
    "inService": true,
    "licenseNumber": "550006549",
    "licenseEffectiveDate": "07/16/2025",
    "licenseExpirationDate": "07/15/2027",
    "dataDate": "10/18/2025",
    "capacity": 0,
    "address": "14416 HAMLIN ST, SUITE 209",
    "city": "VAN NUYS",
    "zip": "91401",
    "county": "LOS ANGELES",
    "phone": "(747) 322-7763",
    "lat": 34.188471,
    "lng": -118.447209
  },
  {
    "id": "630012975",
    "name": "WE CARE HOMEHEALTH INC.",
    "npi": "1811200843",
    "hcaiId": "406197494",
    "businessName": "WE CARE HOMEHEALTH INC.",
    "contactEmail": "WECAREHH1@GMAIL.COM",
    "categoryName": "HOME HEALTH AGENCY",
    "categoryCode": "HHA",
    "licenseStatus": "ACTIVE",
    "inService": true,
    "licenseNumber": "550001572",
    "licenseEffectiveDate": "06/01/2025",
    "licenseExpirationDate": "05/31/2026",
    "dataDate": "10/18/2025",
    "capacity": 0,
    "address": "14328 VICTORY BLVD, SUITE 201",
    "city": "VAN NUYS",
    "zip": "91401",
    "county": "LOS ANGELES",
    "phone": "(818) 616-3175",
    "lat": 34.18660189,
    "lng": -118.4454106
  },
  {
    "id": "630018858",
    "name": "WE DO CARE HOSPICE",
    "npi": "1376106369",
    "hcaiId": "406191857",
    "businessName": "WE DO CARE HOSPICE",
    "contactEmail": "WDCH19@YAHOO.COM",
    "categoryName": "HOSPICE",
    "categoryCode": "HOSPICE",
    "licenseStatus": "ACTIVE",
    "inService": true,
    "licenseNumber": "550005004",
    "licenseEffectiveDate": "10/12/2023",
    "licenseExpirationDate": "10/11/2025",
    "dataDate": "10/18/2025",
    "capacity": 0,
    "address": "14349 VICTORY BLVD, SUITE 102",
    "city": "VAN NUYS",
    "zip": "91401",
    "county": "LOS ANGELES",
    "phone": "(323) 515-5435",
    "lat": 34.186977,
    "lng": -118.446021
  },
  {
    "id": "630025448",
    "name": "WECARE INC",
    "npi": null,
    "hcaiId": "406197591",
    "businessName": "WECARE INC",
    "contactEmail": "WECAREHEALTHSERV@GMAIL.COM",
    "categoryName": "HOME HEALTH AGENCY",
    "categoryCode": "HHA",
    "licenseStatus": "ACTIVE",
    "inService": true,
    "licenseNumber": "550008758",
    "licenseEffectiveDate": "09/28/2025",
    "licenseExpirationDate": "09/27/2026",
    "dataDate": "10/18/2025",
    "capacity": 0,
    "address": "6356 VAN NUYS BLVD, SUITE 231",
    "city": "VAN NUYS",
    "zip": "91401",
    "county": "LOS ANGELES",
    "phone": "(818) 658-9966",
    "lat": 34.185915,
    "lng": -118.448451
  },
  {
    "id": "630018176",
    "name": "WELL CARE HOME HEALTH CARE INC.",
    "npi": "1184116469",
    "hcaiId": "406191888",
    "businessName": "WELL CARE HOME HEALTH CARE INC.",
    "contactEmail": "WELLCAREHOMEHEALTH@YAHOO.COM",
    "categoryName": "HOME HEALTH AGENCY",
    "categoryCode": "HHA",
    "licenseStatus": "ACTIVE",
    "inService": true,
    "licenseNumber": "550004869",
    "licenseEffectiveDate": "08/28/2025",
    "licenseExpirationDate": "08/27/2026",
    "dataDate": "10/18/2025",
    "capacity": 0,
    "address": "13746 VICTORY BLVD, UNIT 313",
    "city": "VAN NUYS",
    "zip": "91401",
    "county": "LOS ANGELES",
    "phone": "(818) 285-8908",
    "lat": 34.18635301,
    "lng": -118.432764
  },
  {
    "id": "630016645",
    "name": "WELLNESS CONGREGATED LIVING FACILITY INCORPORATED",
    "npi": null,
    "hcaiId": "206190046",
    "businessName": "WELLNESS CONGREGATED LIVING FACILITY INCORPORATED",
    "contactEmail": "WELLNESSCLFI@GMAIL.COM",
    "categoryName": "CONGREGATE LIVING HEALTH FACILITY",
    "categoryCode": "CLHF",
    "licenseStatus": "ACTIVE",
    "inService": true,
    "licenseNumber": "550004318",
    "licenseEffectiveDate": "07/11/2025",
    "licenseExpirationDate": "07/10/2026",
    "dataDate": "10/18/2025",
    "capacity": 6,
    "address": "6231 ETHEL AVENUE",
    "city": "VAN NUYS",
    "zip": "91401",
    "county": "LOS ANGELES",
    "phone": "(818) 795-1110",
    "lat": 34.18389,
    "lng": -118.4184765
  },
  {
    "id": "630013490",
    "name": "WEST COAST HOME HEALTH MANAGEMENT, INC.",
    "npi": null,
    "hcaiId": "406197772",
    "businessName": "WEST COAST HOME HEALTH MANAGEMENT, INC.",
    "contactEmail": "WESTCOASTHOMEHEALTH@YAHOO.COM",
    "categoryName": "HOME HEALTH AGENCY",
    "categoryCode": "HHA",
    "licenseStatus": "ACTIVE",
    "inService": true,
    "licenseNumber": "550002096",
    "licenseEffectiveDate": "10/01/2024",
    "licenseExpirationDate": "09/30/2025",
    "dataDate": "10/18/2025",
    "capacity": 0,
    "address": "13746 VICTORY BLVD, SUITE 311",
    "city": "VAN NUYS",
    "zip": "91401",
    "county": "LOS ANGELES",
    "phone": "(818) 994-0200",
    "lat": 34.186356,
    "lng": -118.4328315
  },
  {
    "id": "630017703",
    "name": "WEST VALLEY HOSPICE, INC",
    "npi": "1588178115",
    "hcaiId": "406192062",
    "businessName": "WEST VALLEY HOSPICE, INC.",
    "contactEmail": "WVHOSPICE18@GMAIL.COM",
    "categoryName": "HOSPICE",
    "categoryCode": "HOSPICE",
    "licenseStatus": "ACTIVE",
    "inService": true,
    "licenseNumber": "550005142",
    "licenseEffectiveDate": "09/24/2025",
    "licenseExpirationDate": "09/23/2027",
    "dataDate": "10/18/2025",
    "capacity": 0,
    "address": "14349 VICTORY BLVD, SUITE 203A",
    "city": "VAN NUYS",
    "zip": "91401",
    "county": "LOS ANGELES",
    "phone": "(818) 452-3646",
    "lat": 34.186851,
    "lng": -118.4460705
  },
  {
    "id": "630025270",
    "name": "WILLOW HOME HEALTH",
    "npi": null,
    "hcaiId": "406197450",
    "businessName": "WILLOW HOME HEALTH",
    "contactEmail": "WILLOWHOMEHEALTH@GMAIL.COM",
    "categoryName": "HOME HEALTH AGENCY",
    "categoryCode": "HHA",
    "licenseStatus": "ACTIVE",
    "inService": true,
    "licenseNumber": "550008535",
    "licenseEffectiveDate": "05/03/2025",
    "licenseExpirationDate": "05/02/2026",
    "dataDate": "10/18/2025",
    "capacity": 0,
    "address": "13615 VICTORY BLVD, SUITE 217",
    "city": "VAN NUYS",
    "zip": "91401",
    "county": "LOS ANGELES",
    "phone": "(800) 988-1985",
    "lat": 34.186833,
    "lng": -118.429578
  },
  {
    "id": "630025893",
    "name": "WISE YEARS HOME HEALTH INC",
    "npi": null,
    "hcaiId": "406190271",
    "businessName": "WISE YEARS HOME HEALTH INC",
    "contactEmail": "WISEYEARSHHCA@GMAIL.COM",
    "categoryName": "HOME HEALTH AGENCY",
    "categoryCode": "HHA",
    "licenseStatus": "ACTIVE",
    "inService": true,
    "licenseNumber": "550009008",
    "licenseEffectiveDate": "03/01/2025",
    "licenseExpirationDate": "02/28/2026",
    "dataDate": "10/18/2025",
    "capacity": 0,
    "address": "6365 VAN NUYS BLVD, SUITE 8",
    "city": "VAN NUYS",
    "zip": "91401",
    "county": "LOS ANGELES",
    "phone": "(818) 538-6044",
    "lat": 34.186203,
    "lng": -118.4490225
  },
  {
    "id": "630026671",
    "name": "WORLD CLASS HOME HEALTHCARE, INC.",
    "npi": null,
    "hcaiId": "406190277",
    "businessName": "WORLD CLASS HOME HEALTHCARE, INC.",
    "contactEmail": "WORLDCLASSHOMEHEALTH@GMAIL.COM",
    "categoryName": "HOME HEALTH AGENCY",
    "categoryCode": "HHA",
    "licenseStatus": "ACTIVE",
    "inService": true,
    "licenseNumber": "550008974",
    "licenseEffectiveDate": "02/28/2025",
    "licenseExpirationDate": "02/27/2026",
    "dataDate": "10/18/2025",
    "capacity": 0,
    "address": "6320 VAN NUYS BLVD, SUITE 200",
    "city": "VAN NUYS",
    "zip": "91401",
    "county": "LOS ANGELES",
    "phone": "(818) 285-8005",
    "lat": 34.185339,
    "lng": -118.4484825
  },
  {
    "id": "630019687",
    "name": "Y & Y HOME HEALTH",
    "npi": null,
    "hcaiId": "406195206",
    "businessName": "Y & Y HOME HEALTH",
    "contactEmail": "YYHOMEHEALTH2019@GMAIL.COM",
    "categoryName": "HOME HEALTH AGENCY",
    "categoryCode": "HHA",
    "licenseStatus": "ACTIVE",
    "inService": true,
    "licenseNumber": "550005944",
    "licenseEffectiveDate": "12/19/2024",
    "licenseExpirationDate": "12/18/2025",
    "dataDate": "10/18/2025",
    "capacity": 0,
    "address": "6257 VAN NUYS BLVD, SUITE C",
    "city": "VAN NUYS",
    "zip": "91401",
    "county": "LOS ANGELES",
    "phone": "(818) 510-0208",
    "lat": 34.183881,
    "lng": -118.448973
  },
  {
    "id": "630025031",
    "name": "YAN HOME HEALTH, INC.",
    "npi": null,
    "hcaiId": null,
    "businessName": "YAN HOME HEALTH INC",
    "contactEmail": "YANHOMEHEALTH@GMAIL.COM",
    "categoryName": "HOME HEALTH AGENCY",
    "categoryCode": "HHA",
    "licenseStatus": "ACTIVE",
    "inService": true,
    "licenseNumber": "550009350",
    "licenseEffectiveDate": "09/01/2025",
    "licenseExpirationDate": "08/31/2026",
    "dataDate": "10/18/2025",
    "capacity": 0,
    "address": "6360 VAN NUYS BLVD, SUITE 146",
    "city": "VAN NUYS",
    "zip": "91401",
    "county": "LOS ANGELES",
    "phone": "(818) 568-8796",
    "lat": 34.186041,
    "lng": -118.4484285
  },
  {
    "id": "630016531",
    "name": "YOUR FAMILY HOSPICE INC.",
    "npi": "1992170765",
    "hcaiId": "406190692",
    "businessName": "YOUR FAMILY HOSPICE, INC.",
    "contactEmail": "YOURFAMILYHOSPICE@GMAIL.COM",
    "categoryName": "HOSPICE",
    "categoryCode": "HOSPICE",
    "licenseStatus": "ACTIVE",
    "inService": true,
    "licenseNumber": "550004031",
    "licenseEffectiveDate": "11/27/2021",
    "licenseExpirationDate": "11/26/2023",
    "dataDate": "10/18/2025",
    "capacity": 0,
    "address": "14328 VICTORY BLVD., SUITE A",
    "city": "VAN NUYS",
    "zip": "91401",
    "county": "LOS ANGELES",
    "phone": "(323) 472-0703",
    "lat": 34.18660189,
    "lng": -118.4454106
  }
]