[
  {
    "id": "630021163",
    "name": "1ST AIDE HOME HEALTH AGENCY, INC.",
    "npi": null,
    "hcaiId": "406195677",
    "businessName": "1ST AIDE HOME HEALTH AGENCY, INC.",
    "contactEmail": "LANISONGCO@GMAIL.COM",
    "categoryName": "HOME HEALTH AGENCY",
    "categoryCode": "HHA",
    "licenseStatus": "ACTIVE",
    "inService": true,
    "licenseNumber": "550006208",
    "licenseEffectiveDate": "04/14/2024",
    "licenseExpirationDate": "04/13/2025",
    "dataDate": "10/18/2025",
    "capacity": 0,
    "address": "14545 FRIAR ST, SUITE 307",
    "city": "VAN NUYS",
    "zip": "91411",
    "county": "LOS ANGELES",
    "phone": "(909) 244-9732",
    "lat": 34.185816,
    "lng": -118.4503365
  },
  {
    "id": "630025450",
    "name": "3D ANGELS HOME HEALTH INC",
    "npi": null,
    "hcaiId": "406190128",
    "businessName": "3D ANGELS HOME HEALTH INC",
    "contactEmail": "3DANGELSHOMEHEALTH@GMAIL.COM",
    "categoryName": "HOME HEALTH AGENCY",
    "categoryCode": "HHA",
    "licenseStatus": "ACTIVE",
    "inService": true,
    "licenseNumber": "550008588",
    "licenseEffectiveDate": "06/20/2025",
    "licenseExpirationDate": "06/19/2026",
    "dataDate": "10/18/2025",
    "capacity": 0,
    "address": "14545 FRIAR ST, SUITE 189",
    "city": "VAN NUYS",
    "zip": "91411",
    "county": "LOS ANGELES",
    "phone": "(818) 233-3923",
    "lat": 34.185816,
    "lng": -118.4503365
  },
  {
    "id": "630020443",
    "name": "7 HOSPICE CARE, INC.",
    "npi": null,
    "hcaiId": "406194688",
    "businessName": "7 HOSPICE CARE, INC.",
    "contactEmail": "SEVENHOSPICECARE@YAHOO.COM",
    "categoryName": "HOSPICE",
    "categoryCode": "HOSPICE",
    "licenseStatus": "ACTIVE",
    "inService": true,
    "licenseNumber": "550006407",
    "licenseEffectiveDate": "06/09/2025",
    "licenseExpirationDate": "06/08/2027",
    "dataDate": "10/18/2025",
    "capacity": 0,
    "address": "5658 SEPULVEDA BLVD, SUITE 100",
    "city": "VAN NUYS",
    "zip": "91411",
    "county": "LOS ANGELES",
    "phone": "(818) 208-9067",
    "lat": 34.173738,
    "lng": -118.4658975
  },
  {
    "id": "630025555",
    "name": "911 HOME HEALTH SERVICES INC",
    "npi": null,
    "hcaiId": null,
    "businessName": "911 HOME HEALTH SERVICES INC",
    "contactEmail": "911HOMEHEALTHSERVICES@GMAIL.COM",
    "categoryName": "HOME HEALTH AGENCY",
    "categoryCode": "HHA",
    "licenseStatus": "ACTIVE",
    "inService": true,
    "licenseNumber": "550009176",
    "licenseEffectiveDate": "06/01/2025",
    "licenseExpirationDate": "05/31/2026",
    "dataDate": "10/18/2025",
    "capacity": 0,
    "address": "14545 FRIAR ST, SUITE 130",
    "city": "VAN NUYS",
    "zip": "91411",
    "county": "LOS ANGELES",
    "phone": "(626) 841-7733",
    "lat": 34.18592801,
    "lng": -118.450384
  },
  {
    "id": "630025591",
    "name": "AA HOME HEALTH SERVICES",
    "npi": null,
    "hcaiId": "406190330",
    "businessName": "AA HOME HEALTH SERVICES",
    "contactEmail": "AAHHSERVICES@GMAIL.COM",
    "categoryName": "HOME HEALTH AGENCY",
    "categoryCode": "HHA",
    "licenseStatus": "ACTIVE",
    "inService": true,
    "licenseNumber": "550009099",
    "licenseEffectiveDate": "04/27/2025",
    "licenseExpirationDate": "04/26/2026",
    "dataDate": "10/18/2025",
    "capacity": 0,
    "address": "14545 FRIAR ST, SUITE 372-2",
    "city": "VAN NUYS",
    "zip": "91411",
    "county": "LOS ANGELES",
    "phone": "(747) 313-6312",
    "lat": 34.185816,
    "lng": -118.4503365
  },
  {
    "id": "630021407",
    "name": "ABILITY HOSPICE",
    "npi": null,
    "hcaiId": "406196568",
    "businessName": "TINA HEALTHCARE",
    "contactEmail": "ERIC@ABILITYHHA.COM",
    "categoryName": "HOSPICE",
    "categoryCode": "HOSPICE",
    "licenseStatus": "ACTIVE",
    "inService": true,
    "licenseNumber": "550007298",
    "licenseEffectiveDate": "03/11/2024",
    "licenseExpirationDate": "11/28/2025",
    "dataDate": "10/18/2025",
    "capacity": 0,
    "address": "14545 FRIAR ST, SUITE 203-2A",
    "city": "VAN NUYS",
    "zip": "91411",
    "county": "LOS ANGELES",
    "phone": "(747) 208-1688",
    "lat": 34.185708,
    "lng": -118.450339
  },
  {
    "id": "630024610",
    "name": "ACUTE HOME HEALTH",
    "npi": null,
    "hcaiId": "406195512",
    "businessName": "ACUTE HOME HEALTH",
    "contactEmail": "HOMEHEALTHACUTE@GMAIL.COM",
    "categoryName": "HOME HEALTH AGENCY",
    "categoryCode": "HHA",
    "licenseStatus": "ACTIVE",
    "inService": true,
    "licenseNumber": "550008139",
    "licenseEffectiveDate": "09/02/2025",
    "licenseExpirationDate": "09/01/2026",
    "dataDate": "10/18/2025",
    "capacity": 0,
    "address": "14531 HAMLIN ST, SUITE 104",
    "city": "VAN NUYS",
    "zip": "91411",
    "county": "LOS ANGELES",
    "phone": "(818) 627-0392",
    "lat": 34.18898799,
    "lng": -118.449893
  },
  {
    "id": "630025629",
    "name": "ADVA HOME HEALTH, INC.",
    "npi": null,
    "hcaiId": "406190094",
    "businessName": "ADVA HOME HEALTH, INC.",
    "contactEmail": "ADVAHOMEHEALTHINC@GMAIL.COM",
    "categoryName": "HOME HEALTH AGENCY",
    "categoryCode": "HHA",
    "licenseStatus": "ACTIVE",
    "inService": true,
    "licenseNumber": "550008845",
    "licenseEffectiveDate": "12/07/2024",
    "licenseExpirationDate": "12/06/2025",
    "dataDate": "10/18/2025",
    "capacity": 0,
    "address": "14545 FRIAR ST, SUITE 345",
    "city": "VAN NUYS",
    "zip": "91411",
    "county": "LOS ANGELES",
    "phone": "(818) 732-6272",
    "lat": 34.185816,
    "lng": -118.4503365
  },
  {
    "id": "630020328",
    "name": "ADVANCE HOSPICE AND PALLIATIVE CARE, INC.",
    "npi": null,
    "hcaiId": "406193614",
    "businessName": "ADVANCE HOSPICE AND PALLIATIVE CARE, INC.",
    "contactEmail": "ADVANCEHOSPICE@PROTONMAIL.COM",
    "categoryName": "HOSPICE",
    "categoryCode": "HOSPICE",
    "licenseStatus": "ACTIVE",
    "inService": true,
    "licenseNumber": "550006662",
    "licenseEffectiveDate": "07/29/2023",
    "licenseExpirationDate": "07/28/2025",
    "dataDate": "10/18/2025",
    "capacity": 0,
    "address": "14545 FRIAR ST, SUITE 266",
    "city": "VAN NUYS",
    "zip": "91411",
    "county": "LOS ANGELES",
    "phone": "(818) 945-8008",
    "lat": 34.185816,
    "lng": -118.4503365
  },
  {
    "id": "630024668",
    "name": "AGALLA HOME HEALTH INC",
    "npi": null,
    "hcaiId": "406190229",
    "businessName": "AGALLA HOME HEALTH INC",
    "contactEmail": "AGALLAHHINC@GMAIL.COM",
    "categoryName": "HOME HEALTH AGENCY",
    "categoryCode": "HHA",
    "licenseStatus": "ACTIVE",
    "inService": true,
    "licenseNumber": "550008923",
    "licenseEffectiveDate": "01/17/2025",
    "licenseExpirationDate": "01/16/2026",
    "dataDate": "10/18/2025",
    "capacity": 0,
    "address": "14545 FRIAR ST, SUITE 240",
    "city": "VAN NUYS",
    "zip": "91411",
    "county": "LOS ANGELES",
    "phone": "(747) 247-9228",
    "lat": 34.185816,
    "lng": -118.4503365
  },
  {
    "id": "630025660",
    "name": "AGES HEALTHCARE",
    "npi": null,
    "hcaiId": "406190232",
    "businessName": "AGES HEALTHCARE",
    "contactEmail": "AGESHOSPICE@GMAIL.COM",
    "categoryName": "HOME HEALTH AGENCY",
    "categoryCode": "HHA",
    "licenseStatus": "ACTIVE",
    "inService": true,
    "licenseNumber": "550008955",
    "licenseEffectiveDate": "02/08/2025",
    "licenseExpirationDate": "02/07/2026",
    "dataDate": "10/18/2025",
    "capacity": 0,
    "address": "14543 FRIAR ST, SUITE 107",
    "city": "VAN NUYS",
    "zip": "91411",
    "county": "LOS ANGELES",
    "phone": "(818) 935-1687",
    "lat": 34.185789,
    "lng": -118.4502735
  },
  {
    "id": "630020107",
    "name": "AH HOSPICE, INC.",
    "npi": null,
    "hcaiId": "406196635",
    "businessName": "AH HOSPICE, INC.",
    "contactEmail": "AHHOSPICE1@GMAIL.COM",
    "categoryName": "HOSPICE",
    "categoryCode": "HOSPICE",
    "licenseStatus": "ACTIVE",
    "inService": true,
    "licenseNumber": "550006353",
    "licenseEffectiveDate": "05/26/2023",
    "licenseExpirationDate": "05/25/2025",
    "dataDate": "10/18/2025",
    "capacity": 0,
    "address": "14540 VICTORY BLVD, SUITE 217",
    "city": "VAN NUYS",
    "zip": "91411",
    "county": "LOS ANGELES",
    "phone": "(818) 616-4227",
    "lat": 34.186401,
    "lng": -118.4501385
  },
  {
    "id": "630020066",
    "name": "ALL DAY HIGH QUALITY CARE HOSPICE",
    "npi": null,
    "hcaiId": "406196584",
    "businessName": "ALL DAY HIGH QUALITY CARE HOSPICE",
    "contactEmail": "ALLDAYHIGHQUALITYCARE@YAHOO.COM",
    "categoryName": "HOSPICE",
    "categoryCode": "HOSPICE",
    "licenseStatus": "ACTIVE",
    "inService": true,
    "licenseNumber": "550006234",
    "licenseEffectiveDate": "04/15/2025",
    "licenseExpirationDate": "04/14/2027",
    "dataDate": "10/18/2025",
    "capacity": 0,
    "address": "14640 VICTORY BLVD, SUITE 222",
    "city": "VAN NUYS",
    "zip": "91411",
    "county": "LOS ANGELES",
    "phone": "(747) 260-7788",
    "lat": 34.186437,
    "lng": -118.452403
  },
  {
    "id": "630016117",
    "name": "ALL IN ONE HOSPICE CARE, INC.",
    "npi": "1437539301",
    "hcaiId": "406198523",
    "businessName": "ALL IN ONE HOSPICE CARE, INC.",
    "contactEmail": "ALLINONEHOSPICECARE@GMAIL.COM",
    "categoryName": "HOSPICE",
    "categoryCode": "HOSPICE",
    "licenseStatus": "ACTIVE",
    "inService": true,
    "licenseNumber": "550003307",
    "licenseEffectiveDate": "12/14/2023",
    "licenseExpirationDate": "12/13/2025",
    "dataDate": "10/18/2025",
    "capacity": 0,
    "address": "14553 DELANO ST, SUITE 317",
    "city": "VAN NUYS",
    "zip": "91411",
    "county": "LOS ANGELES",
    "phone": "(888) 599-4734",
    "lat": 34.182943,
    "lng": -118.450629
  },
  {
    "id": "630021393",
    "name": "ALL SMILES HOME HEALTH BEST CARE, INC.",
    "npi": null,
    "hcaiId": "406193807",
    "businessName": "ALL SMILES HOME HEALTH BEST CARE, INC.",
    "contactEmail": "ALLSMILESHOMEHEALTHBESTCARE@GMAIL.COM",
    "categoryName": "HOME HEALTH AGENCY",
    "categoryCode": "HHA",
    "licenseStatus": "ACTIVE",
    "inService": true,
    "licenseNumber": "550007194",
    "licenseEffectiveDate": "10/25/2025",
    "licenseExpirationDate": "10/24/2026",
    "dataDate": "10/18/2025",
    "capacity": 0,
    "address": "14545 VICTORY BLVD, SUITE 503B",
    "city": "VAN NUYS",
    "zip": "91411",
    "county": "LOS ANGELES",
    "phone": "(818) 582-6082",
    "lat": 34.18686,
    "lng": -118.45026
  },
  {
    "id": "630026512",
    "name": "ALLIANCE CARE HOME HEALTH, INC.",
    "npi": null,
    "hcaiId": null,
    "businessName": "ALLIANCE CARE HOME HEALTH, INC.",
    "contactEmail": "ALLIANCECAREHOMEHEALTH@GMAIL.COM",
    "categoryName": "HOME HEALTH AGENCY",
    "categoryCode": "HHA",
    "licenseStatus": "ACTIVE",
    "inService": true,
    "licenseNumber": "550009449",
    "licenseEffectiveDate": "10/16/2025",
    "licenseExpirationDate": "10/15/2026",
    "dataDate": "10/18/2025",
    "capacity": 0,
    "address": "14545 FRIAR ST, SUITE 321",
    "city": "VAN NUYS",
    "zip": "91411",
    "county": "LOS ANGELES",
    "phone": "(424) 732-3008",
    "lat": 34.185816,
    "lng": -118.4503365
  },
  {
    "id": "630025001",
    "name": "ALMOST FAMILY HEALTH CARE",
    "npi": null,
    "hcaiId": "406196889",
    "businessName": "ALMOST FAMILY HEALTH CARE",
    "contactEmail": "ALMOSTFAMILYHC@GMAIL.COM",
    "categoryName": "HOME HEALTH AGENCY",
    "categoryCode": "HHA",
    "licenseStatus": "ACTIVE",
    "inService": true,
    "licenseNumber": "550008433",
    "licenseEffectiveDate": "01/25/2025",
    "licenseExpirationDate": "01/24/2026",
    "dataDate": "10/18/2025",
    "capacity": 0,
    "address": "14545 FRIAR ST, SUITE 399-4",
    "city": "VAN NUYS",
    "zip": "91411",
    "county": "LOS ANGELES",
    "phone": "(818) 433-6106",
    "lat": 34.185816,
    "lng": -118.4503365
  },
  {
    "id": "630018774",
    "name": "AMA HEALTHCARE, INC.",
    "npi": null,
    "hcaiId": "406192058",
    "businessName": "AMA HEALTHCARE, INC.",
    "contactEmail": "AMAHOMEHEALTH@YAHOO.COM",
    "categoryName": "HOME HEALTH AGENCY",
    "categoryCode": "HHA",
    "licenseStatus": "ACTIVE",
    "inService": true,
    "licenseNumber": "550005095",
    "licenseEffectiveDate": "11/21/2025",
    "licenseExpirationDate": "11/20/2026",
    "dataDate": "10/18/2025",
    "capacity": 0,
    "address": "14545 FRIAR ST, SUITE 207",
    "city": "VAN NUYS",
    "zip": "91411",
    "county": "LOS ANGELES",
    "phone": "(818) 290-3530",
    "lat": 34.185816,
    "lng": -118.4503365
  },
  {
    "id": "630026784",
    "name": "AMLD HOME CARE SERVICES",
    "npi": null,
    "hcaiId": null,
    "businessName": "AMLD HOME CARE SERVICES",
    "contactEmail": "AMILDHCS22@GMAIL.COM",
    "categoryName": "HOME HEALTH AGENCY",
    "categoryCode": "HHA",
    "licenseStatus": "ACTIVE",
    "inService": true,
    "licenseNumber": "550009763",
    "licenseEffectiveDate": "07/17/2025",
    "licenseExpirationDate": "01/16/2026",
    "dataDate": "10/18/2025",
    "capacity": 0,
    "address": "14545 FRIAR ST, SUITE 219",
    "city": "VAN NUYS",
    "zip": "91411",
    "county": "LOS ANGELES",
    "phone": "(747) 297-4770",
    "lat": 34.185816,
    "lng": -118.4503365
  },
  {
    "id": "630021663",
    "name": "AMPLE LOVE HOSPICE",
    "npi": null,
    "hcaiId": "406193809",
    "businessName": "AMPLE LOVE HOSPICE",
    "contactEmail": "AMPLELOVEHOSPICEINC@GMAIL.COM",
    "categoryName": "HOSPICE",
    "categoryCode": "HOSPICE",
    "licenseStatus": "ACTIVE",
    "inService": true,
    "licenseNumber": "550007241",
    "licenseEffectiveDate": "11/19/2023",
    "licenseExpirationDate": "11/18/2025",
    "dataDate": "10/18/2025",
    "capacity": 0,
    "address": "14545 FRIAR ST, SUITE 205F",
    "city": "VAN NUYS",
    "zip": "91411",
    "county": "LOS ANGELES",
    "phone": "(747) 247-3769",
    "lat": 34.185816,
    "lng": -118.4503365
  },
  {
    "id": "630025352",
    "name": "ANCORA HOME HEALTH INC",
    "npi": null,
    "hcaiId": "406190280",
    "businessName": "ANCORA HOME HEALTH INC",
    "contactEmail": "ANCORAHOMEHEALTH@GMAIL.COM",
    "categoryName": "HOME HEALTH AGENCY",
    "categoryCode": "HHA",
    "licenseStatus": "ACTIVE",
    "inService": true,
    "licenseNumber": "550009043",
    "licenseEffectiveDate": "03/01/2025",
    "licenseExpirationDate": "02/28/2026",
    "dataDate": "10/18/2025",
    "capacity": 0,
    "address": "14545 FRIAR ST, SUITE 332",
    "city": "VAN NUYS",
    "zip": "91411",
    "county": "LOS ANGELES",
    "phone": "(818) 641-9914",
    "lat": 34.185816,
    "lng": -118.4503365
  },
  {
    "id": "630020180",
    "name": "ANGELS IN HEAVEN HOSPICE, INC.",
    "npi": null,
    "hcaiId": "406193527",
    "businessName": "ANGELS IN HEAVEN HOSPICE, INC.",
    "contactEmail": "ANGELSINHEAVENHOSPICE@GMAIL.COM",
    "categoryName": "HOSPICE",
    "categoryCode": "HOSPICE",
    "licenseStatus": "ACTIVE",
    "inService": true,
    "licenseNumber": "550006499",
    "licenseEffectiveDate": "07/01/2023",
    "licenseExpirationDate": "06/30/2025",
    "dataDate": "10/18/2025",
    "capacity": 0,
    "address": "14545 FRIAR ST, SUITE 160",
    "city": "VAN NUYS",
    "zip": "91411",
    "county": "LOS ANGELES",
    "phone": "(747) 836-0041",
    "lat": 34.185816,
    "lng": -118.4503365
  },
  {
    "id": "630025770",
    "name": "ANY-TIME HOME HEALTH CARE INC.",
    "npi": null,
    "hcaiId": "406190298",
    "businessName": "ANY-TIME HOME HEALTH CARE INC.",
    "contactEmail": "ANYTIMECARE247@GMAIL.COM",
    "categoryName": "HOME HEALTH AGENCY",
    "categoryCode": "HHA",
    "licenseStatus": "ACTIVE",
    "inService": true,
    "licenseNumber": "550008992",
    "licenseEffectiveDate": "03/02/2025",
    "licenseExpirationDate": "03/01/2026",
    "dataDate": "10/18/2025",
    "capacity": 0,
    "address": "14531 HAMLIN ST, SUITE 115",
    "city": "VAN NUYS",
    "zip": "91411",
    "county": "LOS ANGELES",
    "phone": "(424) 377-2070",
    "lat": 34.188849,
    "lng": -118.449882
  },
  {
    "id": "630027549",
    "name": "AONE HOME HEALTH, INC.",
    "npi": null,
    "hcaiId": null,
    "businessName": "AONE HOME HEALTH, INC.",
    "contactEmail": "AONEHOMEHEALTHINC@GMAIL.COM",
    "categoryName": "HOME HEALTH AGENCY",
    "categoryCode": "HHA",
    "licenseStatus": "ACTIVE",
    "inService": true,
    "licenseNumber": "550009626",
    "licenseEffectiveDate": "08/18/2025",
    "licenseExpirationDate": "02/17/2026",
    "dataDate": "10/18/2025",
    "capacity": 0,
    "address": "14545 FRIAR ST, SUITE 275",
    "city": "VAN NUYS",
    "zip": "91411",
    "county": "LOS ANGELES",
    "phone": "(818) 570-7009",
    "lat": 34.185927,
    "lng": -118.45039
  },
  {
    "id": "630026585",
    "name": "APRICOT HOME HEALTH, INC.",
    "npi": null,
    "hcaiId": null,
    "businessName": "APRICOT HOME HEALTH, INC.",
    "contactEmail": "APRICOTHOMEHEALTH@GMAIL.COM",
    "categoryName": "HOME HEALTH AGENCY",
    "categoryCode": "HHA",
    "licenseStatus": "ACTIVE",
    "inService": true,
    "licenseNumber": "550009166",
    "licenseEffectiveDate": "05/24/2025",
    "licenseExpirationDate": "05/23/2026",
    "dataDate": "10/18/2025",
    "capacity": 0,
    "address": "14545 FRIAR ST, SUITE 225",
    "city": "VAN NUYS",
    "zip": "91411",
    "county": "LOS ANGELES",
    "phone": "(800) 428-8058",
    "lat": 34.185816,
    "lng": -118.4503365
  },
  {
    "id": "630024719",
    "name": "AR HOME HEALTH CARE",
    "npi": null,
    "hcaiId": "406190144",
    "businessName": "AR HOME HEALTH CARE",
    "contactEmail": "ARHOMEHEALTHCARE@MAIL.COM",
    "categoryName": "HOME HEALTH AGENCY",
    "categoryCode": "HHA",
    "licenseStatus": "ACTIVE",
    "inService": true,
    "licenseNumber": "550008899",
    "licenseEffectiveDate": "11/16/2024",
    "licenseExpirationDate": "11/15/2025",
    "dataDate": "10/18/2025",
    "capacity": 0,
    "address": "14545 FRIAR ST, SUITE 133",
    "city": "VAN NUYS",
    "zip": "91411",
    "county": "LOS ANGELES",
    "phone": "(747) 271-4524",
    "lat": 34.185816,
    "lng": -118.4503365
  },
  {
    "id": "630025390",
    "name": "AR HOME HEALTH INC",
    "npi": null,
    "hcaiId": "406196522",
    "businessName": "AR HOME HEALTH INC",
    "contactEmail": "ARHOMEHEALTHINC@GMAIL.COM",
    "categoryName": "HOME HEALTH AGENCY",
    "categoryCode": "HHA",
    "licenseStatus": "ACTIVE",
    "inService": true,
    "licenseNumber": "550008530",
    "licenseEffectiveDate": "04/27/2025",
    "licenseExpirationDate": "04/26/2026",
    "dataDate": "10/18/2025",
    "capacity": 0,
    "address": "14545 FRIAR ST, SUITE 324",
    "city": "VAN NUYS",
    "zip": "91411",
    "county": "LOS ANGELES",
    "phone": "(818) 285-8941",
    "lat": 34.185816,
    "lng": -118.4503365
  },
  {
    "id": "630020915",
    "name": "ARDOR CARE HOSPICE",
    "npi": null,
    "hcaiId": "406196176",
    "businessName": "ARDOR CARE HOSPICE",
    "contactEmail": "ARDORCAREHOSPICE@GMAIL.COM",
    "categoryName": "HOSPICE",
    "categoryCode": "HOSPICE",
    "licenseStatus": "ACTIVE",
    "inService": true,
    "licenseNumber": "550007257",
    "licenseEffectiveDate": "11/17/2023",
    "licenseExpirationDate": "11/16/2025",
    "dataDate": "10/18/2025",
    "capacity": 0,
    "address": "14545 FRIAR ST, SUITE 205 H",
    "city": "VAN NUYS",
    "zip": "91411",
    "county": "LOS ANGELES",
    "phone": "(747) 208-8949",
    "lat": 34.185816,
    "lng": -118.4503365
  },
  {
    "id": "630026307",
    "name": "ARTCARE HOME HEALTHCARE",
    "npi": null,
    "hcaiId": null,
    "businessName": "ARTCARE HOME HEALTHCARE",
    "contactEmail": "ARTCAREHOMEHEALTHCARE@GMAIL.COM",
    "categoryName": "HOME HEALTH AGENCY",
    "categoryCode": "HHA",
    "licenseStatus": "ACTIVE",
    "inService": true,
    "licenseNumber": "550009668",
    "licenseEffectiveDate": "08/01/2025",
    "licenseExpirationDate": "01/31/2026",
    "dataDate": "10/18/2025",
    "capacity": 0,
    "address": "14545 FRIAR ST, SUITE 392",
    "city": "VAN NUYS",
    "zip": "91411",
    "county": "LOS ANGELES",
    "phone": "(747) 277-6073",
    "lat": 34.185816,
    "lng": -118.4503365
  },
  {
    "id": "630026554",
    "name": "ASSURITY HOME HEALTH",
    "npi": null,
    "hcaiId": null,
    "businessName": "ASSURITY HOME HEALTH",
    "contactEmail": "HOMEHEALTHASSURITY@GMAIL.COM",
    "categoryName": "HOME HEALTH AGENCY",
    "categoryCode": "HHA",
    "licenseStatus": "ACTIVE",
    "inService": true,
    "licenseNumber": "550009118",
    "licenseEffectiveDate": "04/24/2025",
    "licenseExpirationDate": "04/23/2026",
    "dataDate": "10/18/2025",
    "capacity": 0,
    "address": "14640 VICTORY BLVD, SUITE 212",
    "city": "VAN NUYS",
    "zip": "91411",
    "county": "LOS ANGELES",
    "phone": "(424) 363-4420",
    "lat": 34.186446,
    "lng": -118.45224
  },
  {
    "id": "630020934",
    "name": "ATTENTIVE GUARDIANS",
    "npi": null,
    "hcaiId": "406193714",
    "businessName": "ATTENTIVE GUARDIANS",
    "contactEmail": "ATTENTIVEGUARDIANS@GMAIL.COM",
    "categoryName": "HOSPICE",
    "categoryCode": "HOSPICE",
    "licenseStatus": "ACTIVE",
    "inService": true,
    "licenseNumber": "550006913",
    "licenseEffectiveDate": "09/24/2025",
    "licenseExpirationDate": "09/23/2027",
    "dataDate": "10/18/2025",
    "capacity": 0,
    "address": "14545 FRIAR ST, SUITE 205M",
    "city": "VAN NUYS",
    "zip": "91411",
    "county": "LOS ANGELES",
    "phone": "(747) 766-4094",
    "lat": 34.185816,
    "lng": -118.4503365
  },
  {
    "id": "630025220",
    "name": "AURORA HOME HEALTH CARE SERVICES",
    "npi": null,
    "hcaiId": "406198197",
    "businessName": "AURORA HOME HEALTH CARE SERVICES",
    "contactEmail": "AURORAHOMEHEALTHCARESERVICES@GMAIL.COM",
    "categoryName": "HOME HEALTH AGENCY",
    "categoryCode": "HHA",
    "licenseStatus": "ACTIVE",
    "inService": true,
    "licenseNumber": "550008786",
    "licenseEffectiveDate": "10/21/2025",
    "licenseExpirationDate": "10/20/2026",
    "dataDate": "10/18/2025",
    "capacity": 0,
    "address": "14545 FRIAR ST, SUITE 202-R",
    "city": "VAN NUYS",
    "zip": "91411",
    "county": "LOS ANGELES",
    "phone": "(929) 444-3000",
    "lat": 34.185816,
    "lng": -118.4503365
  },
  {
    "id": "630024949",
    "name": "AVE MARIA HOME HEALTH",
    "npi": null,
    "hcaiId": "406196503",
    "businessName": "AVE MARIA HOME HEALTH",
    "contactEmail": "AVEMARIAHHC@GMAIL.COM",
    "categoryName": "HOME HEALTH AGENCY",
    "categoryCode": "HHA",
    "licenseStatus": "ACTIVE",
    "inService": true,
    "licenseNumber": "550008448",
    "licenseEffectiveDate": "03/07/2024",
    "licenseExpirationDate": "03/06/2025",
    "dataDate": "10/18/2025",
    "capacity": 0,
    "address": "14545 FRIAR ST, SUITE 339",
    "city": "VAN NUYS",
    "zip": "91411",
    "county": "LOS ANGELES",
    "phone": "(747) 888-5448",
    "lat": 34.185816,
    "lng": -118.4503365
  },
  {
    "id": "630019491",
    "name": "BELLA HOSPICE CARE INC",
    "npi": null,
    "hcaiId": "406192582",
    "businessName": "BELLA HOSPICE CARE INC",
    "contactEmail": "BELLAHOSPICECARE@GMAIL.COM",
    "categoryName": "HOSPICE",
    "categoryCode": "HOSPICE",
    "licenseStatus": "ACTIVE",
    "inService": true,
    "licenseNumber": "550005452",
    "licenseEffectiveDate": "05/13/2020",
    "licenseExpirationDate": "05/12/2022",
    "dataDate": "10/18/2025",
    "capacity": 0,
    "address": "14545 FRIAR ST, SUITE 202T",
    "city": "VAN NUYS",
    "zip": "91411",
    "county": "LOS ANGELES",
    "phone": "(818) 620-0618",
    "lat": 34.185816,
    "lng": -118.4503365
  },
  {
    "id": "630021955",
    "name": "BELLE HOSPICE CARE, INC.",
    "npi": null,
    "hcaiId": "406193961",
    "businessName": "BELLE HOSPICE CARE, INC",
    "contactEmail": "BELLEHOSPICECAREINC@GMAIL.COM",
    "categoryName": "HOSPICE",
    "categoryCode": "HOSPICE",
    "licenseStatus": "ACTIVE",
    "inService": true,
    "licenseNumber": "550007304",
    "licenseEffectiveDate": "11/29/2023",
    "licenseExpirationDate": "11/28/2025",
    "dataDate": "10/18/2025",
    "capacity": 0,
    "address": "14545 FRIAR ST, SUITE 220",
    "city": "VAN NUYS",
    "zip": "91411",
    "county": "LOS ANGELES",
    "phone": "(747) 264-1828",
    "lat": 34.185816,
    "lng": -118.4503365
  },
  {
    "id": "630026057",
    "name": "BENOM HOME HEALTH CARE, INC.",
    "npi": null,
    "hcaiId": null,
    "businessName": "BENOM HOME HEALTH CARE, INC.",
    "contactEmail": "BENOMHHC@GMAIL.COM",
    "categoryName": "HOME HEALTH AGENCY",
    "categoryCode": "HHA",
    "licenseStatus": "ACTIVE",
    "inService": true,
    "licenseNumber": "550009473",
    "licenseEffectiveDate": "05/10/2025",
    "licenseExpirationDate": "05/09/2026",
    "dataDate": "10/18/2025",
    "capacity": 0,
    "address": "14531 HAMLIN ST, SUITE 255",
    "city": "VAN NUYS",
    "zip": "91411",
    "county": "LOS ANGELES",
    "phone": "(818) 285-8931",
    "lat": 34.188849,
    "lng": -118.449882
  },
  {
    "id": "920000049",
    "name": "BERKLEY POST-ACUTE",
    "npi": "1588299929",
    "hcaiId": "206190073",
    "businessName": "AVNS, LLC",
    "contactEmail": "TREVORG@ASPENHEALTH.COM",
    "categoryName": "SKILLED NURSING FACILITY",
    "categoryCode": "SNF",
    "licenseStatus": "ACTIVE",
    "inService": true,
    "licenseNumber": "920000006",
    "licenseEffectiveDate": "02/01/2025",
    "licenseExpirationDate": "01/31/2026",
    "dataDate": "10/18/2025",
    "capacity": 125,
    "address": "6600 SEPULVEDA BLVD",
    "city": "VAN NUYS",
    "zip": "91411",
    "county": "LOS ANGELES",
    "phone": "(818) 786-0020",
    "lat": 34.190676,
    "lng": -118.465911
  },
  {
    "id": "630019167",
    "name": "BEST CHOICE HOME HEALTH INC.",
    "npi": null,
    "hcaiId": "406195662",
    "businessName": "BEST CHOICE HOME HEALTH INC.",
    "contactEmail": "BESTCHOICEHOMEHEALTH@YAHOO.COM",
    "categoryName": "HOME HEALTH AGENCY",
    "categoryCode": "HHA",
    "licenseStatus": "ACTIVE",
    "inService": true,
    "licenseNumber": "550005738",
    "licenseEffectiveDate": "09/16/2025",
    "licenseExpirationDate": "09/15/2026",
    "dataDate": "10/18/2025",
    "capacity": 0,
    "address": "14545 FRIAR ST, SUITE 150",
    "city": "VAN NUYS",
    "zip": "91411",
    "county": "LOS ANGELES",
    "phone": "(818) 616-9732",
    "lat": 34.185816,
    "lng": -118.4503365
  },
  {
    "id": "630018773",
    "name": "BLESSING HOME CARE, INC.",
    "npi": null,
    "hcaiId": "406192245",
    "businessName": "BLESSING HOME CARE, INC.",
    "contactEmail": "BLESSINGSHOMEHEALTH@YAHOO.COM",
    "categoryName": "HOME HEALTH AGENCY",
    "categoryCode": "HHA",
    "licenseStatus": "ACTIVE",
    "inService": true,
    "licenseNumber": "550005248",
    "licenseEffectiveDate": "01/18/2025",
    "licenseExpirationDate": "01/17/2026",
    "dataDate": "10/18/2025",
    "capacity": 0,
    "address": "14545 FRIAR ST, SUITE 213",
    "city": "VAN NUYS",
    "zip": "91411",
    "county": "LOS ANGELES",
    "phone": "(818) 290-3088",
    "lat": 34.185816,
    "lng": -118.4503365
  },
  {
    "id": "630026945",
    "name": "BLOSSOM VALLEY HOME HEALTH CARE",
    "npi": null,
    "hcaiId": null,
    "businessName": "BLOSSOM VALLEY HOME HEALTH CARE",
    "contactEmail": "BLOSSOMVALLEYHOMEHEALTHCARE@GMAIL.COM",
    "categoryName": "HOME HEALTH AGENCY",
    "categoryCode": "HHA",
    "licenseStatus": "ACTIVE",
    "inService": true,
    "licenseNumber": "550009634",
    "licenseEffectiveDate": "07/17/2025",
    "licenseExpirationDate": "01/16/2026",
    "dataDate": "10/18/2025",
    "capacity": 0,
    "address": "14545 FRIAR ST, SUITE 199-2",
    "city": "VAN NUYS",
    "zip": "91411",
    "county": "LOS ANGELES",
    "phone": "(818) 636-0941",
    "lat": 34.185816,
    "lng": -118.4503365
  },
  {
    "id": "630020952",
    "name": "BRIDGE TO WELLNESS HOSPICE",
    "npi": null,
    "hcaiId": "406194903",
    "businessName": "BRIDGE TO WELLNESS HOSPICE",
    "contactEmail": "BRIDGETOWELLNESSHOSPICE@GMAIL.COM",
    "categoryName": "HOSPICE",
    "categoryCode": "HOSPICE",
    "licenseStatus": "ACTIVE",
    "inService": true,
    "licenseNumber": "550007208",
    "licenseEffectiveDate": "11/17/2021",
    "licenseExpirationDate": "11/16/2023",
    "dataDate": "10/18/2025",
    "capacity": 0,
    "address": "14545 FRIAR ST, SUITE 205 J",
    "city": "VAN NUYS",
    "zip": "91411",
    "county": "LOS ANGELES",
    "phone": "(818) 915-6377",
    "lat": 34.185816,
    "lng": -118.4503365
  },
  {
    "id": "630012019",
    "name": "BRIGHTSTAR HEALTHCARE",
    "npi": null,
    "hcaiId": "406197338",
    "businessName": "VALLEYSTAR, INC.",
    "contactEmail": "SANFERNANDOVALLEY@BRIGHTSTARCARE.COM",
    "categoryName": "HOME HEALTH AGENCY",
    "categoryCode": "HHA",
    "licenseStatus": "ACTIVE",
    "inService": true,
    "licenseNumber": "550000979",
    "licenseEffectiveDate": "04/09/2025",
    "licenseExpirationDate": "04/08/2026",
    "dataDate": "10/18/2025",
    "capacity": 0,
    "address": "5900 SEPULVEDA BLVD., SUITE 515",
    "city": "VAN NUYS",
    "zip": "91411",
    "county": "LOS ANGELES",
    "phone": "(818) 528-5388",
    "lat": 34.177545,
    "lng": -118.465452
  },
  {
    "id": "630019991",
    "name": "BY YOUR SIDE HOSPICE, INC",
    "npi": null,
    "hcaiId": "406193505",
    "businessName": "BY YOUR SIDE HOSPICE, INC",
    "contactEmail": "BYYOURSIDEHOSPICE@GMAIL.COM",
    "categoryName": "HOSPICE",
    "categoryCode": "HOSPICE",
    "licenseStatus": "ACTIVE",
    "inService": true,
    "licenseNumber": "550006254",
    "licenseEffectiveDate": "03/16/2023",
    "licenseExpirationDate": "03/15/2025",
    "dataDate": "10/18/2025",
    "capacity": 0,
    "address": "14545 FRIAR ST, SUITE 178",
    "city": "VAN NUYS",
    "zip": "91411",
    "county": "LOS ANGELES",
    "phone": "(818) 795-2953",
    "lat": 34.185816,
    "lng": -118.4503365
  },
  {
    "id": "920000050",
    "name": "CALIFORNIA HEALTHCARE AND REHABILITATION CENTER",
    "npi": "1932286671",
    "hcaiId": "206190082",
    "businessName": "NORMANDIE/WILSHIRE RETIREMENT HOTEL LLC",
    "contactEmail": "FAC95ADMIN@LONGWOODMGMT.COM",
    "categoryName": "SKILLED NURSING FACILITY",
    "categoryCode": "SNF",
    "licenseStatus": "ACTIVE",
    "inService": true,
    "licenseNumber": "920000007",
    "licenseEffectiveDate": "11/01/2025",
    "licenseExpirationDate": "10/31/2026",
    "dataDate": "10/18/2025",
    "capacity": 201,
    "address": "6700 SEPULVEDA BLVD",
    "city": "VAN NUYS",
    "zip": "91411",
    "county": "LOS ANGELES",
    "phone": "(818) 988-2501",
    "lat": 34.192314,
    "lng": -118.4652135
  },
  {
    "id": "630024378",
    "name": "CARE 1 HOME HEALTH PROVIDERS, INC.",
    "npi": null,
    "hcaiId": "406195964",
    "businessName": "CARE 1 HOME HEALTH PROVIDERS, INC.",
    "contactEmail": "CARE1HHP@GMAIL.COM",
    "categoryName": "HOME HEALTH AGENCY",
    "categoryCode": "HHA",
    "licenseStatus": "ACTIVE",
    "inService": true,
    "licenseNumber": "550008204",
    "licenseEffectiveDate": "10/28/2024",
    "licenseExpirationDate": "10/27/2025",
    "dataDate": "10/18/2025",
    "capacity": 0,
    "address": "14540 VICTORY BLVD, SUITE 100A",
    "city": "VAN NUYS",
    "zip": "91411",
    "county": "LOS ANGELES",
    "phone": "(818) 284-6808",
    "lat": 34.186446,
    "lng": -118.4502465
  },
  {
    "id": "630020164",
    "name": "CARING KIND HOSPICE, INC.",
    "npi": null,
    "hcaiId": "406193506",
    "businessName": "CARING KIND HOSPICE, INC",
    "contactEmail": "CARINGKINDHSP@GMAIL.COM",
    "categoryName": "HOSPICE",
    "categoryCode": "HOSPICE",
    "licenseStatus": "ACTIVE",
    "inService": true,
    "licenseNumber": "550006257",
    "licenseEffectiveDate": "03/25/2025",
    "licenseExpirationDate": "03/24/2027",
    "dataDate": "10/18/2025",
    "capacity": 0,
    "address": "14545 FRIAR ST, SUITE 182",
    "city": "VAN NUYS",
    "zip": "91411",
    "county": "LOS ANGELES",
    "phone": "(747) 262-7220",
    "lat": 34.185816,
    "lng": -118.4503365
  },
  {
    "id": "630017872",
    "name": "CHANCE HOME CARE, INC.",
    "npi": "1033610266",
    "hcaiId": "406191874",
    "businessName": "CHANCE HOME CARE, INC.",
    "contactEmail": "CHANCEHOMEC@GMAIL.COM",
    "categoryName": "HOME HEALTH AGENCY",
    "categoryCode": "HHA",
    "licenseStatus": "ACTIVE",
    "inService": true,
    "licenseNumber": "550004619",
    "licenseEffectiveDate": "03/23/2025",
    "licenseExpirationDate": "03/22/2026",
    "dataDate": "10/18/2025",
    "capacity": 0,
    "address": "14540 VICTORY BLVD, SUITE 227",
    "city": "VAN NUYS",
    "zip": "91411",
    "county": "LOS ANGELES",
    "phone": "(818) 212-9332",
    "lat": 34.186446,
    "lng": -118.4502465
  },
  {
    "id": "630015752",
    "name": "CHARITABLE HOSPICE AND PALLIATIVE CARE, INC.",
    "npi": "1790173771",
    "hcaiId": "406190988",
    "businessName": "CHARITABLE HOSPICE AND PALLIATIVE CARE, INC.",
    "contactEmail": "CHARITABLEHPC@GMAIL.COM",
    "categoryName": "HOSPICE",
    "categoryCode": "HOSPICE",
    "licenseStatus": "ACTIVE",
    "inService": true,
    "licenseNumber": "550004246",
    "licenseEffectiveDate": "04/03/2022",
    "licenseExpirationDate": "04/02/2024",
    "dataDate": "10/18/2025",
    "capacity": 0,
    "address": "14540 HAMLIN ST, SUITE B2",
    "city": "VAN NUYS",
    "zip": "91411",
    "county": "LOS ANGELES",
    "phone": "(818) 785-4875",
    "lat": 34.188462,
    "lng": -118.4502195
  },
  {
    "id": "630019538",
    "name": "CHERUB INC.",
    "npi": null,
    "hcaiId": "406192759",
    "businessName": "CHERUB INC",
    "contactEmail": "MAC@MACGROUPANDASSOCIATES.COM",
    "categoryName": "HOSPICE",
    "categoryCode": "HOSPICE",
    "licenseStatus": "ACTIVE",
    "inService": true,
    "licenseNumber": "550005614",
    "licenseEffectiveDate": "07/24/2024",
    "licenseExpirationDate": "07/23/2026",
    "dataDate": "10/18/2025",
    "capacity": 0,
    "address": "14654 VICTORY BLVD, SUITE 214",
    "city": "VAN NUYS",
    "zip": "91411",
    "county": "LOS ANGELES",
    "phone": "(714) 770-0152",
    "lat": 34.186401,
    "lng": -118.4527305
  },
  {
    "id": "630025321",
    "name": "COMFORT CARE HHA INC.",
    "npi": null,
    "hcaiId": "406196548",
    "businessName": "COMFORT CARE HHA INC.",
    "contactEmail": "COMFORTCAREINC21@GMAIL.COM",
    "categoryName": "HOME HEALTH AGENCY",
    "categoryCode": "HHA",
    "licenseStatus": "ACTIVE",
    "inService": true,
    "licenseNumber": "550008484",
    "licenseEffectiveDate": "04/14/2025",
    "licenseExpirationDate": "04/13/2026",
    "dataDate": "10/18/2025",
    "capacity": 0,
    "address": "14531 HAMLIN ST, UNIT 275",
    "city": "VAN NUYS",
    "zip": "91411",
    "county": "LOS ANGELES",
    "phone": "(818) 720-4969",
    "lat": 34.188849,
    "lng": -118.449882
  },
  {
    "id": "630020939",
    "name": "COMFORTZONE HOSPICE INC",
    "npi": null,
    "hcaiId": "406193518",
    "businessName": "COMFORTZONE HOSPICE INC",
    "contactEmail": "COMFORTZONEHOSPICE@GMAIL.COM",
    "categoryName": "HOSPICE",
    "categoryCode": "HOSPICE",
    "licenseStatus": "ACTIVE",
    "inService": true,
    "licenseNumber": "550006430",
    "licenseEffectiveDate": "06/14/2025",
    "licenseExpirationDate": "06/13/2027",
    "dataDate": "10/18/2025",
    "capacity": 0,
    "address": "14545 FRIAR ST, SUITE 294",
    "city": "VAN NUYS",
    "zip": "91411",
    "county": "LOS ANGELES",
    "phone": "(747) 441-1154",
    "lat": 34.185816,
    "lng": -118.4503365
  },
  {
    "id": "630021977",
    "name": "COMPASS HOME HEALTH",
    "npi": null,
    "hcaiId": "406195575",
    "businessName": "COMPASS HOME HEALTH",
    "contactEmail": "COMPASSHH@YAHOO.COM",
    "categoryName": "HOME HEALTH AGENCY",
    "categoryCode": "HHA",
    "licenseStatus": "ACTIVE",
    "inService": true,
    "licenseNumber": "550007773",
    "licenseEffectiveDate": "12/22/2022",
    "licenseExpirationDate": "12/21/2023",
    "dataDate": "10/18/2025",
    "capacity": 0,
    "address": "5658 SEPULVEDA BLVD, SUITE 209",
    "city": "VAN NUYS",
    "zip": "91411",
    "county": "LOS ANGELES",
    "phone": "(818) 922-2229",
    "lat": 34.173738,
    "lng": -118.4658975
  },
  {
    "id": "630023323",
    "name": "CONCORD HOME HEALTH",
    "npi": null,
    "hcaiId": "406195314",
    "businessName": "CONCORD HOME HEALTH",
    "contactEmail": "CONCORDHH@GMAIL.COM",
    "categoryName": "HOME HEALTH AGENCY",
    "categoryCode": "HHA",
    "licenseStatus": "ACTIVE",
    "inService": true,
    "licenseNumber": "550008003",
    "licenseEffectiveDate": "05/12/2025",
    "licenseExpirationDate": "05/11/2026",
    "dataDate": "10/18/2025",
    "capacity": 0,
    "address": "5658 SEPULVEDA BLVD, SUITE 209",
    "city": "VAN NUYS",
    "zip": "91411",
    "county": "LOS ANGELES",
    "phone": "(747) 444-4478",
    "lat": 34.17379369,
    "lng": -118.4658853
  },
  {
    "id": "630021905",
    "name": "CRYSTAL ANGELS PALLIATIVE AND HOSPICE INC",
    "npi": null,
    "hcaiId": "406193928",
    "businessName": "CRYSTAL ANGELS PALLIATIVE AND HOSPICE INC",
    "contactEmail": "CRYSTALANGELSPANDH@GMAIL.COM",
    "categoryName": "HOSPICE",
    "categoryCode": "HOSPICE",
    "licenseStatus": "ACTIVE",
    "inService": true,
    "licenseNumber": "550007408",
    "licenseEffectiveDate": "12/08/2023",
    "licenseExpirationDate": "12/07/2025",
    "dataDate": "10/18/2025",
    "capacity": 0,
    "address": "14545 FRIAR ST, SUITE 179",
    "city": "VAN NUYS",
    "zip": "91411",
    "county": "LOS ANGELES",
    "phone": "(626) 631-2021",
    "lat": 34.185816,
    "lng": -118.4503365
  },
  {
    "id": "630025696",
    "name": "CUPID HOME HEALTH, INC.",
    "npi": null,
    "hcaiId": null,
    "businessName": "CUPID HOME HEALTH, INC.",
    "contactEmail": "CUPIDHOMEHEALTH@GMAIL.COM",
    "categoryName": "HOME HEALTH AGENCY",
    "categoryCode": "HHA",
    "licenseStatus": "ACTIVE",
    "inService": true,
    "licenseNumber": "550009004",
    "licenseEffectiveDate": "02/24/2025",
    "licenseExpirationDate": "02/23/2026",
    "dataDate": "10/18/2025",
    "capacity": 0,
    "address": "14531 HAMLIN ST, SUITE 170",
    "city": "VAN NUYS",
    "zip": "91411",
    "county": "LOS ANGELES",
    "phone": "(747) 217-1236",
    "lat": 34.188849,
    "lng": -118.449882
  },
  {
    "id": "630021155",
    "name": "CURAE HOSPICE CARE, INC.",
    "npi": null,
    "hcaiId": "406193283",
    "businessName": "CURAE HOSPICE CARE, INC.",
    "contactEmail": "CURAEHOSPICECARE@GMAIL.COM",
    "categoryName": "HOSPICE",
    "categoryCode": "HOSPICE",
    "licenseStatus": "ACTIVE",
    "inService": true,
    "licenseNumber": "550007106",
    "licenseEffectiveDate": "10/08/2025",
    "licenseExpirationDate": "10/07/2027",
    "dataDate": "10/18/2025",
    "capacity": 0,
    "address": "14545 FRIAR ST, SUITE 161",
    "city": "VAN NUYS",
    "zip": "91411",
    "county": "LOS ANGELES",
    "phone": "(747) 255-7373",
    "lat": 34.185816,
    "lng": -118.4503365
  },
  {
    "id": "630021913",
    "name": "CURING HEARTS HOSPICE CARE, INC.",
    "npi": null,
    "hcaiId": "406193895",
    "businessName": "CURING HEARTS HOSPICE CARE, INC.",
    "contactEmail": "CURINGHEARTSHOSPICECAREINC@GMAIL.COM",
    "categoryName": "HOSPICE",
    "categoryCode": "HOSPICE",
    "licenseStatus": "ACTIVE",
    "inService": true,
    "licenseNumber": "550007308",
    "licenseEffectiveDate": "11/29/2023",
    "licenseExpirationDate": "11/28/2025",
    "dataDate": "10/18/2025",
    "capacity": 0,
    "address": "14545 FRIAR ST, SUITE 267-B",
    "city": "VAN NUYS",
    "zip": "91411",
    "county": "LOS ANGELES",
    "phone": "(818) 477-0715",
    "lat": 34.185816,
    "lng": -118.4503365
  },
  {
    "id": "630025803",
    "name": "DAVIDS HEALTHCARE",
    "npi": null,
    "hcaiId": "406190273",
    "businessName": "DAVIDS HEALTHCARE",
    "contactEmail": "DAVIDSHEALTHCARE777@GMAIL.COM",
    "categoryName": "HOME HEALTH AGENCY",
    "categoryCode": "HHA",
    "licenseStatus": "ACTIVE",
    "inService": true,
    "licenseNumber": "550008969",
    "licenseEffectiveDate": "08/09/2024",
    "licenseExpirationDate": "02/08/2025",
    "dataDate": "10/18/2025",
    "capacity": 0,
    "address": "14545 FRIAR ST, SUITE 237L",
    "city": "VAN NUYS",
    "zip": "91411",
    "county": "LOS ANGELES",
    "phone": "(818) 358-3030",
    "lat": 34.185816,
    "lng": -118.4503365
  },
  {
    "id": "630025445",
    "name": "DDD WORLD OF ANGELS HOME HEALTH INC",
    "npi": null,
    "hcaiId": "406196364",
    "businessName": "DDD WORLD OF ANGELS HOME HEALTH INC",
    "contactEmail": "DDDWORLDOFANGELSHOMEHEALTH@GMAIL.COM",
    "categoryName": "HOME HEALTH AGENCY",
    "categoryCode": "HHA",
    "licenseStatus": "ACTIVE",
    "inService": true,
    "licenseNumber": "550008499",
    "licenseEffectiveDate": "04/27/2025",
    "licenseExpirationDate": "04/26/2026",
    "dataDate": "10/18/2025",
    "capacity": 0,
    "address": "14545 FRIAR ST, SUITE 354",
    "city": "VAN NUYS",
    "zip": "91411",
    "county": "LOS ANGELES",
    "phone": "(818) 233-3923",
    "lat": 34.185816,
    "lng": -118.4503365
  },
  {
    "id": "630020933",
    "name": "DEVOTED GUARDIANS HOSPICE",
    "npi": null,
    "hcaiId": "406193926",
    "businessName": "DEVOTED GUARDIANS HOSPICE",
    "contactEmail": "DEVOTEDGUARDIANSHOSPICE@GMAIL.COM",
    "categoryName": "HOSPICE",
    "categoryCode": "HOSPICE",
    "licenseStatus": "ACTIVE",
    "inService": true,
    "licenseNumber": "550007323",
    "licenseEffectiveDate": "11/18/2023",
    "licenseExpirationDate": "11/17/2025",
    "dataDate": "10/18/2025",
    "capacity": 0,
    "address": "14545 FRIAR ST, SUITE 205C",
    "city": "VAN NUYS",
    "zip": "91411",
    "county": "LOS ANGELES",
    "phone": "(747) 264-0814",
    "lat": 34.185816,
    "lng": -118.4503365
  },
  {
    "id": "630018333",
    "name": "DEVOTED HOME HEALTH CARE, INC.",
    "npi": "1194207886",
    "hcaiId": "406191633",
    "businessName": "DEVOTED HOME HEALTH CARE, INC.",
    "contactEmail": "DEVOTEDHOMEHEALTHCARE@YAHOO.COM",
    "categoryName": "HOME HEALTH AGENCY",
    "categoryCode": "HHA",
    "licenseStatus": "ACTIVE",
    "inService": true,
    "licenseNumber": "550004670",
    "licenseEffectiveDate": "09/04/2025",
    "licenseExpirationDate": "05/10/2026",
    "dataDate": "10/18/2025",
    "capacity": 0,
    "address": "14640 VICTORY BLVD, SUITE 208",
    "city": "VAN NUYS",
    "zip": "91411",
    "county": "LOS ANGELES",
    "phone": "(818) 290-3001",
    "lat": 34.186428,
    "lng": -118.452402
  },
  {
    "id": "630013032",
    "name": "DEVOTED NURSES HOME HEALTH CARE, INC.",
    "npi": "1437451291",
    "hcaiId": "406197610",
    "businessName": "DEVOTED NURSES HOME HEALTH CARE, INC.",
    "contactEmail": "DEVOTEDNURSESHHC@YAHOO.COM",
    "categoryName": "HOME HEALTH AGENCY",
    "categoryCode": "HHA",
    "licenseStatus": "ACTIVE",
    "inService": true,
    "licenseNumber": "550001737",
    "licenseEffectiveDate": "06/10/2025",
    "licenseExpirationDate": "11/14/2025",
    "dataDate": "10/18/2025",
    "capacity": 0,
    "address": "5658 SEPULVEDA BLVD, SUITE 213",
    "city": "VAN NUYS",
    "zip": "91411",
    "county": "LOS ANGELES",
    "phone": "(818) 909-0228",
    "lat": 34.17377299,
    "lng": -118.465861
  },
  {
    "id": "630027571",
    "name": "DIAMOND HOME HEALTH AGENCY",
    "npi": null,
    "hcaiId": null,
    "businessName": "DIAMOND HOME HEALTH AGENCY",
    "contactEmail": "DIAMONHOMEHEALTHAGENCY@GMAIL.COM",
    "categoryName": "HOME HEALTH AGENCY",
    "categoryCode": "HHA",
    "licenseStatus": "ACTIVE",
    "inService": true,
    "licenseNumber": "550010001",
    "licenseEffectiveDate": "11/05/2025",
    "licenseExpirationDate": "05/04/2026",
    "dataDate": "10/18/2025",
    "capacity": 0,
    "address": "14540 HAMLIN ST, SUITE E2",
    "city": "VAN NUYS",
    "zip": "91411",
    "county": "LOS ANGELES",
    "phone": "(800) 408-6622",
    "lat": 34.188415,
    "lng": -118.450215
  },
  {
    "id": "630018795",
    "name": "DIGNITY HOSPICE SERVICES CORPORATION",
    "npi": null,
    "hcaiId": "406193932",
    "businessName": "DIGNITY HOSPICE SERVICES CORPORATION",
    "contactEmail": "DIGNITYHOSPICESERVICES@GMAIL.COM",
    "categoryName": "HOSPICE",
    "categoryCode": "HOSPICE",
    "licenseStatus": "ACTIVE",
    "inService": true,
    "licenseNumber": "550007238",
    "licenseEffectiveDate": "11/19/2025",
    "licenseExpirationDate": "11/18/2027",
    "dataDate": "10/18/2025",
    "capacity": 0,
    "address": "14545 FRIAR ST, SUITE 112",
    "city": "VAN NUYS",
    "zip": "91411",
    "county": "LOS ANGELES",
    "phone": "(818) 849-5723",
    "lat": 34.185816,
    "lng": -118.4503365
  },
  {
    "id": "630020677",
    "name": "DYNASTY HOSPICE, INC.",
    "npi": null,
    "hcaiId": "406193519",
    "businessName": "DYNASTY HOSPICE, INC.",
    "contactEmail": "DYNASTYHOSPICE@GMAIL.COM",
    "categoryName": "HOSPICE",
    "categoryCode": "HOSPICE",
    "licenseStatus": "ACTIVE",
    "inService": true,
    "licenseNumber": "550006429",
    "licenseEffectiveDate": "06/19/2025",
    "licenseExpirationDate": "06/18/2027",
    "dataDate": "10/18/2025",
    "capacity": 0,
    "address": "14640 VICTORY BLVD, SUITE 207A",
    "city": "VAN NUYS",
    "zip": "91411",
    "county": "LOS ANGELES",
    "phone": "(747) 285-2120",
    "lat": 34.186428,
    "lng": -118.452402
  },
  {
    "id": "630026516",
    "name": "ECLIPSE HEALTHCARE",
    "npi": null,
    "hcaiId": null,
    "businessName": "ECLIPSE HEALTHCARE",
    "contactEmail": "ECLIPSEHEALTHCARE2022@GMAIL.COM",
    "categoryName": "HOME HEALTH AGENCY",
    "categoryCode": "HHA",
    "licenseStatus": "ACTIVE",
    "inService": true,
    "licenseNumber": "550009271",
    "licenseEffectiveDate": "01/02/2025",
    "licenseExpirationDate": "07/01/2025",
    "dataDate": "10/18/2025",
    "capacity": 0,
    "address": "14545 FRIAR ST, SUITE 382",
    "city": "VAN NUYS",
    "zip": "91411",
    "county": "LOS ANGELES",
    "phone": "(747) 273-5375",
    "lat": 34.185816,
    "lng": -118.4503365
  },
  {
    "id": "630019060",
    "name": "ELDORADO HEALTH",
    "npi": "1699339747",
    "hcaiId": "406192506",
    "businessName": "ELDORADO HEALTH",
    "contactEmail": "MYELDOHEALTH@GMAIL.COM",
    "categoryName": "HOME HEALTH AGENCY",
    "categoryCode": "HHA",
    "licenseStatus": "ACTIVE",
    "inService": true,
    "licenseNumber": "550005464",
    "licenseEffectiveDate": "05/14/2025",
    "licenseExpirationDate": "05/13/2026",
    "dataDate": "10/18/2025",
    "capacity": 0,
    "address": "14553 DELANO ST, SUITE 318",
    "city": "VAN NUYS",
    "zip": "91411",
    "county": "LOS ANGELES",
    "phone": "(818) 616-9460",
    "lat": 34.182936,
    "lng": -118.4506245
  },
  {
    "id": "630021523",
    "name": "ELITE HOSPICE, INC",
    "npi": null,
    "hcaiId": "406193662",
    "businessName": "ELITE HOSPICE, INC",
    "contactEmail": "4ELITEHOSPICE@GMAIL.COM",
    "categoryName": "HOSPICE",
    "categoryCode": "HOSPICE",
    "licenseStatus": "ACTIVE",
    "inService": true,
    "licenseNumber": "550006860",
    "licenseEffectiveDate": "09/23/2023",
    "licenseExpirationDate": "09/22/2025",
    "dataDate": "10/18/2025",
    "capacity": 0,
    "address": "14654 VICTORY BLVD, SUITE 212",
    "city": "VAN NUYS",
    "zip": "91411",
    "county": "LOS ANGELES",
    "phone": "(818) 275-1012",
    "lat": 34.186437,
    "lng": -118.4526765
  },
  {
    "id": "630026976",
    "name": "ELITEMED HOME HEALTH, INC.",
    "npi": null,
    "hcaiId": null,
    "businessName": "ELITEMED HOME HEALTH, INC.",
    "contactEmail": "ELITEMEDHHI@GMAIL.COM",
    "categoryName": "HOME HEALTH AGENCY",
    "categoryCode": "HHA",
    "licenseStatus": "ACTIVE",
    "inService": true,
    "licenseNumber": "550009296",
    "licenseEffectiveDate": "08/12/2025",
    "licenseExpirationDate": "08/11/2026",
    "dataDate": "10/18/2025",
    "capacity": 0,
    "address": "14540 VICTORY BLVD, SUITE 226",
    "city": "VAN NUYS",
    "zip": "91411",
    "county": "LOS ANGELES",
    "phone": "(213) 205-7755",
    "lat": 34.186446,
    "lng": -118.4502465
  },
  {
    "id": "630025364",
    "name": "ELPIS HOME CARE,INC.",
    "npi": null,
    "hcaiId": "406197931",
    "businessName": "ELPIS HOME CARE, INC.",
    "contactEmail": "ELPISHOMECARE@GMAIL.COM",
    "categoryName": "HOME HEALTH AGENCY",
    "categoryCode": "HHA",
    "licenseStatus": "ACTIVE",
    "inService": true,
    "licenseNumber": "550008519",
    "licenseEffectiveDate": "10/24/2023",
    "licenseExpirationDate": "04/23/2024",
    "dataDate": "10/18/2025",
    "capacity": 0,
    "address": "14545 FRIAR ST, SUITE 336",
    "city": "VAN NUYS",
    "zip": "91411",
    "county": "LOS ANGELES",
    "phone": "(818) 570-0528",
    "lat": 34.185816,
    "lng": -118.4503365
  },
  {
    "id": "630026329",
    "name": "EMERALD HOME HEALTH SERVICES",
    "npi": null,
    "hcaiId": null,
    "businessName": "EMERALD HOME HEALTH SERVICE",
    "contactEmail": "EMERALDHHSERVICES@GMAIL.COM",
    "categoryName": "HOME HEALTH AGENCY",
    "categoryCode": "HHA",
    "licenseStatus": "ACTIVE",
    "inService": true,
    "licenseNumber": "550009578",
    "licenseEffectiveDate": "05/27/2025",
    "licenseExpirationDate": "11/26/2025",
    "dataDate": "10/18/2025",
    "capacity": 0,
    "address": "14545 FRIAR ST, SUITE 187A",
    "city": "VAN NUYS",
    "zip": "91411",
    "county": "LOS ANGELES",
    "phone": "(818) 531-2811",
    "lat": 34.185816,
    "lng": -118.4503365
  },
  {
    "id": "630021759",
    "name": "ESSENTIAL HOSPICE INC.",
    "npi": null,
    "hcaiId": "406193899",
    "businessName": "ESSENTIAL HOSPICE INC.",
    "contactEmail": "ESSENTIALHOSPICEINC@GMAIL.COM",
    "categoryName": "HOSPICE",
    "categoryCode": "HOSPICE",
    "licenseStatus": "ACTIVE",
    "inService": true,
    "licenseNumber": "550007311",
    "licenseEffectiveDate": "09/26/2025",
    "licenseExpirationDate": "11/30/2025",
    "dataDate": "10/18/2025",
    "capacity": 0,
    "address": "5805 SEPULVEDA BLVD., SUITE 740",
    "city": "SHERMAN OAKS",
    "zip": "91411",
    "county": "LOS ANGELES",
    "phone": "(747) 300-2145",
    "lat": 34.1757624,
    "lng": -118.4668053
  },
  {
    "id": "630020143",
    "name": "EVITA HOSPICE",
    "npi": null,
    "hcaiId": "406196122",
    "businessName": "EVITA HOSPICE",
    "contactEmail": "EVITAHOSPICE@GMAIL.COM",
    "categoryName": "HOSPICE",
    "categoryCode": "HOSPICE",
    "licenseStatus": "ACTIVE",
    "inService": true,
    "licenseNumber": "550006570",
    "licenseEffectiveDate": "07/09/2023",
    "licenseExpirationDate": "07/08/2025",
    "dataDate": "10/18/2025",
    "capacity": 0,
    "address": "14640 VICTORY BLVD, SUITE 215",
    "city": "VAN NUYS",
    "zip": "91411",
    "county": "LOS ANGELES",
    "phone": "(747) 247-1244",
    "lat": 34.186428,
    "lng": -118.452402
  },
  {
    "id": "630021532",
    "name": "FAMILY ONE HOSPICE & PALLIATIVE CARE",
    "npi": null,
    "hcaiId": "406195154",
    "businessName": "FAMILY ONE HOSPICE & PALLIATIVE CARE",
    "contactEmail": "FAMILYONEHOSPICE@YAHOO.COM",
    "categoryName": "HOSPICE",
    "categoryCode": "HOSPICE",
    "licenseStatus": "ACTIVE",
    "inService": true,
    "licenseNumber": "550007485",
    "licenseEffectiveDate": "12/09/2023",
    "licenseExpirationDate": "12/08/2025",
    "dataDate": "10/18/2025",
    "capacity": 0,
    "address": "14545 FRIAR ST, SUITE 261",
    "city": "VAN NUYS",
    "zip": "91411",
    "county": "LOS ANGELES",
    "phone": "(818) 967-7413",
    "lat": 34.185816,
    "lng": -118.4503365
  },
  {
    "id": "630025435",
    "name": "FELICITY COMPANION HOME HEALTH",
    "npi": null,
    "hcaiId": "406196394",
    "businessName": "FELICITY COMPANION HOME HEALTH",
    "contactEmail": "FELICITYCOMPANIONHH@GMAIL.COM",
    "categoryName": "HOME HEALTH AGENCY",
    "categoryCode": "HHA",
    "licenseStatus": "ACTIVE",
    "inService": true,
    "licenseNumber": "550008498",
    "licenseEffectiveDate": "08/26/2025",
    "licenseExpirationDate": "04/26/2026",
    "dataDate": "10/18/2025",
    "capacity": 0,
    "address": "14545 FRIAR ST, SUITE 169",
    "city": "VAN NUYS",
    "zip": "91411",
    "county": "LOS ANGELES",
    "phone": "(818) 970-8990",
    "lat": 34.185816,
    "lng": -118.4503365
  },
  {
    "id": "630020146",
    "name": "FIRST CHOICE HOME HEALTH, INC.",
    "npi": null,
    "hcaiId": "406192993",
    "businessName": "FIRST CHOICE HOME HEALTH, INC.",
    "contactEmail": "FIRSTCHOICEHOMEHEALTHINC@GMAIL.COM",
    "categoryName": "HOME HEALTH AGENCY",
    "categoryCode": "HHA",
    "licenseStatus": "ACTIVE",
    "inService": true,
    "licenseNumber": "550005866",
    "licenseEffectiveDate": "12/01/2024",
    "licenseExpirationDate": "11/30/2025",
    "dataDate": "10/18/2025",
    "capacity": 0,
    "address": "14545 FRIAR ST, SUITE 250",
    "city": "VAN NUYS",
    "zip": "91411",
    "county": "LOS ANGELES",
    "phone": "(818) 666-1606",
    "lat": 34.185816,
    "lng": -118.4503365
  },
  {
    "id": "630021017",
    "name": "FIRST PRIORITY HOSPICE INC",
    "npi": null,
    "hcaiId": "406193589",
    "businessName": "FIRST PRIORITY HOSPICE INC",
    "contactEmail": "INFO@FIRSTPHOSPICECARE.COM",
    "categoryName": "HOSPICE",
    "categoryCode": "HOSPICE",
    "licenseStatus": "ACTIVE",
    "inService": true,
    "licenseNumber": "550006483",
    "licenseEffectiveDate": "06/25/2025",
    "licenseExpirationDate": "06/24/2027",
    "dataDate": "10/18/2025",
    "capacity": 0,
    "address": "14545 FRIAR ST, SUITE 231",
    "city": "VAN NUYS",
    "zip": "91411",
    "county": "LOS ANGELES",
    "phone": "(213) 369-0949",
    "lat": 34.185816,
    "lng": -118.4503365
  },
  {
    "id": "630013560",
    "name": "FRESENIUS MEDICAL CARE VAN NUYS",
    "npi": "1447681697",
    "hcaiId": "306197663",
    "businessName": "BIO-MEDICAL APPLICATIONS OF CALIFORNIA, INC.",
    "contactEmail": "CLINIC6616@FMC-NA.COM",
    "categoryName": "CHRONIC DIALYSIS CLINIC",
    "categoryCode": "ESRD/CDC",
    "licenseStatus": "ACTIVE",
    "inService": true,
    "licenseNumber": "550001925",
    "licenseEffectiveDate": "02/08/2025",
    "licenseExpirationDate": "02/07/2026",
    "dataDate": "10/18/2025",
    "capacity": 27,
    "address": "14812 OXNARD ST",
    "city": "VAN NUYS",
    "zip": "91411",
    "county": "LOS ANGELES",
    "phone": "(818) 781-7888",
    "lat": 34.178886,
    "lng": -118.4554755
  },
  {
    "id": "630021844",
    "name": "FRIENDLY HOSPICE BEST CARE, INC.",
    "npi": null,
    "hcaiId": "406190025",
    "businessName": "FRIENDLY HOSPICE BEST CARE, INC",
    "contactEmail": "FRIENDLYHOSPICEBESTCARE@GMAIL.COM",
    "categoryName": "HOSPICE",
    "categoryCode": "HOSPICE",
    "licenseStatus": "ACTIVE",
    "inService": true,
    "licenseNumber": "550007628",
    "licenseEffectiveDate": "12/16/2023",
    "licenseExpirationDate": "12/15/2025",
    "dataDate": "10/18/2025",
    "capacity": 0,
    "address": "14545 VICTORY BLVD, SUITE 602A",
    "city": "VAN NUYS",
    "zip": "91411",
    "county": "LOS ANGELES",
    "phone": "(818) 453-4770",
    "lat": 34.18686,
    "lng": -118.45026
  },
  {
    "id": "630021887",
    "name": "FULL HEART HOSPICE AND PALLIATIVE CARE INC",
    "npi": null,
    "hcaiId": "406194813",
    "businessName": "FULL HEART HOSPICE AND PALLIATIVE CARE INC",
    "contactEmail": "FULLHEARTHOSPICE@GMAIL.COM",
    "categoryName": "HOSPICE",
    "categoryCode": "HOSPICE",
    "licenseStatus": "ACTIVE",
    "inService": true,
    "licenseNumber": "550007523",
    "licenseEffectiveDate": "12/08/2023",
    "licenseExpirationDate": "12/07/2025",
    "dataDate": "10/18/2025",
    "capacity": 0,
    "address": "14543 FRIAR ST, SUITE 102",
    "city": "VAN NUYS",
    "zip": "91411",
    "county": "LOS ANGELES",
    "phone": "(747) 877-8442",
    "lat": 34.185789,
    "lng": -118.4502735
  },
  {
    "id": "630017388",
    "name": "G&A HOME HEALTH CARE INC.",
    "npi": "1871027912",
    "hcaiId": "406191429",
    "businessName": "G&A HOME HEALTH CARE INC.",
    "contactEmail": "GAHOMEHEALTH@MAIL.COM",
    "categoryName": "HOME HEALTH AGENCY",
    "categoryCode": "HHA",
    "licenseStatus": "ACTIVE",
    "inService": true,
    "licenseNumber": "550004457",
    "licenseEffectiveDate": "12/03/2023",
    "licenseExpirationDate": "12/02/2024",
    "dataDate": "10/18/2025",
    "capacity": 0,
    "address": "14545 FRIAR ST, SUITE 230",
    "city": "VAN NUYS",
    "zip": "91411",
    "county": "LOS ANGELES",
    "phone": "(818) 386-8999",
    "lat": 34.185816,
    "lng": -118.4503365
  },
  {
    "id": "630027877",
    "name": "G.S. HOME CARE",
    "npi": null,
    "hcaiId": null,
    "businessName": "G.S. HOME CARE",
    "contactEmail": "G.S.HOMECAREHH@GMAIL.COM",
    "categoryName": "HOME HEALTH AGENCY",
    "categoryCode": "HHA",
    "licenseStatus": "ACTIVE",
    "inService": true,
    "licenseNumber": "550009919",
    "licenseEffectiveDate": "08/01/2025",
    "licenseExpirationDate": "01/31/2026",
    "dataDate": "10/18/2025",
    "capacity": 0,
    "address": "14545 FRIAR ST, SUITE 226",
    "city": "VAN NUYS",
    "zip": "91411",
    "county": "LOS ANGELES",
    "phone": "(818) 923-1018",
    "lat": 34.185927,
    "lng": -118.45039
  },
  {
    "id": "630025266",
    "name": "GD HEALTHCARE",
    "npi": null,
    "hcaiId": "406190051",
    "businessName": "GD HEALTHCARE",
    "contactEmail": "GDHEALTHCARE1@GMAIL.COM",
    "categoryName": "HOME HEALTH AGENCY",
    "categoryCode": "HHA",
    "licenseStatus": "ACTIVE",
    "inService": true,
    "licenseNumber": "550008891",
    "licenseEffectiveDate": "01/05/2025",
    "licenseExpirationDate": "01/04/2026",
    "dataDate": "10/18/2025",
    "capacity": 0,
    "address": "14545 FRIAR ST, SUITE 202-Y",
    "city": "VAN NUYS",
    "zip": "91411",
    "county": "LOS ANGELES",
    "phone": "(347) 933-9387",
    "lat": 34.185816,
    "lng": -118.4503365
  },
  {
    "id": "630021923",
    "name": "GENTLE HOSPICE BEST CARE, INC.",
    "npi": null,
    "hcaiId": "406195160",
    "businessName": "GENTLE HOSPICE BEST CARE, INC.",
    "contactEmail": "GENTLEHOSPICEBESTCARE@GMAIL.COM",
    "categoryName": "HOSPICE",
    "categoryCode": "HOSPICE",
    "licenseStatus": "ACTIVE",
    "inService": true,
    "licenseNumber": "550007464",
    "licenseEffectiveDate": "12/16/2023",
    "licenseExpirationDate": "12/15/2025",
    "dataDate": "10/18/2025",
    "capacity": 0,
    "address": "14545 VICTORY BLVD, SUITE 606",
    "city": "VAN NUYS",
    "zip": "91411",
    "county": "LOS ANGELES",
    "phone": "(818) 582-5832",
    "lat": 34.18686,
    "lng": -118.45026
  },
  {
    "id": "630021335",
    "name": "GENUINE HOSPICE SERVICES, INC",
    "npi": null,
    "hcaiId": "406194757",
    "businessName": "GENUINE HOSPICE SERVICES, INC",
    "contactEmail": "GENUINEHOSPICE@YAHOO.COM",
    "categoryName": "HOSPICE",
    "categoryCode": "HOSPICE",
    "licenseStatus": "ACTIVE",
    "inService": true,
    "licenseNumber": "550006370",
    "licenseEffectiveDate": "06/04/2025",
    "licenseExpirationDate": "06/03/2027",
    "dataDate": "10/18/2025",
    "capacity": 0,
    "address": "14664 VICTORY BLVD, SUITE 106",
    "city": "VAN NUYS",
    "zip": "91411",
    "county": "LOS ANGELES",
    "phone": "(818) 925-7740",
    "lat": 34.18640699,
    "lng": -118.452909
  },
  {
    "id": "630024137",
    "name": "GK HOME HEALTH",
    "npi": null,
    "hcaiId": "406197272",
    "businessName": "GK HOME HEALTH",
    "contactEmail": "GKHOMEHEALTH@YAHOO.COM",
    "categoryName": "HOME HEALTH AGENCY",
    "categoryCode": "HHA",
    "licenseStatus": "ACTIVE",
    "inService": true,
    "licenseNumber": "550008491",
    "licenseEffectiveDate": "04/08/2025",
    "licenseExpirationDate": "04/07/2026",
    "dataDate": "10/18/2025",
    "capacity": 0,
    "address": "14531 HAMLIN ST, SUITE 120",
    "city": "VAN NUYS",
    "zip": "91411",
    "county": "LOS ANGELES",
    "phone": "(747) 336-3013",
    "lat": 34.18898799,
    "lng": -118.449893
  },
  {
    "id": "630011947",
    "name": "GLORIA HOME HEALTH, INC.",
    "npi": "1609348887",
    "hcaiId": "406197337",
    "businessName": "GLORIA HOME HEALTH, INC",
    "contactEmail": "GLORIAHOMEHEALTH@GMAIL.COM",
    "categoryName": "HOME HEALTH AGENCY",
    "categoryCode": "HHA",
    "licenseStatus": "ACTIVE",
    "inService": true,
    "licenseNumber": "550000967",
    "licenseEffectiveDate": "04/08/2025",
    "licenseExpirationDate": "04/07/2026",
    "dataDate": "10/18/2025",
    "capacity": 0,
    "address": "14640 VICTORY BLVD, SUITE 201",
    "city": "VAN NUYS",
    "zip": "91411",
    "county": "LOS ANGELES",
    "phone": "(747) 444-0907",
    "lat": 34.186428,
    "lng": -118.452402
  },
  {
    "id": "630025222",
    "name": "GLORY HEALTHCARE",
    "npi": null,
    "hcaiId": null,
    "businessName": "GLORY HEALTHCARE",
    "contactEmail": "GLORYHEALTHCARE1@GMAIL.COM",
    "categoryName": "HOME HEALTH AGENCY",
    "categoryCode": "HHA",
    "licenseStatus": "ACTIVE",
    "inService": true,
    "licenseNumber": "550009009",
    "licenseEffectiveDate": "01/04/2025",
    "licenseExpirationDate": "01/03/2026",
    "dataDate": "10/18/2025",
    "capacity": 0,
    "address": "14545 FRIAR ST, SUITE 244",
    "city": "VAN NUYS",
    "zip": "91411",
    "county": "LOS ANGELES",
    "phone": "(818) 633-3687",
    "lat": 34.185816,
    "lng": -118.4503365
  },
  {
    "id": "630025032",
    "name": "GOLDEN CARE HOME HEALTH, INC",
    "npi": null,
    "hcaiId": "406197878",
    "businessName": "GOLDEN CARE HOME HEALTH, INC",
    "contactEmail": "GOLDENCAREHOMEHEALTHINC@GMAIL.COM",
    "categoryName": "HOME HEALTH AGENCY",
    "categoryCode": "HHA",
    "licenseStatus": "ACTIVE",
    "inService": true,
    "licenseNumber": "550008338",
    "licenseEffectiveDate": "01/16/2025",
    "licenseExpirationDate": "01/15/2026",
    "dataDate": "10/18/2025",
    "capacity": 0,
    "address": "14545 FRIAR ST, SUITE 297",
    "city": "VAN NUYS",
    "zip": "91411",
    "county": "LOS ANGELES",
    "phone": "(818) 666-8299",
    "lat": 34.185816,
    "lng": -118.4503365
  },
  {
    "id": "630019243",
    "name": "GOLDEN HOSPICE CARE INC",
    "npi": null,
    "hcaiId": "406192354",
    "businessName": "GOLDEN HOSPICE CARE INC",
    "contactEmail": "GOLDENHOSPICE19@GMAIL.COM",
    "categoryName": "HOSPICE",
    "categoryCode": "HOSPICE",
    "licenseStatus": "ACTIVE",
    "inService": true,
    "licenseNumber": "550005258",
    "licenseEffectiveDate": "01/24/2024",
    "licenseExpirationDate": "01/23/2026",
    "dataDate": "10/18/2025",
    "capacity": 0,
    "address": "14545 FRIAR ST, SUITE 138",
    "city": "VAN NUYS",
    "zip": "91411",
    "county": "LOS ANGELES",
    "phone": "(818) 510-0027",
    "lat": 34.185816,
    "lng": -118.4503365
  },
  {
    "id": "630020551",
    "name": "GOLDEN HOSPICE, INC.",
    "npi": null,
    "hcaiId": "406193726",
    "businessName": "GOLDEN HOSPICE, INC.",
    "contactEmail": "GOLDENHOSPICE@YAHOO.COM",
    "categoryName": "HOSPICE",
    "categoryCode": "HOSPICE",
    "licenseStatus": "ACTIVE",
    "inService": true,
    "licenseNumber": "550006740",
    "licenseEffectiveDate": "05/21/2025",
    "licenseExpirationDate": "05/20/2027",
    "dataDate": "10/18/2025",
    "capacity": 0,
    "address": "14640 VICTORY BLVD, SUITE 225B",
    "city": "VAN NUYS",
    "zip": "91411",
    "county": "LOS ANGELES",
    "phone": "(818) 646-3999",
    "lat": 34.186437,
    "lng": -118.452403
  },
  {
    "id": "630025271",
    "name": "GOLDEN SOUL HOME HEALTH INC",
    "npi": null,
    "hcaiId": null,
    "businessName": "GOLDEN SOUL HOME HEALTH INC",
    "contactEmail": "GOLDENSOULHOMEHEALTH@GMAIL.COM",
    "categoryName": "HOME HEALTH AGENCY",
    "categoryCode": "HHA",
    "licenseStatus": "ACTIVE",
    "inService": true,
    "licenseNumber": "550008318",
    "licenseEffectiveDate": "01/11/2025",
    "licenseExpirationDate": "01/10/2026",
    "dataDate": "10/18/2025",
    "capacity": 0,
    "address": "14545 FRIAR ST, SUITE 373",
    "city": "VAN NUYS",
    "zip": "91411",
    "county": "LOS ANGELES",
    "phone": "(818) 732-6272",
    "lat": 34.185816,
    "lng": -118.4503365
  },
  {
    "id": "630019357",
    "name": "GOLDEN STANDARDS HEALTHCARE INC",
    "npi": null,
    "hcaiId": "406192518",
    "businessName": "GOLDEN STANDARDS HEALTHCARE INC",
    "contactEmail": "GOLDENSHI2019@GMAIL.COM",
    "categoryName": "HOME HEALTH AGENCY",
    "categoryCode": "HHA",
    "licenseStatus": "ACTIVE",
    "inService": true,
    "licenseNumber": "550005411",
    "licenseEffectiveDate": "02/06/2024",
    "licenseExpirationDate": "02/05/2025",
    "dataDate": "10/18/2025",
    "capacity": 0,
    "address": "14545 FRIAR ST, SUITE 129",
    "city": "VAN NUYS",
    "zip": "91411",
    "county": "LOS ANGELES",
    "phone": "(747) 283-4117",
    "lat": 34.185816,
    "lng": -118.4503365
  },
  {
    "id": "630019299",
    "name": "GOLDEN TOUCH HOMECARE INC.",
    "npi": null,
    "hcaiId": "406192732",
    "businessName": "GOLDEN TOUCH HOMECARE INC",
    "contactEmail": "GOLDENTHH@GMAIL.COM",
    "categoryName": "HOME HEALTH AGENCY",
    "categoryCode": "HHA",
    "licenseStatus": "ACTIVE",
    "inService": true,
    "licenseNumber": "550005557",
    "licenseEffectiveDate": "06/16/2025",
    "licenseExpirationDate": "06/15/2026",
    "dataDate": "10/18/2025",
    "capacity": 0,
    "address": "14545 FRIAR ST, SUITE 106",
    "city": "VAN NUYS",
    "zip": "91411",
    "county": "LOS ANGELES",
    "phone": "(747) 330-9800",
    "lat": 34.185816,
    "lng": -118.4503365
  },
  {
    "id": "630025542",
    "name": "GRACE HEALTHCARE SERVICES INC",
    "npi": null,
    "hcaiId": "406190093",
    "businessName": "GRACE HEALTHCARE SERVICES INC",
    "contactEmail": "GRACEHCSINC@GMAIL.COM",
    "categoryName": "HOME HEALTH AGENCY",
    "categoryCode": "HHA",
    "licenseStatus": "ACTIVE",
    "inService": true,
    "licenseNumber": "550008822",
    "licenseEffectiveDate": "03/22/2024",
    "licenseExpirationDate": "09/21/2024",
    "dataDate": "10/18/2025",
    "capacity": 0,
    "address": "14545 FRIAR ST, SUITE 371",
    "city": "VAN NUYS",
    "zip": "91411",
    "county": "LOS ANGELES",
    "phone": "(747) 262-1320",
    "lat": 34.18592801,
    "lng": -118.450384
  },
  {
    "id": "630020956",
    "name": "GRACIOUS NURSES HOSPICE",
    "npi": null,
    "hcaiId": "406194881",
    "businessName": "GRACIOUS NURSES HOSPICE",
    "contactEmail": "GRACIOUSNURSESHOSPICE@GMAIL.COM",
    "categoryName": "HOSPICE",
    "categoryCode": "HOSPICE",
    "licenseStatus": "ACTIVE",
    "inService": true,
    "licenseNumber": "550007329",
    "licenseEffectiveDate": "11/17/2023",
    "licenseExpirationDate": "11/16/2025",
    "dataDate": "10/18/2025",
    "capacity": 0,
    "address": "14545 FRIAR ST, SUITE 205D",
    "city": "VAN NUYS",
    "zip": "91411",
    "county": "LOS ANGELES",
    "phone": "(747) 566-3020",
    "lat": 34.185816,
    "lng": -118.4503365
  },
  {
    "id": "630021159",
    "name": "GRATIFIED HOSPICE CARE, INC.",
    "npi": null,
    "hcaiId": "406194848",
    "businessName": "GRATIFIED HOSPICE CARE, INC.",
    "contactEmail": "GRATIFIEDHOSPICECARE@GMAIL.COM",
    "categoryName": "HOSPICE",
    "categoryCode": "HOSPICE",
    "licenseStatus": "ACTIVE",
    "inService": true,
    "licenseNumber": "550006834",
    "licenseEffectiveDate": "09/13/2025",
    "licenseExpirationDate": "09/12/2027",
    "dataDate": "10/18/2025",
    "capacity": 0,
    "address": "14545 FRIAR ST, SUITE 202Z",
    "city": "VAN NUYS",
    "zip": "91411",
    "county": "LOS ANGELES",
    "phone": "(818) 245-4404",
    "lat": 34.185816,
    "lng": -118.4503365
  },
  {
    "id": "630015645",
    "name": "GREAT LIFE HOSPICE",
    "npi": "1891104139",
    "hcaiId": "406198423",
    "businessName": "GREAT LIFE HOSPICE",
    "contactEmail": "GREATLIFEHOSPICE@GMAIL.COM",
    "categoryName": "HOSPICE",
    "categoryCode": "HOSPICE",
    "licenseStatus": "ACTIVE",
    "inService": true,
    "licenseNumber": "550003876",
    "licenseEffectiveDate": "05/10/2025",
    "licenseExpirationDate": "05/09/2027",
    "dataDate": "10/18/2025",
    "capacity": 0,
    "address": "14640 VICTORY BLVD, SUITE 213",
    "city": "VAN NUYS",
    "zip": "91411",
    "county": "LOS ANGELES",
    "phone": "(818) 779-1010",
    "lat": 34.186428,
    "lng": -118.452402
  },
  {
    "id": "630019907",
    "name": "GREEN PARADISE HOSPICE CARE, INC",
    "npi": null,
    "hcaiId": "406192786",
    "businessName": "GREEN PARADISE HOSPICE CARE, INC",
    "contactEmail": "GREENPARADISECARE@YAHOO.COM",
    "categoryName": "HOSPICE",
    "categoryCode": "HOSPICE",
    "licenseStatus": "ACTIVE",
    "inService": true,
    "licenseNumber": "550005556",
    "licenseEffectiveDate": "07/01/2024",
    "licenseExpirationDate": "06/30/2026",
    "dataDate": "10/18/2025",
    "capacity": 0,
    "address": "5658 SEPULVEDA BLVD, SUITE 201",
    "city": "VAN NUYS",
    "zip": "91411",
    "county": "LOS ANGELES",
    "phone": "(818) 290-3602",
    "lat": 34.173738,
    "lng": -118.4658975
  },
  {
    "id": "630020080",
    "name": "H & H HOSPICE INC.",
    "npi": null,
    "hcaiId": "406193727",
    "businessName": "H & H HOSPICE INC.",
    "contactEmail": "HH.HOSPICEINC@GMAIL.COM",
    "categoryName": "HOSPICE",
    "categoryCode": "HOSPICE",
    "licenseStatus": "ACTIVE",
    "inService": true,
    "licenseNumber": "550006789",
    "licenseEffectiveDate": "09/10/2025",
    "licenseExpirationDate": "09/09/2027",
    "dataDate": "10/18/2025",
    "capacity": 0,
    "address": "14545 FRIAR ST, SUITE 251",
    "city": "VAN NUYS",
    "zip": "91411",
    "county": "LOS ANGELES",
    "phone": "(818) 510-0225",
    "lat": 34.185816,
    "lng": -118.4503365
  },
  {
    "id": "630019657",
    "name": "HAAB HEALTHCARE SERVICES INC.",
    "npi": null,
    "hcaiId": null,
    "businessName": "HAAB HEALTHCARE SERVICES INC.",
    "contactEmail": "HAABHEALTHCARESERVICES2019@GMAIL.COM",
    "categoryName": "HOME HEALTH AGENCY",
    "categoryCode": "HHA",
    "licenseStatus": "ACTIVE",
    "inService": true,
    "licenseNumber": "550009156",
    "licenseEffectiveDate": "05/22/2025",
    "licenseExpirationDate": "05/21/2026",
    "dataDate": "10/18/2025",
    "capacity": 0,
    "address": "14545 FRIAR ST, SUITE 246",
    "city": "VAN NUYS",
    "zip": "91411",
    "county": "LOS ANGELES",
    "phone": "(888) 851-4998",
    "lat": 34.185816,
    "lng": -118.4503365
  },
  {
    "id": "630027177",
    "name": "HEALING BY HOME HEALTH, INC.",
    "npi": null,
    "hcaiId": null,
    "businessName": "HEALING BY HOME HEALTH, INC.",
    "contactEmail": "HEALINGBYHH@GMAIL.COM",
    "categoryName": "HOME HEALTH AGENCY",
    "categoryCode": "HHA",
    "licenseStatus": "ACTIVE",
    "inService": true,
    "licenseNumber": "550009630",
    "licenseEffectiveDate": "08/14/2025",
    "licenseExpirationDate": "02/13/2026",
    "dataDate": "10/18/2025",
    "capacity": 0,
    "address": "14545 FRIAR ST, UNIT 241",
    "city": "VAN NUYS",
    "zip": "91411",
    "county": "LOS ANGELES",
    "phone": "(747) 345-4503",
    "lat": 34.18592801,
    "lng": -118.450384
  },
  {
    "id": "630018848",
    "name": "HEALING HANDS HOSPICE INC",
    "npi": null,
    "hcaiId": "406191957",
    "businessName": "HEALING HANDS HOSPICE INC",
    "contactEmail": "HHHI12019@GMAIL.COM",
    "categoryName": "HOSPICE",
    "categoryCode": "HOSPICE",
    "licenseStatus": "ACTIVE",
    "inService": true,
    "licenseNumber": "550005019",
    "licenseEffectiveDate": "10/24/2023",
    "licenseExpirationDate": "10/23/2025",
    "dataDate": "10/18/2025",
    "capacity": 0,
    "address": "14545 FRIAR ST, SUITE 202M",
    "city": "VAN NUYS",
    "zip": "91411",
    "county": "LOS ANGELES",
    "phone": "(818) 387-6249",
    "lat": 34.185816,
    "lng": -118.4503365
  },
  {
    "id": "630019071",
    "name": "HEALTHY HEARTS HOME HEALTH, INC",
    "npi": null,
    "hcaiId": "406192508",
    "businessName": "HEALTHY HEARTS HOME HEALTH, INC",
    "contactEmail": "HEALTHYHEARTSHH@GMAIL.COM",
    "categoryName": "HOME HEALTH AGENCY",
    "categoryCode": "HHA",
    "licenseStatus": "ACTIVE",
    "inService": true,
    "licenseNumber": "550005478",
    "licenseEffectiveDate": "05/15/2025",
    "licenseExpirationDate": "05/14/2026",
    "dataDate": "10/18/2025",
    "capacity": 0,
    "address": "14664 VICTORY BLVD, SUITE 206",
    "city": "VAN NUYS",
    "zip": "91411",
    "county": "LOS ANGELES",
    "phone": "(818) 741-3480",
    "lat": 34.186437,
    "lng": -118.4529375
  },
  {
    "id": "630024128",
    "name": "HEALTHY SMILES HOME HEALTH, INC",
    "npi": null,
    "hcaiId": "406197913",
    "businessName": "HEALTHY SMILES HOME HEALTH, INC",
    "contactEmail": "HEALTHYSMILESHH@GMAIL.COM",
    "categoryName": "HOME HEALTH AGENCY",
    "categoryCode": "HHA",
    "licenseStatus": "ACTIVE",
    "inService": true,
    "licenseNumber": "550008429",
    "licenseEffectiveDate": "02/20/2025",
    "licenseExpirationDate": "02/19/2026",
    "dataDate": "10/18/2025",
    "capacity": 0,
    "address": "14545 VICTORY BLVD, SUITE 608",
    "city": "VAN NUYS",
    "zip": "91411",
    "county": "LOS ANGELES",
    "phone": "(818) 267-8805",
    "lat": 34.18686,
    "lng": -118.45026
  },
  {
    "id": "630021063",
    "name": "HEARTLAND HOSPICE, INC",
    "npi": null,
    "hcaiId": "406193901",
    "businessName": "HEARTLAND HOSPICE, INC",
    "contactEmail": "HEARTLANDHOSPICEINC@GMAIL.COM",
    "categoryName": "HOSPICE",
    "categoryCode": "HOSPICE",
    "licenseStatus": "ACTIVE",
    "inService": true,
    "licenseNumber": "550007215",
    "licenseEffectiveDate": "11/17/2023",
    "licenseExpirationDate": "11/16/2025",
    "dataDate": "10/18/2025",
    "capacity": 0,
    "address": "14545 FRIAR ST, SUITE 155",
    "city": "VAN NUYS",
    "zip": "91411",
    "county": "LOS ANGELES",
    "phone": "(747) 254-6851",
    "lat": 34.185816,
    "lng": -118.4503365
  },
  {
    "id": "630020184",
    "name": "HEAVEN ROADS HOSPICE, INC.",
    "npi": null,
    "hcaiId": "406193224",
    "businessName": "HEAVEN ROADS HOSPICE INC",
    "contactEmail": "HEAVENROADSHOSPICE@GMAIL.COM",
    "categoryName": "HOSPICE",
    "categoryCode": "HOSPICE",
    "licenseStatus": "ACTIVE",
    "inService": true,
    "licenseNumber": "550006238",
    "licenseEffectiveDate": "04/21/2025",
    "licenseExpirationDate": "04/20/2027",
    "dataDate": "10/18/2025",
    "capacity": 0,
    "address": "14545 FRIAR ST, SUITE 136",
    "city": "VAN NUYS",
    "zip": "91411",
    "county": "LOS ANGELES",
    "phone": "(818) 285-8943",
    "lat": 34.185816,
    "lng": -118.4503365
  },
  {
    "id": "630021686",
    "name": "HEAVENLY CARE HOME HEALTH, INC.",
    "npi": null,
    "hcaiId": "406193452",
    "businessName": "HEAVENLY CARE HOME HEALTH, INC",
    "contactEmail": "HEAVENLYCARE2020@GMAIL.COM",
    "categoryName": "HOME HEALTH AGENCY",
    "categoryCode": "HHA",
    "licenseStatus": "ACTIVE",
    "inService": true,
    "licenseNumber": "550007097",
    "licenseEffectiveDate": "11/04/2024",
    "licenseExpirationDate": "11/03/2025",
    "dataDate": "10/18/2025",
    "capacity": 0,
    "address": "14545 FRIAR ST, SUITE 323",
    "city": "VAN NUYS",
    "zip": "91411",
    "county": "LOS ANGELES",
    "phone": "(818) 616-1031",
    "lat": 34.185816,
    "lng": -118.4503365
  },
  {
    "id": "630025263",
    "name": "HELIUS HEALTHCARE",
    "npi": null,
    "hcaiId": null,
    "businessName": "HELIUS HEALTHCARE",
    "contactEmail": "HELIUSHEALTHCARE@GMAIL.COM",
    "categoryName": "HOME HEALTH AGENCY",
    "categoryCode": "HHA",
    "licenseStatus": "ACTIVE",
    "inService": true,
    "licenseNumber": "550009123",
    "licenseEffectiveDate": "03/07/2025",
    "licenseExpirationDate": "03/06/2026",
    "dataDate": "10/18/2025",
    "capacity": 0,
    "address": "14545 FRIAR ST, SUITE 265",
    "city": "VAN NUYS",
    "zip": "91411",
    "county": "LOS ANGELES",
    "phone": "(347) 997-0305",
    "lat": 34.185816,
    "lng": -118.4503365
  },
  {
    "id": "630026042",
    "name": "HELPFUL HANDS HOME HEALTH, INC.",
    "npi": null,
    "hcaiId": null,
    "businessName": "HELPFUL HANDS HOME HEALTH, INC.",
    "contactEmail": "4HELPINGHANDSHC@GMAIL.COM",
    "categoryName": "HOME HEALTH AGENCY",
    "categoryCode": "HHA",
    "licenseStatus": "ACTIVE",
    "inService": true,
    "licenseNumber": "550009164",
    "licenseEffectiveDate": "05/24/2025",
    "licenseExpirationDate": "05/23/2026",
    "dataDate": "10/18/2025",
    "capacity": 0,
    "address": "14531 HAMLIN ST, SUITE 125",
    "city": "VAN NUYS",
    "zip": "91411",
    "county": "LOS ANGELES",
    "phone": "(818) 630-9555",
    "lat": 34.188849,
    "lng": -118.449882
  },
  {
    "id": "630027758",
    "name": "HELPFUL HOME HEALTH, INC",
    "npi": null,
    "hcaiId": null,
    "businessName": "HELPFUL HOME HEALTH, INC",
    "contactEmail": null,
    "categoryName": "HOME HEALTH AGENCY",
    "categoryCode": "HHA",
    "licenseStatus": "ACTIVE",
    "inService": true,
    "licenseNumber": "550009863",
    "licenseEffectiveDate": "06/23/2025",
    "licenseExpirationDate": "12/22/2025",
    "dataDate": "10/18/2025",
    "capacity": 0,
    "address": "14545 VICTORY BLVD, SUITE 612",
    "city": "VAN NUYS",
    "zip": "91411",
    "county": "LOS ANGELES",
    "phone": "(818) 570-9113",
    "lat": 34.18696699,
    "lng": -118.45015
  },
  {
    "id": "630021058",
    "name": "HELPING HANDS HOME HEALTH BEST CARE, INC.",
    "npi": null,
    "hcaiId": "406193269",
    "businessName": "HELPING HANDS HOME HEALTH BEST CARE, INC.",
    "contactEmail": "HELPINGHANDSHOMEHEALTHBESTCARE@GMAIL.COM",
    "categoryName": "HOME HEALTH AGENCY",
    "categoryCode": "HHA",
    "licenseStatus": "ACTIVE",
    "inService": true,
    "licenseNumber": "550006808",
    "licenseEffectiveDate": "09/13/2025",
    "licenseExpirationDate": "09/12/2026",
    "dataDate": "10/18/2025",
    "capacity": 0,
    "address": "14545 VICTORY BLVD., SUITE 407",
    "city": "VAN NUYS",
    "zip": "91411",
    "county": "LOS ANGELES",
    "phone": "(818) 666-9420",
    "lat": 34.18686,
    "lng": -118.45026
  },
  {
    "id": "630018809",
    "name": "HELPING HANDS HOME HEALTH INC",
    "npi": null,
    "hcaiId": "406192476",
    "businessName": "HELPING HANDS HOME HEALTH INC",
    "contactEmail": "INFO@HELPINGHANDSHHINC.COM",
    "categoryName": "HOME HEALTH AGENCY",
    "categoryCode": "HHA",
    "licenseStatus": "ACTIVE",
    "inService": true,
    "licenseNumber": "550005252",
    "licenseEffectiveDate": "01/24/2023",
    "licenseExpirationDate": "01/23/2024",
    "dataDate": "10/18/2025",
    "capacity": 0,
    "address": "14545 FRIAR ST, SUITE 202D",
    "city": "VAN NUYS",
    "zip": "91411",
    "county": "LOS ANGELES",
    "phone": "(951) 618-4116",
    "lat": 34.185816,
    "lng": -118.4503365
  },
  {
    "id": "630024709",
    "name": "HEROIC HOME HEALTH CARE",
    "npi": null,
    "hcaiId": "406197943",
    "businessName": "HEROIC HOME HEALTH CARE",
    "contactEmail": "HEROICHOMEHEALTH@GMAIL.COM",
    "categoryName": "HOME HEALTH AGENCY",
    "categoryCode": "HHA",
    "licenseStatus": "ACTIVE",
    "inService": true,
    "licenseNumber": "550008749",
    "licenseEffectiveDate": "09/01/2025",
    "licenseExpirationDate": "08/31/2026",
    "dataDate": "10/18/2025",
    "capacity": 0,
    "address": "14545 FRIAR ST, SUITE 135",
    "city": "VAN NUYS",
    "zip": "91411",
    "county": "LOS ANGELES",
    "phone": "(818) 849-6618",
    "lat": 34.185816,
    "lng": -118.4503365
  },
  {
    "id": "630024905",
    "name": "HILLCREST HOME HEALTH INC",
    "npi": null,
    "hcaiId": "406195996",
    "businessName": "HILLCREST HOME HEALTH INC",
    "contactEmail": "HOMEHEALTHHILLCREST@GMAIL.COM",
    "categoryName": "HOME HEALTH AGENCY",
    "categoryCode": "HHA",
    "licenseStatus": "ACTIVE",
    "inService": true,
    "licenseNumber": "550008333",
    "licenseEffectiveDate": "12/28/2024",
    "licenseExpirationDate": "12/27/2025",
    "dataDate": "10/18/2025",
    "capacity": 0,
    "address": "14531 HAMLIN ST, SUITE 208",
    "city": "VAN NUYS",
    "zip": "91411",
    "county": "LOS ANGELES",
    "phone": "(424) 777-4315",
    "lat": 34.188849,
    "lng": -118.449882
  },
  {
    "id": "630016113",
    "name": "HOME HEALTH PROFESSIONALS, INC.",
    "npi": "1134500440",
    "hcaiId": "406191322",
    "businessName": "HOME HEALTH PROFESSIONALS, INC.",
    "contactEmail": "HOMEHEALTHPROFESSIONALSINC@GMAIL.COM",
    "categoryName": "HOME HEALTH AGENCY",
    "categoryCode": "HHA",
    "licenseStatus": "ACTIVE",
    "inService": true,
    "licenseNumber": "550004292",
    "licenseEffectiveDate": "06/21/2025",
    "licenseExpirationDate": "06/20/2026",
    "dataDate": "10/18/2025",
    "capacity": 0,
    "address": "14558 SYLVAN ST, SUITE 202",
    "city": "VAN NUYS",
    "zip": "91411",
    "county": "LOS ANGELES",
    "phone": "(818) 827-4640",
    "lat": 34.184502,
    "lng": -118.4507415
  },
  {
    "id": "630025005",
    "name": "HOMEBRIDGE HEALTH CARE",
    "npi": null,
    "hcaiId": "406197833",
    "businessName": "HOMEBRIDGE HEALTH CARE",
    "contactEmail": "HOMEBRIDGEHC@GMAIL.COM",
    "categoryName": "HOME HEALTH AGENCY",
    "categoryCode": "HHA",
    "licenseStatus": "ACTIVE",
    "inService": true,
    "licenseNumber": "550008421",
    "licenseEffectiveDate": "02/20/2025",
    "licenseExpirationDate": "02/19/2026",
    "dataDate": "10/18/2025",
    "capacity": 0,
    "address": "14545 FRIAR ST, SUITE 399-1",
    "city": "VAN NUYS",
    "zip": "91411",
    "county": "LOS ANGELES",
    "phone": "(818) 396-9260",
    "lat": 34.185816,
    "lng": -118.4503365
  },
  {
    "id": "630021666",
    "name": "HOPE & LIGHT HOSPICE, INC.",
    "npi": null,
    "hcaiId": "406195257",
    "businessName": "HOPE & LIGHT HOSPICE, INC.",
    "contactEmail": "HOPEANDLIGHT.CARE@GMAIL.COM",
    "categoryName": "HOSPICE",
    "categoryCode": "HOSPICE",
    "licenseStatus": "ACTIVE",
    "inService": true,
    "licenseNumber": "550007358",
    "licenseEffectiveDate": "12/03/2023",
    "licenseExpirationDate": "12/02/2025",
    "dataDate": "10/18/2025",
    "capacity": 0,
    "address": "14545 FRIAR ST, SUITE 175",
    "city": "VAN NUYS",
    "zip": "91411",
    "county": "LOS ANGELES",
    "phone": "(818) 485-1404",
    "lat": 34.185816,
    "lng": -118.4503365
  },
  {
    "id": "630021065",
    "name": "HOUSE OF FAITH HOSPICE CARE, INC",
    "npi": null,
    "hcaiId": "406193366",
    "businessName": "HOUSE OF FAITH HOSPICE CARE, INC",
    "contactEmail": "HOUSEOFFAITHHOSPICECAREINC@GMAIL.COM",
    "categoryName": "HOSPICE",
    "categoryCode": "HOSPICE",
    "licenseStatus": "ACTIVE",
    "inService": true,
    "licenseNumber": "550006970",
    "licenseEffectiveDate": "10/08/2025",
    "licenseExpirationDate": "10/07/2027",
    "dataDate": "10/18/2025",
    "capacity": 0,
    "address": "14545 FRIAR ST, SUITE 165",
    "city": "VAN NUYS",
    "zip": "91411",
    "county": "LOS ANGELES",
    "phone": "(747) 234-0960",
    "lat": 34.185816,
    "lng": -118.4503365
  },
  {
    "id": "630019514",
    "name": "HOUSE OF THE RISING SUN",
    "npi": "1639720790",
    "hcaiId": "406192584",
    "businessName": "HOUSE OF THE RISING SUN",
    "contactEmail": "RISINGSUNHOSPICE@GMAIL.COM",
    "categoryName": "HOSPICE",
    "categoryCode": "HOSPICE",
    "licenseStatus": "ACTIVE",
    "inService": true,
    "licenseNumber": "550005449",
    "licenseEffectiveDate": "04/23/2022",
    "licenseExpirationDate": "04/22/2024",
    "dataDate": "10/18/2025",
    "capacity": 0,
    "address": "14545 FRIAR ST, SUITE 154",
    "city": "VAN NUYS",
    "zip": "91411",
    "county": "LOS ANGELES",
    "phone": "(818) 946-8152",
    "lat": 34.185816,
    "lng": -118.4503365
  },
  {
    "id": "630020920",
    "name": "HUMANE LOVE HOSPICE",
    "npi": null,
    "hcaiId": "406193622",
    "businessName": "HUMANE LOVE HOSPICE",
    "contactEmail": "HUMANELOVEHOSPICE@GMAIL.COM",
    "categoryName": "HOSPICE",
    "categoryCode": "HOSPICE",
    "licenseStatus": "ACTIVE",
    "inService": true,
    "licenseNumber": "550006868",
    "licenseEffectiveDate": "09/24/2023",
    "licenseExpirationDate": "09/23/2025",
    "dataDate": "10/18/2025",
    "capacity": 0,
    "address": "14545 FRIAR ST, SUITE 205B",
    "city": "VAN NUYS",
    "zip": "91411",
    "county": "LOS ANGELES",
    "phone": "(818) 636-0941",
    "lat": 34.185816,
    "lng": -118.4503365
  },
  {
    "id": "630022052",
    "name": "HUMBLE HEARTS HOSPICE, INC.",
    "npi": null,
    "hcaiId": "406190244",
    "businessName": "HUMBLE HEARTS HOSPICE, INC.",
    "contactEmail": "HHEARTSHOSPICE@GMAIL.COM",
    "categoryName": "HOSPICE",
    "categoryCode": "HOSPICE",
    "licenseStatus": "ACTIVE",
    "inService": true,
    "licenseNumber": "550007567",
    "licenseEffectiveDate": "12/17/2023",
    "licenseExpirationDate": "12/16/2025",
    "dataDate": "10/18/2025",
    "capacity": 0,
    "address": "14622 VICTORY BLVD, SUITE 204",
    "city": "VAN NUYS",
    "zip": "91411",
    "county": "LOS ANGELES",
    "phone": "(747) 666-0626",
    "lat": 34.186437,
    "lng": -118.4517405
  },
  {
    "id": "630024722",
    "name": "HVN HOME HEALTH, INC.",
    "npi": null,
    "hcaiId": "406190326",
    "businessName": "HVN HOME HEALTH INC.",
    "contactEmail": "HVNHOMEHEALTH@GMAIL.COM",
    "categoryName": "HOME HEALTH AGENCY",
    "categoryCode": "HHA",
    "licenseStatus": "ACTIVE",
    "inService": true,
    "licenseNumber": "550009080",
    "licenseEffectiveDate": "03/06/2024",
    "licenseExpirationDate": "09/05/2024",
    "dataDate": "10/18/2025",
    "capacity": 0,
    "address": "14545 FRIAR ST, SUITE 386",
    "city": "VAN NUYS",
    "zip": "91411",
    "county": "LOS ANGELES",
    "phone": "(747) 264-9475",
    "lat": 34.18592801,
    "lng": -118.450384
  },
  {
    "id": "630014732",
    "name": "HYGEIA HOME CARE, INC.",
    "npi": "1245661354",
    "hcaiId": "406198179",
    "businessName": "HYGEIA HOME CARE, INC.",
    "contactEmail": "HYGEIAHC@YAHOO.COM",
    "categoryName": "HOME HEALTH AGENCY",
    "categoryCode": "HHA",
    "licenseStatus": "ACTIVE",
    "inService": true,
    "licenseNumber": "550003209",
    "licenseEffectiveDate": "08/25/2023",
    "licenseExpirationDate": "08/24/2024",
    "dataDate": "10/18/2025",
    "capacity": 0,
    "address": "14545 VICTORY BLVD, SUITE 606",
    "city": "VAN NUYS",
    "zip": "91411",
    "county": "LOS ANGELES",
    "phone": "(818) 781-7992",
    "lat": 34.18696699,
    "lng": -118.45015
  },
  {
    "id": "630014035",
    "name": "IMMEDIATE HOSPICE CARE",
    "npi": null,
    "hcaiId": "406197847",
    "businessName": "IMMEDIATE HOSPICE CARE",
    "contactEmail": "IMMEDIATEHOSPICECARE@GMAIL.COM",
    "categoryName": "HOSPICE",
    "categoryCode": "HOSPICE",
    "licenseStatus": "ACTIVE",
    "inService": true,
    "licenseNumber": "550002441",
    "licenseEffectiveDate": "09/20/2023",
    "licenseExpirationDate": "09/19/2025",
    "dataDate": "10/18/2025",
    "capacity": 0,
    "address": "14640 VICTORY BLVD, SUITE 224",
    "city": "VAN NUYS",
    "zip": "91411",
    "county": "LOS ANGELES",
    "phone": "(818) 997-7633",
    "lat": 34.186428,
    "lng": -118.452402
  },
  {
    "id": "630026942",
    "name": "IMPERIAL CARE HOME HEALTH, INC.",
    "npi": null,
    "hcaiId": null,
    "businessName": "IMPERIAL CARE HOME HEALTH, INC.",
    "contactEmail": "IMPERIALCAREHOMEHEALTHINC@GMAIL.COM",
    "categoryName": "HOME HEALTH AGENCY",
    "categoryCode": "HHA",
    "licenseStatus": "ACTIVE",
    "inService": true,
    "licenseNumber": "550009757",
    "licenseEffectiveDate": "08/28/2025",
    "licenseExpirationDate": "02/27/2026",
    "dataDate": "10/18/2025",
    "capacity": 0,
    "address": "14545 FRIAR ST, SUITE 202 V",
    "city": "VAN NUYS",
    "zip": "91411",
    "county": "LOS ANGELES",
    "phone": "(747) 566-2425",
    "lat": 34.185816,
    "lng": -118.4503365
  },
  {
    "id": "630020008",
    "name": "INBETHA HOME HEALTHCARE INC",
    "npi": null,
    "hcaiId": "406193207",
    "businessName": "INBETHA HOME HEALTHCARE INC",
    "contactEmail": "INBETHAHOMEHEALTH@GMAIL.COM",
    "categoryName": "HOME HEALTH AGENCY",
    "categoryCode": "HHA",
    "licenseStatus": "ACTIVE",
    "inService": true,
    "licenseNumber": "550007031",
    "licenseEffectiveDate": "10/08/2022",
    "licenseExpirationDate": "10/07/2023",
    "dataDate": "10/18/2025",
    "capacity": 0,
    "address": "14545 FRIAR ST, SUITE 174",
    "city": "VAN NUYS",
    "zip": "91411",
    "county": "LOS ANGELES",
    "phone": "(818) 795-2953",
    "lat": 34.185816,
    "lng": -118.4503365
  },
  {
    "id": "630016012",
    "name": "INSPIRATION HOME HEALTH CARE, INC.",
    "npi": "1134507213",
    "hcaiId": "406190655",
    "businessName": "INSPIRATION HOME HEALTH CARE, INC.",
    "contactEmail": "INSPIRATIONHHC@YAHOO.COM",
    "categoryName": "HOME HEALTH AGENCY",
    "categoryCode": "HHA",
    "licenseStatus": "ACTIVE",
    "inService": true,
    "licenseNumber": "550004055",
    "licenseEffectiveDate": "11/16/2025",
    "licenseExpirationDate": "11/15/2026",
    "dataDate": "10/18/2025",
    "capacity": 0,
    "address": "14555 HAMLIN STREET, SUITE 1B",
    "city": "VAN NUYS",
    "zip": "91411",
    "county": "LOS ANGELES",
    "phone": "(818) 787-1799",
    "lat": 34.188849,
    "lng": -118.450719
  },
  {
    "id": "630018306",
    "name": "IV NURSING HEALTHCARE SERVICES, INC.",
    "npi": null,
    "hcaiId": "406191766",
    "businessName": "IV NURSING HEALTHCARE SERVICES, INC.",
    "contactEmail": "IVNHCS@GMAIL.COM",
    "categoryName": "HOME HEALTH AGENCY",
    "categoryCode": "HHA",
    "licenseStatus": "ACTIVE",
    "inService": true,
    "licenseNumber": "550004791",
    "licenseEffectiveDate": "05/22/2022",
    "licenseExpirationDate": "05/21/2023",
    "dataDate": "10/18/2025",
    "capacity": 0,
    "address": "14545 FRIAR ST, SUITE 232",
    "city": "VAN NUYS",
    "zip": "91411",
    "county": "LOS ANGELES",
    "phone": "(818) 386-8457",
    "lat": 34.185816,
    "lng": -118.4503365
  },
  {
    "id": "630025237",
    "name": "IVORY HEALTHCARE",
    "npi": null,
    "hcaiId": "406190060",
    "businessName": "IVORY HEALTHCARE",
    "contactEmail": "IVORYHEALTHCARE1@GMAIL.COM",
    "categoryName": "HOME HEALTH AGENCY",
    "categoryCode": "HHA",
    "licenseStatus": "ACTIVE",
    "inService": true,
    "licenseNumber": "550008892",
    "licenseEffectiveDate": "07/04/2024",
    "licenseExpirationDate": "01/03/2025",
    "dataDate": "10/18/2025",
    "capacity": 0,
    "address": "14545 FRIAR ST, SUITE 286",
    "city": "VAN NUYS",
    "zip": "91411",
    "county": "LOS ANGELES",
    "phone": "(818) 633-3687",
    "lat": 34.185816,
    "lng": -118.4503365
  },
  {
    "id": "630024781",
    "name": "KIAS HH, INC.",
    "npi": null,
    "hcaiId": "406190041",
    "businessName": "KIAS HH, INC.",
    "contactEmail": "KIASHHC@GMAIL.COM",
    "categoryName": "HOME HEALTH AGENCY",
    "categoryCode": "HHA",
    "licenseStatus": "ACTIVE",
    "inService": true,
    "licenseNumber": "550008692",
    "licenseEffectiveDate": "07/27/2025",
    "licenseExpirationDate": "07/26/2026",
    "dataDate": "10/18/2025",
    "capacity": 0,
    "address": "14545 FRIAR ST, SUITE 281",
    "city": "VAN NUYS",
    "zip": "91411",
    "county": "LOS ANGELES",
    "phone": "(626) 540-2673",
    "lat": 34.185816,
    "lng": -118.4503365
  },
  {
    "id": "630025647",
    "name": "KIND HANDS HEALTH CARE",
    "npi": null,
    "hcaiId": null,
    "businessName": "KIND HANDS HEALTH CARE",
    "contactEmail": "KINDHANDHEALTH@GMAIL.COM",
    "categoryName": "HOME HEALTH AGENCY",
    "categoryCode": "HHA",
    "licenseStatus": "ACTIVE",
    "inService": true,
    "licenseNumber": "550009375",
    "licenseEffectiveDate": "08/21/2025",
    "licenseExpirationDate": "08/20/2026",
    "dataDate": "10/18/2025",
    "capacity": 0,
    "address": "14531 HAMLIN ST, SUITE 205",
    "city": "VAN NUYS",
    "zip": "91411",
    "county": "LOS ANGELES",
    "phone": "(747) 233-1323",
    "lat": 34.188849,
    "lng": -118.449882
  },
  {
    "id": "630014946",
    "name": "KINETIX SURGERY CENTER",
    "npi": "1548609472",
    "hcaiId": null,
    "businessName": null,
    "contactEmail": null,
    "categoryName": "SURGICAL CLINIC",
    "categoryCode": "ASC",
    "licenseStatus": null,
    "inService": null,
    "licenseNumber": null,
    "licenseEffectiveDate": null,
    "licenseExpirationDate": null,
    "dataDate": "10/18/2025",
    "capacity": 0,
    "address": "5651 SEPULVEDA BLVD, SUITE 101",
    "city": "SHERMAN OAKS",
    "zip": "91411",
    "county": "LOS ANGELES",
    "phone": null,
    "lat": 34.173639,
    "lng": -118.4665455
  },
  {
    "id": "630025392",
    "name": "KK HOME HEALTH CARE INC",
    "npi": null,
    "hcaiId": "406196431",
    "businessName": "KK HOME HEALTH CARE INC",
    "contactEmail": "KKHOMEHEALTH@GMAIL.COM",
    "categoryName": "HOME HEALTH AGENCY",
    "categoryCode": "HHA",
    "licenseStatus": "ACTIVE",
    "inService": true,
    "licenseNumber": "550008492",
    "licenseEffectiveDate": "04/20/2025",
    "licenseExpirationDate": "04/19/2026",
    "dataDate": "10/18/2025",
    "capacity": 0,
    "address": "14545 FRIAR ST, SUITE 325",
    "city": "VAN NUYS",
    "zip": "91411",
    "county": "LOS ANGELES",
    "phone": "(818) 823-3888",
    "lat": 34.185816,
    "lng": -118.4503365
  },
  {
    "id": "630024761",
    "name": "KNH HOME HEALTH CARE INC",
    "npi": null,
    "hcaiId": "406190138",
    "businessName": "KNH HOME HEALTH CARE INC",
    "contactEmail": "KNHHHCINC@GMAIL.COM",
    "categoryName": "HOME HEALTH AGENCY",
    "categoryCode": "HHA",
    "licenseStatus": "ACTIVE",
    "inService": true,
    "licenseNumber": "550008887",
    "licenseEffectiveDate": "05/17/2024",
    "licenseExpirationDate": "11/16/2024",
    "dataDate": "10/18/2025",
    "capacity": 0,
    "address": "14545 FRIAR ST, SUITE 202H",
    "city": "VAN NUYS",
    "zip": "91411",
    "county": "LOS ANGELES",
    "phone": null,
    "lat": 34.185816,
    "lng": -118.4503365
  },
  {
    "id": "630021610",
    "name": "LA HOSPICE",
    "npi": null,
    "hcaiId": null,
    "businessName": "LA HOSPICE",
    "contactEmail": "LAHOSPICE2020@GMAIL.COM",
    "categoryName": "HOSPICE",
    "categoryCode": "HOSPICE",
    "licenseStatus": "ACTIVE",
    "inService": true,
    "licenseNumber": "550007474",
    "licenseEffectiveDate": "12/18/2023",
    "licenseExpirationDate": "12/17/2025",
    "dataDate": "10/18/2025",
    "capacity": 0,
    "address": "14545 FRIAR ST, SUITE 164",
    "city": "VAN NUYS",
    "zip": "91411",
    "county": "LOS ANGELES",
    "phone": "(747) 300-0763",
    "lat": 34.18592801,
    "lng": -118.450384
  },
  {
    "id": "630025368",
    "name": "LA VIE HOME HEALTH INC",
    "npi": null,
    "hcaiId": "406196404",
    "businessName": "LA VIE HOME HEALTH INC",
    "contactEmail": "LAVIEHOMEHEALTH@GMAIL.COM",
    "categoryName": "HOME HEALTH AGENCY",
    "categoryCode": "HHA",
    "licenseStatus": "ACTIVE",
    "inService": true,
    "licenseNumber": "550008497",
    "licenseEffectiveDate": "04/24/2025",
    "licenseExpirationDate": "04/23/2026",
    "dataDate": "10/18/2025",
    "capacity": 0,
    "address": "14545 FRIAR ST, SUITE 317",
    "city": "VAN NUYS",
    "zip": "91411",
    "county": "LOS ANGELES",
    "phone": "(818) 570-2092",
    "lat": 34.185816,
    "lng": -118.4503365
  },
  {
    "id": "630026563",
    "name": "LACA HOME HEALTH",
    "npi": null,
    "hcaiId": null,
    "businessName": "LACA HOME HEALTH",
    "contactEmail": "LACAHOMEHEALTH@GMAIL.COM",
    "categoryName": "HOME HEALTH AGENCY",
    "categoryCode": "HHA",
    "licenseStatus": "ACTIVE",
    "inService": true,
    "licenseNumber": "550009646",
    "licenseEffectiveDate": "08/27/2025",
    "licenseExpirationDate": "02/26/2026",
    "dataDate": "10/18/2025",
    "capacity": 0,
    "address": "14545 FRIAR ST, SUITE 243",
    "city": "VAN NUYS",
    "zip": "91411",
    "county": "LOS ANGELES",
    "phone": "(800) 893-8151",
    "lat": 34.185816,
    "lng": -118.4503365
  },
  {
    "id": "630025994",
    "name": "LG HOME HEALTH",
    "npi": null,
    "hcaiId": null,
    "businessName": "LG HOME HEALTH",
    "contactEmail": "4LGHOMEHEALTH@GMAIL.COM",
    "categoryName": "HOME HEALTH AGENCY",
    "categoryCode": "HHA",
    "licenseStatus": "ACTIVE",
    "inService": true,
    "licenseNumber": "550009200",
    "licenseEffectiveDate": "05/24/2025",
    "licenseExpirationDate": "05/23/2026",
    "dataDate": "10/18/2025",
    "capacity": 0,
    "address": "14545 FRIAR ST, SUITE 201H",
    "city": "VAN NUYS",
    "zip": "91411",
    "county": "LOS ANGELES",
    "phone": "(818) 674-4443",
    "lat": 34.185816,
    "lng": -118.4503365
  },
  {
    "id": "980000952",
    "name": "LIBERTANA HOME HEALTH OF SHERMAN OAKS",
    "npi": "1013967314",
    "hcaiId": "406196572",
    "businessName": "JSI ACQUISITION, INC.",
    "contactEmail": "NEIL.ROTTER@LIBERTANA.COM",
    "categoryName": "HOME HEALTH AGENCY",
    "categoryCode": "HHA",
    "licenseStatus": "ACTIVE",
    "inService": true,
    "licenseNumber": "980000470",
    "licenseEffectiveDate": "11/23/2024",
    "licenseExpirationDate": "11/22/2025",
    "dataDate": "10/18/2025",
    "capacity": 0,
    "address": "5805 SEPULVEDA BLVD, SUITE 605",
    "city": "VAN NUYS",
    "zip": "91411",
    "county": "LOS ANGELES",
    "phone": "(818) 902-5000",
    "lat": 34.176321,
    "lng": -118.4667795
  },
  {
    "id": "630021482",
    "name": "LIBORAH HOMEHEALTH",
    "npi": null,
    "hcaiId": "406195542",
    "businessName": "LIBORAH HOMEHEALTH",
    "contactEmail": "LIBORAHHOMEHEALTH@GMAIL.COM",
    "categoryName": "HOME HEALTH AGENCY",
    "categoryCode": "HHA",
    "licenseStatus": "ACTIVE",
    "inService": true,
    "licenseNumber": "550007052",
    "licenseEffectiveDate": "10/29/2024",
    "licenseExpirationDate": "10/28/2025",
    "dataDate": "10/18/2025",
    "capacity": 0,
    "address": "14545 FRIAR ST, SUITE 237H",
    "city": "VAN NUYS",
    "zip": "91411",
    "county": "LOS ANGELES",
    "phone": "(818) 516-4565",
    "lat": 34.185708,
    "lng": -118.450339
  },
  {
    "id": "630025777",
    "name": "LIGHT HOME HEALTH INC",
    "npi": null,
    "hcaiId": "406190082",
    "businessName": "LIGHT HOME HEALTH INC",
    "contactEmail": "LIGHTHOMEHEALTH@GMAIL.COM",
    "categoryName": "HOME HEALTH AGENCY",
    "categoryCode": "HHA",
    "licenseStatus": "ACTIVE",
    "inService": true,
    "licenseNumber": "550008838",
    "licenseEffectiveDate": "12/07/2024",
    "licenseExpirationDate": "12/06/2025",
    "dataDate": "10/18/2025",
    "capacity": 0,
    "address": "14545 FRIAR ST, SUITE 262",
    "city": "VAN NUYS",
    "zip": "91411",
    "county": "LOS ANGELES",
    "phone": "(818) 794-0071",
    "lat": 34.185816,
    "lng": -118.4503365
  },
  {
    "id": "630019230",
    "name": "LOVE AND CARE HOSPICE SERVICE INC",
    "npi": null,
    "hcaiId": null,
    "businessName": "LOVE AND CARE HOSPICE SERVICE INC",
    "contactEmail": "LOVEANDCAREHOSPICE14@GMAIL.COM",
    "categoryName": "HOSPICE",
    "categoryCode": "HOSPICE",
    "licenseStatus": "ACTIVE",
    "inService": true,
    "licenseNumber": "550006205",
    "licenseEffectiveDate": "03/12/2025",
    "licenseExpirationDate": "03/11/2027",
    "dataDate": "10/18/2025",
    "capacity": 0,
    "address": "5658 SEPULVEDA BLVD, SUITE 214",
    "city": "SHERMAN OAKS",
    "zip": "91411",
    "county": "LOS ANGELES",
    "phone": "(818) 849-6399",
    "lat": 34.173738,
    "lng": -118.4658975
  },
  {
    "id": "630025274",
    "name": "LOVING HANDS HOME HEALTH INC",
    "npi": null,
    "hcaiId": null,
    "businessName": "LOVING HANDS HOME HEALTH INC",
    "contactEmail": "LOVEHANDSHH@GMAIL.COM",
    "categoryName": "HOME HEALTH AGENCY",
    "categoryCode": "HHA",
    "licenseStatus": "ACTIVE",
    "inService": true,
    "licenseNumber": "550008342",
    "licenseEffectiveDate": "01/11/2023",
    "licenseExpirationDate": "07/10/2023",
    "dataDate": "10/18/2025",
    "capacity": 0,
    "address": "14545 FRIAR ST, SUITE 110",
    "city": "VAN NUYS",
    "zip": "91411",
    "county": "LOS ANGELES",
    "phone": "(818) 406-0610",
    "lat": 34.185816,
    "lng": -118.4503365
  },
  {
    "id": "630019636",
    "name": "LOVING SOUL HOSPICE",
    "npi": null,
    "hcaiId": "406192769",
    "businessName": "LOVING SOUL HOSPICE",
    "contactEmail": "LOVINGSOULHOSPICE@GMAIL.COM",
    "categoryName": "HOSPICE",
    "categoryCode": "HOSPICE",
    "licenseStatus": "ACTIVE",
    "inService": true,
    "licenseNumber": "550005552",
    "licenseEffectiveDate": "05/13/2024",
    "licenseExpirationDate": "05/12/2026",
    "dataDate": "10/18/2025",
    "capacity": 0,
    "address": "14545 FRIAR ST, SUITE 221",
    "city": "VAN NUYS",
    "zip": "91411",
    "county": "LOS ANGELES",
    "phone": "(818) 387-6024",
    "lat": 34.185816,
    "lng": -118.4503365
  },
  {
    "id": "630020313",
    "name": "LOYAL CARE AT HOME INC",
    "npi": null,
    "hcaiId": "406195205",
    "businessName": "LOYAL CARE AT HOME INC",
    "contactEmail": "LOYALCAREHH@GMAIL.COM",
    "categoryName": "HOME HEALTH AGENCY",
    "categoryCode": "HHA",
    "licenseStatus": "ACTIVE",
    "inService": true,
    "licenseNumber": "550005886",
    "licenseEffectiveDate": "11/25/2025",
    "licenseExpirationDate": "11/24/2026",
    "dataDate": "10/18/2025",
    "capacity": 0,
    "address": "14546 HAMLIN ST, UNIT 150B",
    "city": "VAN NUYS",
    "zip": "91411",
    "county": "LOS ANGELES",
    "phone": "(818) 751-2223",
    "lat": 34.188462,
    "lng": -118.450377
  },
  {
    "id": "630025866",
    "name": "LS HOME HEALTH CARE, INC",
    "npi": null,
    "hcaiId": null,
    "businessName": "LS HOME HEALTH CARE, INC.",
    "contactEmail": "LSHOMEHEALTHCARE13@GMAIL.COM",
    "categoryName": "HOME HEALTH AGENCY",
    "categoryCode": "HHA",
    "licenseStatus": "ACTIVE",
    "inService": true,
    "licenseNumber": "550008987",
    "licenseEffectiveDate": "09/01/2024",
    "licenseExpirationDate": "02/28/2025",
    "dataDate": "10/18/2025",
    "capacity": 0,
    "address": "14545 FRIAR ST, SUITE 342",
    "city": "VAN NUYS",
    "zip": "91411",
    "county": "LOS ANGELES",
    "phone": "(424) 371-6211",
    "lat": 34.185816,
    "lng": -118.4503365
  },
  {
    "id": "630026518",
    "name": "LUNA HEALTHCARE",
    "npi": null,
    "hcaiId": null,
    "businessName": "LUNA HEALTHCARE",
    "contactEmail": "LUNAHEALTHCARE2022@GMAIL.COM",
    "categoryName": "HOME HEALTH AGENCY",
    "categoryCode": "HHA",
    "licenseStatus": "ACTIVE",
    "inService": true,
    "licenseNumber": "550009217",
    "licenseEffectiveDate": "05/11/2025",
    "licenseExpirationDate": "05/10/2026",
    "dataDate": "10/18/2025",
    "capacity": 0,
    "address": "14545 FRIAR ST, SUITE 383",
    "city": "VAN NUYS",
    "zip": "91411",
    "county": "LOS ANGELES",
    "phone": "(747) 273-5375",
    "lat": 34.185816,
    "lng": -118.4503365
  },
  {
    "id": "630024117",
    "name": "MAIN HOME HEALTH CARE, INC.",
    "npi": null,
    "hcaiId": "406197865",
    "businessName": "MAIN HOME HEALTH CARE, INC.",
    "contactEmail": "MAINHOMEHEALTH@GMAIL.COM",
    "categoryName": "HOME HEALTH AGENCY",
    "categoryCode": "HHA",
    "licenseStatus": "ACTIVE",
    "inService": true,
    "licenseNumber": "550008313",
    "licenseEffectiveDate": "01/05/2025",
    "licenseExpirationDate": "01/04/2026",
    "dataDate": "10/18/2025",
    "capacity": 0,
    "address": "14531 HAMLIN ST, SUITE 130",
    "city": "VAN NUYS",
    "zip": "91411",
    "county": "LOS ANGELES",
    "phone": "(818) 660-0550",
    "lat": 34.18898799,
    "lng": -118.449893
  },
  {
    "id": "630025265",
    "name": "MARSHA HOMECARE",
    "npi": null,
    "hcaiId": "406190135",
    "businessName": "MARSHA HOMECARE",
    "contactEmail": "MARSHAHOMECARE@GMAIL.COM",
    "categoryName": "HOME HEALTH AGENCY",
    "categoryCode": "HHA",
    "licenseStatus": "ACTIVE",
    "inService": true,
    "licenseNumber": "550008618",
    "licenseEffectiveDate": "06/23/2025",
    "licenseExpirationDate": "06/22/2026",
    "dataDate": "10/18/2025",
    "capacity": 0,
    "address": "14545 FRIAR ST, SUITE 301",
    "city": "VAN NUYS",
    "zip": "91411",
    "county": "LOS ANGELES",
    "phone": "(818) 641-9914",
    "lat": 34.185816,
    "lng": -118.4503365
  },
  {
    "id": "630025375",
    "name": "MEDELLA HOME CARE INC",
    "npi": null,
    "hcaiId": "406190126",
    "businessName": "MEDELLA HOME CARE INC",
    "contactEmail": "MEDELLAHOMECARE@GMAIL.COM",
    "categoryName": "HOME HEALTH AGENCY",
    "categoryCode": "HHA",
    "licenseStatus": "ACTIVE",
    "inService": true,
    "licenseNumber": "550008580",
    "licenseEffectiveDate": "06/13/2024",
    "licenseExpirationDate": "06/12/2025",
    "dataDate": "10/18/2025",
    "capacity": 0,
    "address": "14545 FRIAR ST, SUITE 338",
    "city": "VAN NUYS",
    "zip": "91411",
    "county": "LOS ANGELES",
    "phone": "(818) 683-3087",
    "lat": 34.185816,
    "lng": -118.4503365
  },
  {
    "id": "630018948",
    "name": "MEDPLUS HOME HEALTH, INC.",
    "npi": "1508424144",
    "hcaiId": "406192489",
    "businessName": "MEDPLUS HOME HEALTH, INC.",
    "contactEmail": "MEDPLUSHOMEHEALTH@GMAIL.COM",
    "categoryName": "HOME HEALTH AGENCY",
    "categoryCode": "HHA",
    "licenseStatus": "ACTIVE",
    "inService": true,
    "licenseNumber": "550005393",
    "licenseEffectiveDate": "03/07/2025",
    "licenseExpirationDate": "03/06/2026",
    "dataDate": "10/18/2025",
    "capacity": 0,
    "address": "14664 VICTORY BLVD, SUITE 200",
    "city": "VAN NUYS",
    "zip": "91411",
    "county": "LOS ANGELES",
    "phone": "(818) 510-0226",
    "lat": 34.186437,
    "lng": -118.4529375
  },
  {
    "id": "630019865",
    "name": "MERCURY HOSPICE, INC.",
    "npi": null,
    "hcaiId": null,
    "businessName": "MERCURY HOSPICE, INC.",
    "contactEmail": "MERCURYHOSPICE@GMAIL.COM",
    "categoryName": "HOSPICE",
    "categoryCode": "HOSPICE",
    "licenseStatus": "ACTIVE",
    "inService": true,
    "licenseNumber": "550005926",
    "licenseEffectiveDate": "12/10/2024",
    "licenseExpirationDate": "12/09/2026",
    "dataDate": "10/18/2025",
    "capacity": 0,
    "address": "15500 ERWIN ST, SUITE 4010",
    "city": "VAN NUYS",
    "zip": "91411",
    "county": "LOS ANGELES",
    "phone": "(818) 582-3814",
    "lat": 34.18294238,
    "lng": -118.470436
  },
  {
    "id": "630025795",
    "name": "MERCY HOME HEALTH CARE SERVICES, INC.",
    "npi": null,
    "hcaiId": null,
    "businessName": "MERCY HOME HEALTH CARE SERVICES, INC.",
    "contactEmail": "MERCYHOMEHEALTH@PROTONMAIL.COM",
    "categoryName": "HOME HEALTH AGENCY",
    "categoryCode": "HHA",
    "licenseStatus": "ACTIVE",
    "inService": true,
    "licenseNumber": "550009012",
    "licenseEffectiveDate": "03/01/2025",
    "licenseExpirationDate": "02/28/2026",
    "dataDate": "10/18/2025",
    "capacity": 0,
    "address": "14545 FRIAR ST, SUITE 222",
    "city": "VAN NUYS",
    "zip": "91411",
    "county": "LOS ANGELES",
    "phone": "(818) 453-0173",
    "lat": 34.185816,
    "lng": -118.4503365
  },
  {
    "id": "630026345",
    "name": "MERLI HOME HEALTH INC",
    "npi": null,
    "hcaiId": null,
    "businessName": "MERLI HOME HEALTH INC",
    "contactEmail": "MERLIHOMEHEALTH@GMAIL.COM",
    "categoryName": "HOME HEALTH AGENCY",
    "categoryCode": "HHA",
    "licenseStatus": "ACTIVE",
    "inService": true,
    "licenseNumber": "550009663",
    "licenseEffectiveDate": "08/25/2025",
    "licenseExpirationDate": "02/24/2026",
    "dataDate": "10/18/2025",
    "capacity": 0,
    "address": "14545 FRIAR ST, SUITE 370",
    "city": "VAN NUYS",
    "zip": "91411",
    "county": "LOS ANGELES",
    "phone": "(747) 566-2488",
    "lat": 34.185816,
    "lng": -118.4503365
  },
  {
    "id": "630020953",
    "name": "MIDCITY HOSPICE CARE INC.",
    "npi": null,
    "hcaiId": "406194857",
    "businessName": "MIDCITY HOSPICE CARE INC",
    "contactEmail": "MIDCITYHOSPICE@GMAIL.COM",
    "categoryName": "HOSPICE",
    "categoryCode": "HOSPICE",
    "licenseStatus": "ACTIVE",
    "inService": true,
    "licenseNumber": "550006875",
    "licenseEffectiveDate": "09/20/2023",
    "licenseExpirationDate": "09/19/2025",
    "dataDate": "10/18/2025",
    "capacity": 0,
    "address": "5658 SEPULVEDA BLVD, SUITE 215",
    "city": "VAN NUYS",
    "zip": "91411",
    "county": "LOS ANGELES",
    "phone": "(818) 616-9666",
    "lat": 34.173738,
    "lng": -118.4658975
  },
  {
    "id": "630021299",
    "name": "MILA HOSPICE CARE, INC",
    "npi": null,
    "hcaiId": "406193912",
    "businessName": "MILA HOSPICE CARE, INC",
    "contactEmail": "MILAHOSPICECARE@GMAIL.COM",
    "categoryName": "HOSPICE",
    "categoryCode": "HOSPICE",
    "licenseStatus": "ACTIVE",
    "inService": true,
    "licenseNumber": "550007216",
    "licenseEffectiveDate": "10/15/2023",
    "licenseExpirationDate": "10/14/2025",
    "dataDate": "10/18/2025",
    "capacity": 0,
    "address": "14545 FRIAR ST, SUITE 274",
    "city": "VAN NUYS",
    "zip": "91411",
    "county": "LOS ANGELES",
    "phone": "(747) 256-9514",
    "lat": 34.185816,
    "lng": -118.4503365
  },
  {
    "id": "630019482",
    "name": "MIRACLE TOUCH HOSPICE",
    "npi": null,
    "hcaiId": "406192422",
    "businessName": "MIRACLE TOUCH HOSPICE",
    "contactEmail": "STALCUM508@GMAIL.COM",
    "categoryName": "HOSPICE",
    "categoryCode": "HOSPICE",
    "licenseStatus": "ACTIVE",
    "inService": true,
    "licenseNumber": "550005275",
    "licenseEffectiveDate": "02/06/2024",
    "licenseExpirationDate": "02/05/2026",
    "dataDate": "10/18/2025",
    "capacity": 0,
    "address": "14545 FRIAR ST, SUITE 214",
    "city": "VAN NUYS",
    "zip": "91411",
    "county": "LOS ANGELES",
    "phone": "(818) 338-6035",
    "lat": 34.185816,
    "lng": -118.4503365
  },
  {
    "id": "630017387",
    "name": "MK HOME HEALTH CARE INC.",
    "npi": "1699209734",
    "hcaiId": "406191428",
    "businessName": "MK HOME HEALTH CARE INC.",
    "contactEmail": "MKHOMEHEALTHCARE@MAIL.COM",
    "categoryName": "HOME HEALTH AGENCY",
    "categoryCode": "HHA",
    "licenseStatus": "ACTIVE",
    "inService": false,
    "licenseNumber": "550004455",
    "licenseEffectiveDate": "12/03/2024",
    "licenseExpirationDate": "12/02/2025",
    "dataDate": "10/18/2025",
    "capacity": 0,
    "address": "14545 FRIAR ST, SUITE 117",
    "city": "VAN NUYS",
    "zip": "91411",
    "county": "LOS ANGELES",
    "phone": "(818) 849-5684",
    "lat": 34.185816,
    "lng": -118.4503365
  },
  {
    "id": "630025674",
    "name": "MY FAMILIES HEALTHCARE",
    "npi": null,
    "hcaiId": null,
    "businessName": "MY FAMILIES HEALTHCARE",
    "contactEmail": "MYFAMILIESHOMEHEALTH@GMAIL.COM",
    "categoryName": "HOME HEALTH AGENCY",
    "categoryCode": "HHA",
    "licenseStatus": "ACTIVE",
    "inService": true,
    "licenseNumber": "550008894",
    "licenseEffectiveDate": "01/04/2025",
    "licenseExpirationDate": "01/03/2026",
    "dataDate": "10/18/2025",
    "capacity": 0,
    "address": "14545 FRIAR ST, SUITE 316",
    "city": "VAN NUYS",
    "zip": "91411",
    "county": "LOS ANGELES",
    "phone": "(818) 935-1687",
    "lat": 34.185816,
    "lng": -118.4503365
  },
  {
    "id": "630013715",
    "name": "NATIONWIDE HOME HEALTH CARE, INC.",
    "npi": "1962782243",
    "hcaiId": "406197938",
    "businessName": "NATIONWIDE HOME HEALTH CARE, INC.",
    "contactEmail": "NATIONWIDEHOMEHEALTH@LIVE.COM",
    "categoryName": "HOME HEALTH AGENCY",
    "categoryCode": "HHA",
    "licenseStatus": "ACTIVE",
    "inService": true,
    "licenseNumber": "550002359",
    "licenseEffectiveDate": "06/16/2025",
    "licenseExpirationDate": "06/15/2026",
    "dataDate": "10/18/2025",
    "capacity": 0,
    "address": "5900 SEPULVEDA BLVD, SUITE 340",
    "city": "VAN NUYS",
    "zip": "91411",
    "county": "LOS ANGELES",
    "phone": "(818) 657-0353",
    "lat": 34.177545,
    "lng": -118.465452
  },
  {
    "id": "630022014",
    "name": "NATURES CARE HOSPICE",
    "npi": null,
    "hcaiId": "406190073",
    "businessName": "NATURES CARE HOSPICE",
    "contactEmail": "NATURECAREHOSPICE@GMAIL.COM",
    "categoryName": "HOSPICE",
    "categoryCode": "HOSPICE",
    "licenseStatus": "ACTIVE",
    "inService": true,
    "licenseNumber": "550007580",
    "licenseEffectiveDate": "12/17/2023",
    "licenseExpirationDate": "12/16/2025",
    "dataDate": "10/18/2025",
    "capacity": 0,
    "address": "14545 FRIAR ST, SUITE 196",
    "city": "VAN NUYS",
    "zip": "91411",
    "county": "LOS ANGELES",
    "phone": "(747) 286-6880",
    "lat": 34.185816,
    "lng": -118.4503365
  },
  {
    "id": "630026048",
    "name": "NAUTILIUS HOMECARE",
    "npi": null,
    "hcaiId": null,
    "businessName": "NAUTILIUS HOMECARE",
    "contactEmail": "NAUTILIUSHOMEHEALTH@GMAIL.COM",
    "categoryName": "HOME HEALTH AGENCY",
    "categoryCode": "HHA",
    "licenseStatus": "ACTIVE",
    "inService": true,
    "licenseNumber": "550009632",
    "licenseEffectiveDate": "07/06/2025",
    "licenseExpirationDate": "01/05/2026",
    "dataDate": "10/18/2025",
    "capacity": 0,
    "address": "14545 FRIAR ST, SUITE 312",
    "city": "VAN NUYS",
    "zip": "91411",
    "county": "LOS ANGELES",
    "phone": "(818) 516-4565",
    "lat": 34.185816,
    "lng": -118.4503365
  },
  {
    "id": "630018479",
    "name": "NELNAR HOME HEALTH CARE, INC.",
    "npi": null,
    "hcaiId": "406191786",
    "businessName": "NELNAR HOME HEALTH CARE, INC.",
    "contactEmail": "NELNARHOMEHEALTHCARE@YAHOO.COM",
    "categoryName": "HOME HEALTH AGENCY",
    "categoryCode": "HHA",
    "licenseStatus": "ACTIVE",
    "inService": true,
    "licenseNumber": "550004916",
    "licenseEffectiveDate": "09/06/2023",
    "licenseExpirationDate": "09/05/2024",
    "dataDate": "10/18/2025",
    "capacity": 0,
    "address": "14640 VICTORY BLVD, SUITE 217",
    "city": "VAN NUYS",
    "zip": "91411",
    "county": "LOS ANGELES",
    "phone": "(818) 616-3345",
    "lat": 34.186428,
    "lng": -118.452402
  },
  {
    "id": "630026511",
    "name": "NH HOMECARE INC",
    "npi": null,
    "hcaiId": "406190344",
    "businessName": "NH HOMECARE INC",
    "contactEmail": "NHHOMECARE1@GMAIL.COM",
    "categoryName": "HOME HEALTH AGENCY",
    "categoryCode": "HHA",
    "licenseStatus": "ACTIVE",
    "inService": true,
    "licenseNumber": "550009090",
    "licenseEffectiveDate": "04/24/2025",
    "licenseExpirationDate": "04/23/2026",
    "dataDate": "10/18/2025",
    "capacity": 0,
    "address": "14540 VICTORY BLVD, SUITE 208B",
    "city": "VAN NUYS",
    "zip": "91411",
    "county": "LOS ANGELES",
    "phone": "(818) 927-4199",
    "lat": 34.186446,
    "lng": -118.4502465
  },
  {
    "id": "630026005",
    "name": "NIRVANA HOME HEALTH CARE, INC",
    "npi": null,
    "hcaiId": null,
    "businessName": "NIRVANA HOME HEALTH CARE, INC",
    "contactEmail": "NIRVANAHH@YAHOO.COM",
    "categoryName": "HOME HEALTH AGENCY",
    "categoryCode": "HHA",
    "licenseStatus": "ACTIVE",
    "inService": true,
    "licenseNumber": "550009778",
    "licenseEffectiveDate": "10/29/2025",
    "licenseExpirationDate": "04/28/2026",
    "dataDate": "10/18/2025",
    "capacity": 0,
    "address": "14531 HAMLIN ST, SUITE 240",
    "city": "VAN NUYS",
    "zip": "91411",
    "county": "LOS ANGELES",
    "phone": "(818) 666-4978",
    "lat": 34.188849,
    "lng": -118.449882
  },
  {
    "id": "630017141",
    "name": "NOURISH HOME HEALTH SERVICES, INC.",
    "npi": "1255874152",
    "hcaiId": "406191314",
    "businessName": "NOURISH HOME HEALTH SERVICES, INC.",
    "contactEmail": "NOURISHHH@YAHOO.COM",
    "categoryName": "HOME HEALTH AGENCY",
    "categoryCode": "HHA",
    "licenseStatus": "ACTIVE",
    "inService": true,
    "licenseNumber": "550004338",
    "licenseEffectiveDate": "08/11/2025",
    "licenseExpirationDate": "08/10/2026",
    "dataDate": "10/18/2025",
    "capacity": 0,
    "address": "14545 FRIAR ST, SUITE 208",
    "city": "VAN NUYS",
    "zip": "91411",
    "county": "LOS ANGELES",
    "phone": "(747) 208-6100",
    "lat": 34.185816,
    "lng": -118.4503365
  },
  {
    "id": "630025636",
    "name": "NOVAMED HOME HEALTH, INC.",
    "npi": null,
    "hcaiId": null,
    "businessName": "NOVAMED HOME HEALTH, INC.",
    "contactEmail": "NOVAMEDHH@GMAIL.COM",
    "categoryName": "HOME HEALTH AGENCY",
    "categoryCode": "HHA",
    "licenseStatus": "ACTIVE",
    "inService": true,
    "licenseNumber": "550008965",
    "licenseEffectiveDate": "01/12/2025",
    "licenseExpirationDate": "01/11/2026",
    "dataDate": "10/18/2025",
    "capacity": 0,
    "address": "14545 FRIAR ST, SUITE 277",
    "city": "VAN NUYS",
    "zip": "91411",
    "county": "LOS ANGELES",
    "phone": "(818) 630-9922",
    "lat": 34.185816,
    "lng": -118.4503365
  },
  {
    "id": "630023455",
    "name": "NURSE ANGELES HOME HEALTH CARE, INC.",
    "npi": null,
    "hcaiId": "406195500",
    "businessName": "NURSE ANGELES HOME HEALTH CARE, INC.",
    "contactEmail": "NURSEANGELES@YAHOO.COM",
    "categoryName": "HOME HEALTH AGENCY",
    "categoryCode": "HHA",
    "licenseStatus": "ACTIVE",
    "inService": true,
    "licenseNumber": "550008119",
    "licenseEffectiveDate": "07/29/2025",
    "licenseExpirationDate": "07/28/2026",
    "dataDate": "10/18/2025",
    "capacity": 0,
    "address": "14833 BURBANK BLVD",
    "city": "VAN NUYS",
    "zip": "91411",
    "county": "LOS ANGELES",
    "phone": "(707) 666-7000",
    "lat": 34.172343,
    "lng": -118.456398
  },
  {
    "id": "630026513",
    "name": "OPEN ARMS HOME CARE, INC.",
    "npi": null,
    "hcaiId": null,
    "businessName": "OPEN ARMS HOME CARE, INC.",
    "contactEmail": "OPENARMSHOME24@GMAIL.COM",
    "categoryName": "HOME HEALTH AGENCY",
    "categoryCode": "HHA",
    "licenseStatus": "ACTIVE",
    "inService": true,
    "licenseNumber": "550009259",
    "licenseEffectiveDate": "07/16/2025",
    "licenseExpirationDate": "07/15/2026",
    "dataDate": "10/18/2025",
    "capacity": 0,
    "address": "14545 FRIAR ST, SUITE 318",
    "city": "VAN NUYS",
    "zip": "91411",
    "county": "LOS ANGELES",
    "phone": "(818) 616-9041",
    "lat": 34.185816,
    "lng": -118.4503365
  },
  {
    "id": "630007547",
    "name": "OPTIMUM MA HOME HEALTH CARE, INC.",
    "npi": "1508379181",
    "hcaiId": "406196835",
    "businessName": "OPTIMUM MA HOME HEALTH CARE, INC.",
    "contactEmail": "OPTIMUMHOMEHEALTHINC@YAHOO.COM",
    "categoryName": "HOME HEALTH AGENCY",
    "categoryCode": "HHA",
    "licenseStatus": "ACTIVE",
    "inService": true,
    "licenseNumber": "550000298",
    "licenseEffectiveDate": "11/13/2025",
    "licenseExpirationDate": "11/12/2026",
    "dataDate": "10/18/2025",
    "capacity": 0,
    "address": "5658 SEPULVEDA BLVD, SUITE 208",
    "city": "VAN NUYS",
    "zip": "91411",
    "county": "LOS ANGELES",
    "phone": "(818) 290-3331",
    "lat": 34.173738,
    "lng": -118.4658975
  },
  {
    "id": "630025658",
    "name": "ORBIT HOME HEALTH INC",
    "npi": null,
    "hcaiId": null,
    "businessName": "ORBIT HOME HEALTH INC",
    "contactEmail": "ORBITHOMEHEALTH@YAHOO.COM",
    "categoryName": "HOME HEALTH AGENCY",
    "categoryCode": "HHA",
    "licenseStatus": "ACTIVE",
    "inService": true,
    "licenseNumber": "550009158",
    "licenseEffectiveDate": "05/10/2025",
    "licenseExpirationDate": "05/09/2026",
    "dataDate": "10/18/2025",
    "capacity": 0,
    "address": "14640 VICTORY BLVD, SUITE 204",
    "city": "VAN NUYS",
    "zip": "91411",
    "county": "LOS ANGELES",
    "phone": "(818) 510-0882",
    "lat": 34.186446,
    "lng": -118.45224
  },
  {
    "id": "630025283",
    "name": "OUTSTANDING HOME HEALTH INC.",
    "npi": null,
    "hcaiId": "406190165",
    "businessName": "OUTSTANDING HOME HEALTH INC.",
    "contactEmail": "OUTSTANDINGHH@YAHOO.COM",
    "categoryName": "HOME HEALTH AGENCY",
    "categoryCode": "HHA",
    "licenseStatus": "ACTIVE",
    "inService": true,
    "licenseNumber": "550008908",
    "licenseEffectiveDate": "05/22/2024",
    "licenseExpirationDate": "11/21/2024",
    "dataDate": "10/18/2025",
    "capacity": 0,
    "address": "14545 FRIAR ST, SUITE 116",
    "city": "VAN NUYS",
    "zip": "91411",
    "county": "LOS ANGELES",
    "phone": "(818) 849-6974",
    "lat": 34.185816,
    "lng": -118.4503365
  },
  {
    "id": "630025512",
    "name": "PARADISE GARDEN HOME HEALTH, INC",
    "npi": null,
    "hcaiId": null,
    "businessName": "PARADISE GARDEN HOME HEALTH, INC",
    "contactEmail": "PARADISEGARDENHOMEHEALTH@GMAIL.COM",
    "categoryName": "HOME HEALTH AGENCY",
    "categoryCode": "HHA",
    "licenseStatus": "ACTIVE",
    "inService": true,
    "licenseNumber": "550009470",
    "licenseEffectiveDate": "03/01/2025",
    "licenseExpirationDate": "08/31/2025",
    "dataDate": "10/18/2025",
    "capacity": 0,
    "address": "14545 FRIAR ST, SUITE 130",
    "city": "VAN NUYS",
    "zip": "91411",
    "county": "LOS ANGELES",
    "phone": "(747) 285-4646",
    "lat": 34.18572831,
    "lng": -118.4500665
  },
  {
    "id": "630021046",
    "name": "PARADISE HOSPICE CARE, INC.",
    "npi": null,
    "hcaiId": "406194922",
    "businessName": "PARADISE HOSPICE CARE, INC.",
    "contactEmail": "PARADISEHOSPICECAREINC@GMAIL.COM",
    "categoryName": "HOSPICE",
    "categoryCode": "HOSPICE",
    "licenseStatus": "ACTIVE",
    "inService": true,
    "licenseNumber": "550007065",
    "licenseEffectiveDate": "10/15/2023",
    "licenseExpirationDate": "10/14/2025",
    "dataDate": "10/18/2025",
    "capacity": 0,
    "address": "14545 FRIAR ST, SUITE 149",
    "city": "VAN NUYS",
    "zip": "91411",
    "county": "LOS ANGELES",
    "phone": "(818) 925-0595",
    "lat": 34.185816,
    "lng": -118.4503365
  },
  {
    "id": "630025419",
    "name": "PEACEFUL HOME HEALTH, INC.",
    "npi": null,
    "hcaiId": "406190059",
    "businessName": "PEACEFUL HOME HEALTH, INC.",
    "contactEmail": "PEACEFULHOMEHEALTH@GMAIL.COM",
    "categoryName": "HOME HEALTH AGENCY",
    "categoryCode": "HHA",
    "licenseStatus": "ACTIVE",
    "inService": true,
    "licenseNumber": "550008602",
    "licenseEffectiveDate": "06/16/2025",
    "licenseExpirationDate": "06/15/2026",
    "dataDate": "10/18/2025",
    "capacity": 0,
    "address": "14545 FRIAR ST, SUITE 357",
    "city": "VAN NUYS",
    "zip": "91411",
    "county": "LOS ANGELES",
    "phone": "(800) 520-2119",
    "lat": 34.185816,
    "lng": -118.4503365
  },
  {
    "id": "630021044",
    "name": "PEACEFUL HOSPICE, INC.",
    "npi": null,
    "hcaiId": "406195959",
    "businessName": "PEACEFUL HOSPICE, INC.",
    "contactEmail": "PEACEFULHOSPICE@GMAIL.COM",
    "categoryName": "HOSPICE",
    "categoryCode": "HOSPICE",
    "licenseStatus": "ACTIVE",
    "inService": true,
    "licenseNumber": "550006634",
    "licenseEffectiveDate": "08/13/2025",
    "licenseExpirationDate": "08/12/2027",
    "dataDate": "10/18/2025",
    "capacity": 0,
    "address": "14545 FRIAR ST, SUITE 253",
    "city": "VAN NUYS",
    "zip": "91411",
    "county": "LOS ANGELES",
    "phone": "(818) 208-9467",
    "lat": 34.185816,
    "lng": -118.4503365
  },
  {
    "id": "630020896",
    "name": "PERENNIAL HOME HEALTH SERVICES, INC.",
    "npi": null,
    "hcaiId": "406193468",
    "businessName": "PERENNIAL HOME HEALTH SERVICES, INC.",
    "contactEmail": "HOMEHEALTH@PHHH.ORG",
    "categoryName": "HOME HEALTH AGENCY",
    "categoryCode": "HHA",
    "licenseStatus": "ACTIVE",
    "inService": true,
    "licenseNumber": "550006952",
    "licenseEffectiveDate": "10/12/2024",
    "licenseExpirationDate": "10/11/2025",
    "dataDate": "10/18/2025",
    "capacity": 0,
    "address": "14664 VICTORY BLVD, SUITE 102",
    "city": "VAN NUYS",
    "zip": "91411",
    "county": "LOS ANGELES",
    "phone": "(818) 477-0717",
    "lat": 34.186437,
    "lng": -118.4529375
  },
  {
    "id": "630022034",
    "name": "PINEY CREEK HOSPICE CARE",
    "npi": null,
    "hcaiId": "406197351",
    "businessName": "PINEY CREEK HOSPICE CARE",
    "contactEmail": "PINEYCREEKHOSPICE@GMAIL.COM",
    "categoryName": "HOSPICE",
    "categoryCode": "HOSPICE",
    "licenseStatus": "ACTIVE",
    "inService": true,
    "licenseNumber": "550007508",
    "licenseEffectiveDate": "12/08/2023",
    "licenseExpirationDate": "12/07/2025",
    "dataDate": "10/18/2025",
    "capacity": 0,
    "address": "14545 FRIAR ST, SUITE 145",
    "city": "VAN NUYS",
    "zip": "91411",
    "county": "LOS ANGELES",
    "phone": "(747) 877-2008",
    "lat": 34.185816,
    "lng": -118.4503365
  },
  {
    "id": "630021643",
    "name": "PINK SISTERS HOSPICE INC.",
    "npi": null,
    "hcaiId": "406193824",
    "businessName": "PINK SISTERS HOSPICE INC",
    "contactEmail": "PINKSISTERSHOSPICEINC@GMAIL.COM",
    "categoryName": "HOSPICE",
    "categoryCode": "HOSPICE",
    "licenseStatus": "ACTIVE",
    "inService": true,
    "licenseNumber": "550007227",
    "licenseEffectiveDate": "11/19/2023",
    "licenseExpirationDate": "11/18/2025",
    "dataDate": "10/18/2025",
    "capacity": 0,
    "address": "14545 FRIAR ST, SUITE 146-A",
    "city": "VAN NUYS",
    "zip": "91411",
    "county": "LOS ANGELES",
    "phone": "(747) 247-3754",
    "lat": 34.185816,
    "lng": -118.4503365
  },
  {
    "id": "630012096",
    "name": "PLEASANT DAY HOSPICE, INC.",
    "npi": null,
    "hcaiId": "406197377",
    "businessName": "PLEASANT DAY HOSPICE, INC.",
    "contactEmail": "PDHSTAFF@GMAIL.COM",
    "categoryName": "HOSPICE",
    "categoryCode": "HOSPICE",
    "licenseStatus": "ACTIVE",
    "inService": true,
    "licenseNumber": "550001248",
    "licenseEffectiveDate": "06/19/2024",
    "licenseExpirationDate": "06/18/2026",
    "dataDate": "10/18/2025",
    "capacity": 0,
    "address": "6737 SEPULVEDA BLVD",
    "city": "VAN NUYS",
    "zip": "91411",
    "county": "LOS ANGELES",
    "phone": "(818) 698-2277",
    "lat": 34.193268,
    "lng": -118.466451
  },
  {
    "id": "630021157",
    "name": "PRECIOUS HANDS HOSPICE, INC.",
    "npi": null,
    "hcaiId": "406193286",
    "businessName": "PRECIOUS HANDS HOSPICE, INC.",
    "contactEmail": "PRECIOUSHANDSHOSPICEINC@GMAIL.COM",
    "categoryName": "HOSPICE",
    "categoryCode": "HOSPICE",
    "licenseStatus": "ACTIVE",
    "inService": true,
    "licenseNumber": "550007109",
    "licenseEffectiveDate": "10/29/2023",
    "licenseExpirationDate": "10/28/2025",
    "dataDate": "10/18/2025",
    "capacity": 0,
    "address": "14545 FRIAR ST, SUITE 144-A",
    "city": "VAN NUYS",
    "zip": "91411",
    "county": "LOS ANGELES",
    "phone": "(747) 247-3758",
    "lat": 34.185816,
    "lng": -118.4503365
  },
  {
    "id": "630018846",
    "name": "PRIMARY CARE HOMEHEALTHCARE INC",
    "npi": "1639632078",
    "hcaiId": "406192360",
    "businessName": "PRIMARY CARE HOMEHEALTHCARE INC",
    "contactEmail": "PRIMARYCAREHOMEHEALTHCARE@GMAIL.COM",
    "categoryName": "HOME HEALTH AGENCY",
    "categoryCode": "HHA",
    "licenseStatus": "ACTIVE",
    "inService": true,
    "licenseNumber": "550005261",
    "licenseEffectiveDate": "01/24/2025",
    "licenseExpirationDate": "01/23/2026",
    "dataDate": "10/18/2025",
    "capacity": 0,
    "address": "14545 FRIAR ST, SUITE 203-2",
    "city": "VAN NUYS",
    "zip": "91411",
    "county": "LOS ANGELES",
    "phone": "(818) 736-5585",
    "lat": 34.185816,
    "lng": -118.4503365
  },
  {
    "id": "630022168",
    "name": "PRIMARY CHOICE HOME HEALTH CARE, INC.",
    "npi": null,
    "hcaiId": "406193260",
    "businessName": "PRIMARY CHOICE HOME HEALTH CARE, INC",
    "contactEmail": "PRIMARYCHOICEHH@GMAIL.COM",
    "categoryName": "HOME HEALTH AGENCY",
    "categoryCode": "HHA",
    "licenseStatus": "ACTIVE",
    "inService": true,
    "licenseNumber": "550006773",
    "licenseEffectiveDate": "09/10/2025",
    "licenseExpirationDate": "09/09/2026",
    "dataDate": "10/18/2025",
    "capacity": 0,
    "address": "5658 SEPULVEDA BLVD, SUITE 302",
    "city": "VAN NUYS",
    "zip": "91411",
    "county": "LOS ANGELES",
    "phone": "(818) 901-2690",
    "lat": 34.173738,
    "lng": -118.4658975
  },
  {
    "id": "630024126",
    "name": "PRIMARY SELECTION HOME HEALTH CARE, INC.",
    "npi": null,
    "hcaiId": "406196536",
    "businessName": "PRIMARY SELECTION HOME HEALTH CARE, INC.",
    "contactEmail": "PRIMARYSELECTIONHHC@GMAIL.COM",
    "categoryName": "HOME HEALTH AGENCY",
    "categoryCode": "HHA",
    "licenseStatus": "ACTIVE",
    "inService": true,
    "licenseNumber": "550008147",
    "licenseEffectiveDate": "11/13/2025",
    "licenseExpirationDate": "08/28/2026",
    "dataDate": "10/18/2025",
    "capacity": 0,
    "address": "14531 HAMLIN ST, SUITE 135",
    "city": "VAN NUYS",
    "zip": "91411",
    "county": "LOS ANGELES",
    "phone": "(747) 666-1677",
    "lat": 34.188984,
    "lng": -118.449891
  },
  {
    "id": "630025201",
    "name": "PRIME 1 HOME HEALTH",
    "npi": null,
    "hcaiId": "406190022",
    "businessName": "PRIME 1 HOME HEALTH",
    "contactEmail": "SEROP.STEPANYAN@GMAIL.COM",
    "categoryName": "HOME HEALTH AGENCY",
    "categoryCode": "HHA",
    "licenseStatus": "ACTIVE",
    "inService": true,
    "licenseNumber": "550008300",
    "licenseEffectiveDate": "09/04/2025",
    "licenseExpirationDate": "12/27/2025",
    "dataDate": "10/18/2025",
    "capacity": 0,
    "address": "14531 HAMLIN ST, SUITE 106",
    "city": "VAN NUYS",
    "zip": "91411",
    "county": "LOS ANGELES",
    "phone": "(818) 582-3656",
    "lat": 34.188849,
    "lng": -118.449882
  },
  {
    "id": "630026952",
    "name": "PRIME CARE SERVICES, INC",
    "npi": null,
    "hcaiId": null,
    "businessName": "PRIME CARE SERVICES, INC",
    "contactEmail": "PRIMECARES4@GMAIL.COM",
    "categoryName": "HOME HEALTH AGENCY",
    "categoryCode": "HHA",
    "licenseStatus": "ACTIVE",
    "inService": true,
    "licenseNumber": "550009377",
    "licenseEffectiveDate": "09/09/2025",
    "licenseExpirationDate": "09/08/2026",
    "dataDate": "10/18/2025",
    "capacity": 0,
    "address": "14545 FRIAR ST, SUITE 120",
    "city": "VAN NUYS",
    "zip": "91411",
    "county": "LOS ANGELES",
    "phone": "(818) 646-1260",
    "lat": 34.185816,
    "lng": -118.4503365
  },
  {
    "id": "630018138",
    "name": "PROVIDA HOME HEALTH, INC.",
    "npi": null,
    "hcaiId": "406191768",
    "businessName": "PROVIDA HOME HEALTH, INC.",
    "contactEmail": "PROVIDAHH@GMAIL.COM",
    "categoryName": "HOME HEALTH AGENCY",
    "categoryCode": "HHA",
    "licenseStatus": "ACTIVE",
    "inService": true,
    "licenseNumber": "550004795",
    "licenseEffectiveDate": "05/16/2025",
    "licenseExpirationDate": "05/15/2026",
    "dataDate": "10/18/2025",
    "capacity": 0,
    "address": "14545 VICTORY BLVD, SUITE 418",
    "city": "VAN NUYS",
    "zip": "91411",
    "county": "LOS ANGELES",
    "phone": "(818) 528-8798",
    "lat": 34.18686,
    "lng": -118.45026
  },
  {
    "id": "630020116",
    "name": "PSL HOSPICE CARE, INC",
    "npi": null,
    "hcaiId": "406197169",
    "businessName": "PSL HOSPICE CARE, INC",
    "contactEmail": "PSLHOSPICE@YAHOO.COM",
    "categoryName": "HOSPICE",
    "categoryCode": "HOSPICE",
    "licenseStatus": "ACTIVE",
    "inService": true,
    "licenseNumber": "550006156",
    "licenseEffectiveDate": "03/31/2023",
    "licenseExpirationDate": "03/30/2025",
    "dataDate": "10/18/2025",
    "capacity": 0,
    "address": "14545 FRIAR ST, SUITE 202 U",
    "city": "VAN NUYS",
    "zip": "91411",
    "county": "LOS ANGELES",
    "phone": "(747) 224-1637",
    "lat": 34.185816,
    "lng": -118.4503365
  },
  {
    "id": "630020940",
    "name": "PURE COMFORT HOSPICE CARE INC",
    "npi": null,
    "hcaiId": "406193765",
    "businessName": "PURE COMFORT HOSPICE CARE INC",
    "contactEmail": "PURECOMFORTCARE@GMAIL.COM",
    "categoryName": "HOSPICE",
    "categoryCode": "HOSPICE",
    "licenseStatus": "ACTIVE",
    "inService": true,
    "licenseNumber": "550006700",
    "licenseEffectiveDate": "08/16/2023",
    "licenseExpirationDate": "08/15/2025",
    "dataDate": "10/18/2025",
    "capacity": 0,
    "address": "5658 SEPULVEDA BLVD, SUITE 213",
    "city": "VAN NUYS",
    "zip": "91411",
    "county": "LOS ANGELES",
    "phone": "(818) 922-2622",
    "lat": 34.173738,
    "lng": -118.4658975
  },
  {
    "id": "630025503",
    "name": "QUEEN ANGELS HOME HEALTH INC",
    "npi": null,
    "hcaiId": null,
    "businessName": "QUEEN ANGELS HOME HEALTH INC",
    "contactEmail": "QUEENANGELSHOMEHEALTH@GMAIL.COM",
    "categoryName": "HOME HEALTH AGENCY",
    "categoryCode": "HHA",
    "licenseStatus": "ACTIVE",
    "inService": true,
    "licenseNumber": "550009269",
    "licenseEffectiveDate": "04/04/2025",
    "licenseExpirationDate": "07/11/2025",
    "dataDate": "10/18/2025",
    "capacity": 0,
    "address": "14545 FRIAR ST, SUITE 124",
    "city": "VAN NUYS",
    "zip": "91411",
    "county": "LOS ANGELES",
    "phone": "(626) 841-7755",
    "lat": 34.185913,
    "lng": -118.45035
  },
  {
    "id": "630022356",
    "name": "RADIANT HOSPICE CARE INC",
    "npi": null,
    "hcaiId": "406195119",
    "businessName": "RADIANT HOSPICE CARE INC",
    "contactEmail": "OFFICE@RADIANTHOSPICE.CO",
    "categoryName": "HOSPICE",
    "categoryCode": "HOSPICE",
    "licenseStatus": "ACTIVE",
    "inService": true,
    "licenseNumber": "550007517",
    "licenseEffectiveDate": "11/17/2025",
    "licenseExpirationDate": "12/17/2025",
    "dataDate": "10/18/2025",
    "capacity": 0,
    "address": "14545 FRIAR ST, SUITE 187B",
    "city": "VAN NUYS",
    "zip": "91411",
    "county": "LOS ANGELES",
    "phone": "(818) 285-8682",
    "lat": 34.185816,
    "lng": -118.4503365
  },
  {
    "id": "630025712",
    "name": "RAPIDE HEALTHCARE",
    "npi": null,
    "hcaiId": null,
    "businessName": "RAPIDE HEALTHCARE",
    "contactEmail": "RAPIDEHEALTHCARE@GMAIL.COM",
    "categoryName": "HOME HEALTH AGENCY",
    "categoryCode": "HHA",
    "licenseStatus": "ACTIVE",
    "inService": true,
    "licenseNumber": "550009149",
    "licenseEffectiveDate": "09/08/2024",
    "licenseExpirationDate": "03/07/2025",
    "dataDate": "10/18/2025",
    "capacity": 0,
    "address": "14545 FRIAR ST, SUITE 390",
    "city": "VAN NUYS",
    "zip": "91411",
    "county": "LOS ANGELES",
    "phone": "(818) 516-4565",
    "lat": 34.185816,
    "lng": -118.4503365
  },
  {
    "id": "630025717",
    "name": "RAYS OF HOPE HOME HEALTH SERVICES INC",
    "npi": null,
    "hcaiId": "406190293",
    "businessName": "RAYS OF HOPE HOME HEALTH SERVICES INC",
    "contactEmail": "RAYSOFHOMEHOMEHEALTHSERVICES@GMAIL.COM",
    "categoryName": "HOME HEALTH AGENCY",
    "categoryCode": "HHA",
    "licenseStatus": "ACTIVE",
    "inService": true,
    "licenseNumber": "550008995",
    "licenseEffectiveDate": "03/04/2025",
    "licenseExpirationDate": "03/03/2026",
    "dataDate": "10/18/2025",
    "capacity": 0,
    "address": "14545 FRIAR ST, SUITE 223",
    "city": "VAN NUYS",
    "zip": "91411",
    "county": "LOS ANGELES",
    "phone": "(626) 487-5595",
    "lat": 34.185816,
    "lng": -118.4503365
  },
  {
    "id": "630026677",
    "name": "READY FIRST HOME HEALTH, INC.",
    "npi": null,
    "hcaiId": null,
    "businessName": "READY FIRST HOME HEALTH, INC.",
    "contactEmail": "READYFIRSTHH@GMAIL.COM",
    "categoryName": "HOME HEALTH AGENCY",
    "categoryCode": "HHA",
    "licenseStatus": "ACTIVE",
    "inService": true,
    "licenseNumber": "550009236",
    "licenseEffectiveDate": "06/21/2025",
    "licenseExpirationDate": "06/20/2026",
    "dataDate": "10/18/2025",
    "capacity": 0,
    "address": "14540 VICTORY BLVD, SUITE 213",
    "city": "VAN NUYS",
    "zip": "91411",
    "county": "LOS ANGELES",
    "phone": "(818) 300-7736",
    "lat": 34.186446,
    "lng": -118.4502465
  },
  {
    "id": "630019680",
    "name": "RECOVERY ROAD HOME HEALTH INC",
    "npi": "1407494180",
    "hcaiId": "406192529",
    "businessName": "RECOVERY ROAD HOME HEALTH INC",
    "contactEmail": "RECOVERYROADHH@GMAIL.COM",
    "categoryName": "HOME HEALTH AGENCY",
    "categoryCode": "HHA",
    "licenseStatus": "ACTIVE",
    "inService": true,
    "licenseNumber": "550005457",
    "licenseEffectiveDate": "05/14/2025",
    "licenseExpirationDate": "05/13/2026",
    "dataDate": "10/18/2025",
    "capacity": 0,
    "address": "14545 FRIAR ST, SUITE 162",
    "city": "VAN NUYS",
    "zip": "91411",
    "county": "LOS ANGELES",
    "phone": "(818) 813-9151",
    "lat": 34.185816,
    "lng": -118.4503365
  },
  {
    "id": "630019653",
    "name": "RELYABLE HOME CARE SERVICES INC.",
    "npi": null,
    "hcaiId": "406190134",
    "businessName": "RELYABLE HOME CARE SERVICES INC.",
    "contactEmail": "RELYABLEHOME@YAHOO.COM",
    "categoryName": "HOME HEALTH AGENCY",
    "categoryCode": "HHA",
    "licenseStatus": "ACTIVE",
    "inService": true,
    "licenseNumber": "550008624",
    "licenseEffectiveDate": "06/24/2025",
    "licenseExpirationDate": "06/23/2026",
    "dataDate": "10/18/2025",
    "capacity": 0,
    "address": "14545 FRIAR ST, SUITE 172",
    "city": "VAN NUYS",
    "zip": "91411",
    "county": "LOS ANGELES",
    "phone": "(888) 855-2410",
    "lat": 34.185816,
    "lng": -118.4503365
  },
  {
    "id": "630025389",
    "name": "RG HOME HEALTH INC",
    "npi": null,
    "hcaiId": "406196434",
    "businessName": "RG HOME HEALTH INC",
    "contactEmail": "RGHOMEHEALTHINC@GMAIL.COM",
    "categoryName": "HOME HEALTH AGENCY",
    "categoryCode": "HHA",
    "licenseStatus": "ACTIVE",
    "inService": true,
    "licenseNumber": "550008493",
    "licenseEffectiveDate": "04/20/2025",
    "licenseExpirationDate": "04/19/2026",
    "dataDate": "10/18/2025",
    "capacity": 0,
    "address": "14545 FRIAR ST, SUITE 355",
    "city": "VAN NUYS",
    "zip": "91411",
    "county": "LOS ANGELES",
    "phone": "(818) 285-8943",
    "lat": 34.185816,
    "lng": -118.4503365
  },
  {
    "id": "630022787",
    "name": "RHODOS HOME HEALTH",
    "npi": null,
    "hcaiId": "406195603",
    "businessName": "RHODOS HOMEHEALTH",
    "contactEmail": "RHODOSHOMEHEALTH@GMAIL.COM",
    "categoryName": "HOME HEALTH AGENCY",
    "categoryCode": "HHA",
    "licenseStatus": "ACTIVE",
    "inService": true,
    "licenseNumber": "550008172",
    "licenseEffectiveDate": "08/15/2025",
    "licenseExpirationDate": "08/14/2026",
    "dataDate": "10/18/2025",
    "capacity": 0,
    "address": "14545 FRIAR ST, SUITE 351",
    "city": "VAN NUYS",
    "zip": "91411",
    "county": "LOS ANGELES",
    "phone": "(818) 795-2953",
    "lat": 34.185816,
    "lng": -118.4503365
  },
  {
    "id": "630025003",
    "name": "RIGHT AT HOME HEALTH CARE",
    "npi": null,
    "hcaiId": "406190102",
    "businessName": "RIGHT AT HOME HEALTH CARE",
    "contactEmail": "RIGHTATHOMEH@GMAIL.COM",
    "categoryName": "HOME HEALTH AGENCY",
    "categoryCode": "HHA",
    "licenseStatus": "ACTIVE",
    "inService": true,
    "licenseNumber": "550008878",
    "licenseEffectiveDate": "09/13/2025",
    "licenseExpirationDate": "09/12/2026",
    "dataDate": "10/18/2025",
    "capacity": 0,
    "address": "14545 FRIAR ST, SUITE 399-2",
    "city": "VAN NUYS",
    "zip": "91411",
    "county": "LOS ANGELES",
    "phone": "(818) 396-9925",
    "lat": 34.185816,
    "lng": -118.4503365
  },
  {
    "id": "630020974",
    "name": "RIGHT CARE NURSE HOSPICE, INC.",
    "npi": null,
    "hcaiId": "406194905",
    "businessName": "RIGHT CARE NURSE HOSPICE INC",
    "contactEmail": "RIGHTCARENURSEHOSPICE@GMAIL.COM",
    "categoryName": "HOSPICE",
    "categoryCode": "HOSPICE",
    "licenseStatus": "ACTIVE",
    "inService": true,
    "licenseNumber": "550007211",
    "licenseEffectiveDate": "11/17/2023",
    "licenseExpirationDate": "11/16/2025",
    "dataDate": "10/18/2025",
    "capacity": 0,
    "address": "14545 FRIAR ST, SUITE 256",
    "city": "VAN NUYS",
    "zip": "91411",
    "county": "LOS ANGELES",
    "phone": "(747) 247-1190",
    "lat": 34.185816,
    "lng": -118.4503365
  },
  {
    "id": "630025884",
    "name": "RIGHT STEP HOME HEALTH",
    "npi": null,
    "hcaiId": null,
    "businessName": "RIGHT STEP HOME HEALTH",
    "contactEmail": "RIGHTSTEPHH@GMAIL.COM",
    "categoryName": "HOME HEALTH AGENCY",
    "categoryCode": "HHA",
    "licenseStatus": "ACTIVE",
    "inService": true,
    "licenseNumber": "550009273",
    "licenseEffectiveDate": "05/31/2025",
    "licenseExpirationDate": "05/30/2026",
    "dataDate": "10/18/2025",
    "capacity": 0,
    "address": "14531 HAMLIN ST, SUITE 100",
    "city": "VAN NUYS",
    "zip": "91411",
    "county": "LOS ANGELES",
    "phone": "(747) 474-4701",
    "lat": 34.188849,
    "lng": -118.449882
  },
  {
    "id": "630025601",
    "name": "ROYAL CARE HEALTHCARE SERVICES INC",
    "npi": null,
    "hcaiId": "406190167",
    "businessName": "ROYAL CARE HEALTHCARE SERVICES INC",
    "contactEmail": "ROYALCAREHCSI@GMAIL.COM",
    "categoryName": "HOME HEALTH AGENCY",
    "categoryCode": "HHA",
    "licenseStatus": "ACTIVE",
    "inService": true,
    "licenseNumber": "550008911",
    "licenseEffectiveDate": "10/27/2025",
    "licenseExpirationDate": "10/26/2026",
    "dataDate": "10/18/2025",
    "capacity": 0,
    "address": "14545 FRIAR ST, SUITE 245",
    "city": "VAN NUYS",
    "zip": "91411",
    "county": "LOS ANGELES",
    "phone": "(747) 977-3177",
    "lat": 34.185816,
    "lng": -118.4503365
  },
  {
    "id": "630025510",
    "name": "ROYAL HOME HEALTH SERVICES, INC.",
    "npi": null,
    "hcaiId": "406197950",
    "businessName": "ROYAL HOME HEALTH SERVICES, INC.",
    "contactEmail": "ROYALHOMEHEALTHSERVICES@GMAIL.COM",
    "categoryName": "HOME HEALTH AGENCY",
    "categoryCode": "HHA",
    "licenseStatus": "ACTIVE",
    "inService": true,
    "licenseNumber": "550008742",
    "licenseEffectiveDate": "03/14/2024",
    "licenseExpirationDate": "09/13/2024",
    "dataDate": "10/18/2025",
    "capacity": 0,
    "address": "14545 FRIAR ST, SUITE 191",
    "city": "VAN NUYS",
    "zip": "91411",
    "county": "LOS ANGELES",
    "phone": "(424) 313-5511",
    "lat": 34.185816,
    "lng": -118.4503365
  },
  {
    "id": "630026272",
    "name": "RSG HOME HEALTH",
    "npi": null,
    "hcaiId": null,
    "businessName": "RSG HOME HEALTH",
    "contactEmail": "RSGHOMEHEALTH@GMAIL.COM",
    "categoryName": "HOME HEALTH AGENCY",
    "categoryCode": "HHA",
    "licenseStatus": "ACTIVE",
    "inService": true,
    "licenseNumber": "550009414",
    "licenseEffectiveDate": "03/04/2025",
    "licenseExpirationDate": "09/03/2025",
    "dataDate": "10/18/2025",
    "capacity": 0,
    "address": "14545 FRIAR ST, SUITE 209",
    "city": "VAN NUYS",
    "zip": "91411",
    "county": "LOS ANGELES",
    "phone": "(850) 900-0999",
    "lat": 34.185816,
    "lng": -118.4503365
  },
  {
    "id": "630026715",
    "name": "SAFE CHOICE HOME HEALTH CARE INC",
    "npi": null,
    "hcaiId": null,
    "businessName": "SAFE CHOICE HOME HEALTH CARE INC",
    "contactEmail": "SAFECHOICEHH@GMAIL.COM",
    "categoryName": "HOME HEALTH AGENCY",
    "categoryCode": "HHA",
    "licenseStatus": "ACTIVE",
    "inService": true,
    "licenseNumber": "550009373",
    "licenseEffectiveDate": "08/15/2025",
    "licenseExpirationDate": "08/14/2026",
    "dataDate": "10/18/2025",
    "capacity": 0,
    "address": "5658 SEPULVEDA BLVD, SUITE 200",
    "city": "VAN NUYS",
    "zip": "91411",
    "county": "LOS ANGELES",
    "phone": "(818) 290-3934",
    "lat": 34.173738,
    "lng": -118.4658975
  },
  {
    "id": "630026249",
    "name": "SAFECARE HOME CARE INC.",
    "npi": null,
    "hcaiId": null,
    "businessName": "SAFECARE HOME CARE INC.",
    "contactEmail": "SAFECAREHOME21@GMAIL.COM",
    "categoryName": "HOME HEALTH AGENCY",
    "categoryCode": "HHA",
    "licenseStatus": "ACTIVE",
    "inService": true,
    "licenseNumber": "550009299",
    "licenseEffectiveDate": "07/12/2025",
    "licenseExpirationDate": "07/11/2026",
    "dataDate": "10/18/2025",
    "capacity": 0,
    "address": "14531 HAMLIN ST, UNIT 250",
    "city": "VAN NUYS",
    "zip": "91411",
    "county": "LOS ANGELES",
    "phone": "(855) 273-2826",
    "lat": 34.188849,
    "lng": -118.449882
  },
  {
    "id": "630021057",
    "name": "SALUD HOSPICE INC",
    "npi": null,
    "hcaiId": "406193770",
    "businessName": "SALUD HOSPICE INC",
    "contactEmail": "HOSPICESALUD@GMAIL.COM",
    "categoryName": "HOSPICE",
    "categoryCode": "HOSPICE",
    "licenseStatus": "ACTIVE",
    "inService": true,
    "licenseNumber": "550006914",
    "licenseEffectiveDate": "09/24/2023",
    "licenseExpirationDate": "09/23/2025",
    "dataDate": "10/18/2025",
    "capacity": 0,
    "address": "14545 FRIAR ST, SUITE 296",
    "city": "VAN NUYS",
    "zip": "91411",
    "county": "LOS ANGELES",
    "phone": "(747) 566-3540",
    "lat": 34.185816,
    "lng": -118.4503365
  },
  {
    "id": "630025897",
    "name": "SANTA ANI HEALTHCARE",
    "npi": null,
    "hcaiId": null,
    "businessName": "SANTA ANI HEALTHCARE",
    "contactEmail": "SANTAANIHOSPICE@GMAIL.COM",
    "categoryName": "HOME HEALTH AGENCY",
    "categoryCode": "HHA",
    "licenseStatus": "ACTIVE",
    "inService": true,
    "licenseNumber": "550009070",
    "licenseEffectiveDate": "10/06/2024",
    "licenseExpirationDate": "04/05/2025",
    "dataDate": "10/18/2025",
    "capacity": 0,
    "address": "14543 FRIAR ST, SUITE 299",
    "city": "VAN NUYS",
    "zip": "91411",
    "county": "LOS ANGELES",
    "phone": "(747) 264-1746",
    "lat": 34.185789,
    "lng": -118.4502735
  },
  {
    "id": "630021386",
    "name": "SERANI HOMEHEALTH",
    "npi": null,
    "hcaiId": "406193829",
    "businessName": "SERANI HOMEHEALTH",
    "contactEmail": "SERANIHOMEHEALTH@GMAIL.COM",
    "categoryName": "HOME HEALTH AGENCY",
    "categoryCode": "HHA",
    "licenseStatus": "ACTIVE",
    "inService": true,
    "licenseNumber": "550007226",
    "licenseEffectiveDate": "11/19/2024",
    "licenseExpirationDate": "11/18/2025",
    "dataDate": "10/18/2025",
    "capacity": 0,
    "address": "14545 FRIAR ST, SUITE 237E",
    "city": "VAN NUYS",
    "zip": "91411",
    "county": "LOS ANGELES",
    "phone": "(904) 990-0099",
    "lat": 34.185816,
    "lng": -118.4503365
  },
  {
    "id": "630020168",
    "name": "SHARE THE CARE HOSPICE, INC.",
    "npi": null,
    "hcaiId": "406193640",
    "businessName": "SHARE THE CARE HOSPICE, INC.",
    "contactEmail": "SHARETHECARE2020@YAHOO.COM",
    "categoryName": "HOSPICE",
    "categoryCode": "HOSPICE",
    "licenseStatus": "ACTIVE",
    "inService": true,
    "licenseNumber": "550006490",
    "licenseEffectiveDate": "06/29/2023",
    "licenseExpirationDate": "06/28/2025",
    "dataDate": "10/18/2025",
    "capacity": 0,
    "address": "14545 FRIAR ST, SUITE 180",
    "city": "VAN NUYS",
    "zip": "91411",
    "county": "LOS ANGELES",
    "phone": "(747) 262-7277",
    "lat": 34.185816,
    "lng": -118.4503365
  },
  {
    "id": "630025638",
    "name": "SHARP HOMECARE",
    "npi": null,
    "hcaiId": null,
    "businessName": "SHARP HOMECARE",
    "contactEmail": "SHARPHOMEHEALTH21@GMAIL.COM",
    "categoryName": "HOME HEALTH AGENCY",
    "categoryCode": "HHA",
    "licenseStatus": "ACTIVE",
    "inService": true,
    "licenseNumber": "550009246",
    "licenseEffectiveDate": "05/18/2025",
    "licenseExpirationDate": "05/17/2026",
    "dataDate": "10/18/2025",
    "capacity": 0,
    "address": "14545 FRIAR ST, SUITE 389",
    "city": "VAN NUYS",
    "zip": "91411",
    "county": "LOS ANGELES",
    "phone": "(909) 660-6900",
    "lat": 34.185816,
    "lng": -118.4503365
  },
  {
    "id": "630020918",
    "name": "SHEER LOVE HOSPICE",
    "npi": null,
    "hcaiId": "406194900",
    "businessName": "SHEER LOVE HOSPICE",
    "contactEmail": "SHEERLOVEHOSPICES@GMAIL.COM",
    "categoryName": "HOSPICE",
    "categoryCode": "HOSPICE",
    "licenseStatus": "ACTIVE",
    "inService": true,
    "licenseNumber": "550007209",
    "licenseEffectiveDate": "11/17/2023",
    "licenseExpirationDate": "11/16/2025",
    "dataDate": "10/18/2025",
    "capacity": 0,
    "address": "14545 FRIAR ST, SUITE 205 E",
    "city": "VAN NUYS",
    "zip": "91411",
    "county": "LOS ANGELES",
    "phone": "(818) 644-2694",
    "lat": 34.185816,
    "lng": -118.4503365
  },
  {
    "id": "630026606",
    "name": "SHELDON HOME HEALTH, INC.",
    "npi": null,
    "hcaiId": null,
    "businessName": "SHELDON HOME HEALTH, INC.",
    "contactEmail": "SHELDONHOMEHEALTH@GMAIL.COM",
    "categoryName": "HOME HEALTH AGENCY",
    "categoryCode": "HHA",
    "licenseStatus": "ACTIVE",
    "inService": true,
    "licenseNumber": "550009242",
    "licenseEffectiveDate": "01/15/2025",
    "licenseExpirationDate": "07/14/2025",
    "dataDate": "10/18/2025",
    "capacity": 0,
    "address": "14640 VICTORY BLVD, SUITE 204B",
    "city": "VAN NUYS",
    "zip": "91411",
    "county": "LOS ANGELES",
    "phone": "(818) 666-1526",
    "lat": 34.186446,
    "lng": -118.45224
  },
  {
    "id": "060001812",
    "name": "SILVER STRAND CARE ADULT DAY HEALTH CARE CENTER",
    "npi": null,
    "hcaiId": null,
    "businessName": "SILVER STRAND CARE, LLC",
    "contactEmail": "PDOFFICE@SILVERSTRANDADHC.COM",
    "categoryName": "ADULT DAY HEALTH CARE",
    "categoryCode": "ADHC",
    "licenseStatus": "ACTIVE",
    "inService": true,
    "licenseNumber": "060000629",
    "licenseEffectiveDate": "11/20/2024",
    "licenseExpirationDate": "11/19/2025",
    "dataDate": "10/18/2025",
    "capacity": 0,
    "address": "6464 VESPER AVE",
    "city": "VAN NUYS",
    "zip": "91411",
    "county": "LOS ANGELES",
    "phone": "(818) 904-9888",
    "lat": 34.188066,
    "lng": -118.450773
  },
  {
    "id": "630026947",
    "name": "SILVER WING HOME HEALTH CARE",
    "npi": null,
    "hcaiId": null,
    "businessName": "SILVER WING HOME HEALTH CARE",
    "contactEmail": "SILVERWINGHOMEHEALTHCARE@GMAIL.COM",
    "categoryName": "HOME HEALTH AGENCY",
    "categoryCode": "HHA",
    "licenseStatus": "ACTIVE",
    "inService": true,
    "licenseNumber": "550009848",
    "licenseEffectiveDate": "11/03/2025",
    "licenseExpirationDate": "05/02/2026",
    "dataDate": "10/18/2025",
    "capacity": 0,
    "address": "14545 FRIAR ST, SUITE 199-3",
    "city": "VAN NUYS",
    "zip": "91411",
    "county": "LOS ANGELES",
    "phone": "(818) 636-0941",
    "lat": 34.185816,
    "lng": -118.4503365
  },
  {
    "id": "630025376",
    "name": "SIMPLE SOUL HOME HEALTH CARE, INC.",
    "npi": null,
    "hcaiId": "406196515",
    "businessName": "SIMPLE SOUL HOME HEALTH CARE, INC.",
    "contactEmail": "SOULHOMEHEALTHCARE@GMAIL.COM",
    "categoryName": "HOME HEALTH AGENCY",
    "categoryCode": "HHA",
    "licenseStatus": "ACTIVE",
    "inService": true,
    "licenseNumber": "550008449",
    "licenseEffectiveDate": "03/22/2025",
    "licenseExpirationDate": "03/21/2026",
    "dataDate": "10/18/2025",
    "capacity": 0,
    "address": "14531 HAMLIN ST, SUITE 290",
    "city": "VAN NUYS",
    "zip": "91411",
    "county": "LOS ANGELES",
    "phone": "(747) 400-0130",
    "lat": 34.188849,
    "lng": -118.449882
  },
  {
    "id": "630018847",
    "name": "SKYLINE HOME HEALTH CARE, INC.",
    "npi": null,
    "hcaiId": "406192965",
    "businessName": "SKYLINE HOME HEALTH CARE, INC.",
    "contactEmail": "SKYLINEHHC@GMAIL.COM",
    "categoryName": "HOME HEALTH AGENCY",
    "categoryCode": "HHA",
    "licenseStatus": "ACTIVE",
    "inService": true,
    "licenseNumber": "550005817",
    "licenseEffectiveDate": "08/03/2025",
    "licenseExpirationDate": "08/02/2026",
    "dataDate": "10/18/2025",
    "capacity": 0,
    "address": "14540 VICTORY BLVD, SUITE 208",
    "city": "VAN NUYS",
    "zip": "91411",
    "county": "LOS ANGELES",
    "phone": "(747) 247-2540",
    "lat": 34.186401,
    "lng": -118.4501385
  },
  {
    "id": "630018488",
    "name": "SLL HOME HEALTH CARE, INC.",
    "npi": null,
    "hcaiId": "406191908",
    "businessName": "SLL HOME HEALTH CARE, INC.",
    "contactEmail": "SLLHOMEHEALTH@GMAIL.COM",
    "categoryName": "HOME HEALTH AGENCY",
    "categoryCode": "HHA",
    "licenseStatus": "ACTIVE",
    "inService": true,
    "licenseNumber": "550005005",
    "licenseEffectiveDate": "10/12/2023",
    "licenseExpirationDate": "10/11/2024",
    "dataDate": "10/18/2025",
    "capacity": 0,
    "address": "14545 FRIAR ST, SUITE 202I",
    "city": "VAN NUYS",
    "zip": "91411",
    "county": "LOS ANGELES",
    "phone": "(747) 877-2051",
    "lat": 34.185816,
    "lng": -118.4503365
  },
  {
    "id": "630021550",
    "name": "SM GLORY HOSPICE, INC.",
    "npi": null,
    "hcaiId": "406193683",
    "businessName": "SM GLORY HOSPICE, INC.",
    "contactEmail": "SMGLORYHOSPICE@GMAIL.COM",
    "categoryName": "HOSPICE",
    "categoryCode": "HOSPICE",
    "licenseStatus": "ACTIVE",
    "inService": true,
    "licenseNumber": "550006882",
    "licenseEffectiveDate": "09/30/2025",
    "licenseExpirationDate": "09/29/2027",
    "dataDate": "10/18/2025",
    "capacity": 0,
    "address": "14540 VICTORY BLVD, SUITE 213",
    "city": "VAN NUYS",
    "zip": "91411",
    "county": "LOS ANGELES",
    "phone": "(818) 415-7136",
    "lat": 34.186446,
    "lng": -118.4502465
  },
  {
    "id": "630027238",
    "name": "SOUTHERN CALIFORNIA MEDICAL CENTER - MOBILE UNIT 2",
    "npi": null,
    "hcaiId": null,
    "businessName": "SOUTHERN CALIFORNIA MEDICAL CENTER, INC.",
    "contactEmail": null,
    "categoryName": "PRIMARY CARE CLINIC",
    "categoryCode": "COMTYC",
    "licenseStatus": "ACTIVE",
    "inService": true,
    "licenseNumber": "550001363",
    "licenseEffectiveDate": "11/20/2025",
    "licenseExpirationDate": "11/19/2026",
    "dataDate": "10/18/2025",
    "capacity": 0,
    "address": "14550 HAYNES ST",
    "city": "VAN NUYS",
    "zip": "91411",
    "county": "LOS ANGELES",
    "phone": null,
    "lat": 34.18953398,
    "lng": -118.450649
  },
  {
    "id": "630016238",
    "name": "SOUTHERN CALIFORNIA MEDICAL CENTER - VAN NUYS",
    "npi": null,
    "hcaiId": "306198289",
    "businessName": "SOUTHERN CALIFORNIA MEDICAL CENTER, INC.",
    "contactEmail": "SBUSHERI@SCMEDCENTER.ORG",
    "categoryName": "PRIMARY CARE CLINIC",
    "categoryCode": "COMTYC",
    "licenseStatus": "ACTIVE",
    "inService": true,
    "licenseNumber": "550001363",
    "licenseEffectiveDate": "11/20/2025",
    "licenseExpirationDate": "11/19/2026",
    "dataDate": "10/18/2025",
    "capacity": 0,
    "address": "14550 HAYNES ST.",
    "city": "VAN NUYS, CA",
    "zip": "91411",
    "county": "LOS ANGELES",
    "phone": "(818) 650-6700",
    "lat": 34.189515,
    "lng": -118.4505435
  },
  {
    "id": "630024060",
    "name": "SPEEDY CARE HOME HEALTH INC",
    "npi": null,
    "hcaiId": "406195454",
    "businessName": "SPEEDY CARE HOME HEALTH, INC.",
    "contactEmail": "SPEEDYCAREHH@GMAIL.COM",
    "categoryName": "HOME HEALTH AGENCY",
    "categoryCode": "HHA",
    "licenseStatus": "ACTIVE",
    "inService": true,
    "licenseNumber": "550008077",
    "licenseEffectiveDate": "07/07/2025",
    "licenseExpirationDate": "07/06/2026",
    "dataDate": "10/18/2025",
    "capacity": 0,
    "address": "14664 VICTORY BLVD, SUITE 110",
    "city": "VAN NUYS",
    "zip": "91411",
    "county": "LOS ANGELES",
    "phone": "(818) 983-9550",
    "lat": 34.186437,
    "lng": -118.4529375
  },
  {
    "id": "630025987",
    "name": "ST ALBERT HOME HEALTH",
    "npi": null,
    "hcaiId": null,
    "businessName": "ST ALBERT HOME HEALTH",
    "contactEmail": "STALBERTHHCARE@GMAIL.COM",
    "categoryName": "HOME HEALTH AGENCY",
    "categoryCode": "HHA",
    "licenseStatus": "ACTIVE",
    "inService": true,
    "licenseNumber": "550009554",
    "licenseEffectiveDate": "04/15/2025",
    "licenseExpirationDate": "10/14/2025",
    "dataDate": "10/18/2025",
    "capacity": 0,
    "address": "14545 FRIAR ST, SUITE 202P",
    "city": "VAN NUYS",
    "zip": "91411",
    "county": "LOS ANGELES",
    "phone": "(530) 500-0550",
    "lat": 34.185816,
    "lng": -118.4503365
  },
  {
    "id": "630025989",
    "name": "ST ANUSHKA HOME HEALTH",
    "npi": null,
    "hcaiId": null,
    "businessName": "ST ANUSHKA HOME HEALTH",
    "contactEmail": "STANUSHKAHHCARE@GMAIL.COM",
    "categoryName": "HOME HEALTH AGENCY",
    "categoryCode": "HHA",
    "licenseStatus": "ACTIVE",
    "inService": true,
    "licenseNumber": "550009529",
    "licenseEffectiveDate": "05/11/2025",
    "licenseExpirationDate": "11/10/2025",
    "dataDate": "10/18/2025",
    "capacity": 0,
    "address": "14545 FRIAR ST, SUITE 202F",
    "city": "VAN NUYS",
    "zip": "91411",
    "county": "LOS ANGELES",
    "phone": "(719) 800-0800",
    "lat": 34.185816,
    "lng": -118.4503365
  },
  {
    "id": "630021943",
    "name": "ST FRANCIS PALLIATIVE AND HOSPICE CARE INC",
    "npi": null,
    "hcaiId": null,
    "businessName": "ST FRANCIS PALLIATIVE AND HOSPICE CARE INC",
    "contactEmail": "STFRANCISPANDHINC@GMAIL.COM",
    "categoryName": "HOSPICE",
    "categoryCode": "HOSPICE",
    "licenseStatus": "ACTIVE",
    "inService": true,
    "licenseNumber": "550007504",
    "licenseEffectiveDate": "12/18/2023",
    "licenseExpirationDate": "12/17/2025",
    "dataDate": "10/18/2025",
    "capacity": 0,
    "address": "14545 FRIAR ST, SUITE 337",
    "city": "VAN NUYS",
    "zip": "91411",
    "county": "LOS ANGELES",
    "phone": "(747) 264-9589",
    "lat": 34.185816,
    "lng": -118.4503365
  },
  {
    "id": "630022068",
    "name": "ST GABRIEL HOSPICE CARE, INC.",
    "npi": null,
    "hcaiId": "406195178",
    "businessName": "ST GABRIEL HOSPICE CARE, INC.",
    "contactEmail": "STGABRIELHOSPICECARE@GMAIL.COM",
    "categoryName": "HOSPICE",
    "categoryCode": "HOSPICE",
    "licenseStatus": "ACTIVE",
    "inService": true,
    "licenseNumber": "550007613",
    "licenseEffectiveDate": "12/22/2021",
    "licenseExpirationDate": "12/21/2023",
    "dataDate": "10/18/2025",
    "capacity": 0,
    "address": "14545 FRIAR ST, SUITE 327",
    "city": "VAN NUYS",
    "zip": "91411",
    "county": "LOS ANGELES",
    "phone": "(747) 264-9593",
    "lat": 34.185816,
    "lng": -118.4503365
  },
  {
    "id": "630027000",
    "name": "ST GREGORY HEALTHCARE",
    "npi": null,
    "hcaiId": null,
    "businessName": "ST GREGORY HEALTHCARE",
    "contactEmail": "STGREGORYPALLIATIVE@GMAIL.COM",
    "categoryName": "HOME HEALTH AGENCY",
    "categoryCode": "HHA",
    "licenseStatus": "ACTIVE",
    "inService": true,
    "licenseNumber": "550009856",
    "licenseEffectiveDate": "10/16/2025",
    "licenseExpirationDate": "04/15/2026",
    "dataDate": "10/18/2025",
    "capacity": 0,
    "address": "14545 FRIAR ST, SUITE 237J",
    "city": "VAN NUYS",
    "zip": "91411",
    "county": "LOS ANGELES",
    "phone": "(909) 999-0900",
    "lat": 34.185816,
    "lng": -118.4503365
  },
  {
    "id": "630021330",
    "name": "ST MIMA HOSPICE CARE INC",
    "npi": null,
    "hcaiId": null,
    "businessName": "ST MIMA HOSPICE CARE INC",
    "contactEmail": "STMIMAHOSPICECARE@GMAIL.COM",
    "categoryName": "HOSPICE",
    "categoryCode": "HOSPICE",
    "licenseStatus": "ACTIVE",
    "inService": true,
    "licenseNumber": "550007202",
    "licenseEffectiveDate": "09/24/2023",
    "licenseExpirationDate": "09/23/2025",
    "dataDate": "10/18/2025",
    "capacity": 0,
    "address": "14545 FRIAR ST, SUITE 276-A",
    "city": "VAN NUYS",
    "zip": "91411",
    "county": "LOS ANGELES",
    "phone": "(747) 281-8873",
    "lat": 34.185816,
    "lng": -118.4503365
  },
  {
    "id": "630024642",
    "name": "ST NELI HOME HEALTH CARE INC",
    "npi": null,
    "hcaiId": null,
    "businessName": "ST NELI HOME HEALTH CARE INC",
    "contactEmail": "STNELLIHOMECAREINC@GMAIL.COM",
    "categoryName": "HOME HEALTH AGENCY",
    "categoryCode": "HHA",
    "licenseStatus": "ACTIVE",
    "inService": true,
    "licenseNumber": "550009792",
    "licenseEffectiveDate": "11/05/2025",
    "licenseExpirationDate": "05/04/2026",
    "dataDate": "10/18/2025",
    "capacity": 0,
    "address": "14545 FRIAR ST, SUITE 237-D",
    "city": "VAN NUYS",
    "zip": "91411",
    "county": "LOS ANGELES",
    "phone": "(469) 333-0303",
    "lat": 34.185816,
    "lng": -118.4503365
  },
  {
    "id": "630021585",
    "name": "ST. CLARE HOSPICE",
    "npi": null,
    "hcaiId": "406193684",
    "businessName": "ST. CLARE HOSPICE",
    "contactEmail": "STCLAREHOSPICE2020@GMAIL.COM",
    "categoryName": "HOSPICE",
    "categoryCode": "HOSPICE",
    "licenseStatus": "ACTIVE",
    "inService": true,
    "licenseNumber": "550006880",
    "licenseEffectiveDate": "09/24/2025",
    "licenseExpirationDate": "09/23/2027",
    "dataDate": "10/18/2025",
    "capacity": 0,
    "address": "14545 FRIAR ST, SUITE 237",
    "city": "VAN NUYS",
    "zip": "91411",
    "county": "LOS ANGELES",
    "phone": "(747) 250-4370",
    "lat": 34.185816,
    "lng": -118.4503365
  },
  {
    "id": "630021957",
    "name": "ST. JACOB HOSPICE CARE, INC",
    "npi": null,
    "hcaiId": "406195102",
    "businessName": "ST. JACOB HOSPICE CARE, INC.",
    "contactEmail": "STJACOBHOSPICECAREINC@GMAIL.COM",
    "categoryName": "HOSPICE",
    "categoryCode": "HOSPICE",
    "licenseStatus": "ACTIVE",
    "inService": true,
    "licenseNumber": "550007472",
    "licenseEffectiveDate": "12/17/2023",
    "licenseExpirationDate": "12/16/2025",
    "dataDate": "10/18/2025",
    "capacity": 0,
    "address": "14545 FRIAR ST, SUITE 276",
    "city": "VAN NUYS",
    "zip": "91411",
    "county": "LOS ANGELES",
    "phone": "(747) 310-5426",
    "lat": 34.185816,
    "lng": -118.4503365
  },
  {
    "id": "630019530",
    "name": "ST. LILLY HOSPICE, INC.",
    "npi": "1598309163",
    "hcaiId": "406192828",
    "businessName": "ST. LILLY HOSPICE, INC.",
    "contactEmail": "STLILLYHOSPICE@YAHOO.COM",
    "categoryName": "HOSPICE",
    "categoryCode": "HOSPICE",
    "licenseStatus": "ACTIVE",
    "inService": true,
    "licenseNumber": "550005649",
    "licenseEffectiveDate": "08/14/2024",
    "licenseExpirationDate": "08/13/2026",
    "dataDate": "10/18/2025",
    "capacity": 0,
    "address": "14664 VICTORY BLVD, SUITE 100",
    "city": "VAN NUYS",
    "zip": "91411",
    "county": "LOS ANGELES",
    "phone": "(818) 862-4044",
    "lat": 34.18640699,
    "lng": -118.452909
  },
  {
    "id": "630021655",
    "name": "ST. ROSE HOSPICE CARE INC",
    "npi": null,
    "hcaiId": null,
    "businessName": "ST. ROSE HOSPICE CARE INC.",
    "contactEmail": "STROSEHOSPICECAREINC@GMAIL.COM",
    "categoryName": "HOSPICE",
    "categoryCode": "HOSPICE",
    "licenseStatus": "ACTIVE",
    "inService": true,
    "licenseNumber": "550007347",
    "licenseEffectiveDate": "11/29/2021",
    "licenseExpirationDate": "11/28/2023",
    "dataDate": "10/18/2025",
    "capacity": 0,
    "address": "14545 FRIAR ST, SUITE 198",
    "city": "VAN NUYS",
    "zip": "91411",
    "county": "LOS ANGELES",
    "phone": "(747) 247-3752",
    "lat": 34.185816,
    "lng": -118.4503365
  },
  {
    "id": "630021642",
    "name": "STO NINO HOSPICE INC.",
    "npi": null,
    "hcaiId": null,
    "businessName": "STO NINO HOSPICE INC",
    "contactEmail": "STONINOHOSPICE@GMAIL.COM",
    "categoryName": "HOSPICE",
    "categoryCode": "HOSPICE",
    "licenseStatus": "ACTIVE",
    "inService": true,
    "licenseNumber": "550007263",
    "licenseEffectiveDate": "11/19/2023",
    "licenseExpirationDate": "11/18/2025",
    "dataDate": "10/18/2025",
    "capacity": 0,
    "address": "14545 FRIAR ST, SUITE 112-A",
    "city": "VAN NUYS",
    "zip": "91411",
    "county": "LOS ANGELES",
    "phone": "(747) 755-3050",
    "lat": 34.185816,
    "lng": -118.4503365
  },
  {
    "id": "630019709",
    "name": "SUPERB HOSPICE INC",
    "npi": "1184262842",
    "hcaiId": "406195022",
    "businessName": "SUPERB HOSPICE INC",
    "contactEmail": "SUPERBHOSPICE@GMAIL.COM",
    "categoryName": "HOSPICE",
    "categoryCode": "HOSPICE",
    "licenseStatus": "ACTIVE",
    "inService": true,
    "licenseNumber": "550006029",
    "licenseEffectiveDate": "01/20/2025",
    "licenseExpirationDate": "01/19/2027",
    "dataDate": "10/18/2025",
    "capacity": 0,
    "address": "14545 FRIAR ST, SUITE 170",
    "city": "VAN NUYS",
    "zip": "91411",
    "county": "LOS ANGELES",
    "phone": "(818) 646-1910",
    "lat": 34.185816,
    "lng": -118.4503365
  },
  {
    "id": "630025525",
    "name": "SWEET ANGELS HEALTH SERVICES, INC.",
    "npi": null,
    "hcaiId": "406197565",
    "businessName": "SWEET ANGELS HEALTH SERVICES, INC.",
    "contactEmail": "SWEETANGELSHEALTHSERVICES@GMAIL.COM",
    "categoryName": "HOME HEALTH AGENCY",
    "categoryCode": "HHA",
    "licenseStatus": "ACTIVE",
    "inService": true,
    "licenseNumber": "550008722",
    "licenseEffectiveDate": "07/25/2025",
    "licenseExpirationDate": "07/24/2026",
    "dataDate": "10/18/2025",
    "capacity": 0,
    "address": "14545 FRIAR ST, SUITE 185",
    "city": "VAN NUYS",
    "zip": "91411",
    "county": "LOS ANGELES",
    "phone": "(626) 313-3434",
    "lat": 34.185816,
    "lng": -118.4503365
  },
  {
    "id": "630016245",
    "name": "T&K HOME HEALTH CARE",
    "npi": "1679940571",
    "hcaiId": "406190945",
    "businessName": "T&K HOME HEALTH CARE",
    "contactEmail": "TANDKHOMEHEALTH@GMAIL.COM",
    "categoryName": "HOME HEALTH AGENCY",
    "categoryCode": "HHA",
    "licenseStatus": "ACTIVE",
    "inService": true,
    "licenseNumber": "550004240",
    "licenseEffectiveDate": "04/20/2021",
    "licenseExpirationDate": "04/19/2022",
    "dataDate": "10/18/2025",
    "capacity": 0,
    "address": "14640 VICTORY BLVD., SUITE 204B",
    "city": "VAN NUYS",
    "zip": "91411",
    "county": "LOS ANGELES",
    "phone": "(818) 305-6393",
    "lat": 34.186338,
    "lng": -118.452402
  },
  {
    "id": "630024574",
    "name": "TATI & PAPI HOME HEALTH CARE, INC.",
    "npi": null,
    "hcaiId": "406197797",
    "businessName": "TATI & PAPI HOME HEALTH CARE, INC.",
    "contactEmail": "TATIPAPIHOMEHEALTH@GMAIL.COM",
    "categoryName": "HOME HEALTH AGENCY",
    "categoryCode": "HHA",
    "licenseStatus": "ACTIVE",
    "inService": true,
    "licenseNumber": "550008278",
    "licenseEffectiveDate": "11/29/2024",
    "licenseExpirationDate": "11/28/2025",
    "dataDate": "10/18/2025",
    "capacity": 0,
    "address": "14531 HAMLIN ST, SUITE 200",
    "city": "VAN NUYS",
    "zip": "91411",
    "county": "LOS ANGELES",
    "phone": "(747) 264-0608",
    "lat": 34.049727,
    "lng": -118.258398
  },
  {
    "id": "630019666",
    "name": "TEAMONE HOME HEALTH INC",
    "npi": null,
    "hcaiId": "406192772",
    "businessName": "TEAMONE HOME HEALTH INC",
    "contactEmail": "TEAMONEHOMEHEALTH@GMAIL.COM",
    "categoryName": "HOME HEALTH AGENCY",
    "categoryCode": "HHA",
    "licenseStatus": "ACTIVE",
    "inService": true,
    "licenseNumber": "550005498",
    "licenseEffectiveDate": "05/09/2025",
    "licenseExpirationDate": "05/08/2026",
    "dataDate": "10/18/2025",
    "capacity": 0,
    "address": "14545 FRIAR ST, SUITE 166",
    "city": "VAN NUYS",
    "zip": "91411",
    "county": "LOS ANGELES",
    "phone": "(818) 453-3816",
    "lat": 34.185816,
    "lng": -118.4503365
  },
  {
    "id": "630018455",
    "name": "THE BEST CARE EVER HOME HEALTH, INC.",
    "npi": "1831676873",
    "hcaiId": "406191684",
    "businessName": "THE BEST CARE EVER HOME HEALTH, INC.",
    "contactEmail": "THEBESTCAREEVERHH@USA.COM",
    "categoryName": "HOME HEALTH AGENCY",
    "categoryCode": "HHA",
    "licenseStatus": "ACTIVE",
    "inService": true,
    "licenseNumber": "550004716",
    "licenseEffectiveDate": "05/17/2025",
    "licenseExpirationDate": "05/16/2026",
    "dataDate": "10/18/2025",
    "capacity": 0,
    "address": "14531 HAMLIN ST, SUITE 285",
    "city": "VAN NUYS",
    "zip": "91411",
    "county": "LOS ANGELES",
    "phone": "(818) 450-0646",
    "lat": 34.188849,
    "lng": -118.449882
  },
  {
    "id": "630022002",
    "name": "THE WAY OF PARADISE HOSPICE CARE, INC",
    "npi": null,
    "hcaiId": "406195724",
    "businessName": "THE WAY OF PARADISE HOSPICE CARE, INC",
    "contactEmail": "THEWAYOFPARADISEHOSPICECARE@GMAIL.COM",
    "categoryName": "HOSPICE",
    "categoryCode": "HOSPICE",
    "licenseStatus": "ACTIVE",
    "inService": true,
    "licenseNumber": "550007695",
    "licenseEffectiveDate": "12/14/2023",
    "licenseExpirationDate": "12/13/2025",
    "dataDate": "10/18/2025",
    "capacity": 0,
    "address": "14545 FRIAR ST, SUITE 183",
    "city": "VAN NUYS",
    "zip": "91411",
    "county": "LOS ANGELES",
    "phone": "(818) 233-3923",
    "lat": 34.185816,
    "lng": -118.4503365
  },
  {
    "id": "630018618",
    "name": "TIGER HOME HEALTH",
    "npi": "1841755980",
    "hcaiId": "406192009",
    "businessName": "TIGER HOME HEALTH",
    "contactEmail": "TIGERHOMEHEALTH@GMAIL.COM",
    "categoryName": "HOME HEALTH AGENCY",
    "categoryCode": "HHA",
    "licenseStatus": "ACTIVE",
    "inService": true,
    "licenseNumber": "550005066",
    "licenseEffectiveDate": "11/05/2023",
    "licenseExpirationDate": "11/04/2024",
    "dataDate": "10/18/2025",
    "capacity": 0,
    "address": "14640 VICTORY BLVD, SUITE 211",
    "city": "VAN NUYS",
    "zip": "91411",
    "county": "LOS ANGELES",
    "phone": "(747) 247-9190",
    "lat": 34.186428,
    "lng": -118.452402
  },
  {
    "id": "630026931",
    "name": "TNA HOME HEALTH CARE, INC",
    "npi": null,
    "hcaiId": null,
    "businessName": "TNA HOME HEALTH CARE, INC",
    "contactEmail": "TNAHOMEHEALTH@YAHOO.COM",
    "categoryName": "HOME HEALTH AGENCY",
    "categoryCode": "HHA",
    "licenseStatus": "ACTIVE",
    "inService": true,
    "licenseNumber": "550009528",
    "licenseEffectiveDate": "05/19/2025",
    "licenseExpirationDate": "11/18/2025",
    "dataDate": "10/18/2025",
    "capacity": 0,
    "address": "14622 VICTORY BLVD, SUITE 103B",
    "city": "VAN NUYS",
    "zip": "91411",
    "county": "LOS ANGELES",
    "phone": "(818) 285-8732",
    "lat": 34.186437,
    "lng": -118.4517405
  },
  {
    "id": "630025632",
    "name": "TOGETHER WE CARE HEALTHCARE",
    "npi": null,
    "hcaiId": null,
    "businessName": "TOGETHER WE CARE HEALTHCARE",
    "contactEmail": "TOGETHERWECAREHH@GMAIL.COM",
    "categoryName": "HOME HEALTH AGENCY",
    "categoryCode": "HHA",
    "licenseStatus": "ACTIVE",
    "inService": true,
    "licenseNumber": "550009001",
    "licenseEffectiveDate": "03/01/2025",
    "licenseExpirationDate": "02/28/2026",
    "dataDate": "10/18/2025",
    "capacity": 0,
    "address": "14531 HAMLIN ST, SUITE 260",
    "city": "VAN NUYS",
    "zip": "91411",
    "county": "LOS ANGELES",
    "phone": "(818) 561-5146",
    "lat": 34.188849,
    "lng": -118.449882
  },
  {
    "id": "630025258",
    "name": "UNBEATABLE HOME CARE, INC.",
    "npi": null,
    "hcaiId": "406190145",
    "businessName": "UNBEATABLE HOME CARE, INC.",
    "contactEmail": "UNBEATABLEHH@GMAIL.COM",
    "categoryName": "HOME HEALTH AGENCY",
    "categoryCode": "HHA",
    "licenseStatus": "ACTIVE",
    "inService": true,
    "licenseNumber": "550008321",
    "licenseEffectiveDate": "01/09/2025",
    "licenseExpirationDate": "01/08/2026",
    "dataDate": "10/18/2025",
    "capacity": 0,
    "address": "14545 FRIAR ST, SUITE 218",
    "city": "VAN NUYS",
    "zip": "91411",
    "county": "LOS ANGELES",
    "phone": "(818) 457-6010",
    "lat": 34.185816,
    "lng": -118.4503365
  },
  {
    "id": "630025843",
    "name": "UNITED STAR HOME HEALTH CARE",
    "npi": null,
    "hcaiId": "406190169",
    "businessName": "UNITED STAR HOME HEALTH CARE",
    "contactEmail": "UNITEDSTAR2022@GMAIL.COM",
    "categoryName": "HOME HEALTH AGENCY",
    "categoryCode": "HHA",
    "licenseStatus": "ACTIVE",
    "inService": true,
    "licenseNumber": "550008919",
    "licenseEffectiveDate": "12/20/2024",
    "licenseExpirationDate": "12/19/2025",
    "dataDate": "10/18/2025",
    "capacity": 0,
    "address": "14540 HAMLIN ST, SUITE E4",
    "city": "VAN NUYS",
    "zip": "91411",
    "county": "LOS ANGELES",
    "phone": "(747) 212-4232",
    "lat": 34.188462,
    "lng": -118.4502195
  },
  {
    "id": "630019906",
    "name": "UNSURPASSED HOSPICE INC",
    "npi": null,
    "hcaiId": "406193617",
    "businessName": "UNSURPASSED HOSPICE INC",
    "contactEmail": "UNSURPASSEDHOSPICE@GMAIL.COM",
    "categoryName": "HOSPICE",
    "categoryCode": "HOSPICE",
    "licenseStatus": "ACTIVE",
    "inService": true,
    "licenseNumber": "550006664",
    "licenseEffectiveDate": "08/09/2023",
    "licenseExpirationDate": "08/08/2025",
    "dataDate": "10/18/2025",
    "capacity": 0,
    "address": "14545 FRIAR ST, SUITE 202X",
    "city": "VAN NUYS",
    "zip": "91411",
    "county": "LOS ANGELES",
    "phone": "(818) 732-7970",
    "lat": 34.185816,
    "lng": -118.4503365
  },
  {
    "id": "630020949",
    "name": "VALLEY OF PEACE HOSPICE, INC.",
    "npi": null,
    "hcaiId": "406193594",
    "businessName": "VALLEY OF PEACE HOSPICE, INC.",
    "contactEmail": "VALLEYOFPEACEHOSPICE@GMAIL.COM",
    "categoryName": "HOSPICE",
    "categoryCode": "HOSPICE",
    "licenseStatus": "ACTIVE",
    "inService": true,
    "licenseNumber": "550006594",
    "licenseEffectiveDate": "07/15/2023",
    "licenseExpirationDate": "07/14/2025",
    "dataDate": "10/18/2025",
    "capacity": 0,
    "address": "14640 VICTORY BLVD, UNIT 202B",
    "city": "VAN NUYS",
    "zip": "91411",
    "county": "LOS ANGELES",
    "phone": "(818) 582-3613",
    "lat": 34.186446,
    "lng": -118.45224
  },
  {
    "id": "630025932",
    "name": "VALLEY VIEW HOME HEALTH CARE",
    "npi": null,
    "hcaiId": null,
    "businessName": "VALLEY VIEW HOME HEALTH CARE",
    "contactEmail": "VALLEYVIEWHH@AOL.COM",
    "categoryName": "HOME HEALTH AGENCY",
    "categoryCode": "HHA",
    "licenseStatus": "ACTIVE",
    "inService": true,
    "licenseNumber": "550009055",
    "licenseEffectiveDate": "03/08/2025",
    "licenseExpirationDate": "03/07/2026",
    "dataDate": "10/18/2025",
    "capacity": 0,
    "address": "14531 HAMLIN ST, SUITE 150",
    "city": "VAN NUYS",
    "zip": "91411",
    "county": "LOS ANGELES",
    "phone": "(747) 699-0001",
    "lat": 34.188849,
    "lng": -118.449882
  },
  {
    "id": "960002155",
    "name": "VAN NUYS MEDICAL & MENTAL HEALTH SERVICES",
    "npi": null,
    "hcaiId": "306195016",
    "businessName": "EL DORADO COMMUNITY SERVICE CENTER",
    "contactEmail": "CCABELLO@AMERICANHEALTHSERVICES.ORG",
    "categoryName": "PRIMARY CARE CLINIC",
    "categoryCode": "COMTYC",
    "licenseStatus": "ACTIVE",
    "inService": true,
    "licenseNumber": "960001034",
    "licenseEffectiveDate": "06/26/2025",
    "licenseExpirationDate": "06/25/2026",
    "dataDate": "10/18/2025",
    "capacity": 0,
    "address": "6265 SEPULVEDA BLVD, SUITE 9",
    "city": "VAN NUYS",
    "zip": "91411",
    "county": "LOS ANGELES",
    "phone": "(818) 779-0555",
    "lat": 34.184385,
    "lng": -118.4667525
  },
  {
    "id": "630018184",
    "name": "VIBRANT HEALTH CARE SERVICES, INC.",
    "npi": null,
    "hcaiId": "406191727",
    "businessName": "VIBRANT HEALTH CARE SERVICES, INC.",
    "contactEmail": "VIBRANTHCS@GMAIL.COM",
    "categoryName": "HOME HEALTH AGENCY",
    "categoryCode": "HHA",
    "licenseStatus": "ACTIVE",
    "inService": true,
    "licenseNumber": "550004767",
    "licenseEffectiveDate": "03/01/2023",
    "licenseExpirationDate": "06/20/2023",
    "dataDate": "10/18/2025",
    "capacity": 0,
    "address": "14545 FRIAR ST, SUITE 210",
    "city": "VAN NUYS",
    "zip": "91411",
    "county": "LOS ANGELES",
    "phone": "(818) 935-5409",
    "lat": 34.185816,
    "lng": -118.4503365
  },
  {
    "id": "630025380",
    "name": "VICTORY HEALTH CARE SERVICES, INC.",
    "npi": null,
    "hcaiId": "406190324",
    "businessName": "VICTORY HEALTH CARE SERVICES, INC.",
    "contactEmail": "4VICTORYHEALTHCARESERVICES@GMAIL.COM",
    "categoryName": "HOME HEALTH AGENCY",
    "categoryCode": "HHA",
    "licenseStatus": "ACTIVE",
    "inService": true,
    "licenseNumber": "550008909",
    "licenseEffectiveDate": "10/27/2025",
    "licenseExpirationDate": "10/26/2026",
    "dataDate": "10/18/2025",
    "capacity": 0,
    "address": "14540 VICTORY BLVD, SUITE 201",
    "city": "VAN NUYS",
    "zip": "91411",
    "county": "LOS ANGELES",
    "phone": "(818) 276-6230",
    "lat": 34.186446,
    "lng": -118.4502465
  },
  {
    "id": "630025372",
    "name": "VITA HOME HEALTH INC",
    "npi": null,
    "hcaiId": null,
    "businessName": "VITA HOME HEALTH INC",
    "contactEmail": "VITAHOMEHEALTHINC@GMAIL.COM",
    "categoryName": "HOME HEALTH AGENCY",
    "categoryCode": "HHA",
    "licenseStatus": "ACTIVE",
    "inService": true,
    "licenseNumber": "550008639",
    "licenseEffectiveDate": "07/11/2025",
    "licenseExpirationDate": "07/10/2026",
    "dataDate": "10/18/2025",
    "capacity": 0,
    "address": "14545 FRIAR ST, SUITE 333",
    "city": "VAN NUYS",
    "zip": "91411",
    "county": "LOS ANGELES",
    "phone": "(818) 641-9914",
    "lat": 34.185816,
    "lng": -118.4503365
  },
  {
    "id": "630027903",
    "name": "VITA LINE HOME HEALTH, INC",
    "npi": null,
    "hcaiId": null,
    "businessName": "VITA LINE HOME HEALTH, INC",
    "contactEmail": "KRISTINESAHAKYAN@YAHOO.COM",
    "categoryName": "HOME HEALTH AGENCY",
    "categoryCode": "HHA",
    "licenseStatus": "ACTIVE",
    "inService": true,
    "licenseNumber": "550009866",
    "licenseEffectiveDate": "06/25/2025",
    "licenseExpirationDate": "12/24/2025",
    "dataDate": "10/18/2025",
    "capacity": 0,
    "address": "14531 HAMLIN ST, SUITE 101",
    "city": "VAN NUYS",
    "zip": "91411",
    "county": "LOS ANGELES",
    "phone": "(747) 264-1022",
    "lat": 34.18898799,
    "lng": -118.449893
  },
  {
    "id": "630025224",
    "name": "VITA LONGA HOME HEALTH CARE SERVICES",
    "npi": null,
    "hcaiId": "406190170",
    "businessName": "VITA LONGA HOME HEALTH CARE SERVICES",
    "contactEmail": "VITALONGAHOMEHEALTHCARE@GMAIL.COM",
    "categoryName": "HOME HEALTH AGENCY",
    "categoryCode": "HHA",
    "licenseStatus": "ACTIVE",
    "inService": true,
    "licenseNumber": "550008918",
    "licenseEffectiveDate": "12/07/2024",
    "licenseExpirationDate": "12/06/2025",
    "dataDate": "10/18/2025",
    "capacity": 0,
    "address": "14545 FRIAR ST, SUITE 202C",
    "city": "VAN NUYS",
    "zip": "91411",
    "county": "LOS ANGELES",
    "phone": "(929) 488-0888",
    "lat": 34.185816,
    "lng": -118.4503365
  },
  {
    "id": "630025273",
    "name": "VLN HOME HEALTH INC",
    "npi": null,
    "hcaiId": "406197192",
    "businessName": "VLN HOME HEALTH INC",
    "contactEmail": "VLNHOMEHEALTH@GMAIL.COM",
    "categoryName": "HOME HEALTH AGENCY",
    "categoryCode": "HHA",
    "licenseStatus": "ACTIVE",
    "inService": true,
    "licenseNumber": "550008258",
    "licenseEffectiveDate": "10/24/2025",
    "licenseExpirationDate": "06/05/2026",
    "dataDate": "10/18/2025",
    "capacity": 0,
    "address": "14545 FRIAR ST, SUITE 114",
    "city": "VAN NUYS",
    "zip": "91411",
    "county": "LOS ANGELES",
    "phone": "(818) 213-1111",
    "lat": 34.185816,
    "lng": -118.4503365
  },
  {
    "id": "630025327",
    "name": "VRV HOME HEALTH CARE, INC.",
    "npi": null,
    "hcaiId": "406196520",
    "businessName": "VRV HOME HEALTH CARE, INC.",
    "contactEmail": "VRVHHCI@GMAIL.COM",
    "categoryName": "HOME HEALTH AGENCY",
    "categoryCode": "HHA",
    "licenseStatus": "ACTIVE",
    "inService": true,
    "licenseNumber": "550008507",
    "licenseEffectiveDate": "05/03/2025",
    "licenseExpirationDate": "05/02/2026",
    "dataDate": "10/18/2025",
    "capacity": 0,
    "address": "14531 HAMLIN ST, SUITE 140",
    "city": "VAN NUYS",
    "zip": "91411",
    "county": "LOS ANGELES",
    "phone": "(800) 988-8708",
    "lat": 34.188849,
    "lng": -118.449882
  },
  {
    "id": "630025159",
    "name": "WEST GATE HOME HEALTH, INC.",
    "npi": null,
    "hcaiId": null,
    "businessName": "WEST GATE HOME HEALTH, INC.",
    "contactEmail": "WESTGATEHOMEHEALTH@YAHOO.COM",
    "categoryName": "HOME HEALTH AGENCY",
    "categoryCode": "HHA",
    "licenseStatus": "ACTIVE",
    "inService": true,
    "licenseNumber": "550008684",
    "licenseEffectiveDate": "08/08/2025",
    "licenseExpirationDate": "08/07/2026",
    "dataDate": "10/18/2025",
    "capacity": 0,
    "address": "14531 HAMLIN ST, SUITE 210",
    "city": "VAN NUYS",
    "zip": "91411",
    "county": "LOS ANGELES",
    "phone": "(747) 799-0007",
    "lat": 34.188849,
    "lng": -118.449882
  },
  {
    "id": "630021515",
    "name": "WEST GATE HOSPICE, INC",
    "npi": null,
    "hcaiId": "406194873",
    "businessName": "WEST GATE HOSPICE, INC.",
    "contactEmail": "ARTO.ISO92@GMAIL.COM",
    "categoryName": "HOSPICE",
    "categoryCode": "HOSPICE",
    "licenseStatus": "ACTIVE",
    "inService": true,
    "licenseNumber": "550006804",
    "licenseEffectiveDate": "09/10/2025",
    "licenseExpirationDate": "09/09/2027",
    "dataDate": "10/18/2025",
    "capacity": 0,
    "address": "14531 HAMLIN ST, SUITE 220",
    "city": "VAN NUYS",
    "zip": "91411",
    "county": "LOS ANGELES",
    "phone": "(747) 877-2040",
    "lat": 34.18898799,
    "lng": -118.449893
  },
  {
    "id": "630013120",
    "name": "WESTERN CARE HOSPICE, INC.",
    "npi": "1023328291",
    "hcaiId": "406197690",
    "businessName": "WESTERN CARE HOSPICE, INC.",
    "contactEmail": "WESTERNCAREHOSPICE@GMAIL.COM",
    "categoryName": "HOSPICE",
    "categoryCode": "HOSPICE",
    "licenseStatus": "ACTIVE",
    "inService": true,
    "licenseNumber": "550001939",
    "licenseEffectiveDate": "04/02/2024",
    "licenseExpirationDate": "04/01/2026",
    "dataDate": "10/18/2025",
    "capacity": 0,
    "address": "14545 VICTORY BLVD, SUITE 505",
    "city": "VAN NUYS",
    "zip": "91411",
    "county": "LOS ANGELES",
    "phone": "(818) 787-7702",
    "lat": 34.18686,
    "lng": -118.45026
  },
  {
    "id": "630021111",
    "name": "WHITE ANGELS HOSPICE INC",
    "npi": null,
    "hcaiId": "406193953",
    "businessName": "WHITE ANGELS HOSPICE INC",
    "contactEmail": "WHITEANGELSHOSPICE@GMAIL.COM",
    "categoryName": "HOSPICE",
    "categoryCode": "HOSPICE",
    "licenseStatus": "ACTIVE",
    "inService": true,
    "licenseNumber": "550007079",
    "licenseEffectiveDate": "10/15/2023",
    "licenseExpirationDate": "10/14/2025",
    "dataDate": "10/18/2025",
    "capacity": 0,
    "address": "14545 FRIAR ST, SUITE 153",
    "city": "VAN NUYS",
    "zip": "91411",
    "county": "LOS ANGELES",
    "phone": "(747) 215-2868",
    "lat": 34.185816,
    "lng": -118.4503365
  },
  {
    "id": "630025942",
    "name": "WHITE GUARDIAN HOME HEALTH CARE INC",
    "npi": null,
    "hcaiId": "406190350",
    "businessName": "WHITE GUARDIAN HOME HEALTH CARE INC",
    "contactEmail": "WHITEGUARDIANHOMEHEALTHCARE888@GMAIL.COM",
    "categoryName": "HOME HEALTH AGENCY",
    "categoryCode": "HHA",
    "licenseStatus": "ACTIVE",
    "inService": true,
    "licenseNumber": "550009106",
    "licenseEffectiveDate": "04/04/2025",
    "licenseExpirationDate": "04/03/2026",
    "dataDate": "10/18/2025",
    "capacity": 0,
    "address": "14531 HAMLIN ST, SUITE 265",
    "city": "VAN NUYS",
    "zip": "91411",
    "county": "LOS ANGELES",
    "phone": "(747) 877-8984",
    "lat": 34.188849,
    "lng": -118.449882
  },
  {
    "id": "630025536",
    "name": "WHOLESOME HOME HEALTH, INC.",
    "npi": null,
    "hcaiId": null,
    "businessName": "WHOLESOME HOME HEALTH, INC.",
    "contactEmail": "WHOLESOMEHOMEHEALTH@GMAIL.COM",
    "categoryName": "HOME HEALTH AGENCY",
    "categoryCode": "HHA",
    "licenseStatus": "ACTIVE",
    "inService": true,
    "licenseNumber": "550008998",
    "licenseEffectiveDate": "02/24/2025",
    "licenseExpirationDate": "02/23/2026",
    "dataDate": "10/18/2025",
    "capacity": 0,
    "address": "14531 HAMLIN ST, SUITE 180",
    "city": "VAN NUYS",
    "zip": "91411",
    "county": "LOS ANGELES",
    "phone": "(747) 262-3980",
    "lat": 34.188849,
    "lng": -118.449882
  },
  {
    "id": "630018203",
    "name": "WILLOW HOSPICE CARE, INC.",
    "npi": null,
    "hcaiId": "406192083",
    "businessName": "WILLOW HOSPICE CARE, INC.",
    "contactEmail": "WILLOWHOSPICE1@GMAIL.COM",
    "categoryName": "HOSPICE",
    "categoryCode": "HOSPICE",
    "licenseStatus": "ACTIVE",
    "inService": true,
    "licenseNumber": "550005117",
    "licenseEffectiveDate": "11/16/2023",
    "licenseExpirationDate": "11/15/2025",
    "dataDate": "10/18/2025",
    "capacity": 0,
    "address": "14545 VICTORY BLVD, SUITE 503 A",
    "city": "VAN NUYS",
    "zip": "91411",
    "county": "LOS ANGELES",
    "phone": "(747) 788-6229",
    "lat": 34.18686,
    "lng": -118.45026
  },
  {
    "id": "630022032",
    "name": "WILLOW SPRINGS HOSPICE CARE",
    "npi": null,
    "hcaiId": "406197350",
    "businessName": "WILLOW SPRINGS HOSPICE CARE",
    "contactEmail": "WILLOWSPRINGSHOSPICE@GMAIL.COM",
    "categoryName": "HOSPICE",
    "categoryCode": "HOSPICE",
    "licenseStatus": "ACTIVE",
    "inService": true,
    "licenseNumber": "550007505",
    "licenseEffectiveDate": "12/08/2023",
    "licenseExpirationDate": "12/07/2025",
    "dataDate": "10/18/2025",
    "capacity": 0,
    "address": "14545 FRIAR ST, SUITE 143",
    "city": "VAN NUYS",
    "zip": "91411",
    "county": "LOS ANGELES",
    "phone": "(747) 286-7116",
    "lat": 34.185816,
    "lng": -118.4503365
  },
  {
    "id": "630025004",
    "name": "WISE CHOICE HELATH CARE",
    "npi": null,
    "hcaiId": "406190050",
    "businessName": "WISE CHOICE HELATH CARE",
    "contactEmail": "WISECHOICEHC@GMAIL.COM",
    "categoryName": "HOME HEALTH AGENCY",
    "categoryCode": "HHA",
    "licenseStatus": "ACTIVE",
    "inService": true,
    "licenseNumber": "550008881",
    "licenseEffectiveDate": "05/13/2024",
    "licenseExpirationDate": "11/12/2024",
    "dataDate": "10/18/2025",
    "capacity": 0,
    "address": "14545 FRIAR ST, SUITE 399-3",
    "city": "VAN NUYS",
    "zip": "91411",
    "county": "LOS ANGELES",
    "phone": "(818) 396-9097",
    "lat": 34.185816,
    "lng": -118.4503365
  },
  {
    "id": "630027756",
    "name": "WONDERFUL HOME HEALTH CARE, INC",
    "npi": null,
    "hcaiId": null,
    "businessName": null,
    "contactEmail": "WONDERFULHHC@GMAIL.COM",
    "categoryName": "HOME HEALTH AGENCY",
    "categoryCode": "HHA",
    "licenseStatus": null,
    "inService": null,
    "licenseNumber": null,
    "licenseEffectiveDate": null,
    "licenseExpirationDate": null,
    "dataDate": "10/18/2025",
    "capacity": 0,
    "address": "14545 VICTORY BLVD, SUITE 609",
    "city": "VAN NUYS",
    "zip": "91411",
    "county": "LOS ANGELES",
    "phone": "(818) 582-6567",
    "lat": 34.18696699,
    "lng": -118.45015
  },
  {
    "id": "060002070",
    "name": "YOUR DAY ADULT DAY HEALTH CARE CENTER",
    "npi": null,
    "hcaiId": null,
    "businessName": "SKK HERITAGE INC",
    "contactEmail": "YOURDAYADHC@GMAIL.COM",
    "categoryName": "ADULT DAY HEALTH CARE",
    "categoryCode": "ADHC",
    "licenseStatus": "ACTIVE",
    "inService": true,
    "licenseNumber": "060000835",
    "licenseEffectiveDate": "12/10/2024",
    "licenseExpirationDate": "12/09/2025",
    "dataDate": "10/18/2025",
    "capacity": 0,
    "address": "14640 VICTORY BLVD, SUITE 100",
    "city": "VAN NUYS",
    "zip": "91411",
    "county": "LOS ANGELES",
    "phone": "(818) 781-8777",
    "lat": 34.186428,
    "lng": -118.452402
  },
  {
    "id": "630021757",
    "name": "ZD HOSPICE CARE, INC.",
    "npi": null,
    "hcaiId": "406195139",
    "businessName": "ZD HOSPICE CARE, INC.",
    "contactEmail": "ZDCAREHOSPICE@GMAIL.COM",
    "categoryName": "HOSPICE",
    "categoryCode": "HOSPICE",
    "licenseStatus": "ACTIVE",
    "inService": true,
    "licenseNumber": "550007473",
    "licenseEffectiveDate": "12/17/2023",
    "licenseExpirationDate": "12/16/2025",
    "dataDate": "10/18/2025",
    "capacity": 0,
    "address": "14545 FRIAR ST, SUITE 147",
    "city": "VAN NUYS",
    "zip": "91411",
    "county": "LOS ANGELES",
    "phone": "(747) 257-0042",
    "lat": 34.185816,
    "lng": -118.4503365
  }
]