[
  {
    "id": "630025523",
    "name": "3A HEALTHCARE SERVICES, INC.",
    "npi": null,
    "hcaiId": "406190231",
    "businessName": "3A HEALTHCARE SERVICES, INC.",
    "contactEmail": "3AHCSERVICES@GMAIL.COM",
    "categoryName": "HOME HEALTH AGENCY",
    "categoryCode": "HHA",
    "licenseStatus": "ACTIVE",
    "inService": true,
    "licenseNumber": "550008956",
    "licenseEffectiveDate": "01/26/2025",
    "licenseExpirationDate": "01/25/2026",
    "dataDate": "10/18/2025",
    "capacity": 0,
    "address": "13557 1/2 VENTURA BLVD, SUITE 201",
    "city": "SHERMAN OAKS",
    "zip": "91423",
    "county": "LOS ANGELES",
    "phone": "(747) 788-7543",
    "lat": 34.147818,
    "lng": -118.4289795
  },
  {
    "id": "630012911",
    "name": "ABLE HANDS HOME HEALTH SERVICES LLC",
    "npi": null,
    "hcaiId": "406197566",
    "businessName": "ABLE HANDS HOME HEALTH SERVICES  LLC",
    "contactEmail": "ABLEHANDSHOMEHEALTH@GMAIL.COM",
    "categoryName": "HOME HEALTH AGENCY",
    "categoryCode": "HHA",
    "licenseStatus": "ACTIVE",
    "inService": true,
    "licenseNumber": "550001640",
    "licenseEffectiveDate": "09/22/2025",
    "licenseExpirationDate": "04/25/2026",
    "dataDate": "10/18/2025",
    "capacity": 0,
    "address": "14245 VENTURA BLVD, SUITE 207",
    "city": "SHERMAN OAKS",
    "zip": "91423",
    "county": "LOS ANGELES",
    "phone": "(818) 505-3944",
    "lat": 34.15014785,
    "lng": -118.4435981
  },
  {
    "id": "630025183",
    "name": "ALEG HOME HEALTH, INC.",
    "npi": null,
    "hcaiId": "406190159",
    "businessName": "ALEG HOME HEALTH, INC.",
    "contactEmail": "ALEGHOMEHEALTHINC@GMAIL.COM",
    "categoryName": "HOME HEALTH AGENCY",
    "categoryCode": "HHA",
    "licenseStatus": "ACTIVE",
    "inService": true,
    "licenseNumber": "550008920",
    "licenseEffectiveDate": "01/18/2025",
    "licenseExpirationDate": "01/17/2026",
    "dataDate": "10/18/2025",
    "capacity": 0,
    "address": "13557 1/2 VENTURA BLVD, SUITE 203",
    "city": "SHERMAN OAKS",
    "zip": "91423",
    "county": "LOS ANGELES",
    "phone": "(818) 573-6249",
    "lat": 34.147818,
    "lng": -118.4289795
  },
  {
    "id": "630018979",
    "name": "ALUDRA HOSPICE",
    "npi": null,
    "hcaiId": "406192702",
    "businessName": "ALUDRA INC.",
    "contactEmail": "ALUDRAHOSPICE@YAHOO.COM",
    "categoryName": "HOSPICE",
    "categoryCode": "HOSPICE",
    "licenseStatus": "ACTIVE",
    "inService": true,
    "licenseNumber": "550005526",
    "licenseEffectiveDate": "06/20/2024",
    "licenseExpirationDate": "06/19/2026",
    "dataDate": "10/18/2025",
    "capacity": 0,
    "address": "13701 RIVERSIDE DR, SUITE 409",
    "city": "SHERMAN OAKS",
    "zip": "91423",
    "county": "LOS ANGELES",
    "phone": "(818) 322-3412",
    "lat": 34.15789901,
    "lng": -118.431638
  },
  {
    "id": "630025101",
    "name": "ALWAYS BEST HOME HEALTH CARE, INC.",
    "npi": null,
    "hcaiId": "406190141",
    "businessName": "ALWAYS BEST HOME HEALTH CARE, INC.",
    "contactEmail": "ALWAYSBESTHOMEHEALTH@GMAIL.COM",
    "categoryName": "HOME HEALTH AGENCY",
    "categoryCode": "HHA",
    "licenseStatus": "ACTIVE",
    "inService": true,
    "licenseNumber": "550008223",
    "licenseEffectiveDate": "10/28/2024",
    "licenseExpirationDate": "10/27/2025",
    "dataDate": "10/18/2025",
    "capacity": 0,
    "address": "13517 VENTURA BLVD, SUITE 6A",
    "city": "SHERMAN OAKS",
    "zip": "91423",
    "county": "LOS ANGELES",
    "phone": "(747) 300-0799",
    "lat": 34.147584,
    "lng": -118.427598
  },
  {
    "id": "630026062",
    "name": "AMIRA HOME HEALTH CARE INC.",
    "npi": null,
    "hcaiId": "406190325",
    "businessName": "AMIRA HOME HEALTH CARE INC.",
    "contactEmail": "AMIRAHOMEHEALTH@YAHOO.COM",
    "categoryName": "HOME HEALTH AGENCY",
    "categoryCode": "HHA",
    "licenseStatus": "ACTIVE",
    "inService": true,
    "licenseNumber": "550009073",
    "licenseEffectiveDate": "04/19/2025",
    "licenseExpirationDate": "04/18/2026",
    "dataDate": "10/18/2025",
    "capacity": 0,
    "address": "13701 RIVERSIDE DR, SUITE 612",
    "city": "SHERMAN OAKS",
    "zip": "91423",
    "county": "LOS ANGELES",
    "phone": "(747) 212-4544",
    "lat": 34.157907,
    "lng": -118.431612
  },
  {
    "id": "630017371",
    "name": "ANGELENO HOME HEALTH CARE, INC.",
    "npi": "1114460250",
    "hcaiId": "406191406",
    "businessName": "ANGELENO HOME HEALTH CARE, INC",
    "contactEmail": "ANGELENOHOMEHEALTH@YAHOO.COM",
    "categoryName": "HOME HEALTH AGENCY",
    "categoryCode": "HHA",
    "licenseStatus": "ACTIVE",
    "inService": true,
    "licenseNumber": "550004503",
    "licenseEffectiveDate": "12/19/2024",
    "licenseExpirationDate": "12/18/2025",
    "dataDate": "10/18/2025",
    "capacity": 0,
    "address": "4730 WOODMAN AVE, SUITE 460",
    "city": "SHERMAN OAKS",
    "zip": "91423",
    "county": "LOS ANGELES",
    "phone": "(818) 676-9766",
    "lat": 34.156629,
    "lng": -118.4310315
  },
  {
    "id": "630025684",
    "name": "ARPELS HOME HEALTH, INC.",
    "npi": null,
    "hcaiId": "406198033",
    "businessName": "ARPELS HOME HEALTH, INC.",
    "contactEmail": "ARPELSHH@GMAIL.COM",
    "categoryName": "HOME HEALTH AGENCY",
    "categoryCode": "HHA",
    "licenseStatus": "ACTIVE",
    "inService": true,
    "licenseNumber": "550008794",
    "licenseEffectiveDate": "11/01/2025",
    "licenseExpirationDate": "10/31/2026",
    "dataDate": "10/18/2025",
    "capacity": 0,
    "address": "4315 WOODMAN AVE, SUITE A",
    "city": "SHERMAN OAKS",
    "zip": "91423",
    "county": "LOS ANGELES",
    "phone": "(747) 333-8177",
    "lat": 34.148637,
    "lng": -118.431477
  },
  {
    "id": "630022015",
    "name": "AVRAMED HOMEHEALTH CARE, INC.",
    "npi": null,
    "hcaiId": "406195892",
    "businessName": "AVRAMED HOME HEALTH CARE, INC.",
    "contactEmail": "AVRAMEDHOMEHEALTH@YAHOO.COM",
    "categoryName": "HOME HEALTH AGENCY",
    "categoryCode": "HHA",
    "licenseStatus": "ACTIVE",
    "inService": true,
    "licenseNumber": "550008086",
    "licenseEffectiveDate": "07/19/2024",
    "licenseExpirationDate": "07/18/2025",
    "dataDate": "10/18/2025",
    "capacity": 0,
    "address": "14429 VENTURA BLVD, UNIT 101B",
    "city": "SHERMAN OAKS",
    "zip": "91423",
    "county": "LOS ANGELES",
    "phone": "(747) 205-1289",
    "lat": 34.150905,
    "lng": -118.447479
  },
  {
    "id": "630021149",
    "name": "BEST CARE UNLIMITED HOME HEALTH",
    "npi": null,
    "hcaiId": "406193610",
    "businessName": "BEST CARE UNLIMITED HOME HEALTH",
    "contactEmail": "HOMECARE1321@ATT.NET",
    "categoryName": "HOME HEALTH AGENCY",
    "categoryCode": "HHA",
    "licenseStatus": "ACTIVE",
    "inService": true,
    "licenseNumber": "550006489",
    "licenseEffectiveDate": "07/06/2024",
    "licenseExpirationDate": "07/05/2025",
    "dataDate": "10/18/2025",
    "capacity": 0,
    "address": "13425 VENTURA BLVD, SUITE 303",
    "city": "SHERMAN OAKS",
    "zip": "91423",
    "county": "LOS ANGELES",
    "phone": "(818) 290-3746",
    "lat": 34.147278,
    "lng": -118.425726
  },
  {
    "id": "630015377",
    "name": "BLUE IRIS HOSPICE",
    "npi": "1801273529",
    "hcaiId": "406198362",
    "businessName": "AAA SOCAL HOSPICE, INC.",
    "contactEmail": "BLUEIRISHOSPICE@YAHOO.COM",
    "categoryName": "HOSPICE",
    "categoryCode": "HOSPICE",
    "licenseStatus": "ACTIVE",
    "inService": true,
    "licenseNumber": "550003771",
    "licenseEffectiveDate": "01/12/2023",
    "licenseExpirationDate": "01/11/2025",
    "dataDate": "10/18/2025",
    "capacity": 0,
    "address": "4730 WOODMAN AVE, SUITE 302A",
    "city": "SHERMAN OAKS",
    "zip": "91423",
    "county": "LOS ANGELES",
    "phone": "(818) 779-0484",
    "lat": 34.156629,
    "lng": -118.4310315
  },
  {
    "id": "630025104",
    "name": "CARE PROFESSIONALS HOME HEALTH CARE, INC.",
    "npi": null,
    "hcaiId": "406196539",
    "businessName": "CARE PROFESSIONALS HOME HEALTH CARE, INC.",
    "contactEmail": "CAREPROFESSIONALSHOMEHEALTH@GMAIL.COM",
    "categoryName": "HOME HEALTH AGENCY",
    "categoryCode": "HHA",
    "licenseStatus": "ACTIVE",
    "inService": true,
    "licenseNumber": "550008193",
    "licenseEffectiveDate": "10/13/2025",
    "licenseExpirationDate": "10/12/2026",
    "dataDate": "10/18/2025",
    "capacity": 0,
    "address": "14140 VENTURA BLVD, SUITE 304",
    "city": "SHERMAN OAKS",
    "zip": "91423",
    "county": "LOS ANGELES",
    "phone": "(818) 290-3697",
    "lat": 34.149546,
    "lng": -118.441458
  },
  {
    "id": "630024524",
    "name": "CARING COVE HOME HEALTH CARE, INC.",
    "npi": null,
    "hcaiId": null,
    "businessName": "CARING COVE HOME HEALTH CARE, INC.",
    "contactEmail": "CARINGCOVEHHC@GMAIL.COM",
    "categoryName": "HOME HEALTH AGENCY",
    "categoryCode": "HHA",
    "licenseStatus": "ACTIVE",
    "inService": true,
    "licenseNumber": "550008541",
    "licenseEffectiveDate": "05/03/2025",
    "licenseExpirationDate": "05/02/2026",
    "dataDate": "10/18/2025",
    "capacity": 0,
    "address": "14429 VENTURA BLVD, SUITE 106A",
    "city": "SHERMAN OAKS",
    "zip": "91423",
    "county": "LOS ANGELES",
    "phone": "(747) 345-3121",
    "lat": 34.150905,
    "lng": -118.447479
  },
  {
    "id": "630012538",
    "name": "CHOICE HOME HEALTHCARE SERVICES, INC.",
    "npi": "1205069473",
    "hcaiId": "406197465",
    "businessName": "CHOICE HOME HEALTHCARE SERVICES, INC.",
    "contactEmail": "CHIKA@CHOICEHMC.COM",
    "categoryName": "HOME HEALTH AGENCY",
    "categoryCode": "HHA",
    "licenseStatus": "ACTIVE",
    "inService": true,
    "licenseNumber": "550001419",
    "licenseEffectiveDate": "11/07/2024",
    "licenseExpirationDate": "11/06/2025",
    "dataDate": "10/18/2025",
    "capacity": 0,
    "address": "14101 VALLEYHEART DR, SUITE 200",
    "city": "SHERMAN OAKS",
    "zip": "91423",
    "county": "LOS ANGELES",
    "phone": "(818) 370-8842",
    "lat": 34.15511399,
    "lng": -118.440571
  },
  {
    "id": "980001175",
    "name": "DYNAMIC HOME CARE",
    "npi": "1811076870",
    "hcaiId": "406194323",
    "businessName": "DYNAMIC HOME CARE, INC.",
    "contactEmail": "JULIE@DYNAMICNURSING.COM",
    "categoryName": "HOME HEALTH AGENCY",
    "categoryCode": "HHA",
    "licenseStatus": "ACTIVE",
    "inService": true,
    "licenseNumber": "980000668",
    "licenseEffectiveDate": "11/20/2025",
    "licenseExpirationDate": "11/19/2026",
    "dataDate": "10/18/2025",
    "capacity": 0,
    "address": "14260 VENTURA BLVD, SUITE 301",
    "city": "SHERMAN OAKS",
    "zip": "91423",
    "county": "LOS ANGELES",
    "phone": "(818) 981-4446",
    "lat": 34.149861,
    "lng": -118.44414
  },
  {
    "id": "630018622",
    "name": "DYNAMIC HOSPICE AND PALLIATIVE CARE",
    "npi": "1942781604",
    "hcaiId": "406192178",
    "businessName": "MEMORIAL HOSPICE CARE, INC.",
    "contactEmail": "MKT8000@GMAIL.COM",
    "categoryName": "HOSPICE",
    "categoryCode": "HOSPICE",
    "licenseStatus": "ACTIVE",
    "inService": true,
    "licenseNumber": "550005211",
    "licenseEffectiveDate": "12/19/2023",
    "licenseExpirationDate": "12/18/2025",
    "dataDate": "10/18/2025",
    "capacity": 0,
    "address": "14260 VENTURA BLVD, SUITE 200B",
    "city": "SHERMAN OAKS",
    "zip": "91423",
    "county": "LOS ANGELES",
    "phone": "(818) 481-8837",
    "lat": 34.14996,
    "lng": -118.4440725
  },
  {
    "id": "630011117",
    "name": "EGIDA HOME HEALTH CARE, INC.",
    "npi": "1689715674",
    "hcaiId": "406196995",
    "businessName": "EGIDA HOME HEALTH CARE, INC.",
    "contactEmail": "EGIDAHHC@YAHOO.COM",
    "categoryName": "HOME HEALTH AGENCY",
    "categoryCode": "HHA",
    "licenseStatus": "ACTIVE",
    "inService": true,
    "licenseNumber": "550000530",
    "licenseEffectiveDate": "04/06/2025",
    "licenseExpirationDate": "04/05/2026",
    "dataDate": "10/18/2025",
    "capacity": 0,
    "address": "13701 RIVERSIDE DR, SUITE 316",
    "city": "SHERMAN OAKS",
    "zip": "91423",
    "county": "LOS ANGELES",
    "phone": "(818) 242-3536",
    "lat": 34.157907,
    "lng": -118.431612
  },
  {
    "id": "630014669",
    "name": "EMPIRE HOSPICE CARE, INC.",
    "npi": "1437588514",
    "hcaiId": "406198369",
    "businessName": "EMPIRE HOSPICE CARE, INC.",
    "contactEmail": "EMPIREHOSPICECARE@GMAIL.COM",
    "categoryName": "HOSPICE",
    "categoryCode": "HOSPICE",
    "licenseStatus": "ACTIVE",
    "inService": true,
    "licenseNumber": "550003013",
    "licenseEffectiveDate": "02/24/2025",
    "licenseExpirationDate": "02/23/2027",
    "dataDate": "10/18/2025",
    "capacity": 0,
    "address": "13701 RIVERSIDE DR, SUITE 512",
    "city": "SHERMAN OAKS",
    "zip": "91423",
    "county": "LOS ANGELES",
    "phone": "(323) 522-6023",
    "lat": 34.157907,
    "lng": -118.431612
  },
  {
    "id": "630011938",
    "name": "EXPRESS SERVICES HEALTHCARE, INC.",
    "npi": "1437315108",
    "hcaiId": "406197296",
    "businessName": "EXPRESS SERVICES HEALTHCARE, INC.",
    "contactEmail": "EXPRESSSERVICESHEALTHCARE@YAHOO.COM",
    "categoryName": "HOME HEALTH AGENCY",
    "categoryCode": "HHA",
    "licenseStatus": "ACTIVE",
    "inService": true,
    "licenseNumber": "550001048",
    "licenseEffectiveDate": "07/16/2025",
    "licenseExpirationDate": "07/15/2026",
    "dataDate": "10/18/2025",
    "capacity": 0,
    "address": "14429 VENTURA BLVD, SUITE 103",
    "city": "SHERMAN OAKS",
    "zip": "91423",
    "county": "LOS ANGELES",
    "phone": "(818) 990-9003",
    "lat": 34.150905,
    "lng": -118.447479
  },
  {
    "id": "060001084",
    "name": "FANTASIA HEALTHCARE",
    "npi": "1083715379",
    "hcaiId": "406196697",
    "businessName": "AMERIOX, INC.",
    "contactEmail": "PARISA@FANTASIAHEALTHCARE.COM",
    "categoryName": "HOME HEALTH AGENCY",
    "categoryCode": "HHA",
    "licenseStatus": "ACTIVE",
    "inService": true,
    "licenseNumber": "060000298",
    "licenseEffectiveDate": "05/24/2025",
    "licenseExpirationDate": "05/23/2026",
    "dataDate": "10/18/2025",
    "capacity": 0,
    "address": "14140 VENTURA BLVD, SUITE 308",
    "city": "SHERMAN OAKS",
    "zip": "91423",
    "county": "LOS ANGELES",
    "phone": "(818) 442-0008",
    "lat": 34.149546,
    "lng": -118.441458
  },
  {
    "id": "630027997",
    "name": "FIVE STAR SENIOR HOME HEALTH",
    "npi": null,
    "hcaiId": null,
    "businessName": "FIVE STAR SENIOR HOME HEALTH",
    "contactEmail": "FIVESTARSENIORHOMEHEALTH@GMAIL.COM",
    "categoryName": "HOME HEALTH AGENCY",
    "categoryCode": "HHA",
    "licenseStatus": "ACTIVE",
    "inService": true,
    "licenseNumber": "550009994",
    "licenseEffectiveDate": "10/08/2025",
    "licenseExpirationDate": "04/07/2026",
    "dataDate": "10/18/2025",
    "capacity": 0,
    "address": "13701 RIVERSIDE DR, SUITE 314",
    "city": "SHERMAN OAKS",
    "zip": "91423",
    "county": "LOS ANGELES",
    "phone": "(818) 748-9861",
    "lat": 34.157898,
    "lng": -118.431639
  },
  {
    "id": "630020544",
    "name": "FOUNTAIN HOSPICE, INC.",
    "npi": null,
    "hcaiId": "406196621",
    "businessName": "FOUNTAIN HOSPICE, INC.",
    "contactEmail": "INFO@FOUNTAINHOSPICE.COM",
    "categoryName": "HOSPICE",
    "categoryCode": "HOSPICE",
    "licenseStatus": "ACTIVE",
    "inService": true,
    "licenseNumber": "550006369",
    "licenseEffectiveDate": "05/14/2025",
    "licenseExpirationDate": "05/13/2027",
    "dataDate": "10/18/2025",
    "capacity": 0,
    "address": "13523 VENTURA BLVD",
    "city": "SHERMAN OAKS",
    "zip": "91423",
    "county": "LOS ANGELES",
    "phone": "(818) 839-8807",
    "lat": 34.14774399,
    "lng": -118.427796
  },
  {
    "id": "630021298",
    "name": "GALA HOSPICE CARE, INC",
    "npi": null,
    "hcaiId": "406198083",
    "businessName": "GALA HOSPICE CARE, INC",
    "contactEmail": "GALAHOSPICECARE@GMAIL.COM",
    "categoryName": "HOSPICE",
    "categoryCode": "HOSPICE",
    "licenseStatus": "ACTIVE",
    "inService": true,
    "licenseNumber": "550006557",
    "licenseEffectiveDate": "07/14/2025",
    "licenseExpirationDate": "07/13/2027",
    "dataDate": "10/18/2025",
    "capacity": 0,
    "address": "13317 VENTURA BLVD, SUITE G1",
    "city": "SHERMAN OAKS",
    "zip": "91423",
    "county": "LOS ANGELES",
    "phone": "(747) 301-3003",
    "lat": 34.146846,
    "lng": -118.4231475
  },
  {
    "id": "630024883",
    "name": "GENUINE HOME HEALTH, INC.",
    "npi": null,
    "hcaiId": "406190110",
    "businessName": "GENUINE HOME HEALTH, INC.",
    "contactEmail": "GENUINEHOMEHEALTHINC@GMAIL.COM",
    "categoryName": "HOME HEALTH AGENCY",
    "categoryCode": "HHA",
    "licenseStatus": "ACTIVE",
    "inService": true,
    "licenseNumber": "550008628",
    "licenseEffectiveDate": "06/06/2025",
    "licenseExpirationDate": "06/05/2026",
    "dataDate": "10/18/2025",
    "capacity": 0,
    "address": "14242 VENTURA BLVD, SUITE 234",
    "city": "SHERMAN OAKS",
    "zip": "91423",
    "county": "LOS ANGELES",
    "phone": "(818) 221-1113",
    "lat": 34.149861,
    "lng": -118.443402
  },
  {
    "id": "630024996",
    "name": "GUARDIAN BROTHERS HOME HEALTH CARE INC.",
    "npi": null,
    "hcaiId": "406190278",
    "businessName": "GUARDIAN BROTHERS HOME HEALTH CARE INC.",
    "contactEmail": "GUARDIANBROTHERSINC@GMAIL.COM",
    "categoryName": "HOME HEALTH AGENCY",
    "categoryCode": "HHA",
    "licenseStatus": "ACTIVE",
    "inService": true,
    "licenseNumber": "550008234",
    "licenseEffectiveDate": "11/23/2024",
    "licenseExpirationDate": "11/22/2025",
    "dataDate": "10/18/2025",
    "capacity": 0,
    "address": "13731 VENTURA BLVD, SUITE A",
    "city": "SHERMAN OAKS",
    "zip": "91423",
    "county": "LOS ANGELES",
    "phone": "(818) 946-8600",
    "lat": 34.148358,
    "lng": -118.43226
  },
  {
    "id": "630017372",
    "name": "HEALTHY LIFE HOME SERVICES, INC",
    "npi": null,
    "hcaiId": "406195561",
    "businessName": "HEALTHY LIFE HOME SERVICES INC.",
    "contactEmail": "HEALTHYLIFEHOMESERVICESINC@GMAIL.COM",
    "categoryName": "HOME HEALTH AGENCY",
    "categoryCode": "HHA",
    "licenseStatus": "ACTIVE",
    "inService": true,
    "licenseNumber": "550004524",
    "licenseEffectiveDate": "01/24/2025",
    "licenseExpirationDate": "01/23/2026",
    "dataDate": "10/18/2025",
    "capacity": 0,
    "address": "4730 WOODMAN AVE, SUITE 305",
    "city": "SHERMAN OAKS",
    "zip": "91423",
    "county": "LOS ANGELES",
    "phone": "(818) 465-9885",
    "lat": 34.156629,
    "lng": -118.4310315
  },
  {
    "id": "630014727",
    "name": "HEART, INC.",
    "npi": "1003245887",
    "hcaiId": "406198255",
    "businessName": "HEART INC.",
    "contactEmail": "HEARTINC2@GMAIL.COM",
    "categoryName": "HOME HEALTH AGENCY",
    "categoryCode": "HHA",
    "licenseStatus": "ACTIVE",
    "inService": true,
    "licenseNumber": "550003160",
    "licenseEffectiveDate": "06/15/2025",
    "licenseExpirationDate": "06/14/2026",
    "dataDate": "10/18/2025",
    "capacity": 0,
    "address": "4312 WOODMAN AVE, SUITE 201",
    "city": "SHERMAN OAKS",
    "zip": "91423",
    "county": "LOS ANGELES",
    "phone": "(818) 404-9594",
    "lat": 34.14864002,
    "lng": -118.430774
  },
  {
    "id": "630025727",
    "name": "HHC HOME HEALTH INC",
    "npi": null,
    "hcaiId": null,
    "businessName": "HHC HOME HEALTH INC",
    "contactEmail": "4HHCHHI@GMAIL.COM",
    "categoryName": "HOME HEALTH AGENCY",
    "categoryCode": "HHA",
    "licenseStatus": "ACTIVE",
    "inService": true,
    "licenseNumber": "550009213",
    "licenseEffectiveDate": "06/17/2025",
    "licenseExpirationDate": "06/16/2026",
    "dataDate": "10/18/2025",
    "capacity": 0,
    "address": "13415 VENTURA BLVD, SUITE 2",
    "city": "SHERMAN OAKS",
    "zip": "91423",
    "county": "LOS ANGELES",
    "phone": "(213) 314-5111",
    "lat": 34.147224,
    "lng": -118.4254245
  },
  {
    "id": "630009361",
    "name": "HOLLYWOOD HEALTH SERVICES, INC.",
    "npi": "1023130432",
    "hcaiId": "406196471",
    "businessName": "HOLLYWOOD HEALTH SERVICES, INC.",
    "contactEmail": "HOLLYWOODHEALTHSERVICES@GMAIL.COM",
    "categoryName": "HOME HEALTH AGENCY",
    "categoryCode": "HHA",
    "licenseStatus": "ACTIVE",
    "inService": true,
    "licenseNumber": "550000435",
    "licenseEffectiveDate": "07/22/2025",
    "licenseExpirationDate": "01/05/2026",
    "dataDate": "10/18/2025",
    "capacity": 0,
    "address": "4312 WOODMAN AVE, SUITE 201",
    "city": "SHERMAN OAKS",
    "zip": "91423",
    "county": "LOS ANGELES",
    "phone": "(818) 305-6998",
    "lat": 34.16370901,
    "lng": -118.521313
  },
  {
    "id": "630015670",
    "name": "HOLY SAVER HOSPICE INC.",
    "npi": "1881099497",
    "hcaiId": "406191277",
    "businessName": "HOLY SAVER HOSPICE INC.",
    "contactEmail": "HOLYSAVERHOSPICE@GMAIL.COM",
    "categoryName": "HOSPICE",
    "categoryCode": "HOSPICE",
    "licenseStatus": "ACTIVE",
    "inService": true,
    "licenseNumber": "550003458",
    "licenseEffectiveDate": "03/01/2024",
    "licenseExpirationDate": "02/28/2026",
    "dataDate": "10/18/2025",
    "capacity": 0,
    "address": "14011 VENTURA BLVD, SUITE 405E",
    "city": "SHERMAN OAKS",
    "zip": "91423",
    "county": "LOS ANGELES",
    "phone": "(818) 666-3534",
    "lat": 34.149276,
    "lng": -118.437768
  },
  {
    "id": "630011129",
    "name": "HOME HEALTH CARE DYNASTY",
    "npi": null,
    "hcaiId": "406197046",
    "businessName": "BURBANK HOME CARE, INC.",
    "contactEmail": "DYNASTYHHC@GMAIL.COM",
    "categoryName": "HOME HEALTH AGENCY",
    "categoryCode": "HHA",
    "licenseStatus": "ACTIVE",
    "inService": true,
    "licenseNumber": "550000389",
    "licenseEffectiveDate": "11/03/2025",
    "licenseExpirationDate": "11/02/2026",
    "dataDate": "10/18/2025",
    "capacity": 0,
    "address": "4730 WOODMAN AVE, SUITE 304",
    "city": "SHERMAN OAKS",
    "zip": "91423",
    "county": "LOS ANGELES",
    "phone": "(818) 506-5553",
    "lat": 34.156629,
    "lng": -118.4310315
  },
  {
    "id": "630019190",
    "name": "HUMANE HOME HEALTH, INC.",
    "npi": null,
    "hcaiId": "406192724",
    "businessName": "HUMANE HOME HEALTH, INC.",
    "contactEmail": "HUMANEHOMEHEALTH@GMAIL.COM",
    "categoryName": "HOME HEALTH AGENCY",
    "categoryCode": "HHA",
    "licenseStatus": "ACTIVE",
    "inService": true,
    "licenseNumber": "550005520",
    "licenseEffectiveDate": "06/12/2025",
    "licenseExpirationDate": "06/11/2026",
    "dataDate": "10/18/2025",
    "capacity": 0,
    "address": "13701 RIVERSIDE DR, SUITE 600",
    "city": "SHERMAN OAKS",
    "zip": "91423",
    "county": "LOS ANGELES",
    "phone": "(818) 465-8474",
    "lat": 34.15789146,
    "lng": -118.4319255
  },
  {
    "id": "630026662",
    "name": "HYE HOME HEALTH CARE, INC.",
    "npi": null,
    "hcaiId": null,
    "businessName": "HYE HOME HEALTH CARE, INC.",
    "contactEmail": "HYEHOMEHEALTH@GMAIL.COM",
    "categoryName": "HOME HEALTH AGENCY",
    "categoryCode": "HHA",
    "licenseStatus": "ACTIVE",
    "inService": true,
    "licenseNumber": "550009403",
    "licenseEffectiveDate": "09/09/2025",
    "licenseExpirationDate": "09/08/2026",
    "dataDate": "10/18/2025",
    "capacity": 0,
    "address": "14044 VENTURA BLVD, SUITE 307",
    "city": "SHERMAN OAKS",
    "zip": "91423",
    "county": "LOS ANGELES",
    "phone": "(800) 313-8393",
    "lat": 34.149069,
    "lng": -118.438722
  },
  {
    "id": "630018731",
    "name": "INFINITY HOME HEALTH CARE, INC",
    "npi": "1710446307",
    "hcaiId": "406191971",
    "businessName": "INFINITY HOME HEALTH CARE, INC",
    "contactEmail": "INFINITYHHCI@GMAIL.COM",
    "categoryName": "HOME HEALTH AGENCY",
    "categoryCode": "HHA",
    "licenseStatus": "ACTIVE",
    "inService": true,
    "licenseNumber": "550005030",
    "licenseEffectiveDate": "10/11/2024",
    "licenseExpirationDate": "10/10/2025",
    "dataDate": "10/18/2025",
    "capacity": 0,
    "address": "4368 WOODMAN AVE",
    "city": "SHERMAN OAKS",
    "zip": "91423",
    "county": "LOS ANGELES",
    "phone": "(818) 285-8556",
    "lat": 34.149978,
    "lng": -118.431027
  },
  {
    "id": "630017870",
    "name": "JOY HOME HEALTH CARE INC",
    "npi": "1588173884",
    "hcaiId": "406191895",
    "businessName": "JOY HOME HEALTH CARE INC",
    "contactEmail": "ADMIN@JOYHHC.COM",
    "categoryName": "HOME HEALTH AGENCY",
    "categoryCode": "HHA",
    "licenseStatus": "ACTIVE",
    "inService": true,
    "licenseNumber": "550004957",
    "licenseEffectiveDate": "09/19/2025",
    "licenseExpirationDate": "09/18/2026",
    "dataDate": "10/18/2025",
    "capacity": 0,
    "address": "13455 VENTURA BLVD, SUITE 303",
    "city": "SHERMAN OAKS",
    "zip": "91423",
    "county": "LOS ANGELES",
    "phone": "(818) 492-2270",
    "lat": 34.14732639,
    "lng": -118.4266536
  },
  {
    "id": "630020273",
    "name": "LA HIGHRISE HOSPICE CARE, INC.",
    "npi": null,
    "hcaiId": "406193917",
    "businessName": "LA HIGHRISE HOSPICE CARE, INC.",
    "contactEmail": "LAHIGHRISEHOSPICE@YAHOO.COM",
    "categoryName": "HOSPICE",
    "categoryCode": "HOSPICE",
    "licenseStatus": "ACTIVE",
    "inService": true,
    "licenseNumber": "550006964",
    "licenseEffectiveDate": "09/17/2023",
    "licenseExpirationDate": "09/16/2025",
    "dataDate": "10/18/2025",
    "capacity": 0,
    "address": "14429 VENTURA BLVD, UNIT 101A",
    "city": "SHERMAN OAKS",
    "zip": "91423",
    "county": "LOS ANGELES",
    "phone": "(747) 251-1128",
    "lat": 34.150905,
    "lng": -118.447479
  },
  {
    "id": "630021256",
    "name": "LION HOSPICE CARE, INC",
    "npi": null,
    "hcaiId": "406193738",
    "businessName": "LION HOSPICE CARE, INC",
    "contactEmail": "LIONHOSPICECARE@GMAIL.COM",
    "categoryName": "HOSPICE",
    "categoryCode": "HOSPICE",
    "licenseStatus": "ACTIVE",
    "inService": true,
    "licenseNumber": "550006673",
    "licenseEffectiveDate": "08/13/2023",
    "licenseExpirationDate": "08/12/2025",
    "dataDate": "10/18/2025",
    "capacity": 0,
    "address": "13317 VENTURA BLVD, SUITE H2",
    "city": "SHERMAN OAKS",
    "zip": "91423",
    "county": "LOS ANGELES",
    "phone": "(747) 277-0026",
    "lat": 34.146846,
    "lng": -118.4231475
  },
  {
    "id": "630027697",
    "name": "MAVMIN HOME HEALTH INC",
    "npi": null,
    "hcaiId": null,
    "businessName": "MAVMIN HOME HEALTH INC",
    "contactEmail": null,
    "categoryName": "HOME HEALTH AGENCY",
    "categoryCode": "HHA",
    "licenseStatus": "ACTIVE",
    "inService": true,
    "licenseNumber": "550009883",
    "licenseEffectiveDate": "07/02/2025",
    "licenseExpirationDate": "01/01/2026",
    "dataDate": "10/18/2025",
    "capacity": 0,
    "address": "13557 1/2 VENTURA BLVD, SUITE 211",
    "city": "SHERMAN OAKS",
    "zip": "91423",
    "county": "LOS ANGELES",
    "phone": null,
    "lat": 34.14789701,
    "lng": -118.429041
  },
  {
    "id": "630017160",
    "name": "MERIDIAN HOSPICE INC.",
    "npi": null,
    "hcaiId": "406191014",
    "businessName": "MERIDIAN HOSPICE INC.",
    "contactEmail": "ASMERIDIANHOSPICE@GMAIL.COM",
    "categoryName": "HOSPICE",
    "categoryCode": "HOSPICE",
    "licenseStatus": "ACTIVE",
    "inService": true,
    "licenseNumber": "550004340",
    "licenseEffectiveDate": "04/22/2025",
    "licenseExpirationDate": "08/09/2026",
    "dataDate": "10/18/2025",
    "capacity": 0,
    "address": "4312 WOODMAN AVE, SUITE 302",
    "city": "SHERMAN OAKS",
    "zip": "91423",
    "county": "LOS ANGELES",
    "phone": "(818) 857-4582",
    "lat": 34.14864002,
    "lng": -118.430774
  },
  {
    "id": "630024408",
    "name": "MORNING STAR HOME HEALTH, INC.",
    "npi": null,
    "hcaiId": "406195617",
    "businessName": "MORNING STAR HOME HEALTH, INC.",
    "contactEmail": "MORNINGSTARHHC@GMAIL.COM",
    "categoryName": "HOME HEALTH AGENCY",
    "categoryCode": "HHA",
    "licenseStatus": "ACTIVE",
    "inService": true,
    "licenseNumber": "550008109",
    "licenseEffectiveDate": "08/02/2025",
    "licenseExpirationDate": "08/01/2026",
    "dataDate": "10/18/2025",
    "capacity": 0,
    "address": "14144 VENTURA BLVD, SUITE 306",
    "city": "SHERMAN OAKS",
    "zip": "91423",
    "county": "LOS ANGELES",
    "phone": "(818) 809-2115",
    "lat": 34.149582,
    "lng": -118.441665
  },
  {
    "id": "630015690",
    "name": "MVH HOME HEALTH, INC",
    "npi": "1598160525",
    "hcaiId": "406198352",
    "businessName": "MVH HOME HEALTH, INC",
    "contactEmail": "MVHHOMEHEALTH@YAHOO.COM",
    "categoryName": "HOME HEALTH AGENCY",
    "categoryCode": "HHA",
    "licenseStatus": "ACTIVE",
    "inService": true,
    "licenseNumber": "550003522",
    "licenseEffectiveDate": "05/25/2025",
    "licenseExpirationDate": "05/24/2026",
    "dataDate": "10/18/2025",
    "capacity": 0,
    "address": "4312 WOODMAN AVE, SUITE 303",
    "city": "SHERMAN OAKS",
    "zip": "91423",
    "county": "LOS ANGELES",
    "phone": "(818) 789-3932",
    "lat": 34.14864467,
    "lng": -118.4307664
  },
  {
    "id": "630014233",
    "name": "NATIONAL HOME HEALTH SERVICES",
    "npi": "1740690536",
    "hcaiId": "406197897",
    "businessName": "AVATAR HEALTH MONITORING INC.",
    "contactEmail": "ALEXR@NATIONALHHA.COM",
    "categoryName": "HOME HEALTH AGENCY",
    "categoryCode": "HHA",
    "licenseStatus": "ACTIVE",
    "inService": false,
    "licenseNumber": "550002577",
    "licenseEffectiveDate": "02/06/2022",
    "licenseExpirationDate": "02/05/2023",
    "dataDate": "10/18/2025",
    "capacity": 0,
    "address": "13701 RIVERSIDE DR, SUITE 208",
    "city": "SHERMAN OAKS",
    "zip": "91423",
    "county": "LOS ANGELES",
    "phone": "(415) 821-2955",
    "lat": 34.157907,
    "lng": -118.431612
  },
  {
    "id": "630020612",
    "name": "NEW WAY HOSPICE AND PALLIATIVE CARE, INC",
    "npi": null,
    "hcaiId": "406193232",
    "businessName": "NEW WAY HOSPICE AND PALLIATIVE CARE, INC",
    "contactEmail": "NEWWAYHOSPICE@GMAIL.COM",
    "categoryName": "HOSPICE",
    "categoryCode": "HOSPICE",
    "licenseStatus": "ACTIVE",
    "inService": true,
    "licenseNumber": "550006272",
    "licenseEffectiveDate": "04/30/2025",
    "licenseExpirationDate": "04/29/2027",
    "dataDate": "10/18/2025",
    "capacity": 0,
    "address": "13701 RIVERSIDE DR, SUITE 513",
    "city": "SHERMAN OAKS",
    "zip": "91423",
    "county": "LOS ANGELES",
    "phone": "(818) 259-9466",
    "lat": 34.157907,
    "lng": -118.431612
  },
  {
    "id": "630022022",
    "name": "NOBLE HEALTHCARE SYSTEMS",
    "npi": null,
    "hcaiId": "406195138",
    "businessName": "UNIFIED HOSPICE SERVICES, INC",
    "contactEmail": "UNIFIEDHOSPICESERVICES@GMAIL.COM",
    "categoryName": "HOSPICE",
    "categoryCode": "HOSPICE",
    "licenseStatus": "ACTIVE",
    "inService": true,
    "licenseNumber": "550007598",
    "licenseEffectiveDate": "12/20/2023",
    "licenseExpirationDate": "12/19/2025",
    "dataDate": "10/18/2025",
    "capacity": 0,
    "address": "4730 WOODMAN AVE, SUITE 440B",
    "city": "SHERMAN OAKS",
    "zip": "91423",
    "county": "LOS ANGELES",
    "phone": "(818) 875-1276",
    "lat": 34.156629,
    "lng": -118.4310315
  },
  {
    "id": "630023461",
    "name": "NOBLE HOME HEALTHCARE SYSTEMS, INC.",
    "npi": null,
    "hcaiId": "406195601",
    "businessName": "NOBLE HOME HEALTHCARE SYSTEMS, INC.",
    "contactEmail": "NOBLEHOMEHEALTHCARESYSTEMS@GMAIL.COM",
    "categoryName": "HOME HEALTH AGENCY",
    "categoryCode": "HHA",
    "licenseStatus": "ACTIVE",
    "inService": true,
    "licenseNumber": "550008159",
    "licenseEffectiveDate": "08/25/2025",
    "licenseExpirationDate": "08/24/2026",
    "dataDate": "10/18/2025",
    "capacity": 0,
    "address": "4730 WOODMAN AVE, 420",
    "city": "SHERMAN OAKS",
    "zip": "91423",
    "county": "LOS ANGELES",
    "phone": "(818) 237-4437",
    "lat": 34.156629,
    "lng": -118.4310315
  },
  {
    "id": "630021726",
    "name": "NORTHSTAR HOME HEALTH, INC.",
    "npi": null,
    "hcaiId": "406193458",
    "businessName": "NORTHSTAR HOME HEALTH, INC.",
    "contactEmail": "NORTHSTARHOMECAREINC@GMAIL.COM",
    "categoryName": "HOME HEALTH AGENCY",
    "categoryCode": "HHA",
    "licenseStatus": "ACTIVE",
    "inService": true,
    "licenseNumber": "550007034",
    "licenseEffectiveDate": "09/23/2024",
    "licenseExpirationDate": "09/22/2025",
    "dataDate": "10/18/2025",
    "capacity": 0,
    "address": "13743 VENTURA BLVD, SUITE 310",
    "city": "SHERMAN OAKS",
    "zip": "91423",
    "county": "LOS ANGELES",
    "phone": "(818) 588-4908",
    "lat": 34.14833714,
    "lng": -118.4327236
  },
  {
    "id": "630016120",
    "name": "OLYMPIA HOSPICE CARE, INC.",
    "npi": "1770963159",
    "hcaiId": "406192151",
    "businessName": "OLYMPIA HOSPICE CARE, INC.",
    "contactEmail": "ANAMVH@YAHOO.COM",
    "categoryName": "HOSPICE",
    "categoryCode": "HOSPICE",
    "licenseStatus": "ACTIVE",
    "inService": true,
    "licenseNumber": "550003313",
    "licenseEffectiveDate": "12/23/2023",
    "licenseExpirationDate": "12/22/2025",
    "dataDate": "10/18/2025",
    "capacity": 0,
    "address": "13721 VENTURA BLVD",
    "city": "SHERMAN OAKS",
    "zip": "91423",
    "county": "LOS ANGELES",
    "phone": "(747) 222-8525",
    "lat": 34.148556,
    "lng": -118.432035
  },
  {
    "id": "630018492",
    "name": "ONYX HOSPICE, INC.",
    "npi": null,
    "hcaiId": "406192044",
    "businessName": "ONYX HOSPICE INC.",
    "contactEmail": "ONYXHOSPICEINC@GMAIL.COM",
    "categoryName": "HOSPICE",
    "categoryCode": "HOSPICE",
    "licenseStatus": "ACTIVE",
    "inService": true,
    "licenseNumber": "550005147",
    "licenseEffectiveDate": "02/27/2025",
    "licenseExpirationDate": "11/22/2025",
    "dataDate": "10/18/2025",
    "capacity": 0,
    "address": "14245 VENTURA BLVD, SUITE 305",
    "city": "SHERMAN OAKS",
    "zip": "91423",
    "county": "LOS ANGELES",
    "phone": "(818) 453-6925",
    "lat": 34.1503441,
    "lng": -118.4437848
  },
  {
    "id": "630025145",
    "name": "OPULENT CARE HOME HEALTH, INC.",
    "npi": null,
    "hcaiId": "406196828",
    "businessName": "OPULENT CARE HOME HEALTH, INC.",
    "contactEmail": "OPCAREHH@GMAIL.COM",
    "categoryName": "HOME HEALTH AGENCY",
    "categoryCode": "HHA",
    "licenseStatus": "ACTIVE",
    "inService": true,
    "licenseNumber": "550008362",
    "licenseEffectiveDate": "01/23/2025",
    "licenseExpirationDate": "01/22/2026",
    "dataDate": "10/18/2025",
    "capacity": 0,
    "address": "13907 VENTURA BLVD, #106",
    "city": "SHERMAN OAKS",
    "zip": "91423",
    "county": "LOS ANGELES",
    "phone": "(800) 727-1341",
    "lat": 34.14924,
    "lng": -118.4358105
  },
  {
    "id": "630020330",
    "name": "OTIUM HOSPICE CARE, INC.",
    "npi": null,
    "hcaiId": null,
    "businessName": "OTIUM HOSPICE CARE, INC.",
    "contactEmail": "OTIUMHOSPICECARE@GMAIL.COM",
    "categoryName": "HOSPICE",
    "categoryCode": "HOSPICE",
    "licenseStatus": "ACTIVE",
    "inService": true,
    "licenseNumber": "550006197",
    "licenseEffectiveDate": "04/11/2025",
    "licenseExpirationDate": "04/10/2027",
    "dataDate": "10/18/2025",
    "capacity": 0,
    "address": "4312 WOODMAN AVE, SUITE 207",
    "city": "SHERMAN OAKS",
    "zip": "91423",
    "county": "LOS ANGELES",
    "phone": "(747) 224-0500",
    "lat": 34.14864002,
    "lng": -118.430774
  },
  {
    "id": "630015451",
    "name": "PROFESSIONAL CARE HOME HEALTH",
    "npi": "1669880290",
    "hcaiId": "406198303",
    "businessName": "PROFESSIONAL CARE HOSPICE AND HOME HEALTH, INC.",
    "contactEmail": "PROFFHOMEHEALTH@GMAIL.COM",
    "categoryName": "HOME HEALTH AGENCY",
    "categoryCode": "HHA",
    "licenseStatus": "ACTIVE",
    "inService": true,
    "licenseNumber": "550003429",
    "licenseEffectiveDate": "02/12/2025",
    "licenseExpirationDate": "02/11/2026",
    "dataDate": "10/18/2025",
    "capacity": 0,
    "address": "13701 RIVERSIDE DR, #701",
    "city": "SHERMAN OAKS",
    "zip": "91423",
    "county": "LOS ANGELES",
    "phone": "(818) 935-5518",
    "lat": 34.157907,
    "lng": -118.431612
  },
  {
    "id": "630024145",
    "name": "PROMED HOME HEALTH CARE, INC.",
    "npi": null,
    "hcaiId": "406195464",
    "businessName": "PROMED HOME HEALTH CARE, INC.",
    "contactEmail": "PROMEDHH@GMAIL.COM",
    "categoryName": "HOME HEALTH AGENCY",
    "categoryCode": "HHA",
    "licenseStatus": "ACTIVE",
    "inService": true,
    "licenseNumber": "550007979",
    "licenseEffectiveDate": "05/09/2025",
    "licenseExpirationDate": "05/08/2026",
    "dataDate": "10/18/2025",
    "capacity": 0,
    "address": "13317 VENTURA BLVD, SUITE I",
    "city": "SHERMAN OAKS",
    "zip": "91423",
    "county": "LOS ANGELES",
    "phone": "(661) 941-2000",
    "lat": 34.14700299,
    "lng": -118.423105
  },
  {
    "id": "630021658",
    "name": "REAL CARE HOSPICE, INC",
    "npi": null,
    "hcaiId": "406190191",
    "businessName": "REAL CARE HOSPICE, INC",
    "contactEmail": "REALCAREHOSPICE@GMAIL.COM",
    "categoryName": "HOSPICE",
    "categoryCode": "HOSPICE",
    "licenseStatus": "ACTIVE",
    "inService": true,
    "licenseNumber": "550007641",
    "licenseEffectiveDate": "03/19/2024",
    "licenseExpirationDate": "11/28/2025",
    "dataDate": "10/18/2025",
    "capacity": 0,
    "address": "4730 WOODMAN AVE, SUITE 205",
    "city": "SHERMAN OAKS",
    "zip": "91423",
    "county": "LOS ANGELES",
    "phone": "(818) 836-0808",
    "lat": 34.15670199,
    "lng": -118.430881
  },
  {
    "id": "630017530",
    "name": "RELIABLE HOME HEALTH CARE",
    "npi": null,
    "hcaiId": "406192610",
    "businessName": "RELIABLE HOME HEALTH CARE",
    "contactEmail": "RELIABLEHHC@GMAIL.COM",
    "categoryName": "HOME HEALTH AGENCY",
    "categoryCode": "HHA",
    "licenseStatus": "ACTIVE",
    "inService": true,
    "licenseNumber": "550005254",
    "licenseEffectiveDate": "09/03/2025",
    "licenseExpirationDate": "11/14/2025",
    "dataDate": "10/18/2025",
    "capacity": 0,
    "address": "13701 RIVERSIDE DR, SUITE 610",
    "city": "SHERMAN OAKS",
    "zip": "91423",
    "county": "LOS ANGELES",
    "phone": "(818) 906-4005",
    "lat": 34.157907,
    "lng": -118.431612
  },
  {
    "id": "630026166",
    "name": "REVIVE HEALTHCARE SYSTEMS, INC.",
    "npi": null,
    "hcaiId": null,
    "businessName": "REVIVE HEALTHCARE SYSTEMS, INC.",
    "contactEmail": "REVIVEHEALTHCARESYSTEMS@GMAIL.COM",
    "categoryName": "HOME HEALTH AGENCY",
    "categoryCode": "HHA",
    "licenseStatus": "ACTIVE",
    "inService": true,
    "licenseNumber": "550009571",
    "licenseEffectiveDate": "06/06/2025",
    "licenseExpirationDate": "12/05/2025",
    "dataDate": "10/18/2025",
    "capacity": 0,
    "address": "4730 WOODMAN AVE, SUITE 440A",
    "city": "SHERMAN OAKS",
    "zip": "91423",
    "county": "LOS ANGELES",
    "phone": "(818) 940-1706",
    "lat": 34.156629,
    "lng": -118.4310315
  },
  {
    "id": "630026375",
    "name": "RMA HOME HEALTHCARE INC.",
    "npi": null,
    "hcaiId": null,
    "businessName": "RMA HOME HEALTHCARE INC.",
    "contactEmail": "RMAHOMEHEALTH@GMAIL.COM",
    "categoryName": "HOME HEALTH AGENCY",
    "categoryCode": "HHA",
    "licenseStatus": "ACTIVE",
    "inService": true,
    "licenseNumber": "550009137",
    "licenseEffectiveDate": "05/10/2025",
    "licenseExpirationDate": "05/09/2026",
    "dataDate": "10/18/2025",
    "capacity": 0,
    "address": "14429 VENTURA BLVD, SUITE 106C",
    "city": "SHERMAN OAKS",
    "zip": "91423",
    "county": "LOS ANGELES",
    "phone": "(747) 240-4444",
    "lat": 34.15117701,
    "lng": -118.447056
  },
  {
    "id": "630022305",
    "name": "SAINT GREGORY HOSPICE LLC",
    "npi": null,
    "hcaiId": "406190340",
    "businessName": "SAINT GREGORY HOSPICE LLC",
    "contactEmail": "SAINTGREGORYHOSPICE@GMAIL.COM",
    "categoryName": "HOSPICE",
    "categoryCode": "HOSPICE",
    "licenseStatus": "ACTIVE",
    "inService": true,
    "licenseNumber": "550007670",
    "licenseEffectiveDate": "12/22/2023",
    "licenseExpirationDate": "12/21/2025",
    "dataDate": "10/18/2025",
    "capacity": 0,
    "address": "14241 VENTURA BLVD, SUITE 200",
    "city": "SHERMAN OAKS",
    "zip": "91423",
    "county": "LOS ANGELES",
    "phone": "(323) 433-0942",
    "lat": 34.150248,
    "lng": -118.4435595
  },
  {
    "id": "630020849",
    "name": "SAMARITAN HOSPICE CARE, INC.",
    "npi": null,
    "hcaiId": "406196696",
    "businessName": "SAMARITAN HOSPICE CARE INC",
    "contactEmail": "SAMARITANHOSPICECARE@GMAIL.COM",
    "categoryName": "HOSPICE",
    "categoryCode": "HOSPICE",
    "licenseStatus": "ACTIVE",
    "inService": true,
    "licenseNumber": "550006392",
    "licenseEffectiveDate": "06/11/2025",
    "licenseExpirationDate": "06/10/2027",
    "dataDate": "10/18/2025",
    "capacity": 0,
    "address": "4312 WOODMAN AVE, SUITE 206",
    "city": "SHERMAN OAKS",
    "zip": "91423",
    "county": "LOS ANGELES",
    "phone": "(213) 947-3737",
    "lat": 34.148646,
    "lng": -118.430748
  },
  {
    "id": "920000066",
    "name": "SHERMAN OAKS HEALTH & REHABILITATION CENTER",
    "npi": "1316018310",
    "hcaiId": "206190709",
    "businessName": "ABILITY HOMECARE, INC.",
    "contactEmail": "FAC98ADMIN@LONGWOODMGMT.COM",
    "categoryName": "SKILLED NURSING FACILITY",
    "categoryCode": "SNF",
    "licenseStatus": "ACTIVE",
    "inService": true,
    "licenseNumber": "920000066",
    "licenseEffectiveDate": "11/01/2025",
    "licenseExpirationDate": "10/31/2026",
    "dataDate": "10/18/2025",
    "capacity": 120,
    "address": "14401 HUSTON ST",
    "city": "SHERMAN OAKS",
    "zip": "91423",
    "county": "LOS ANGELES",
    "phone": "(818) 986-7242",
    "lat": 34.159923,
    "lng": -118.446678
  },
  {
    "id": "630025701",
    "name": "SUNTRUST HOME HEALTH, INC.",
    "npi": null,
    "hcaiId": "406190156",
    "businessName": "SUNTRUST HOME HEALTH, INC.",
    "contactEmail": "SUNTRUSTHHINC@GMAIL.COM",
    "categoryName": "HOME HEALTH AGENCY",
    "categoryCode": "HHA",
    "licenseStatus": "ACTIVE",
    "inService": true,
    "licenseNumber": "550008922",
    "licenseEffectiveDate": "01/19/2025",
    "licenseExpirationDate": "01/18/2026",
    "dataDate": "10/18/2025",
    "capacity": 0,
    "address": "13557 1/2 VENTURA BLVD, SUITE 202",
    "city": "SHERMAN OAKS",
    "zip": "91423",
    "county": "LOS ANGELES",
    "phone": "(818) 574-8074",
    "lat": 34.147818,
    "lng": -118.4289795
  },
  {
    "id": "630016160",
    "name": "SVA HOSPICE",
    "npi": "1699158907",
    "hcaiId": "406198521",
    "businessName": "SVA HOSPICE",
    "contactEmail": "SVAHOSPICE2015@YAHOO.COM",
    "categoryName": "HOSPICE",
    "categoryCode": "HOSPICE",
    "licenseStatus": "ACTIVE",
    "inService": true,
    "licenseNumber": "550003990",
    "licenseEffectiveDate": "10/23/2023",
    "licenseExpirationDate": "10/22/2025",
    "dataDate": "10/18/2025",
    "capacity": 0,
    "address": "14241 VENTURA BLVD, SUITE 305",
    "city": "SHERMAN OAKS",
    "zip": "91423",
    "county": "LOS ANGELES",
    "phone": "(818) 946-8061",
    "lat": 34.150304,
    "lng": -118.443539
  },
  {
    "id": "630022337",
    "name": "THE HOME HEALTH AGENCY, INC.",
    "npi": null,
    "hcaiId": "406195860",
    "businessName": "THE HOME HEALTH AGENCY, INC.",
    "contactEmail": "INFO@THEHHA.NET",
    "categoryName": "HOME HEALTH AGENCY",
    "categoryCode": "HHA",
    "licenseStatus": "ACTIVE",
    "inService": true,
    "licenseNumber": "550008015",
    "licenseEffectiveDate": "06/16/2025",
    "licenseExpirationDate": "05/17/2026",
    "dataDate": "10/18/2025",
    "capacity": 0,
    "address": "4730 WOODMAN AVE, SUITE 303",
    "city": "SHERMAN OAKS",
    "zip": "91423",
    "county": "LOS ANGELES",
    "phone": "(818) 235-3333",
    "lat": 34.15670199,
    "lng": -118.430881
  },
  {
    "id": "630018818",
    "name": "THE LAKES HOME HEALTH SERVICES, INC.",
    "npi": "1386104669",
    "hcaiId": "406155647",
    "businessName": "THE LAKES HOME HEALTH SERVICES, INC.",
    "contactEmail": "CONTACT@THELAKESHHS.COM",
    "categoryName": "HOME HEALTH AGENCY",
    "categoryCode": "HHA",
    "licenseStatus": "ACTIVE",
    "inService": true,
    "licenseNumber": "550005474",
    "licenseEffectiveDate": "05/13/2025",
    "licenseExpirationDate": "05/12/2026",
    "dataDate": "10/18/2025",
    "capacity": 0,
    "address": "14140 VENTURA BLVD, SUITE 204",
    "city": "SHERMAN OAKS",
    "zip": "91423",
    "county": "LOS ANGELES",
    "phone": "(833) 473-1490",
    "lat": 34.14931698,
    "lng": -118.441459
  },
  {
    "id": "630025259",
    "name": "TRUSTWORTHY HOME CARE, INC.",
    "npi": null,
    "hcaiId": "406198828",
    "businessName": "TRUSTWORTHY HOME CARE, INC.",
    "contactEmail": "TRUSTWORTHYHCI@GMAIL.COM",
    "categoryName": "HOME HEALTH AGENCY",
    "categoryCode": "HHA",
    "licenseStatus": "ACTIVE",
    "inService": true,
    "licenseNumber": "550008319",
    "licenseEffectiveDate": "09/29/2025",
    "licenseExpirationDate": "01/08/2026",
    "dataDate": "10/18/2025",
    "capacity": 0,
    "address": "4730 WOODMAN AVE, SUITE 400",
    "city": "SHERMAN OAKS",
    "zip": "91423",
    "county": "LOS ANGELES",
    "phone": "(818) 934-5600",
    "lat": 34.156701,
    "lng": -118.430883
  },
  {
    "id": "630025877",
    "name": "VALLEY ONE HOME HEALTH, INC.",
    "npi": null,
    "hcaiId": null,
    "businessName": "VALLEY ONE HOME HEALTH, INC.",
    "contactEmail": "VALLEYONEHH@GMAIL.COM",
    "categoryName": "HOME HEALTH AGENCY",
    "categoryCode": "HHA",
    "licenseStatus": "ACTIVE",
    "inService": true,
    "licenseNumber": "550009345",
    "licenseEffectiveDate": "08/12/2025",
    "licenseExpirationDate": "08/11/2026",
    "dataDate": "10/18/2025",
    "capacity": 0,
    "address": "13415 VENTURA BLVD, SUITE 4",
    "city": "SHERMAN OAKS",
    "zip": "91423",
    "county": "LOS ANGELES",
    "phone": "(424) 330-8338",
    "lat": 34.147224,
    "lng": -118.4254245
  },
  {
    "id": "630019185",
    "name": "VIDACARE LIMITED LIABILITY COMPANY",
    "npi": null,
    "hcaiId": "406192723",
    "businessName": "VIDACARE LIMITED LIABILITY COMPANY",
    "contactEmail": "VIDACARE2019@GMAIL.COM",
    "categoryName": "HOME HEALTH AGENCY",
    "categoryCode": "HHA",
    "licenseStatus": "ACTIVE",
    "inService": true,
    "licenseNumber": "550005501",
    "licenseEffectiveDate": "05/22/2025",
    "licenseExpirationDate": "05/21/2026",
    "dataDate": "10/18/2025",
    "capacity": 0,
    "address": "13701 RIVERSIDE DR, SUITE 705",
    "city": "SHERMAN OAKS",
    "zip": "91423",
    "county": "LOS ANGELES",
    "phone": "(818) 809-2442",
    "lat": 34.157907,
    "lng": -118.431612
  }
]