[
  {
    "id": "630020195",
    "name": "A & R HOSPICE AND PALLIATIVE CARE,INC.",
    "npi": null,
    "hcaiId": "406192998",
    "businessName": "A & R HOSPICE AND PALLIATIVE CARE,INC.",
    "contactEmail": "ARHOSPICEINC@GMAIL.COM",
    "categoryName": "HOSPICE",
    "categoryCode": "HOSPICE",
    "licenseStatus": "ACTIVE",
    "inService": true,
    "licenseNumber": "550005875",
    "licenseEffectiveDate": "11/25/2024",
    "licenseExpirationDate": "11/24/2026",
    "dataDate": "10/18/2025",
    "capacity": 0,
    "address": "16830 VENTURA BLVD, SUITE 355",
    "city": "ENCINO",
    "zip": "91436",
    "county": "LOS ANGELES",
    "phone": "(818) 448-3985",
    "lat": 34.15877898,
    "lng": -118.500835
  },
  {
    "id": "630026064",
    "name": "ACAI HOME HEALTH CARE",
    "npi": null,
    "hcaiId": null,
    "businessName": "ACAI HOME HEALTH CARE",
    "contactEmail": "ACAIHHC@GMAIL.COM",
    "categoryName": "HOME HEALTH AGENCY",
    "categoryCode": "HHA",
    "licenseStatus": "ACTIVE",
    "inService": true,
    "licenseNumber": "550009163",
    "licenseEffectiveDate": "04/24/2025",
    "licenseExpirationDate": "04/23/2026",
    "dataDate": "10/18/2025",
    "capacity": 0,
    "address": "15720 VENTURA BLVD, SUITE 231",
    "city": "ENCINO",
    "zip": "91436",
    "county": "LOS ANGELES",
    "phone": "(747) 400-0132",
    "lat": 34.155045,
    "lng": -118.475622
  },
  {
    "id": "630012289",
    "name": "ACCESS HOME HEALTH CARE LLC",
    "npi": "1568617397",
    "hcaiId": "406198250",
    "businessName": "ACCESS HOME HEALTH CARE LLC",
    "contactEmail": "ACCESSHHC@YAHOO.COM",
    "categoryName": "HOME HEALTH AGENCY",
    "categoryCode": "HHA",
    "licenseStatus": "ACTIVE",
    "inService": true,
    "licenseNumber": "550001197",
    "licenseEffectiveDate": "09/25/2025",
    "licenseExpirationDate": "09/24/2026",
    "dataDate": "10/18/2025",
    "capacity": 0,
    "address": "16542 VENTURA BLVD, SUITE 306",
    "city": "ENCINO",
    "zip": "91436",
    "county": "LOS ANGELES",
    "phone": "(818) 277-2000",
    "lat": 34.157366,
    "lng": -118.493947
  },
  {
    "id": "630017340",
    "name": "ALL ASSIST HOME HEALTHCARE",
    "npi": null,
    "hcaiId": "406191446",
    "businessName": "ROCKMAN HOLDINGS, INC.",
    "contactEmail": "AAHH@ALLASSISTHEALTH.COM",
    "categoryName": "HOME HEALTH AGENCY",
    "categoryCode": "HHA",
    "licenseStatus": "ACTIVE",
    "inService": true,
    "licenseNumber": "550004425",
    "licenseEffectiveDate": "11/09/2022",
    "licenseExpirationDate": "11/08/2023",
    "dataDate": "10/18/2025",
    "capacity": 0,
    "address": "16530 VENTURA BLVD, SUITE 207",
    "city": "ENCINO",
    "zip": "91436",
    "county": "LOS ANGELES",
    "phone": "(818) 442-7115",
    "lat": 34.157529,
    "lng": -118.493406
  },
  {
    "id": "980001882",
    "name": "ALL-MED HOME HEALTH SERVICES, INC.",
    "npi": "1386642197",
    "hcaiId": "406195068",
    "businessName": "ALL MED HOME HEALTH SERVICES, INC.",
    "contactEmail": "ALLMEDHHS@GMAIL.COM",
    "categoryName": "HOME HEALTH AGENCY",
    "categoryCode": "HHA",
    "licenseStatus": "ACTIVE",
    "inService": true,
    "licenseNumber": "980001076",
    "licenseEffectiveDate": "11/22/2024",
    "licenseExpirationDate": "11/21/2025",
    "dataDate": "10/18/2025",
    "capacity": 0,
    "address": "16661 VENTURA BLVD, SUITE 503",
    "city": "ENCINO",
    "zip": "91436",
    "county": "LOS ANGELES",
    "phone": "(818) 437-5387",
    "lat": 34.158375,
    "lng": -118.496448
  },
  {
    "id": "630015453",
    "name": "ANN HOSPICE, INC.",
    "npi": "1336558196",
    "hcaiId": "406198128",
    "businessName": "ANN HOSPICE, INC.",
    "contactEmail": "ANNHOSPICE@ATT.NET",
    "categoryName": "HOSPICE",
    "categoryCode": "HOSPICE",
    "licenseStatus": "ACTIVE",
    "inService": true,
    "licenseNumber": "550003316",
    "licenseEffectiveDate": "12/10/2023",
    "licenseExpirationDate": "12/09/2025",
    "dataDate": "10/18/2025",
    "capacity": 0,
    "address": "16530 VENTURA BLVD, SUITE 204",
    "city": "ENCINO",
    "zip": "91436",
    "county": "LOS ANGELES",
    "phone": "(818) 238-0088",
    "lat": 34.157529,
    "lng": -118.493406
  },
  {
    "id": "630027304",
    "name": "ANTHEM HOME HEALTH CARE, INC.",
    "npi": null,
    "hcaiId": null,
    "businessName": "ANTHEM HOME HEALTH CARE, INC.",
    "contactEmail": "ANTHEMHOMEHEALTHCARE12@GMAIL.COM",
    "categoryName": "HOME HEALTH AGENCY",
    "categoryCode": "HHA",
    "licenseStatus": "ACTIVE",
    "inService": true,
    "licenseNumber": "550009484",
    "licenseEffectiveDate": "11/07/2025",
    "licenseExpirationDate": "11/06/2026",
    "dataDate": "10/18/2025",
    "capacity": 0,
    "address": "16200 VENTURA BLVD, SUITE 305",
    "city": "ENCINO",
    "zip": "91436",
    "county": "LOS ANGELES",
    "phone": "(818) 934-9040",
    "lat": 34.15624899,
    "lng": -118.485603
  },
  {
    "id": "630016834",
    "name": "ARROWHEAD HOSPICE INC",
    "npi": null,
    "hcaiId": "406195909",
    "businessName": "ARROWHEAD HOSPICE, INC.",
    "contactEmail": "ARROWHEADHOSPICE@GMAIL.COM",
    "categoryName": "HOSPICE",
    "categoryCode": "HOSPICE",
    "licenseStatus": "ACTIVE",
    "inService": true,
    "licenseNumber": "550003789",
    "licenseEffectiveDate": "10/17/2024",
    "licenseExpirationDate": "10/16/2026",
    "dataDate": "10/18/2025",
    "capacity": 0,
    "address": "16250 VENTURA BLVD, SUITE 426",
    "city": "ENCINO",
    "zip": "91436",
    "county": "LOS ANGELES",
    "phone": "(909) 332-5776",
    "lat": 34.156683,
    "lng": -118.487151
  },
  {
    "id": "630011044",
    "name": "ART HOME HEALTH CARE, INC",
    "npi": "1609094804",
    "hcaiId": "406197038",
    "businessName": "ART HOME HEALTH CARE, INC.",
    "contactEmail": "GELAREHROSTAMY@GMAIL.COM",
    "categoryName": "HOME HEALTH AGENCY",
    "categoryCode": "HHA",
    "licenseStatus": "ACTIVE",
    "inService": true,
    "licenseNumber": "550000529",
    "licenseEffectiveDate": "02/10/2025",
    "licenseExpirationDate": "02/09/2026",
    "dataDate": "10/18/2025",
    "capacity": 0,
    "address": "16661 VENTURA BLVD, SUITE 404A",
    "city": "ENCINO",
    "zip": "91436",
    "county": "LOS ANGELES",
    "phone": "(818) 609-0303",
    "lat": 34.158375,
    "lng": -118.496448
  },
  {
    "id": "630021378",
    "name": "ASTRA HOSPICE CARE, INC.",
    "npi": null,
    "hcaiId": "406193711",
    "businessName": "ASTRA HOSPICE CARE, INC.",
    "contactEmail": "INFO@ASTRAHOSPICECARE.COM",
    "categoryName": "HOSPICE",
    "categoryCode": "HOSPICE",
    "licenseStatus": "ACTIVE",
    "inService": true,
    "licenseNumber": "550006697",
    "licenseEffectiveDate": "01/22/2025",
    "licenseExpirationDate": "08/12/2025",
    "dataDate": "10/18/2025",
    "capacity": 0,
    "address": "15720 VENTURA BLVD, SUITE 402",
    "city": "ENCINO",
    "zip": "91436",
    "county": "LOS ANGELES",
    "phone": "(818) 927-0625",
    "lat": 34.15504606,
    "lng": -118.4756336
  },
  {
    "id": "630020474",
    "name": "ASTUTE CARE HOSPICE, INC.",
    "npi": null,
    "hcaiId": "406193713",
    "businessName": "ASTUTE CARE HOSPICE, INC.",
    "contactEmail": "ASTUTECAREHOSPICEINC@GMAIL.COM",
    "categoryName": "HOSPICE",
    "categoryCode": "HOSPICE",
    "licenseStatus": "ACTIVE",
    "inService": true,
    "licenseNumber": "550006718",
    "licenseEffectiveDate": "09/10/2024",
    "licenseExpirationDate": "08/17/2025",
    "dataDate": "10/18/2025",
    "capacity": 0,
    "address": "15720 VENTURA BLVD, SUITE 613",
    "city": "ENCINO",
    "zip": "91436",
    "county": "LOS ANGELES",
    "phone": "(818) 696-0103",
    "lat": 34.15499698,
    "lng": -118.475713
  },
  {
    "id": "630025404",
    "name": "AVALON HOME HEALTH CARE",
    "npi": null,
    "hcaiId": null,
    "businessName": "AVALON HOME HEALTH CARE",
    "contactEmail": "DUCHITEL1@GMAIL.COM",
    "categoryName": "HOME HEALTH AGENCY",
    "categoryCode": "HHA",
    "licenseStatus": "ACTIVE",
    "inService": true,
    "licenseNumber": "550009187",
    "licenseEffectiveDate": "03/29/2025",
    "licenseExpirationDate": "03/28/2026",
    "dataDate": "10/18/2025",
    "capacity": 0,
    "address": "16430 VENTURA BLVD, SUITE 202B",
    "city": "ENCINO",
    "zip": "91436",
    "county": "LOS ANGELES",
    "phone": "(818) 280-9794",
    "lat": 34.157016,
    "lng": -118.4912325
  },
  {
    "id": "630023947",
    "name": "BEKA HOME HEALTH CARE, INC.",
    "npi": null,
    "hcaiId": "406195434",
    "businessName": "BEKA HOME HEALTH, INC.",
    "contactEmail": "BEKAHOMEHEALTH@YAHOO.COM",
    "categoryName": "HOME HEALTH AGENCY",
    "categoryCode": "HHA",
    "licenseStatus": "ACTIVE",
    "inService": true,
    "licenseNumber": "550008103",
    "licenseEffectiveDate": "08/02/2025",
    "licenseExpirationDate": "08/01/2026",
    "dataDate": "10/18/2025",
    "capacity": 0,
    "address": "15720 VENTURA BLVD, SUITE 240",
    "city": "ENCINO",
    "zip": "91436",
    "county": "LOS ANGELES",
    "phone": "(747) 295-8038",
    "lat": 34.155045,
    "lng": -118.475622
  },
  {
    "id": "630020916",
    "name": "BELMONT HOME HEALTH CARE, INC",
    "npi": null,
    "hcaiId": "406195384",
    "businessName": "BELMONT HOME HEALTH CARE, INC",
    "contactEmail": "BELMONTHOMEHEALTH@GMAIL.COM",
    "categoryName": "HOME HEALTH AGENCY",
    "categoryCode": "HHA",
    "licenseStatus": "ACTIVE",
    "inService": true,
    "licenseNumber": "550006399",
    "licenseEffectiveDate": "06/11/2025",
    "licenseExpirationDate": "06/10/2026",
    "dataDate": "10/18/2025",
    "capacity": 0,
    "address": "16661 VENTURA BLVD, SUITE 506",
    "city": "ENCINO",
    "zip": "91436",
    "county": "LOS ANGELES",
    "phone": "(818) 855-1681",
    "lat": 34.158375,
    "lng": -118.496448
  },
  {
    "id": "630019401",
    "name": "BETTER DAYS HOSPICE",
    "npi": null,
    "hcaiId": "406192824",
    "businessName": "PRY INC.",
    "contactEmail": "BETTERDAYSHOSPICE@GMAIL.COM",
    "categoryName": "HOSPICE",
    "categoryCode": "HOSPICE",
    "licenseStatus": "ACTIVE",
    "inService": true,
    "licenseNumber": "550005674",
    "licenseEffectiveDate": "07/27/2024",
    "licenseExpirationDate": "07/26/2026",
    "dataDate": "10/18/2025",
    "capacity": 0,
    "address": "16200 VENTURA BLVD, SUITE 309",
    "city": "ENCINO",
    "zip": "91436",
    "county": "LOS ANGELES",
    "phone": "(818) 486-2273",
    "lat": 34.15626,
    "lng": -118.4855895
  },
  {
    "id": "630022447",
    "name": "BLS HOME CARE, INC",
    "npi": null,
    "hcaiId": "406195479",
    "businessName": "BLS HOME CARE, INC",
    "contactEmail": "BLSHOMECARE@GMAIL.COM",
    "categoryName": "HOME HEALTH AGENCY",
    "categoryCode": "HHA",
    "licenseStatus": "ACTIVE",
    "inService": true,
    "licenseNumber": "550007879",
    "licenseEffectiveDate": "03/10/2025",
    "licenseExpirationDate": "03/09/2026",
    "dataDate": "10/18/2025",
    "capacity": 0,
    "address": "16542 VENTURA BLVD, SUITE 300",
    "city": "ENCINO",
    "zip": "91436",
    "county": "LOS ANGELES",
    "phone": "(818) 860-4008",
    "lat": 34.15760199,
    "lng": -118.4939395
  },
  {
    "id": "630007722",
    "name": "BOULEVARD SURGICENTER, INC.",
    "npi": "1861504037",
    "hcaiId": null,
    "businessName": null,
    "contactEmail": "DR.BERGER@ATT.NET",
    "categoryName": "SURGICAL CLINIC",
    "categoryCode": "ASC",
    "licenseStatus": null,
    "inService": null,
    "licenseNumber": null,
    "licenseEffectiveDate": null,
    "licenseExpirationDate": null,
    "dataDate": "10/18/2025",
    "capacity": 0,
    "address": "16030 VENTURA BLVD, SUITE 150",
    "city": "ENCINO",
    "zip": "91436",
    "county": "LOS ANGELES",
    "phone": "(818) 990-4545",
    "lat": 34.155981,
    "lng": -118.482471
  },
  {
    "id": "630026485",
    "name": "CAL STAR HOME HEALTH",
    "npi": null,
    "hcaiId": null,
    "businessName": "CAL STAR HOME HEALTH",
    "contactEmail": "CALSTARHH@GMAIL.COM",
    "categoryName": "HOME HEALTH AGENCY",
    "categoryCode": "HHA",
    "licenseStatus": "ACTIVE",
    "inService": true,
    "licenseNumber": "550009245",
    "licenseEffectiveDate": "07/08/2025",
    "licenseExpirationDate": "07/07/2026",
    "dataDate": "10/18/2025",
    "capacity": 0,
    "address": "16200 VENTURA BLVD, SUITE 302",
    "city": "ENCINO",
    "zip": "91436",
    "county": "LOS ANGELES",
    "phone": "(800) 572-6058",
    "lat": 34.15624899,
    "lng": -118.485603
  },
  {
    "id": "630025645",
    "name": "CALIFORNIA CARE HOME HEALTH, INC.",
    "npi": null,
    "hcaiId": null,
    "businessName": "CALIFORNIA CARE HOME HEALTH, INC.",
    "contactEmail": "CALIFORNIACAREHH@GMAIL.COM",
    "categoryName": "HOME HEALTH AGENCY",
    "categoryCode": "HHA",
    "licenseStatus": "ACTIVE",
    "inService": true,
    "licenseNumber": "550008888",
    "licenseEffectiveDate": "12/15/2024",
    "licenseExpirationDate": "12/14/2025",
    "dataDate": "10/18/2025",
    "capacity": 0,
    "address": "16250 VENTURA BLVD, SUITE 230",
    "city": "ENCINO",
    "zip": "91436",
    "county": "LOS ANGELES",
    "phone": "(800) 887-7075",
    "lat": 34.156683,
    "lng": -118.487151
  },
  {
    "id": "630018226",
    "name": "CARDEA HOSPICE & PALLIATIVE CARE",
    "npi": null,
    "hcaiId": "406191919",
    "businessName": "CARDEA HOSPICE & PALLIATIVE CARE",
    "contactEmail": "DUCHITEL1@GMAIL.COM",
    "categoryName": "HOSPICE",
    "categoryCode": "HOSPICE",
    "licenseStatus": "ACTIVE",
    "inService": true,
    "licenseNumber": "550004959",
    "licenseEffectiveDate": "03/26/2025",
    "licenseExpirationDate": "09/24/2025",
    "dataDate": "10/18/2025",
    "capacity": 0,
    "address": "16430 VENTURA BLVD, SUITE 202 A",
    "city": "ENCINO",
    "zip": "91436",
    "county": "LOS ANGELES",
    "phone": "(818) 206-8813",
    "lat": 34.15701103,
    "lng": -118.4912527
  },
  {
    "id": "960001961",
    "name": "CARE CENTER REHABILITATION AND PAIN MANAGEMENT",
    "npi": null,
    "hcaiId": null,
    "businessName": null,
    "contactEmail": "BKLASS@CARECTR.COM",
    "categoryName": "REHABILITATION CLINIC",
    "categoryCode": "OPT/SP",
    "licenseStatus": null,
    "inService": null,
    "licenseNumber": null,
    "licenseEffectiveDate": null,
    "licenseExpirationDate": null,
    "dataDate": "10/18/2025",
    "capacity": 0,
    "address": "16550 VENTURA BLVD, SUITE 120",
    "city": "ENCINO",
    "zip": "91436",
    "county": "LOS ANGELES",
    "phone": "(818) 784-0990",
    "lat": 34.157457,
    "lng": -118.494288
  },
  {
    "id": "630011222",
    "name": "CARE LIGHT HOME CARE",
    "npi": "1063550549",
    "hcaiId": "406197198",
    "businessName": "CARE LIGHT, INC.",
    "contactEmail": "INFO@CARELIGHTHOMECARE.COM",
    "categoryName": "HOME HEALTH AGENCY",
    "categoryCode": "HHA",
    "licenseStatus": "ACTIVE",
    "inService": false,
    "licenseNumber": "550000824",
    "licenseEffectiveDate": "11/07/2025",
    "licenseExpirationDate": "11/06/2026",
    "dataDate": "10/18/2025",
    "capacity": 0,
    "address": "16861 VENTURA BLVD, SUITE 309",
    "city": "ENCINO",
    "zip": "91436",
    "county": "LOS ANGELES",
    "phone": "(818) 789-3250",
    "lat": 34.159482,
    "lng": -118.500714
  },
  {
    "id": "980001684",
    "name": "CARE SHARING HOME HEALTH",
    "npi": "1821044348",
    "hcaiId": "406194921",
    "businessName": "CARE SHARING, LLC",
    "contactEmail": "CARESHARING2002@YAHOO.COM",
    "categoryName": "HOME HEALTH AGENCY",
    "categoryCode": "HHA",
    "licenseStatus": "ACTIVE",
    "inService": true,
    "licenseNumber": "980000999",
    "licenseEffectiveDate": "07/20/2023",
    "licenseExpirationDate": "07/19/2024",
    "dataDate": "10/18/2025",
    "capacity": 0,
    "address": "16861 VENTURA BLVD, SUITE 200",
    "city": "ENCINO",
    "zip": "91436",
    "county": "LOS ANGELES",
    "phone": "(818) 784-9940",
    "lat": 34.159482,
    "lng": -118.500714
  },
  {
    "id": "630020202",
    "name": "CARING JOY PROVIDERS",
    "npi": null,
    "hcaiId": "406192970",
    "businessName": "CARING JOY PROVIDERS",
    "contactEmail": "INFO@CARINGJOYPROVIDERS.COM",
    "categoryName": "HOSPICE",
    "categoryCode": "HOSPICE",
    "licenseStatus": "ACTIVE",
    "inService": true,
    "licenseNumber": "550005833",
    "licenseEffectiveDate": "11/03/2024",
    "licenseExpirationDate": "11/02/2026",
    "dataDate": "10/18/2025",
    "capacity": 0,
    "address": "16255 VENTURA BLVD, SUITE 1016",
    "city": "ENCINO",
    "zip": "91436",
    "county": "LOS ANGELES",
    "phone": "(818) 641-1125",
    "lat": 34.157106,
    "lng": -118.4876775
  },
  {
    "id": "630019608",
    "name": "CHERUB HOME HEALTH, INC.",
    "npi": null,
    "hcaiId": "406192767",
    "businessName": "CHERUB HOME HEALTH, INC.",
    "contactEmail": "CHERUBHOMEHEALTH@GMAIL.COM",
    "categoryName": "HOME HEALTH AGENCY",
    "categoryCode": "HHA",
    "licenseStatus": "ACTIVE",
    "inService": true,
    "licenseNumber": "550005634",
    "licenseEffectiveDate": "09/24/2024",
    "licenseExpirationDate": "07/26/2025",
    "dataDate": "10/18/2025",
    "capacity": 0,
    "address": "16200 VENTURA BLVD, SUITE 424",
    "city": "ENCINO",
    "zip": "91436",
    "county": "LOS ANGELES",
    "phone": "(818) 473-5448",
    "lat": 34.15624899,
    "lng": -118.485603
  },
  {
    "id": "630022342",
    "name": "COMFORT DAYS HOSPICE",
    "npi": null,
    "hcaiId": "406195165",
    "businessName": "COMFORT DAYS HOSPICE",
    "contactEmail": "ASHOT543@GMAIL.COM",
    "categoryName": "HOSPICE",
    "categoryCode": "HOSPICE",
    "licenseStatus": "ACTIVE",
    "inService": true,
    "licenseNumber": "550007572",
    "licenseEffectiveDate": "02/15/2024",
    "licenseExpirationDate": "12/20/2025",
    "dataDate": "10/18/2025",
    "capacity": 0,
    "address": "15720 VENTURA BLVD, SUITE 222",
    "city": "ENCINO",
    "zip": "91436",
    "county": "LOS ANGELES",
    "phone": "(424) 239-8781",
    "lat": 34.15499698,
    "lng": -118.475713
  },
  {
    "id": "630027427",
    "name": "COMITY HOME HEALTH, INC.",
    "npi": null,
    "hcaiId": null,
    "businessName": "COMITY HOME HEALTH, INC.",
    "contactEmail": "COMITYHOMEHEALTH@GMAIL.COM",
    "categoryName": "HOME HEALTH AGENCY",
    "categoryCode": "HHA",
    "licenseStatus": "ACTIVE",
    "inService": true,
    "licenseNumber": "550009659",
    "licenseEffectiveDate": "08/13/2025",
    "licenseExpirationDate": "02/12/2026",
    "dataDate": "10/18/2025",
    "capacity": 0,
    "address": "15720 VENTURA BLVD, SUITE 220",
    "city": "ENCINO",
    "zip": "91436",
    "county": "LOS ANGELES",
    "phone": "(818) 809-2329",
    "lat": 34.15499698,
    "lng": -118.475713
  },
  {
    "id": "630025759",
    "name": "CUREX HEALTH INC.",
    "npi": null,
    "hcaiId": null,
    "businessName": "CUREX HEALTH INC.",
    "contactEmail": "CUREXHEALTHH@YAHOO.COM",
    "categoryName": "HOME HEALTH AGENCY",
    "categoryCode": "HHA",
    "licenseStatus": "ACTIVE",
    "inService": true,
    "licenseNumber": "550009065",
    "licenseEffectiveDate": "04/08/2025",
    "licenseExpirationDate": "04/07/2026",
    "dataDate": "10/18/2025",
    "capacity": 0,
    "address": "16200 VENTURA BLVD, SUITE 426",
    "city": "ENCINO",
    "zip": "91436",
    "county": "LOS ANGELES",
    "phone": "(818) 488-6858",
    "lat": 34.156467,
    "lng": -118.4857065
  },
  {
    "id": "630022706",
    "name": "DEVOTED HOME HEALTH CARE",
    "npi": null,
    "hcaiId": "406190315",
    "businessName": "VENTUS HOME HEALTH CARE INC",
    "contactEmail": "VENTUSHHC@GMAIL.COM",
    "categoryName": "HOME HEALTH AGENCY",
    "categoryCode": "HHA",
    "licenseStatus": "ACTIVE",
    "inService": true,
    "licenseNumber": "550008112",
    "licenseEffectiveDate": "08/02/2025",
    "licenseExpirationDate": "08/01/2026",
    "dataDate": "10/18/2025",
    "capacity": 0,
    "address": "15720 VENTURA BLVD, SUITE 408",
    "city": "ENCINO",
    "zip": "91436",
    "county": "LOS ANGELES",
    "phone": "(650) 618-9997",
    "lat": 34.15499698,
    "lng": -118.475713
  },
  {
    "id": "630016639",
    "name": "DIGNITY HOME HEALTH, INC.",
    "npi": "1366805822",
    "hcaiId": "406190850",
    "businessName": "DIGNITY HOME HEALTH, INC.",
    "contactEmail": "DIGNITYHHC2018@YAHOO.COM",
    "categoryName": "HOME HEALTH AGENCY",
    "categoryCode": "HHA",
    "licenseStatus": "ACTIVE",
    "inService": true,
    "licenseNumber": "550004236",
    "licenseEffectiveDate": "06/06/2025",
    "licenseExpirationDate": "04/27/2026",
    "dataDate": "10/18/2025",
    "capacity": 0,
    "address": "16430 VENTURA BLVD, SUITE 203",
    "city": "ENCINO",
    "zip": "91436",
    "county": "LOS ANGELES",
    "phone": "(323) 963-5312",
    "lat": 34.15700202,
    "lng": -118.491248
  },
  {
    "id": "630004981",
    "name": "DOCTORS' OUTPATIENT SURGERY CENTER",
    "npi": "1821127275",
    "hcaiId": null,
    "businessName": null,
    "contactEmail": "NONE@DHS.CA.GOV",
    "categoryName": "SURGICAL CLINIC",
    "categoryCode": "ASC",
    "licenseStatus": null,
    "inService": null,
    "licenseNumber": null,
    "licenseEffectiveDate": null,
    "licenseExpirationDate": null,
    "dataDate": "10/18/2025",
    "capacity": 0,
    "address": "16311 VENTURA BLVD, SUITE 1085",
    "city": "ENCINO",
    "zip": "91436",
    "county": "LOS ANGELES",
    "phone": null,
    "lat": 34.157232,
    "lng": -118.4885595
  },
  {
    "id": "630026472",
    "name": "ELEVATING HOME HEALTH SERVICES",
    "npi": null,
    "hcaiId": null,
    "businessName": "ELEVATING HOME HEALTH SERVICES",
    "contactEmail": "ELEVATINGHH@GMAIL.COM",
    "categoryName": "HOME HEALTH AGENCY",
    "categoryCode": "HHA",
    "licenseStatus": "ACTIVE",
    "inService": true,
    "licenseNumber": "550009183",
    "licenseEffectiveDate": "05/24/2025",
    "licenseExpirationDate": "05/23/2026",
    "dataDate": "10/18/2025",
    "capacity": 0,
    "address": "16200 VENTURA BLVD, SUITE 304",
    "city": "ENCINO",
    "zip": "91436",
    "county": "LOS ANGELES",
    "phone": "(800) 249-8830",
    "lat": 34.156467,
    "lng": -118.4857065
  },
  {
    "id": "630016888",
    "name": "EMILY'S HOME HEALTH CARE INC",
    "npi": "1063864544",
    "hcaiId": "406192005",
    "businessName": "EMILY'S HOME HEALTH CARE, INC.",
    "contactEmail": "LBAUTISTARN@EMILYSHOMEHEALTH.COM",
    "categoryName": "HOME HEALTH AGENCY",
    "categoryCode": "HHA",
    "licenseStatus": "ACTIVE",
    "inService": true,
    "licenseNumber": "550005069",
    "licenseEffectiveDate": "10/09/2025",
    "licenseExpirationDate": "10/08/2026",
    "dataDate": "10/18/2025",
    "capacity": 0,
    "address": "16661 VENTURA BLVD, SUITE 400G",
    "city": "ENCINO",
    "zip": "91436",
    "county": "LOS ANGELES",
    "phone": "(818) 208-9388",
    "lat": 34.158375,
    "lng": -118.496448
  },
  {
    "id": "630025622",
    "name": "ENCINO HOME HEALTH INC",
    "npi": null,
    "hcaiId": "406198006",
    "businessName": "ENCINO HOME HEALTH INC",
    "contactEmail": "ENCINOHH@YAHOO.COM",
    "categoryName": "HOME HEALTH AGENCY",
    "categoryCode": "HHA",
    "licenseStatus": "ACTIVE",
    "inService": true,
    "licenseNumber": "550008731",
    "licenseEffectiveDate": "09/01/2025",
    "licenseExpirationDate": "08/31/2026",
    "dataDate": "10/18/2025",
    "capacity": 0,
    "address": "15720 VENTURA BLVD, SUITE 243",
    "city": "ENCINO",
    "zip": "91436",
    "county": "LOS ANGELES",
    "phone": "(818) 697-1814",
    "lat": 34.155045,
    "lng": -118.475622
  },
  {
    "id": "630015780",
    "name": "ENCINO HOSPICE CARE, INC.",
    "npi": null,
    "hcaiId": "406191935",
    "businessName": "ENCINO HOSPICE CARE, INC.",
    "contactEmail": "ENCINOHOSPICE@GMAIL.COM",
    "categoryName": "HOSPICE",
    "categoryCode": "HOSPICE",
    "licenseStatus": "ACTIVE",
    "inService": true,
    "licenseNumber": "550003859",
    "licenseEffectiveDate": "04/06/2025",
    "licenseExpirationDate": "04/05/2027",
    "dataDate": "10/18/2025",
    "capacity": 0,
    "address": "16250 VENTURA BLVD, SUITE 415",
    "city": "ENCINO",
    "zip": "91436",
    "county": "LOS ANGELES",
    "phone": "(818) 643-3250",
    "lat": 34.156683,
    "lng": -118.487151
  },
  {
    "id": "930000054",
    "name": "ENCINO HOSPITAL MEDICAL CENTER",
    "npi": "1437322377",
    "hcaiId": "106190280",
    "businessName": "PRIME HEALTHCARE SERVICES-ENCINO, LLC",
    "contactEmail": "EMGARCIA@PRIMEHEALTHCARE.COM",
    "categoryName": "GENERAL ACUTE CARE HOSPITAL",
    "categoryCode": "GACH",
    "licenseStatus": "ACTIVE",
    "inService": true,
    "licenseNumber": "930000051",
    "licenseEffectiveDate": "06/01/2025",
    "licenseExpirationDate": "05/31/2026",
    "dataDate": "10/18/2025",
    "capacity": 107,
    "address": "16237 VENTURA BLVD",
    "city": "ENCINO",
    "zip": "91436",
    "county": "LOS ANGELES",
    "phone": "(818) 995-5000",
    "lat": 34.157448,
    "lng": -118.4870655
  },
  {
    "id": "930000865",
    "name": "ENCINO HOSPITAL MEDICAL CENTER",
    "npi": "1619141298",
    "hcaiId": null,
    "businessName": "PRIME HEALTHCARE SERVICES-ENCINO, LLC",
    "contactEmail": null,
    "categoryName": "SKILLED NURSING FACILITY",
    "categoryCode": "SNF",
    "licenseStatus": "ACTIVE",
    "inService": true,
    "licenseNumber": "930000051",
    "licenseEffectiveDate": "06/01/2025",
    "licenseExpirationDate": "05/31/2026",
    "dataDate": "10/18/2025",
    "capacity": 28,
    "address": "16237 VENTURA BLVD",
    "city": "ENCINO",
    "zip": "91436",
    "county": "LOS ANGELES",
    "phone": null,
    "lat": 34.157448,
    "lng": -118.4870655
  },
  {
    "id": "930000867",
    "name": "ENCINO HOSPITAL MEDICAL CENTER",
    "npi": "1437322377",
    "hcaiId": null,
    "businessName": "PRIME HEALTHCARE SERVICES-ENCINO, LLC",
    "contactEmail": null,
    "categoryName": "ACUTE PSYCHIATRIC HOSPITAL",
    "categoryCode": "APH",
    "licenseStatus": "ACTIVE",
    "inService": true,
    "licenseNumber": "930000051",
    "licenseEffectiveDate": "06/01/2025",
    "licenseExpirationDate": "05/31/2026",
    "dataDate": "10/18/2025",
    "capacity": 13,
    "address": "16237 VENTURA BLVD",
    "city": "ENCINO",
    "zip": "91436",
    "county": "LOS ANGELES",
    "phone": "(818) 995-5000",
    "lat": 34.157448,
    "lng": -118.4870655
  },
  {
    "id": "930000672",
    "name": "ENCINO OUTPATIENT SURGERY CENTER",
    "npi": "1629132360",
    "hcaiId": null,
    "businessName": null,
    "contactEmail": "WDMED@AOL.COM",
    "categoryName": "SURGICAL CLINIC",
    "categoryCode": "ASC",
    "licenseStatus": null,
    "inService": null,
    "licenseNumber": null,
    "licenseEffectiveDate": null,
    "licenseExpirationDate": null,
    "dataDate": "10/18/2025",
    "capacity": 0,
    "address": "16311 VENTURA BLVD, SUITE 580",
    "city": "ENCINO",
    "zip": "91436",
    "county": "LOS ANGELES",
    "phone": "(818) 986-1037",
    "lat": 34.157232,
    "lng": -118.4885595
  },
  {
    "id": "630012894",
    "name": "ENCINO PLACE PAIN MANAGEMENT AND SURGERY CENTER",
    "npi": "1063715548",
    "hcaiId": null,
    "businessName": null,
    "contactEmail": null,
    "categoryName": "SURGICAL CLINIC",
    "categoryCode": "ASC",
    "licenseStatus": null,
    "inService": null,
    "licenseNumber": null,
    "licenseEffectiveDate": null,
    "licenseExpirationDate": null,
    "dataDate": "10/18/2025",
    "capacity": 0,
    "address": "16101 VENTURA BLVD, SUITE 240",
    "city": "ENCINO",
    "zip": "91436",
    "county": "LOS ANGELES",
    "phone": "(818) 582-3471",
    "lat": 34.156584,
    "lng": -118.483821
  },
  {
    "id": "630016615",
    "name": "ENCINO SURGICAL CENTER, LLC",
    "npi": "1316342579",
    "hcaiId": null,
    "businessName": null,
    "contactEmail": "RRIEDEL@APMGCA.COM",
    "categoryName": "SURGICAL CLINIC",
    "categoryCode": "ASC",
    "licenseStatus": null,
    "inService": null,
    "licenseNumber": null,
    "licenseEffectiveDate": null,
    "licenseExpirationDate": null,
    "dataDate": "10/18/2025",
    "capacity": 0,
    "address": "16260 VENTURA BLVD., SUITE 800",
    "city": "ENCINO",
    "zip": "91436",
    "county": "LOS ANGELES",
    "phone": "(818) 348-7246",
    "lat": 34.156728,
    "lng": -118.487628
  },
  {
    "id": "930001750",
    "name": "ENCINO SURGICAL INSTITUTE",
    "npi": null,
    "hcaiId": null,
    "businessName": null,
    "contactEmail": "KHAYAVI@BHDOCS.COM",
    "categoryName": "SURGICAL CLINIC",
    "categoryCode": "ASC",
    "licenseStatus": null,
    "inService": null,
    "licenseNumber": null,
    "licenseEffectiveDate": null,
    "licenseExpirationDate": null,
    "dataDate": "10/18/2025",
    "capacity": 0,
    "address": "16260 VENTURA BLVD, SUITE 210",
    "city": "ENCINO",
    "zip": "91436",
    "county": "LOS ANGELES",
    "phone": "(818) 817-0600",
    "lat": 34.156728,
    "lng": -118.487628
  },
  {
    "id": "930001837",
    "name": "ENCINO SURGICAL MEDICAL CENTER",
    "npi": "1437219276",
    "hcaiId": "306196809",
    "businessName": "MINEHART MEDICAL CORPORATION",
    "contactEmail": "MRENCINO@SBCGOLBAL.NET",
    "categoryName": "SURGICAL CLINIC",
    "categoryCode": "ASC",
    "licenseStatus": "INACTIVE - CAPEN DECISION",
    "inService": false,
    "licenseNumber": "550000247",
    "licenseEffectiveDate": "06/08/2007",
    "licenseExpirationDate": "06/07/2008",
    "dataDate": "10/18/2025",
    "capacity": 0,
    "address": "16250 VENTURA BLVD, SUITE 165",
    "city": "ENCINO",
    "zip": "91436",
    "county": "LOS ANGELES",
    "phone": "(818) 784-3125",
    "lat": 34.156548,
    "lng": -118.4872275
  },
  {
    "id": "930001311",
    "name": "ENCINO SURGICENTER",
    "npi": "1780787218",
    "hcaiId": null,
    "businessName": null,
    "contactEmail": "PAM@DRSANDERS.COM",
    "categoryName": "SURGICAL CLINIC",
    "categoryCode": "ASC",
    "licenseStatus": null,
    "inService": null,
    "licenseNumber": null,
    "licenseEffectiveDate": null,
    "licenseExpirationDate": null,
    "dataDate": "10/18/2025",
    "capacity": 0,
    "address": "16633 VENTURA BLVD, SUITE 110",
    "city": "ENCINO",
    "zip": "91436",
    "county": "LOS ANGELES",
    "phone": "(818) 981-3333",
    "lat": 34.158231,
    "lng": -118.49571
  },
  {
    "id": "630027155",
    "name": "FAST ACTION HOME HEALTH, INC.",
    "npi": null,
    "hcaiId": null,
    "businessName": "FAST ACTION HOME HEALTH, INC.",
    "contactEmail": "FASTACTIONHHI@GMAIL.COM",
    "categoryName": "HOME HEALTH AGENCY",
    "categoryCode": "HHA",
    "licenseStatus": "ACTIVE",
    "inService": true,
    "licenseNumber": "550009450",
    "licenseEffectiveDate": "10/07/2025",
    "licenseExpirationDate": "10/06/2026",
    "dataDate": "10/18/2025",
    "capacity": 0,
    "address": "15720 VENTURA BLVD, SUITE 507",
    "city": "ENCINO",
    "zip": "91436",
    "county": "LOS ANGELES",
    "phone": "(818) 570-8380",
    "lat": 34.15499698,
    "lng": -118.475713
  },
  {
    "id": "630026883",
    "name": "FIFTH AVENUE HOME HEALTH INC",
    "npi": null,
    "hcaiId": null,
    "businessName": "FIFTH AVENUE HOME HEALTH INC",
    "contactEmail": "FIFTHAVENUEHOMEHEALTH@GMAIL.COM",
    "categoryName": "HOME HEALTH AGENCY",
    "categoryCode": "HHA",
    "licenseStatus": "ACTIVE",
    "inService": true,
    "licenseNumber": "550009671",
    "licenseEffectiveDate": "09/03/2025",
    "licenseExpirationDate": "03/02/2026",
    "dataDate": "10/18/2025",
    "capacity": 0,
    "address": "15826 VENTURA BLVD, SUITE 222C",
    "city": "ENCINO",
    "zip": "91436",
    "county": "LOS ANGELES",
    "phone": "(818) 281-5659",
    "lat": 34.15527,
    "lng": -118.478592
  },
  {
    "id": "930001618",
    "name": "FREEDOM VISION CENTERS MEDICAL ASSOCIATES",
    "npi": "1669414306",
    "hcaiId": "306196047",
    "businessName": "FREEDOM VISION SURGERY CENTER, LLC",
    "contactEmail": "KIML@EPFVSURG.COM",
    "categoryName": "SURGICAL CLINIC",
    "categoryCode": "ASC",
    "licenseStatus": "INACTIVE - CAPEN DECISION",
    "inService": false,
    "licenseNumber": "930000916",
    "licenseEffectiveDate": "11/21/2007",
    "licenseExpirationDate": "11/20/2008",
    "dataDate": "10/18/2025",
    "capacity": 0,
    "address": "16255 VENTURA BLVD, SUITE 100",
    "city": "ENCINO",
    "zip": "91436",
    "county": "LOS ANGELES",
    "phone": "(818) 783-2346",
    "lat": 34.157106,
    "lng": -118.4876775
  },
  {
    "id": "630020640",
    "name": "FRONTIER HOME HEALTH CARE, INC.",
    "npi": null,
    "hcaiId": "406195672",
    "businessName": "FRONTIER HOME HEALTH CARE, INC.",
    "contactEmail": "FRONTIERHOMECARE@GMAIL.COM",
    "categoryName": "HOME HEALTH AGENCY",
    "categoryCode": "HHA",
    "licenseStatus": "ACTIVE",
    "inService": true,
    "licenseNumber": "550006071",
    "licenseEffectiveDate": "02/04/2025",
    "licenseExpirationDate": "02/03/2026",
    "dataDate": "10/18/2025",
    "capacity": 0,
    "address": "15720 VENTURA BLVD, SUITE 307",
    "city": "ENCINO",
    "zip": "91436",
    "county": "LOS ANGELES",
    "phone": "(818) 922-2444",
    "lat": 34.155045,
    "lng": -118.475622
  },
  {
    "id": "630016591",
    "name": "G.M.H. HOSPICE AND PALLIATIVE CARE, INC.",
    "npi": null,
    "hcaiId": "406190791",
    "businessName": "G.M.H. HOSPICE AND PALLIATIVE CARE, INC.",
    "contactEmail": "GMHHOSPICE1@YAHOO.COM",
    "categoryName": "HOSPICE",
    "categoryCode": "HOSPICE",
    "licenseStatus": "ACTIVE",
    "inService": true,
    "licenseNumber": "550004151",
    "licenseEffectiveDate": "01/08/2024",
    "licenseExpirationDate": "01/07/2026",
    "dataDate": "10/18/2025",
    "capacity": 0,
    "address": "16200 VENTURA BLVD, SUITE 303",
    "city": "ENCINO",
    "zip": "91436",
    "county": "LOS ANGELES",
    "phone": "(818) 988-9972",
    "lat": 34.156467,
    "lng": -118.4857065
  },
  {
    "id": "630021428",
    "name": "GIVING HANDS HOME HEALTH CARE, INC",
    "npi": null,
    "hcaiId": "406193423",
    "businessName": "GIVING HANDS HOME HEALTH CARE, INC",
    "contactEmail": "GIVINGHANDSCARE@YAHOO.COM",
    "categoryName": "HOME HEALTH AGENCY",
    "categoryCode": "HHA",
    "licenseStatus": "ACTIVE",
    "inService": true,
    "licenseNumber": "550006904",
    "licenseEffectiveDate": "09/16/2025",
    "licenseExpirationDate": "09/15/2026",
    "dataDate": "10/18/2025",
    "capacity": 0,
    "address": "15720 VENTURA BLVD, SUITE 303",
    "city": "ENCINO",
    "zip": "91436",
    "county": "LOS ANGELES",
    "phone": "(818) 922-2565",
    "lat": 34.155184,
    "lng": -118.475156
  },
  {
    "id": "630023093",
    "name": "GOLD COAST HOME HEALTH, INC.",
    "npi": null,
    "hcaiId": "406195813",
    "businessName": "GOLD COAST HOME HEALTH, INC.",
    "contactEmail": "GOLDCOASTHOMEHEALTH@GMAIL.COM",
    "categoryName": "HOME HEALTH AGENCY",
    "categoryCode": "HHA",
    "licenseStatus": "ACTIVE",
    "inService": true,
    "licenseNumber": "550007845",
    "licenseEffectiveDate": "02/15/2025",
    "licenseExpirationDate": "02/14/2026",
    "dataDate": "10/18/2025",
    "capacity": 0,
    "address": "16200 VENTURA BLVD, SUITE 407A",
    "city": "ENCINO",
    "zip": "91436",
    "county": "LOS ANGELES",
    "phone": "(818) 446-7511",
    "lat": 34.15624899,
    "lng": -118.485603
  },
  {
    "id": "930001696",
    "name": "GOLD MED SURGERY CENTER, INC",
    "npi": "1750673398",
    "hcaiId": null,
    "businessName": null,
    "contactEmail": "SOUTHPACENCINO@GMAIL.COM",
    "categoryName": "SURGICAL CLINIC",
    "categoryCode": "ASC",
    "licenseStatus": null,
    "inService": null,
    "licenseNumber": null,
    "licenseEffectiveDate": null,
    "licenseExpirationDate": null,
    "dataDate": "10/18/2025",
    "capacity": 0,
    "address": "16311 VENTURA BLVD, SUITE 1010",
    "city": "ENCINO",
    "zip": "91436",
    "county": "LOS ANGELES",
    "phone": "(818) 990-9080",
    "lat": 34.157232,
    "lng": -118.4885595
  },
  {
    "id": "630023437",
    "name": "GOLDEN VALLEY HEALTHCARE INC",
    "npi": null,
    "hcaiId": "406195802",
    "businessName": "GOLDEN VALLEY HEALTHCARE INC",
    "contactEmail": "GOLDENVALLEYHEALTHCARE@GMAIL.COM",
    "categoryName": "HOME HEALTH AGENCY",
    "categoryCode": "HHA",
    "licenseStatus": "ACTIVE",
    "inService": true,
    "licenseNumber": "550007830",
    "licenseEffectiveDate": "08/01/2025",
    "licenseExpirationDate": "02/08/2026",
    "dataDate": "10/18/2025",
    "capacity": 0,
    "address": "15928 VENTURA BOULEVARD, SUITE 210",
    "city": "ENCINO",
    "zip": "91436",
    "county": "LOS ANGELES",
    "phone": "(747) 297-6433",
    "lat": 34.15569444,
    "lng": -118.4804094
  },
  {
    "id": "630026078",
    "name": "GRACEFUL HELPING HOME HEALTH CARE",
    "npi": null,
    "hcaiId": null,
    "businessName": "GRACEFUL HELPING HOME HEALTH CARE",
    "contactEmail": "GRACEFULHELPING.HHC@GMAIL.COM",
    "categoryName": "HOME HEALTH AGENCY",
    "categoryCode": "HHA",
    "licenseStatus": "ACTIVE",
    "inService": true,
    "licenseNumber": "550009222",
    "licenseEffectiveDate": "12/14/2024",
    "licenseExpirationDate": "06/13/2025",
    "dataDate": "10/18/2025",
    "capacity": 0,
    "address": "15720 VENTURA BLVD, SUITE 242",
    "city": "ENCINO",
    "zip": "91436",
    "county": "LOS ANGELES",
    "phone": "(747) 444-4472",
    "lat": 34.155045,
    "lng": -118.475622
  },
  {
    "id": "630026203",
    "name": "GREAT LIFE HOME CARE INC",
    "npi": null,
    "hcaiId": null,
    "businessName": "GREAT LIFE HOME CARE INC",
    "contactEmail": "GREATLIFEHH91@YAHOO.COM",
    "categoryName": "HOME HEALTH AGENCY",
    "categoryCode": "HHA",
    "licenseStatus": "ACTIVE",
    "inService": true,
    "licenseNumber": "550009288",
    "licenseEffectiveDate": "02/06/2025",
    "licenseExpirationDate": "08/05/2025",
    "dataDate": "10/18/2025",
    "capacity": 0,
    "address": "15720 VENTURA BLVD, SUITE 422",
    "city": "ENCINO",
    "zip": "91436",
    "county": "LOS ANGELES",
    "phone": "(818) 927-0122",
    "lat": 34.155045,
    "lng": -118.475622
  },
  {
    "id": "630023448",
    "name": "GREAT LIFE HOME HEALTH INC.",
    "npi": null,
    "hcaiId": "406195787",
    "businessName": "GREAT LIFE HOME HEALTH INC.",
    "contactEmail": "GREATLIFEHH@GMAIL.COM",
    "categoryName": "HOME HEALTH AGENCY",
    "categoryCode": "HHA",
    "licenseStatus": "ACTIVE",
    "inService": true,
    "licenseNumber": "550007816",
    "licenseEffectiveDate": "02/01/2025",
    "licenseExpirationDate": "01/31/2026",
    "dataDate": "10/18/2025",
    "capacity": 0,
    "address": "15720 VENTURA BLVD, SUITE 608",
    "city": "ENCINO",
    "zip": "91436",
    "county": "LOS ANGELES",
    "phone": "(818) 797-5293",
    "lat": 34.155045,
    "lng": -118.475622
  },
  {
    "id": "630026903",
    "name": "GUIDING HANDS HOME HEALTH CARE, INC.",
    "npi": null,
    "hcaiId": null,
    "businessName": "GUIDING HANDS HOME HEALTH CARE, INC.",
    "contactEmail": "GUIDINGHANDSHH@GMAIL.COM",
    "categoryName": "HOME HEALTH AGENCY",
    "categoryCode": "HHA",
    "licenseStatus": "ACTIVE",
    "inService": true,
    "licenseNumber": "550009532",
    "licenseEffectiveDate": "05/20/2025",
    "licenseExpirationDate": "11/19/2025",
    "dataDate": "10/18/2025",
    "capacity": 0,
    "address": "15720 VENTURA BLVD, SUITE 415",
    "city": "ENCINO",
    "zip": "91436",
    "county": "LOS ANGELES",
    "phone": "(818) 855-1701",
    "lat": 34.155045,
    "lng": -118.475622
  },
  {
    "id": "630020567",
    "name": "HABKO HOME HEALTH CARE, INC.",
    "npi": null,
    "hcaiId": "406196023",
    "businessName": "HABKO HOME HEALTH CARE, INC.",
    "contactEmail": "HABKOHOMEHEALTH@YAHOO.COM",
    "categoryName": "HOME HEALTH AGENCY",
    "categoryCode": "HHA",
    "licenseStatus": "ACTIVE",
    "inService": true,
    "licenseNumber": "550006532",
    "licenseEffectiveDate": "07/14/2025",
    "licenseExpirationDate": "07/13/2026",
    "dataDate": "10/18/2025",
    "capacity": 0,
    "address": "15720 VENTURA BLVD, SUITE 235",
    "city": "ENCINO",
    "zip": "91436",
    "county": "LOS ANGELES",
    "phone": "(818) 616-1888",
    "lat": 34.155045,
    "lng": -118.475622
  },
  {
    "id": "630025757",
    "name": "HARMONA HEALTH INC.",
    "npi": null,
    "hcaiId": null,
    "businessName": "HARMONA HEALTH INC.",
    "contactEmail": "HARMONAHEALTH@GMAIL.COM",
    "categoryName": "HOME HEALTH AGENCY",
    "categoryCode": "HHA",
    "licenseStatus": "ACTIVE",
    "inService": true,
    "licenseNumber": "550009527",
    "licenseEffectiveDate": "11/19/2025",
    "licenseExpirationDate": "11/18/2026",
    "dataDate": "10/18/2025",
    "capacity": 0,
    "address": "16200 VENTURA BLVD, SUITE 214",
    "city": "ENCINO",
    "zip": "91436",
    "county": "LOS ANGELES",
    "phone": "(818) 488-6838",
    "lat": 34.156467,
    "lng": -118.4857065
  },
  {
    "id": "630022944",
    "name": "HEALING GARDEN CORPORATION",
    "npi": null,
    "hcaiId": "406195835",
    "businessName": "HEALING GARDEN CORPORATION",
    "contactEmail": "HEALINGGARDENHOMEHEALTH@GMAIL.COM",
    "categoryName": "HOME HEALTH AGENCY",
    "categoryCode": "HHA",
    "licenseStatus": "ACTIVE",
    "inService": true,
    "licenseNumber": "550007958",
    "licenseEffectiveDate": "08/09/2025",
    "licenseExpirationDate": "04/26/2026",
    "dataDate": "10/18/2025",
    "capacity": 0,
    "address": "15928 VENTURA BOULEVARD, SUITE 209",
    "city": "ENCINO",
    "zip": "91436",
    "county": "LOS ANGELES",
    "phone": "(954) 579-5614",
    "lat": 34.1553932,
    "lng": -118.4851085
  },
  {
    "id": "630011301",
    "name": "HEALTHY LIFE HOME CARE, INC.",
    "npi": "1528265923",
    "hcaiId": "406197176",
    "businessName": "HEALTHY LIFE HOME CARE, INC.",
    "contactEmail": "HEALTHYLIFEHOME@ATT.NET",
    "categoryName": "HOME HEALTH AGENCY",
    "categoryCode": "HHA",
    "licenseStatus": "ACTIVE",
    "inService": true,
    "licenseNumber": "550000816",
    "licenseEffectiveDate": "02/01/2025",
    "licenseExpirationDate": "01/31/2026",
    "dataDate": "10/18/2025",
    "capacity": 0,
    "address": "16661 VENTURA BLVD, SUITE 613",
    "city": "ENCINO",
    "zip": "91436",
    "county": "LOS ANGELES",
    "phone": "(818) 787-9950",
    "lat": 34.158375,
    "lng": -118.496448
  },
  {
    "id": "630020760",
    "name": "HELP LINE HOME HEALTH",
    "npi": null,
    "hcaiId": "406194722",
    "businessName": "HELP LINE HOME HEALTH",
    "contactEmail": "HARARZ@GMAIL.COM",
    "categoryName": "HOME HEALTH AGENCY",
    "categoryCode": "HHA",
    "licenseStatus": "ACTIVE",
    "inService": true,
    "licenseNumber": "550007336",
    "licenseEffectiveDate": "08/18/2025",
    "licenseExpirationDate": "08/17/2026",
    "dataDate": "10/18/2025",
    "capacity": 0,
    "address": "16200 VENTURA BLVD, SUITE 420",
    "city": "ENCINO",
    "zip": "91436",
    "county": "LOS ANGELES",
    "phone": "(818) 747-7756",
    "lat": 34.15626,
    "lng": -118.4855895
  },
  {
    "id": "630022412",
    "name": "HELPFUL HOSPICE CARE",
    "npi": null,
    "hcaiId": null,
    "businessName": "HELPFUL HOSPICE CARE",
    "contactEmail": "HELPFULHOSPICECARE@GMAIL.COM",
    "categoryName": "HOSPICE",
    "categoryCode": "HOSPICE",
    "licenseStatus": "ACTIVE",
    "inService": true,
    "licenseNumber": "550007631",
    "licenseEffectiveDate": "12/21/2023",
    "licenseExpirationDate": "12/20/2025",
    "dataDate": "10/18/2025",
    "capacity": 0,
    "address": "15720 VENTURA BLVD, SUITE 207",
    "city": "ENCINO",
    "zip": "91436",
    "county": "LOS ANGELES",
    "phone": "(424) 347-9120",
    "lat": 34.15499698,
    "lng": -118.475713
  },
  {
    "id": "630021205",
    "name": "HOSPICE CARE, INC.",
    "npi": null,
    "hcaiId": "406193603",
    "businessName": "HOSPICE CARE, INC.",
    "contactEmail": "E-HOSPICECAREENCINO@GMAIL.COM",
    "categoryName": "HOSPICE",
    "categoryCode": "HOSPICE",
    "licenseStatus": "ACTIVE",
    "inService": true,
    "licenseNumber": "550006497",
    "licenseEffectiveDate": "07/02/2023",
    "licenseExpirationDate": "07/01/2025",
    "dataDate": "10/18/2025",
    "capacity": 0,
    "address": "15826 VENTURA BLVD, SUITE 223",
    "city": "ENCINO",
    "zip": "91436",
    "county": "LOS ANGELES",
    "phone": "(747) 666-0603",
    "lat": 34.15527,
    "lng": -118.478592
  },
  {
    "id": "630024010",
    "name": "HOT LINE HOMECARE",
    "npi": null,
    "hcaiId": "406195382",
    "businessName": "HOT LINE HOMECARE",
    "contactEmail": "4HOTLINEHOMECARE@GMAIL.COM",
    "categoryName": "HOME HEALTH AGENCY",
    "categoryCode": "HHA",
    "licenseStatus": "ACTIVE",
    "inService": true,
    "licenseNumber": "550007987",
    "licenseEffectiveDate": "05/16/2025",
    "licenseExpirationDate": "05/15/2026",
    "dataDate": "10/18/2025",
    "capacity": 0,
    "address": "16200 VENTURA BLVD, SUITE 407",
    "city": "ENCINO",
    "zip": "91436",
    "county": "LOS ANGELES",
    "phone": "(818) 818-1828",
    "lat": 34.15624899,
    "lng": -118.485603
  },
  {
    "id": "630015452",
    "name": "IDEAL HOSPICE CARE, INC",
    "npi": null,
    "hcaiId": "406198392",
    "businessName": "IDEAL HOSPICE CARE, INC",
    "contactEmail": "IDEALHOSPICE0016@GMAIL.COM",
    "categoryName": "HOSPICE",
    "categoryCode": "HOSPICE",
    "licenseStatus": "ACTIVE",
    "inService": true,
    "licenseNumber": "550003407",
    "licenseEffectiveDate": "01/25/2024",
    "licenseExpirationDate": "01/24/2026",
    "dataDate": "10/18/2025",
    "capacity": 0,
    "address": "16200 VENTURA BLVD, SUITE 308",
    "city": "ENCINO",
    "zip": "91436",
    "county": "LOS ANGELES",
    "phone": "(818) 290-3433",
    "lat": 34.15626,
    "lng": -118.4855895
  },
  {
    "id": "630021490",
    "name": "IMPACT HOME HEALTH CARE, INC.",
    "npi": null,
    "hcaiId": "406195391",
    "businessName": "IMPACT HOME HEALTH CARE, INC.",
    "contactEmail": "INFO.IMPACTHOMEHEALTH@GMAIL.COM",
    "categoryName": "HOME HEALTH AGENCY",
    "categoryCode": "HHA",
    "licenseStatus": "ACTIVE",
    "inService": true,
    "licenseNumber": "550008043",
    "licenseEffectiveDate": "06/03/2025",
    "licenseExpirationDate": "06/02/2026",
    "dataDate": "10/18/2025",
    "capacity": 0,
    "address": "16430 VENTURA BLVD, 202A",
    "city": "ENCINO",
    "zip": "91436",
    "county": "LOS ANGELES",
    "phone": "(800) 484-0557",
    "lat": 34.157353,
    "lng": -118.491103
  },
  {
    "id": "630021481",
    "name": "IMPACT HOSPICE CARE INC",
    "npi": null,
    "hcaiId": "406195057",
    "businessName": "IMPACT HOSPICE CARE INC",
    "contactEmail": null,
    "categoryName": "HOSPICE",
    "categoryCode": "HOSPICE",
    "licenseStatus": "ACTIVE",
    "inService": true,
    "licenseNumber": "550007443",
    "licenseEffectiveDate": "09/20/2024",
    "licenseExpirationDate": "12/02/2025",
    "dataDate": "10/18/2025",
    "capacity": 0,
    "address": "16430 VENTURA BLVD, SUITE 200 A",
    "city": "ENCINO",
    "zip": "91436",
    "county": "LOS ANGELES",
    "phone": "(800) 444-1960",
    "lat": 34.15700202,
    "lng": -118.491248
  },
  {
    "id": "630016627",
    "name": "INFINITE HOMEHEALTH AND PALLIATIVE CARE, INC.",
    "npi": "1629436969",
    "hcaiId": "406190674",
    "businessName": "INFINITE HOMEHEALTH AND PALLIATIVE CARE,INC.",
    "contactEmail": "INFINITEHOMEHEALTH@GMAIL.COM",
    "categoryName": "HOME HEALTH AGENCY",
    "categoryCode": "HHA",
    "licenseStatus": "ACTIVE",
    "inService": true,
    "licenseNumber": "550004183",
    "licenseEffectiveDate": "03/07/2025",
    "licenseExpirationDate": "03/06/2026",
    "dataDate": "10/18/2025",
    "capacity": 0,
    "address": "16200 VENTURA BLVD., SUITE 209",
    "city": "ENCINO",
    "zip": "91436",
    "county": "LOS ANGELES",
    "phone": "(818) 922-2108",
    "lat": 34.15626,
    "lng": -118.4855895
  },
  {
    "id": "630013970",
    "name": "INFINITE HOSPICE CARE, INC.",
    "npi": "1437400488",
    "hcaiId": "406198001",
    "businessName": "INFINITE HOSPICE CARE, INC.",
    "contactEmail": "INFINITEHOSPICE@GMAIL.COM",
    "categoryName": "HOSPICE",
    "categoryCode": "HOSPICE",
    "licenseStatus": "ACTIVE",
    "inService": true,
    "licenseNumber": "550002468",
    "licenseEffectiveDate": "10/10/2023",
    "licenseExpirationDate": "10/09/2025",
    "dataDate": "10/18/2025",
    "capacity": 0,
    "address": "16200 VENTURA BLVD., SUITE 211",
    "city": "ENCINO",
    "zip": "91436",
    "county": "LOS ANGELES",
    "phone": "(818) 782-2516",
    "lat": 34.15626,
    "lng": -118.4855895
  },
  {
    "id": "630015118",
    "name": "KINDCARE HOSPICE, INC.",
    "npi": "1730503442",
    "hcaiId": "406198500",
    "businessName": "KINDCARE HOSPICE, INC.",
    "contactEmail": "KINDCAREHOSPICE@GMAIL.COM",
    "categoryName": "HOSPICE",
    "categoryCode": "HOSPICE",
    "licenseStatus": "ACTIVE",
    "inService": true,
    "licenseNumber": "550003208",
    "licenseEffectiveDate": "08/28/2025",
    "licenseExpirationDate": "08/27/2027",
    "dataDate": "10/18/2025",
    "capacity": 0,
    "address": "15720 VENTURA BLVD, SUITE 226",
    "city": "ENCINO",
    "zip": "91436",
    "county": "LOS ANGELES",
    "phone": "(818) 809-2063",
    "lat": 34.155045,
    "lng": -118.475622
  },
  {
    "id": "630018418",
    "name": "LA PRO HOME HEALTH CARE, INC",
    "npi": null,
    "hcaiId": "406192451",
    "businessName": "LA PRO HOME HEALTH CARE, INC",
    "contactEmail": "LAPROHOMEHEALTH@GMAIL.COM",
    "categoryName": "HOME HEALTH AGENCY",
    "categoryCode": "HHA",
    "licenseStatus": "ACTIVE",
    "inService": true,
    "licenseNumber": "550005468",
    "licenseEffectiveDate": "05/19/2025",
    "licenseExpirationDate": "05/18/2026",
    "dataDate": "10/18/2025",
    "capacity": 0,
    "address": "16200 VENTURA BLVD, SUITE 307",
    "city": "ENCINO",
    "zip": "91436",
    "county": "LOS ANGELES",
    "phone": "(818) 574-5499",
    "lat": 34.156467,
    "lng": -118.4857065
  },
  {
    "id": "630021286",
    "name": "LEADING HOSPICE & PALLIATIVE CARE",
    "npi": null,
    "hcaiId": "406194969",
    "businessName": "LEADING HOSPICE & PALLIATIVE CARE",
    "contactEmail": "LEADINGHOSPICECARE@GMAIL.COM",
    "categoryName": "HOSPICE",
    "categoryCode": "HOSPICE",
    "licenseStatus": "ACTIVE",
    "inService": true,
    "licenseNumber": "550007057",
    "licenseEffectiveDate": "12/19/2023",
    "licenseExpirationDate": "10/24/2025",
    "dataDate": "10/18/2025",
    "capacity": 0,
    "address": "16430 VENTURA BLVD, SUITE 304",
    "city": "ENCINO",
    "zip": "91436",
    "county": "LOS ANGELES",
    "phone": "(818) 946-8077",
    "lat": 34.15700202,
    "lng": -118.491248
  },
  {
    "id": "630020505",
    "name": "LIA HOSPICE CARE, INC.",
    "npi": null,
    "hcaiId": null,
    "businessName": "LIA HOSPICE CARE, INC.",
    "contactEmail": "LIAHOSPICECARE@GMAIL.COM",
    "categoryName": "HOSPICE",
    "categoryCode": "HOSPICE",
    "licenseStatus": "ACTIVE",
    "inService": true,
    "licenseNumber": "550006322",
    "licenseEffectiveDate": "05/03/2023",
    "licenseExpirationDate": "05/02/2025",
    "dataDate": "10/18/2025",
    "capacity": 0,
    "address": "15720 VENTURA BLVD, SUITE 418",
    "city": "ENCINO",
    "zip": "91436",
    "county": "LOS ANGELES",
    "phone": "(747) 282-1737",
    "lat": 34.155045,
    "lng": -118.475622
  },
  {
    "id": "630012626",
    "name": "LIBBIT SURGICAL CENTER, LLC",
    "npi": "1518106582",
    "hcaiId": null,
    "businessName": null,
    "contactEmail": null,
    "categoryName": "SURGICAL CLINIC",
    "categoryCode": "ASC",
    "licenseStatus": null,
    "inService": null,
    "licenseNumber": null,
    "licenseEffectiveDate": null,
    "licenseExpirationDate": null,
    "dataDate": "10/18/2025",
    "capacity": 0,
    "address": "16260 VENTURA BLVD, SUITE 309",
    "city": "ENCINO",
    "zip": "91436",
    "county": "LOS ANGELES",
    "phone": "(818) 788-4341",
    "lat": 34.156728,
    "lng": -118.487628
  },
  {
    "id": "630020475",
    "name": "LOTUS HOSPICE",
    "npi": null,
    "hcaiId": "406194876",
    "businessName": "LOTUS HOSPICE",
    "contactEmail": "LOTUSHOSPICE01@GMAIL.COM",
    "categoryName": "HOSPICE",
    "categoryCode": "HOSPICE",
    "licenseStatus": "ACTIVE",
    "inService": true,
    "licenseNumber": "550006962",
    "licenseEffectiveDate": "08/11/2025",
    "licenseExpirationDate": "09/12/2025",
    "dataDate": "10/18/2025",
    "capacity": 0,
    "address": "16250 VENTURA BLVD, SUITE 200",
    "city": "ENCINO",
    "zip": "91436",
    "county": "LOS ANGELES",
    "phone": "(747) 203-6539",
    "lat": 34.15678401,
    "lng": -118.4870608
  },
  {
    "id": "630020447",
    "name": "LUCKY HOSPICE CARE, INC",
    "npi": null,
    "hcaiId": "406190234",
    "businessName": "LUCKY HOSPICE CARE, INC",
    "contactEmail": "LUCKYHOSPICE@GMAIL.COM",
    "categoryName": "HOSPICE",
    "categoryCode": "HOSPICE",
    "licenseStatus": "ACTIVE",
    "inService": true,
    "licenseNumber": "550006319",
    "licenseEffectiveDate": "04/29/2023",
    "licenseExpirationDate": "04/28/2025",
    "dataDate": "10/18/2025",
    "capacity": 0,
    "address": "15720 VENTURA BLVD, SUITE 222",
    "city": "ENCINO",
    "zip": "91436",
    "county": "LOS ANGELES",
    "phone": "(747) 282-0979",
    "lat": 34.155045,
    "lng": -118.475622
  },
  {
    "id": "630025359",
    "name": "MAIN LINE HOME HEALTH, INC",
    "npi": null,
    "hcaiId": "406190115",
    "businessName": "MAIN LINE HOME HEALTH, INC.",
    "contactEmail": "MAINLINEHOMEHEALTH@GMAIL.COM",
    "categoryName": "HOME HEALTH AGENCY",
    "categoryCode": "HHA",
    "licenseStatus": "ACTIVE",
    "inService": true,
    "licenseNumber": "550008572",
    "licenseEffectiveDate": "06/09/2025",
    "licenseExpirationDate": "06/08/2026",
    "dataDate": "10/18/2025",
    "capacity": 0,
    "address": "16200 VENTURA BLVD, SUITE 408",
    "city": "ENCINO",
    "zip": "91436",
    "county": "LOS ANGELES",
    "phone": "(323) 628-6622",
    "lat": 34.156467,
    "lng": -118.4857065
  },
  {
    "id": "630022647",
    "name": "MAJESTICARE INC.",
    "npi": null,
    "hcaiId": "406195217",
    "businessName": "MAJESTICARE INC.",
    "contactEmail": "MAJESTICARE55@GMAIL.COM",
    "categoryName": "HOME HEALTH AGENCY",
    "categoryCode": "HHA",
    "licenseStatus": "ACTIVE",
    "inService": true,
    "licenseNumber": "550007916",
    "licenseEffectiveDate": "03/21/2024",
    "licenseExpirationDate": "03/20/2025",
    "dataDate": "10/18/2025",
    "capacity": 0,
    "address": "15760 VENTURA BLVD, SUITE 2030",
    "city": "ENCINO",
    "zip": "91436",
    "county": "LOS ANGELES",
    "phone": "(747) 444-0075",
    "lat": 34.155198,
    "lng": -118.476837
  },
  {
    "id": "630027878",
    "name": "MK HOME HEALTH PARTNERS INC",
    "npi": null,
    "hcaiId": null,
    "businessName": "MK HOME HEALTH PARTNERS INC",
    "contactEmail": "MK.HOMEHEALTH@YAHOO.COM",
    "categoryName": "HOME HEALTH AGENCY",
    "categoryCode": "HHA",
    "licenseStatus": "ACTIVE",
    "inService": true,
    "licenseNumber": "550009736",
    "licenseEffectiveDate": "09/24/2025",
    "licenseExpirationDate": "03/23/2026",
    "dataDate": "10/18/2025",
    "capacity": 0,
    "address": "16255 VENTURA BLVD, SUITE 215",
    "city": "ENCINO",
    "zip": "91436",
    "county": "LOS ANGELES",
    "phone": "(747) 247-2671",
    "lat": 34.15751398,
    "lng": -118.487571
  },
  {
    "id": "930001603",
    "name": "MOUNTAIN VIEW SURGICAL CENTER",
    "npi": "1235221417",
    "hcaiId": null,
    "businessName": null,
    "contactEmail": "NONE@DHS.CA.GOV",
    "categoryName": "SURGICAL CLINIC",
    "categoryCode": "ASC",
    "licenseStatus": null,
    "inService": null,
    "licenseNumber": null,
    "licenseEffectiveDate": null,
    "licenseExpirationDate": null,
    "dataDate": "10/18/2025",
    "capacity": 0,
    "address": "16311 VENTURA BLVD, SUITE 705",
    "city": "ENCINO",
    "zip": "91436",
    "county": "LOS ANGELES",
    "phone": "(818) 205-9500",
    "lat": 34.157232,
    "lng": -118.4885595
  },
  {
    "id": "630027153",
    "name": "MS FAMILY HOME HEALTH CARE",
    "npi": null,
    "hcaiId": null,
    "businessName": "MS FAMILY HOME HEALTH CARE",
    "contactEmail": null,
    "categoryName": "HOME HEALTH AGENCY",
    "categoryCode": "HHA",
    "licenseStatus": "ACTIVE",
    "inService": true,
    "licenseNumber": "550009520",
    "licenseEffectiveDate": "11/19/2025",
    "licenseExpirationDate": "11/18/2026",
    "dataDate": "10/18/2025",
    "capacity": 0,
    "address": "16200 VENTURA BLVD, SUITE 406",
    "city": "ENCINO",
    "zip": "91436",
    "county": "LOS ANGELES",
    "phone": "(818) 923-1433",
    "lat": 34.15624899,
    "lng": -118.485603
  },
  {
    "id": "630011189",
    "name": "NEW BEGINNINGS HOME HEALTH CARE, INC.",
    "npi": "1598969396",
    "hcaiId": "406196293",
    "businessName": "NEW BEGINNINGS HOME HEALTH CARE, INC.",
    "contactEmail": "NEWBEGINNINGSHHC2008@YAHOO.COM",
    "categoryName": "HOME HEALTH AGENCY",
    "categoryCode": "HHA",
    "licenseStatus": "ACTIVE",
    "inService": true,
    "licenseNumber": "550000642",
    "licenseEffectiveDate": "04/09/2025",
    "licenseExpirationDate": "04/08/2026",
    "dataDate": "10/18/2025",
    "capacity": 0,
    "address": "16430 VENTURA BLVD, SUITE 301",
    "city": "ENCINO",
    "zip": "91436",
    "county": "LOS ANGELES",
    "phone": "(323) 460-6000",
    "lat": 34.15700202,
    "lng": -118.491248
  },
  {
    "id": "630018955",
    "name": "OUR DUTY HOME HEALTH, INC.",
    "npi": null,
    "hcaiId": "406192696",
    "businessName": "OUR DUTY HOME HEALTH, INC.",
    "contactEmail": "OURDUTYHH@GMAIL.COM",
    "categoryName": "HOME HEALTH AGENCY",
    "categoryCode": "HHA",
    "licenseStatus": "ACTIVE",
    "inService": true,
    "licenseNumber": "550005624",
    "licenseEffectiveDate": "07/10/2025",
    "licenseExpirationDate": "07/09/2026",
    "dataDate": "10/18/2025",
    "capacity": 0,
    "address": "16133 VENTURA BLVD, SUITE 1135",
    "city": "ENCINO",
    "zip": "91436",
    "county": "LOS ANGELES",
    "phone": "(877) 789-8050",
    "lat": 34.156755,
    "lng": -118.484694
  },
  {
    "id": "930001821",
    "name": "PACIFIC AMBULATORY SURGICAL CENTER, INC.",
    "npi": null,
    "hcaiId": null,
    "businessName": null,
    "contactEmail": "NONE@DHS.CA.GOV",
    "categoryName": "SURGICAL CLINIC",
    "categoryCode": "ASC",
    "licenseStatus": null,
    "inService": null,
    "licenseNumber": null,
    "licenseEffectiveDate": null,
    "licenseExpirationDate": null,
    "dataDate": "10/18/2025",
    "capacity": 0,
    "address": "16260 VENTURA BLVD, SUITE 800",
    "city": "ENCINO",
    "zip": "91436",
    "county": "LOS ANGELES",
    "phone": "(818) 906-5330",
    "lat": 34.156728,
    "lng": -118.487628
  },
  {
    "id": "630019638",
    "name": "PACIFIC RITZ SURGERY CENTER",
    "npi": "1518423672",
    "hcaiId": null,
    "businessName": null,
    "contactEmail": null,
    "categoryName": "SURGICAL CLINIC",
    "categoryCode": "ASC",
    "licenseStatus": null,
    "inService": null,
    "licenseNumber": null,
    "licenseEffectiveDate": null,
    "licenseExpirationDate": null,
    "dataDate": "10/18/2025",
    "capacity": 0,
    "address": "16311 VENTURA BLVD, SUITE 570",
    "city": "ENCINO",
    "zip": "91436",
    "county": "LOS ANGELES",
    "phone": "(818) 827-5100",
    "lat": 34.157232,
    "lng": -118.4885595
  },
  {
    "id": "630025689",
    "name": "PALM HOME HEALTH CARE, INC.",
    "npi": null,
    "hcaiId": null,
    "businessName": "PALM HOME HEALTH CARE, INC.",
    "contactEmail": "PALMHHC@YAHOO.COM",
    "categoryName": "HOME HEALTH AGENCY",
    "categoryCode": "HHA",
    "licenseStatus": "ACTIVE",
    "inService": true,
    "licenseNumber": "550008993",
    "licenseEffectiveDate": "03/04/2025",
    "licenseExpirationDate": "03/03/2026",
    "dataDate": "10/18/2025",
    "capacity": 0,
    "address": "15720 VENTURA BLVD, SUITE 618",
    "city": "ENCINO",
    "zip": "91436",
    "county": "LOS ANGELES",
    "phone": "(747) 208-0020",
    "lat": 34.155045,
    "lng": -118.475622
  },
  {
    "id": "630025693",
    "name": "PARAMOUNT HOME HEALTH, INC.",
    "npi": null,
    "hcaiId": "406190290",
    "businessName": "PARAMOUNT HOME HEALTH INC",
    "contactEmail": "PARAMOUNTHHA@YAHOO.COM",
    "categoryName": "HOME HEALTH AGENCY",
    "categoryCode": "HHA",
    "licenseStatus": "ACTIVE",
    "inService": true,
    "licenseNumber": "550008989",
    "licenseEffectiveDate": "03/04/2025",
    "licenseExpirationDate": "03/03/2026",
    "dataDate": "10/18/2025",
    "capacity": 0,
    "address": "15720 VENTURA BLVD, SUITE 241",
    "city": "ENCINO",
    "zip": "91436",
    "county": "LOS ANGELES",
    "phone": "(747) 250-5126",
    "lat": 34.155045,
    "lng": -118.475622
  },
  {
    "id": "630013007",
    "name": "PARAMOUNT HOSPICE",
    "npi": null,
    "hcaiId": "406197783",
    "businessName": "ASTRA HEALTH SERVICES, INC.",
    "contactEmail": "PARAMOUNTHOSPICE16@GMAIL.COM",
    "categoryName": "HOSPICE",
    "categoryCode": "HOSPICE",
    "licenseStatus": "ACTIVE",
    "inService": true,
    "licenseNumber": "550002131",
    "licenseEffectiveDate": "11/10/2024",
    "licenseExpirationDate": "11/09/2026",
    "dataDate": "10/18/2025",
    "capacity": 0,
    "address": "16101 VENTURA BLVD, SUITE 155A",
    "city": "ENCINO",
    "zip": "91436",
    "county": "LOS ANGELES",
    "phone": "(909) 242-8500",
    "lat": 34.15695998,
    "lng": -118.484112
  },
  {
    "id": "630019420",
    "name": "PEACE & COMFORT HOSPICE AND PALLIATIVE CARE INC",
    "npi": null,
    "hcaiId": "406192571",
    "businessName": "PEACE & COMFORT HOSPICE AND PALLIATIVE CARE INC",
    "contactEmail": "PEACECOMFORTHOSPICE@GMAIL.COM",
    "categoryName": "HOSPICE",
    "categoryCode": "HOSPICE",
    "licenseStatus": "ACTIVE",
    "inService": true,
    "licenseNumber": "550005299",
    "licenseEffectiveDate": "02/14/2024",
    "licenseExpirationDate": "02/13/2026",
    "dataDate": "10/18/2025",
    "capacity": 0,
    "address": "16200 VENTURA BLVD, SUITE 310A",
    "city": "ENCINO",
    "zip": "91436",
    "county": "LOS ANGELES",
    "phone": "(818) 528-6373",
    "lat": 34.185339,
    "lng": -118.4484825
  },
  {
    "id": "630020566",
    "name": "PRIORITY HOSPICE CARE SERVICES, INC.",
    "npi": null,
    "hcaiId": "406198170",
    "businessName": "PRIORITY HOSPICE CARE SERVICES, INC",
    "contactEmail": "PRIORITYHOSPICECARE@YAHOO.COM",
    "categoryName": "HOSPICE",
    "categoryCode": "HOSPICE",
    "licenseStatus": "ACTIVE",
    "inService": true,
    "licenseNumber": "550007585",
    "licenseEffectiveDate": "12/16/2023",
    "licenseExpirationDate": "12/15/2025",
    "dataDate": "10/18/2025",
    "capacity": 0,
    "address": "15720 VENTURA BLVD, SUITE 234",
    "city": "ENCINO",
    "zip": "91436",
    "county": "LOS ANGELES",
    "phone": "(818) 616-1020",
    "lat": 34.155045,
    "lng": -118.475622
  },
  {
    "id": "630022348",
    "name": "PROPER CARE HOME HEALTH",
    "npi": null,
    "hcaiId": "406195242",
    "businessName": "PROPER CARE HOME HEALTH",
    "contactEmail": "PROPERCAREHOMEHEALTH@GMAIL.COM",
    "categoryName": "HOME HEALTH AGENCY",
    "categoryCode": "HHA",
    "licenseStatus": "ACTIVE",
    "inService": true,
    "licenseNumber": "550007907",
    "licenseEffectiveDate": "03/22/2025",
    "licenseExpirationDate": "03/21/2026",
    "dataDate": "10/18/2025",
    "capacity": 0,
    "address": "15720 VENTURA BLVD, SUITE 404",
    "city": "ENCINO",
    "zip": "91436",
    "county": "LOS ANGELES",
    "phone": "(424) 373-2666",
    "lat": 34.15499698,
    "lng": -118.475713
  },
  {
    "id": "630022322",
    "name": "PROPER CARE HOSPICE",
    "npi": null,
    "hcaiId": "406194995",
    "businessName": "PROPER CARE HOSPICE",
    "contactEmail": "PROPERCAREHOSPICE@GMAIL.COM",
    "categoryName": "HOSPICE",
    "categoryCode": "HOSPICE",
    "licenseStatus": "ACTIVE",
    "inService": true,
    "licenseNumber": "550007589",
    "licenseEffectiveDate": "08/12/2024",
    "licenseExpirationDate": "12/20/2025",
    "dataDate": "10/18/2025",
    "capacity": 0,
    "address": "15720 VENTURA BLVD, SUITE 626",
    "city": "ENCINO",
    "zip": "91436",
    "county": "LOS ANGELES",
    "phone": "(424) 367-9979",
    "lat": 34.15499698,
    "lng": -118.475713
  },
  {
    "id": "930001839",
    "name": "REGENCY SURGEY CENTER, LLC",
    "npi": "1891865077",
    "hcaiId": null,
    "businessName": null,
    "contactEmail": "LAURAYOUNAY@HOTMAIL.COM",
    "categoryName": "SURGICAL CLINIC",
    "categoryCode": "ASC",
    "licenseStatus": null,
    "inService": null,
    "licenseNumber": null,
    "licenseEffectiveDate": null,
    "licenseExpirationDate": null,
    "dataDate": "10/18/2025",
    "capacity": 0,
    "address": "16055 VENTURA BLVD, SUITE 120",
    "city": "ENCINO",
    "zip": "91436",
    "county": "LOS ANGELES",
    "phone": "(818) 789-9988",
    "lat": 34.15653,
    "lng": -118.483101
  },
  {
    "id": "630013112",
    "name": "REPRODUCTIVE SURGICAL ASSOCIATES",
    "npi": "1033394598",
    "hcaiId": null,
    "businessName": null,
    "contactEmail": "ROGERTGOOD@HAVINGBABIES.COM",
    "categoryName": "SURGICAL CLINIC",
    "categoryCode": "ASC",
    "licenseStatus": null,
    "inService": null,
    "licenseNumber": null,
    "licenseEffectiveDate": null,
    "licenseExpirationDate": null,
    "dataDate": "10/18/2025",
    "capacity": 0,
    "address": "15503 VENTURA BLVD, SUITE 120",
    "city": "ENCINO",
    "zip": "91436",
    "county": "LOS ANGELES",
    "phone": "(818) 788-7288",
    "lat": 34.155045,
    "lng": -118.472301
  },
  {
    "id": "630024994",
    "name": "RIGHTHOME HEALTH CARE, INC.",
    "npi": null,
    "hcaiId": null,
    "businessName": "RIGHTHOME HEALTH CARE INC",
    "contactEmail": "RIGHTHOMECARE@YAHOO.COM",
    "categoryName": "HOME HEALTH AGENCY",
    "categoryCode": "HHA",
    "licenseStatus": "ACTIVE",
    "inService": true,
    "licenseNumber": "550008903",
    "licenseEffectiveDate": "03/04/2025",
    "licenseExpirationDate": "01/18/2026",
    "dataDate": "10/18/2025",
    "capacity": 0,
    "address": "16027 VENTURA BLVD, SUITE 620",
    "city": "ENCINO",
    "zip": "91436",
    "county": "LOS ANGELES",
    "phone": "(818) 582-3420",
    "lat": 34.15652198,
    "lng": -118.48258
  },
  {
    "id": "630023121",
    "name": "SAPPHIRE HOMEHEALTH",
    "npi": null,
    "hcaiId": "406195534",
    "businessName": "SAPPHIRE HOMEHEALTH",
    "contactEmail": "SAPPHIREHOMEHEALTH@GMAIL.COM",
    "categoryName": "HOME HEALTH AGENCY",
    "categoryCode": "HHA",
    "licenseStatus": "ACTIVE",
    "inService": true,
    "licenseNumber": "550008154",
    "licenseEffectiveDate": "08/15/2025",
    "licenseExpirationDate": "08/14/2026",
    "dataDate": "10/18/2025",
    "capacity": 0,
    "address": "15720 VENTURA BLVD, SUITE 526",
    "city": "ENCINO",
    "zip": "91436",
    "county": "LOS ANGELES",
    "phone": "(909) 660-6900",
    "lat": 34.15499698,
    "lng": -118.475713
  },
  {
    "id": "630008502",
    "name": "SILVERADO HOSPICE - LOS ANGELES",
    "npi": "1841410164",
    "hcaiId": "406197025",
    "businessName": "SILVERADO HOSPICE, INC",
    "contactEmail": "TERESA.BREWER@SILVERADO.COM",
    "categoryName": "HOSPICE",
    "categoryCode": "HOSPICE",
    "licenseStatus": "ACTIVE",
    "inService": true,
    "licenseNumber": "550000578",
    "licenseEffectiveDate": "11/03/2025",
    "licenseExpirationDate": "11/02/2027",
    "dataDate": "10/18/2025",
    "capacity": 0,
    "address": "15821 VENTURA BLVD, SUITE 515",
    "city": "ENCINO",
    "zip": "91436",
    "county": "LOS ANGELES",
    "phone": "(818) 848-4048",
    "lat": 34.156035,
    "lng": -118.47816
  },
  {
    "id": "630020422",
    "name": "SIMPLE CHOICE HOSPICE, INC.",
    "npi": null,
    "hcaiId": "406195002",
    "businessName": "SIMPLE CHOICE HOSPICE, INC.",
    "contactEmail": "SIMPLECHOICEHOSPICE@GMAIL.COM",
    "categoryName": "HOSPICE",
    "categoryCode": "HOSPICE",
    "licenseStatus": "ACTIVE",
    "inService": true,
    "licenseNumber": "550007139",
    "licenseEffectiveDate": "08/28/2025",
    "licenseExpirationDate": "08/27/2027",
    "dataDate": "10/18/2025",
    "capacity": 0,
    "address": "15720 VENTURA BLVD, SUITE 106",
    "city": "ENCINO",
    "zip": "91436",
    "county": "LOS ANGELES",
    "phone": "(818) 393-0393",
    "lat": 34.155045,
    "lng": -118.475622
  },
  {
    "id": "630020820",
    "name": "SOCAL PREMIUM HOSPICE CARE",
    "npi": null,
    "hcaiId": "406195656",
    "businessName": "COMFORTER HOSPICE, INC.",
    "contactEmail": "INFO@SOCALPREMIUMHOSPICE.COM",
    "categoryName": "HOSPICE",
    "categoryCode": "HOSPICE",
    "licenseStatus": "ACTIVE",
    "inService": true,
    "licenseNumber": "550006361",
    "licenseEffectiveDate": "07/14/2025",
    "licenseExpirationDate": "05/26/2027",
    "dataDate": "10/18/2025",
    "capacity": 0,
    "address": "16661 VENTURA BLVD, SUITE 213",
    "city": "ENCINO",
    "zip": "91436",
    "county": "LOS ANGELES",
    "phone": "(818) 646-0297",
    "lat": 34.15846998,
    "lng": -118.496404
  },
  {
    "id": "630020888",
    "name": "SOUTHWEST HOSPICE CARE, INC",
    "npi": null,
    "hcaiId": "406193778",
    "businessName": "SOUTHWEST HOSPICE CARE, INC",
    "contactEmail": "SOUTHWESTCARE@GMAIL.COM",
    "categoryName": "HOSPICE",
    "categoryCode": "HOSPICE",
    "licenseStatus": "ACTIVE",
    "inService": true,
    "licenseNumber": "550006844",
    "licenseEffectiveDate": "09/16/2023",
    "licenseExpirationDate": "09/15/2025",
    "dataDate": "10/18/2025",
    "capacity": 0,
    "address": "15720 VENTURA BLVD, SUITE 406",
    "city": "ENCINO",
    "zip": "91436",
    "county": "LOS ANGELES",
    "phone": "(818) 290-3443",
    "lat": 34.155045,
    "lng": -118.475622
  },
  {
    "id": "930001756",
    "name": "SPECIALTY SURGICAL CENTER OF ENCINO, L.P.",
    "npi": "1588679179",
    "hcaiId": "306196261",
    "businessName": "SPECIALTY SURGICAL CENTER OF ENCINO, L.P.",
    "contactEmail": "MICHAEL.ROUB@SPECIALTYSURGICAL.COM",
    "categoryName": "SURGICAL CLINIC",
    "categoryCode": "ASC",
    "licenseStatus": "INACTIVE - CAPEN DECISION",
    "inService": false,
    "licenseNumber": "930000971",
    "licenseEffectiveDate": "11/16/2007",
    "licenseExpirationDate": "11/15/2008",
    "dataDate": "10/18/2025",
    "capacity": 0,
    "address": "16501 VENTURA BLVD, SUITE 103",
    "city": "ENCINO",
    "zip": "91436",
    "county": "LOS ANGELES",
    "phone": "(818) 501-1080",
    "lat": 34.15797,
    "lng": -118.492848
  },
  {
    "id": "630020893",
    "name": "SPRINT HOME HEALTH CARE, INC.",
    "npi": null,
    "hcaiId": "406193139",
    "businessName": "SPRINT HOME HEALTH CARE, INC.",
    "contactEmail": "SPRINTHHCARE@GMAIL.COM",
    "categoryName": "HOME HEALTH AGENCY",
    "categoryCode": "HHA",
    "licenseStatus": "ACTIVE",
    "inService": true,
    "licenseNumber": "550006230",
    "licenseEffectiveDate": "04/19/2025",
    "licenseExpirationDate": "04/18/2026",
    "dataDate": "10/18/2025",
    "capacity": 0,
    "address": "15720 VENTURA BLVD, SUITE 228",
    "city": "ENCINO",
    "zip": "91436",
    "county": "LOS ANGELES",
    "phone": "(818) 290-3591",
    "lat": 34.155045,
    "lng": -118.475622
  },
  {
    "id": "630026106",
    "name": "ST. MARGARET HEALTHCARE INC",
    "npi": null,
    "hcaiId": null,
    "businessName": "ST. MARGARET HEALTHCARE INC",
    "contactEmail": "STMARGARETHEALTHCAREINC@GMAIL.COM",
    "categoryName": "HOME HEALTH AGENCY",
    "categoryCode": "HHA",
    "licenseStatus": "ACTIVE",
    "inService": true,
    "licenseNumber": "550009929",
    "licenseEffectiveDate": "08/14/2025",
    "licenseExpirationDate": "02/13/2026",
    "dataDate": "10/18/2025",
    "capacity": 0,
    "address": "16501 VENTURA BLVD, SUITE 400, #409",
    "city": "ENCINO",
    "zip": "91436",
    "county": "LOS ANGELES",
    "phone": "(991) 568-9000",
    "lat": 34.15793002,
    "lng": -118.492722
  },
  {
    "id": "630027561",
    "name": "SYNERGY DIALYSIS LLC",
    "npi": null,
    "hcaiId": null,
    "businessName": null,
    "contactEmail": "JOY@SYNERGYDIALYSIS.NET",
    "categoryName": "CHRONIC DIALYSIS CLINIC",
    "categoryCode": "ESRD",
    "licenseStatus": null,
    "inService": null,
    "licenseNumber": null,
    "licenseEffectiveDate": null,
    "licenseExpirationDate": null,
    "dataDate": "10/18/2025",
    "capacity": 0,
    "address": "16030 VENTURA BLVD, SUITE 110",
    "city": "ENCINO",
    "zip": "91436",
    "county": "LOS ANGELES",
    "phone": "(818) 521-4539",
    "lat": 34.15575701,
    "lng": -118.482484
  },
  {
    "id": "630018951",
    "name": "TRUST IN FAITH HOME HEALTHCARE, INC.",
    "npi": null,
    "hcaiId": "406192695",
    "businessName": "TRUST IN FAITH HOME HEALTHCARE, INC.",
    "contactEmail": "TRUSTINFAITHHH@GMAIL.COM",
    "categoryName": "HOME HEALTH AGENCY",
    "categoryCode": "HHA",
    "licenseStatus": "ACTIVE",
    "inService": true,
    "licenseNumber": "550005627",
    "licenseEffectiveDate": "07/10/2025",
    "licenseExpirationDate": "07/09/2026",
    "dataDate": "10/18/2025",
    "capacity": 0,
    "address": "16133 VENTURA BLVD, SUITE 1130",
    "city": "ENCINO",
    "zip": "91436",
    "county": "LOS ANGELES",
    "phone": "(818) 796-3292",
    "lat": 34.15686225,
    "lng": -118.4849364
  },
  {
    "id": "630014711",
    "name": "UNIVERSAL HOSPICE GROUP",
    "npi": "1336579705",
    "hcaiId": "406198265",
    "businessName": "HOPE & HEALTH HOSPICE INC",
    "contactEmail": "INFO@UNIVERSALHOSPICEGROUP.COM",
    "categoryName": "HOSPICE",
    "categoryCode": "HOSPICE",
    "licenseStatus": "ACTIVE",
    "inService": true,
    "licenseNumber": "550003116",
    "licenseEffectiveDate": "06/04/2025",
    "licenseExpirationDate": "06/03/2027",
    "dataDate": "10/18/2025",
    "capacity": 0,
    "address": "15720 VENTURA BLVD, SUITE 208",
    "city": "ENCINO",
    "zip": "91436",
    "county": "LOS ANGELES",
    "phone": "(818) 428-1324",
    "lat": 34.155045,
    "lng": -118.475622
  },
  {
    "id": "630025679",
    "name": "VALLEY HOME HEALTH, INC.",
    "npi": null,
    "hcaiId": "406198132",
    "businessName": "VALLEY HOME HEALTH, INC.",
    "contactEmail": "VALLEYHHC@YAHOO.COM",
    "categoryName": "HOME HEALTH AGENCY",
    "categoryCode": "HHA",
    "licenseStatus": "ACTIVE",
    "inService": true,
    "licenseNumber": "550008790",
    "licenseEffectiveDate": "10/27/2025",
    "licenseExpirationDate": "10/26/2026",
    "dataDate": "10/18/2025",
    "capacity": 0,
    "address": "15720 VENTURA BLVD, SUITE 603",
    "city": "ENCINO",
    "zip": "91436",
    "county": "LOS ANGELES",
    "phone": "(747) 208-0040",
    "lat": 34.155045,
    "lng": -118.475622
  },
  {
    "id": "630024744",
    "name": "VALUE CARE HEALTHCARE SERVICES, INC.",
    "npi": null,
    "hcaiId": "406195979",
    "businessName": "VALUE CARE HEALTHCARE SERVICES, INC.",
    "contactEmail": "VALUECAREHH@GMAIL.COM",
    "categoryName": "HOME HEALTH AGENCY",
    "categoryCode": "HHA",
    "licenseStatus": "ACTIVE",
    "inService": true,
    "licenseNumber": "550008309",
    "licenseEffectiveDate": "01/05/2023",
    "licenseExpirationDate": "07/04/2023",
    "dataDate": "10/18/2025",
    "capacity": 0,
    "address": "15720 VENTURA BLVD, SUITE 225",
    "city": "ENCINO",
    "zip": "91436",
    "county": "LOS ANGELES",
    "phone": "(818) 337-4679",
    "lat": 34.155045,
    "lng": -118.475622
  },
  {
    "id": "630015862",
    "name": "VIRTUE HOSPICE AND PALLIATIVE CARE, INC.",
    "npi": "1790176436",
    "hcaiId": "406190824",
    "businessName": "VIRTUE HOSPICE AND PALLIATIVE CARE, INC.",
    "contactEmail": "VIRTUEHOSPICECARE@GMAIL.COM",
    "categoryName": "HOSPICE",
    "categoryCode": "HOSPICE",
    "licenseStatus": "ACTIVE",
    "inService": true,
    "licenseNumber": "550004045",
    "licenseEffectiveDate": "11/27/2023",
    "licenseExpirationDate": "11/26/2025",
    "dataDate": "10/18/2025",
    "capacity": 0,
    "address": "15720 VENTURA BLVD, SUITE 610",
    "city": "ENCINO",
    "zip": "91436",
    "county": "LOS ANGELES",
    "phone": "(818) 208-9010",
    "lat": 34.155045,
    "lng": -118.475622
  },
  {
    "id": "980001331",
    "name": "VITAS HEALTHCARE CORPORATION OF CALIFORNIA",
    "npi": null,
    "hcaiId": "406196736",
    "businessName": "VITAS HEALTHCARE CORPORATION OF CALIFORNIA",
    "contactEmail": "ELO.SAHAGIAN@VITAS.COM",
    "categoryName": "HOSPICE",
    "categoryCode": "HOSPICE",
    "licenseStatus": "ACTIVE",
    "inService": true,
    "licenseNumber": "980000729",
    "licenseEffectiveDate": "05/09/2025",
    "licenseExpirationDate": "05/08/2027",
    "dataDate": "10/18/2025",
    "capacity": 0,
    "address": "16830 VENTURA BLVD, SUITE 315",
    "city": "ENCINO",
    "zip": "91436",
    "county": "LOS ANGELES",
    "phone": "(818) 268-1536",
    "lat": 34.158789,
    "lng": -118.5008445
  },
  {
    "id": "630021545",
    "name": "WHITE ORCHID HOME HEALTH",
    "npi": null,
    "hcaiId": "406195528",
    "businessName": "WHITE ORCHID HOME HEALTH",
    "contactEmail": "MORI@WHITEORCHIDHH.COM",
    "categoryName": "HOME HEALTH AGENCY",
    "categoryCode": "HHA",
    "licenseStatus": "ACTIVE",
    "inService": true,
    "licenseNumber": "550006898",
    "licenseEffectiveDate": "09/21/2025",
    "licenseExpirationDate": "09/20/2026",
    "dataDate": "10/18/2025",
    "capacity": 0,
    "address": "16661 VENTURA BLVD, SUITE 223",
    "city": "ENCINO",
    "zip": "91436",
    "county": "LOS ANGELES",
    "phone": "(818) 616-7275",
    "lat": 34.15846998,
    "lng": -118.496404
  },
  {
    "id": "630014930",
    "name": "WHITE ROSE HOSPICE, INC",
    "npi": "1912321944",
    "hcaiId": "406198458",
    "businessName": "WHITE ROSE HOSPICE, INC.",
    "contactEmail": "INFO@WHITEROSEHPC.COM",
    "categoryName": "HOSPICE",
    "categoryCode": "HOSPICE",
    "licenseStatus": "ACTIVE",
    "inService": true,
    "licenseNumber": "550003743",
    "licenseEffectiveDate": "09/27/2024",
    "licenseExpirationDate": "09/26/2026",
    "dataDate": "10/18/2025",
    "capacity": 0,
    "address": "16200 VENTURA BLVD, SUITE 202",
    "city": "ENCINO",
    "zip": "91436",
    "county": "LOS ANGELES",
    "phone": "(818) 330-5322",
    "lat": 34.156467,
    "lng": -118.4857065
  },
  {
    "id": "630025489",
    "name": "WITH LOVE HOME HEALTH",
    "npi": null,
    "hcaiId": "406190158",
    "businessName": "WITH LOVE HOME HEALTH",
    "contactEmail": "WITHLOVEHOMEHEALTHHC@YAHOO.COM",
    "categoryName": "HOME HEALTH AGENCY",
    "categoryCode": "HHA",
    "licenseStatus": "ACTIVE",
    "inService": true,
    "licenseNumber": "550008931",
    "licenseEffectiveDate": "02/01/2025",
    "licenseExpirationDate": "01/31/2026",
    "dataDate": "10/18/2025",
    "capacity": 0,
    "address": "16501 VENTURA BLVD, SUITE 400 OFFICE 464",
    "city": "ENCINO",
    "zip": "91436",
    "county": "LOS ANGELES",
    "phone": "(323) 447-4447",
    "lat": 34.15793002,
    "lng": -118.492722
  },
  {
    "id": "630018819",
    "name": "WOODLYN HOME HEALTH, INC.",
    "npi": null,
    "hcaiId": "406192875",
    "businessName": "WOODLYN HOME HEALTH, INC.",
    "contactEmail": "WOODLYNHH@GMAIL.COM",
    "categoryName": "HOME HEALTH AGENCY",
    "categoryCode": "HHA",
    "licenseStatus": "ACTIVE",
    "inService": true,
    "licenseNumber": "550005751",
    "licenseEffectiveDate": "07/28/2025",
    "licenseExpirationDate": "07/27/2026",
    "dataDate": "10/18/2025",
    "capacity": 0,
    "address": "15720 VENTURA BLVD, SUITE 617",
    "city": "ENCINO",
    "zip": "91436",
    "county": "LOS ANGELES",
    "phone": "(323) 230-4525",
    "lat": 34.15504606,
    "lng": -118.4756336
  },
  {
    "id": "630021138",
    "name": "WORLD HEALTH HOSPICE, INC.",
    "npi": null,
    "hcaiId": "406193680",
    "businessName": "WORLD HEALTH HOSPICE, INC.",
    "contactEmail": "WORLDHOSPICE12@GMAIL.COM",
    "categoryName": "HOSPICE",
    "categoryCode": "HOSPICE",
    "licenseStatus": "ACTIVE",
    "inService": true,
    "licenseNumber": "550006684",
    "licenseEffectiveDate": "08/12/2023",
    "licenseExpirationDate": "08/11/2025",
    "dataDate": "10/18/2025",
    "capacity": 0,
    "address": "15720 VENTURA BLVD, SUITE 299",
    "city": "ENCINO",
    "zip": "91436",
    "county": "LOS ANGELES",
    "phone": "(818) 717-7549",
    "lat": 34.155045,
    "lng": -118.475622
  },
  {
    "id": "630020928",
    "name": "WORLD HOME HEALTH, INC",
    "npi": null,
    "hcaiId": "406193136",
    "businessName": "WORLD HOME HEALTH, INC",
    "contactEmail": "WORLDHH12@GMAIL.COM",
    "categoryName": "HOME HEALTH AGENCY",
    "categoryCode": "HHA",
    "licenseStatus": "ACTIVE",
    "inService": true,
    "licenseNumber": "550006305",
    "licenseEffectiveDate": "05/21/2025",
    "licenseExpirationDate": "05/20/2026",
    "dataDate": "10/18/2025",
    "capacity": 0,
    "address": "15720 VENTURA BLVD, SUITE 499",
    "city": "ENCINO",
    "zip": "91436",
    "county": "LOS ANGELES",
    "phone": "(747) 268-0947",
    "lat": 34.155045,
    "lng": -118.475622
  },
  {
    "id": "630027218",
    "name": "YES HOME HEALTH CARE",
    "npi": null,
    "hcaiId": null,
    "businessName": "YES HOME HEALTH CARE",
    "contactEmail": "YESHOMEHEALTHCARE@YAHOO.COM",
    "categoryName": "HOME HEALTH AGENCY",
    "categoryCode": "HHA",
    "licenseStatus": "ACTIVE",
    "inService": true,
    "licenseNumber": "550009385",
    "licenseEffectiveDate": "09/23/2025",
    "licenseExpirationDate": "09/22/2026",
    "dataDate": "10/18/2025",
    "capacity": 0,
    "address": "15720 VENTURA BLVD, SUITE 325",
    "city": "ENCINO",
    "zip": "91436",
    "county": "LOS ANGELES",
    "phone": "(424) 334-1948",
    "lat": 34.15499698,
    "lng": -118.475713
  },
  {
    "id": "630019526",
    "name": "ZEN HOSPICE, INC.",
    "npi": null,
    "hcaiId": "406192588",
    "businessName": "ZEN HOSPICE, INC.",
    "contactEmail": "ZENHOSPICEINC@GMAIL.COM",
    "categoryName": "HOSPICE",
    "categoryCode": "HOSPICE",
    "licenseStatus": "ACTIVE",
    "inService": true,
    "licenseNumber": "550005486",
    "licenseEffectiveDate": "05/08/2024",
    "licenseExpirationDate": "05/07/2026",
    "dataDate": "10/18/2025",
    "capacity": 0,
    "address": "16250 VENTURA BLVD, SUITE 216",
    "city": "ENCINO",
    "zip": "91436",
    "county": "LOS ANGELES",
    "phone": "(747) 270-7951",
    "lat": 34.156683,
    "lng": -118.487151
  }
]