[
  {
    "id": "630024992",
    "name": "1ST CARE HOME HEALTH CARE INC",
    "npi": null,
    "hcaiId": null,
    "businessName": "1ST CARE HOME HEALTH CARE INC",
    "contactEmail": "1STCAREHOMEHEALTHCAREINC@GMAIL.COM",
    "categoryName": "HOME HEALTH AGENCY",
    "categoryCode": "HHA",
    "licenseStatus": "ACTIVE",
    "inService": true,
    "licenseNumber": "550008557",
    "licenseEffectiveDate": "04/20/2025",
    "licenseExpirationDate": "04/19/2026",
    "dataDate": "10/18/2025",
    "capacity": 0,
    "address": "1023 N HOLLYWOOD WAY, SUITE 209",
    "city": "BURBANK",
    "zip": "91505",
    "county": "LOS ANGELES",
    "phone": "(424) 279-1027",
    "lat": 34.168581,
    "lng": -118.3477095
  },
  {
    "id": "630014596",
    "name": "A & E HOSPICE CARE, INC.",
    "npi": null,
    "hcaiId": "406198332",
    "businessName": "A & E HOSPICE CARE, INC.",
    "contactEmail": "AEHOSPICE@GMAIL.COM",
    "categoryName": "HOSPICE",
    "categoryCode": "HOSPICE",
    "licenseStatus": "ACTIVE",
    "inService": true,
    "licenseNumber": "550002887",
    "licenseEffectiveDate": "11/21/2024",
    "licenseExpirationDate": "11/20/2026",
    "dataDate": "10/18/2025",
    "capacity": 0,
    "address": "2920 W OLIVE AVE, SUITE 214",
    "city": "BURBANK",
    "zip": "91505",
    "county": "LOS ANGELES",
    "phone": "(818) 861-7293",
    "lat": 34.157331,
    "lng": -118.333287
  },
  {
    "id": "630025023",
    "name": "A & J HOME HEALTH CARE, INC.",
    "npi": null,
    "hcaiId": "406197648",
    "businessName": "A & J HOME HEALTH CARE, INC.",
    "contactEmail": "AJHOMEHEALTHCAREINC@GMAIL.COM",
    "categoryName": "HOME HEALTH AGENCY",
    "categoryCode": "HHA",
    "licenseStatus": "ACTIVE",
    "inService": true,
    "licenseNumber": "550008330",
    "licenseEffectiveDate": "01/18/2025",
    "licenseExpirationDate": "01/17/2026",
    "dataDate": "10/18/2025",
    "capacity": 0,
    "address": "816 N HOLLYWOOD WAY, UNIT 2",
    "city": "BURBANK",
    "zip": "91505",
    "county": "LOS ANGELES",
    "phone": "(818) 821-0330",
    "lat": 34.165125,
    "lng": -118.3453155
  },
  {
    "id": "630020384",
    "name": "A&C HOSPICE",
    "npi": null,
    "hcaiId": "406193701",
    "businessName": "A&C HOSPICE",
    "contactEmail": "ACHOSPICEPROVIDERS@GMAIL.COM",
    "categoryName": "HOSPICE",
    "categoryCode": "HOSPICE",
    "licenseStatus": "ACTIVE",
    "inService": true,
    "licenseNumber": "550006852",
    "licenseEffectiveDate": "04/21/2025",
    "licenseExpirationDate": "09/15/2025",
    "dataDate": "10/18/2025",
    "capacity": 0,
    "address": "2600 W OLIVE AVE, SUITE 526",
    "city": "BURBANK",
    "zip": "91505",
    "county": "LOS ANGELES",
    "phone": "(818) 970-3914",
    "lat": 34.15958,
    "lng": -118.330265
  },
  {
    "id": "630012471",
    "name": "A1 UNLIMITED HOME HEALTH CARE, INC.",
    "npi": "1467688994",
    "hcaiId": "406197501",
    "businessName": "A1 UNLIMITED HOME HEALTH CARE, INC.",
    "contactEmail": "A1UNLIMITEDCARE@YAHOO.COM",
    "categoryName": "HOME HEALTH AGENCY",
    "categoryCode": "HHA",
    "licenseStatus": "ACTIVE",
    "inService": true,
    "licenseNumber": "550001506",
    "licenseEffectiveDate": "02/24/2025",
    "licenseExpirationDate": "02/23/2026",
    "dataDate": "10/18/2025",
    "capacity": 0,
    "address": "3200 W BURBANK BLVD, SUITE 102",
    "city": "BURBANK",
    "zip": "91505",
    "county": "LOS ANGELES",
    "phone": "(323) 331-3088",
    "lat": 34.176042,
    "lng": -118.3452615
  },
  {
    "id": "630007801",
    "name": "AAA HOME HEALTH SERVICES, INC.",
    "npi": "1578614533",
    "hcaiId": "406196836",
    "businessName": "AAA HOME HEALTH SERVICES, INC.",
    "contactEmail": "AAAHOMEHS@YAHOO.COM",
    "categoryName": "HOME HEALTH AGENCY",
    "categoryCode": "HHA",
    "licenseStatus": "ACTIVE",
    "inService": true,
    "licenseNumber": "550000291",
    "licenseEffectiveDate": "01/27/2025",
    "licenseExpirationDate": "01/26/2026",
    "dataDate": "10/18/2025",
    "capacity": 0,
    "address": "3806 W MAGNOLIA BLVD, SUITE A",
    "city": "BURBANK",
    "zip": "91505",
    "county": "LOS ANGELES",
    "phone": "(818) 244-0698",
    "lat": 34.167394,
    "lng": -118.348352
  },
  {
    "id": "630011975",
    "name": "ACCLAIM HOME HEALTH, INC.",
    "npi": null,
    "hcaiId": "406197363",
    "businessName": "ACCLAIM HOME HEALTH, INC.",
    "contactEmail": "ACCLAIMHHC@YAHOO.COM",
    "categoryName": "HOME HEALTH AGENCY",
    "categoryCode": "HHA",
    "licenseStatus": "ACTIVE",
    "inService": true,
    "licenseNumber": "550001228",
    "licenseEffectiveDate": "02/05/2025",
    "licenseExpirationDate": "02/04/2026",
    "dataDate": "10/18/2025",
    "capacity": 0,
    "address": "4020 W MAGNOLIA BLVD, SUITE C",
    "city": "BURBANK",
    "zip": "91505",
    "county": "LOS ANGELES",
    "phone": "(818) 736-5450",
    "lat": 34.166313,
    "lng": -118.3506525
  },
  {
    "id": "930001725",
    "name": "ALAMEDA SURGERY CENTER",
    "npi": "1356407332",
    "hcaiId": "306196194",
    "businessName": "ALAMEDA SURGERY CENTER, L.P.",
    "contactEmail": "SHARYN@ALAMEDASC.COM",
    "categoryName": "SURGICAL CLINIC",
    "categoryCode": "ASC",
    "licenseStatus": "INACTIVE - CAPEN DECISION",
    "inService": false,
    "licenseNumber": "930000952",
    "licenseEffectiveDate": "11/01/2007",
    "licenseExpirationDate": "10/31/2008",
    "dataDate": "10/18/2025",
    "capacity": 0,
    "address": "2601 W ALAMEDA AVE, SUITE 314",
    "city": "BURBANK",
    "zip": "91505",
    "county": "LOS ANGELES",
    "phone": "(818) 842-9728",
    "lat": 34.158366,
    "lng": -118.329678
  },
  {
    "id": "630022187",
    "name": "ALFA ALLIANCE HOSPICE, INC.",
    "npi": null,
    "hcaiId": "406193839",
    "businessName": "ALFA ALLIANCE HOSPICE, INC.",
    "contactEmail": "ALFAALLIANCEHOSPICE@GMAIL.COM",
    "categoryName": "HOSPICE",
    "categoryCode": "HOSPICE",
    "licenseStatus": "ACTIVE",
    "inService": true,
    "licenseNumber": "550007381",
    "licenseEffectiveDate": "03/24/2025",
    "licenseExpirationDate": "12/02/2025",
    "dataDate": "10/18/2025",
    "capacity": 0,
    "address": "4105 W MAGNOLIA BLVD, FLOOR 1",
    "city": "BURBANK",
    "zip": "91505",
    "county": "LOS ANGELES",
    "phone": "(747) 322-4895",
    "lat": 34.16668135,
    "lng": -118.3514654
  },
  {
    "id": "630019360",
    "name": "ALL FAMILY HOME HEALTH",
    "npi": null,
    "hcaiId": "406192251",
    "businessName": "ALL FAMILY HOME HEALTH",
    "contactEmail": "ALLFAMILYHH19@GMAIL.COM",
    "categoryName": "HOME HEALTH AGENCY",
    "categoryCode": "HHA",
    "licenseStatus": "ACTIVE",
    "inService": true,
    "licenseNumber": "550005239",
    "licenseEffectiveDate": "01/08/2025",
    "licenseExpirationDate": "01/07/2026",
    "dataDate": "10/18/2025",
    "capacity": 0,
    "address": "3721 W BURBANK BLVD, SUITE E",
    "city": "BURBANK",
    "zip": "91505",
    "county": "LOS ANGELES",
    "phone": "(818) 858-0648",
    "lat": 34.174448,
    "lng": -118.351087
  },
  {
    "id": "630024000",
    "name": "ALL FOR HEALTH HOME HEALTH CARE INC",
    "npi": null,
    "hcaiId": "406195638",
    "businessName": "ALL FOR HEALTH HOME HEALTH CARE INC",
    "contactEmail": "ALLFORHEALTHHHC@GMAIL.COM",
    "categoryName": "HOME HEALTH AGENCY",
    "categoryCode": "HHA",
    "licenseStatus": "ACTIVE",
    "inService": true,
    "licenseNumber": "550008187",
    "licenseEffectiveDate": "09/13/2025",
    "licenseExpirationDate": "09/12/2026",
    "dataDate": "10/18/2025",
    "capacity": 0,
    "address": "3721 W BURBANK BLVD, SUITE A",
    "city": "BURBANK",
    "zip": "91505",
    "county": "LOS ANGELES",
    "phone": "(747) 477-1444",
    "lat": 34.17447569,
    "lng": -118.3511333
  },
  {
    "id": "630021638",
    "name": "AMERICARE HOSPICE",
    "npi": null,
    "hcaiId": null,
    "businessName": "RELIACARE HOSPICE, INC.",
    "contactEmail": "4RELIACAREHOSPICE@GMAIL.COM",
    "categoryName": "HOSPICE",
    "categoryCode": "HOSPICE",
    "licenseStatus": "ACTIVE",
    "inService": true,
    "licenseNumber": "550007387",
    "licenseEffectiveDate": "10/27/2025",
    "licenseExpirationDate": "12/06/2025",
    "dataDate": "10/18/2025",
    "capacity": 0,
    "address": "4119 W BURBANK BLVD, SUITE 145",
    "city": "BURBANK",
    "zip": "91505",
    "county": "LOS ANGELES",
    "phone": "(747) 244-2187",
    "lat": 34.17301395,
    "lng": -118.3554783
  },
  {
    "id": "630013827",
    "name": "AMERICARE HOSPICE, INC.",
    "npi": null,
    "hcaiId": "406197998",
    "businessName": "AMERICARE HOSPICE, INC.",
    "contactEmail": "AMERICAREHOSPICE@GMAIL.COM",
    "categoryName": "HOSPICE",
    "categoryCode": "HOSPICE",
    "licenseStatus": "ACTIVE",
    "inService": true,
    "licenseNumber": "550002356",
    "licenseEffectiveDate": "06/27/2025",
    "licenseExpirationDate": "06/26/2027",
    "dataDate": "10/18/2025",
    "capacity": 0,
    "address": "3200 W BURBANK BLVD, SUITE 101",
    "city": "BURBANK",
    "zip": "91505",
    "county": "LOS ANGELES",
    "phone": "(818) 641-5957",
    "lat": 34.176042,
    "lng": -118.3452615
  },
  {
    "id": "630017233",
    "name": "AMETRINE HOSPICE",
    "npi": "1053850529",
    "hcaiId": "406191465",
    "businessName": "AMETRINE HOSPICE",
    "contactEmail": "AMETRINEHOSPICECARE@GMAIL.COM",
    "categoryName": "HOSPICE",
    "categoryCode": "HOSPICE",
    "licenseStatus": "ACTIVE",
    "inService": true,
    "licenseNumber": "550004492",
    "licenseEffectiveDate": "09/19/2024",
    "licenseExpirationDate": "09/18/2026",
    "dataDate": "10/18/2025",
    "capacity": 0,
    "address": "3100 W BURBANK BLVD, SUITE 204",
    "city": "BURBANK",
    "zip": "91505",
    "county": "LOS ANGELES",
    "phone": "(818) 290-3801",
    "lat": 34.176357,
    "lng": -118.3443255
  },
  {
    "id": "630020014",
    "name": "ANGEL CARE HOSPICE, LLC",
    "npi": null,
    "hcaiId": "406195697",
    "businessName": "ANGEL CARE HOSPICE, LLC",
    "contactEmail": "ANGELCAREHOSPICELLC@GMAIL.COM",
    "categoryName": "HOSPICE",
    "categoryCode": "HOSPICE",
    "licenseStatus": "ACTIVE",
    "inService": true,
    "licenseNumber": "550007300",
    "licenseEffectiveDate": "11/24/2023",
    "licenseExpirationDate": "11/23/2025",
    "dataDate": "10/18/2025",
    "capacity": 0,
    "address": "4100 W ALAMEDA AVE, SUITE 385",
    "city": "BURBANK",
    "zip": "91505",
    "county": "LOS ANGELES",
    "phone": "(747) 200-5470",
    "lat": 34.152363,
    "lng": -118.344627
  },
  {
    "id": "630014985",
    "name": "ANGEL'S HAND HOSPICE CARE, INC.",
    "npi": null,
    "hcaiId": "406192086",
    "businessName": "ANGEL'S HAND HOSPICE CARE, INC",
    "contactEmail": "ANGELSHANDHOSPICE@GMAIL.COM",
    "categoryName": "HOSPICE",
    "categoryCode": "HOSPICE",
    "licenseStatus": "ACTIVE",
    "inService": true,
    "licenseNumber": "550002976",
    "licenseEffectiveDate": "01/26/2025",
    "licenseExpirationDate": "01/25/2027",
    "dataDate": "10/18/2025",
    "capacity": 0,
    "address": "2501 W BURBANK BLVD, SUITE 310",
    "city": "BURBANK",
    "zip": "91505",
    "county": "LOS ANGELES",
    "phone": "(818) 855-2131",
    "lat": 34.17885,
    "lng": -118.3385925
  },
  {
    "id": "630018469",
    "name": "ANGELES HOME HEALTH CARE, INC",
    "npi": "1528163094",
    "hcaiId": "406192233",
    "businessName": "ANGELES HOME HEALTH CARE, INC",
    "contactEmail": "ANGELSHHCARE2018@GMAIL.COM",
    "categoryName": "HOME HEALTH AGENCY",
    "categoryCode": "HHA",
    "licenseStatus": "ACTIVE",
    "inService": true,
    "licenseNumber": "550004823",
    "licenseEffectiveDate": "07/29/2025",
    "licenseExpirationDate": "07/28/2026",
    "dataDate": "10/18/2025",
    "capacity": 0,
    "address": "816 N HOLLYWOOD WAY, UNIT 3",
    "city": "BURBANK",
    "zip": "91505",
    "county": "LOS ANGELES",
    "phone": "(747) 241-8939",
    "lat": 34.165125,
    "lng": -118.3453155
  },
  {
    "id": "630025786",
    "name": "ART OF CARING HOME HEALTH, INC.",
    "npi": null,
    "hcaiId": null,
    "businessName": "ART OF CARING HOME HEALTH, INC.",
    "contactEmail": "ARTOFCARINGHH@GMAIL.COM",
    "categoryName": "HOME HEALTH AGENCY",
    "categoryCode": "HHA",
    "licenseStatus": "ACTIVE",
    "inService": true,
    "licenseNumber": "550009561",
    "licenseEffectiveDate": "05/04/2025",
    "licenseExpirationDate": "11/03/2025",
    "dataDate": "10/18/2025",
    "capacity": 0,
    "address": "4100 W ALAMEDA AVE, SUITE 388",
    "city": "BURBANK",
    "zip": "91505",
    "county": "LOS ANGELES",
    "phone": "(818) 736-5005",
    "lat": 34.152363,
    "lng": -118.344627
  },
  {
    "id": "630019052",
    "name": "AVANTA HOME HEALTH SERVICES",
    "npi": "1992366678",
    "hcaiId": "406192505",
    "businessName": "AVANTA HOME HEALTH SERVICES",
    "contactEmail": "AVANTAHHCS@GMAIL.COM",
    "categoryName": "HOME HEALTH AGENCY",
    "categoryCode": "HHA",
    "licenseStatus": "ACTIVE",
    "inService": true,
    "licenseNumber": "550005334",
    "licenseEffectiveDate": "03/01/2025",
    "licenseExpirationDate": "02/28/2026",
    "dataDate": "10/18/2025",
    "capacity": 0,
    "address": "2915 W BURBANK BLVD, UNIT B",
    "city": "BURBANK",
    "zip": "91505",
    "county": "LOS ANGELES",
    "phone": "(626) 800-0125",
    "lat": 34.17736199,
    "lng": -118.343171
  },
  {
    "id": "630020157",
    "name": "AVENTUS HOSPICE INC.",
    "npi": null,
    "hcaiId": "406193696",
    "businessName": "AVENTUS HOSPICE INC",
    "contactEmail": "AVENTUSHOSPICE@GMAIL.COM",
    "categoryName": "HOSPICE",
    "categoryCode": "HOSPICE",
    "licenseStatus": "ACTIVE",
    "inService": true,
    "licenseNumber": "550006661",
    "licenseEffectiveDate": "01/16/2024",
    "licenseExpirationDate": "07/27/2025",
    "dataDate": "10/18/2025",
    "capacity": 0,
    "address": "4425 W RIVERSIDE DR, SUITE 203",
    "city": "BURBANK",
    "zip": "91505",
    "county": "LOS ANGELES",
    "phone": "(747) 247-1206",
    "lat": 34.15252398,
    "lng": -118.349132
  },
  {
    "id": "630018342",
    "name": "BELANI HOME HEALTH CARE, INC.",
    "npi": "1487144820",
    "hcaiId": "406191767",
    "businessName": "BELANI HOME HEALTH CARE, INC.",
    "contactEmail": "BELANIHHC@GMAIL.COM",
    "categoryName": "HOME HEALTH AGENCY",
    "categoryCode": "HHA",
    "licenseStatus": "ACTIVE",
    "inService": true,
    "licenseNumber": "550004794",
    "licenseEffectiveDate": "06/21/2025",
    "licenseExpirationDate": "06/20/2026",
    "dataDate": "10/18/2025",
    "capacity": 0,
    "address": "2609 W WYOMING AVE, SUITE B",
    "city": "BURBANK",
    "zip": "91505",
    "county": "LOS ANGELES",
    "phone": "(818) 835-7986",
    "lat": 34.178688,
    "lng": -118.3400865
  },
  {
    "id": "630017317",
    "name": "BLISSFUL HEALTHCARE SERVICES, INC.",
    "npi": null,
    "hcaiId": "406191709",
    "businessName": "BLISSFUL HEALTHCARE SERVICES, INC.",
    "contactEmail": "BLISSFULHH@GMAIL.COM",
    "categoryName": "HOME HEALTH AGENCY",
    "categoryCode": "HHA",
    "licenseStatus": "ACTIVE",
    "inService": true,
    "licenseNumber": "550004743",
    "licenseEffectiveDate": "06/05/2025",
    "licenseExpirationDate": "06/04/2026",
    "dataDate": "10/18/2025",
    "capacity": 0,
    "address": "2829 W BURBANK BLVD, SUITE 200B",
    "city": "BURBANK",
    "zip": "91505",
    "county": "LOS ANGELES",
    "phone": "(818) 849-6414",
    "lat": 34.177557,
    "lng": -118.342472
  },
  {
    "id": "630015024",
    "name": "BLUE PACIFIC HOSPICE CARE, INC",
    "npi": null,
    "hcaiId": "406198233",
    "businessName": "BLUE PACIFIC HOSPICE CARE, INC.",
    "contactEmail": "BPHOSPICECARE@GMAIL.COM",
    "categoryName": "HOSPICE",
    "categoryCode": "HOSPICE",
    "licenseStatus": "ACTIVE",
    "inService": true,
    "licenseNumber": "550002748",
    "licenseEffectiveDate": "05/28/2022",
    "licenseExpirationDate": "05/27/2024",
    "dataDate": "10/18/2025",
    "capacity": 0,
    "address": "2920 W. OLIVE AVE., SUITE 216",
    "city": "BURBANK",
    "zip": "91505",
    "county": "LOS ANGELES",
    "phone": "(818) 217-1215",
    "lat": 34.157331,
    "lng": -118.333287
  },
  {
    "id": "630017843",
    "name": "BRIGHTER DAY HEALTHCARE",
    "npi": null,
    "hcaiId": "206190240",
    "businessName": "BRIGHTER DAY HEALTHCARE",
    "contactEmail": "ANGELA@BRIGHTERDAYHEALTHCAREINC.COM",
    "categoryName": "CONGREGATE LIVING HEALTH FACILITY",
    "categoryCode": "CLHF",
    "licenseStatus": "ACTIVE",
    "inService": true,
    "licenseNumber": "550005418",
    "licenseEffectiveDate": "04/07/2025",
    "licenseExpirationDate": "04/06/2026",
    "dataDate": "10/18/2025",
    "capacity": 6,
    "address": "1911 N KENWOOD ST",
    "city": "BURBANK",
    "zip": "91505",
    "county": "LOS ANGELES",
    "phone": "(818) 669-6012",
    "lat": 34.183404,
    "lng": -118.3527945
  },
  {
    "id": "930001647",
    "name": "BUENA VISTA SURGERY CENTER",
    "npi": "1386186781",
    "hcaiId": null,
    "businessName": null,
    "contactEmail": "DR.ORLOFF@EARTHLINK.NET",
    "categoryName": "SURGICAL CLINIC",
    "categoryCode": "ASC",
    "licenseStatus": null,
    "inService": null,
    "licenseNumber": null,
    "licenseEffectiveDate": null,
    "licenseExpirationDate": null,
    "dataDate": "10/18/2025",
    "capacity": 0,
    "address": "2701 W ALAMEDA AVE, SUITE 401B",
    "city": "BURBANK",
    "zip": "91505",
    "county": "LOS ANGELES",
    "phone": "(818) 848-0598",
    "lat": 34.157952,
    "lng": -118.330578
  },
  {
    "id": "060001857",
    "name": "BURBANK ADHC",
    "npi": null,
    "hcaiId": null,
    "businessName": "BURBANK ADHC, INC.",
    "contactEmail": "BURBANK_ADHC@YAHOO.COM",
    "categoryName": "ADULT DAY HEALTH CARE",
    "categoryCode": "ADHC",
    "licenseStatus": "ACTIVE",
    "inService": true,
    "licenseNumber": "060000674",
    "licenseEffectiveDate": "07/30/2025",
    "licenseExpirationDate": "02/25/2026",
    "dataDate": "10/18/2025",
    "capacity": 0,
    "address": "2609 W BURBANK BLVD",
    "city": "BURBANK",
    "zip": "91505",
    "county": "LOS ANGELES",
    "phone": "(818) 563-9255",
    "lat": 34.178328,
    "lng": -118.3401675
  },
  {
    "id": "630022316",
    "name": "BURBANK HOSPICE & PALLIATIVE SERVICES, INC.",
    "npi": null,
    "hcaiId": "406193886",
    "businessName": "BURBANK HOSPICE & PALLIATIVE SERVICES, INC.",
    "contactEmail": "BURBANKHPS@GMAIL.COM",
    "categoryName": "HOSPICE",
    "categoryCode": "HOSPICE",
    "licenseStatus": "ACTIVE",
    "inService": true,
    "licenseNumber": "550007170",
    "licenseEffectiveDate": "11/11/2025",
    "licenseExpirationDate": "11/10/2027",
    "dataDate": "10/18/2025",
    "capacity": 0,
    "address": "4119 W BURBANK BLVD, SUITE 157",
    "city": "BURBANK",
    "zip": "91505",
    "county": "LOS ANGELES",
    "phone": "(818) 442-1063",
    "lat": 34.17301395,
    "lng": -118.3554783
  },
  {
    "id": "630021896",
    "name": "CALIFORNIA HEALTHCARE AND HOSPICE",
    "npi": null,
    "hcaiId": "406195164",
    "businessName": "CALIFORNIA HEALTHCARE AND HOSPICE",
    "contactEmail": "CAHEALTHCAREANDHOSPICE@GMAIL.COM",
    "categoryName": "HOSPICE",
    "categoryCode": "HOSPICE",
    "licenseStatus": "ACTIVE",
    "inService": true,
    "licenseNumber": "550007497",
    "licenseEffectiveDate": "12/17/2023",
    "licenseExpirationDate": "12/16/2025",
    "dataDate": "10/18/2025",
    "capacity": 0,
    "address": "4405 W RIVERSIDE DR, SUITE 213",
    "city": "BURBANK",
    "zip": "91505",
    "county": "LOS ANGELES",
    "phone": "(818) 736-5158",
    "lat": 34.152507,
    "lng": -118.348047
  },
  {
    "id": "630021246",
    "name": "CALIFORNIA HOME HEALTH SERVICES, INC.",
    "npi": null,
    "hcaiId": "406193811",
    "businessName": "CALIFORNIA HOME HEALTH SERVICES, INC.",
    "contactEmail": "CALIFORNIAHHSI@GMAIL.COM",
    "categoryName": "HOME HEALTH AGENCY",
    "categoryCode": "HHA",
    "licenseStatus": "ACTIVE",
    "inService": true,
    "licenseNumber": "550007204",
    "licenseEffectiveDate": "10/28/2025",
    "licenseExpirationDate": "10/27/2026",
    "dataDate": "10/18/2025",
    "capacity": 0,
    "address": "4119 W BURBANK BLVD, SUITE 148",
    "city": "BURBANK",
    "zip": "91505",
    "county": "LOS ANGELES",
    "phone": "(818) 533-1643",
    "lat": 34.17301395,
    "lng": -118.3554783
  },
  {
    "id": "630015749",
    "name": "CAPITAL HOME HEALTH CARE",
    "npi": "1922406248",
    "hcaiId": "406198270",
    "businessName": "SAN BERNARDINO HOME HEALTHCARE, INC.",
    "contactEmail": "SBHOMEHEALTHCARE18@GMAIL.COM",
    "categoryName": "HOME HEALTH AGENCY",
    "categoryCode": "HHA",
    "licenseStatus": "ACTIVE",
    "inService": true,
    "licenseNumber": "550003394",
    "licenseEffectiveDate": "01/25/2025",
    "licenseExpirationDate": "01/24/2026",
    "dataDate": "10/18/2025",
    "capacity": 0,
    "address": "1117 N HOLLYWOOD WAY",
    "city": "BURBANK",
    "zip": "91505",
    "county": "LOS ANGELES",
    "phone": "(888) 530-9717",
    "lat": 34.17014652,
    "lng": -118.3481806
  },
  {
    "id": "630019314",
    "name": "CARE SOLUTION HOSPICE, INC.",
    "npi": null,
    "hcaiId": "406192816",
    "businessName": "CARE SOLUTION HOSPICE, INC.",
    "contactEmail": "CARESOLUTIONHOSPICE@GMAIL.COM",
    "categoryName": "HOSPICE",
    "categoryCode": "HOSPICE",
    "licenseStatus": "ACTIVE",
    "inService": true,
    "licenseNumber": "550005651",
    "licenseEffectiveDate": "09/29/2025",
    "licenseExpirationDate": "08/11/2026",
    "dataDate": "10/18/2025",
    "capacity": 0,
    "address": "2501 W BURBANK BLVD, SUITE 203",
    "city": "BURBANK",
    "zip": "91505",
    "county": "LOS ANGELES",
    "phone": "(818) 612-5080",
    "lat": 34.178859,
    "lng": -118.338642
  },
  {
    "id": "630021020",
    "name": "CAREPLUS HOSPICE",
    "npi": null,
    "hcaiId": "406196174",
    "businessName": "QNA HOSPICE CARE, INC",
    "contactEmail": "QNAHOSPICECARE@GMAIL.COM",
    "categoryName": "HOSPICE",
    "categoryCode": "HOSPICE",
    "licenseStatus": "ACTIVE",
    "inService": true,
    "licenseNumber": "550006423",
    "licenseEffectiveDate": "04/16/2025",
    "licenseExpirationDate": "04/15/2027",
    "dataDate": "10/18/2025",
    "capacity": 0,
    "address": "4001 W ALAMEDA AVE, SUITE 202",
    "city": "BURBANK",
    "zip": "91505",
    "county": "LOS ANGELES",
    "phone": "(818) 649-3040",
    "lat": 34.153263,
    "lng": -118.3438575
  },
  {
    "id": "630021369",
    "name": "CARING 4 YOU HOME HEALTH, INC",
    "npi": null,
    "hcaiId": "406193181",
    "businessName": "CARING 4 YOU HOME HEALTH, INC",
    "contactEmail": "CARING4YOUHH@GMAIL.COM",
    "categoryName": "HOME HEALTH AGENCY",
    "categoryCode": "HHA",
    "licenseStatus": "ACTIVE",
    "inService": true,
    "licenseNumber": "550006895",
    "licenseEffectiveDate": "09/21/2025",
    "licenseExpirationDate": "09/20/2026",
    "dataDate": "10/18/2025",
    "capacity": 0,
    "address": "4119 W BURBANK BLVD, SUITE 153",
    "city": "BURBANK",
    "zip": "91505",
    "county": "LOS ANGELES",
    "phone": "(818) 707-5692",
    "lat": 34.17301395,
    "lng": -118.3554783
  },
  {
    "id": "630021236",
    "name": "CARING HOME HOME CARE INC.",
    "npi": null,
    "hcaiId": "406195516",
    "businessName": "CARING HOME HOME CARE INC.",
    "contactEmail": "CARINGHHCI@GMAIL.COM",
    "categoryName": "HOME HEALTH AGENCY",
    "categoryCode": "HHA",
    "licenseStatus": "ACTIVE",
    "inService": true,
    "licenseNumber": "550007288",
    "licenseEffectiveDate": "10/28/2024",
    "licenseExpirationDate": "10/27/2025",
    "dataDate": "10/18/2025",
    "capacity": 0,
    "address": "4119 W BURBANK BLVD, SUITE 183",
    "city": "BURBANK",
    "zip": "91505",
    "county": "LOS ANGELES",
    "phone": "(818) 457-9617",
    "lat": 34.17301395,
    "lng": -118.3554783
  },
  {
    "id": "630013024",
    "name": "COMPASSIONATE HOSPICE CARE, INC.",
    "npi": "1861694616",
    "hcaiId": "406197578",
    "businessName": "COMPASSIONATE HOSPICE CARE, INC.",
    "contactEmail": "COMPASSIONATEHOSPICE@YAHOO.COM",
    "categoryName": "HOSPICE",
    "categoryCode": "HOSPICE",
    "licenseStatus": "ACTIVE",
    "inService": true,
    "licenseNumber": "550001654",
    "licenseEffectiveDate": "11/12/2025",
    "licenseExpirationDate": "11/11/2027",
    "dataDate": "10/18/2025",
    "capacity": 0,
    "address": "3512 W VICTORY BLVD",
    "city": "BURBANK",
    "zip": "91505",
    "county": "LOS ANGELES",
    "phone": "(818) 848-6410",
    "lat": 34.184466,
    "lng": -118.349703
  },
  {
    "id": "630019583",
    "name": "CRYSTAL HEALTH SERVICES INC.",
    "npi": null,
    "hcaiId": "406195792",
    "businessName": "CRYSTAL HEALTH SERVICES INC.",
    "contactEmail": "CRYSTALHEALTHSERVICESINC@GMAIL.COM",
    "categoryName": "HOME HEALTH AGENCY",
    "categoryCode": "HHA",
    "licenseStatus": "ACTIVE",
    "inService": true,
    "licenseNumber": "550007821",
    "licenseEffectiveDate": "02/04/2025",
    "licenseExpirationDate": "02/03/2026",
    "dataDate": "10/18/2025",
    "capacity": 0,
    "address": "3504 W MAGNOLIA BLVD, SUITE 3",
    "city": "BURBANK",
    "zip": "91505",
    "county": "LOS ANGELES",
    "phone": "(818) 294-0752",
    "lat": 34.16839024,
    "lng": -118.3451952
  },
  {
    "id": "630016850",
    "name": "DAY LIGHT HOME HEALTH INC",
    "npi": "1295100063",
    "hcaiId": "406191761",
    "businessName": "DAY LIGHT HOME HEALTH INC",
    "contactEmail": "CONTACT@DAYLIGHTHH.COM",
    "categoryName": "HOME HEALTH AGENCY",
    "categoryCode": "HHA",
    "licenseStatus": "ACTIVE",
    "inService": true,
    "licenseNumber": "550004703",
    "licenseEffectiveDate": "05/07/2025",
    "licenseExpirationDate": "05/06/2026",
    "dataDate": "10/18/2025",
    "capacity": 0,
    "address": "3100 W BURBANK BLVD, SUITE 102",
    "city": "BURBANK",
    "zip": "91505",
    "county": "LOS ANGELES",
    "phone": "(818) 920-8610",
    "lat": 34.176357,
    "lng": -118.3443255
  },
  {
    "id": "630021948",
    "name": "DELICATE HEALING HOSPICE, INC.",
    "npi": null,
    "hcaiId": "406198164",
    "businessName": "DELICATE HEALING HOSPICE, INC.",
    "contactEmail": "DELICATEHEALINGHOSPICE@GMAIL.COM",
    "categoryName": "HOSPICE",
    "categoryCode": "HOSPICE",
    "licenseStatus": "ACTIVE",
    "inService": true,
    "licenseNumber": "550007396",
    "licenseEffectiveDate": "03/05/2024",
    "licenseExpirationDate": "12/06/2025",
    "dataDate": "10/18/2025",
    "capacity": 0,
    "address": "4119 W BURBANK BLVD, SUITE 185",
    "city": "BURBANK",
    "zip": "91505",
    "county": "LOS ANGELES",
    "phone": "(323) 369-0243",
    "lat": 34.17323001,
    "lng": -118.355467
  },
  {
    "id": "630021520",
    "name": "DELUXE HOSPICE CARE",
    "npi": null,
    "hcaiId": "406197629",
    "businessName": "DELUXE HOSPICE CARE",
    "contactEmail": "DELUXEHOSPICECARE@GMAIL.COM",
    "categoryName": "HOSPICE",
    "categoryCode": "HOSPICE",
    "licenseStatus": "ACTIVE",
    "inService": true,
    "licenseNumber": "550007274",
    "licenseEffectiveDate": "11/23/2023",
    "licenseExpirationDate": "11/22/2025",
    "dataDate": "10/18/2025",
    "capacity": 0,
    "address": "4119 W BURBANK BLVD, SUITE 167",
    "city": "BURBANK",
    "zip": "91505",
    "county": "LOS ANGELES",
    "phone": "(818) 436-9084",
    "lat": 34.17301395,
    "lng": -118.3554783
  },
  {
    "id": "630019138",
    "name": "DEVOTED HOSPICE INC",
    "npi": null,
    "hcaiId": "406190241",
    "businessName": "DEVOTED HOSPICE INC.",
    "contactEmail": "DEVOTEDHOSPICE@GMAIL.COM",
    "categoryName": "HOSPICE",
    "categoryCode": "HOSPICE",
    "licenseStatus": "ACTIVE",
    "inService": true,
    "licenseNumber": "550006044",
    "licenseEffectiveDate": "02/10/2025",
    "licenseExpirationDate": "02/09/2027",
    "dataDate": "10/18/2025",
    "capacity": 0,
    "address": "2910 W BURBANK BLVD, SUITE B",
    "city": "BURBANK",
    "zip": "91505",
    "county": "LOS ANGELES",
    "phone": "(818) 572-4066",
    "lat": 34.177041,
    "lng": -118.342539
  },
  {
    "id": "630019506",
    "name": "DEW SENIOR HEALTH",
    "npi": null,
    "hcaiId": "406196612",
    "businessName": "DEW SENIOR HEALTH",
    "contactEmail": "DEWSENIORHEALTH@GMAIL.COM",
    "categoryName": "HOSPICE",
    "categoryCode": "HOSPICE",
    "licenseStatus": "ACTIVE",
    "inService": true,
    "licenseNumber": "550006329",
    "licenseEffectiveDate": "05/18/2025",
    "licenseExpirationDate": "05/17/2027",
    "dataDate": "10/18/2025",
    "capacity": 0,
    "address": "201 N HOLLYWOOD WAY, SUITE 206",
    "city": "BURBANK",
    "zip": "91505",
    "county": "LOS ANGELES",
    "phone": "(818) 294-2048",
    "lat": 34.15426901,
    "lng": -118.340774
  },
  {
    "id": "630019277",
    "name": "DIGNITONIC HOME CARE LLC",
    "npi": null,
    "hcaiId": "406195277",
    "businessName": "DIGNITONIC HOME CARE LLC",
    "contactEmail": "INFO@DIGNITONIC.COM",
    "categoryName": "HOME HEALTH AGENCY",
    "categoryCode": "HHA",
    "licenseStatus": "ACTIVE",
    "inService": true,
    "licenseNumber": "550006009",
    "licenseEffectiveDate": "02/04/2025",
    "licenseExpirationDate": "02/03/2026",
    "dataDate": "10/18/2025",
    "capacity": 0,
    "address": "2600 W OLIVE AVE, SUITE #535",
    "city": "BURBANK",
    "zip": "91505",
    "county": "LOS ANGELES",
    "phone": "(818) 533-8080",
    "lat": 34.15958,
    "lng": -118.330265
  },
  {
    "id": "630021748",
    "name": "DINA SOVA HOME HEALTH CARE, INC.",
    "npi": null,
    "hcaiId": "406195661",
    "businessName": "DINA SOVA HOME HEALTH CARE, INC.",
    "contactEmail": "DINASOVA.HHC@GMAIL.COM",
    "categoryName": "HOME HEALTH AGENCY",
    "categoryCode": "HHA",
    "licenseStatus": "ACTIVE",
    "inService": true,
    "licenseNumber": "550006573",
    "licenseEffectiveDate": "07/28/2025",
    "licenseExpirationDate": "07/27/2026",
    "dataDate": "10/18/2025",
    "capacity": 0,
    "address": "3100 W BURBANK BLVD, SUITE 106",
    "city": "BURBANK",
    "zip": "91505",
    "county": "LOS ANGELES",
    "phone": "(747) 247-0701",
    "lat": 34.17638102,
    "lng": -118.34435
  },
  {
    "id": "630020287",
    "name": "DIVINE HOSPICE AND PALLIATIVE CARE INC.",
    "npi": null,
    "hcaiId": "406196080",
    "businessName": "DIVINE HOSPICE AND PALLIATIVE CARE INC.",
    "contactEmail": "DIVINEHPCARE@YAHOO.COM",
    "categoryName": "HOSPICE",
    "categoryCode": "HOSPICE",
    "licenseStatus": "ACTIVE",
    "inService": true,
    "licenseNumber": "550006006",
    "licenseEffectiveDate": "03/31/2023",
    "licenseExpirationDate": "01/21/2025",
    "dataDate": "10/18/2025",
    "capacity": 0,
    "address": "3721 W BURBANK BLVD, SUITE B",
    "city": "BURBANK",
    "zip": "91505",
    "county": "LOS ANGELES",
    "phone": "(818) 736-5008",
    "lat": 34.17475799,
    "lng": -118.351213
  },
  {
    "id": "630021543",
    "name": "EUPHORIC HOME HEALTH",
    "npi": null,
    "hcaiId": "406193439",
    "businessName": "EUPHORIC HOME HEALTH",
    "contactEmail": "EUPHORICHOMEHEALTH@GMAIL.COM",
    "categoryName": "HOME HEALTH AGENCY",
    "categoryCode": "HHA",
    "licenseStatus": "ACTIVE",
    "inService": true,
    "licenseNumber": "550006946",
    "licenseEffectiveDate": "10/11/2024",
    "licenseExpirationDate": "10/10/2025",
    "dataDate": "10/18/2025",
    "capacity": 0,
    "address": "4119 W BURBANK BLVD, SUITE 118",
    "city": "BURBANK",
    "zip": "91505",
    "county": "LOS ANGELES",
    "phone": "(818) 650-1967",
    "lat": 34.1732664,
    "lng": -118.3576518
  },
  {
    "id": "630022190",
    "name": "EVERETT HOME HEALTH",
    "npi": null,
    "hcaiId": "406193194",
    "businessName": "EVERETT HOME HEALTH",
    "contactEmail": "EVERETTHOMEHEALTH@GMAIL.COM",
    "categoryName": "HOME HEALTH AGENCY",
    "categoryCode": "HHA",
    "licenseStatus": "ACTIVE",
    "inService": true,
    "licenseNumber": "550007012",
    "licenseEffectiveDate": "10/21/2025",
    "licenseExpirationDate": "10/20/2026",
    "dataDate": "10/18/2025",
    "capacity": 0,
    "address": "3318 W BURBANK BLVD, SUITE A",
    "city": "BURBANK",
    "zip": "91505",
    "county": "LOS ANGELES",
    "phone": "(747) 336-3232",
    "lat": 34.17571852,
    "lng": -118.3469399
  },
  {
    "id": "630025922",
    "name": "FIRST GUARDIAN HOME HEALTH",
    "npi": null,
    "hcaiId": null,
    "businessName": "FIRST GUARDIAN HOME HEALTH",
    "contactEmail": "FIRSTGUARDIANHH@GMAIL.COM",
    "categoryName": "HOME HEALTH AGENCY",
    "categoryCode": "HHA",
    "licenseStatus": "ACTIVE",
    "inService": true,
    "licenseNumber": "550009323",
    "licenseEffectiveDate": "08/16/2025",
    "licenseExpirationDate": "08/15/2026",
    "dataDate": "10/18/2025",
    "capacity": 0,
    "address": "4100 W ALAMEDA AVE, SUITE 378",
    "city": "BURBANK",
    "zip": "91505",
    "county": "LOS ANGELES",
    "phone": "(818) 473-9229",
    "lat": 34.152363,
    "lng": -118.344627
  },
  {
    "id": "630020489",
    "name": "FLAWLESS CARE HOME HEALTH SERVICES, INC.",
    "npi": null,
    "hcaiId": "406193799",
    "businessName": "FLAWLESS CARE HOME HEALTH SERVICES, INC.",
    "contactEmail": "FLAWLESSHHC@GMAIL.COM",
    "categoryName": "HOME HEALTH AGENCY",
    "categoryCode": "HHA",
    "licenseStatus": "ACTIVE",
    "inService": true,
    "licenseNumber": "550006268",
    "licenseEffectiveDate": "05/10/2025",
    "licenseExpirationDate": "05/09/2026",
    "dataDate": "10/18/2025",
    "capacity": 0,
    "address": "4119 W BURBANK BLVD, SUITE 140",
    "city": "BURBANK",
    "zip": "91505",
    "county": "LOS ANGELES",
    "phone": "(818) 935-6565",
    "lat": 34.17327061,
    "lng": -118.354864
  },
  {
    "id": "630023851",
    "name": "FOREVER HOME HEALTH CARE, INC.",
    "npi": null,
    "hcaiId": "406196543",
    "businessName": "FOREVER HOME HEALTH CARE, INC.",
    "contactEmail": "FOREVERHHCINC@GMAIL.COM",
    "categoryName": "HOME HEALTH AGENCY",
    "categoryCode": "HHA",
    "licenseStatus": "ACTIVE",
    "inService": true,
    "licenseNumber": "550008207",
    "licenseEffectiveDate": "10/25/2025",
    "licenseExpirationDate": "10/24/2026",
    "dataDate": "10/18/2025",
    "capacity": 0,
    "address": "3504 W MAGNOLIA BLVD, SUITE 212",
    "city": "BURBANK",
    "zip": "91505",
    "county": "LOS ANGELES",
    "phone": "(323) 590-1215",
    "lat": 34.16839024,
    "lng": -118.3451952
  },
  {
    "id": "630020294",
    "name": "GMM HOME HEALTH CARE, INC.",
    "npi": null,
    "hcaiId": "406192967",
    "businessName": "GMM HOME HEALTH CARE, INC.",
    "contactEmail": "GMMHOMEHEALTH@GMAIL.COM",
    "categoryName": "HOME HEALTH AGENCY",
    "categoryCode": "HHA",
    "licenseStatus": "ACTIVE",
    "inService": true,
    "licenseNumber": "550005827",
    "licenseEffectiveDate": "11/05/2025",
    "licenseExpirationDate": "10/28/2026",
    "dataDate": "10/18/2025",
    "capacity": 0,
    "address": "3800 W BURBANK BLVD, SUITE 103",
    "city": "BURBANK",
    "zip": "91505",
    "county": "LOS ANGELES",
    "phone": "(818) 210-0002",
    "lat": 34.17405399,
    "lng": -118.351346
  },
  {
    "id": "630011417",
    "name": "GOLDEN CENTURY HOME HEALTH CARE, INC.",
    "npi": null,
    "hcaiId": "406197254",
    "businessName": "GOLDEN CENTURY HOME HEALTH CARE, INC.",
    "contactEmail": "GOLDENCENTURYHHC@YAHOO.COM",
    "categoryName": "HOME HEALTH AGENCY",
    "categoryCode": "HHA",
    "licenseStatus": "ACTIVE",
    "inService": true,
    "licenseNumber": "550000998",
    "licenseEffectiveDate": "03/20/2025",
    "licenseExpirationDate": "03/19/2026",
    "dataDate": "10/18/2025",
    "capacity": 0,
    "address": "4116 W MAGNOLIA BLVD, SUITE 205",
    "city": "BURBANK",
    "zip": "91505",
    "county": "LOS ANGELES",
    "phone": "(818) 840-9500",
    "lat": 34.166043,
    "lng": -118.3516605
  },
  {
    "id": "630021922",
    "name": "GOLDEN STATE HOSPICE CARE",
    "npi": null,
    "hcaiId": "406195049",
    "businessName": "GOLDEN STATE HOSPICE CARE",
    "contactEmail": "GOLDENSTATEHOSPICECARE@GMAIL.COM",
    "categoryName": "HOSPICE",
    "categoryCode": "HOSPICE",
    "licenseStatus": "ACTIVE",
    "inService": true,
    "licenseNumber": "550007466",
    "licenseEffectiveDate": "12/14/2023",
    "licenseExpirationDate": "12/13/2025",
    "dataDate": "10/18/2025",
    "capacity": 0,
    "address": "4405 W RIVERSIDE DR, SUITE 203",
    "city": "BURBANK",
    "zip": "91505",
    "county": "LOS ANGELES",
    "phone": "(818) 940-1258",
    "lat": 34.152507,
    "lng": -118.348047
  },
  {
    "id": "630014614",
    "name": "GOOD CHOICE HOME HEALTH, INC.",
    "npi": "1174950505",
    "hcaiId": "406198089",
    "businessName": "GOOD CHOICE HOME HEALTH, INC.",
    "contactEmail": "GOODCHOICEHHI@GMAIL.COM",
    "categoryName": "HOME HEALTH AGENCY",
    "categoryCode": "HHA",
    "licenseStatus": "ACTIVE",
    "inService": true,
    "licenseNumber": "550002914",
    "licenseEffectiveDate": "06/01/2025",
    "licenseExpirationDate": "05/31/2026",
    "dataDate": "10/18/2025",
    "capacity": 0,
    "address": "1117 N HOLLYWOOD WAY, SUITE B",
    "city": "BURBANK",
    "zip": "91505",
    "county": "LOS ANGELES",
    "phone": "(818) 748-0007",
    "lat": 34.17014652,
    "lng": -118.3481806
  },
  {
    "id": "630021623",
    "name": "GREEN PATH HOSPICE, INC.",
    "npi": null,
    "hcaiId": null,
    "businessName": "GREEN PATH HOSPICE, INC.",
    "contactEmail": "GREENPATH2020@YAHOO.COM",
    "categoryName": "HOSPICE",
    "categoryCode": "HOSPICE",
    "licenseStatus": "ACTIVE",
    "inService": true,
    "licenseNumber": "550007630",
    "licenseEffectiveDate": "12/20/2021",
    "licenseExpirationDate": "12/19/2023",
    "dataDate": "10/18/2025",
    "capacity": 0,
    "address": "2600 W OLIVE AVE, SUITE 523",
    "city": "BURBANK",
    "zip": "91505",
    "county": "LOS ANGELES",
    "phone": "(818) 970-3914",
    "lat": 34.16027933,
    "lng": -118.3303763
  },
  {
    "id": "630026324",
    "name": "HEALING DOVE HOME HEALTH",
    "npi": null,
    "hcaiId": null,
    "businessName": "HEALING DOVE HOME HEALTH",
    "contactEmail": "HEALINGDOVEHEALTH@OUTLOOK.COM",
    "categoryName": "HOME HEALTH AGENCY",
    "categoryCode": "HHA",
    "licenseStatus": "ACTIVE",
    "inService": true,
    "licenseNumber": "550009169",
    "licenseEffectiveDate": "12/01/2024",
    "licenseExpirationDate": "05/30/2025",
    "dataDate": "10/18/2025",
    "capacity": 0,
    "address": "3721 W BURBANK BLVD, SUITE C1",
    "city": "BURBANK",
    "zip": "91505",
    "county": "LOS ANGELES",
    "phone": "(747) 345-3095",
    "lat": 34.17447569,
    "lng": -118.3511333
  },
  {
    "id": "630008484",
    "name": "HEAVENLY HOME HEALTHCARE, INC.",
    "npi": null,
    "hcaiId": "406196825",
    "businessName": "HEAVENLY HOME HEALTH CARE, INC.",
    "contactEmail": "HEAVENLYCORP@SBCGLOBAL.NET",
    "categoryName": "HOME HEALTH AGENCY",
    "categoryCode": "HHA",
    "licenseStatus": "ACTIVE",
    "inService": true,
    "licenseNumber": "550000279",
    "licenseEffectiveDate": "02/09/2025",
    "licenseExpirationDate": "02/08/2026",
    "dataDate": "10/18/2025",
    "capacity": 0,
    "address": "3200 W BURBANK BLVD, SUITE 100",
    "city": "BURBANK",
    "zip": "91505",
    "county": "LOS ANGELES",
    "phone": "(323) 662-7071",
    "lat": 34.176042,
    "lng": -118.3452615
  },
  {
    "id": "630025278",
    "name": "HOME HEALTH SERVICES OF SO-CAL INCORPORATED",
    "npi": null,
    "hcaiId": "406190122",
    "businessName": "HOME HEALTH SERVICES OF SO-CAL INCORPORATED",
    "contactEmail": "HHOFSOCAL@GMAIL.COM",
    "categoryName": "HOME HEALTH AGENCY",
    "categoryCode": "HHA",
    "licenseStatus": "ACTIVE",
    "inService": true,
    "licenseNumber": "550008593",
    "licenseEffectiveDate": "06/13/2024",
    "licenseExpirationDate": "06/12/2025",
    "dataDate": "10/18/2025",
    "capacity": 0,
    "address": "3414 W VICTORY BLVD, SUITE C2",
    "city": "BURBANK",
    "zip": "91505",
    "county": "LOS ANGELES",
    "phone": "(747) 800-3806",
    "lat": 34.184448,
    "lng": -118.348497
  },
  {
    "id": "630021385",
    "name": "HONEST HOME CARE, INC.",
    "npi": null,
    "hcaiId": "406193163",
    "businessName": "HONEST HOME CARE, INC.",
    "contactEmail": "HONESTHCI@GMAIL.COM",
    "categoryName": "HOME HEALTH AGENCY",
    "categoryCode": "HHA",
    "licenseStatus": "ACTIVE",
    "inService": true,
    "licenseNumber": "550006990",
    "licenseEffectiveDate": "10/18/2024",
    "licenseExpirationDate": "10/17/2025",
    "dataDate": "10/18/2025",
    "capacity": 0,
    "address": "4119 W BURBANK BLVD, SUITE 163",
    "city": "BURBANK",
    "zip": "91505",
    "county": "LOS ANGELES",
    "phone": "(747) 767-0776",
    "lat": 34.17301395,
    "lng": -118.3554783
  },
  {
    "id": "630022485",
    "name": "HORIZON MEDICAL HOME HEALTH",
    "npi": null,
    "hcaiId": "406195820",
    "businessName": "HORIZON MEDICAL HOME HEALTH",
    "contactEmail": "HORIZONMEDICALHOMEHEALTH@GMAIL.COM",
    "categoryName": "HOME HEALTH AGENCY",
    "categoryCode": "HHA",
    "licenseStatus": "ACTIVE",
    "inService": true,
    "licenseNumber": "550007853",
    "licenseEffectiveDate": "02/15/2025",
    "licenseExpirationDate": "02/14/2026",
    "dataDate": "10/18/2025",
    "capacity": 0,
    "address": "2920 W OLIVE AVE, SUITE 215",
    "city": "BURBANK",
    "zip": "91505",
    "county": "LOS ANGELES",
    "phone": "(818) 452-3430",
    "lat": 34.157331,
    "lng": -118.333287
  },
  {
    "id": "630015730",
    "name": "HOSPICE OF SO-CAL",
    "npi": "1558759597",
    "hcaiId": "406198330",
    "businessName": "FAIRY HOSPICE CARE, INC.",
    "contactEmail": "GLENDALEFAIRY@GMAIL.COM",
    "categoryName": "HOSPICE",
    "categoryCode": "HOSPICE",
    "licenseStatus": "ACTIVE",
    "inService": true,
    "licenseNumber": "550003694",
    "licenseEffectiveDate": "10/18/2024",
    "licenseExpirationDate": "10/17/2026",
    "dataDate": "10/18/2025",
    "capacity": 0,
    "address": "3412 W VICTORY BLVD",
    "city": "BURBANK",
    "zip": "91505",
    "county": "LOS ANGELES",
    "phone": "(818) 960-5836",
    "lat": 34.18464889,
    "lng": -118.3484189
  },
  {
    "id": "630022060",
    "name": "HOSPITALITY HOME HEALTH CARE, INC.",
    "npi": null,
    "hcaiId": "406195694",
    "businessName": "HOSPITALITY HOME HEALTH CARE, INC.",
    "contactEmail": "INFO@HOSPITALITYHH.CARE",
    "categoryName": "HOME HEALTH AGENCY",
    "categoryCode": "HHA",
    "licenseStatus": "ACTIVE",
    "inService": true,
    "licenseNumber": "550007088",
    "licenseEffectiveDate": "11/02/2025",
    "licenseExpirationDate": "11/01/2026",
    "dataDate": "10/18/2025",
    "capacity": 0,
    "address": "210 N PASS AVE, SUITE 203",
    "city": "BURBANK",
    "zip": "91505",
    "county": "LOS ANGELES",
    "phone": "(747) 333-6855",
    "lat": 34.15315282,
    "lng": -118.3445055
  },
  {
    "id": "630015581",
    "name": "ILLUMINATE HOSPICE CARE INC",
    "npi": "1154721793",
    "hcaiId": "406191355",
    "businessName": "ILLUMINATE HOSPICE CARE INC.",
    "contactEmail": "ILLUMINATEHOSPICE2@GMAIL.COM",
    "categoryName": "HOSPICE",
    "categoryCode": "HOSPICE",
    "licenseStatus": "ACTIVE",
    "inService": true,
    "licenseNumber": "550003899",
    "licenseEffectiveDate": "05/31/2025",
    "licenseExpirationDate": "05/30/2027",
    "dataDate": "10/18/2025",
    "capacity": 0,
    "address": "3607 W MAGNOLIA BLVD, SUITE 2",
    "city": "BURBANK",
    "zip": "91505",
    "county": "LOS ANGELES",
    "phone": "(323) 401-0508",
    "lat": 34.16815587,
    "lng": -118.3463592
  },
  {
    "id": "630020846",
    "name": "JOURNEY PALLIATIVE AND HOSPICE, INC.",
    "npi": null,
    "hcaiId": "406194853",
    "businessName": "JOURNEY PALLIATIVE AND HOSPICE, INC.",
    "contactEmail": "INFO@JOURNEYHOSPICEINC.COM",
    "categoryName": "HOSPICE",
    "categoryCode": "HOSPICE",
    "licenseStatus": "ACTIVE",
    "inService": true,
    "licenseNumber": "550006809",
    "licenseEffectiveDate": "07/21/2025",
    "licenseExpirationDate": "07/20/2027",
    "dataDate": "10/18/2025",
    "capacity": 0,
    "address": "4405 W RIVERSIDE DR, SUITE 204",
    "city": "BURBANK",
    "zip": "91505",
    "county": "LOS ANGELES",
    "phone": "(818) 748-3427",
    "lat": 34.152444,
    "lng": -118.348092
  },
  {
    "id": "630020977",
    "name": "K AND S HOSPICE, INC",
    "npi": null,
    "hcaiId": "406193756",
    "businessName": "K AND S HOSPICE, INC.",
    "contactEmail": "LAKEVIEWHOSPICELA@GMAIL.COM",
    "categoryName": "HOSPICE",
    "categoryCode": "HOSPICE",
    "licenseStatus": "ACTIVE",
    "inService": true,
    "licenseNumber": "550006567",
    "licenseEffectiveDate": "06/29/2025",
    "licenseExpirationDate": "06/28/2027",
    "dataDate": "10/18/2025",
    "capacity": 0,
    "address": "4100 W ALAMEDA AVE, FLOOR 3",
    "city": "BURBANK",
    "zip": "91505",
    "county": "LOS ANGELES",
    "phone": "(888) 994-0853",
    "lat": 34.152372,
    "lng": -118.3446765
  },
  {
    "id": "630018597",
    "name": "LIEM HOSPICE",
    "npi": "1770048738",
    "hcaiId": "406192047",
    "businessName": "GOLDEN SEASONS HOSPICE, INC.",
    "contactEmail": "LALDABA@LIEMHOSPICE.COM",
    "categoryName": "HOSPICE",
    "categoryCode": "HOSPICE",
    "licenseStatus": "ACTIVE",
    "inService": true,
    "licenseNumber": "550005150",
    "licenseEffectiveDate": "03/11/2025",
    "licenseExpirationDate": "11/25/2025",
    "dataDate": "10/18/2025",
    "capacity": 0,
    "address": "2550 N HOLLYWOOD WAY, SUITE 502",
    "city": "BURBANK",
    "zip": "91505",
    "county": "LOS ANGELES",
    "phone": "(818) 538-5863",
    "lat": 34.19494014,
    "lng": -118.3482578
  },
  {
    "id": "630026714",
    "name": "LIFEHOUSE HEALTHCARE INC.",
    "npi": null,
    "hcaiId": null,
    "businessName": "LIFEHOUSE HEALTHCARE INC.",
    "contactEmail": "ILLUMINATEHOSPICE2@GMAIL.COM",
    "categoryName": "HOME HEALTH AGENCY",
    "categoryCode": "HHA",
    "licenseStatus": "ACTIVE",
    "inService": true,
    "licenseNumber": "550009941",
    "licenseEffectiveDate": "07/23/2025",
    "licenseExpirationDate": "01/22/2026",
    "dataDate": "10/18/2025",
    "capacity": 0,
    "address": "3607 W MAGNOLIA BLVD, SUITE 8",
    "city": "BURBANK",
    "zip": "91505",
    "county": "LOS ANGELES",
    "phone": "(323) 401-0508",
    "lat": 34.16819093,
    "lng": -118.3462132
  },
  {
    "id": "630018050",
    "name": "LIVING HOPE HOME HEALTH CARE",
    "npi": "1306330220",
    "hcaiId": "406191611",
    "businessName": "LIVING HOPE HOME HEALTH CARE",
    "contactEmail": "LIVINGHOPEHOMEHEALTHCARE@GMAIL.COM",
    "categoryName": "HOME HEALTH AGENCY",
    "categoryCode": "HHA",
    "licenseStatus": "ACTIVE",
    "inService": true,
    "licenseNumber": "550004638",
    "licenseEffectiveDate": "10/07/2025",
    "licenseExpirationDate": "04/19/2026",
    "dataDate": "10/18/2025",
    "capacity": 0,
    "address": "4405 W RIVERSIDE DR, SUITE 214",
    "city": "BURBANK",
    "zip": "91505",
    "county": "LOS ANGELES",
    "phone": "(818) 601-8941",
    "lat": 34.152453,
    "lng": -118.348056
  },
  {
    "id": "630023842",
    "name": "LONESTAR HOME HEALTH, INC.",
    "npi": null,
    "hcaiId": "406195276",
    "businessName": "LONESTAR HOME HEALTH, INC.",
    "contactEmail": "LONESTARHOMEHEALTH1@GMAIL.COM",
    "categoryName": "HOME HEALTH AGENCY",
    "categoryCode": "HHA",
    "licenseStatus": "ACTIVE",
    "inService": true,
    "licenseNumber": "550007927",
    "licenseEffectiveDate": "03/31/2025",
    "licenseExpirationDate": "03/30/2026",
    "dataDate": "10/18/2025",
    "capacity": 0,
    "address": "4119 W BURBANK BLVD, SUITE 127",
    "city": "BURBANK",
    "zip": "91505",
    "county": "LOS ANGELES",
    "phone": "(818) 206-7004",
    "lat": 34.17301395,
    "lng": -118.3554783
  },
  {
    "id": "630021315",
    "name": "LOYAL HOME HEALTH SERVICES",
    "npi": null,
    "hcaiId": "406193442",
    "businessName": "LOYAL HOME HEALTH SERVICES",
    "contactEmail": "LOYALHHS@GMAIL.COM",
    "categoryName": "HOME HEALTH AGENCY",
    "categoryCode": "HHA",
    "licenseStatus": "ACTIVE",
    "inService": true,
    "licenseNumber": "550006945",
    "licenseEffectiveDate": "10/11/2025",
    "licenseExpirationDate": "10/10/2026",
    "dataDate": "10/18/2025",
    "capacity": 0,
    "address": "4119 W BURBANK BLVD, SUITE 173",
    "city": "BURBANK",
    "zip": "91505",
    "county": "LOS ANGELES",
    "phone": "(818) 292-1013",
    "lat": 34.17301395,
    "lng": -118.3554783
  },
  {
    "id": "630016121",
    "name": "M.A. HOME HEALTH SERVICES, INC.",
    "npi": "1942693338",
    "hcaiId": "406191907",
    "businessName": "M.A. HOME HEALTH SERVICES, INC.",
    "contactEmail": "MAHOMEHEALTH77@GMAIL.COM",
    "categoryName": "HOME HEALTH AGENCY",
    "categoryCode": "HHA",
    "licenseStatus": "ACTIVE",
    "inService": true,
    "licenseNumber": "550005009",
    "licenseEffectiveDate": "10/16/2025",
    "licenseExpirationDate": "10/15/2026",
    "dataDate": "10/18/2025",
    "capacity": 0,
    "address": "3800 W BURBANK BLVD, SUITE 100",
    "city": "BURBANK",
    "zip": "91505",
    "county": "LOS ANGELES",
    "phone": "(818) 562-7468",
    "lat": 34.174017,
    "lng": -118.3513185
  },
  {
    "id": "630011814",
    "name": "MAGNOLIA HOME HEALTH CARE SERVICES, INC.",
    "npi": "1225207020",
    "hcaiId": "406197283",
    "businessName": "MAGNOLIA HOME HEALTH CARE SERVICES, INC.",
    "contactEmail": "AMY@MAGNOLIAHHCSI.COM",
    "categoryName": "HOME HEALTH AGENCY",
    "categoryCode": "HHA",
    "licenseStatus": "ACTIVE",
    "inService": true,
    "licenseNumber": "550001035",
    "licenseEffectiveDate": "04/08/2025",
    "licenseExpirationDate": "04/07/2026",
    "dataDate": "10/18/2025",
    "capacity": 0,
    "address": "3314 W BURBANK BLVD",
    "city": "BURBANK",
    "zip": "91505",
    "county": "LOS ANGELES",
    "phone": "(818) 566-4411",
    "lat": 34.175529,
    "lng": -118.3467915
  },
  {
    "id": "630012284",
    "name": "MAR VISTA HOSPICE",
    "npi": "1205060050",
    "hcaiId": "406197420",
    "businessName": "MAR VISTA HOSPICE INC.",
    "contactEmail": "INFO@MARVISTAHOSPICE.COM",
    "categoryName": "HOSPICE",
    "categoryCode": "HOSPICE",
    "licenseStatus": "ACTIVE",
    "inService": true,
    "licenseNumber": "550001328",
    "licenseEffectiveDate": "11/21/2022",
    "licenseExpirationDate": "11/20/2024",
    "dataDate": "10/18/2025",
    "capacity": 0,
    "address": "4001 W ALAMEDA AVE, SUITE 211",
    "city": "BURBANK",
    "zip": "91505",
    "county": "LOS ANGELES",
    "phone": "(818) 539-7867",
    "lat": 34.153245,
    "lng": -118.343772
  },
  {
    "id": "630020819",
    "name": "MID VALLEY HOSPICE CARE, INC.",
    "npi": null,
    "hcaiId": "406190212",
    "businessName": "MID VALLEY HOSPICE CARE, INC.",
    "contactEmail": "MIDVALLEYHOSPICECARE@GMAIL.COM",
    "categoryName": "HOSPICE",
    "categoryCode": "HOSPICE",
    "licenseStatus": "ACTIVE",
    "inService": true,
    "licenseNumber": "550006587",
    "licenseEffectiveDate": "07/09/2025",
    "licenseExpirationDate": "07/08/2027",
    "dataDate": "10/18/2025",
    "capacity": 0,
    "address": "4444 W RIVERSIDE DR, SUITE #206",
    "city": "BURBANK",
    "zip": "91505",
    "county": "LOS ANGELES",
    "phone": "(818) 967-9255",
    "lat": 34.151958,
    "lng": -118.348776
  },
  {
    "id": "630017734",
    "name": "MMA HOME HEALTH CARE, INC.",
    "npi": "1063926830",
    "hcaiId": "406191544",
    "businessName": "MMA HOME HEALTH CARE, INC.",
    "contactEmail": "MMAHOMEHEALTH@GMAIL.COM",
    "categoryName": "HOME HEALTH AGENCY",
    "categoryCode": "HHA",
    "licenseStatus": "ACTIVE",
    "inService": true,
    "licenseNumber": "550004523",
    "licenseEffectiveDate": "01/17/2025",
    "licenseExpirationDate": "01/16/2026",
    "dataDate": "10/18/2025",
    "capacity": 0,
    "address": "3800 W BURBANK BLVD, SUITE 105",
    "city": "BURBANK",
    "zip": "91505",
    "county": "LOS ANGELES",
    "phone": "(747) 283-1718",
    "lat": 34.174017,
    "lng": -118.3513185
  },
  {
    "id": "630021085",
    "name": "MORNINGSIDE HOSPICE INC.",
    "npi": null,
    "hcaiId": "406193982",
    "businessName": "MORNINGSIDE HOSPICE INC.",
    "contactEmail": "MORNINGSIDEHI@GMAIL.COM",
    "categoryName": "HOSPICE",
    "categoryCode": "HOSPICE",
    "licenseStatus": "ACTIVE",
    "inService": true,
    "licenseNumber": "550006963",
    "licenseEffectiveDate": "09/03/2025",
    "licenseExpirationDate": "09/02/2027",
    "dataDate": "10/18/2025",
    "capacity": 0,
    "address": "4119 W BURBANK BLVD, SUITE 150",
    "city": "BURBANK",
    "zip": "91505",
    "county": "LOS ANGELES",
    "phone": "(818) 650-1331",
    "lat": 34.17301395,
    "lng": -118.3554783
  },
  {
    "id": "630014218",
    "name": "MOTHER THERESA HOSPICE, INC.",
    "npi": null,
    "hcaiId": "406198177",
    "businessName": "MOTHER THERESA HOSPICE, INC.",
    "contactEmail": "MOTHERTHERESAHOSPICECARE@YAHOO.COM",
    "categoryName": "HOSPICE",
    "categoryCode": "HOSPICE",
    "licenseStatus": "ACTIVE",
    "inService": true,
    "licenseNumber": "550002562",
    "licenseEffectiveDate": "01/24/2024",
    "licenseExpirationDate": "01/23/2026",
    "dataDate": "10/18/2025",
    "capacity": 0,
    "address": "847 N HOLLYWOOD WAY, SUITE 203B",
    "city": "BURBANK",
    "zip": "91505",
    "county": "LOS ANGELES",
    "phone": "(818) 566-9710",
    "lat": 34.1658,
    "lng": -118.346238
  },
  {
    "id": "980002431",
    "name": "MOTHER THERESA'S HOME HEALTH SERVICES, INC.",
    "npi": "1497776058",
    "hcaiId": "406197079",
    "businessName": "MOTHER THERESA'S HOME HEALTH SERVICES, INC.",
    "contactEmail": "MTHERESA39S@YAHOO.COM",
    "categoryName": "HOME HEALTH AGENCY",
    "categoryCode": "HHA",
    "licenseStatus": "ACTIVE",
    "inService": true,
    "licenseNumber": "980001539",
    "licenseEffectiveDate": "03/21/2025",
    "licenseExpirationDate": "03/20/2026",
    "dataDate": "10/18/2025",
    "capacity": 0,
    "address": "847 N HOLLYWOOD WAY, SUITE 203",
    "city": "BURBANK",
    "zip": "91505",
    "county": "LOS ANGELES",
    "phone": "(818) 558-1555",
    "lat": 34.165791,
    "lng": -118.346229
  },
  {
    "id": "630019295",
    "name": "MOUNT ZION HOSPICE CARE, INC",
    "npi": null,
    "hcaiId": "406192557",
    "businessName": "MOUNT ZION HOSPICE CARE, INC.",
    "contactEmail": "MTZION@MOUNTZIONHOSPICECARE.NET",
    "categoryName": "HOSPICE",
    "categoryCode": "HOSPICE",
    "licenseStatus": "ACTIVE",
    "inService": true,
    "licenseNumber": "550005451",
    "licenseEffectiveDate": "05/08/2024",
    "licenseExpirationDate": "05/07/2026",
    "dataDate": "10/18/2025",
    "capacity": 0,
    "address": "210 N PASS AVE, SUITE 103",
    "city": "BURBANK",
    "zip": "91505",
    "county": "LOS ANGELES",
    "phone": "(747) 477-1917",
    "lat": 34.15357202,
    "lng": -118.344431
  },
  {
    "id": "630021845",
    "name": "MSM HEALTH CARE, INC.",
    "npi": null,
    "hcaiId": "406195076",
    "businessName": "MSM HEALTH CARE, INC.",
    "contactEmail": "MSMHEALTHCAREINC@GMAIL.COM",
    "categoryName": "HOSPICE",
    "categoryCode": "HOSPICE",
    "licenseStatus": "ACTIVE",
    "inService": true,
    "licenseNumber": "550007510",
    "licenseEffectiveDate": "12/17/2023",
    "licenseExpirationDate": "12/16/2025",
    "dataDate": "10/18/2025",
    "capacity": 0,
    "address": "2920 W OLIVE AVE, SUITE 217",
    "city": "BURBANK",
    "zip": "91505",
    "county": "LOS ANGELES",
    "phone": "(818) 533-8759",
    "lat": 34.157331,
    "lng": -118.333287
  },
  {
    "id": "630014286",
    "name": "NEW LIFE HOSPICE CARE, INC.",
    "npi": "1487995627",
    "hcaiId": "406198298",
    "businessName": "NEW LIFE HOSPICE CARE, INC.",
    "contactEmail": "NEWLIFEHOSPICECARE@YAHOO.COM",
    "categoryName": "HOSPICE",
    "categoryCode": "HOSPICE",
    "licenseStatus": "ACTIVE",
    "inService": true,
    "licenseNumber": "550002863",
    "licenseEffectiveDate": "09/05/2020",
    "licenseExpirationDate": "09/04/2022",
    "dataDate": "10/18/2025",
    "capacity": 0,
    "address": "4000 W MAGNOLIA BLVD, SUITE B",
    "city": "BURBANK",
    "zip": "91505",
    "county": "LOS ANGELES",
    "phone": "(818) 260-9230",
    "lat": 34.166502,
    "lng": -118.3500855
  },
  {
    "id": "630018085",
    "name": "NH CARING HOME HEALTH, INC.",
    "npi": null,
    "hcaiId": "406191711",
    "businessName": "NH CARING HOME HEALTH, INC.",
    "contactEmail": "NHCARINGHH@GMAIL.COM",
    "categoryName": "HOME HEALTH AGENCY",
    "categoryCode": "HHA",
    "licenseStatus": "ACTIVE",
    "inService": true,
    "licenseNumber": "550004741",
    "licenseEffectiveDate": "06/06/2025",
    "licenseExpirationDate": "06/05/2026",
    "dataDate": "10/18/2025",
    "capacity": 0,
    "address": "2920 W OLIVE AVE, SUITE 203",
    "city": "BURBANK",
    "zip": "91505",
    "county": "LOS ANGELES",
    "phone": "(818) 570-8558",
    "lat": 34.157266,
    "lng": -118.333173
  },
  {
    "id": "630027575",
    "name": "OAKTREE HOME HEALTH SERVICES, INC.",
    "npi": null,
    "hcaiId": null,
    "businessName": "OAKTREE HOME HEALTH SERVICES, INC.",
    "contactEmail": "OAKTREEHHSI@GMAIL.COM",
    "categoryName": "HOME HEALTH AGENCY",
    "categoryCode": "HHA",
    "licenseStatus": "ACTIVE",
    "inService": true,
    "licenseNumber": "550009738",
    "licenseEffectiveDate": "09/28/2025",
    "licenseExpirationDate": "03/27/2026",
    "dataDate": "10/18/2025",
    "capacity": 0,
    "address": "4119 W BURBANK BLVD, SUITE 114",
    "city": "BURBANK",
    "zip": "91505",
    "county": "LOS ANGELES",
    "phone": "(818) 351-5198",
    "lat": 34.17323001,
    "lng": -118.355467
  },
  {
    "id": "630020847",
    "name": "OASIS HOSPICE CARE INC.",
    "npi": null,
    "hcaiId": "406193133",
    "businessName": "OASIS HOSPICE CARE INC.",
    "contactEmail": "OASISHOSPICECARE@GMAIL.COM",
    "categoryName": "HOSPICE",
    "categoryCode": "HOSPICE",
    "licenseStatus": "ACTIVE",
    "inService": true,
    "licenseNumber": "550006517",
    "licenseEffectiveDate": "07/02/2025",
    "licenseExpirationDate": "07/01/2027",
    "dataDate": "10/18/2025",
    "capacity": 0,
    "address": "3806 W MAGNOLIA BLVD, SUITE C",
    "city": "BURBANK",
    "zip": "91505",
    "county": "LOS ANGELES",
    "phone": "(818) 859-7131",
    "lat": 34.16715,
    "lng": -118.3482405
  },
  {
    "id": "630021209",
    "name": "OFFICIAL HOME HEALTH CARE",
    "npi": null,
    "hcaiId": "406193460",
    "businessName": "OFFICIAL HOME HEALTH CARE",
    "contactEmail": "OFFICIALHOMEHEALTHCARE@GMAIL.COM",
    "categoryName": "HOME HEALTH AGENCY",
    "categoryCode": "HHA",
    "licenseStatus": "ACTIVE",
    "inService": true,
    "licenseNumber": "550007114",
    "licenseEffectiveDate": "09/03/2025",
    "licenseExpirationDate": "09/02/2026",
    "dataDate": "10/18/2025",
    "capacity": 0,
    "address": "4119 W BURBANK BLVD, SUITE 124",
    "city": "BURBANK",
    "zip": "91505",
    "county": "LOS ANGELES",
    "phone": "(818) 860-1668",
    "lat": 34.17301395,
    "lng": -118.3554783
  },
  {
    "id": "630025433",
    "name": "ON-TIME HOME HEALTH, INC.",
    "npi": null,
    "hcaiId": "406197949",
    "businessName": "ON-TIME HOME HEALTH, INC.",
    "contactEmail": "ONTIMEHHI@GMAIL.COM",
    "categoryName": "HOME HEALTH AGENCY",
    "categoryCode": "HHA",
    "licenseStatus": "ACTIVE",
    "inService": true,
    "licenseNumber": "550008739",
    "licenseEffectiveDate": "09/01/2025",
    "licenseExpirationDate": "08/31/2026",
    "dataDate": "10/18/2025",
    "capacity": 0,
    "address": "4100 W ALAMEDA AVE, SUITE 319",
    "city": "BURBANK",
    "zip": "91505",
    "county": "LOS ANGELES",
    "phone": "(747) 283-1748",
    "lat": 34.152363,
    "lng": -118.344627
  },
  {
    "id": "630025624",
    "name": "OPUS HOME HEALTH SERVICES, INC.",
    "npi": null,
    "hcaiId": null,
    "businessName": "OPUS HOME HEALTH SERVICES, INC.",
    "contactEmail": "OPUSHOMEHEALTH@GMAIL.COM",
    "categoryName": "HOME HEALTH AGENCY",
    "categoryCode": "HHA",
    "licenseStatus": "ACTIVE",
    "inService": true,
    "licenseNumber": "550008854",
    "licenseEffectiveDate": "11/22/2025",
    "licenseExpirationDate": "11/21/2026",
    "dataDate": "10/18/2025",
    "capacity": 0,
    "address": "3800 BURBANK BLVD, SUITE 102",
    "city": "BURBANK",
    "zip": "91505",
    "county": "LOS ANGELES",
    "phone": "(747) 241-8866",
    "lat": 34.1740873,
    "lng": -118.3539115
  },
  {
    "id": "980002445",
    "name": "OUR LADY OF REFUGE HOME CARE, INC.",
    "npi": "1023068319",
    "hcaiId": "406197015",
    "businessName": "OUR LADY OF REFUGE HOME CARE, INC.",
    "contactEmail": "OURLADYHH@YAHOO.COM",
    "categoryName": "HOME HEALTH AGENCY",
    "categoryCode": "HHA",
    "licenseStatus": "ACTIVE",
    "inService": true,
    "licenseNumber": "980001551",
    "licenseEffectiveDate": "04/12/2025",
    "licenseExpirationDate": "04/11/2026",
    "dataDate": "10/18/2025",
    "capacity": 0,
    "address": "4000 W MAGNOLIA BLVD, SUITE K",
    "city": "BURBANK",
    "zip": "91505",
    "county": "LOS ANGELES",
    "phone": "(818) 558-7400",
    "lat": 34.166502,
    "lng": -118.3500855
  },
  {
    "id": "980002551",
    "name": "PACIFIC HEALTH SERVICES, INC.",
    "npi": "1699986034",
    "hcaiId": "406196617",
    "businessName": "PACIFIC HEALTH SERVICES, INC.",
    "contactEmail": "INFO@PHS-INC.COM",
    "categoryName": "HOME HEALTH AGENCY",
    "categoryCode": "HHA",
    "licenseStatus": "ACTIVE",
    "inService": true,
    "licenseNumber": "980001638",
    "licenseEffectiveDate": "02/24/2025",
    "licenseExpirationDate": "02/23/2026",
    "dataDate": "10/18/2025",
    "capacity": 0,
    "address": "2501 W BURBANK BLVD, SUITE 309",
    "city": "BURBANK",
    "zip": "91505",
    "county": "LOS ANGELES",
    "phone": "(213) 387-9552",
    "lat": 34.178904,
    "lng": -118.3386375
  },
  {
    "id": "930000832",
    "name": "PACIFIC SURGERY CENTER",
    "npi": "1497788277",
    "hcaiId": null,
    "businessName": null,
    "contactEmail": "KDRAGOJLOVIC@SBCGLOBAL.NET",
    "categoryName": "SURGICAL CLINIC",
    "categoryCode": "ASC",
    "licenseStatus": null,
    "inService": null,
    "licenseNumber": null,
    "licenseEffectiveDate": null,
    "licenseExpirationDate": null,
    "dataDate": "10/18/2025",
    "capacity": 0,
    "address": "2829 W BURBANK BLVD",
    "city": "BURBANK",
    "zip": "91505",
    "county": "LOS ANGELES",
    "phone": "(818) 567-0348",
    "lat": 34.17739252,
    "lng": -118.3423368
  },
  {
    "id": "630020603",
    "name": "PEACE AND LOVE HOME HEALTH, INC.",
    "npi": null,
    "hcaiId": "406195289",
    "businessName": "PEACE AND LOVE HOME HEALTH, INC.",
    "contactEmail": "PEACEANDLOVEHOMEHEALTH@GMAIL.COM",
    "categoryName": "HOME HEALTH AGENCY",
    "categoryCode": "HHA",
    "licenseStatus": "ACTIVE",
    "inService": true,
    "licenseNumber": "550006020",
    "licenseEffectiveDate": "02/03/2025",
    "licenseExpirationDate": "02/02/2026",
    "dataDate": "10/18/2025",
    "capacity": 0,
    "address": "2915 W BURBANK BLVD, SUITE A",
    "city": "BURBANK",
    "zip": "91505",
    "county": "LOS ANGELES",
    "phone": "(747) 200-8677",
    "lat": 34.17736199,
    "lng": -118.343171
  },
  {
    "id": "630020895",
    "name": "PERENNIAL HOSPICE, INC",
    "npi": null,
    "hcaiId": "406193249",
    "businessName": "PERENNIAL HOSPICE, INC",
    "contactEmail": "PERENNIALHOSPICEINC@GMAIL.COM",
    "categoryName": "HOSPICE",
    "categoryCode": "HOSPICE",
    "licenseStatus": "ACTIVE",
    "inService": true,
    "licenseNumber": "550006635",
    "licenseEffectiveDate": "08/03/2025",
    "licenseExpirationDate": "08/02/2027",
    "dataDate": "10/18/2025",
    "capacity": 0,
    "address": "2501 W BURBANK BLVD, SUITE 311",
    "city": "BURBANK",
    "zip": "91505",
    "county": "LOS ANGELES",
    "phone": "(818) 533-1811",
    "lat": 34.17886466,
    "lng": -118.3386315
  },
  {
    "id": "630016896",
    "name": "PLATINUM HOME HEALTH CARE SPECIALISTS, INC.",
    "npi": null,
    "hcaiId": "406191434",
    "businessName": "PLATINUM HOME HEALTH CARE SPECIALIST, INC.",
    "contactEmail": "PLATINUMHOMECARE11@GMAIL.COM",
    "categoryName": "HOME HEALTH AGENCY",
    "categoryCode": "HHA",
    "licenseStatus": "ACTIVE",
    "inService": true,
    "licenseNumber": "550004458",
    "licenseEffectiveDate": "11/16/2024",
    "licenseExpirationDate": "11/15/2025",
    "dataDate": "10/18/2025",
    "capacity": 0,
    "address": "4020 W. MAGNOLIA BLVD., SUITE F",
    "city": "BURBANK",
    "zip": "91505",
    "county": "LOS ANGELES",
    "phone": "(818) 550-1199",
    "lat": 34.166313,
    "lng": -118.3506525
  },
  {
    "id": "630025667",
    "name": "PLEASANT HEALTHCARE INC.",
    "npi": null,
    "hcaiId": "406190088",
    "businessName": "PLEASANT HEALTHCARE INC.",
    "contactEmail": "PLEASANTHEALTHCAREINC@GMAIL.COM",
    "categoryName": "HOME HEALTH AGENCY",
    "categoryCode": "HHA",
    "licenseStatus": "ACTIVE",
    "inService": true,
    "licenseNumber": "550008795",
    "licenseEffectiveDate": "03/19/2024",
    "licenseExpirationDate": "09/18/2024",
    "dataDate": "10/18/2025",
    "capacity": 0,
    "address": "3504 W MAGNOLIA BLVD, SUITE 210",
    "city": "BURBANK",
    "zip": "91505",
    "county": "LOS ANGELES",
    "phone": "(747) 307-3555",
    "lat": 34.16839024,
    "lng": -118.3451952
  },
  {
    "id": "630025927",
    "name": "PREMIER HOME HEALTH OF LA",
    "npi": null,
    "hcaiId": null,
    "businessName": "PREMIER HOME HEALTH OF LA",
    "contactEmail": "PREMIERHOMEHEALTHOFLA@GMAIL.COM",
    "categoryName": "HOME HEALTH AGENCY",
    "categoryCode": "HHA",
    "licenseStatus": "ACTIVE",
    "inService": true,
    "licenseNumber": "550008997",
    "licenseEffectiveDate": "03/01/2024",
    "licenseExpirationDate": "08/31/2024",
    "dataDate": "10/18/2025",
    "capacity": 0,
    "address": "4100 W ALAMEDA AVE, SUITE 379",
    "city": "BURBANK",
    "zip": "91505",
    "county": "LOS ANGELES",
    "phone": "(818) 533-1144",
    "lat": 34.152363,
    "lng": -118.344627
  },
  {
    "id": "630018076",
    "name": "PRIMARY HOME CARE, INC.",
    "npi": "1235627167",
    "hcaiId": "406191606",
    "businessName": "PRIMARY HOME CARE, INC.",
    "contactEmail": "PRIMARYHOMECARE1@GMAIL.COM",
    "categoryName": "HOME HEALTH AGENCY",
    "categoryCode": "HHA",
    "licenseStatus": "ACTIVE",
    "inService": true,
    "licenseNumber": "550004645",
    "licenseEffectiveDate": "04/05/2025",
    "licenseExpirationDate": "04/04/2026",
    "dataDate": "10/18/2025",
    "capacity": 0,
    "address": "2829 W BURBANK BLVD, SUITE 204",
    "city": "BURBANK",
    "zip": "91505",
    "county": "LOS ANGELES",
    "phone": "(818) 736-5585",
    "lat": 34.17739252,
    "lng": -118.3423368
  },
  {
    "id": "630021360",
    "name": "PROMISE HOME HEALTH CARE",
    "npi": null,
    "hcaiId": "406195596",
    "businessName": "PROMISE HOME HEALTH CARE",
    "contactEmail": "4PROMISEHHC@GMAIL.COM",
    "categoryName": "HOME HEALTH AGENCY",
    "categoryCode": "HHA",
    "licenseStatus": "ACTIVE",
    "inService": true,
    "licenseNumber": "550007379",
    "licenseEffectiveDate": "12/07/2024",
    "licenseExpirationDate": "12/06/2025",
    "dataDate": "10/18/2025",
    "capacity": 0,
    "address": "4119 W BURBANK BLVD, SUITE 170",
    "city": "BURBANK",
    "zip": "91505",
    "county": "LOS ANGELES",
    "phone": "(818) 292-1038",
    "lat": 34.17301395,
    "lng": -118.3554783
  },
  {
    "id": "630027870",
    "name": "PROSPERITY HEALTHCARE, INC.",
    "npi": null,
    "hcaiId": null,
    "businessName": "PROSPERITY HEALTHCARE, INC.",
    "contactEmail": "PROSPERITYHEALTHCAREINC@GMAIL.COM",
    "categoryName": "HOME HEALTH AGENCY",
    "categoryCode": "HHA",
    "licenseStatus": "ACTIVE",
    "inService": true,
    "licenseNumber": "550009927",
    "licenseEffectiveDate": "08/14/2025",
    "licenseExpirationDate": "02/13/2026",
    "dataDate": "10/18/2025",
    "capacity": 0,
    "address": "4119 W BURBANK BLVD, SUITE 128",
    "city": "BURBANK",
    "zip": "91505",
    "county": "LOS ANGELES",
    "phone": "(818) 795-7944",
    "lat": 34.17323001,
    "lng": -118.355467
  },
  {
    "id": "930000101",
    "name": "PROVIDENCE SAINT JOSEPH MEDICAL CENTER",
    "npi": "1336173269",
    "hcaiId": "106190758",
    "businessName": "PROVIDENCE HEALTH SYSTEM - SOUTHERN CALIFORNIA",
    "contactEmail": "CINDI.TENNEY@PROVIDENCE.ORG",
    "categoryName": "GENERAL ACUTE CARE HOSPITAL",
    "categoryCode": "GACH",
    "licenseStatus": "ACTIVE",
    "inService": true,
    "licenseNumber": "930000159",
    "licenseEffectiveDate": "06/01/2025",
    "licenseExpirationDate": "05/31/2026",
    "dataDate": "10/18/2025",
    "capacity": 383,
    "address": "501 S BUENA VISTA ST",
    "city": "BURBANK",
    "zip": "91505",
    "county": "LOS ANGELES",
    "phone": "(818) 847-4748",
    "lat": 34.156728,
    "lng": -118.3293675
  },
  {
    "id": "630022035",
    "name": "PURE HEART HOME HEALTH SERVICES, INC.",
    "npi": null,
    "hcaiId": "406195325",
    "businessName": "PURE HEART HOME HEALTH SERVICES, INC.",
    "contactEmail": "PUREHEARTHHS@GMAIL.COM",
    "categoryName": "HOME HEALTH AGENCY",
    "categoryCode": "HHA",
    "licenseStatus": "ACTIVE",
    "inService": true,
    "licenseNumber": "550007749",
    "licenseEffectiveDate": "01/05/2025",
    "licenseExpirationDate": "01/04/2026",
    "dataDate": "10/18/2025",
    "capacity": 0,
    "address": "4119 W BURBANK BLVD, SUITE 130",
    "city": "BURBANK",
    "zip": "91505",
    "county": "LOS ANGELES",
    "phone": "(818) 275-4447",
    "lat": 34.17301395,
    "lng": -118.3554783
  },
  {
    "id": "630020746",
    "name": "PURPLE HEART HOSPICE, INC.",
    "npi": null,
    "hcaiId": "406193989",
    "businessName": "PURPLE HEART HOSPICE, INC.",
    "contactEmail": "PURPLEHEARTHOSPICE@GMAIL.COM",
    "categoryName": "HOSPICE",
    "categoryCode": "HOSPICE",
    "licenseStatus": "ACTIVE",
    "inService": true,
    "licenseNumber": "550006390",
    "licenseEffectiveDate": "06/02/2025",
    "licenseExpirationDate": "06/01/2027",
    "dataDate": "10/18/2025",
    "capacity": 0,
    "address": "2600 W OLIVE AVE, SUITE 590",
    "city": "BURBANK",
    "zip": "91505",
    "county": "LOS ANGELES",
    "phone": "(747) 208-0075",
    "lat": 34.15958,
    "lng": -118.330265
  },
  {
    "id": "630025644",
    "name": "RADIANT HOME HEALTH CARE",
    "npi": null,
    "hcaiId": null,
    "businessName": "RADIANT HOME HEALTH CARE",
    "contactEmail": null,
    "categoryName": "HOME HEALTH AGENCY",
    "categoryCode": "HHA",
    "licenseStatus": "ACTIVE",
    "inService": true,
    "licenseNumber": "550008916",
    "licenseEffectiveDate": "12/06/2024",
    "licenseExpirationDate": "12/05/2025",
    "dataDate": "10/18/2025",
    "capacity": 0,
    "address": "4100 W ALAMEDA AVE, SUITE 389",
    "city": "BURBANK",
    "zip": "91505",
    "county": "LOS ANGELES",
    "phone": "(424) 331-1818",
    "lat": 34.152363,
    "lng": -118.344627
  },
  {
    "id": "630018296",
    "name": "RECOUP HOME HEALTH",
    "npi": null,
    "hcaiId": "406191784",
    "businessName": "RECOUP HOME HEALTH",
    "contactEmail": "AA@RECOUP.CARE",
    "categoryName": "HOME HEALTH AGENCY",
    "categoryCode": "HHA",
    "licenseStatus": "ACTIVE",
    "inService": true,
    "licenseNumber": "550004915",
    "licenseEffectiveDate": "05/01/2025",
    "licenseExpirationDate": "09/08/2025",
    "dataDate": "10/18/2025",
    "capacity": 0,
    "address": "4421 W RIVERSIDE DR, SUITE 204",
    "city": "BURBANK",
    "zip": "91505",
    "county": "LOS ANGELES",
    "phone": "(818) 655-0599",
    "lat": 34.152526,
    "lng": -118.348744
  },
  {
    "id": "630024360",
    "name": "RED ROSE HOME HEALTH",
    "npi": null,
    "hcaiId": null,
    "businessName": "RED ROSE HOME HEALTH",
    "contactEmail": "REDROSEHEALTH@GMAIL.COM",
    "categoryName": "HOME HEALTH AGENCY",
    "categoryCode": "HHA",
    "licenseStatus": "ACTIVE",
    "inService": true,
    "licenseNumber": "550008365",
    "licenseEffectiveDate": "01/11/2025",
    "licenseExpirationDate": "01/10/2026",
    "dataDate": "10/18/2025",
    "capacity": 0,
    "address": "3721 W BURBANK BLVD, SUITE C2",
    "city": "BURBANK",
    "zip": "91505",
    "county": "LOS ANGELES",
    "phone": "(747) 336-3085",
    "lat": 34.17447569,
    "lng": -118.3511333
  },
  {
    "id": "630019393",
    "name": "REGAL HOSPICE AND PALLIATIVE CARE INC",
    "npi": null,
    "hcaiId": "406193007",
    "businessName": "REGAL HOSPICE AND PALLIATIVE CARE INC",
    "contactEmail": "INFO@REGALHOSPICE.COM",
    "categoryName": "HOSPICE",
    "categoryCode": "HOSPICE",
    "licenseStatus": "ACTIVE",
    "inService": true,
    "licenseNumber": "550005899",
    "licenseEffectiveDate": "12/04/2024",
    "licenseExpirationDate": "12/03/2026",
    "dataDate": "10/18/2025",
    "capacity": 0,
    "address": "2915 W BURBANK BLVD, UNIT C",
    "city": "BURBANK",
    "zip": "91505",
    "county": "LOS ANGELES",
    "phone": "(818) 330-9697",
    "lat": 34.17736199,
    "lng": -118.343171
  },
  {
    "id": "630018130",
    "name": "REGENCY HOME HEALTH CARE, INC",
    "npi": "1346747524",
    "hcaiId": "406191715",
    "businessName": "REGENCY HOME HEALTH CARE, INC.",
    "contactEmail": "REGENCYHOMEHEALTHCARE@YAHOO.COM",
    "categoryName": "HOME HEALTH AGENCY",
    "categoryCode": "HHA",
    "licenseStatus": "ACTIVE",
    "inService": true,
    "licenseNumber": "550004803",
    "licenseEffectiveDate": "07/26/2025",
    "licenseExpirationDate": "07/25/2026",
    "dataDate": "10/18/2025",
    "capacity": 0,
    "address": "4000 W MAGNOLIA BLVD, #C",
    "city": "BURBANK",
    "zip": "91505",
    "county": "LOS ANGELES",
    "phone": "(747) 477-1787",
    "lat": 34.166502,
    "lng": -118.3500855
  },
  {
    "id": "630021004",
    "name": "REJUVENATE HOME HEALTH INC.",
    "npi": null,
    "hcaiId": "406193769",
    "businessName": "REJUVENATE HOME HEALTH INC.",
    "contactEmail": "4REJUVENATEHHI@GMAIL.COM",
    "categoryName": "HOME HEALTH AGENCY",
    "categoryCode": "HHA",
    "licenseStatus": "ACTIVE",
    "inService": true,
    "licenseNumber": "550007330",
    "licenseEffectiveDate": "08/13/2025",
    "licenseExpirationDate": "08/12/2026",
    "dataDate": "10/18/2025",
    "capacity": 0,
    "address": "4119 W BURBANK BLVD, SUITE 184",
    "city": "BURBANK",
    "zip": "91505",
    "county": "LOS ANGELES",
    "phone": "(818) 751-4420",
    "lat": 34.17323001,
    "lng": -118.355467
  },
  {
    "id": "630019440",
    "name": "RELYABLE HOME HEALTH, INC",
    "npi": null,
    "hcaiId": "406192745",
    "businessName": "RELYABLE HOME HEALTH, INC",
    "contactEmail": "RELYABLE3@GMAIL.COM",
    "categoryName": "HOME HEALTH AGENCY",
    "categoryCode": "HHA",
    "licenseStatus": "ACTIVE",
    "inService": true,
    "licenseNumber": "550005593",
    "licenseEffectiveDate": "05/20/2025",
    "licenseExpirationDate": "05/19/2026",
    "dataDate": "10/18/2025",
    "capacity": 0,
    "address": "4405 W RIVERSIDE DR, SUITE 105",
    "city": "BURBANK",
    "zip": "91505",
    "county": "LOS ANGELES",
    "phone": "(818) 273-4528",
    "lat": 34.152455,
    "lng": -118.348058
  },
  {
    "id": "630022257",
    "name": "S&A HOME HEALTH CARE",
    "npi": null,
    "hcaiId": "406195425",
    "businessName": "S&A HOME HEALTH CARE",
    "contactEmail": "SANDAHOMEHEALTHCARE@GMAIL.COM",
    "categoryName": "HOME HEALTH AGENCY",
    "categoryCode": "HHA",
    "licenseStatus": "ACTIVE",
    "inService": true,
    "licenseNumber": "550007888",
    "licenseEffectiveDate": "03/08/2025",
    "licenseExpirationDate": "03/07/2026",
    "dataDate": "10/18/2025",
    "capacity": 0,
    "address": "4119 W BURBANK BLVD, SUITE 156",
    "city": "BURBANK",
    "zip": "91505",
    "county": "LOS ANGELES",
    "phone": "(800) 886-5409",
    "lat": 34.17323001,
    "lng": -118.355467
  },
  {
    "id": "630012001",
    "name": "SHAPIRA & STEIN HOME HEALTHCARE AGENCY",
    "npi": "1679724223",
    "hcaiId": "406197364",
    "businessName": "SHAPIRA & STEIN, INC.",
    "contactEmail": "INFO@SHAPIRASTEIN.COM",
    "categoryName": "HOME HEALTH AGENCY",
    "categoryCode": "HHA",
    "licenseStatus": "ACTIVE",
    "inService": true,
    "licenseNumber": "550001227",
    "licenseEffectiveDate": "09/22/2025",
    "licenseExpirationDate": "02/01/2026",
    "dataDate": "10/18/2025",
    "capacity": 0,
    "address": "4116 W MAGNOLIA BLVD, SUITE 207",
    "city": "BURBANK",
    "zip": "91505",
    "county": "LOS ANGELES",
    "phone": "(818) 985-6800",
    "lat": 34.16631176,
    "lng": -118.3514297
  },
  {
    "id": "630017068",
    "name": "SIERRA HOME HEALTH, INC.",
    "npi": "1114372802",
    "hcaiId": "406190843",
    "businessName": "SIERRA HOME HEALTH, INC.",
    "contactEmail": "SIERRA.HOME_HEALTH@MAIL.COM",
    "categoryName": "HOME HEALTH AGENCY",
    "categoryCode": "HHA",
    "licenseStatus": "ACTIVE",
    "inService": true,
    "licenseNumber": "550004239",
    "licenseEffectiveDate": "04/16/2025",
    "licenseExpirationDate": "04/15/2026",
    "dataDate": "10/18/2025",
    "capacity": 0,
    "address": "4444 W RIVERSIDE DR, SUITE 207",
    "city": "BURBANK",
    "zip": "91505",
    "county": "LOS ANGELES",
    "phone": "(626) 355-1700",
    "lat": 34.1520043,
    "lng": -118.35099
  },
  {
    "id": "630020379",
    "name": "SIGNATURE NURSING CARE SERVICES INC",
    "npi": null,
    "hcaiId": "406193236",
    "businessName": "SIGNATURE NURSING CARE SERVICES, INC.",
    "contactEmail": "SIGNATURENC@YAHOO.COM",
    "categoryName": "HOSPICE",
    "categoryCode": "HOSPICE",
    "licenseStatus": "ACTIVE",
    "inService": true,
    "licenseNumber": "550006291",
    "licenseEffectiveDate": "05/10/2025",
    "licenseExpirationDate": "05/09/2027",
    "dataDate": "10/18/2025",
    "capacity": 0,
    "address": "4425 W RIVERSIDE DR, SUITE 201A",
    "city": "BURBANK",
    "zip": "91505",
    "county": "LOS ANGELES",
    "phone": "(818) 210-3555",
    "lat": 34.152516,
    "lng": -118.349118
  },
  {
    "id": "630020829",
    "name": "SMART CHOICE HOME HEALTH CARE, INC.",
    "npi": "1124634977",
    "hcaiId": "406196164",
    "businessName": "SMART CHOICE HOME HEALTH CARE, INC.",
    "contactEmail": "HHCSMARTCHOICE@GMAIL.COM",
    "categoryName": "HOME HEALTH AGENCY",
    "categoryCode": "HHA",
    "licenseStatus": "ACTIVE",
    "inService": true,
    "licenseNumber": "550006229",
    "licenseEffectiveDate": "04/20/2025",
    "licenseExpirationDate": "04/19/2026",
    "dataDate": "10/18/2025",
    "capacity": 0,
    "address": "2701 W ALAMEDA AVE, SUITE 302",
    "city": "BURBANK",
    "zip": "91505",
    "county": "LOS ANGELES",
    "phone": "(747) 247-1130",
    "lat": 34.157798,
    "lng": -118.330508
  },
  {
    "id": "630020321",
    "name": "SNJ HOSPICE CARE LLC",
    "npi": null,
    "hcaiId": "406194693",
    "businessName": "SNJ HOSPICE CARE LLC",
    "contactEmail": "SNJHOSPICECARE@GMAIL.COM",
    "categoryName": "HOSPICE",
    "categoryCode": "HOSPICE",
    "licenseStatus": "ACTIVE",
    "inService": true,
    "licenseNumber": "550005953",
    "licenseEffectiveDate": "12/11/2024",
    "licenseExpirationDate": "12/10/2026",
    "dataDate": "10/18/2025",
    "capacity": 0,
    "address": "3500 W OLIVE AVE, SUITE 300",
    "city": "BURBANK",
    "zip": "91505",
    "county": "LOS ANGELES",
    "phone": "(800) 753-5394",
    "lat": 34.152453,
    "lng": -118.3378635
  },
  {
    "id": "630026103",
    "name": "SPIKE HOME HEALTH CARE",
    "npi": null,
    "hcaiId": null,
    "businessName": "SPIKE HOME HEALTH CARE",
    "contactEmail": "SPIKEHHC@GMAIL.COM",
    "categoryName": "HOME HEALTH AGENCY",
    "categoryCode": "HHA",
    "licenseStatus": "ACTIVE",
    "inService": true,
    "licenseNumber": "550009381",
    "licenseEffectiveDate": "03/09/2025",
    "licenseExpirationDate": "09/08/2025",
    "dataDate": "10/18/2025",
    "capacity": 0,
    "address": "4119 W BURBANK BLVD, SUITE 135",
    "city": "BURBANK",
    "zip": "91505",
    "county": "LOS ANGELES",
    "phone": "(818) 630-9599",
    "lat": 34.17323001,
    "lng": -118.355467
  },
  {
    "id": "630017735",
    "name": "ST. TERESA HOSPICE AND PALLIATIVE CARE, INC.",
    "npi": null,
    "hcaiId": "406192192",
    "businessName": "ST. TERESA HOSPICE AND PALLIATIVE CARE, INC.",
    "contactEmail": "ST.TERESAHOSPICE@GMAIL.COM",
    "categoryName": "HOSPICE",
    "categoryCode": "HOSPICE",
    "licenseStatus": "ACTIVE",
    "inService": true,
    "licenseNumber": "550005209",
    "licenseEffectiveDate": "01/23/2025",
    "licenseExpirationDate": "09/26/2025",
    "dataDate": "10/18/2025",
    "capacity": 0,
    "address": "2829 W BURBANK BLVD, SUITE 202",
    "city": "BURBANK",
    "zip": "91505",
    "county": "LOS ANGELES",
    "phone": "(818) 646-1226",
    "lat": 34.17755901,
    "lng": -118.342484
  },
  {
    "id": "630021394",
    "name": "SUNNY DAYS HOME HEALTH, INC.",
    "npi": null,
    "hcaiId": "406193171",
    "businessName": "SUNNY DAYS HOME HEALTH,INC.",
    "contactEmail": "4SUNNYDAYSHH@GMAIL.COM",
    "categoryName": "HOME HEALTH AGENCY",
    "categoryCode": "HHA",
    "licenseStatus": "ACTIVE",
    "inService": true,
    "licenseNumber": "550006989",
    "licenseEffectiveDate": "10/18/2025",
    "licenseExpirationDate": "10/17/2026",
    "dataDate": "10/18/2025",
    "capacity": 0,
    "address": "4119 W BURBANK BLVD, SUITE 121",
    "city": "BURBANK",
    "zip": "91505",
    "county": "LOS ANGELES",
    "phone": "(818) 446-6220",
    "lat": 34.17301395,
    "lng": -118.3554783
  },
  {
    "id": "630012635",
    "name": "SUNRISE HOME HEALTH INC.",
    "npi": "1518290063",
    "hcaiId": "406197545",
    "businessName": "SUNRISE HOME HEALTH INC.",
    "contactEmail": "SUNRISEHOMEHEALTHINC@GMAIL.COM",
    "categoryName": "HOME HEALTH AGENCY",
    "categoryCode": "HHA",
    "licenseStatus": "ACTIVE",
    "inService": true,
    "licenseNumber": "550001517",
    "licenseEffectiveDate": "03/04/2025",
    "licenseExpirationDate": "03/03/2026",
    "dataDate": "10/18/2025",
    "capacity": 0,
    "address": "2919 W. BURBANK BLVD. SUITE B, SUITE B",
    "city": "BURBANK",
    "zip": "91505",
    "county": "LOS ANGELES",
    "phone": "(818) 763-4320",
    "lat": 34.177257,
    "lng": -118.343259
  },
  {
    "id": "630021345",
    "name": "SUNSHINE CARE HOSPICE",
    "npi": null,
    "hcaiId": "406193946",
    "businessName": "SUNSHINE CARE HOSPICE",
    "contactEmail": "SUNSHINECAREHOSPICE@GMAIL.COM",
    "categoryName": "HOSPICE",
    "categoryCode": "HOSPICE",
    "licenseStatus": "ACTIVE",
    "inService": true,
    "licenseNumber": "550007131",
    "licenseEffectiveDate": "08/26/2025",
    "licenseExpirationDate": "08/25/2027",
    "dataDate": "10/18/2025",
    "capacity": 0,
    "address": "4119 W BURBANK BLVD, SUITE 176",
    "city": "BURBANK",
    "zip": "91505",
    "county": "LOS ANGELES",
    "phone": "(818) 932-8232",
    "lat": 34.17301395,
    "lng": -118.3554783
  },
  {
    "id": "630018318",
    "name": "SWAN HOME HEALTH CARE, INC.",
    "npi": "1578047817",
    "hcaiId": "406191763",
    "businessName": "SWAN HOME HEALTH CARE, INC.",
    "contactEmail": "SWANHOMEHEALTH@GMAIL.COM",
    "categoryName": "HOME HEALTH AGENCY",
    "categoryCode": "HHA",
    "licenseStatus": "ACTIVE",
    "inService": true,
    "licenseNumber": "550004709",
    "licenseEffectiveDate": "05/21/2025",
    "licenseExpirationDate": "05/20/2026",
    "dataDate": "10/18/2025",
    "capacity": 0,
    "address": "3808 W RIVERSIDE DR, SUITE 202",
    "city": "BURBANK",
    "zip": "91505",
    "county": "LOS ANGELES",
    "phone": "(818) 406-5006",
    "lat": 34.152282,
    "lng": -118.34109
  },
  {
    "id": "630024382",
    "name": "TOP FORM HOME HEALTH CARE, INC.",
    "npi": null,
    "hcaiId": "406198066",
    "businessName": "TOP FORM HOME HEALTH CARE, INC.",
    "contactEmail": "TOPFORMHH@GMAIL.COM",
    "categoryName": "HOME HEALTH AGENCY",
    "categoryCode": "HHA",
    "licenseStatus": "ACTIVE",
    "inService": true,
    "licenseNumber": "550008275",
    "licenseEffectiveDate": "11/30/2025",
    "licenseExpirationDate": "11/29/2026",
    "dataDate": "10/18/2025",
    "capacity": 0,
    "address": "2829 W BURBANK BLVD, SUITE 202B",
    "city": "BURBANK",
    "zip": "91505",
    "county": "LOS ANGELES",
    "phone": "(747) 877-2781",
    "lat": 34.17755901,
    "lng": -118.342484
  },
  {
    "id": "630019201",
    "name": "TOUCH OF ANGELS HOME HEALTH, INC.",
    "npi": null,
    "hcaiId": "406192808",
    "businessName": "TOUCH OF ANGELS HOME HEALTH, INC.",
    "contactEmail": "IZABELSARKISYAN@YAHOO.COM",
    "categoryName": "HOME HEALTH AGENCY",
    "categoryCode": "HHA",
    "licenseStatus": "ACTIVE",
    "inService": true,
    "licenseNumber": "550005652",
    "licenseEffectiveDate": "08/12/2025",
    "licenseExpirationDate": "08/11/2026",
    "dataDate": "10/18/2025",
    "capacity": 0,
    "address": "4119 W BURBANK BLVD, SUITE 158",
    "city": "BURBANK",
    "zip": "91505",
    "county": "LOS ANGELES",
    "phone": "(818) 453-8100",
    "lat": 34.17323001,
    "lng": -118.355467
  },
  {
    "id": "630025098",
    "name": "TRUE BLISS HOME HEALTH CARE, INC.",
    "npi": null,
    "hcaiId": "406196406",
    "businessName": "TRUE BLISS HOME HEALTH CARE, INC.",
    "contactEmail": "TRUEBLISSHOMEHEALTH@GMAIL.COM",
    "categoryName": "HOME HEALTH AGENCY",
    "categoryCode": "HHA",
    "licenseStatus": "ACTIVE",
    "inService": true,
    "licenseNumber": "550008480",
    "licenseEffectiveDate": "03/13/2025",
    "licenseExpirationDate": "03/12/2026",
    "dataDate": "10/18/2025",
    "capacity": 0,
    "address": "4100 W ALAMEDA AVE, UNIT 352",
    "city": "BURBANK",
    "zip": "91505",
    "county": "LOS ANGELES",
    "phone": "(818) 378-2358",
    "lat": 34.152363,
    "lng": -118.344627
  },
  {
    "id": "630021452",
    "name": "UNICAL HOME HEALTHCARE INC.",
    "npi": null,
    "hcaiId": "406195426",
    "businessName": "UNICAL HOME HEALTHCARE, INC.",
    "contactEmail": "ACHAKHOYAN@YAHOO.COM",
    "categoryName": "HOME HEALTH AGENCY",
    "categoryCode": "HHA",
    "licenseStatus": "ACTIVE",
    "inService": true,
    "licenseNumber": "550007870",
    "licenseEffectiveDate": "03/01/2025",
    "licenseExpirationDate": "02/28/2026",
    "dataDate": "10/18/2025",
    "capacity": 0,
    "address": "1329 N HOLLYWOOD WAY, UNIT 200",
    "city": "BURBANK",
    "zip": "91505",
    "county": "LOS ANGELES",
    "phone": "(818) 636-4095",
    "lat": 34.17408,
    "lng": -118.349694
  },
  {
    "id": "630019187",
    "name": "VANGUARD HOME HEALTH CARE, INC.",
    "npi": null,
    "hcaiId": "406192964",
    "businessName": "VANGUARD HOME HEALTH CARE, INC.",
    "contactEmail": "VANGUARDHOMEHEALTHCARE@GMAIL.COM",
    "categoryName": "HOME HEALTH AGENCY",
    "categoryCode": "HHA",
    "licenseStatus": "ACTIVE",
    "inService": true,
    "licenseNumber": "550005816",
    "licenseEffectiveDate": "10/08/2025",
    "licenseExpirationDate": "10/07/2026",
    "dataDate": "10/18/2025",
    "capacity": 0,
    "address": "4444 W RIVERSIDE DR, SUITE 110",
    "city": "BURBANK",
    "zip": "91505",
    "county": "LOS ANGELES",
    "phone": "(818) 617-9560",
    "lat": 34.151958,
    "lng": -118.348776
  },
  {
    "id": "630020803",
    "name": "VERA HOSPICE & PALLIATIVE CARE, INC",
    "npi": null,
    "hcaiId": "406193513",
    "businessName": "VERA HOSPICE & PALLIATIVE CARE, INC.",
    "contactEmail": "HOSPICEVERA@GMAIL.COM",
    "categoryName": "HOSPICE",
    "categoryCode": "HOSPICE",
    "licenseStatus": "ACTIVE",
    "inService": true,
    "licenseNumber": "550006723",
    "licenseEffectiveDate": "08/24/2023",
    "licenseExpirationDate": "08/23/2025",
    "dataDate": "10/18/2025",
    "capacity": 0,
    "address": "3500 WEST OLIVE AVENUE, SUITE 308",
    "city": "BURBANK",
    "zip": "91505",
    "county": "LOS ANGELES",
    "phone": "(323) 543-0800",
    "lat": 34.15240551,
    "lng": -118.3378402
  },
  {
    "id": "630013762",
    "name": "VIDA HOME HEALTH SERVICES INC.",
    "npi": "1942561071",
    "hcaiId": "406197919",
    "businessName": "VIDA HOME HEALTH SERVICES INC.",
    "contactEmail": "VIDAHHS@GMAIL.COM",
    "categoryName": "HOME HEALTH AGENCY",
    "categoryCode": "HHA",
    "licenseStatus": "ACTIVE",
    "inService": true,
    "licenseNumber": "550002277",
    "licenseEffectiveDate": "05/07/2025",
    "licenseExpirationDate": "05/06/2026",
    "dataDate": "10/18/2025",
    "capacity": 0,
    "address": "3800 W BURBANK BLVD, SUITE 101",
    "city": "BURBANK",
    "zip": "91505",
    "county": "LOS ANGELES",
    "phone": "(818) 237-5522",
    "lat": 34.174053,
    "lng": -118.351332
  },
  {
    "id": "630025473",
    "name": "WELCOME HOME HEALTH, INC.",
    "npi": null,
    "hcaiId": null,
    "businessName": "WELCOME HOME HEALTH, INC.",
    "contactEmail": "4WELCOMEHOMEHEALTH@GMAIL.COM",
    "categoryName": "HOME HEALTH AGENCY",
    "categoryCode": "HHA",
    "licenseStatus": "ACTIVE",
    "inService": true,
    "licenseNumber": "550009973",
    "licenseEffectiveDate": "09/12/2025",
    "licenseExpirationDate": "03/11/2026",
    "dataDate": "10/18/2025",
    "capacity": 0,
    "address": "2920 W OLIVE AVE, SUITE 213",
    "city": "BURBANK",
    "zip": "91505",
    "county": "LOS ANGELES",
    "phone": "(818) 337-0207",
    "lat": 34.157331,
    "lng": -118.333287
  },
  {
    "id": "630022225",
    "name": "WELLNESS HOME HEALTH CARE SERVICES INC",
    "npi": null,
    "hcaiId": "406195770",
    "businessName": "WELLNESS HOME HEALTH CARE SERVICES INC",
    "contactEmail": "INFOWELLNESSHOMEHEALTH@GMAIL.COM",
    "categoryName": "HOME HEALTH AGENCY",
    "categoryCode": "HHA",
    "licenseStatus": "ACTIVE",
    "inService": true,
    "licenseNumber": "550007795",
    "licenseEffectiveDate": "01/27/2025",
    "licenseExpirationDate": "01/20/2026",
    "dataDate": "10/18/2025",
    "capacity": 0,
    "address": "4119 W BURBANK BLVD, UNIT 182",
    "city": "BURBANK",
    "zip": "91505",
    "county": "LOS ANGELES",
    "phone": "(818) 617-9009",
    "lat": 34.17327061,
    "lng": -118.354864
  },
  {
    "id": "630024002",
    "name": "WHITE STAR HOME HEALTH, INC.",
    "npi": null,
    "hcaiId": "406195605",
    "businessName": "WHITE STAR HOME HEALTH, INC.",
    "contactEmail": "WHITESTARHH@GMAIL.COM",
    "categoryName": "HOME HEALTH AGENCY",
    "categoryCode": "HHA",
    "licenseStatus": "ACTIVE",
    "inService": true,
    "licenseNumber": "550008165",
    "licenseEffectiveDate": "09/13/2025",
    "licenseExpirationDate": "09/12/2026",
    "dataDate": "10/18/2025",
    "capacity": 0,
    "address": "4444 W RIVERSIDE DR, SUITE 204A",
    "city": "BURBANK",
    "zip": "91505",
    "county": "LOS ANGELES",
    "phone": "(747) 477-3471",
    "lat": 34.1520087,
    "lng": -118.350986
  },
  {
    "id": "630020426",
    "name": "YOUR CHOICE PALLIATIVE CARE INC",
    "npi": null,
    "hcaiId": "406193242",
    "businessName": "YOUR CHOICE PALLIATIVE CARE INC",
    "contactEmail": "YOURCHOICEPALLIATIVE@GMAIL.COM",
    "categoryName": "HOSPICE",
    "categoryCode": "HOSPICE",
    "licenseStatus": "ACTIVE",
    "inService": true,
    "licenseNumber": "550006235",
    "licenseEffectiveDate": "02/12/2025",
    "licenseExpirationDate": "02/11/2027",
    "dataDate": "10/18/2025",
    "capacity": 0,
    "address": "847 N HOLLYWOOD WAY, SUITE 206",
    "city": "BURBANK",
    "zip": "91505",
    "county": "LOS ANGELES",
    "phone": "(818) 433-7787",
    "lat": 34.165791,
    "lng": -118.346229
  },
  {
    "id": "630021398",
    "name": "ZEN HOME HEALTH CARE, INC",
    "npi": null,
    "hcaiId": "406193832",
    "businessName": "ZEN HOME HEALTH CARE, INC",
    "contactEmail": "ZENHHC@GMAIL.COM",
    "categoryName": "HOME HEALTH AGENCY",
    "categoryCode": "HHA",
    "licenseStatus": "ACTIVE",
    "inService": true,
    "licenseNumber": "550007182",
    "licenseEffectiveDate": "10/18/2025",
    "licenseExpirationDate": "10/17/2026",
    "dataDate": "10/18/2025",
    "capacity": 0,
    "address": "4119 W BURBANK BLVD, SUITE 155",
    "city": "BURBANK",
    "zip": "91505",
    "county": "LOS ANGELES",
    "phone": "(818) 570-2142",
    "lat": 34.17301395,
    "lng": -118.3554783
  }
]