[
  {
    "id": "630013895",
    "name": "ARDENT CARE HOSPICE, INC.",
    "npi": null,
    "hcaiId": "406198473",
    "businessName": "ARDENT CARE HOSPICE, INC.",
    "contactEmail": "ARDENTCAREHOSPICE@GMAIL.COM",
    "categoryName": "HOSPICE",
    "categoryCode": "HOSPICE",
    "licenseStatus": "ACTIVE",
    "inService": true,
    "licenseNumber": "550002397",
    "licenseEffectiveDate": "08/13/2023",
    "licenseExpirationDate": "08/12/2025",
    "dataDate": "10/18/2025",
    "capacity": 0,
    "address": "500 E OLIVE AVE, SUITE 860",
    "city": "BURBANK",
    "zip": "91501",
    "county": "LOS ANGELES",
    "phone": "(818) 387-6131",
    "lat": 34.18437182,
    "lng": -118.3045699
  },
  {
    "id": "630021485",
    "name": "HOPE HOME HEALTH, INC.",
    "npi": null,
    "hcaiId": "406190129",
    "businessName": "HOPE HOME HEALTH, INC.",
    "contactEmail": "HOPEHOMEHEALTHINC@YAHOO.COM",
    "categoryName": "HOME HEALTH AGENCY",
    "categoryCode": "HHA",
    "licenseStatus": "ACTIVE",
    "inService": true,
    "licenseNumber": "550008647",
    "licenseEffectiveDate": "06/15/2025",
    "licenseExpirationDate": "06/14/2026",
    "dataDate": "10/18/2025",
    "capacity": 0,
    "address": "500 E OLIVE AVE, SUITE 760",
    "city": "BURBANK",
    "zip": "91501",
    "county": "LOS ANGELES",
    "phone": "(626) 733-1062",
    "lat": 34.18466,
    "lng": -118.304669
  },
  {
    "id": "630014187",
    "name": "JOURNEY HOSPICE SERVICES, INC.",
    "npi": "1144569617",
    "hcaiId": "406198210",
    "businessName": "JOURNEY HOSPICE SERVICES, INC.",
    "contactEmail": "INFO@JOURNEYHOSPICESERVICES.COM",
    "categoryName": "HOSPICE",
    "categoryCode": "HOSPICE",
    "licenseStatus": "ACTIVE",
    "inService": true,
    "licenseNumber": "550002637",
    "licenseEffectiveDate": "03/21/2024",
    "licenseExpirationDate": "03/20/2026",
    "dataDate": "10/18/2025",
    "capacity": 0,
    "address": "500 E OLIVE AVE, SUITE 710",
    "city": "BURBANK",
    "zip": "91501",
    "county": "LOS ANGELES",
    "phone": "(818) 558-4300",
    "lat": 34.184349,
    "lng": -118.3045545
  },
  {
    "id": "630011323",
    "name": "PRIVILEGE HOME HEALTH CARE, INC.",
    "npi": "1053522664",
    "hcaiId": "406197182",
    "businessName": "PRIVILEGE HOME HEALTH CARE, INC.",
    "contactEmail": "PRIVILEGEHHC@YAHOO.COM",
    "categoryName": "HOME HEALTH AGENCY",
    "categoryCode": "HHA",
    "licenseStatus": "ACTIVE",
    "inService": true,
    "licenseNumber": "550000826",
    "licenseEffectiveDate": "11/14/2024",
    "licenseExpirationDate": "11/13/2025",
    "dataDate": "10/18/2025",
    "capacity": 0,
    "address": "500 E OLIVE AVE, SUITE 850",
    "city": "BURBANK",
    "zip": "91501",
    "county": "LOS ANGELES",
    "phone": "(818) 846-0040",
    "lat": 34.184349,
    "lng": -118.3045545
  },
  {
    "id": "630022264",
    "name": "SAINT ANGELENO HOSPICE CARE, INC.",
    "npi": null,
    "hcaiId": "406195135",
    "businessName": "SAINT ANGELENO HOSPICE CARE, INC.",
    "contactEmail": "SAINTANGELENOHOSPICECARE@GMAIL.COM",
    "categoryName": "HOSPICE",
    "categoryCode": "HOSPICE",
    "licenseStatus": "ACTIVE",
    "inService": true,
    "licenseNumber": "550007470",
    "licenseEffectiveDate": "12/15/2023",
    "licenseExpirationDate": "12/14/2025",
    "dataDate": "10/18/2025",
    "capacity": 0,
    "address": "421 E ANGELENO AVE, SUITE 105",
    "city": "BURBANK",
    "zip": "91501",
    "county": "LOS ANGELES",
    "phone": "(747) 300-0748",
    "lat": 34.18299,
    "lng": -118.305171
  },
  {
    "id": "630018550",
    "name": "WISH HOME HEALTH CARE, INC",
    "npi": "1659844439",
    "hcaiId": "406192678",
    "businessName": "WISH HOME HEALTH CARE, INC",
    "contactEmail": "WISHHHC@GMAIL.COM",
    "categoryName": "HOME HEALTH AGENCY",
    "categoryCode": "HHA",
    "licenseStatus": "ACTIVE",
    "inService": true,
    "licenseNumber": "550005560",
    "licenseEffectiveDate": "07/21/2025",
    "licenseExpirationDate": "07/12/2026",
    "dataDate": "10/18/2025",
    "capacity": 0,
    "address": "500 E OLIVE AVE, SUITE 670",
    "city": "BURBANK",
    "zip": "91501",
    "county": "LOS ANGELES",
    "phone": "(818) 616-2022",
    "lat": 34.18435502,
    "lng": -118.30457
  }
]