[
  {
    "id": "630012996",
    "name": "ALL-INCLUSIVE COMMUNITY HEALTH CENTER",
    "npi": "1093019051",
    "hcaiId": "306197569",
    "businessName": "ALL-INCLUSIVE COMMUNITY HEALTH CENTER",
    "contactEmail": "ADMIN@AICHC.ORG",
    "categoryName": "PRIMARY CARE CLINIC",
    "categoryCode": "COMTYC",
    "licenseStatus": "ACTIVE",
    "inService": true,
    "licenseNumber": "550001600",
    "licenseEffectiveDate": "06/09/2025",
    "licenseExpirationDate": "06/08/2026",
    "dataDate": "10/18/2025",
    "capacity": 0,
    "address": "1311 N. SAN FERNANDO BLVD.",
    "city": "BURBANK",
    "zip": "91504",
    "county": "LOS ANGELES",
    "phone": "(818) 843-9900",
    "lat": 34.18932918,
    "lng": -118.3204404
  },
  {
    "id": "630024703",
    "name": "ALLCARE HOME HEALTH SERVICES, INC.",
    "npi": null,
    "hcaiId": "406198176",
    "businessName": "ALLCARE HOME HEALTH SERVICES, INC.",
    "contactEmail": "ALLCAREHOMEHEALTH@YAHOO.COM",
    "categoryName": "HOME HEALTH AGENCY",
    "categoryCode": "HHA",
    "licenseStatus": "ACTIVE",
    "inService": true,
    "licenseNumber": "550008787",
    "licenseEffectiveDate": "10/20/2025",
    "licenseExpirationDate": "10/19/2026",
    "dataDate": "10/18/2025",
    "capacity": 0,
    "address": "2025 N GLENOAKS BLVD, SUITE 201",
    "city": "BURBANK",
    "zip": "91504",
    "county": "LOS ANGELES",
    "phone": "(818) 855-8683",
    "lat": 34.19721,
    "lng": -118.325799
  },
  {
    "id": "630025563",
    "name": "ALWAYS ATTENTIVE HOME HEALTH CARE",
    "npi": null,
    "hcaiId": null,
    "businessName": "ALWAYS ATTENTIVE HOME HEALTH CARE",
    "contactEmail": "HOMEHEALTHCALA@GMAIL.COM",
    "categoryName": "HOME HEALTH AGENCY",
    "categoryCode": "HHA",
    "licenseStatus": "ACTIVE",
    "inService": true,
    "licenseNumber": "550009161",
    "licenseEffectiveDate": "05/04/2025",
    "licenseExpirationDate": "05/03/2026",
    "dataDate": "10/18/2025",
    "capacity": 0,
    "address": "3099 N LIMA ST, UNIT A",
    "city": "BURBANK",
    "zip": "91504",
    "county": "LOS ANGELES",
    "phone": "(818) 605-3731",
    "lat": 34.20639,
    "lng": -118.34685
  },
  {
    "id": "630014676",
    "name": "ANGELINO HOSPICE CARE INC",
    "npi": "1659701548",
    "hcaiId": "406198413",
    "businessName": "ANGELINO HOSPICE CARE INC",
    "contactEmail": "ANGELINOHCC@GMAIL.COM",
    "categoryName": "HOSPICE",
    "categoryCode": "HOSPICE",
    "licenseStatus": "ACTIVE",
    "inService": true,
    "licenseNumber": "550002912",
    "licenseEffectiveDate": "11/14/2022",
    "licenseExpirationDate": "11/13/2024",
    "dataDate": "10/18/2025",
    "capacity": 0,
    "address": "444 IRVING DR, SUITE 102",
    "city": "BURBANK",
    "zip": "91504",
    "county": "LOS ANGELES",
    "phone": "(818) 988-9397",
    "lat": 34.200261,
    "lng": -118.327293
  },
  {
    "id": "630020515",
    "name": "APRIL HOME HEALTH CARE INC",
    "npi": null,
    "hcaiId": "406195323",
    "businessName": "APRIL HOME HEALTH CARE INC",
    "contactEmail": "APRILHOMEHEALTH@YAHOO.COM",
    "categoryName": "HOME HEALTH AGENCY",
    "categoryCode": "HHA",
    "licenseStatus": "ACTIVE",
    "inService": true,
    "licenseNumber": "550006152",
    "licenseEffectiveDate": "04/07/2025",
    "licenseExpirationDate": "04/06/2026",
    "dataDate": "10/18/2025",
    "capacity": 0,
    "address": "2025 N GLENOAKS BLVD, SUITE 202",
    "city": "BURBANK",
    "zip": "91504",
    "county": "LOS ANGELES",
    "phone": "(818) 219-0215",
    "lat": 34.19719802,
    "lng": -118.325855
  },
  {
    "id": "630015895",
    "name": "ARGO HOSPICE, INC.",
    "npi": null,
    "hcaiId": "406190986",
    "businessName": "ARGO HOSPICE, INC.",
    "contactEmail": "ARGOHOSPICE@GMAIL.COM",
    "categoryName": "HOSPICE",
    "categoryCode": "HOSPICE",
    "licenseStatus": "ACTIVE",
    "inService": true,
    "licenseNumber": "550003583",
    "licenseEffectiveDate": "06/24/2025",
    "licenseExpirationDate": "06/26/2026",
    "dataDate": "10/18/2025",
    "capacity": 0,
    "address": "3089 N LIMA ST, SUITE 105",
    "city": "BURBANK",
    "zip": "91504",
    "county": "LOS ANGELES",
    "phone": "(818) 643-4140",
    "lat": 34.20619101,
    "lng": -118.346944
  },
  {
    "id": "630011804",
    "name": "ASHERAH HOME & PALLIATIVE CARE, INC.",
    "npi": "1598935009",
    "hcaiId": "406197292",
    "businessName": "ASHERAH HOME & PALLIATIVE CARE, INC.",
    "contactEmail": "ASHERAHHPC@GMAIL.COM",
    "categoryName": "HOME HEALTH AGENCY",
    "categoryCode": "HHA",
    "licenseStatus": "ACTIVE",
    "inService": true,
    "licenseNumber": "550000999",
    "licenseEffectiveDate": "04/28/2025",
    "licenseExpirationDate": "04/27/2026",
    "dataDate": "10/18/2025",
    "capacity": 0,
    "address": "444 IRVING DR, SUITE 202",
    "city": "BURBANK",
    "zip": "91504",
    "county": "LOS ANGELES",
    "phone": "(626) 414-3352",
    "lat": 34.200261,
    "lng": -118.327293
  },
  {
    "id": "630027221",
    "name": "BAYAZET HOME HEALTH, INC.",
    "npi": null,
    "hcaiId": null,
    "businessName": "BAYAZET HOME HEALTH, INC.",
    "contactEmail": "BAYAZETHOMEHEALTH@GMAIL.COM",
    "categoryName": "HOME HEALTH AGENCY",
    "categoryCode": "HHA",
    "licenseStatus": "ACTIVE",
    "inService": true,
    "licenseNumber": "550009546",
    "licenseEffectiveDate": "12/12/2025",
    "licenseExpirationDate": "12/11/2026",
    "dataDate": "10/18/2025",
    "capacity": 0,
    "address": "7590 N GLENOAKS BLVD, SUITE 23",
    "city": "BURBANK",
    "zip": "91504",
    "county": "LOS ANGELES",
    "phone": "(747) 313-7447",
    "lat": 34.2087088,
    "lng": -118.3432317
  },
  {
    "id": "630020383",
    "name": "BLOOMING ROSE HOSPICE, INC.",
    "npi": null,
    "hcaiId": "406196075",
    "businessName": "BLOOMING ROSE HOSPICE, INC.",
    "contactEmail": "BLOOMINGROSEHOSPICE@YAHOO.COM",
    "categoryName": "HOSPICE",
    "categoryCode": "HOSPICE",
    "licenseStatus": "ACTIVE",
    "inService": true,
    "licenseNumber": "550006119",
    "licenseEffectiveDate": "03/16/2025",
    "licenseExpirationDate": "03/15/2027",
    "dataDate": "10/18/2025",
    "capacity": 0,
    "address": "3089 N LIMA ST, UNIT C",
    "city": "BURBANK",
    "zip": "91504",
    "county": "LOS ANGELES",
    "phone": "(818) 208-3066",
    "lat": 34.206183,
    "lng": -118.3468545
  },
  {
    "id": "630024522",
    "name": "BLUE HORIZON HOME HEALTH, INC",
    "npi": null,
    "hcaiId": null,
    "businessName": "BLUE HORIZON HOME HEALTH, INC",
    "contactEmail": "BLUEHORIZONHHC@GMAIL.COM",
    "categoryName": "HOME HEALTH AGENCY",
    "categoryCode": "HHA",
    "licenseStatus": "ACTIVE",
    "inService": true,
    "licenseNumber": "550008424",
    "licenseEffectiveDate": "03/02/2025",
    "licenseExpirationDate": "03/01/2026",
    "dataDate": "10/18/2025",
    "capacity": 0,
    "address": "7590 N GLENOAKS BLVD, SUITE 8",
    "city": "BURBANK",
    "zip": "91504",
    "county": "LOS ANGELES",
    "phone": "(424) 600-9929",
    "lat": 34.208946,
    "lng": -118.343763
  },
  {
    "id": "630025948",
    "name": "BLUE HORIZON PK, INC.",
    "npi": null,
    "hcaiId": null,
    "businessName": "BLUE HORIZON PK, INC.",
    "contactEmail": "BLUEHORIZON.HHEALTH@GMAIL.COM",
    "categoryName": "HOME HEALTH AGENCY",
    "categoryCode": "HHA",
    "licenseStatus": "ACTIVE",
    "inService": true,
    "licenseNumber": "550008977",
    "licenseEffectiveDate": "03/04/2025",
    "licenseExpirationDate": "03/03/2026",
    "dataDate": "10/18/2025",
    "capacity": 0,
    "address": "7590 N GLENOAKS BLVD, SUITE 110",
    "city": "BURBANK",
    "zip": "91504",
    "county": "LOS ANGELES",
    "phone": "(747) 298-9998",
    "lat": 34.208822,
    "lng": -118.343197
  },
  {
    "id": "630018943",
    "name": "BRIDGES HOME HEALTH CARE, INC.",
    "npi": null,
    "hcaiId": "406192693",
    "businessName": "BRIDGES HOME HEALTH CARE, INC.",
    "contactEmail": "BRIDGESHOMEHEALTHCAREINC@GMAIL.COM",
    "categoryName": "HOME HEALTH AGENCY",
    "categoryCode": "HHA",
    "licenseStatus": "ACTIVE",
    "inService": true,
    "licenseNumber": "550005499",
    "licenseEffectiveDate": "05/29/2025",
    "licenseExpirationDate": "05/28/2026",
    "dataDate": "10/18/2025",
    "capacity": 0,
    "address": "9795 CABRINI DR, SUITE 201",
    "city": "BURBANK",
    "zip": "91504",
    "county": "LOS ANGELES",
    "phone": "(818) 394-9700",
    "lat": 34.209729,
    "lng": -118.3439745
  },
  {
    "id": "630019579",
    "name": "BRIGHT JOURNEY HOSPICE, INC.",
    "npi": null,
    "hcaiId": "406192421",
    "businessName": "BRIGHT JOURNEY HOSPICE, INC.",
    "contactEmail": "BRIGHTJOURNEYHC@GMAIL.COM",
    "categoryName": "HOSPICE",
    "categoryCode": "HOSPICE",
    "licenseStatus": "ACTIVE",
    "inService": true,
    "licenseNumber": "550005274",
    "licenseEffectiveDate": "04/13/2022",
    "licenseExpirationDate": "02/06/2024",
    "dataDate": "10/18/2025",
    "capacity": 0,
    "address": "2913 N GLENOAKS BLVD",
    "city": "BURBANK",
    "zip": "91504",
    "county": "LOS ANGELES",
    "phone": "(818) 253-4121",
    "lat": 34.20397561,
    "lng": -118.3358063
  },
  {
    "id": "630015909",
    "name": "BURBANK CONGREGATE LIVING CENTER, INC.",
    "npi": null,
    "hcaiId": "206198349",
    "businessName": "BURBANK CONGREGATE LIVING CENTER, INC.",
    "contactEmail": "ALEX@CONGREGATELIVING.NET",
    "categoryName": "CONGREGATE LIVING HEALTH FACILITY",
    "categoryCode": "CLHF",
    "licenseStatus": "ACTIVE",
    "inService": true,
    "licenseNumber": "550003505",
    "licenseEffectiveDate": "05/11/2024",
    "licenseExpirationDate": "05/10/2025",
    "dataDate": "10/18/2025",
    "capacity": 6,
    "address": "1100 LELAND WAY",
    "city": "BURBANK",
    "zip": "91504",
    "county": "LOS ANGELES",
    "phone": "(818) 799-9999",
    "lat": 34.187391,
    "lng": -118.3207815
  },
  {
    "id": "930000595",
    "name": "BURBANK DIALYSIS",
    "npi": "1932173481",
    "hcaiId": "306191444",
    "businessName": "DVA HEALTHCARE RENAL CARE, INC.",
    "contactEmail": "CAL_C@DAVITA.COM",
    "categoryName": "CHRONIC DIALYSIS CLINIC",
    "categoryCode": "ESRD/CDC",
    "licenseStatus": "ACTIVE",
    "inService": true,
    "licenseNumber": "930000388",
    "licenseEffectiveDate": "11/20/2024",
    "licenseExpirationDate": "11/19/2025",
    "dataDate": "10/18/2025",
    "capacity": 24,
    "address": "1211 N SAN FERNANDO BLVD",
    "city": "BURBANK",
    "zip": "91504",
    "county": "LOS ANGELES",
    "phone": "(818) 842-5576",
    "lat": 34.188561,
    "lng": -118.320129
  },
  {
    "id": "630019140",
    "name": "CARING HANDS HOSPICE, LLC.",
    "npi": "1568026110",
    "hcaiId": "406196205",
    "businessName": "CARING HANDS HOSPICE, LLC",
    "contactEmail": "CARINGHANDSHOSPICE0319@GMAIL.COM",
    "categoryName": "HOSPICE",
    "categoryCode": "HOSPICE",
    "licenseStatus": "ACTIVE",
    "inService": true,
    "licenseNumber": "550005681",
    "licenseEffectiveDate": "07/14/2023",
    "licenseExpirationDate": "07/08/2024",
    "dataDate": "10/18/2025",
    "capacity": 0,
    "address": "1303 N SAN FERNANDO BLVD, SUITE 203",
    "city": "BURBANK",
    "zip": "91504",
    "county": "LOS ANGELES",
    "phone": "(310) 935-3274",
    "lat": 34.189034,
    "lng": -118.320544
  },
  {
    "id": "630024532",
    "name": "CARING PROFESSIONAL HOME HEALTH, INC",
    "npi": null,
    "hcaiId": null,
    "businessName": "CARING PROFESSIONAL HOME HEALTH, INC",
    "contactEmail": "CARINGPROFESSIONALHHC@GMAIL.COM",
    "categoryName": "HOME HEALTH AGENCY",
    "categoryCode": "HHA",
    "licenseStatus": "ACTIVE",
    "inService": true,
    "licenseNumber": "550008327",
    "licenseEffectiveDate": "01/10/2023",
    "licenseExpirationDate": "07/09/2023",
    "dataDate": "10/18/2025",
    "capacity": 0,
    "address": "7590 N GLENOAKS BLVD, SUITE 9",
    "city": "BURBANK",
    "zip": "91504",
    "county": "LOS ANGELES",
    "phone": "(424) 600-4939",
    "lat": 34.208946,
    "lng": -118.343763
  },
  {
    "id": "630020784",
    "name": "CITYWIDE HOSPICE CARE, INC",
    "npi": null,
    "hcaiId": "406196769",
    "businessName": "CITYWIDE HOSPICE CARE, INC",
    "contactEmail": "CITYWIDEHOSPICE@GMAIL.COM",
    "categoryName": "HOSPICE",
    "categoryCode": "HOSPICE",
    "licenseStatus": "ACTIVE",
    "inService": true,
    "licenseNumber": "550006434",
    "licenseEffectiveDate": "06/16/2025",
    "licenseExpirationDate": "06/15/2027",
    "dataDate": "10/18/2025",
    "capacity": 0,
    "address": "7590 N GLENOAKS BLVD, SUITE 103",
    "city": "BURBANK",
    "zip": "91504",
    "county": "LOS ANGELES",
    "phone": "(818) 875-4014",
    "lat": 34.208946,
    "lng": -118.343763
  },
  {
    "id": "630021173",
    "name": "COUNTRY CLUB HOSPICE, INC.",
    "npi": null,
    "hcaiId": "406193553",
    "businessName": "COUNTRY CLUB HOSPICE, INC",
    "contactEmail": "COUNTRYCLUBHOSPICE@YAHOO.COM",
    "categoryName": "HOSPICE",
    "categoryCode": "HOSPICE",
    "licenseStatus": "ACTIVE",
    "inService": true,
    "licenseNumber": "550006582",
    "licenseEffectiveDate": "07/07/2023",
    "licenseExpirationDate": "07/06/2025",
    "dataDate": "10/18/2025",
    "capacity": 0,
    "address": "3089 N LIMA ST, SUITE D",
    "city": "BURBANK",
    "zip": "91504",
    "county": "LOS ANGELES",
    "phone": "(747) 200-4175",
    "lat": 34.206183,
    "lng": -118.3468545
  },
  {
    "id": "630012850",
    "name": "CURING HANDS HOME HEALTH, INC.",
    "npi": "1821301490",
    "hcaiId": "406197518",
    "businessName": "CURING HANDS HOME HEALTH",
    "contactEmail": "CURINGHANDSHH@GMAIL.COM",
    "categoryName": "HOME HEALTH AGENCY",
    "categoryCode": "HHA",
    "licenseStatus": "ACTIVE",
    "inService": true,
    "licenseNumber": "550001580",
    "licenseEffectiveDate": "04/15/2025",
    "licenseExpirationDate": "04/14/2026",
    "dataDate": "10/18/2025",
    "capacity": 0,
    "address": "2834 N NAOMI ST, SUITE A",
    "city": "BURBANK",
    "zip": "91504",
    "county": "LOS ANGELES",
    "phone": "(818) 843-4444",
    "lat": 34.20342,
    "lng": -118.339659
  },
  {
    "id": "630024903",
    "name": "EG HOME HEALTH CARE, INC.",
    "npi": null,
    "hcaiId": "406196507",
    "businessName": "EG HOME HEALTH CARE, INC.",
    "contactEmail": "EGHOMEHEALTHCARE7@GMAIL.COM",
    "categoryName": "HOME HEALTH AGENCY",
    "categoryCode": "HHA",
    "licenseStatus": "ACTIVE",
    "inService": true,
    "licenseNumber": "550008527",
    "licenseEffectiveDate": "11/05/2025",
    "licenseExpirationDate": "04/20/2026",
    "dataDate": "10/18/2025",
    "capacity": 0,
    "address": "7590 N GLENOAKS BLVD, SUITE 16",
    "city": "BURBANK",
    "zip": "91504",
    "county": "LOS ANGELES",
    "phone": "(747) 264-9020",
    "lat": 34.208946,
    "lng": -118.343763
  },
  {
    "id": "630020800",
    "name": "EROS HOME HEALTH CARE, INC.",
    "npi": null,
    "hcaiId": "406193038",
    "businessName": "EROS HOME HEALTH CARE, INC.",
    "contactEmail": "KAREGHIAN@GMAIL.COM",
    "categoryName": "HOME HEALTH AGENCY",
    "categoryCode": "HHA",
    "licenseStatus": "ACTIVE",
    "inService": true,
    "licenseNumber": "550006215",
    "licenseEffectiveDate": "03/12/2025",
    "licenseExpirationDate": "03/11/2026",
    "dataDate": "10/18/2025",
    "capacity": 0,
    "address": "9795 CABRINI DR, SUITE 203",
    "city": "BURBANK",
    "zip": "91504",
    "county": "LOS ANGELES",
    "phone": "(747) 666-0601",
    "lat": 34.209729,
    "lng": -118.3439745
  },
  {
    "id": "630019995",
    "name": "EVERY DAY HOSPICE CARE, INC",
    "npi": "1689200883",
    "hcaiId": "406192603",
    "businessName": "EVERY DAY HOSPICE CARE, INC",
    "contactEmail": "EVERYDAYHOSPICEINC@GMAIL.COM",
    "categoryName": "HOSPICE",
    "categoryCode": "HOSPICE",
    "licenseStatus": "ACTIVE",
    "inService": true,
    "licenseNumber": "550005491",
    "licenseEffectiveDate": "05/21/2024",
    "licenseExpirationDate": "05/20/2026",
    "dataDate": "10/18/2025",
    "capacity": 0,
    "address": "3029 N SAN FERNANDO BLVD, SUITE 110",
    "city": "BURBANK",
    "zip": "91504",
    "county": "LOS ANGELES",
    "phone": "(818) 859-7013",
    "lat": 34.20182898,
    "lng": -118.344135
  },
  {
    "id": "630014877",
    "name": "FAMILY CHOICE HOME HEALTH",
    "npi": "1427491349",
    "hcaiId": "406198107",
    "businessName": "CANNETO HOME HEALTH INC.",
    "contactEmail": "FAMILYCHOICEHH@GMAIL.COM",
    "categoryName": "HOME HEALTH AGENCY",
    "categoryCode": "HHA",
    "licenseStatus": "ACTIVE",
    "inService": true,
    "licenseNumber": "550003271",
    "licenseEffectiveDate": "10/14/2025",
    "licenseExpirationDate": "10/13/2026",
    "dataDate": "10/18/2025",
    "capacity": 0,
    "address": "2908 N NAOMI ST, UNIT B",
    "city": "BURBANK",
    "zip": "91504",
    "county": "LOS ANGELES",
    "phone": "(818) 842-1111",
    "lat": 34.20438898,
    "lng": -118.339721
  },
  {
    "id": "630025367",
    "name": "FASTCARE HOME CARE",
    "npi": null,
    "hcaiId": null,
    "businessName": "FASTCARE HOME CARE",
    "contactEmail": "FASTCAREHOMECARE@GMAIL.COM",
    "categoryName": "HOME HEALTH AGENCY",
    "categoryCode": "HHA",
    "licenseStatus": "ACTIVE",
    "inService": true,
    "licenseNumber": "550008524",
    "licenseEffectiveDate": "11/10/2023",
    "licenseExpirationDate": "05/09/2024",
    "dataDate": "10/18/2025",
    "capacity": 0,
    "address": "2319 N SAN FERNANDO BLVD, UNIT B",
    "city": "BURBANK",
    "zip": "91504",
    "county": "LOS ANGELES",
    "phone": "(818) 301-4041",
    "lat": 34.196643,
    "lng": -118.336581
  },
  {
    "id": "630018428",
    "name": "G.G.A. HOME HEALTH CARE, INC.",
    "npi": null,
    "hcaiId": "406192453",
    "businessName": "G.G.A. HOME HEALTH CARE, INC.",
    "contactEmail": "GGAHOMEHEALTHCARE@GMAIL.COM",
    "categoryName": "HOME HEALTH AGENCY",
    "categoryCode": "HHA",
    "licenseStatus": "ACTIVE",
    "inService": true,
    "licenseNumber": "550005235",
    "licenseEffectiveDate": "01/16/2025",
    "licenseExpirationDate": "01/15/2026",
    "dataDate": "10/18/2025",
    "capacity": 0,
    "address": "2829 N GLENOAKS BLVD, SUITE 101",
    "city": "BURBANK",
    "zip": "91504",
    "county": "LOS ANGELES",
    "phone": "(747) 283-1896",
    "lat": 34.203222,
    "lng": -118.335249
  },
  {
    "id": "630018427",
    "name": "G.S.A. HOME HEALTH CARE, INC.",
    "npi": null,
    "hcaiId": "406192452",
    "businessName": "G.S.A. HOME HEALTH CARE, INC.",
    "contactEmail": null,
    "categoryName": "HOME HEALTH AGENCY",
    "categoryCode": "HHA",
    "licenseStatus": "ACTIVE",
    "inService": true,
    "licenseNumber": "550005242",
    "licenseEffectiveDate": "01/16/2025",
    "licenseExpirationDate": "01/15/2026",
    "dataDate": "10/18/2025",
    "capacity": 0,
    "address": "2829 N GLENOAKS BLVD, SUITE 105",
    "city": "BURBANK",
    "zip": "91504",
    "county": "LOS ANGELES",
    "phone": "(818) 588-3791",
    "lat": 34.203222,
    "lng": -118.335249
  },
  {
    "id": "630019488",
    "name": "GAMMA HOME HEALTH, INC.",
    "npi": "1699324392",
    "hcaiId": "406192752",
    "businessName": "GAMMA HOME HEALTH, INC.",
    "contactEmail": "GAMMAHOMEHEALTH@GMAIL.COM",
    "categoryName": "HOME HEALTH AGENCY",
    "categoryCode": "HHA",
    "licenseStatus": "ACTIVE",
    "inService": true,
    "licenseNumber": "550005549",
    "licenseEffectiveDate": "07/07/2025",
    "licenseExpirationDate": "07/06/2026",
    "dataDate": "10/18/2025",
    "capacity": 0,
    "address": "7590 N GLENOAKS BLVD, SUITE 12",
    "city": "BURBANK",
    "zip": "91504",
    "county": "LOS ANGELES",
    "phone": "(747) 699-8665",
    "lat": 34.208946,
    "lng": -118.343763
  },
  {
    "id": "060001893",
    "name": "GLENOAKS ADULT DAY HEALTH CARE CENTER",
    "npi": null,
    "hcaiId": null,
    "businessName": "T.I.L.S. INC.",
    "contactEmail": "GLENOAKSCBAS@GMAIL.COM",
    "categoryName": "ADULT DAY HEALTH CARE",
    "categoryCode": "ADHC",
    "licenseStatus": "ACTIVE",
    "inService": true,
    "licenseNumber": "060000710",
    "licenseEffectiveDate": "11/08/2025",
    "licenseExpirationDate": "11/07/2026",
    "dataDate": "10/18/2025",
    "capacity": 0,
    "address": "3201 N GLENOAKS BLVD",
    "city": "BURBANK",
    "zip": "91504",
    "county": "LOS ANGELES",
    "phone": "(818) 848-0432",
    "lat": 34.205211,
    "lng": -118.339182
  },
  {
    "id": "630024629",
    "name": "GOOD ONE HOME HEALTH CARE INC",
    "npi": null,
    "hcaiId": "406195968",
    "businessName": "GOOD ONE HOME HEALTH CARE INC",
    "contactEmail": "GOODONEHOMEHEALTH@GMAIL.COM",
    "categoryName": "HOME HEALTH AGENCY",
    "categoryCode": "HHA",
    "licenseStatus": "ACTIVE",
    "inService": true,
    "licenseNumber": "550008260",
    "licenseEffectiveDate": "12/01/2024",
    "licenseExpirationDate": "11/30/2025",
    "dataDate": "10/18/2025",
    "capacity": 0,
    "address": "7590 N GLENOAKS BLVD, SUITE 11",
    "city": "BURBANK",
    "zip": "91504",
    "county": "LOS ANGELES",
    "phone": "(747) 233-8015",
    "lat": 34.208946,
    "lng": -118.343763
  },
  {
    "id": "630016054",
    "name": "GRANDE HOME HEALTH CARE, INC.",
    "npi": null,
    "hcaiId": "406198518",
    "businessName": "GRANDE HOME HEALTH CARE, INC.",
    "contactEmail": "GRANDEHOMEHEALTHCARE@GMAIL.COM",
    "categoryName": "HOME HEALTH AGENCY",
    "categoryCode": "HHA",
    "licenseStatus": "ACTIVE",
    "inService": true,
    "licenseNumber": "550003995",
    "licenseEffectiveDate": "10/16/2023",
    "licenseExpirationDate": "10/15/2024",
    "dataDate": "10/18/2025",
    "capacity": 0,
    "address": "1419 NORTH SAN FERNANDO BLVD., SUITE 220",
    "city": "BURBANK, CA",
    "zip": "91504",
    "county": "LOS ANGELES",
    "phone": "(818) 845-2000",
    "lat": 34.19053,
    "lng": -118.322451
  },
  {
    "id": "630020401",
    "name": "HEALTH MAX HOME HEALTH, INC",
    "npi": null,
    "hcaiId": "406195283",
    "businessName": "HEALTH MAX HOME HEALTH, INC",
    "contactEmail": "HEALTHMAXHH@YAHOO.COM",
    "categoryName": "HOME HEALTH AGENCY",
    "categoryCode": "HHA",
    "licenseStatus": "ACTIVE",
    "inService": true,
    "licenseNumber": "550006038",
    "licenseEffectiveDate": "02/04/2025",
    "licenseExpirationDate": "02/03/2026",
    "dataDate": "10/18/2025",
    "capacity": 0,
    "address": "1903 N GLENOAKS BLVD, SUITE C",
    "city": "BURBANK",
    "zip": "91504",
    "county": "LOS ANGELES",
    "phone": "(747) 755-3040",
    "lat": 34.19629313,
    "lng": -118.3246442
  },
  {
    "id": "630008485",
    "name": "HEALTHNET HOME CARE SERVICES, INC.",
    "npi": "1891997466",
    "hcaiId": "406196877",
    "businessName": "HEALTHNET HOME CARE SERVICES, INC.",
    "contactEmail": "HEALTHNETCARE@SBCGLOBAL.NET",
    "categoryName": "HOME HEALTH AGENCY",
    "categoryCode": "HHA",
    "licenseStatus": "ACTIVE",
    "inService": true,
    "licenseNumber": "550000336",
    "licenseEffectiveDate": "11/01/2025",
    "licenseExpirationDate": "10/31/2026",
    "dataDate": "10/18/2025",
    "capacity": 0,
    "address": "2025 N GLENOAKS BLVD, SUITE 203",
    "city": "BURBANK",
    "zip": "91504",
    "county": "LOS ANGELES",
    "phone": "(818) 846-8483",
    "lat": 34.19721,
    "lng": -118.325799
  },
  {
    "id": "630014339",
    "name": "HEART 2 HEART HOSPICE CARE, INC.",
    "npi": null,
    "hcaiId": "406198211",
    "businessName": "HEART 2 HEART HOSPICE CARE, INC.",
    "contactEmail": "H2HHOSPICE@GMAIL.COM",
    "categoryName": "HOSPICE",
    "categoryCode": "HOSPICE",
    "licenseStatus": "ACTIVE",
    "inService": true,
    "licenseNumber": "550002666",
    "licenseEffectiveDate": "04/24/2024",
    "licenseExpirationDate": "04/23/2026",
    "dataDate": "10/18/2025",
    "capacity": 0,
    "address": "2908 N NAOMI ST, SUITE A",
    "city": "BURBANK",
    "zip": "91504",
    "county": "LOS ANGELES",
    "phone": "(818) 972-1111",
    "lat": 34.20451926,
    "lng": -118.3399326
  },
  {
    "id": "630025988",
    "name": "HOME HEALTH CARE PROS INC",
    "npi": null,
    "hcaiId": null,
    "businessName": "HOME HEALTH CARE PROS INC",
    "contactEmail": "HHCAREPROS@GMAIL.COM",
    "categoryName": "HOME HEALTH AGENCY",
    "categoryCode": "HHA",
    "licenseStatus": "ACTIVE",
    "inService": true,
    "licenseNumber": "550009202",
    "licenseEffectiveDate": "05/31/2025",
    "licenseExpirationDate": "05/30/2026",
    "dataDate": "10/18/2025",
    "capacity": 0,
    "address": "444 IRVING DR, SUITE 203B",
    "city": "BURBANK",
    "zip": "91504",
    "county": "LOS ANGELES",
    "phone": "(818) 284-8381",
    "lat": 34.200252,
    "lng": -118.3272705
  },
  {
    "id": "630022241",
    "name": "INTEGRITY HOSPICE INC",
    "npi": null,
    "hcaiId": "406198169",
    "businessName": "INTEGRITY HOSPICE INC",
    "contactEmail": "INTEGRITYHOSPICECARE123@GMAIL.COM",
    "categoryName": "HOSPICE",
    "categoryCode": "HOSPICE",
    "licenseStatus": "ACTIVE",
    "inService": true,
    "licenseNumber": "550007582",
    "licenseEffectiveDate": "12/18/2023",
    "licenseExpirationDate": "12/17/2025",
    "dataDate": "10/18/2025",
    "capacity": 0,
    "address": "3017 N SAN FERNANDO BLVD, SUITE #C",
    "city": "BURBANK",
    "zip": "91504",
    "county": "LOS ANGELES",
    "phone": "(818) 636-1064",
    "lat": 34.20147047,
    "lng": -118.3432679
  },
  {
    "id": "630024714",
    "name": "INTERNAL LIFE HOME HEALTH, INC.",
    "npi": null,
    "hcaiId": null,
    "businessName": "INTERNAL LIFE HOME HEALTH, INC.",
    "contactEmail": "INFO@INTERNALLIFEHOMEHEALTH.COM",
    "categoryName": "HOME HEALTH AGENCY",
    "categoryCode": "HHA",
    "licenseStatus": "ACTIVE",
    "inService": true,
    "licenseNumber": "550008303",
    "licenseEffectiveDate": "01/05/2025",
    "licenseExpirationDate": "01/04/2026",
    "dataDate": "10/18/2025",
    "capacity": 0,
    "address": "7590 N GLENOAKS BLVD, SUITE 20",
    "city": "BURBANK",
    "zip": "91504",
    "county": "LOS ANGELES",
    "phone": "(818) 330-0506",
    "lat": 34.208946,
    "lng": -118.343763
  },
  {
    "id": "630021504",
    "name": "KLN HOME HEALTH SERVICES, INC.",
    "npi": null,
    "hcaiId": "406193816",
    "businessName": "KLN HOME HEALTH SERVICES, INC.",
    "contactEmail": "KLNHHSERVICES@GMAIL.COM",
    "categoryName": "HOME HEALTH AGENCY",
    "categoryCode": "HHA",
    "licenseStatus": "ACTIVE",
    "inService": true,
    "licenseNumber": "550007228",
    "licenseEffectiveDate": "11/18/2024",
    "licenseExpirationDate": "11/17/2025",
    "dataDate": "10/18/2025",
    "capacity": 0,
    "address": "2116 N GLENOAKS BLVD, SUITE 1",
    "city": "BURBANK",
    "zip": "91504",
    "county": "LOS ANGELES",
    "phone": "(818) 562-7377",
    "lat": 34.198191,
    "lng": -118.326312
  },
  {
    "id": "630020493",
    "name": "LARCO HOSPICE CARE INC",
    "npi": null,
    "hcaiId": "406196758",
    "businessName": "LARCO HOSPICE CARE INC",
    "contactEmail": "LARCOCARE@GMAIL.COM",
    "categoryName": "HOSPICE",
    "categoryCode": "HOSPICE",
    "licenseStatus": "ACTIVE",
    "inService": true,
    "licenseNumber": "550006142",
    "licenseEffectiveDate": "05/20/2025",
    "licenseExpirationDate": "03/16/2027",
    "dataDate": "10/18/2025",
    "capacity": 0,
    "address": "1405 N SAN FERNANDO BLVD, SUITE 308",
    "city": "BURBANK",
    "zip": "91504",
    "county": "LOS ANGELES",
    "phone": "(747) 666-0061",
    "lat": 34.19021799,
    "lng": -118.321956
  },
  {
    "id": "980002449",
    "name": "LAVANDA HOME HEALTH CARE AGENCY, INC.",
    "npi": "1245321751",
    "hcaiId": "406197117",
    "businessName": "LAVANDA HOME HEALTH CARE AGENCY,  INC.",
    "contactEmail": "NATHANJULIAN@YAHOO.COM",
    "categoryName": "HOME HEALTH AGENCY",
    "categoryCode": "HHA",
    "licenseStatus": "ACTIVE",
    "inService": true,
    "licenseNumber": "980001555",
    "licenseEffectiveDate": "05/10/2025",
    "licenseExpirationDate": "05/09/2026",
    "dataDate": "10/18/2025",
    "capacity": 0,
    "address": "3033 N AVON ST, SUITE A",
    "city": "BURBANK",
    "zip": "91504",
    "county": "LOS ANGELES",
    "phone": "(818) 840-0003",
    "lat": 34.20565992,
    "lng": -118.3477084
  },
  {
    "id": "630027603",
    "name": "MAGNOLIA CARE CENTER, INC",
    "npi": null,
    "hcaiId": null,
    "businessName": "MAGNOLIA CARE CENTER, INC",
    "contactEmail": "MAGNOLIACARECENTER@YAHOO.COM",
    "categoryName": "CONGREGATE LIVING HEALTH FACILITY",
    "categoryCode": "CLHF",
    "licenseStatus": "ACTIVE",
    "inService": true,
    "licenseNumber": "550009723",
    "licenseEffectiveDate": "02/25/2025",
    "licenseExpirationDate": "08/24/2025",
    "dataDate": "10/18/2025",
    "capacity": 6,
    "address": "3017 N FREDERIC ST",
    "city": "BURBANK",
    "zip": "91504",
    "county": "LOS ANGELES",
    "phone": "(818) 717-7800",
    "lat": 34.207068,
    "lng": -118.338711
  },
  {
    "id": "630024959",
    "name": "MIRL HOME HEALTH CARE, INC.",
    "npi": null,
    "hcaiId": "406195978",
    "businessName": "MIRL HOME HEALTH CARE, INC.",
    "contactEmail": "MIRLHHC@GMAIL.COM",
    "categoryName": "HOME HEALTH AGENCY",
    "categoryCode": "HHA",
    "licenseStatus": "ACTIVE",
    "inService": true,
    "licenseNumber": "550008302",
    "licenseEffectiveDate": "12/02/2024",
    "licenseExpirationDate": "12/01/2025",
    "dataDate": "10/18/2025",
    "capacity": 0,
    "address": "7590 N GLENOAKS BLVD, SUITE 110",
    "city": "BURBANK",
    "zip": "91504",
    "county": "LOS ANGELES",
    "phone": "(747) 268-2945",
    "lat": 34.208946,
    "lng": -118.343763
  },
  {
    "id": "630017059",
    "name": "MLHH, INC.",
    "npi": "1407207178",
    "hcaiId": "406191398",
    "businessName": "MLHH, INC.",
    "contactEmail": "MLHHINC@GMAIL.COM",
    "categoryName": "HOME HEALTH AGENCY",
    "categoryCode": "HHA",
    "licenseStatus": "ACTIVE",
    "inService": true,
    "licenseNumber": "550004391",
    "licenseEffectiveDate": "09/18/2025",
    "licenseExpirationDate": "09/17/2026",
    "dataDate": "10/18/2025",
    "capacity": 0,
    "address": "9795 CABRINI DR, SUITE 204",
    "city": "BURBANK",
    "zip": "91504",
    "county": "LOS ANGELES",
    "phone": "(424) 653-9988",
    "lat": 34.209729,
    "lng": -118.3439745
  },
  {
    "id": "630018303",
    "name": "MONCH HOME HEALTH, INC",
    "npi": null,
    "hcaiId": "406191996",
    "businessName": "MONCH HOME HEALTH, INC",
    "contactEmail": "INFO@MONCHHOMEHEALTH.COM",
    "categoryName": "HOME HEALTH AGENCY",
    "categoryCode": "HHA",
    "licenseStatus": "ACTIVE",
    "inService": true,
    "licenseNumber": "550004893",
    "licenseEffectiveDate": "07/12/2025",
    "licenseExpirationDate": "07/11/2026",
    "dataDate": "10/18/2025",
    "capacity": 0,
    "address": "7590 N GLENOAKS BLVD, SUITE 21",
    "city": "BURBANK",
    "zip": "91504",
    "county": "LOS ANGELES",
    "phone": "(818) 616-3533",
    "lat": 34.208946,
    "lng": -118.343763
  },
  {
    "id": "630025546",
    "name": "MULTI GROUP HOME CARE, INC.",
    "npi": null,
    "hcaiId": null,
    "businessName": "MULTI GROUP HOME CARE, INC.",
    "contactEmail": "MULTIGROUPHC@GMAIL.COM",
    "categoryName": "HOME HEALTH AGENCY",
    "categoryCode": "HHA",
    "licenseStatus": "ACTIVE",
    "inService": true,
    "licenseNumber": "550008569",
    "licenseEffectiveDate": "05/24/2025",
    "licenseExpirationDate": "05/23/2026",
    "dataDate": "10/18/2025",
    "capacity": 0,
    "address": "2812 N SAN FERNANDO BLVD, SUITE A",
    "city": "BURBANK",
    "zip": "91504",
    "county": "LOS ANGELES",
    "phone": "(747) 474-0707",
    "lat": 34.199829,
    "lng": -118.3394835
  },
  {
    "id": "980002547",
    "name": "NOVA SKILLED HOME HEALTH, INC.",
    "npi": "1154362093",
    "hcaiId": "406196990",
    "businessName": "NOVA SKILLED HOME HEALTH, INC.",
    "contactEmail": "JSASSOVER@AMERICANUNITEDHOMECARE.COM",
    "categoryName": "HOME HEALTH AGENCY",
    "categoryCode": "HHA",
    "licenseStatus": "ACTIVE",
    "inService": true,
    "licenseNumber": "980001636",
    "licenseEffectiveDate": "06/25/2022",
    "licenseExpirationDate": "06/24/2023",
    "dataDate": "10/18/2025",
    "capacity": 0,
    "address": "3300 N SAN FERNANDO BLVD, SUITE 201",
    "city": "BURBANK",
    "zip": "91504",
    "county": "LOS ANGELES",
    "phone": "(818) 377-6202",
    "lat": 34.205022,
    "lng": -118.3467915
  },
  {
    "id": "630014012",
    "name": "PINNACLE HOME HEALTH CARE INC.",
    "npi": "1205186210",
    "hcaiId": "406197973",
    "businessName": "PINNACLE HOME HEALTH CARE INC.",
    "contactEmail": "PINNACLEHHCI@GMAIL.COM",
    "categoryName": "HOME HEALTH AGENCY",
    "categoryCode": "HHA",
    "licenseStatus": "ACTIVE",
    "inService": true,
    "licenseNumber": "550002506",
    "licenseEffectiveDate": "03/09/2025",
    "licenseExpirationDate": "03/08/2026",
    "dataDate": "10/18/2025",
    "capacity": 0,
    "address": "2829 N GLENOAKS BLVD, SUITE 201",
    "city": "BURBANK",
    "zip": "91504",
    "county": "LOS ANGELES",
    "phone": "(818) 505-3175",
    "lat": 34.203222,
    "lng": -118.335249
  },
  {
    "id": "630014280",
    "name": "PRIDE HOSPICE CARE, INC.",
    "npi": "1447691282",
    "hcaiId": "406197877",
    "businessName": "PRIDE HOSPICE CARE, INC.",
    "contactEmail": "PRIDEHOSPICECARE@GMAIL.COM",
    "categoryName": "HOSPICE",
    "categoryCode": "HOSPICE",
    "licenseStatus": "ACTIVE",
    "inService": true,
    "licenseNumber": "550002547",
    "licenseEffectiveDate": "01/15/2024",
    "licenseExpirationDate": "01/14/2026",
    "dataDate": "10/18/2025",
    "capacity": 0,
    "address": "3033 N AVON ST, SUITE B",
    "city": "BURBANK",
    "zip": "91504",
    "county": "LOS ANGELES",
    "phone": "(818) 335-5876",
    "lat": 34.20565992,
    "lng": -118.3477084
  },
  {
    "id": "980002229",
    "name": "PRISTINE HOME HEALTH INC",
    "npi": "1780007096",
    "hcaiId": "406196718",
    "businessName": "PRISTINE HOME HEALTH INC",
    "contactEmail": "J.MORALDE@PRISTINEHOMEHEALTH.COM",
    "categoryName": "HOME HEALTH AGENCY",
    "categoryCode": "HHA",
    "licenseStatus": "ACTIVE",
    "inService": true,
    "licenseNumber": "980001347",
    "licenseEffectiveDate": "12/17/2024",
    "licenseExpirationDate": "12/16/2025",
    "dataDate": "10/18/2025",
    "capacity": 0,
    "address": "1419 N. SAN FERNANDO BLVD., SUITE 100",
    "city": "BURBANK",
    "zip": "91504",
    "county": "LOS ANGELES",
    "phone": "(818) 582-4110",
    "lat": 34.190541,
    "lng": -118.322451
  },
  {
    "id": "630015579",
    "name": "PRISTINE HOSPICE CARE",
    "npi": "1770998940",
    "hcaiId": "406198229",
    "businessName": "TRINITY HEALTH SERVICES",
    "contactEmail": "INFO@PRISTINEHOSPICECARE.COM",
    "categoryName": "HOSPICE",
    "categoryCode": "HOSPICE",
    "licenseStatus": "ACTIVE",
    "inService": true,
    "licenseNumber": "550003489",
    "licenseEffectiveDate": "04/27/2024",
    "licenseExpirationDate": "04/26/2026",
    "dataDate": "10/18/2025",
    "capacity": 0,
    "address": "1419 N. SAN FERNANDO BLVD., SUITE 230",
    "city": "BURBANK",
    "zip": "91504",
    "county": "LOS ANGELES",
    "phone": "(818) 422-8610",
    "lat": 34.190532,
    "lng": -118.3224465
  },
  {
    "id": "630021781",
    "name": "PROLIFIC HOME HEALTH",
    "npi": null,
    "hcaiId": "406193272",
    "businessName": "PROLIFIC HOME HEALTH",
    "contactEmail": "SRBUIARMSTRONG@GMAIL.COM",
    "categoryName": "HOME HEALTH AGENCY",
    "categoryCode": "HHA",
    "licenseStatus": "ACTIVE",
    "inService": true,
    "licenseNumber": "550006805",
    "licenseEffectiveDate": "09/10/2024",
    "licenseExpirationDate": "09/09/2025",
    "dataDate": "10/18/2025",
    "capacity": 0,
    "address": "2116 N GLENOAKS BLVD, SUITE 2",
    "city": "BURBANK",
    "zip": "91504",
    "county": "LOS ANGELES",
    "phone": "(818) 433-7432",
    "lat": 34.198191,
    "lng": -118.326312
  },
  {
    "id": "630027658",
    "name": "REFLEX HOME HEALTH, INC.",
    "npi": null,
    "hcaiId": null,
    "businessName": "REFLEX HOME HEALTH, INC.",
    "contactEmail": "REFLEXHOMEHEALTH@GMAIL.COM",
    "categoryName": "HOME HEALTH AGENCY",
    "categoryCode": "HHA",
    "licenseStatus": "ACTIVE",
    "inService": true,
    "licenseNumber": "550009825",
    "licenseEffectiveDate": "11/08/2025",
    "licenseExpirationDate": "05/07/2026",
    "dataDate": "10/18/2025",
    "capacity": 0,
    "address": "7590 N GLENOAKS BLVD, SUITE 24",
    "city": "BURBANK",
    "zip": "91504",
    "county": "LOS ANGELES",
    "phone": "(213) 444-3009",
    "lat": 34.208822,
    "lng": -118.343197
  },
  {
    "id": "630027949",
    "name": "RR HOME HEALTH INC",
    "npi": null,
    "hcaiId": null,
    "businessName": "RR HOME HEALTH INC",
    "contactEmail": null,
    "categoryName": "HOME HEALTH AGENCY",
    "categoryCode": "HHA",
    "licenseStatus": "ACTIVE",
    "inService": true,
    "licenseNumber": "550009800",
    "licenseEffectiveDate": "11/14/2025",
    "licenseExpirationDate": "05/13/2026",
    "dataDate": "10/18/2025",
    "capacity": 0,
    "address": "2829 N GLENOAKS BLVD, SUITE 205",
    "city": "BURBANK",
    "zip": "91504",
    "county": "LOS ANGELES",
    "phone": null,
    "lat": 34.203235,
    "lng": -118.335221
  },
  {
    "id": "630024884",
    "name": "SHARP CORNER HOME HEALTH CARE, INC.",
    "npi": null,
    "hcaiId": null,
    "businessName": "SHARP CORNER HOME HEALTH CARE, INC.",
    "contactEmail": "SHARPCORNERHOMEHEALTHCARE@GMAIL.COM",
    "categoryName": "HOME HEALTH AGENCY",
    "categoryCode": "HHA",
    "licenseStatus": "ACTIVE",
    "inService": true,
    "licenseNumber": "550008351",
    "licenseEffectiveDate": "01/10/2025",
    "licenseExpirationDate": "01/09/2026",
    "dataDate": "10/18/2025",
    "capacity": 0,
    "address": "7590 N GLENOAKS BLVD, SUITE 109",
    "city": "BURBANK",
    "zip": "91504",
    "county": "LOS ANGELES",
    "phone": "(747) 777-4385",
    "lat": 34.208946,
    "lng": -118.343763
  },
  {
    "id": "630024142",
    "name": "SOGDIANA HOME HEALTH, INC.",
    "npi": null,
    "hcaiId": "406195569",
    "businessName": "SOGDIANA HOME HEALTH, INC.",
    "contactEmail": "SOGDIANAHH@YAHOO.COM",
    "categoryName": "HOME HEALTH AGENCY",
    "categoryCode": "HHA",
    "licenseStatus": "ACTIVE",
    "inService": true,
    "licenseNumber": "550008188",
    "licenseEffectiveDate": "10/05/2025",
    "licenseExpirationDate": "10/04/2026",
    "dataDate": "10/18/2025",
    "capacity": 0,
    "address": "444 IRVING DRIVE, SUITE 203A",
    "city": "BURBANK",
    "zip": "91504",
    "county": "LOS ANGELES",
    "phone": "(818) 453-2324",
    "lat": 34.2002531,
    "lng": -118.3272835
  },
  {
    "id": "630019559",
    "name": "ST. THERESA  HOME HEALTH, INC.",
    "npi": null,
    "hcaiId": "406195274",
    "businessName": "ST. THERESA HOME HEALTH, INC.",
    "contactEmail": "V.AVETISYAN@GMAIL.COM",
    "categoryName": "HOME HEALTH AGENCY",
    "categoryCode": "HHA",
    "licenseStatus": "ACTIVE",
    "inService": true,
    "licenseNumber": "550006626",
    "licenseEffectiveDate": "01/07/2025",
    "licenseExpirationDate": "01/06/2026",
    "dataDate": "10/18/2025",
    "capacity": 0,
    "address": "2829 N GLENOAKS BLVD, SUITE 204",
    "city": "BURBANK",
    "zip": "91504",
    "county": "LOS ANGELES",
    "phone": "(818) 405-8080",
    "lat": 34.20323869,
    "lng": -118.335242
  },
  {
    "id": "630018182",
    "name": "TRUSTING CARE HOME HEALTH SERVICES, INC.",
    "npi": "1578033692",
    "hcaiId": "406191686",
    "businessName": "TRUSTING CARE HOME HEALTH SERVICES, INC.",
    "contactEmail": "TRUSTINGHH@GMAIL.COM",
    "categoryName": "HOME HEALTH AGENCY",
    "categoryCode": "HHA",
    "licenseStatus": "ACTIVE",
    "inService": true,
    "licenseNumber": "550004714",
    "licenseEffectiveDate": "04/17/2025",
    "licenseExpirationDate": "04/16/2026",
    "dataDate": "10/18/2025",
    "capacity": 0,
    "address": "7590 N GLENOAKS BLVD, SUITE 105",
    "city": "BURBANK",
    "zip": "91504",
    "county": "LOS ANGELES",
    "phone": "(818) 330-5511",
    "lat": 34.208946,
    "lng": -118.343763
  },
  {
    "id": "630014933",
    "name": "UNITED HOSPICE CARE",
    "npi": null,
    "hcaiId": "406198103",
    "businessName": "CANNETO HOSPICE INC.",
    "contactEmail": "UNITEDHOSPICECAREINC@GMAIL.COM",
    "categoryName": "HOSPICE",
    "categoryCode": "HOSPICE",
    "licenseStatus": "ACTIVE",
    "inService": true,
    "licenseNumber": "550003272",
    "licenseEffectiveDate": "10/15/2025",
    "licenseExpirationDate": "10/14/2027",
    "dataDate": "10/18/2025",
    "capacity": 0,
    "address": "2834 N NAOMI ST, SUITE B",
    "city": "BURBANK",
    "zip": "91504",
    "county": "LOS ANGELES",
    "phone": "(626) 301-8700",
    "lat": 34.20342,
    "lng": -118.339659
  },
  {
    "id": "060002036",
    "name": "VENUS ADULT DAY HEALTH CARE CENTER",
    "npi": null,
    "hcaiId": null,
    "businessName": "VENUS ADULT DAY HEALTH CARE CENTER",
    "contactEmail": "VENUSADHC@GMAIL.COM",
    "categoryName": "ADULT DAY HEALTH CARE",
    "categoryCode": "ADHC",
    "licenseStatus": "ACTIVE",
    "inService": true,
    "licenseNumber": "060000810",
    "licenseEffectiveDate": "11/22/2024",
    "licenseExpirationDate": "11/21/2025",
    "dataDate": "10/18/2025",
    "capacity": 0,
    "address": "1634 N SAN FERNANDO BLVD",
    "city": "BURBANK",
    "zip": "91504",
    "county": "LOS ANGELES",
    "phone": "(818) 843-7872",
    "lat": 34.191975,
    "lng": -118.324724
  },
  {
    "id": "630019447",
    "name": "VITAL NURSING CARE",
    "npi": null,
    "hcaiId": "406192524",
    "businessName": "VITAL NURSING CARE",
    "contactEmail": "VITALNCARE@GMAIL.COM",
    "categoryName": "HOME HEALTH AGENCY",
    "categoryCode": "HHA",
    "licenseStatus": "ACTIVE",
    "inService": true,
    "licenseNumber": "550005492",
    "licenseEffectiveDate": "06/02/2025",
    "licenseExpirationDate": "06/01/2026",
    "dataDate": "10/18/2025",
    "capacity": 0,
    "address": "3017 N SAN FERNANDO BLVD, SUITE A",
    "city": "BURBANK",
    "zip": "91504",
    "county": "LOS ANGELES",
    "phone": "(888) 404-0494",
    "lat": 34.20147047,
    "lng": -118.3432679
  }
]