[
  {
    "id": "630021705",
    "name": "A AND S HOSPICE PALLIATIVE CARE, INC.",
    "npi": null,
    "hcaiId": "406193902",
    "businessName": "A AND S HOSPICE PALLIATIVE CARE, INC.",
    "contactEmail": "AANDSHOSPICE@GMAIL.COM",
    "categoryName": "HOSPICE",
    "categoryCode": "HOSPICE",
    "licenseStatus": "ACTIVE",
    "inService": true,
    "licenseNumber": "550006966",
    "licenseEffectiveDate": "10/11/2025",
    "licenseExpirationDate": "10/10/2027",
    "dataDate": "10/18/2025",
    "capacity": 0,
    "address": "1425 W BURBANK BLVD, SUITE J",
    "city": "BURBANK",
    "zip": "91506",
    "county": "LOS ANGELES",
    "phone": "(818) 538-9083",
    "lat": 34.182288,
    "lng": -118.3277239
  },
  {
    "id": "920000077",
    "name": "ALAMEDA CARE CENTER",
    "npi": "1316019482",
    "hcaiId": "206190090",
    "businessName": "ARTESIA HEALTHCARE, INC.",
    "contactEmail": "FAC52ADMIN@LONGWOODMGMT.COM",
    "categoryName": "SKILLED NURSING FACILITY",
    "categoryCode": "SNF",
    "licenseStatus": "ACTIVE",
    "inService": true,
    "licenseNumber": "920000010",
    "licenseEffectiveDate": "11/01/2025",
    "licenseExpirationDate": "10/31/2026",
    "dataDate": "10/18/2025",
    "capacity": 89,
    "address": "925 W ALAMEDA AVE",
    "city": "BURBANK",
    "zip": "91506",
    "county": "LOS ANGELES",
    "phone": "(818) 843-1771",
    "lat": 34.163847,
    "lng": -118.3130235
  },
  {
    "id": "630021617",
    "name": "ALAMEDA HOME HEALTH CARE INC",
    "npi": null,
    "hcaiId": "406193596",
    "businessName": "ALAMEDA HOME CARE INC",
    "contactEmail": "ALAMEDAHHS@GMAIL.COM",
    "categoryName": "HOME HEALTH AGENCY",
    "categoryCode": "HHA",
    "licenseStatus": "ACTIVE",
    "inService": true,
    "licenseNumber": "550006896",
    "licenseEffectiveDate": "10/04/2025",
    "licenseExpirationDate": "10/03/2026",
    "dataDate": "10/18/2025",
    "capacity": 0,
    "address": "639 S GLENWOOD PL, UNIT 119",
    "city": "BURBANK",
    "zip": "91506",
    "county": "LOS ANGELES",
    "phone": "(820) 600-9800",
    "lat": 34.165341,
    "lng": -118.314144
  },
  {
    "id": "630020732",
    "name": "ALIVE HOSPICE CARE, INC.",
    "npi": null,
    "hcaiId": "406194958",
    "businessName": "ALIVE HOSPICE CARE, INC",
    "contactEmail": "ALIVEHOSPICEINFO@GMAIL.COM",
    "categoryName": "HOSPICE",
    "categoryCode": "HOSPICE",
    "licenseStatus": "ACTIVE",
    "inService": true,
    "licenseNumber": "550007090",
    "licenseEffectiveDate": "10/28/2023",
    "licenseExpirationDate": "10/27/2025",
    "dataDate": "10/18/2025",
    "capacity": 0,
    "address": "712 S MAIN ST, SUITE A",
    "city": "BURBANK",
    "zip": "91506",
    "county": "LOS ANGELES",
    "phone": "(951) 522-3842",
    "lat": 34.16643,
    "lng": -118.3127355
  },
  {
    "id": "630021861",
    "name": "ALL TOGETHER HOME HEALTH CARE, INC.",
    "npi": null,
    "hcaiId": "406195346",
    "businessName": "ALL TOGETHER HOME HEALTH CARE, INC.",
    "contactEmail": "ALLTOGETHERHHC@GMAIL.COM",
    "categoryName": "HOME HEALTH AGENCY",
    "categoryCode": "HHA",
    "licenseStatus": "ACTIVE",
    "inService": true,
    "licenseNumber": "550007794",
    "licenseEffectiveDate": "01/21/2025",
    "licenseExpirationDate": "01/20/2026",
    "dataDate": "10/18/2025",
    "capacity": 0,
    "address": "1114 W MAGNOLIA BLVD, UNIT I",
    "city": "BURBANK",
    "zip": "91506",
    "county": "LOS ANGELES",
    "phone": "(818) 330-3773",
    "lat": 34.1762902,
    "lng": -118.3210209
  },
  {
    "id": "630018586",
    "name": "ARKA HOME HEALTH CARE, INC.",
    "npi": null,
    "hcaiId": "406191788",
    "businessName": "ARKA HOME HEALTH CARE, INC.",
    "contactEmail": "ARKAHOMEHEALTH@GMAIL.COM",
    "categoryName": "HOME HEALTH AGENCY",
    "categoryCode": "HHA",
    "licenseStatus": "ACTIVE",
    "inService": true,
    "licenseNumber": "550004923",
    "licenseEffectiveDate": "08/19/2025",
    "licenseExpirationDate": "08/18/2026",
    "dataDate": "10/18/2025",
    "capacity": 0,
    "address": "1714 W MAGNOLIA BLVD, SUITE 201",
    "city": "BURBANK",
    "zip": "91506",
    "county": "LOS ANGELES",
    "phone": "(818) 739-0038",
    "lat": 34.174332,
    "lng": -118.327023
  },
  {
    "id": "630021616",
    "name": "ARROWHEAD HOME INC",
    "npi": null,
    "hcaiId": "406193196",
    "businessName": "ARROWHEAD HOME INC",
    "contactEmail": "ARROWHEADHHC@GMAIL.COM",
    "categoryName": "HOME HEALTH AGENCY",
    "categoryCode": "HHA",
    "licenseStatus": "ACTIVE",
    "inService": true,
    "licenseNumber": "550006784",
    "licenseEffectiveDate": "09/01/2025",
    "licenseExpirationDate": "08/31/2026",
    "dataDate": "10/18/2025",
    "capacity": 0,
    "address": "639 S GLENWOOD PL, UNIT 118",
    "city": "BURBANK",
    "zip": "91506",
    "county": "LOS ANGELES",
    "phone": "(818) 280-8040",
    "lat": 34.165341,
    "lng": -118.314144
  },
  {
    "id": "630019989",
    "name": "ASPIRE LA HOME HEALTH CARE, INC.",
    "npi": "1427684331",
    "hcaiId": "406192854",
    "businessName": "ASPIRE LA HOME HEALTH CARE, INC.",
    "contactEmail": "ASPIRLAHOMEHEALTH@GMAIL.COM",
    "categoryName": "HOME HEALTH AGENCY",
    "categoryCode": "HHA",
    "licenseStatus": "ACTIVE",
    "inService": true,
    "licenseNumber": "550005653",
    "licenseEffectiveDate": "08/04/2025",
    "licenseExpirationDate": "08/03/2026",
    "dataDate": "10/18/2025",
    "capacity": 0,
    "address": "2115 W MAGNOLIA BLVD, UNIT C",
    "city": "BURBANK",
    "zip": "91506",
    "county": "LOS ANGELES",
    "phone": "(818) 396-5578",
    "lat": 34.17337799,
    "lng": -118.331375
  },
  {
    "id": "630020774",
    "name": "AVIOR HOSPICE CARE, INC",
    "npi": null,
    "hcaiId": "406193546",
    "businessName": "AVIOR HOSPICE CARE, INC",
    "contactEmail": "AVIOR.HOSPICE@GMAIL.COM",
    "categoryName": "HOSPICE",
    "categoryCode": "HOSPICE",
    "licenseStatus": "ACTIVE",
    "inService": true,
    "licenseNumber": "550006618",
    "licenseEffectiveDate": "08/06/2025",
    "licenseExpirationDate": "08/05/2027",
    "dataDate": "10/18/2025",
    "capacity": 0,
    "address": "927 W OLIVE AVE, SUITE C",
    "city": "BURBANK",
    "zip": "91506",
    "county": "LOS ANGELES",
    "phone": "(747) 477-1571",
    "lat": 34.172955,
    "lng": -118.3175145
  },
  {
    "id": "630021100",
    "name": "BEK HOSPICE CARE",
    "npi": null,
    "hcaiId": "406194924",
    "businessName": "BEK HOSPICE CARE",
    "contactEmail": "BEKHOSPICECARE@GMAIL.COM",
    "categoryName": "HOSPICE",
    "categoryCode": "HOSPICE",
    "licenseStatus": "ACTIVE",
    "inService": true,
    "licenseNumber": "550007069",
    "licenseEffectiveDate": "10/29/2021",
    "licenseExpirationDate": "10/28/2023",
    "dataDate": "10/18/2025",
    "capacity": 0,
    "address": "1827 W VERDUGO AVE, SUITE 209",
    "city": "BURBANK",
    "zip": "91506",
    "county": "LOS ANGELES",
    "phone": "(747) 301-3425",
    "lat": 34.16737097,
    "lng": -118.3248766
  },
  {
    "id": "630017744",
    "name": "BENEVOLENT HOME HEALTH, INC.",
    "npi": "1588178867",
    "hcaiId": "406191654",
    "businessName": "BENEVOLENT HOME HEALTH, INC.",
    "contactEmail": "BENEVOLENTHOMEHEALTHINC@GMAIL.COM",
    "categoryName": "HOME HEALTH AGENCY",
    "categoryCode": "HHA",
    "licenseStatus": "ACTIVE",
    "inService": true,
    "licenseNumber": "550004652",
    "licenseEffectiveDate": "04/27/2025",
    "licenseExpirationDate": "04/26/2026",
    "dataDate": "10/18/2025",
    "capacity": 0,
    "address": "2405 W BURBANK BLVD",
    "city": "BURBANK",
    "zip": "91506",
    "county": "LOS ANGELES",
    "phone": "(818) 302-7575",
    "lat": 34.17901092,
    "lng": -118.3374941
  },
  {
    "id": "630011362",
    "name": "BONUM HOME HEALTH SERVICES",
    "npi": "1275739047",
    "hcaiId": "406197208",
    "businessName": "PREMIER NURSING, INC.",
    "contactEmail": "INFO@BONUMHOMEHEALTH.COM",
    "categoryName": "HOME HEALTH AGENCY",
    "categoryCode": "HHA",
    "licenseStatus": "ACTIVE",
    "inService": true,
    "licenseNumber": "550000914",
    "licenseEffectiveDate": "11/08/2025",
    "licenseExpirationDate": "11/07/2026",
    "dataDate": "10/18/2025",
    "capacity": 0,
    "address": "2000 W MAGNOLIA BLVD, SUITE 206",
    "city": "BURBANK",
    "zip": "91506",
    "county": "LOS ANGELES",
    "phone": "(818) 556-3711",
    "lat": 34.173342,
    "lng": -118.32966
  },
  {
    "id": "630012986",
    "name": "BONUM HOSPICE SERVICES",
    "npi": null,
    "hcaiId": "406197574",
    "businessName": "PREMIER CARE AT HOME, INC.",
    "contactEmail": "INFO@BONUMHOSPICE.COM",
    "categoryName": "HOSPICE",
    "categoryCode": "HOSPICE",
    "licenseStatus": "ACTIVE",
    "inService": true,
    "licenseNumber": "550001625",
    "licenseEffectiveDate": "06/10/2025",
    "licenseExpirationDate": "06/09/2027",
    "dataDate": "10/18/2025",
    "capacity": 0,
    "address": "2000 W MAGNOLIA BLVD, SUITE 208",
    "city": "BURBANK",
    "zip": "91506",
    "county": "LOS ANGELES",
    "phone": "(818) 736-5050",
    "lat": 34.173342,
    "lng": -118.32966
  },
  {
    "id": "630026548",
    "name": "BRIGHT BLUE HOME HEALTH CARE INC",
    "npi": null,
    "hcaiId": null,
    "businessName": "BRIGHT BLUE HOME HEALTH CARE INC",
    "contactEmail": "BRIGHTBLUEHOMEHEALTHCARE@YAHOO.COM",
    "categoryName": "HOME HEALTH AGENCY",
    "categoryCode": "HHA",
    "licenseStatus": "ACTIVE",
    "inService": true,
    "licenseNumber": "550009016",
    "licenseEffectiveDate": "03/13/2025",
    "licenseExpirationDate": "03/12/2026",
    "dataDate": "10/18/2025",
    "capacity": 0,
    "address": "1907 W BURBANK BLVD, SUITE A",
    "city": "BURBANK",
    "zip": "91506",
    "county": "LOS ANGELES",
    "phone": "(747) 244-8816",
    "lat": 34.181091,
    "lng": -118.3319775
  },
  {
    "id": "630019839",
    "name": "BRIGHT BLUE HOSPICE, INC",
    "npi": "1912539065",
    "hcaiId": "406192784",
    "businessName": "BRIGHT BLUE HOSPICE, INC",
    "contactEmail": "BRIGHTBLUEHOSPICE@YAHOO.COM",
    "categoryName": "HOSPICE",
    "categoryCode": "HOSPICE",
    "licenseStatus": "ACTIVE",
    "inService": true,
    "licenseNumber": "550005570",
    "licenseEffectiveDate": "07/02/2024",
    "licenseExpirationDate": "07/01/2026",
    "dataDate": "10/18/2025",
    "capacity": 0,
    "address": "1907 W BURBANK BLVD, SUITE B",
    "city": "BURBANK",
    "zip": "91506",
    "county": "LOS ANGELES",
    "phone": "(818) 859-7130",
    "lat": 34.181091,
    "lng": -118.3319775
  },
  {
    "id": "630015964",
    "name": "BUENA VISTA SURGERY CENTER MEDICAL GROUP, INC.",
    "npi": "1013217769",
    "hcaiId": null,
    "businessName": null,
    "contactEmail": null,
    "categoryName": "SURGICAL CLINIC",
    "categoryCode": "ASC",
    "licenseStatus": null,
    "inService": null,
    "licenseNumber": null,
    "licenseEffectiveDate": null,
    "licenseExpirationDate": null,
    "dataDate": "10/18/2025",
    "capacity": 0,
    "address": "2301 W. ALAMEDA",
    "city": "BURBANK",
    "zip": "91506",
    "county": "LOS ANGELES",
    "phone": "(818) 848-0590",
    "lat": 34.159122,
    "lng": -118.326357
  },
  {
    "id": "630021288",
    "name": "BURBANK CITY HOSPICE, INC.",
    "npi": null,
    "hcaiId": "406195163",
    "businessName": "BURBANK CITY HOSPICE, INC.",
    "contactEmail": "BURBANKCITYHOPICE@GMAIL.COM",
    "categoryName": "HOSPICE",
    "categoryCode": "HOSPICE",
    "licenseStatus": "ACTIVE",
    "inService": true,
    "licenseNumber": "550007463",
    "licenseEffectiveDate": "12/15/2023",
    "licenseExpirationDate": "12/14/2025",
    "dataDate": "10/18/2025",
    "capacity": 0,
    "address": "2000 W MAGNOLIA BLVD, SUITE 207",
    "city": "BURBANK",
    "zip": "91506",
    "county": "LOS ANGELES",
    "phone": "(747) 217-2174",
    "lat": 34.173342,
    "lng": -118.32966
  },
  {
    "id": "920000071",
    "name": "BURBANK HEALTHCARE AND REHABILITATION CENTER",
    "npi": "1518036060",
    "hcaiId": "206190083",
    "businessName": "BURBANK HEALTHCARE LLC",
    "contactEmail": "FAC53ADMIN@LONGWOODMGMT.COM",
    "categoryName": "SKILLED NURSING FACILITY",
    "categoryCode": "SNF",
    "licenseStatus": "ACTIVE",
    "inService": true,
    "licenseNumber": "920000008",
    "licenseEffectiveDate": "11/01/2025",
    "licenseExpirationDate": "10/31/2026",
    "dataDate": "10/18/2025",
    "capacity": 183,
    "address": "1041 S MAIN ST",
    "city": "BURBANK",
    "zip": "91506",
    "county": "LOS ANGELES",
    "phone": "(818) 843-2330",
    "lat": 34.162587,
    "lng": -118.3117455
  },
  {
    "id": "630017466",
    "name": "BURBANK SPINE & PAIN SURGERY CENTER",
    "npi": "1114473972",
    "hcaiId": null,
    "businessName": null,
    "contactEmail": null,
    "categoryName": "SURGICAL CLINIC",
    "categoryCode": "ASC",
    "licenseStatus": null,
    "inService": null,
    "licenseNumber": null,
    "licenseEffectiveDate": null,
    "licenseExpirationDate": null,
    "dataDate": "10/18/2025",
    "capacity": 0,
    "address": "2211 W MAGNOLIA BLVD, SUITE 270",
    "city": "BURBANK",
    "zip": "91506",
    "county": "LOS ANGELES",
    "phone": "(818) 325-2088",
    "lat": 34.1730118,
    "lng": -118.331856
  },
  {
    "id": "960002827",
    "name": "BURBANK THERAPY CENTER",
    "npi": null,
    "hcaiId": "306196526",
    "businessName": "CUZNZ, LTD.",
    "contactEmail": "ADMIN@BURBANKTHERAPYCENTER.COM",
    "categoryName": "REHABILITATION CLINIC",
    "categoryCode": "REHABC/CORF",
    "licenseStatus": "ACTIVE",
    "inService": true,
    "licenseNumber": "960001410",
    "licenseEffectiveDate": "11/08/2025",
    "licenseExpirationDate": "11/07/2026",
    "dataDate": "10/18/2025",
    "capacity": 0,
    "address": "920 W ALAMEDA AVE",
    "city": "BURBANK",
    "zip": "91506",
    "county": "LOS ANGELES",
    "phone": "(818) 842-9277",
    "lat": 34.16352717,
    "lng": -118.3120303
  },
  {
    "id": "630021154",
    "name": "CAPITOL HOME HEALTH, INC.",
    "npi": null,
    "hcaiId": "406193422",
    "businessName": "CAPITOL HOME HEALTH, INC.",
    "contactEmail": "ADARBY@CAPITOLHHI.COM",
    "categoryName": "HOME HEALTH AGENCY",
    "categoryCode": "HHA",
    "licenseStatus": "ACTIVE",
    "inService": true,
    "licenseNumber": "550006903",
    "licenseEffectiveDate": "09/27/2025",
    "licenseExpirationDate": "09/26/2026",
    "dataDate": "10/18/2025",
    "capacity": 0,
    "address": "1612 W OLIVE AVE, SUITE 301",
    "city": "BURBANK",
    "zip": "91506",
    "county": "LOS ANGELES",
    "phone": "(818) 568-4042",
    "lat": 34.167476,
    "lng": -118.32242
  },
  {
    "id": "630022419",
    "name": "CAREPRO HOME HEALTH, INC.",
    "npi": null,
    "hcaiId": "406195823",
    "businessName": "CAREPRO HOME HEALTH, INC.",
    "contactEmail": "CAREPROHOMEHEALTH1@GMAIL.COM",
    "categoryName": "HOME HEALTH AGENCY",
    "categoryCode": "HHA",
    "licenseStatus": "ACTIVE",
    "inService": true,
    "licenseNumber": "550007862",
    "licenseEffectiveDate": "01/11/2025",
    "licenseExpirationDate": "01/10/2026",
    "dataDate": "10/18/2025",
    "capacity": 0,
    "address": "2001 W MAGNOLIA BLVD, SUITE E",
    "city": "BURBANK",
    "zip": "91506",
    "county": "LOS ANGELES",
    "phone": "(747) 737-3037",
    "lat": 34.173864,
    "lng": -118.329921
  },
  {
    "id": "630024656",
    "name": "CARING SOLUTIONS HOME HEALTH CARE",
    "npi": null,
    "hcaiId": null,
    "businessName": "CARING SOLUTIONS HOME HEALTH CARE",
    "contactEmail": "CARINGSHHC@GMAIL.COM",
    "categoryName": "HOME HEALTH AGENCY",
    "categoryCode": "HHA",
    "licenseStatus": "ACTIVE",
    "inService": true,
    "licenseNumber": "550008360",
    "licenseEffectiveDate": "01/04/2025",
    "licenseExpirationDate": "01/03/2026",
    "dataDate": "10/18/2025",
    "capacity": 0,
    "address": "639 S GLENWOOD PL, UNIT 112",
    "city": "BURBANK",
    "zip": "91506",
    "county": "LOS ANGELES",
    "phone": "(818) 433-4061",
    "lat": 34.165341,
    "lng": -118.314144
  },
  {
    "id": "630019560",
    "name": "COASTAL HOSPICE CARE",
    "npi": null,
    "hcaiId": "406194837",
    "businessName": "COASTAL HOSPICE CARE",
    "contactEmail": "COASTALHOSPICECARE@YAHOO.COM",
    "categoryName": "HOSPICE",
    "categoryCode": "HOSPICE",
    "licenseStatus": "ACTIVE",
    "inService": true,
    "licenseNumber": "550006854",
    "licenseEffectiveDate": "09/09/2023",
    "licenseExpirationDate": "09/08/2025",
    "dataDate": "10/18/2025",
    "capacity": 0,
    "address": "1010 W MAGNOLIA BLVD, SUITE 106",
    "city": "BURBANK",
    "zip": "91506",
    "county": "LOS ANGELES",
    "phone": "(818) 859-7258",
    "lat": 34.176681,
    "lng": -118.3198995
  },
  {
    "id": "630025861",
    "name": "DAH HOME CARE, INC.",
    "npi": null,
    "hcaiId": "406190332",
    "businessName": "DAH HOME CARE, INC.",
    "contactEmail": "DAHHOMECARE@GMAIL.COM",
    "categoryName": "HOME HEALTH AGENCY",
    "categoryCode": "HHA",
    "licenseStatus": "ACTIVE",
    "inService": true,
    "licenseNumber": "550009102",
    "licenseEffectiveDate": "03/18/2025",
    "licenseExpirationDate": "03/17/2026",
    "dataDate": "10/18/2025",
    "capacity": 0,
    "address": "639 S GLENWOOD PL, SUITE 117",
    "city": "BURBANK",
    "zip": "91506",
    "county": "LOS ANGELES",
    "phone": "(507) 808-8808",
    "lat": 34.165341,
    "lng": -118.314144
  },
  {
    "id": "060001953",
    "name": "DAILY DREAMS ADULT DAY HEALTH CARE CENTER",
    "npi": null,
    "hcaiId": null,
    "businessName": "LVGS CORPORATION",
    "contactEmail": "ADHCDAILYDREAMS@YAHOO.COM",
    "categoryName": "ADULT DAY HEALTH CARE",
    "categoryCode": "ADHC",
    "licenseStatus": "ACTIVE",
    "inService": true,
    "licenseNumber": "060000771",
    "licenseEffectiveDate": "11/21/2025",
    "licenseExpirationDate": "11/20/2026",
    "dataDate": "10/18/2025",
    "capacity": 0,
    "address": "1320 W MAGNOLIA BLVD",
    "city": "BURBANK",
    "zip": "91506",
    "county": "LOS ANGELES",
    "phone": "(818) 729-9191",
    "lat": 34.175493,
    "lng": -118.3232205
  },
  {
    "id": "630025340",
    "name": "DELICATE CARE HOME HEALTH",
    "npi": null,
    "hcaiId": "406197429",
    "businessName": "DELICATE CARE HOME HEALTH",
    "contactEmail": "DELICATECAREHH@GMAIL.COM",
    "categoryName": "HOME HEALTH AGENCY",
    "categoryCode": "HHA",
    "licenseStatus": "ACTIVE",
    "inService": true,
    "licenseNumber": "550008566",
    "licenseEffectiveDate": "05/25/2025",
    "licenseExpirationDate": "05/24/2026",
    "dataDate": "10/18/2025",
    "capacity": 0,
    "address": "2221 W OLIVE AVE, UNIT H",
    "city": "BURBANK",
    "zip": "91506",
    "county": "LOS ANGELES",
    "phone": "(800) 248-5503",
    "lat": 34.163253,
    "lng": -118.327716
  },
  {
    "id": "630026373",
    "name": "ELEGANCE HOME HEALTH INC",
    "npi": null,
    "hcaiId": null,
    "businessName": "ELEGANCE HOME HEALTH INC",
    "contactEmail": "ELEGANCE1HOMEHEALTH@GMAIL.COM",
    "categoryName": "HOME HEALTH AGENCY",
    "categoryCode": "HHA",
    "licenseStatus": "ACTIVE",
    "inService": true,
    "licenseNumber": "550009162",
    "licenseEffectiveDate": "12/01/2024",
    "licenseExpirationDate": "05/30/2025",
    "dataDate": "10/18/2025",
    "capacity": 0,
    "address": "2000 W MAGNOLIA BLVD, SUITE 202",
    "city": "BURBANK",
    "zip": "91506",
    "county": "LOS ANGELES",
    "phone": "(747) 895-5114",
    "lat": 34.173351,
    "lng": -118.329642
  },
  {
    "id": "630021389",
    "name": "ETS HOSPICE CARE, INC.",
    "npi": null,
    "hcaiId": "406194934",
    "businessName": "ETS HOSPICE CARE, INC.",
    "contactEmail": "ETSHOSPICECARE@GMAIL.COM",
    "categoryName": "HOSPICE",
    "categoryCode": "HOSPICE",
    "licenseStatus": "ACTIVE",
    "inService": true,
    "licenseNumber": "550007068",
    "licenseEffectiveDate": "08/19/2025",
    "licenseExpirationDate": "10/27/2025",
    "dataDate": "10/18/2025",
    "capacity": 0,
    "address": "1207 WEST MAGNOLIA BOULEVARD, SUITE D",
    "city": "BURBANK",
    "zip": "91506",
    "county": "LOS ANGELES",
    "phone": "(747) 282-0407",
    "lat": 34.17649673,
    "lng": -118.3219958
  },
  {
    "id": "630011882",
    "name": "FIRST SMILE HOME HEALTH CARE",
    "npi": "1306011507",
    "hcaiId": "406197336",
    "businessName": "FIRST SMILE HOME HEALTH CARE, INC",
    "contactEmail": "FIRSTSMILEHHC@LIVE.COM",
    "categoryName": "HOME HEALTH AGENCY",
    "categoryCode": "HHA",
    "licenseStatus": "ACTIVE",
    "inService": true,
    "licenseNumber": "550000974",
    "licenseEffectiveDate": "04/06/2025",
    "licenseExpirationDate": "04/05/2026",
    "dataDate": "10/18/2025",
    "capacity": 0,
    "address": "2314 W. BURBANK BLVD.",
    "city": "BURBANK",
    "zip": "91506",
    "county": "LOS ANGELES",
    "phone": "(818) 951-1565",
    "lat": 34.178985,
    "lng": -118.336491
  },
  {
    "id": "930000795",
    "name": "FRESENIUS MEDICAL CARE BURBANK",
    "npi": "1144393299",
    "hcaiId": "306194037",
    "businessName": "BIO-MEDICAL APPLICATIONS OF CALIFORNIA, INC.",
    "contactEmail": "CLINIC5484@FMC-NA.COM",
    "categoryName": "CHRONIC DIALYSIS CLINIC",
    "categoryCode": "ESRD/CDC",
    "licenseStatus": "ACTIVE",
    "inService": true,
    "licenseNumber": "930000425",
    "licenseEffectiveDate": "01/01/2025",
    "licenseExpirationDate": "12/31/2025",
    "dataDate": "10/18/2025",
    "capacity": 22,
    "address": "2031 W ALAMEDA AVE, SUITE 202",
    "city": "BURBANK",
    "zip": "91506",
    "county": "LOS ANGELES",
    "phone": "(818) 845-3830",
    "lat": 34.159986,
    "lng": -118.323801
  },
  {
    "id": "630018889",
    "name": "GLENCARE HOSPICE SERVICES, INC",
    "npi": null,
    "hcaiId": "406192033",
    "businessName": "GLENCARE HOSPICE SERVICES, INC",
    "contactEmail": "GLENCAREHOSPICE639@GMAIL.COM",
    "categoryName": "HOSPICE",
    "categoryCode": "HOSPICE",
    "licenseStatus": "ACTIVE",
    "inService": true,
    "licenseNumber": "550005082",
    "licenseEffectiveDate": "11/09/2023",
    "licenseExpirationDate": "11/08/2025",
    "dataDate": "10/18/2025",
    "capacity": 0,
    "address": "639 S GLENWOOD PL, SUITE 207",
    "city": "BURBANK",
    "zip": "91506",
    "county": "LOS ANGELES",
    "phone": "(747) 477-2585",
    "lat": 34.165341,
    "lng": -118.314144
  },
  {
    "id": "630022025",
    "name": "HEALTH FOR ALL IN HOME CARE SERVICES",
    "npi": null,
    "hcaiId": "406195776",
    "businessName": "HEALTH FOR ALL IN HOME CARE SERVICES",
    "contactEmail": "HEALTHFALLHOMECARE@GMAIL.COM",
    "categoryName": "HOME HEALTH AGENCY",
    "categoryCode": "HHA",
    "licenseStatus": "ACTIVE",
    "inService": true,
    "licenseNumber": "550007802",
    "licenseEffectiveDate": "01/24/2025",
    "licenseExpirationDate": "01/23/2026",
    "dataDate": "10/18/2025",
    "capacity": 0,
    "address": "2321 W OLIVE AVE, SUITE B",
    "city": "BURBANK",
    "zip": "91506",
    "county": "LOS ANGELES",
    "phone": "(818) 397-0872",
    "lat": 34.16238198,
    "lng": -118.328693
  },
  {
    "id": "630025949",
    "name": "HELP FOR EVERYONE HOME HEALTH",
    "npi": null,
    "hcaiId": null,
    "businessName": "HELP FOR EVERYONE HOME HEALTH",
    "contactEmail": "HELPFOREVERYONE.HH@GMAIL.COM",
    "categoryName": "HOME HEALTH AGENCY",
    "categoryCode": "HHA",
    "licenseStatus": "ACTIVE",
    "inService": true,
    "licenseNumber": "550009015",
    "licenseEffectiveDate": "03/04/2025",
    "licenseExpirationDate": "03/03/2026",
    "dataDate": "10/18/2025",
    "capacity": 0,
    "address": "1114 W MAGNOLIA BLVD, UNIT B",
    "city": "BURBANK",
    "zip": "91506",
    "county": "LOS ANGELES",
    "phone": "(818) 732-6655",
    "lat": 34.1762902,
    "lng": -118.3210209
  },
  {
    "id": "980001509",
    "name": "HOME HEALTH INTEGRATED SERVICES, INC.",
    "npi": "1255310900",
    "hcaiId": "406196688",
    "businessName": "HOME HEALTH INTEGRATED SERVICES, INC.",
    "contactEmail": "ANNABELLA.CAROLINO@YAHOO.COM",
    "categoryName": "HOME HEALTH AGENCY",
    "categoryCode": "HHA",
    "licenseStatus": "ACTIVE",
    "inService": true,
    "licenseNumber": "980000859",
    "licenseEffectiveDate": "07/25/2025",
    "licenseExpirationDate": "07/24/2026",
    "dataDate": "10/18/2025",
    "capacity": 0,
    "address": "704 S MAIN ST",
    "city": "BURBANK",
    "zip": "91506",
    "county": "LOS ANGELES",
    "phone": "(818) 558-6685",
    "lat": 34.166583,
    "lng": -118.312902
  },
  {
    "id": "630021763",
    "name": "HORIZON AID INC",
    "npi": null,
    "hcaiId": "406193441",
    "businessName": "HORIZON AID INC",
    "contactEmail": "HORIZONAIDHH@GMAIL.COM",
    "categoryName": "HOME HEALTH AGENCY",
    "categoryCode": "HHA",
    "licenseStatus": "ACTIVE",
    "inService": true,
    "licenseNumber": "550006950",
    "licenseEffectiveDate": "10/11/2025",
    "licenseExpirationDate": "10/10/2026",
    "dataDate": "10/18/2025",
    "capacity": 0,
    "address": "639 S GLENWOOD PL, UNIT 103",
    "city": "BURBANK",
    "zip": "91506",
    "county": "LOS ANGELES",
    "phone": "(818) 813-9691",
    "lat": 34.165341,
    "lng": -118.314144
  },
  {
    "id": "630022778",
    "name": "HOUSE OF HEALTH HOME CARE AGENCY, INC.",
    "npi": null,
    "hcaiId": "406195838",
    "businessName": "HOUSE OF HEALTH HOME CARE AGENCY, INC.",
    "contactEmail": "HOUSEOFHEALTHCA@GMAIL.COM",
    "categoryName": "HOME HEALTH AGENCY",
    "categoryCode": "HHA",
    "licenseStatus": "ACTIVE",
    "inService": true,
    "licenseNumber": "550007974",
    "licenseEffectiveDate": "05/09/2025",
    "licenseExpirationDate": "05/08/2026",
    "dataDate": "10/18/2025",
    "capacity": 0,
    "address": "2321 W OLIVE AVE, SUITE A",
    "city": "BURBANK",
    "zip": "91506",
    "county": "LOS ANGELES",
    "phone": "(747) 241-8294",
    "lat": 34.162371,
    "lng": -118.328733
  },
  {
    "id": "630025366",
    "name": "IDEAL HOME HEALTH CARE, INC.",
    "npi": null,
    "hcaiId": "406196430",
    "businessName": "IDEAL HOME HEALTH CARE, INC.",
    "contactEmail": "IDEALHOMEHEALTHCAREINC@GMAIL.COM",
    "categoryName": "HOME HEALTH AGENCY",
    "categoryCode": "HHA",
    "licenseStatus": "ACTIVE",
    "inService": true,
    "licenseNumber": "550008495",
    "licenseEffectiveDate": "04/21/2025",
    "licenseExpirationDate": "04/20/2026",
    "dataDate": "10/18/2025",
    "capacity": 0,
    "address": "2222 W BURBANK BLVD, SUITE 201",
    "city": "BURBANK",
    "zip": "91506",
    "county": "LOS ANGELES",
    "phone": "(747) 400-0052",
    "lat": 34.17957491,
    "lng": -118.3354033
  },
  {
    "id": "630025387",
    "name": "IDYLLIC HOME HEALTH SERVICES",
    "npi": null,
    "hcaiId": "406197482",
    "businessName": "IDYLLIC HOME HEALTH SERVICES",
    "contactEmail": "IDYLLICHOMEHS@GMAIL.COM",
    "categoryName": "HOME HEALTH AGENCY",
    "categoryCode": "HHA",
    "licenseStatus": "ACTIVE",
    "inService": true,
    "licenseNumber": "550008607",
    "licenseEffectiveDate": "06/09/2025",
    "licenseExpirationDate": "06/08/2026",
    "dataDate": "10/18/2025",
    "capacity": 0,
    "address": "2220 W BURBANK BLVD, SUITE 101",
    "city": "BURBANK",
    "zip": "91506",
    "county": "LOS ANGELES",
    "phone": "(800) 570-9863",
    "lat": 34.17958795,
    "lng": -118.3353649
  },
  {
    "id": "960002714",
    "name": "KID'S COMMUNITY CLINIC OF BURBANK",
    "npi": null,
    "hcaiId": "306197195",
    "businessName": "KID'S COMMUNITY CLINIC OF BURBANK",
    "contactEmail": "RDA@KIDSCLINIC.ORG",
    "categoryName": "PRIMARY CARE CLINIC",
    "categoryCode": "COMTYC",
    "licenseStatus": "ACTIVE",
    "inService": true,
    "licenseNumber": "960001345",
    "licenseEffectiveDate": "12/18/2024",
    "licenseExpirationDate": "12/17/2025",
    "dataDate": "10/18/2025",
    "capacity": 0,
    "address": "400 W ELMWOOD AVE",
    "city": "BURBANK",
    "zip": "91506",
    "county": "LOS ANGELES",
    "phone": "(818) 841-8010",
    "lat": 34.1661279,
    "lng": -118.311967
  },
  {
    "id": "630021762",
    "name": "LAGLEN HOME INC",
    "npi": null,
    "hcaiId": "406193401",
    "businessName": "LAGLEN HOME INC",
    "contactEmail": "LAGLENHHC@GMAIL.COM",
    "categoryName": "HOME HEALTH AGENCY",
    "categoryCode": "HHA",
    "licenseStatus": "ACTIVE",
    "inService": true,
    "licenseNumber": "550007150",
    "licenseEffectiveDate": "10/11/2024",
    "licenseExpirationDate": "10/10/2025",
    "dataDate": "10/18/2025",
    "capacity": 0,
    "address": "639 S GLENWOOD PL, UNIT 105",
    "city": "BURBANK",
    "zip": "91506",
    "county": "LOS ANGELES",
    "phone": "(310) 694-1640",
    "lat": 34.165341,
    "lng": -118.314144
  },
  {
    "id": "630025705",
    "name": "LOVING ANGELS HOME HEALTH CARE",
    "npi": null,
    "hcaiId": null,
    "businessName": "LOVING ANGELS HOME HEALTH CARE",
    "contactEmail": "LOVINGANGELSHH@YAHOO.COM",
    "categoryName": "HOME HEALTH AGENCY",
    "categoryCode": "HHA",
    "licenseStatus": "ACTIVE",
    "inService": true,
    "licenseNumber": "550009383",
    "licenseEffectiveDate": "03/12/2025",
    "licenseExpirationDate": "09/11/2025",
    "dataDate": "10/18/2025",
    "capacity": 0,
    "address": "2221 W OLIVE AVE, SUITE E",
    "city": "BURBANK",
    "zip": "91506",
    "county": "LOS ANGELES",
    "phone": "(310) 928-9422",
    "lat": 34.163253,
    "lng": -118.327716
  },
  {
    "id": "630015226",
    "name": "MED-LIFE HOME HEALTH, INC.",
    "npi": "1992121271",
    "hcaiId": "406198305",
    "businessName": "MED-LIFE HOME HEALTH, INC.",
    "contactEmail": "MEDLIFEHEALTH@YAHOO.COM",
    "categoryName": "HOME HEALTH AGENCY",
    "categoryCode": "HHA",
    "licenseStatus": "ACTIVE",
    "inService": true,
    "licenseNumber": "550003590",
    "licenseEffectiveDate": "10/24/2025",
    "licenseExpirationDate": "06/14/2026",
    "dataDate": "10/18/2025",
    "capacity": 0,
    "address": "1701 W BURBANK BLVD, SUITE 203",
    "city": "BURBANK",
    "zip": "91506",
    "county": "LOS ANGELES",
    "phone": "(818) 569-0209",
    "lat": 34.181775,
    "lng": -118.329975
  },
  {
    "id": "630023358",
    "name": "MEDAID HOME HEALTH",
    "npi": null,
    "hcaiId": "406195383",
    "businessName": "MEDAID HOME HEALTH",
    "contactEmail": "MEDAIDHOMEHEALTH@GMAIL.COM",
    "categoryName": "HOME HEALTH AGENCY",
    "categoryCode": "HHA",
    "licenseStatus": "ACTIVE",
    "inService": true,
    "licenseNumber": "550007965",
    "licenseEffectiveDate": "04/23/2025",
    "licenseExpirationDate": "04/22/2026",
    "dataDate": "10/18/2025",
    "capacity": 0,
    "address": "639 S GLENWOOD PL, SUITE 107A",
    "city": "BURBANK",
    "zip": "91506",
    "county": "LOS ANGELES",
    "phone": "(818) 974-8998",
    "lat": 34.165341,
    "lng": -118.314144
  },
  {
    "id": "630027244",
    "name": "MY PLACE ADHC",
    "npi": null,
    "hcaiId": null,
    "businessName": "MY PLACE ADHC",
    "contactEmail": "MYPLACEADHC@GMAIL.COM",
    "categoryName": "ADULT DAY HEALTH CARE",
    "categoryCode": "ADHC",
    "licenseStatus": "ACTIVE",
    "inService": true,
    "licenseNumber": "550008782",
    "licenseEffectiveDate": "10/12/2025",
    "licenseExpirationDate": "10/11/2026",
    "dataDate": "10/18/2025",
    "capacity": 0,
    "address": "1809 W MAGNOLIA BLVD",
    "city": "BURBANK",
    "zip": "91506",
    "county": "LOS ANGELES",
    "phone": "(818) 861-7068",
    "lat": 34.17445498,
    "lng": -118.328081
  },
  {
    "id": "630019148",
    "name": "OLYMPUS HOME HEALTH INC.",
    "npi": "1619539665",
    "hcaiId": "406192056",
    "businessName": "OLYMPUS HOME HEALTH INC.",
    "contactEmail": "OLYMPUSHOMEHEALTH@YAHOO.COM",
    "categoryName": "HOME HEALTH AGENCY",
    "categoryCode": "HHA",
    "licenseStatus": "ACTIVE",
    "inService": true,
    "licenseNumber": "550005100",
    "licenseEffectiveDate": "11/21/2025",
    "licenseExpirationDate": "11/20/2026",
    "dataDate": "10/18/2025",
    "capacity": 0,
    "address": "2222 W BURBANK BLVD, UNIT 202",
    "city": "BURBANK",
    "zip": "91506",
    "county": "LOS ANGELES",
    "phone": "(747) 283-0111",
    "lat": 34.17957491,
    "lng": -118.3354033
  },
  {
    "id": "630026359",
    "name": "OUTREACH HOME HEALTH CARE SERVICES",
    "npi": null,
    "hcaiId": null,
    "businessName": "OUTREACH HOME HEALTH CARE SERVICES",
    "contactEmail": "OUTREACHHOMEHEALTHCARESERVICES@YAHOO.COM",
    "categoryName": "HOME HEALTH AGENCY",
    "categoryCode": "HHA",
    "licenseStatus": "ACTIVE",
    "inService": true,
    "licenseNumber": "550009266",
    "licenseEffectiveDate": "07/29/2025",
    "licenseExpirationDate": "07/28/2026",
    "dataDate": "10/18/2025",
    "capacity": 0,
    "address": "1114 W MAGNOLIA BLVD, UNIT E",
    "city": "BURBANK",
    "zip": "91506",
    "county": "LOS ANGELES",
    "phone": "(747) 313-6749",
    "lat": 34.1762902,
    "lng": -118.3210209
  },
  {
    "id": "630021270",
    "name": "PERENNIAL HOME HEALTH CARE, INC.",
    "npi": null,
    "hcaiId": "406195263",
    "businessName": "PERENNIAL HOME HEALTH CARE, INC.",
    "contactEmail": "INFO@PERENNIALHOMEHEALTH.COM",
    "categoryName": "HOME HEALTH AGENCY",
    "categoryCode": "HHA",
    "licenseStatus": "ACTIVE",
    "inService": true,
    "licenseNumber": "550007280",
    "licenseEffectiveDate": "09/16/2025",
    "licenseExpirationDate": "11/22/2025",
    "dataDate": "10/18/2025",
    "capacity": 0,
    "address": "2321 W OLIVE AVE, SUITE L",
    "city": "BURBANK",
    "zip": "91506",
    "county": "LOS ANGELES",
    "phone": "(818) 955-5891",
    "lat": 34.162371,
    "lng": -118.328733
  },
  {
    "id": "630021265",
    "name": "PERENNIAL HOSPICE CARE LLC",
    "npi": null,
    "hcaiId": "406193977",
    "businessName": "PERENNIAL HOSPICE CARE LLC",
    "contactEmail": "PERENNIALHOSPICECARE@GMAIL.COM",
    "categoryName": "HOSPICE",
    "categoryCode": "HOSPICE",
    "licenseStatus": "ACTIVE",
    "inService": true,
    "licenseNumber": "550007145",
    "licenseEffectiveDate": "09/07/2025",
    "licenseExpirationDate": "09/06/2027",
    "dataDate": "10/18/2025",
    "capacity": 0,
    "address": "2319 W OLIVE AVE, SUITE B",
    "city": "BURBANK",
    "zip": "91506",
    "county": "LOS ANGELES",
    "phone": "(747) 282-1802",
    "lat": 34.16225006,
    "lng": -118.3285595
  },
  {
    "id": "630024998",
    "name": "PERFECT HOME CARE",
    "npi": null,
    "hcaiId": "406195707",
    "businessName": "PERFECT HOME CARE",
    "contactEmail": "PERFECTHC@YAHOO.COM",
    "categoryName": "HOME HEALTH AGENCY",
    "categoryCode": "HHA",
    "licenseStatus": "ACTIVE",
    "inService": true,
    "licenseNumber": "550008197",
    "licenseEffectiveDate": "10/13/2025",
    "licenseExpirationDate": "10/12/2026",
    "dataDate": "10/18/2025",
    "capacity": 0,
    "address": "1010 W MAGNOLIA BLVD, UNIT 117",
    "city": "BURBANK",
    "zip": "91506",
    "county": "LOS ANGELES",
    "phone": "(747) 200-9200",
    "lat": 34.176627,
    "lng": -118.319859
  },
  {
    "id": "630012730",
    "name": "PERSONAL CARE HOSPICE SERVICES, INC.",
    "npi": null,
    "hcaiId": "406197529",
    "businessName": "PERSONAL CARE HOSPICE SERVICES, INC.",
    "contactEmail": "PCHOSPICESERVICES@LIVE.COM",
    "categoryName": "HOSPICE",
    "categoryCode": "HOSPICE",
    "licenseStatus": "ACTIVE",
    "inService": true,
    "licenseNumber": "550001515",
    "licenseEffectiveDate": "03/07/2025",
    "licenseExpirationDate": "03/06/2027",
    "dataDate": "10/18/2025",
    "capacity": 0,
    "address": "2318 W. BURBANK BLVD.",
    "city": "BURBANK",
    "zip": "91506",
    "county": "LOS ANGELES",
    "phone": "(818) 353-0600",
    "lat": 34.179048,
    "lng": -118.336599
  },
  {
    "id": "960001492",
    "name": "PLANNED PARENTHOOD LOS ANGELES - BURBANK CENTER",
    "npi": null,
    "hcaiId": "306194297",
    "businessName": "PLANNED PARENTHOOD LOS ANGELES",
    "contactEmail": "BRENDA.GUERRERO@PP-LA.ORG",
    "categoryName": "PRIMARY CARE CLINIC",
    "categoryCode": "COMTYC",
    "licenseStatus": "ACTIVE",
    "inService": true,
    "licenseNumber": "960000756",
    "licenseEffectiveDate": "04/24/2025",
    "licenseExpirationDate": "04/23/2026",
    "dataDate": "10/18/2025",
    "capacity": 0,
    "address": "916 W BURBANK BLVD, SUITE M",
    "city": "BURBANK",
    "zip": "91506",
    "county": "LOS ANGELES",
    "phone": "(213) 284-3200",
    "lat": 34.183602,
    "lng": -118.3223835
  },
  {
    "id": "630011580",
    "name": "PRIMROSE HOMEHEALTH, INC.",
    "npi": "1508050931",
    "hcaiId": "406197335",
    "businessName": "PRIMROSE HOMEHEALTH, INC.",
    "contactEmail": "INFO@PRIMROSEHH.NET",
    "categoryName": "HOME HEALTH AGENCY",
    "categoryCode": "HHA",
    "licenseStatus": "ACTIVE",
    "inService": true,
    "licenseNumber": "550000940",
    "licenseEffectiveDate": "03/27/2025",
    "licenseExpirationDate": "03/26/2026",
    "dataDate": "10/18/2025",
    "capacity": 0,
    "address": "1612 W OLIVE AVE, SUITE 202",
    "city": "BURBANK",
    "zip": "91506",
    "county": "LOS ANGELES",
    "phone": "(818) 358-2157",
    "lat": 34.1674876,
    "lng": -118.3224055
  },
  {
    "id": "630021622",
    "name": "PROGRESS PALLIATIVE CARE INC",
    "npi": null,
    "hcaiId": "406194974",
    "businessName": "PROGRESS PALLIATIVE CARE INC",
    "contactEmail": "PROGRESSPALLIATIVE@GMAIL.COM",
    "categoryName": "HOSPICE",
    "categoryCode": "HOSPICE",
    "licenseStatus": "ACTIVE",
    "inService": true,
    "licenseNumber": "550007039",
    "licenseEffectiveDate": "10/28/2025",
    "licenseExpirationDate": "10/27/2027",
    "dataDate": "10/18/2025",
    "capacity": 0,
    "address": "1821 W VERDUGO AVE, SUITE 102",
    "city": "BURBANK",
    "zip": "91506",
    "county": "LOS ANGELES",
    "phone": "(747) 200-1640",
    "lat": 34.16738078,
    "lng": -118.3248465
  },
  {
    "id": "630018746",
    "name": "PRUDENCE HOME HEALTH INC.",
    "npi": "1962963470",
    "hcaiId": "406192057",
    "businessName": "PRUDENCE HOME HEALTH INC.",
    "contactEmail": "PRUDENCEHOMEHEALTH@GMAIL.COM",
    "categoryName": "HOME HEALTH AGENCY",
    "categoryCode": "HHA",
    "licenseStatus": "ACTIVE",
    "inService": true,
    "licenseNumber": "550005097",
    "licenseEffectiveDate": "11/21/2025",
    "licenseExpirationDate": "11/20/2026",
    "dataDate": "10/18/2025",
    "capacity": 0,
    "address": "1924 W OLIVE AVE",
    "city": "BURBANK",
    "zip": "91506",
    "county": "LOS ANGELES",
    "phone": "(818) 208-0070",
    "lat": 34.16522386,
    "lng": -118.3252028
  },
  {
    "id": "630021275",
    "name": "PRYME CARE HOME HEALTH",
    "npi": null,
    "hcaiId": "406195486",
    "businessName": "BURBANK CITY HOME HEALTH, INC",
    "contactEmail": "BURBANKCITYHH@GMAIL.COM",
    "categoryName": "HOME HEALTH AGENCY",
    "categoryCode": "HHA",
    "licenseStatus": "ACTIVE",
    "inService": true,
    "licenseNumber": "550007774",
    "licenseEffectiveDate": "11/05/2025",
    "licenseExpirationDate": "12/16/2025",
    "dataDate": "10/18/2025",
    "capacity": 0,
    "address": "2000 W MAGNOLIA BLVD, SUITE 205",
    "city": "BURBANK",
    "zip": "91506",
    "county": "LOS ANGELES",
    "phone": "(747) 217-1712",
    "lat": 34.173342,
    "lng": -118.32966
  },
  {
    "id": "630025848",
    "name": "PURE AND GENTLE TOUCH HOME HEALTH",
    "npi": null,
    "hcaiId": "406190291",
    "businessName": "PURE AND GENTLE TOUCH HOME HEALTH",
    "contactEmail": "PURE.GENTLE.HH@GMAIL.COM",
    "categoryName": "HOME HEALTH AGENCY",
    "categoryCode": "HHA",
    "licenseStatus": "ACTIVE",
    "inService": true,
    "licenseNumber": "550009006",
    "licenseEffectiveDate": "03/04/2025",
    "licenseExpirationDate": "03/03/2026",
    "dataDate": "10/18/2025",
    "capacity": 0,
    "address": "1114 W MAGNOLIA BLVD, UNIT A",
    "city": "BURBANK",
    "zip": "91506",
    "county": "LOS ANGELES",
    "phone": "(818) 245-4435",
    "lat": 34.1762902,
    "lng": -118.3210209
  },
  {
    "id": "630015832",
    "name": "REVIVE HOME HEALTH, INC.",
    "npi": "1780078006",
    "hcaiId": "406198311",
    "businessName": "REVIVE HOME HEALTH, INC.",
    "contactEmail": "REVIVEHOMEHEALTH@GMAIL.COM",
    "categoryName": "HOME HEALTH AGENCY",
    "categoryCode": "HHA",
    "licenseStatus": "ACTIVE",
    "inService": true,
    "licenseNumber": "550003163",
    "licenseEffectiveDate": "08/07/2024",
    "licenseExpirationDate": "08/06/2025",
    "dataDate": "10/18/2025",
    "capacity": 0,
    "address": "1918 W. MAGNOLIA, SUITE 200",
    "city": "BURBANK",
    "zip": "91506",
    "county": "LOS ANGELES",
    "phone": "(818) 927-2221",
    "lat": 34.173914,
    "lng": -118.328837
  },
  {
    "id": "630014248",
    "name": "RITE CARE HOSPICE INC.",
    "npi": "1306186390",
    "hcaiId": "406198221",
    "businessName": "RITE CARE HOSPICE INC.",
    "contactEmail": "VARTEIN@RITECAREGROUP.ORG",
    "categoryName": "HOSPICE",
    "categoryCode": "HOSPICE",
    "licenseStatus": "ACTIVE",
    "inService": true,
    "licenseNumber": "550002507",
    "licenseEffectiveDate": "01/19/2023",
    "licenseExpirationDate": "10/17/2023",
    "dataDate": "10/18/2025",
    "capacity": 0,
    "address": "2312 W VICTORY BLVD, SUITE 202",
    "city": "BURBANK",
    "zip": "91506",
    "county": "LOS ANGELES",
    "phone": "(818) 766-8000",
    "lat": 34.184232,
    "lng": -118.336635
  },
  {
    "id": "630021062",
    "name": "SAFE LIFE HOSPICE, INC",
    "npi": null,
    "hcaiId": "406193338",
    "businessName": "SAFE LIFE HOSPICE, INC",
    "contactEmail": "SAFELIFEHOSPICEINC@GMAIL.COM",
    "categoryName": "HOSPICE",
    "categoryCode": "HOSPICE",
    "licenseStatus": "ACTIVE",
    "inService": true,
    "licenseNumber": "550006978",
    "licenseEffectiveDate": "09/02/2025",
    "licenseExpirationDate": "10/14/2025",
    "dataDate": "10/18/2025",
    "capacity": 0,
    "address": "1114 WEST MAGNOLIA BOULEVARD, UNIT D",
    "city": "BURBANK",
    "zip": "91506",
    "county": "LOS ANGELES",
    "phone": "(747) 234-0944",
    "lat": 34.17624284,
    "lng": -118.3210047
  },
  {
    "id": "630021693",
    "name": "SAFEWAY HOME HEALTH CARE, INC.",
    "npi": null,
    "hcaiId": "406193169",
    "businessName": "SAFEWAY HOME HEALTH CARE, INC.",
    "contactEmail": "SAFEWAYHHCI@GMAIL.COM",
    "categoryName": "HOME HEALTH AGENCY",
    "categoryCode": "HHA",
    "licenseStatus": "ACTIVE",
    "inService": true,
    "licenseNumber": "550006988",
    "licenseEffectiveDate": "10/13/2025",
    "licenseExpirationDate": "10/12/2026",
    "dataDate": "10/18/2025",
    "capacity": 0,
    "address": "1425 W BURBANK BLVD, SUITE N",
    "city": "BURBANK",
    "zip": "91506",
    "county": "LOS ANGELES",
    "phone": "(818) 538-9030",
    "lat": 34.182288,
    "lng": -118.3277239
  },
  {
    "id": "630015709",
    "name": "SAINT INESS HOME HEALTHCARE, INC",
    "npi": "1598163230",
    "hcaiId": "406198302",
    "businessName": "SAINT INESS HOME HEALTHCARE, INC",
    "contactEmail": "STINESSHH@GMAIL.COM",
    "categoryName": "HOME HEALTH AGENCY",
    "categoryCode": "HHA",
    "licenseStatus": "ACTIVE",
    "inService": true,
    "licenseNumber": "550003430",
    "licenseEffectiveDate": "02/19/2025",
    "licenseExpirationDate": "02/18/2026",
    "dataDate": "10/18/2025",
    "capacity": 0,
    "address": "2001 W. MAGNOLIA BLVD., SUITE A",
    "city": "BURBANK",
    "zip": "91506",
    "county": "LOS ANGELES",
    "phone": "(818) 561-4019",
    "lat": 34.17381,
    "lng": -118.3299075
  },
  {
    "id": "630026805",
    "name": "SKYHILL HOME HEALTH CARE, INC.",
    "npi": null,
    "hcaiId": null,
    "businessName": "SKYHILL HOME HEALTH CARE, INC.",
    "contactEmail": "SKYHILLHOMEHEALTHCARE@GMAIL.COM",
    "categoryName": "HOME HEALTH AGENCY",
    "categoryCode": "HHA",
    "licenseStatus": "ACTIVE",
    "inService": true,
    "licenseNumber": "550009168",
    "licenseEffectiveDate": "05/31/2025",
    "licenseExpirationDate": "05/30/2026",
    "dataDate": "10/18/2025",
    "capacity": 0,
    "address": "2115 W MAGNOLIA BLVD, UNIT 102",
    "city": "BURBANK",
    "zip": "91506",
    "county": "LOS ANGELES",
    "phone": "(818) 478-8001",
    "lat": 34.17337799,
    "lng": -118.331375
  },
  {
    "id": "630026284",
    "name": "SOUTHWEST HEALTH SERVICES, INC.",
    "npi": null,
    "hcaiId": null,
    "businessName": "SOUTHWEST HEALTH SERVICES, INC.",
    "contactEmail": "SWESTHEALTHSERVICES@YAHOO.COM",
    "categoryName": "HOME HEALTH AGENCY",
    "categoryCode": "HHA",
    "licenseStatus": "ACTIVE",
    "inService": true,
    "licenseNumber": "550009584",
    "licenseEffectiveDate": "05/21/2025",
    "licenseExpirationDate": "11/20/2025",
    "dataDate": "10/18/2025",
    "capacity": 0,
    "address": "1810 W BURBANK BLVD, SUITE 150B",
    "city": "BURBANK",
    "zip": "91506",
    "county": "LOS ANGELES",
    "phone": "(818) 903-6511",
    "lat": 34.180992,
    "lng": -118.330713
  },
  {
    "id": "630024383",
    "name": "STATUS HOME HEALTH CARE, INC.",
    "npi": null,
    "hcaiId": "406196518",
    "businessName": "STATUS HOME HEALTH CARE, INC.",
    "contactEmail": "STATUSHOMEHEALTH@GMAIL.COM",
    "categoryName": "HOME HEALTH AGENCY",
    "categoryCode": "HHA",
    "licenseStatus": "ACTIVE",
    "inService": true,
    "licenseNumber": "550008533",
    "licenseEffectiveDate": "10/21/2023",
    "licenseExpirationDate": "04/20/2024",
    "dataDate": "10/18/2025",
    "capacity": 0,
    "address": "1907 W BURBANK BLVD, SUITE C",
    "city": "BURBANK",
    "zip": "91506",
    "county": "LOS ANGELES",
    "phone": "(747) 236-6567",
    "lat": 34.181091,
    "lng": -118.3319775
  },
  {
    "id": "630026245",
    "name": "SUNLIGHT HOME HEALTH CARE, INC.",
    "npi": null,
    "hcaiId": null,
    "businessName": "SUNLIGHT HOME HEALTH CARE, INC.",
    "contactEmail": "SUNLIGHTHHCARE@GMAIL.COM",
    "categoryName": "HOME HEALTH AGENCY",
    "categoryCode": "HHA",
    "licenseStatus": "ACTIVE",
    "inService": true,
    "licenseNumber": "550009729",
    "licenseEffectiveDate": "08/17/2025",
    "licenseExpirationDate": "02/16/2026",
    "dataDate": "10/18/2025",
    "capacity": 0,
    "address": "2321 W OLIVE AVE, SUITE K",
    "city": "BURBANK",
    "zip": "91506",
    "county": "LOS ANGELES",
    "phone": "(747) 302-2012",
    "lat": 34.162371,
    "lng": -118.328733
  },
  {
    "id": "630017552",
    "name": "SUNRISE HOME HEALTH CARE",
    "npi": null,
    "hcaiId": "406191973",
    "businessName": "SUNRISE HOME HEALTH CARE",
    "contactEmail": "INFO@SUNRISEHH.COM",
    "categoryName": "HOME HEALTH AGENCY",
    "categoryCode": "HHA",
    "licenseStatus": "ACTIVE",
    "inService": true,
    "licenseNumber": "550005039",
    "licenseEffectiveDate": "10/26/2025",
    "licenseExpirationDate": "10/25/2026",
    "dataDate": "10/18/2025",
    "capacity": 0,
    "address": "1612 W OLIVE AVE, SUITE 302",
    "city": "BURBANK",
    "zip": "91506",
    "county": "LOS ANGELES",
    "phone": "(949) 702-9920",
    "lat": 34.167476,
    "lng": -118.32242
  },
  {
    "id": "630018452",
    "name": "TOP QUALITY HOME HEALTH CARE",
    "npi": null,
    "hcaiId": null,
    "businessName": "TOP QUALITY HOME HEALTH CARE",
    "contactEmail": "TOPQUALITYINC18@GMAIL.COM",
    "categoryName": "HOME HEALTH AGENCY",
    "categoryCode": "HHA",
    "licenseStatus": "ACTIVE",
    "inService": true,
    "licenseNumber": "550008324",
    "licenseEffectiveDate": "07/17/2023",
    "licenseExpirationDate": "01/16/2024",
    "dataDate": "10/18/2025",
    "capacity": 0,
    "address": "639 S GLENWOOD PL, SUITE 214",
    "city": "BURBANK",
    "zip": "91506",
    "county": "LOS ANGELES",
    "phone": "(818) 605-5365",
    "lat": 34.165341,
    "lng": -118.314144
  },
  {
    "id": "630021351",
    "name": "TRIFINITY HOSPICE INC",
    "npi": null,
    "hcaiId": "406193783",
    "businessName": "TRIFINITY HOSPICE,INC",
    "contactEmail": "GARY@TRIFINITYHOSPICE.COM",
    "categoryName": "HOSPICE",
    "categoryCode": "HOSPICE",
    "licenseStatus": "ACTIVE",
    "inService": true,
    "licenseNumber": "550006738",
    "licenseEffectiveDate": "08/17/2023",
    "licenseExpirationDate": "08/16/2025",
    "dataDate": "10/18/2025",
    "capacity": 0,
    "address": "1701 W BURBANK BLVD, SUITE 204",
    "city": "BURBANK",
    "zip": "91506",
    "county": "LOS ANGELES",
    "phone": "(818) 861-7065",
    "lat": 34.18177402,
    "lng": -118.329982
  },
  {
    "id": "630016601",
    "name": "UNITY HOME HEALTH PROVIDERS, INC.",
    "npi": "1679930119",
    "hcaiId": "406191452",
    "businessName": "UNITY HOME HEALTH PROVIDERS, INC.",
    "contactEmail": "UNITYPROVIDERS@GMAIL.COM",
    "categoryName": "HOME HEALTH AGENCY",
    "categoryCode": "HHA",
    "licenseStatus": "ACTIVE",
    "inService": true,
    "licenseNumber": "550004402",
    "licenseEffectiveDate": "10/06/2025",
    "licenseExpirationDate": "10/05/2026",
    "dataDate": "10/18/2025",
    "capacity": 0,
    "address": "1415 W MAGNOLIA BLVD, SUITE 102",
    "city": "BURBANK",
    "zip": "91506",
    "county": "LOS ANGELES",
    "phone": "(818) 778-6333",
    "lat": 34.175718,
    "lng": -118.3244175
  },
  {
    "id": "630020999",
    "name": "VAPIANO HOSPICE CARE, INC.",
    "npi": null,
    "hcaiId": "406193246",
    "businessName": "VAPIANO HOSPICE CARE, INC.",
    "contactEmail": "VAPIANOHOSPICECARE@GMAIL.COM",
    "categoryName": "HOSPICE",
    "categoryCode": "HOSPICE",
    "licenseStatus": "ACTIVE",
    "inService": true,
    "licenseNumber": "550006637",
    "licenseEffectiveDate": "07/30/2025",
    "licenseExpirationDate": "07/29/2027",
    "dataDate": "10/18/2025",
    "capacity": 0,
    "address": "2001 W MAGNOLIA BLVD, SUITE F",
    "city": "BURBANK",
    "zip": "91506",
    "county": "LOS ANGELES",
    "phone": "(747) 266-0100",
    "lat": 34.17381699,
    "lng": -118.329915
  },
  {
    "id": "630017695",
    "name": "VAST HOME HEALTH, INC.",
    "npi": "1487168449",
    "hcaiId": "406191385",
    "businessName": "VAST HOME HEALTH, INC.",
    "contactEmail": "VASTHOMEHEALTH@GMAIL.COM",
    "categoryName": "HOME HEALTH AGENCY",
    "categoryCode": "HHA",
    "licenseStatus": "ACTIVE",
    "inService": true,
    "licenseNumber": "550004440",
    "licenseEffectiveDate": "11/07/2025",
    "licenseExpirationDate": "11/06/2026",
    "dataDate": "10/18/2025",
    "capacity": 0,
    "address": "1821 W VERDUGO AVE, SUITE 101",
    "city": "BURBANK",
    "zip": "91506",
    "county": "LOS ANGELES",
    "phone": "(818) 309-4441",
    "lat": 34.16738078,
    "lng": -118.3248465
  },
  {
    "id": "630012950",
    "name": "VIDA HOSPICE",
    "npi": null,
    "hcaiId": "406197551",
    "businessName": "SCOPE HEALTH CARE SERVICES, INC.",
    "contactEmail": "VIDAHOSPICE17@GMAIL.COM",
    "categoryName": "HOSPICE",
    "categoryCode": "HOSPICE",
    "licenseStatus": "ACTIVE",
    "inService": true,
    "licenseNumber": "550001594",
    "licenseEffectiveDate": "04/19/2025",
    "licenseExpirationDate": "04/18/2027",
    "dataDate": "10/18/2025",
    "capacity": 0,
    "address": "1211 W MAGNOLIA BLVD",
    "city": "BURBANK",
    "zip": "91506",
    "county": "LOS ANGELES",
    "phone": "(818) 848-8575",
    "lat": 34.176456,
    "lng": -118.3220955
  },
  {
    "id": "630026279",
    "name": "WEST COAST HEALTH SERVICES, INC",
    "npi": null,
    "hcaiId": null,
    "businessName": "WEST COAST HEALTH SERVICES, INC.",
    "contactEmail": "WESTCOASTHS@YAHOO.COM",
    "categoryName": "HOME HEALTH AGENCY",
    "categoryCode": "HHA",
    "licenseStatus": "ACTIVE",
    "inService": true,
    "licenseNumber": "550009508",
    "licenseEffectiveDate": "03/24/2025",
    "licenseExpirationDate": "09/23/2025",
    "dataDate": "10/18/2025",
    "capacity": 0,
    "address": "1810 W BURBANK BLVD, SUITE 150A",
    "city": "BURBANK",
    "zip": "91506",
    "county": "LOS ANGELES",
    "phone": "(818) 903-6511",
    "lat": 34.180992,
    "lng": -118.330713
  }
]