[
  {
    "id": "630018311",
    "name": "7 DAYS HOME HEALTH CARE",
    "npi": "1184102683",
    "hcaiId": "406192165",
    "businessName": "7 DAYS HOME HEALTH CARE",
    "contactEmail": "SEVENDAYSHH@YAHOO.COM",
    "categoryName": "HOME HEALTH AGENCY",
    "categoryCode": "HHA",
    "licenseStatus": "ACTIVE",
    "inService": true,
    "licenseNumber": "550004824",
    "licenseEffectiveDate": "08/02/2024",
    "licenseExpirationDate": "08/01/2025",
    "dataDate": "10/18/2025",
    "capacity": 0,
    "address": "224 E OLIVE AVE, SUITE 205",
    "city": "BURBANK",
    "zip": "91502",
    "county": "LOS ANGELES",
    "phone": "(818) 570-9070",
    "lat": 34.1810753,
    "lng": -118.3084538
  },
  {
    "id": "630025504",
    "name": "911 FRIENDLY HOME HEALTH, INC.",
    "npi": null,
    "hcaiId": "406190199",
    "businessName": "911 FRIENDLY HOME HEALTH, INC.",
    "contactEmail": "911FRIENDLYHOMEHEALTH@GMAIL.COM",
    "categoryName": "HOME HEALTH AGENCY",
    "categoryCode": "HHA",
    "licenseStatus": "ACTIVE",
    "inService": true,
    "licenseNumber": "550008948",
    "licenseEffectiveDate": "01/12/2024",
    "licenseExpirationDate": "07/11/2024",
    "dataDate": "10/18/2025",
    "capacity": 0,
    "address": "348 E OLIVE AVE, SUITE D",
    "city": "BURBANK",
    "zip": "91502",
    "county": "LOS ANGELES",
    "phone": "(747) 281-2010",
    "lat": 34.182432,
    "lng": -118.3064985
  },
  {
    "id": "630014323",
    "name": "A-1 HOSPICE CARE INC.",
    "npi": "1871838276",
    "hcaiId": "406198248",
    "businessName": "A-1 HOSPICE CARE INC.",
    "contactEmail": "A1HOSPICE7@GMAIL.COM",
    "categoryName": "HOSPICE",
    "categoryCode": "HOSPICE",
    "licenseStatus": "ACTIVE",
    "inService": true,
    "licenseNumber": "550002664",
    "licenseEffectiveDate": "05/14/2024",
    "licenseExpirationDate": "05/13/2026",
    "dataDate": "10/18/2025",
    "capacity": 0,
    "address": "217 E ALAMEDA AVE, SUITE 306",
    "city": "BURBANK",
    "zip": "91502",
    "county": "LOS ANGELES",
    "phone": "(818) 237-2700",
    "lat": 34.175331,
    "lng": -118.299366
  },
  {
    "id": "630017702",
    "name": "AAG HEALTHCARE, INC.",
    "npi": null,
    "hcaiId": "406192053",
    "businessName": "AAG HEALTHCARE, INC.",
    "contactEmail": "AAGHEALTHCAREINC@MAIL.COM",
    "categoryName": "HOME HEALTH AGENCY",
    "categoryCode": "HHA",
    "licenseStatus": "ACTIVE",
    "inService": true,
    "licenseNumber": "550005105",
    "licenseEffectiveDate": "11/16/2023",
    "licenseExpirationDate": "11/15/2024",
    "dataDate": "10/18/2025",
    "capacity": 0,
    "address": "719 S VICTORY BLVD, UNIT A",
    "city": "BURBANK",
    "zip": "91502",
    "county": "LOS ANGELES",
    "phone": "(818) 745-0988",
    "lat": 34.16832915,
    "lng": -118.3101711
  },
  {
    "id": "630008503",
    "name": "ACTIVE HOSPICE CARE, INC.",
    "npi": "1326232810",
    "hcaiId": "406197122",
    "businessName": "ACTIVE HOSPICE CARE, INC.",
    "contactEmail": "ACTIVEHOSPICECARE@SBCGLOBAL.NET",
    "categoryName": "HOSPICE",
    "categoryCode": "HOSPICE",
    "licenseStatus": "ACTIVE",
    "inService": true,
    "licenseNumber": "550000320",
    "licenseEffectiveDate": "11/24/2024",
    "licenseExpirationDate": "11/23/2026",
    "dataDate": "10/18/2025",
    "capacity": 0,
    "address": "704 S VICTORY BLVD, SUITE 100",
    "city": "BURBANK",
    "zip": "91502",
    "county": "LOS ANGELES",
    "phone": "(818) 848-8222",
    "lat": 34.169022,
    "lng": -118.310652
  },
  {
    "id": "630020758",
    "name": "ACTIVE LIGHT HOME HEALTH, INC.",
    "npi": null,
    "hcaiId": "406193055",
    "businessName": "ACTIVE LIGHT HOME HEALTH, INC.",
    "contactEmail": "ACTIVELIGHTHH@GMAIL.COM",
    "categoryName": "HOME HEALTH AGENCY",
    "categoryCode": "HHA",
    "licenseStatus": "ACTIVE",
    "inService": true,
    "licenseNumber": "550006094",
    "licenseEffectiveDate": "03/03/2025",
    "licenseExpirationDate": "03/02/2026",
    "dataDate": "10/18/2025",
    "capacity": 0,
    "address": "150 E OLIVE AVE, SUITE 109",
    "city": "BURBANK",
    "zip": "91502",
    "county": "LOS ANGELES",
    "phone": "(661) 513-3240",
    "lat": 34.18037629,
    "lng": -118.3086837
  },
  {
    "id": "630020756",
    "name": "ACTIVE LIGHT HOSPICE, INC.",
    "npi": null,
    "hcaiId": "406193428",
    "businessName": "ACTIVE LIGHT HOSPICE, INC.",
    "contactEmail": "ACTIVELIGHTHOSPICE01@GMAIL.COM",
    "categoryName": "HOSPICE",
    "categoryCode": "HOSPICE",
    "licenseStatus": "ACTIVE",
    "inService": true,
    "licenseNumber": "550006726",
    "licenseEffectiveDate": "08/12/2025",
    "licenseExpirationDate": "08/11/2027",
    "dataDate": "10/18/2025",
    "capacity": 0,
    "address": "303 N GLENOAKS BLVD, SUITE 245",
    "city": "BURBANK",
    "zip": "91502",
    "county": "LOS ANGELES",
    "phone": "(661) 505-8907",
    "lat": 34.18434802,
    "lng": -118.309084
  },
  {
    "id": "630018124",
    "name": "ADVANCED HOME HEALTH CARE INC",
    "npi": null,
    "hcaiId": "406192090",
    "businessName": "ADVANCED HOME HEALTH CARE INC",
    "contactEmail": "ADVANCED@HOMEHEALTHCARE.COM.CO",
    "categoryName": "HOME HEALTH AGENCY",
    "categoryCode": "HHA",
    "licenseStatus": "ACTIVE",
    "inService": true,
    "licenseNumber": "550005162",
    "licenseEffectiveDate": "12/11/2024",
    "licenseExpirationDate": "12/10/2025",
    "dataDate": "10/18/2025",
    "capacity": 0,
    "address": "269 W ALAMEDA AVE, SUITE E",
    "city": "BURBANK",
    "zip": "91502",
    "county": "LOS ANGELES",
    "phone": "(747) 477-1578",
    "lat": 34.167375,
    "lng": -118.3076595
  },
  {
    "id": "630025668",
    "name": "ADVENT HOME CARE",
    "npi": null,
    "hcaiId": null,
    "businessName": "ADVENT HOME CARE",
    "contactEmail": "4ADVENTHC@GMAIL.COM",
    "categoryName": "HOME HEALTH AGENCY",
    "categoryCode": "HHA",
    "licenseStatus": "ACTIVE",
    "inService": true,
    "licenseNumber": "550009946",
    "licenseEffectiveDate": "09/11/2025",
    "licenseExpirationDate": "03/10/2026",
    "dataDate": "10/18/2025",
    "capacity": 0,
    "address": "358 E OLIVE AVE, UNIT 105",
    "city": "BURBANK",
    "zip": "91502",
    "county": "LOS ANGELES",
    "phone": "(818) 318-6107",
    "lat": 34.18271899,
    "lng": -118.306413
  },
  {
    "id": "630020026",
    "name": "AFFINITY HOSPICE, INC",
    "npi": "1235767575",
    "hcaiId": "406194616",
    "businessName": "AFFINITY HOSPICE, INC.",
    "contactEmail": "AFFINITYHOSPICE2020@GMAIL.COM",
    "categoryName": "HOSPICE",
    "categoryCode": "HOSPICE",
    "licenseStatus": "ACTIVE",
    "inService": true,
    "licenseNumber": "550006102",
    "licenseEffectiveDate": "02/18/2025",
    "licenseExpirationDate": "02/17/2027",
    "dataDate": "10/18/2025",
    "capacity": 0,
    "address": "120 N VICTORY BLVD, SUITE 104",
    "city": "BURBANK",
    "zip": "91502",
    "county": "LOS ANGELES",
    "phone": "(818) 394-0749",
    "lat": 34.17435599,
    "lng": -118.316561
  },
  {
    "id": "630018752",
    "name": "AFFIRM HOME HEALTH",
    "npi": "1134688054",
    "hcaiId": "406192365",
    "businessName": "AFFIRM HOME HEALTH",
    "contactEmail": "AFFIRMHH@GMAIL.COM",
    "categoryName": "HOME HEALTH AGENCY",
    "categoryCode": "HHA",
    "licenseStatus": "ACTIVE",
    "inService": true,
    "licenseNumber": "550005324",
    "licenseEffectiveDate": "03/07/2025",
    "licenseExpirationDate": "03/06/2026",
    "dataDate": "10/18/2025",
    "capacity": 0,
    "address": "315 W VERDUGO AVE, SUITE 113",
    "city": "BURBANK",
    "zip": "91502",
    "county": "LOS ANGELES",
    "phone": "(818) 813-5899",
    "lat": 34.17102,
    "lng": -118.314441
  },
  {
    "id": "630019834",
    "name": "AILI HOME HEALTH AGENCY, INC",
    "npi": null,
    "hcaiId": "406195811",
    "businessName": "AILI HOME HEALTH AGENCY, INC",
    "contactEmail": "YELENAN@AILIHOMEHEALTH.COM",
    "categoryName": "HOME HEALTH AGENCY",
    "categoryCode": "HHA",
    "licenseStatus": "ACTIVE",
    "inService": true,
    "licenseNumber": "550007842",
    "licenseEffectiveDate": "02/12/2025",
    "licenseExpirationDate": "02/11/2026",
    "dataDate": "10/18/2025",
    "capacity": 0,
    "address": "146 N SAN FERNANDO BLVD, SUITE 212",
    "city": "BURBANK",
    "zip": "91502",
    "county": "LOS ANGELES",
    "phone": "(818) 569-5691",
    "lat": 34.18167101,
    "lng": -118.309373
  },
  {
    "id": "630019485",
    "name": "ALL CARE HOSPICE CARE",
    "npi": null,
    "hcaiId": "406192751",
    "businessName": "ALL CARE HOSPICE CARE",
    "contactEmail": "ALLCAREHOSPICECARE@GMAIL.COM",
    "categoryName": "HOSPICE",
    "categoryCode": "HOSPICE",
    "licenseStatus": "ACTIVE",
    "inService": true,
    "licenseNumber": "550005564",
    "licenseEffectiveDate": "07/08/2024",
    "licenseExpirationDate": "07/07/2026",
    "dataDate": "10/18/2025",
    "capacity": 0,
    "address": "150 E OLIVE AVE, SUITE 215",
    "city": "BURBANK",
    "zip": "91502",
    "county": "LOS ANGELES",
    "phone": "(818) 855-9598",
    "lat": 34.180371,
    "lng": -118.308672
  },
  {
    "id": "630020438",
    "name": "ALL FAMILY HOSPICE, INC.",
    "npi": null,
    "hcaiId": "406196168",
    "businessName": "ALL FAMILY HOSPICE, INC.",
    "contactEmail": "ALLFAMILYHOSPICE@GMAIL.COM",
    "categoryName": "HOSPICE",
    "categoryCode": "HOSPICE",
    "licenseStatus": "ACTIVE",
    "inService": true,
    "licenseNumber": "550006133",
    "licenseEffectiveDate": "03/17/2025",
    "licenseExpirationDate": "03/16/2027",
    "dataDate": "10/18/2025",
    "capacity": 0,
    "address": "103 W ALAMEDA AVE, SUITE 130",
    "city": "BURBANK",
    "zip": "91502",
    "county": "LOS ANGELES",
    "phone": "(818) 813-8972",
    "lat": 34.17139687,
    "lng": -118.3031171
  },
  {
    "id": "630021450",
    "name": "ALL FOR HEALTH HOSPICE CARE, INC.",
    "npi": null,
    "hcaiId": "406193429",
    "businessName": "ALL FOR HEALTH HOSPICE CARE, INC.",
    "contactEmail": "ALLFORHEALTHHOSPICE@GMAIL.COM",
    "categoryName": "HOSPICE",
    "categoryCode": "HOSPICE",
    "licenseStatus": "ACTIVE",
    "inService": true,
    "licenseNumber": "550006701",
    "licenseEffectiveDate": "09/08/2025",
    "licenseExpirationDate": "08/22/2027",
    "dataDate": "10/18/2025",
    "capacity": 0,
    "address": "800 SOUTH VICTORY BOULEVARD, SUITE 101",
    "city": "BURBANK",
    "zip": "91502",
    "county": "LOS ANGELES",
    "phone": "(818) 546-9440",
    "lat": 34.16832781,
    "lng": -118.3094861
  },
  {
    "id": "630013609",
    "name": "ALL FOR HEALTH, HEALTH FOR ALL, INC.",
    "npi": "1700131679",
    "hcaiId": "306197670",
    "businessName": "ALL FOR HEALTH, HEALTH FOR ALL, INC.",
    "contactEmail": "AMELIKSTEPANYAN@ALL4HEALTH.ORG",
    "categoryName": "PRIMARY CARE CLINIC",
    "categoryCode": "COMTYC",
    "licenseStatus": "ACTIVE",
    "inService": true,
    "licenseNumber": "550001983",
    "licenseEffectiveDate": "06/27/2025",
    "licenseExpirationDate": "06/26/2026",
    "dataDate": "10/18/2025",
    "capacity": 0,
    "address": "401 S GLENOAKS BLVD, SUITE 101",
    "city": "BURBANK",
    "zip": "91502",
    "county": "LOS ANGELES",
    "phone": "(818) 409-3020",
    "lat": 34.180443,
    "lng": -118.303308
  },
  {
    "id": "630018816",
    "name": "ALL FOR HEALTH, HEALTH FOR ALL, INC.",
    "npi": null,
    "hcaiId": null,
    "businessName": "ALL FOR HEALTH, HEALTH FOR ALL, INC.",
    "contactEmail": "HISRAELIAN@ALL4HEALTH.ORG",
    "categoryName": "PRIMARY CARE CLINIC",
    "categoryCode": "COMTYC",
    "licenseStatus": "ACTIVE",
    "inService": true,
    "licenseNumber": "550001983",
    "licenseEffectiveDate": "06/27/2025",
    "licenseExpirationDate": "06/26/2026",
    "dataDate": "10/18/2025",
    "capacity": 0,
    "address": "303 S GLENOAKS BLVD, SUITE 9",
    "city": "BURBANK",
    "zip": "91502",
    "county": "LOS ANGELES",
    "phone": "(818) 748-1741",
    "lat": 34.181388,
    "lng": -118.3041585
  },
  {
    "id": "630025424",
    "name": "ALL HEARTS HOME HEALTH CARE, INC.",
    "npi": null,
    "hcaiId": "406197103",
    "businessName": "ALL HEARTS HOME HEALTH CARE, INC.",
    "contactEmail": "ALLHEARTSHHC@YAHOO.COM",
    "categoryName": "HOME HEALTH AGENCY",
    "categoryCode": "HHA",
    "licenseStatus": "ACTIVE",
    "inService": true,
    "licenseNumber": "550008597",
    "licenseEffectiveDate": "06/06/2025",
    "licenseExpirationDate": "05/29/2026",
    "dataDate": "10/18/2025",
    "capacity": 0,
    "address": "315 W VERDUGO AVE, SUITE 207",
    "city": "BURBANK",
    "zip": "91502",
    "county": "LOS ANGELES",
    "phone": "(747) 400-0155",
    "lat": 34.171021,
    "lng": -118.314458
  },
  {
    "id": "630020749",
    "name": "ALL YOU NEED HOME HEALTH CARE, INC.",
    "npi": null,
    "hcaiId": "406195303",
    "businessName": "ALL YOU NEED HOME HEALTH CARE, INC.",
    "contactEmail": "ALLYOUNEEDHHC@GMAIL.COM",
    "categoryName": "HOME HEALTH AGENCY",
    "categoryCode": "HHA",
    "licenseStatus": "ACTIVE",
    "inService": true,
    "licenseNumber": "550006729",
    "licenseEffectiveDate": "08/23/2025",
    "licenseExpirationDate": "08/22/2026",
    "dataDate": "10/18/2025",
    "capacity": 0,
    "address": "220 N GLENOAKS BLVD, SUITE B",
    "city": "BURBANK",
    "zip": "91502",
    "county": "LOS ANGELES",
    "phone": "(747) 244-3433",
    "lat": 34.1843868,
    "lng": -118.3096843
  },
  {
    "id": "630021632",
    "name": "ALLCARE PALLIATIVE SERVICES, INC.",
    "npi": null,
    "hcaiId": "406195247",
    "businessName": "ALLCARE PALLIATIVE SERVICES, INC.",
    "contactEmail": "ALLCAREPALLIATIVE@YAHOO.COM",
    "categoryName": "HOSPICE",
    "categoryCode": "HOSPICE",
    "licenseStatus": "ACTIVE",
    "inService": true,
    "licenseNumber": "550007249",
    "licenseEffectiveDate": "11/18/2023",
    "licenseExpirationDate": "11/17/2025",
    "dataDate": "10/18/2025",
    "capacity": 0,
    "address": "217 W ALAMEDA AVE, SUITE 201",
    "city": "BURBANK",
    "zip": "91502",
    "county": "LOS ANGELES",
    "phone": "(818) 405-0095",
    "lat": 34.16913,
    "lng": -118.3064985
  },
  {
    "id": "630025360",
    "name": "ALLEGIANCE HOME HEALTH CARE, INC.",
    "npi": null,
    "hcaiId": "406198154",
    "businessName": "ALLEGIANCE HOME HEALTH CARE, INC.",
    "contactEmail": "ALLEGIANCEHOMEHEALTHCARE1@GMAIL.COM",
    "categoryName": "HOME HEALTH AGENCY",
    "categoryCode": "HHA",
    "licenseStatus": "ACTIVE",
    "inService": true,
    "licenseNumber": "550008801",
    "licenseEffectiveDate": "10/03/2023",
    "licenseExpirationDate": "04/02/2024",
    "dataDate": "10/18/2025",
    "capacity": 0,
    "address": "207 W ALAMEDA AVE, UNIT 203, SUITE A",
    "city": "BURBANK",
    "zip": "91502",
    "county": "LOS ANGELES",
    "phone": "(818) 553-3285",
    "lat": 34.16913,
    "lng": -118.3064985
  },
  {
    "id": "630017236",
    "name": "ALSO HOME HEALTH CARE, INC.",
    "npi": "1083154074",
    "hcaiId": "406191459",
    "businessName": "ALSO HOME HEALTH CARE, INC",
    "contactEmail": "ALSOHHC@GMAIL.COM",
    "categoryName": "HOME HEALTH AGENCY",
    "categoryCode": "HHA",
    "licenseStatus": "ACTIVE",
    "inService": true,
    "licenseNumber": "550004393",
    "licenseEffectiveDate": "09/13/2025",
    "licenseExpirationDate": "09/12/2026",
    "dataDate": "10/18/2025",
    "capacity": 0,
    "address": "224 E OLIVE AVE, SUITE 305",
    "city": "BURBANK",
    "zip": "91502",
    "county": "LOS ANGELES",
    "phone": "(818) 352-2244",
    "lat": 34.1810753,
    "lng": -118.3084538
  },
  {
    "id": "630013512",
    "name": "AMERICAN HOSPICE, INC.",
    "npi": "1326317983",
    "hcaiId": "406197787",
    "businessName": "AMERICAN HOSPICE, INC.",
    "contactEmail": "AMERICANHOSPICEINC2023@GMAIL.COM",
    "categoryName": "HOSPICE",
    "categoryCode": "HOSPICE",
    "licenseStatus": "ACTIVE",
    "inService": true,
    "licenseNumber": "550002211",
    "licenseEffectiveDate": "03/19/2025",
    "licenseExpirationDate": "03/18/2027",
    "dataDate": "10/18/2025",
    "capacity": 0,
    "address": "120 S VICTORY BLVD, SUITE 205",
    "city": "BURBANK",
    "zip": "91502",
    "county": "LOS ANGELES",
    "phone": "(818) 562-7511",
    "lat": 34.173279,
    "lng": -118.3150935
  },
  {
    "id": "630021104",
    "name": "ANESI HOSPICE",
    "npi": null,
    "hcaiId": "406193885",
    "businessName": "BUENA VISTA HOSPICE",
    "contactEmail": "ANESIHOSPICE@GMAIL.COM",
    "categoryName": "HOSPICE",
    "categoryCode": "HOSPICE",
    "licenseStatus": "ACTIVE",
    "inService": true,
    "licenseNumber": "550006985",
    "licenseEffectiveDate": "10/14/2025",
    "licenseExpirationDate": "10/13/2027",
    "dataDate": "10/18/2025",
    "capacity": 0,
    "address": "146 N SAN FERNANDO BLVD, SUITE 208",
    "city": "BURBANK",
    "zip": "91502",
    "county": "LOS ANGELES",
    "phone": "(818) 736-5555",
    "lat": 34.18167101,
    "lng": -118.309373
  },
  {
    "id": "630009541",
    "name": "APEX HOME HEALTH CARE, INC.",
    "npi": "1609066067",
    "hcaiId": "406196895",
    "businessName": "APEX HOME HEALTHCARE, INC.",
    "contactEmail": "APEXHOMEHEALTHCAREGL@GMAIL.COM",
    "categoryName": "HOME HEALTH AGENCY",
    "categoryCode": "HHA",
    "licenseStatus": "ACTIVE",
    "inService": true,
    "licenseNumber": "550000391",
    "licenseEffectiveDate": "05/26/2025",
    "licenseExpirationDate": "05/25/2026",
    "dataDate": "10/18/2025",
    "capacity": 0,
    "address": "539 N GLENOAKS BLVD, SUITE 307",
    "city": "BURBANK",
    "zip": "91502",
    "county": "LOS ANGELES",
    "phone": "(818) 500-7167",
    "lat": 34.18639081,
    "lng": -118.3110656
  },
  {
    "id": "630021449",
    "name": "ARC COMFORT HOSPICE CARE INC.",
    "npi": null,
    "hcaiId": null,
    "businessName": "ARC COMFORT HOSPICE CARE INC.",
    "contactEmail": "DUCHITEL1@GMAIL.COM",
    "categoryName": "HOSPICE",
    "categoryCode": "HOSPICE",
    "licenseStatus": "ACTIVE",
    "inService": true,
    "licenseNumber": "550007564",
    "licenseEffectiveDate": "12/17/2023",
    "licenseExpirationDate": "12/16/2025",
    "dataDate": "10/18/2025",
    "capacity": 0,
    "address": "1201 S VICTORY BLVD, SUITE 102",
    "city": "BURBANK",
    "zip": "91502",
    "county": "LOS ANGELES",
    "phone": "(818) 281-7946",
    "lat": 34.165228,
    "lng": -118.305887
  },
  {
    "id": "630020744",
    "name": "ARNA HOME HEALTH INC.",
    "npi": null,
    "hcaiId": "406195686",
    "businessName": "ARNA HOME HEALTH INC.",
    "contactEmail": "ARNAHHCARE@GMAIL.COM",
    "categoryName": "HOME HEALTH AGENCY",
    "categoryCode": "HHA",
    "licenseStatus": "ACTIVE",
    "inService": true,
    "licenseNumber": "550006533",
    "licenseEffectiveDate": "07/14/2025",
    "licenseExpirationDate": "07/13/2026",
    "dataDate": "10/18/2025",
    "capacity": 0,
    "address": "539 N GLENOAKS BLVD, UNIT 203",
    "city": "BURBANK",
    "zip": "91502",
    "county": "LOS ANGELES",
    "phone": "(818) 726-8141",
    "lat": 34.18639081,
    "lng": -118.3110656
  },
  {
    "id": "630020817",
    "name": "ASCENTIA HOME HEALTH, INC.",
    "npi": null,
    "hcaiId": "406194808",
    "businessName": "ASCENTIA HOME HEALTH, INC.",
    "contactEmail": "ASCENTIAHH@GMAIL.COM",
    "categoryName": "HOME HEALTH AGENCY",
    "categoryCode": "HHA",
    "licenseStatus": "ACTIVE",
    "inService": true,
    "licenseNumber": "550005948",
    "licenseEffectiveDate": "12/30/2024",
    "licenseExpirationDate": "12/29/2025",
    "dataDate": "10/18/2025",
    "capacity": 0,
    "address": "303 N GLENOAKS BLVD, # 243",
    "city": "BURBANK",
    "zip": "91502",
    "county": "LOS ANGELES",
    "phone": "(747) 688-0648",
    "lat": 34.18434802,
    "lng": -118.309084
  },
  {
    "id": "630017124",
    "name": "ASCLEPIUS HOME HEALTHCARE INC",
    "npi": null,
    "hcaiId": "406191455",
    "businessName": "ASCLEPIUS HOME HEALTHCARE INC.",
    "contactEmail": "ASCLEPIUSHH@YAHOO.COM",
    "categoryName": "HOME HEALTH AGENCY",
    "categoryCode": "HHA",
    "licenseStatus": "ACTIVE",
    "inService": true,
    "licenseNumber": "550004383",
    "licenseEffectiveDate": "09/27/2025",
    "licenseExpirationDate": "09/26/2026",
    "dataDate": "10/18/2025",
    "capacity": 0,
    "address": "356 E OLIVE AVE, SUITE 104",
    "city": "BURBANK",
    "zip": "91502",
    "county": "LOS ANGELES",
    "phone": "(818) 558-4070",
    "lat": 34.18254,
    "lng": -118.306368
  },
  {
    "id": "630019228",
    "name": "AVENTUS HOME HEALTH CARE, INC.",
    "npi": null,
    "hcaiId": "406192728",
    "businessName": "AVENTUS HOME HEALTH CARE, INC.",
    "contactEmail": "AVENTUSHOMEHEALTHCARE@GMAIL.COM",
    "categoryName": "HOME HEALTH AGENCY",
    "categoryCode": "HHA",
    "licenseStatus": "ACTIVE",
    "inService": true,
    "licenseNumber": "550005562",
    "licenseEffectiveDate": "07/08/2025",
    "licenseExpirationDate": "07/07/2026",
    "dataDate": "10/18/2025",
    "capacity": 0,
    "address": "361 E MAGNOLIA BLVD, SUITE REAR A",
    "city": "BURBANK",
    "zip": "91502",
    "county": "LOS ANGELES",
    "phone": "(626) 714-7129",
    "lat": 34.18527179,
    "lng": -118.3098393
  },
  {
    "id": "630025354",
    "name": "AVENUE TO HEALTH HOME HEALTH, INC.",
    "npi": null,
    "hcaiId": "406198145",
    "businessName": "AVENUE TO HEALTH HOME HEALTH, INC.",
    "contactEmail": "AVENUETOHEALTHHOMEHEALTH@GMAIL.COM",
    "categoryName": "HOME HEALTH AGENCY",
    "categoryCode": "HHA",
    "licenseStatus": "ACTIVE",
    "inService": true,
    "licenseNumber": "550008802",
    "licenseEffectiveDate": "04/03/2024",
    "licenseExpirationDate": "10/02/2024",
    "dataDate": "10/18/2025",
    "capacity": 0,
    "address": "207 W ALAMEDA AVE, UNIT 203, SUITE B",
    "city": "BURBANK",
    "zip": "91502",
    "county": "LOS ANGELES",
    "phone": "(818) 296-9186",
    "lat": 34.16913,
    "lng": -118.3064985
  },
  {
    "id": "630024045",
    "name": "AVIDA HOME HEALTH CARE, INC",
    "npi": null,
    "hcaiId": "406195890",
    "businessName": "AVIDA HOME HEALTH CARE, INC",
    "contactEmail": "AVIDAHHC@GMAIL.COM",
    "categoryName": "HOME HEALTH AGENCY",
    "categoryCode": "HHA",
    "licenseStatus": "ACTIVE",
    "inService": true,
    "licenseNumber": "550008083",
    "licenseEffectiveDate": "07/22/2025",
    "licenseExpirationDate": "07/21/2026",
    "dataDate": "10/18/2025",
    "capacity": 0,
    "address": "400 S VICTORY BLVD, SUITE 205",
    "city": "BURBANK",
    "zip": "91502",
    "county": "LOS ANGELES",
    "phone": "(888) 228-1528",
    "lat": 34.17046302,
    "lng": -118.314486
  },
  {
    "id": "630021168",
    "name": "BBB HOSPICE, INC",
    "npi": null,
    "hcaiId": "406195183",
    "businessName": "BBB HOSPICE, INC",
    "contactEmail": "BBBHOSPICE@YAHOO.COM",
    "categoryName": "HOSPICE",
    "categoryCode": "HOSPICE",
    "licenseStatus": "ACTIVE",
    "inService": true,
    "licenseNumber": "550007552",
    "licenseEffectiveDate": "12/13/2023",
    "licenseExpirationDate": "12/12/2025",
    "dataDate": "10/18/2025",
    "capacity": 0,
    "address": "303 N GLENOAKS BLVD, SUITE 241",
    "city": "BURBANK",
    "zip": "91502",
    "county": "LOS ANGELES",
    "phone": "(747) 326-0006",
    "lat": 34.184367,
    "lng": -118.3090455
  },
  {
    "id": "630019375",
    "name": "BELIEVE HOME HEALTH CARE INC",
    "npi": null,
    "hcaiId": "406192521",
    "businessName": "BELIEVE HOME HEALTH CARE INC",
    "contactEmail": "HOMEHEALTHBELIEVE@GMAIL.COM",
    "categoryName": "HOME HEALTH AGENCY",
    "categoryCode": "HHA",
    "licenseStatus": "ACTIVE",
    "inService": true,
    "licenseNumber": "550005359",
    "licenseEffectiveDate": "03/13/2025",
    "licenseExpirationDate": "03/12/2026",
    "dataDate": "10/18/2025",
    "capacity": 0,
    "address": "348 E OLIVE AVE, SUITE J2",
    "city": "BURBANK",
    "zip": "91502",
    "county": "LOS ANGELES",
    "phone": null,
    "lat": 34.182432,
    "lng": -118.3064985
  },
  {
    "id": "630018125",
    "name": "BELOVED HOME HEALTH CARE, INC.",
    "npi": null,
    "hcaiId": "406193155",
    "businessName": "BELOVED HOME HEALTH CARE, INC.",
    "contactEmail": "BELOVEDHOMEHEALTHINC@GMAIL.COM",
    "categoryName": "HOME HEALTH AGENCY",
    "categoryCode": "HHA",
    "licenseStatus": "ACTIVE",
    "inService": true,
    "licenseNumber": "550006214",
    "licenseEffectiveDate": "01/26/2025",
    "licenseExpirationDate": "01/25/2026",
    "dataDate": "10/18/2025",
    "capacity": 0,
    "address": "103 W ALAMEDA AVE, SUITE 121",
    "city": "BURBANK",
    "zip": "91502",
    "county": "LOS ANGELES",
    "phone": "(818) 697-4712",
    "lat": 34.17139687,
    "lng": -118.3031171
  },
  {
    "id": "630020588",
    "name": "BENIGN CARE HOSPICE, INC.",
    "npi": null,
    "hcaiId": null,
    "businessName": "BENIGN CARE HOSPICE, INC.",
    "contactEmail": "BENIGNCAREHOSPICEINC@GMAIL.COM",
    "categoryName": "HOSPICE",
    "categoryCode": "HOSPICE",
    "licenseStatus": "ACTIVE",
    "inService": true,
    "licenseNumber": "550006647",
    "licenseEffectiveDate": "07/14/2023",
    "licenseExpirationDate": "07/13/2025",
    "dataDate": "10/18/2025",
    "capacity": 0,
    "address": "356 E OLIVE AVE, SUITE 114",
    "city": "BURBANK",
    "zip": "91502",
    "county": "LOS ANGELES",
    "phone": "(747) 322-5762",
    "lat": 34.18254,
    "lng": -118.306368
  },
  {
    "id": "630015737",
    "name": "BLESSED HEART HOME CARE, INC.",
    "npi": "1417353723",
    "hcaiId": "406198503",
    "businessName": "BLESSED HEART HOME CARE, INC.",
    "contactEmail": "BLESSEDHEARTCARE@GMAIL.COM",
    "categoryName": "HOME HEALTH AGENCY",
    "categoryCode": "HHA",
    "licenseStatus": "ACTIVE",
    "inService": true,
    "licenseNumber": "550003951",
    "licenseEffectiveDate": "08/07/2025",
    "licenseExpirationDate": "08/06/2026",
    "dataDate": "10/18/2025",
    "capacity": 0,
    "address": "353 E ANGELENO AVE, SUITE J",
    "city": "BURBANK",
    "zip": "91502",
    "county": "LOS ANGELES",
    "phone": "(818) 556-3611",
    "lat": 34.182099,
    "lng": -118.3058775
  },
  {
    "id": "630018916",
    "name": "BRIGHT STAR HOME HEALTH CARE, INC.",
    "npi": null,
    "hcaiId": "406192688",
    "businessName": "BRIGHT STAR HOME HEALTH CARE, INC.",
    "contactEmail": "DAVIDVARTANJAN@YAHOO.COM",
    "categoryName": "HOME HEALTH AGENCY",
    "categoryCode": "HHA",
    "licenseStatus": "ACTIVE",
    "inService": true,
    "licenseNumber": "550005503",
    "licenseEffectiveDate": "05/14/2022",
    "licenseExpirationDate": "05/13/2023",
    "dataDate": "10/18/2025",
    "capacity": 0,
    "address": "150 E OLIVE AVE, SUITE 306",
    "city": "BURBANK",
    "zip": "91502",
    "county": "LOS ANGELES",
    "phone": "(747) 237-5999",
    "lat": 34.180371,
    "lng": -118.308672
  },
  {
    "id": "630020736",
    "name": "BRIGHTSTAR HOSPICE, INC",
    "npi": null,
    "hcaiId": "406196735",
    "businessName": "BRIGHTSTAR HOSPICE, INC",
    "contactEmail": "BRIGHTSTARHOSPICEINC@YAHOO.COM",
    "categoryName": "HOSPICE",
    "categoryCode": "HOSPICE",
    "licenseStatus": "ACTIVE",
    "inService": true,
    "licenseNumber": "550006463",
    "licenseEffectiveDate": "06/25/2025",
    "licenseExpirationDate": "06/24/2027",
    "dataDate": "10/18/2025",
    "capacity": 0,
    "address": "120 N VICTORY BLVD, SUITE 304",
    "city": "BURBANK",
    "zip": "91502",
    "county": "LOS ANGELES",
    "phone": "(818) 921-6050",
    "lat": 34.17435599,
    "lng": -118.316561
  },
  {
    "id": "630013338",
    "name": "CALIFORNIA HOME HEALTH",
    "npi": "1558787556",
    "hcaiId": "406197685",
    "businessName": "CALIFORNIA HOSPICE CORP.",
    "contactEmail": "CALIFORNIAHOMEHEALTHCORP@GMAIL.COM",
    "categoryName": "HOME HEALTH AGENCY",
    "categoryCode": "HHA",
    "licenseStatus": "ACTIVE",
    "inService": true,
    "licenseNumber": "550001931",
    "licenseEffectiveDate": "07/14/2025",
    "licenseExpirationDate": "04/23/2026",
    "dataDate": "10/18/2025",
    "capacity": 0,
    "address": "217 W ALAMEDA AVE, SUITE 202",
    "city": "BURBANK",
    "zip": "91502",
    "county": "LOS ANGELES",
    "phone": "(818) 238-9995",
    "lat": 34.16913,
    "lng": -118.3064985
  },
  {
    "id": "630013318",
    "name": "CALIFORNIA HOSPICE CORP.",
    "npi": "1255615548",
    "hcaiId": "406197717",
    "businessName": "CALIFORNIA HOSPICE CORP.",
    "contactEmail": "CALIHOSPICE@GMAIL.COM",
    "categoryName": "HOSPICE",
    "categoryCode": "HOSPICE",
    "licenseStatus": "ACTIVE",
    "inService": true,
    "licenseNumber": "550001932",
    "licenseEffectiveDate": "04/24/2024",
    "licenseExpirationDate": "04/23/2026",
    "dataDate": "10/18/2025",
    "capacity": 0,
    "address": "905 S. LAKE ST., SUITE 202",
    "city": "BURBANK",
    "zip": "91502",
    "county": "LOS ANGELES",
    "phone": "(818) 557-6444",
    "lat": 34.16913,
    "lng": -118.3064985
  },
  {
    "id": "630020626",
    "name": "CARE HEALTH HOSPICE, INC",
    "npi": null,
    "hcaiId": null,
    "businessName": "CARE HEALTH HOSPICE, INC",
    "contactEmail": "CAREHOSPICEINC1@GMAIL.COM",
    "categoryName": "HOSPICE",
    "categoryCode": "HOSPICE",
    "licenseStatus": "ACTIVE",
    "inService": true,
    "licenseNumber": "550006356",
    "licenseEffectiveDate": "06/02/2025",
    "licenseExpirationDate": "06/01/2027",
    "dataDate": "10/18/2025",
    "capacity": 0,
    "address": "315 W VERDUGO AVE, SUITE 209",
    "city": "BURBANK",
    "zip": "91502",
    "county": "LOS ANGELES",
    "phone": "(747) 200-0062",
    "lat": 34.171021,
    "lng": -118.314458
  },
  {
    "id": "630011522",
    "name": "CARITAS HOME HEALTH PROVIDERS, INC.",
    "npi": null,
    "hcaiId": "406197231",
    "businessName": "CARITAS HOME HEALTH PROVIDERS, INC.",
    "contactEmail": "CARITASHHPINC@GMAIL.COM",
    "categoryName": "HOME HEALTH AGENCY",
    "categoryCode": "HHA",
    "licenseStatus": "ACTIVE",
    "inService": true,
    "licenseNumber": "550000942",
    "licenseEffectiveDate": "04/03/2025",
    "licenseExpirationDate": "04/02/2026",
    "dataDate": "10/18/2025",
    "capacity": 0,
    "address": "209 E ALAMEDA AVE, SUITE 203",
    "city": "BURBANK",
    "zip": "91502",
    "county": "LOS ANGELES",
    "phone": "(818) 557-8777",
    "lat": 34.175115,
    "lng": -118.299528
  },
  {
    "id": "630020923",
    "name": "CIPHER HOME HEALTH",
    "npi": null,
    "hcaiId": "406195521",
    "businessName": "CIPHER HOME HEALTH",
    "contactEmail": "CIPHERHOMEHEALTH@GMAIL.COM",
    "categoryName": "HOME HEALTH AGENCY",
    "categoryCode": "HHA",
    "licenseStatus": "ACTIVE",
    "inService": true,
    "licenseNumber": "550006861",
    "licenseEffectiveDate": "09/22/2024",
    "licenseExpirationDate": "09/21/2025",
    "dataDate": "10/18/2025",
    "capacity": 0,
    "address": "427 S VICTORY BLVD, SUITE 103",
    "city": "BURBANK",
    "zip": "91502",
    "county": "LOS ANGELES",
    "phone": "(818) 621-4212",
    "lat": 34.16994757,
    "lng": -118.3143045
  },
  {
    "id": "630020931",
    "name": "CIPHER HOSPICE",
    "npi": null,
    "hcaiId": "406193927",
    "businessName": "CIPHER HOSPICE",
    "contactEmail": "CIPHERHOSPICE@GMAIL.COM",
    "categoryName": "HOSPICE",
    "categoryCode": "HOSPICE",
    "licenseStatus": "ACTIVE",
    "inService": true,
    "licenseNumber": "550007138",
    "licenseEffectiveDate": "08/12/2023",
    "licenseExpirationDate": "08/11/2025",
    "dataDate": "10/18/2025",
    "capacity": 0,
    "address": "427 S VICTORY BLVD, SUITE 104",
    "city": "BURBANK",
    "zip": "91502",
    "county": "LOS ANGELES",
    "phone": "(747) 272-5835",
    "lat": 34.16994757,
    "lng": -118.3143045
  },
  {
    "id": "630013951",
    "name": "CIRCLE OF LIFE HOSPICE",
    "npi": "1427308014",
    "hcaiId": "406197846",
    "businessName": "CIRCLE OF LIFE HOSPICE",
    "contactEmail": "CIRCLEOFLIFEHOSPICE1@GMAIL.COM",
    "categoryName": "HOSPICE",
    "categoryCode": "HOSPICE",
    "licenseStatus": "ACTIVE",
    "inService": false,
    "licenseNumber": "550002443",
    "licenseEffectiveDate": "09/18/2025",
    "licenseExpirationDate": "09/17/2027",
    "dataDate": "10/18/2025",
    "capacity": 0,
    "address": "315 W VERDUGO AVE, SUITE 212",
    "city": "BURBANK",
    "zip": "91502",
    "county": "LOS ANGELES",
    "phone": "(747) 677-1009",
    "lat": 34.17102,
    "lng": -118.314441
  },
  {
    "id": "630017874",
    "name": "COAST LINE INFUSION, INC.",
    "npi": null,
    "hcaiId": "406191704",
    "businessName": "COAST LINE INFUSION, INC.",
    "contactEmail": "GT@COASTLINEINFUSION.COM",
    "categoryName": "HOME HEALTH AGENCY",
    "categoryCode": "HHA",
    "licenseStatus": "ACTIVE",
    "inService": true,
    "licenseNumber": "550004695",
    "licenseEffectiveDate": "05/01/2025",
    "licenseExpirationDate": "04/30/2026",
    "dataDate": "10/18/2025",
    "capacity": 0,
    "address": "303 N GLENOAKS BLVD, SUITE 200",
    "city": "BURBANK",
    "zip": "91502",
    "county": "LOS ANGELES",
    "phone": "(818) 652-8000",
    "lat": 34.18434,
    "lng": -118.3090635
  },
  {
    "id": "630022122",
    "name": "CORAL HOSPICE, INC.",
    "npi": null,
    "hcaiId": "406193995",
    "businessName": "CORAL HOSPICE, INC.",
    "contactEmail": "CORALHOSPICE@GMAIL.COM",
    "categoryName": "HOSPICE",
    "categoryCode": "HOSPICE",
    "licenseStatus": "ACTIVE",
    "inService": true,
    "licenseNumber": "550007652",
    "licenseEffectiveDate": "12/21/2023",
    "licenseExpirationDate": "12/20/2025",
    "dataDate": "10/18/2025",
    "capacity": 0,
    "address": "358 E OLIVE AVE, SUITE 104",
    "city": "BURBANK",
    "zip": "91502",
    "county": "LOS ANGELES",
    "phone": "(808) 322-6108",
    "lat": 34.182711,
    "lng": -118.306404
  },
  {
    "id": "630021853",
    "name": "D & A HOME HEALTH SERVICES",
    "npi": null,
    "hcaiId": "406193417",
    "businessName": "D & A HOME HEALTH SERVICES",
    "contactEmail": "DANDAHOMEHEALTH@GMAIL.COM",
    "categoryName": "HOME HEALTH AGENCY",
    "categoryCode": "HHA",
    "licenseStatus": "ACTIVE",
    "inService": true,
    "licenseNumber": "550006906",
    "licenseEffectiveDate": "10/07/2025",
    "licenseExpirationDate": "10/06/2026",
    "dataDate": "10/18/2025",
    "capacity": 0,
    "address": "909 S VICTORY BLVD",
    "city": "BURBANK",
    "zip": "91502",
    "county": "LOS ANGELES",
    "phone": "(626) 313-3399",
    "lat": 34.16713699,
    "lng": -118.308825
  },
  {
    "id": "630024997",
    "name": "DEPENDABLE CARE HOME HEALTH, INC.",
    "npi": null,
    "hcaiId": "406195961",
    "businessName": "DEPENDABLE CARE HOME HEALTH, INC.",
    "contactEmail": "DEPENDABLECAREHHC@GMAIL.COM",
    "categoryName": "HOME HEALTH AGENCY",
    "categoryCode": "HHA",
    "licenseStatus": "ACTIVE",
    "inService": true,
    "licenseNumber": "550008190",
    "licenseEffectiveDate": "09/22/2025",
    "licenseExpirationDate": "09/21/2026",
    "dataDate": "10/18/2025",
    "capacity": 0,
    "address": "221 W ALAMEDA AVE, SUITE 204A",
    "city": "BURBANK",
    "zip": "91502",
    "county": "LOS ANGELES",
    "phone": "(747) 600-1101",
    "lat": 34.16931901,
    "lng": -118.306364
  },
  {
    "id": "630020010",
    "name": "DESIRE HOSPICE CARE, INC",
    "npi": null,
    "hcaiId": "406192985",
    "businessName": "DESIRE HOSPICE CARE, INC",
    "contactEmail": "DESIREHOSPICE@GMAIL.COM",
    "categoryName": "HOSPICE",
    "categoryCode": "HOSPICE",
    "licenseStatus": "ACTIVE",
    "inService": true,
    "licenseNumber": "550005851",
    "licenseEffectiveDate": "10/19/2024",
    "licenseExpirationDate": "10/18/2026",
    "dataDate": "10/18/2025",
    "capacity": 0,
    "address": "150 E OLIVE AVE, SUITE 216",
    "city": "BURBANK",
    "zip": "91502",
    "county": "LOS ANGELES",
    "phone": "(818) 453-5116",
    "lat": 34.180371,
    "lng": -118.308672
  },
  {
    "id": "630025215",
    "name": "DIVINE PROVIDENCE HOME HEALTH CARE",
    "npi": null,
    "hcaiId": "406196303",
    "businessName": "DIVINE PROVIDENCE HOME HEALTH CARE",
    "contactEmail": "DIVINEPROVIDENCEHOMEHEALTH@GMAIL.COM",
    "categoryName": "HOME HEALTH AGENCY",
    "categoryCode": "HHA",
    "licenseStatus": "ACTIVE",
    "inService": true,
    "licenseNumber": "550008463",
    "licenseEffectiveDate": "10/14/2025",
    "licenseExpirationDate": "03/26/2026",
    "dataDate": "10/18/2025",
    "capacity": 0,
    "address": "217 E ALAMEDA AVE, SUITE 201",
    "city": "BURBANK",
    "zip": "91502",
    "county": "LOS ANGELES",
    "phone": "(747) 800-3815",
    "lat": 34.17534,
    "lng": -118.2993795
  },
  {
    "id": "630018821",
    "name": "EASI HOSPICE INC",
    "npi": "1871156729",
    "hcaiId": "406191864",
    "businessName": "EASI HOSPICE INC",
    "contactEmail": "INFO@EASIHOSPICE.COM",
    "categoryName": "HOSPICE",
    "categoryCode": "HOSPICE",
    "licenseStatus": "ACTIVE",
    "inService": true,
    "licenseNumber": "550004870",
    "licenseEffectiveDate": "12/15/2023",
    "licenseExpirationDate": "07/31/2025",
    "dataDate": "10/18/2025",
    "capacity": 0,
    "address": "102 E PROSPECT AVE",
    "city": "BURBANK",
    "zip": "91502",
    "county": "LOS ANGELES",
    "phone": "(818) 651-7273",
    "lat": 34.172602,
    "lng": -118.300293
  },
  {
    "id": "630013463",
    "name": "ENCORE HOSPICE, INC.",
    "npi": null,
    "hcaiId": "406197889",
    "businessName": "ENCORE HOSPICE CORP",
    "contactEmail": "ENCOREHOSPICE@YAHOO.COM",
    "categoryName": "HOSPICE",
    "categoryCode": "HOSPICE",
    "licenseStatus": "ACTIVE",
    "inService": true,
    "licenseNumber": "550002075",
    "licenseEffectiveDate": "11/21/2022",
    "licenseExpirationDate": "11/20/2024",
    "dataDate": "10/18/2025",
    "capacity": 0,
    "address": "271 W ALAMEDA AVE",
    "city": "BURBANK",
    "zip": "91502",
    "county": "LOS ANGELES",
    "phone": "(818) 566-8880",
    "lat": 34.1672905,
    "lng": -118.3074949
  },
  {
    "id": "630025733",
    "name": "ERA HOME HEALTH INC",
    "npi": null,
    "hcaiId": null,
    "businessName": "ERA HOME HEALTH INC",
    "contactEmail": "ERAHOMEHEALTHINC@GMAIL.COM",
    "categoryName": "HOME HEALTH AGENCY",
    "categoryCode": "HHA",
    "licenseStatus": "ACTIVE",
    "inService": true,
    "licenseNumber": "550009060",
    "licenseEffectiveDate": "10/08/2024",
    "licenseExpirationDate": "04/07/2025",
    "dataDate": "10/18/2025",
    "capacity": 0,
    "address": "303 N GLENOAKS BLVD, SUITE 200 OFFICE 236",
    "city": "BURBANK",
    "zip": "91502",
    "county": "LOS ANGELES",
    "phone": "(818) 547-6324",
    "lat": 34.184367,
    "lng": -118.3090455
  },
  {
    "id": "630015856",
    "name": "ETERNAL FAITH HOSPICE, INC.",
    "npi": "1962892588",
    "hcaiId": "406191616",
    "businessName": "ETERNAL FAITH HOSPICE, INC.",
    "contactEmail": "ETERNALFAITHHOSPICE@GMAIL.COM",
    "categoryName": "HOSPICE",
    "categoryCode": "HOSPICE",
    "licenseStatus": "ACTIVE",
    "inService": true,
    "licenseNumber": "550003747",
    "licenseEffectiveDate": "12/09/2024",
    "licenseExpirationDate": "12/08/2026",
    "dataDate": "10/18/2025",
    "capacity": 0,
    "address": "315 W VERDUGO AVE, SUITE 116",
    "city": "BURBANK",
    "zip": "91502",
    "county": "LOS ANGELES",
    "phone": "(747) 231-3950",
    "lat": 34.17102,
    "lng": -118.314441
  },
  {
    "id": "630018456",
    "name": "ETHOS HOME HEALTH CARE",
    "npi": null,
    "hcaiId": "406191781",
    "businessName": "ETHOS HOME HEALTH CARE",
    "contactEmail": "ETHOSHOMEHEALTH@GMAIL.COM",
    "categoryName": "HOME HEALTH AGENCY",
    "categoryCode": "HHA",
    "licenseStatus": "ACTIVE",
    "inService": true,
    "licenseNumber": "550004882",
    "licenseEffectiveDate": "08/24/2025",
    "licenseExpirationDate": "08/23/2026",
    "dataDate": "10/18/2025",
    "capacity": 0,
    "address": "150 E OLIVE AVE, SUITE 212",
    "city": "BURBANK",
    "zip": "91502",
    "county": "LOS ANGELES",
    "phone": "(818) 796-6528",
    "lat": 34.180371,
    "lng": -118.308672
  },
  {
    "id": "630017635",
    "name": "EVERCARE HOME HEALTH, INC.",
    "npi": "1538686738",
    "hcaiId": "406192016",
    "businessName": "EVERCARE HOME HEALTH, INC.",
    "contactEmail": "EVERCAREHH@GMAIL.COM",
    "categoryName": "HOME HEALTH AGENCY",
    "categoryCode": "HHA",
    "licenseStatus": "ACTIVE",
    "inService": true,
    "licenseNumber": "550005080",
    "licenseEffectiveDate": "11/09/2024",
    "licenseExpirationDate": "11/08/2025",
    "dataDate": "10/18/2025",
    "capacity": 0,
    "address": "315 W VERDUGO AVE, SUITE 100",
    "city": "BURBANK",
    "zip": "91502",
    "county": "LOS ANGELES",
    "phone": "(818) 925-4010",
    "lat": 34.171021,
    "lng": -118.314458
  },
  {
    "id": "630025316",
    "name": "EVERY DAY HOME HEALTH CARE, INC",
    "npi": null,
    "hcaiId": null,
    "businessName": "EVERY DAY HOME HEALTH CARE, INC",
    "contactEmail": "EVERYDAY.HOMEHEALTH@YAHOO.COM",
    "categoryName": "HOME HEALTH AGENCY",
    "categoryCode": "HHA",
    "licenseStatus": "ACTIVE",
    "inService": true,
    "licenseNumber": "550008525",
    "licenseEffectiveDate": "05/03/2025",
    "licenseExpirationDate": "05/02/2026",
    "dataDate": "10/18/2025",
    "capacity": 0,
    "address": "220 N GLENOAKS BLVD, SUITE E",
    "city": "BURBANK",
    "zip": "91502",
    "county": "LOS ANGELES",
    "phone": "(747) 788-9648",
    "lat": 34.18430854,
    "lng": -118.3076502
  },
  {
    "id": "630015681",
    "name": "EXCELL HOSPICE CARE, INC.",
    "npi": "1033515218",
    "hcaiId": "406190823",
    "businessName": "EXCELL HOSPICE CARE, INC.",
    "contactEmail": "EXCELLHOSPICECARE@GMAIL.COM",
    "categoryName": "HOSPICE",
    "categoryCode": "HOSPICE",
    "licenseStatus": "ACTIVE",
    "inService": true,
    "licenseNumber": "550003725",
    "licenseEffectiveDate": "06/10/2021",
    "licenseExpirationDate": "11/28/2022",
    "dataDate": "10/18/2025",
    "capacity": 0,
    "address": "150 E OLIVE AVE, SUITE 210",
    "city": "BURBANK",
    "zip": "91502",
    "county": "LOS ANGELES",
    "phone": "(818) 616-3959",
    "lat": 34.180371,
    "lng": -118.308672
  },
  {
    "id": "630024273",
    "name": "EXPERT CARE",
    "npi": null,
    "hcaiId": "406197597",
    "businessName": "EXPERT CARE",
    "contactEmail": "4EXPERTCARE@GMAIL.COM",
    "categoryName": "HOME HEALTH AGENCY",
    "categoryCode": "HHA",
    "licenseStatus": "ACTIVE",
    "inService": true,
    "licenseNumber": "550008345",
    "licenseEffectiveDate": "03/11/2025",
    "licenseExpirationDate": "01/26/2026",
    "dataDate": "10/18/2025",
    "capacity": 0,
    "address": "425 S VICTORY BLVD, SUITE C",
    "city": "BURBANK",
    "zip": "91502",
    "county": "LOS ANGELES",
    "phone": "(800) 607-4525",
    "lat": 34.16977344,
    "lng": -118.3142141
  },
  {
    "id": "630025374",
    "name": "EXPLICIT COMFORT HOME HEALTH CARE, INC.",
    "npi": null,
    "hcaiId": "406197463",
    "businessName": "EXPLICIT COMFORT HOME HEALTH CARE, INC.",
    "contactEmail": "EXPLICITCOMFORTHHA@GMAIL.COM",
    "categoryName": "HOME HEALTH AGENCY",
    "categoryCode": "HHA",
    "licenseStatus": "ACTIVE",
    "inService": true,
    "licenseNumber": "550008564",
    "licenseEffectiveDate": "06/02/2025",
    "licenseExpirationDate": "06/01/2026",
    "dataDate": "10/18/2025",
    "capacity": 0,
    "address": "539 N GLENOAKS BLVD, SUITE 305",
    "city": "BURBANK",
    "zip": "91502",
    "county": "LOS ANGELES",
    "phone": "(800) 988-7478",
    "lat": 34.186356,
    "lng": -118.310976
  },
  {
    "id": "630013312",
    "name": "FAITH IN ANGELS HOSPICE",
    "npi": "1962786335",
    "hcaiId": "406197684",
    "businessName": "FAITH IN ANGELS HOSPICE, INC.",
    "contactEmail": "FIAHOSPICE@GMAIL.COM",
    "categoryName": "HOSPICE",
    "categoryCode": "HOSPICE",
    "licenseStatus": "ACTIVE",
    "inService": true,
    "licenseNumber": "550001933",
    "licenseEffectiveDate": "04/11/2024",
    "licenseExpirationDate": "04/10/2026",
    "dataDate": "10/18/2025",
    "capacity": 0,
    "address": "120 S VICTORY BLVD, SUITE 203",
    "city": "BURBANK",
    "zip": "91502",
    "county": "LOS ANGELES",
    "phone": "(818) 509-0934",
    "lat": 34.173279,
    "lng": -118.3150935
  },
  {
    "id": "630016600",
    "name": "FELICITY HOSPICE SERVICES, INC.",
    "npi": null,
    "hcaiId": "406190859",
    "businessName": "FELICITY HOSPICE SERVICES, INC.",
    "contactEmail": "FELICITYHOSPICE@GMAIL.COM",
    "categoryName": "HOSPICE",
    "categoryCode": "HOSPICE",
    "licenseStatus": "ACTIVE",
    "inService": true,
    "licenseNumber": "550004096",
    "licenseEffectiveDate": "12/18/2023",
    "licenseExpirationDate": "12/17/2025",
    "dataDate": "10/18/2025",
    "capacity": 0,
    "address": "303 N. GLENOAKS BLVD., SUITE 200",
    "city": "BURBANK",
    "zip": "91502",
    "county": "LOS ANGELES",
    "phone": "(747) 283-1400",
    "lat": 34.18434,
    "lng": -118.3090635
  },
  {
    "id": "630018989",
    "name": "FIDELIS HOME HEALTH CARE",
    "npi": "1720647498",
    "hcaiId": "406192497",
    "businessName": "FIDELIS HOME HEALTH CARE",
    "contactEmail": "FIDELISHHC@GMAIL.COM",
    "categoryName": "HOME HEALTH AGENCY",
    "categoryCode": "HHA",
    "licenseStatus": "ACTIVE",
    "inService": true,
    "licenseNumber": "550005422",
    "licenseEffectiveDate": "04/29/2025",
    "licenseExpirationDate": "04/28/2026",
    "dataDate": "10/18/2025",
    "capacity": 0,
    "address": "358 E OLIVE AVE, UNIT 101",
    "city": "BURBANK",
    "zip": "91502",
    "county": "LOS ANGELES",
    "phone": "(747) 333-0008",
    "lat": 34.182711,
    "lng": -118.306404
  },
  {
    "id": "630012153",
    "name": "FIRST AID HOME HEALTH CARE, INC.",
    "npi": "1710173166",
    "hcaiId": "406197361",
    "businessName": "FIRST AID HOME HEALTH CARE, INC.",
    "contactEmail": "FIRSTAIDHH@YAHOO.COM",
    "categoryName": "HOME HEALTH AGENCY",
    "categoryCode": "HHA",
    "licenseStatus": "ACTIVE",
    "inService": true,
    "licenseNumber": "550001229",
    "licenseEffectiveDate": "02/26/2025",
    "licenseExpirationDate": "02/25/2026",
    "dataDate": "10/18/2025",
    "capacity": 0,
    "address": "337 E MAGNOLIA BLVD, UNIT A",
    "city": "BURBANK",
    "zip": "91502",
    "county": "LOS ANGELES",
    "phone": "(818) 563-3337",
    "lat": 34.184997,
    "lng": -118.3099185
  },
  {
    "id": "630027835",
    "name": "FIRST CHOICE ADHC",
    "npi": null,
    "hcaiId": null,
    "businessName": "FIRST CHOICE ADHC, INC.",
    "contactEmail": "FIRSTCHOICEADHC@GMAIL.COM",
    "categoryName": "ADULT DAY HEALTH CARE",
    "categoryCode": "ADHC",
    "licenseStatus": "ACTIVE",
    "inService": true,
    "licenseNumber": "550009654",
    "licenseEffectiveDate": "04/11/2025",
    "licenseExpirationDate": "01/12/2026",
    "dataDate": "10/18/2025",
    "capacity": 0,
    "address": "607 S GLENOAKS BLVD",
    "city": "BURBANK",
    "zip": "91502",
    "county": "LOS ANGELES",
    "phone": "(747) 212-1900",
    "lat": 34.1791229,
    "lng": -118.300898
  },
  {
    "id": "630025704",
    "name": "FLOWER HHA",
    "npi": null,
    "hcaiId": "406198009",
    "businessName": "FLOWER HHA",
    "contactEmail": "FLOWERHHAGENCY@GMAIL.COM",
    "categoryName": "HOME HEALTH AGENCY",
    "categoryCode": "HHA",
    "licenseStatus": "ACTIVE",
    "inService": true,
    "licenseNumber": "550008776",
    "licenseEffectiveDate": "10/16/2025",
    "licenseExpirationDate": "10/15/2026",
    "dataDate": "10/18/2025",
    "capacity": 0,
    "address": "103 W ALAMEDA AVE, SUITE 100",
    "city": "BURBANK",
    "zip": "91502",
    "county": "LOS ANGELES",
    "phone": "(747) 333-6346",
    "lat": 34.17139687,
    "lng": -118.3031171
  },
  {
    "id": "630021665",
    "name": "FULL HEARTS HOSPICE CARE, INC.",
    "npi": null,
    "hcaiId": "406193406",
    "businessName": "FULL HEARTS HOSPICE CARE, INC.",
    "contactEmail": "FULLHEARTSHOSPICECARE@GMAIL.COM",
    "categoryName": "HOSPICE",
    "categoryCode": "HOSPICE",
    "licenseStatus": "ACTIVE",
    "inService": true,
    "licenseNumber": "550007130",
    "licenseEffectiveDate": "10/19/2023",
    "licenseExpirationDate": "10/18/2025",
    "dataDate": "10/18/2025",
    "capacity": 0,
    "address": "530 S GLENOAKS BLVD, SUITE 207",
    "city": "BURBANK",
    "zip": "91502",
    "county": "LOS ANGELES",
    "phone": "(424) 600-8088",
    "lat": 34.180101,
    "lng": -118.301535
  },
  {
    "id": "630017046",
    "name": "GENTLE HEALING/CARE INC.",
    "npi": "1184170888",
    "hcaiId": "406190451",
    "businessName": "GENTLE HEALING/CARE INC.",
    "contactEmail": "GHCARE2016@GMAIL.COM",
    "categoryName": "HOME HEALTH AGENCY",
    "categoryCode": "HHA",
    "licenseStatus": "ACTIVE",
    "inService": true,
    "licenseNumber": "550004130",
    "licenseEffectiveDate": "12/22/2024",
    "licenseExpirationDate": "12/21/2025",
    "dataDate": "10/18/2025",
    "capacity": 0,
    "address": "217 EAST ALAMEDA AVENUE, SUITE 302",
    "city": "BURBANK",
    "zip": "91502",
    "county": "LOS ANGELES",
    "phone": "(818) 588-4698",
    "lat": 34.175331,
    "lng": -118.299366
  },
  {
    "id": "630015368",
    "name": "GL HOME HEALTH CARE, INC",
    "npi": "1447668991",
    "hcaiId": "406198194",
    "businessName": "GL HOME HEALTH CARE, INC.",
    "contactEmail": "INFO@GLHOMEHEALTHCARE.COM",
    "categoryName": "HOME HEALTH AGENCY",
    "categoryCode": "HHA",
    "licenseStatus": "ACTIVE",
    "inService": true,
    "licenseNumber": "550003384",
    "licenseEffectiveDate": "01/20/2025",
    "licenseExpirationDate": "01/19/2026",
    "dataDate": "10/18/2025",
    "capacity": 0,
    "address": "150 E OLIVE AVE, SUITE 209",
    "city": "BURBANK",
    "zip": "91502",
    "county": "LOS ANGELES",
    "phone": "(818) 849-6134",
    "lat": 34.180371,
    "lng": -118.308672
  },
  {
    "id": "630025762",
    "name": "GLEN WEST HEALTH SERVICES",
    "npi": null,
    "hcaiId": "406198166",
    "businessName": "GLEN WEST HEALTH SERVICES",
    "contactEmail": "GLENWESTHS@QMAIL.COM",
    "categoryName": "HOME HEALTH AGENCY",
    "categoryCode": "HHA",
    "licenseStatus": "ACTIVE",
    "inService": true,
    "licenseNumber": "550008773",
    "licenseEffectiveDate": "10/13/2024",
    "licenseExpirationDate": "10/12/2025",
    "dataDate": "10/18/2025",
    "capacity": 0,
    "address": "135 N VICTORY BLVD, SUITE 3",
    "city": "BURBANK",
    "zip": "91502",
    "county": "LOS ANGELES",
    "phone": "(747) 273-2528",
    "lat": 34.174494,
    "lng": -118.317375
  },
  {
    "id": "630021605",
    "name": "GLENWOOD HOME, INC.",
    "npi": null,
    "hcaiId": "406193386",
    "businessName": "GLENWOOD HOME, INC.",
    "contactEmail": "GLENWOODHHS@GMAIL.COM",
    "categoryName": "HOME HEALTH AGENCY",
    "categoryCode": "HHA",
    "licenseStatus": "ACTIVE",
    "inService": true,
    "licenseNumber": "550006433",
    "licenseEffectiveDate": "06/23/2025",
    "licenseExpirationDate": "06/22/2026",
    "dataDate": "10/18/2025",
    "capacity": 0,
    "address": "425 S VICTORY BLVD, SUITE D",
    "city": "BURBANK",
    "zip": "91502",
    "county": "LOS ANGELES",
    "phone": "(747) 477-1401",
    "lat": 34.169769,
    "lng": -118.3141755
  },
  {
    "id": "630011029",
    "name": "GLOBAL HOME HEALTH, INC.",
    "npi": "1407937402",
    "hcaiId": "406196941",
    "businessName": "GLOBAL HOME HEALTH, INC.",
    "contactEmail": "GLOBALHH@SBCGLOBAL.NET",
    "categoryName": "HOME HEALTH AGENCY",
    "categoryCode": "HHA",
    "licenseStatus": "ACTIVE",
    "inService": true,
    "licenseNumber": "550000437",
    "licenseEffectiveDate": "01/14/2025",
    "licenseExpirationDate": "01/13/2026",
    "dataDate": "10/18/2025",
    "capacity": 0,
    "address": "515 N VICTORY BLVD",
    "city": "BURBANK",
    "zip": "91502",
    "county": "LOS ANGELES",
    "phone": "(818) 508-9911",
    "lat": 34.178679,
    "lng": -118.3190711
  },
  {
    "id": "630019262",
    "name": "GOOD FAITH HOSPICE",
    "npi": null,
    "hcaiId": "406192553",
    "businessName": "GOOD FAITH HOSPICE",
    "contactEmail": "GOODFAITHHOSPICE@GMAIL.COM",
    "categoryName": "HOSPICE",
    "categoryCode": "HOSPICE",
    "licenseStatus": "ACTIVE",
    "inService": true,
    "licenseNumber": "550005351",
    "licenseEffectiveDate": "01/27/2023",
    "licenseExpirationDate": "02/27/2024",
    "dataDate": "10/18/2025",
    "capacity": 0,
    "address": "315 W VERDUGO AVE, SUITE 103",
    "city": "BURBANK",
    "zip": "91502",
    "county": "LOS ANGELES",
    "phone": "(747) 777-4012",
    "lat": 34.17102,
    "lng": -118.314441
  },
  {
    "id": "630020620",
    "name": "GRAND HOSPICE, INC.",
    "npi": null,
    "hcaiId": "406197006",
    "businessName": "GRAND HOSPICE, INC.",
    "contactEmail": "GRANDHOSPICEINFO@GMAIL.COM",
    "categoryName": "HOSPICE",
    "categoryCode": "HOSPICE",
    "licenseStatus": "ACTIVE",
    "inService": true,
    "licenseNumber": "550006466",
    "licenseEffectiveDate": "06/18/2025",
    "licenseExpirationDate": "06/17/2027",
    "dataDate": "10/18/2025",
    "capacity": 0,
    "address": "211 W ALAMEDA AVE, SUITE 102",
    "city": "BURBANK",
    "zip": "91502",
    "county": "LOS ANGELES",
    "phone": "(747) 200-8598",
    "lat": 34.16931901,
    "lng": -118.306364
  },
  {
    "id": "630020246",
    "name": "GREAT AMERICAN HOSPICE CARE",
    "npi": null,
    "hcaiId": null,
    "businessName": "GREAT AMERICAN HOSPICE CARE",
    "contactEmail": "GREATAMERICANHOSPICE1@GMAIL.COM",
    "categoryName": "HOSPICE",
    "categoryCode": "HOSPICE",
    "licenseStatus": "ACTIVE",
    "inService": true,
    "licenseNumber": "550005980",
    "licenseEffectiveDate": "01/13/2025",
    "licenseExpirationDate": "01/12/2027",
    "dataDate": "10/18/2025",
    "capacity": 0,
    "address": "221 W ALAMEDA AVE, SUITE 203",
    "city": "BURBANK",
    "zip": "91502",
    "county": "LOS ANGELES",
    "phone": "(213) 800-7878",
    "lat": 34.16931901,
    "lng": -118.306364
  },
  {
    "id": "630024352",
    "name": "GREAT NURSES HOME CARE",
    "npi": null,
    "hcaiId": "406190152",
    "businessName": "GNHC",
    "contactEmail": "GREATNURSESHC@GMAIL.COM",
    "categoryName": "HOME HEALTH AGENCY",
    "categoryCode": "HHA",
    "licenseStatus": "ACTIVE",
    "inService": true,
    "licenseNumber": "550008929",
    "licenseEffectiveDate": "12/07/2024",
    "licenseExpirationDate": "12/06/2025",
    "dataDate": "10/18/2025",
    "capacity": 0,
    "address": "348 E OLIVE AVE, SUITE E2",
    "city": "BURBANK",
    "zip": "91502",
    "county": "LOS ANGELES",
    "phone": "(747) 268-2868",
    "lat": 34.182432,
    "lng": -118.3064985
  },
  {
    "id": "630028025",
    "name": "GREEN HOME HEALTH CARE, INC",
    "npi": null,
    "hcaiId": null,
    "businessName": "GREEN HOME HEALTH CARE INC",
    "contactEmail": "GREENHOMEHEALTH92@GMAIL.COM",
    "categoryName": "HOME HEALTH AGENCY",
    "categoryCode": "HHA",
    "licenseStatus": "ACTIVE",
    "inService": true,
    "licenseNumber": "550009991",
    "licenseEffectiveDate": "10/10/2025",
    "licenseExpirationDate": "04/09/2026",
    "dataDate": "10/18/2025",
    "capacity": 0,
    "address": "300 N 3RD ST, SUITE 316",
    "city": "BURBANK",
    "zip": "91502",
    "county": "LOS ANGELES",
    "phone": "(818) 810-7325",
    "lat": 34.18386899,
    "lng": -118.309575
  },
  {
    "id": "630013413",
    "name": "GUARDIAN ANGEL HOME HEALTH, INC.",
    "npi": null,
    "hcaiId": "406197754",
    "businessName": "GUARDIAN ANGEL HOME HEALTH, INC.",
    "contactEmail": "GUARDIANANGELHOMEHEALTH@YAHOO.COM",
    "categoryName": "HOME HEALTH AGENCY",
    "categoryCode": "HHA",
    "licenseStatus": "ACTIVE",
    "inService": true,
    "licenseNumber": "550002078",
    "licenseEffectiveDate": "08/15/2023",
    "licenseExpirationDate": "08/14/2024",
    "dataDate": "10/18/2025",
    "capacity": 0,
    "address": "717 S. VICTORY BLVD., SUITE A",
    "city": "BURBANK",
    "zip": "91502",
    "county": "LOS ANGELES",
    "phone": "(818) 559-2300",
    "lat": 34.168293,
    "lng": -118.3103865
  },
  {
    "id": "630025769",
    "name": "HARBOR HHA",
    "npi": null,
    "hcaiId": "406198167",
    "businessName": "HARBOR HHA",
    "contactEmail": "HARBORHHA@YAHOO.COM",
    "categoryName": "HOME HEALTH AGENCY",
    "categoryCode": "HHA",
    "licenseStatus": "ACTIVE",
    "inService": true,
    "licenseNumber": "550008772",
    "licenseEffectiveDate": "10/13/2025",
    "licenseExpirationDate": "10/12/2026",
    "dataDate": "10/18/2025",
    "capacity": 0,
    "address": "135 N VICTORY BLVD, SUITE 7",
    "city": "BURBANK",
    "zip": "91502",
    "county": "LOS ANGELES",
    "phone": "(818) 588-3311",
    "lat": 34.174494,
    "lng": -118.317375
  },
  {
    "id": "630027179",
    "name": "HAYCARE HOMECARE",
    "npi": null,
    "hcaiId": null,
    "businessName": "HAYCARE HOMECARE",
    "contactEmail": "HAYCAREHC@GMAIL.COM",
    "categoryName": "HOME HEALTH AGENCY",
    "categoryCode": "HHA",
    "licenseStatus": "ACTIVE",
    "inService": true,
    "licenseNumber": "550009553",
    "licenseEffectiveDate": "11/07/2025",
    "licenseExpirationDate": "11/06/2026",
    "dataDate": "10/18/2025",
    "capacity": 0,
    "address": "315 W VERDUGO AVE, SUITE 206A",
    "city": "BURBANK",
    "zip": "91502",
    "county": "LOS ANGELES",
    "phone": "(818) 697-8488",
    "lat": 34.171021,
    "lng": -118.314458
  },
  {
    "id": "630021668",
    "name": "HAYCARE HOSPICE",
    "npi": null,
    "hcaiId": "406193815",
    "businessName": "HAYCARE HOSPICE",
    "contactEmail": "HAYCAREHOSPICE@GMAIL.COM",
    "categoryName": "HOSPICE",
    "categoryCode": "HOSPICE",
    "licenseStatus": "ACTIVE",
    "inService": true,
    "licenseNumber": "550007245",
    "licenseEffectiveDate": "01/24/2024",
    "licenseExpirationDate": "11/18/2025",
    "dataDate": "10/18/2025",
    "capacity": 0,
    "address": "315 W VERDUGO AVE, SUITE 206",
    "city": "BURBANK",
    "zip": "91502",
    "county": "LOS ANGELES",
    "phone": "(747) 877-2007",
    "lat": 34.171021,
    "lng": -118.314458
  },
  {
    "id": "630011470",
    "name": "HEALING HANDS CARE, INC.",
    "npi": "1346448081",
    "hcaiId": "406197304",
    "businessName": "HEALING HANDS CARE, INC.",
    "contactEmail": "HEALINGHANDSCARE@GMAIL.COM",
    "categoryName": "HOSPICE",
    "categoryCode": "HOSPICE",
    "licenseStatus": "ACTIVE",
    "inService": true,
    "licenseNumber": "550001025",
    "licenseEffectiveDate": "02/23/2022",
    "licenseExpirationDate": "02/22/2024",
    "dataDate": "10/18/2025",
    "capacity": 0,
    "address": "220 N GLENOAKS BLVD, SUITE C",
    "city": "BURBANK",
    "zip": "91502",
    "county": "LOS ANGELES",
    "phone": "(818) 845-0303",
    "lat": 34.18440291,
    "lng": -118.3077586
  },
  {
    "id": "630023128",
    "name": "HEALING POWER HOME HEALTH, INC.",
    "npi": null,
    "hcaiId": null,
    "businessName": "HEALING POWER HOME HEALTH, INC.",
    "contactEmail": "HEALINGPOWERHH@GMAIL.COM",
    "categoryName": "HOME HEALTH AGENCY",
    "categoryCode": "HHA",
    "licenseStatus": "ACTIVE",
    "inService": true,
    "licenseNumber": "550008415",
    "licenseEffectiveDate": "01/05/2025",
    "licenseExpirationDate": "01/04/2026",
    "dataDate": "10/18/2025",
    "capacity": 0,
    "address": "353 E ANGELENO AVE, SUITE N",
    "city": "BURBANK",
    "zip": "91502",
    "county": "LOS ANGELES",
    "phone": "(818) 288-8789",
    "lat": 34.182198,
    "lng": -118.306017
  },
  {
    "id": "630025677",
    "name": "HEALTH NEXT DOOR HOME CARE",
    "npi": null,
    "hcaiId": null,
    "businessName": "HEALTH NEXT DOOR HOME CARE",
    "contactEmail": "HEALTHNEXTDOORHC@GMAIL.COM",
    "categoryName": "HOME HEALTH AGENCY",
    "categoryCode": "HHA",
    "licenseStatus": "ACTIVE",
    "inService": true,
    "licenseNumber": "550009945",
    "licenseEffectiveDate": "08/14/2025",
    "licenseExpirationDate": "02/13/2026",
    "dataDate": "10/18/2025",
    "capacity": 0,
    "address": "358 E OLIVE AVE, UNIT 103",
    "city": "BURBANK",
    "zip": "91502",
    "county": "LOS ANGELES",
    "phone": "(818) 316-6342",
    "lat": 34.18271899,
    "lng": -118.306413
  },
  {
    "id": "630022421",
    "name": "HEALTHY CA HOME HEALTH",
    "npi": null,
    "hcaiId": "406195772",
    "businessName": "HEALTHY CA HOME HEALTH",
    "contactEmail": "HEALTHYCAHOMEHEALTH@GMAIL.COM",
    "categoryName": "HOME HEALTH AGENCY",
    "categoryCode": "HHA",
    "licenseStatus": "ACTIVE",
    "inService": true,
    "licenseNumber": "550007797",
    "licenseEffectiveDate": "05/21/2025",
    "licenseExpirationDate": "01/20/2026",
    "dataDate": "10/18/2025",
    "capacity": 0,
    "address": "300 N 3RD ST, SUITE 308",
    "city": "BURBANK",
    "zip": "91502",
    "county": "LOS ANGELES",
    "phone": "(800) 610-2048",
    "lat": 34.18386899,
    "lng": -118.309575
  },
  {
    "id": "630020212",
    "name": "HEALTHY LIFESTYLE HOME CARE, INC.",
    "npi": null,
    "hcaiId": "406195784",
    "businessName": "HEALTHY LIFESTYLE HOME CARE, INC.",
    "contactEmail": "INFO@HLS-HOMECARE.COM",
    "categoryName": "HOME HEALTH AGENCY",
    "categoryCode": "HHA",
    "licenseStatus": "ACTIVE",
    "inService": true,
    "licenseNumber": "550007813",
    "licenseEffectiveDate": "02/01/2025",
    "licenseExpirationDate": "01/31/2026",
    "dataDate": "10/18/2025",
    "capacity": 0,
    "address": "261 W ALAMEDA AVE",
    "city": "BURBANK",
    "zip": "91502",
    "county": "LOS ANGELES",
    "phone": "(747) 326-8005",
    "lat": 34.16762398,
    "lng": -118.307446
  },
  {
    "id": "630021756",
    "name": "HELPING HAND HOSPICE",
    "npi": null,
    "hcaiId": "406193316",
    "businessName": "HELPING HAND HOSPICE",
    "contactEmail": "HELPINGHANDHOSPICEINC@GMAIL.COM",
    "categoryName": "HOSPICE",
    "categoryCode": "HOSPICE",
    "licenseStatus": "ACTIVE",
    "inService": true,
    "licenseNumber": "550007160",
    "licenseEffectiveDate": "11/05/2023",
    "licenseExpirationDate": "11/04/2025",
    "dataDate": "10/18/2025",
    "capacity": 0,
    "address": "101 S 1ST ST, SUITE 202",
    "city": "BURBANK",
    "zip": "91502",
    "county": "LOS ANGELES",
    "phone": "(818) 264-4744",
    "lat": 34.17922198,
    "lng": -118.309915
  },
  {
    "id": "630023457",
    "name": "HK HOME HEALTH",
    "npi": null,
    "hcaiId": "406195427",
    "businessName": "HK HOME HEALTH",
    "contactEmail": "HKHOMEHCARE@GMAIL.COM",
    "categoryName": "HOME HEALTH AGENCY",
    "categoryCode": "HHA",
    "licenseStatus": "ACTIVE",
    "inService": true,
    "licenseNumber": "550007871",
    "licenseEffectiveDate": "10/27/2025",
    "licenseExpirationDate": "03/03/2026",
    "dataDate": "10/18/2025",
    "capacity": 0,
    "address": "300 N 3RD ST, SUITE 250",
    "city": "BURBANK",
    "zip": "91502",
    "county": "LOS ANGELES",
    "phone": "(424) 666-2820",
    "lat": 34.183872,
    "lng": -118.3095765
  },
  {
    "id": "630015717",
    "name": "HOLISTIC HOSPICE AND PALLIATIVE CARE, INC.",
    "npi": "1801206107",
    "hcaiId": "406191938",
    "businessName": "HOLISTIC HOSPICE AND PALLIATIVE CARE, INC.",
    "contactEmail": "HOLISTICHOSPICECA@GMAIL.COM",
    "categoryName": "HOSPICE",
    "categoryCode": "HOSPICE",
    "licenseStatus": "ACTIVE",
    "inService": true,
    "licenseNumber": "550003586",
    "licenseEffectiveDate": "07/01/2024",
    "licenseExpirationDate": "06/30/2026",
    "dataDate": "10/18/2025",
    "capacity": 0,
    "address": "105 W. ALAMEDA AVE., SUITE 218",
    "city": "BURBANK",
    "zip": "91502",
    "county": "LOS ANGELES",
    "phone": "(818) 563-9300",
    "lat": 34.17139143,
    "lng": -118.3031245
  },
  {
    "id": "630022742",
    "name": "HOLY LIGHT HOME HEALTH, INC.",
    "npi": null,
    "hcaiId": "406195394",
    "businessName": "HOLY LIGHT HOME HEALTH, INC.",
    "contactEmail": "HOLYLIGHTHH@GMAIL.COM",
    "categoryName": "HOME HEALTH AGENCY",
    "categoryCode": "HHA",
    "licenseStatus": "ACTIVE",
    "inService": true,
    "licenseNumber": "550007764",
    "licenseEffectiveDate": "06/16/2025",
    "licenseExpirationDate": "11/29/2025",
    "dataDate": "10/18/2025",
    "capacity": 0,
    "address": "300 N 3RD ST, SUITE 302",
    "city": "BURBANK",
    "zip": "91502",
    "county": "LOS ANGELES",
    "phone": "(818) 345-9069",
    "lat": 34.18386899,
    "lng": -118.309575
  },
  {
    "id": "630018985",
    "name": "HOMEDIC HOSPICE CARE",
    "npi": null,
    "hcaiId": "406192541",
    "businessName": "HOMEDIC HOSPICE CARE",
    "contactEmail": "HOMEDICHOSPCARE@GMAIL.COM",
    "categoryName": "HOSPICE",
    "categoryCode": "HOSPICE",
    "licenseStatus": "ACTIVE",
    "inService": true,
    "licenseNumber": "550005314",
    "licenseEffectiveDate": "02/21/2024",
    "licenseExpirationDate": "02/20/2026",
    "dataDate": "10/18/2025",
    "capacity": 0,
    "address": "358 E OLIVE AVE, UNIT 102",
    "city": "BURBANK",
    "zip": "91502",
    "county": "LOS ANGELES",
    "phone": "(747) 333-0007",
    "lat": 34.182711,
    "lng": -118.306404
  },
  {
    "id": "630020538",
    "name": "HOSPICE OF BEST CHOICE CORP.",
    "npi": null,
    "hcaiId": null,
    "businessName": "HOSPICE OF BEST CHOICE CORP.",
    "contactEmail": "HOSPICEBESTCHOICE@GMAIL.COM",
    "categoryName": "HOSPICE",
    "categoryCode": "HOSPICE",
    "licenseStatus": "ACTIVE",
    "inService": true,
    "licenseNumber": "550006374",
    "licenseEffectiveDate": "05/25/2025",
    "licenseExpirationDate": "05/24/2027",
    "dataDate": "10/18/2025",
    "capacity": 0,
    "address": "539 N GLENOAKS BLVD, SUITE 202",
    "city": "BURBANK",
    "zip": "91502",
    "county": "LOS ANGELES",
    "phone": "(818) 818-8446",
    "lat": 34.18635699,
    "lng": -118.311043
  },
  {
    "id": "630018054",
    "name": "HRM HOME HEALTH, INC.",
    "npi": "1316437130",
    "hcaiId": "406191789",
    "businessName": "HRM HOME HEALTH, INC.",
    "contactEmail": "HRMHOMEHEALTH@GMAIL.COM",
    "categoryName": "HOME HEALTH AGENCY",
    "categoryCode": "HHA",
    "licenseStatus": "ACTIVE",
    "inService": true,
    "licenseNumber": "550004918",
    "licenseEffectiveDate": "06/26/2025",
    "licenseExpirationDate": "06/25/2026",
    "dataDate": "10/18/2025",
    "capacity": 0,
    "address": "539 N GLENOAKS BLVD, SUITE 303",
    "city": "BURBANK",
    "zip": "91502",
    "county": "LOS ANGELES",
    "phone": "(818) 433-7207",
    "lat": 34.186356,
    "lng": -118.310976
  },
  {
    "id": "630011946",
    "name": "IBOLIT HOME HEALTH, INC.",
    "npi": "1326202904",
    "hcaiId": "406197267",
    "businessName": "IBOLIT HOME HEALTH, INC.",
    "contactEmail": "DR@IBOLIT.ORG",
    "categoryName": "HOME HEALTH AGENCY",
    "categoryCode": "HHA",
    "licenseStatus": "ACTIVE",
    "inService": true,
    "licenseNumber": "550001063",
    "licenseEffectiveDate": "04/09/2025",
    "licenseExpirationDate": "04/08/2026",
    "dataDate": "10/18/2025",
    "capacity": 0,
    "address": "221 W ALAMEDA AVE, SUITE 202",
    "city": "BURBANK",
    "zip": "91502",
    "county": "LOS ANGELES",
    "phone": "(818) 845-7770",
    "lat": 34.16913,
    "lng": -118.3064985
  },
  {
    "id": "630025211",
    "name": "INNOVATIVE HOME HEALTH INC",
    "npi": null,
    "hcaiId": "406190148",
    "businessName": "INNOVATIVE HOME HEALTH INC",
    "contactEmail": "INNOVATIVEHHC@GMAIL.COM",
    "categoryName": "HOME HEALTH AGENCY",
    "categoryCode": "HHA",
    "licenseStatus": "ACTIVE",
    "inService": true,
    "licenseNumber": "550008332",
    "licenseEffectiveDate": "11/03/2025",
    "licenseExpirationDate": "01/10/2026",
    "dataDate": "10/18/2025",
    "capacity": 0,
    "address": "239 E ALAMEDA AVE, SUITE 202",
    "city": "BURBANK",
    "zip": "91502",
    "county": "LOS ANGELES",
    "phone": "(747) 900-0037",
    "lat": 34.175547,
    "lng": -118.299051
  },
  {
    "id": "630025398",
    "name": "INTEGRITY FIRST HOME HEALTH CARE INC",
    "npi": null,
    "hcaiId": null,
    "businessName": "INTEGRITY FIRST HOME HEALTH CARE INC",
    "contactEmail": "INTEGRITYFIRSTHEALTH@GMAIL.COM",
    "categoryName": "HOME HEALTH AGENCY",
    "categoryCode": "HHA",
    "licenseStatus": "ACTIVE",
    "inService": true,
    "licenseNumber": "550008733",
    "licenseEffectiveDate": "09/13/2023",
    "licenseExpirationDate": "03/12/2024",
    "dataDate": "10/18/2025",
    "capacity": 0,
    "address": "207 W ALAMEDA AVE, UNIT 203 STE. E",
    "city": "BURBANK",
    "zip": "91502",
    "county": "LOS ANGELES",
    "phone": "(747) 313-6103",
    "lat": 34.16913,
    "lng": -118.3064985
  },
  {
    "id": "630024513",
    "name": "IV PROS, INC.",
    "npi": null,
    "hcaiId": "406196310",
    "businessName": "IV TIME, INC.",
    "contactEmail": "IVPROSINC@GMAIL.COM",
    "categoryName": "HOME HEALTH AGENCY",
    "categoryCode": "HHA",
    "licenseStatus": "ACTIVE",
    "inService": true,
    "licenseNumber": "550008451",
    "licenseEffectiveDate": "09/16/2023",
    "licenseExpirationDate": "03/15/2024",
    "dataDate": "10/18/2025",
    "capacity": 0,
    "address": "261 W ALAMEDA AVE",
    "city": "BURBANK",
    "zip": "91502",
    "county": "LOS ANGELES",
    "phone": "(888) 844-8114",
    "lat": 34.16749157,
    "lng": -118.3072717
  },
  {
    "id": "630016738",
    "name": "L & R HOME HEALTH, INC.",
    "npi": "1467808410",
    "hcaiId": "406190838",
    "businessName": "L & R HOME HEALTH, INC.",
    "contactEmail": "LRHOMEHEALTHINC@YAHOO.COM",
    "categoryName": "HOME HEALTH AGENCY",
    "categoryCode": "HHA",
    "licenseStatus": "ACTIVE",
    "inService": true,
    "licenseNumber": "550004230",
    "licenseEffectiveDate": "04/28/2025",
    "licenseExpirationDate": "04/27/2026",
    "dataDate": "10/18/2025",
    "capacity": 0,
    "address": "224 E OLIVE AVE, SUITE 202",
    "city": "BURBANK",
    "zip": "91502",
    "county": "LOS ANGELES",
    "phone": "(818) 786-1234",
    "lat": 34.1810753,
    "lng": -118.3084538
  },
  {
    "id": "630012474",
    "name": "LA CARE HOME HEALTH SERVICES, INC.",
    "npi": null,
    "hcaiId": "406198249",
    "businessName": "LA CARE HOME HEALTH SERVICES, INC.",
    "contactEmail": "LACAREHH@YAHOO.COM",
    "categoryName": "HOME HEALTH AGENCY",
    "categoryCode": "HHA",
    "licenseStatus": "ACTIVE",
    "inService": true,
    "licenseNumber": "550001524",
    "licenseEffectiveDate": "06/03/2023",
    "licenseExpirationDate": "06/02/2024",
    "dataDate": "10/18/2025",
    "capacity": 0,
    "address": "178 S VICTORY BLVD., SUITE 206",
    "city": "BURBANK",
    "zip": "91502",
    "county": "LOS ANGELES",
    "phone": "(818) 238-9100",
    "lat": 34.17246729,
    "lng": -118.3159422
  },
  {
    "id": "630022150",
    "name": "LA CARE HOSPICE INC.",
    "npi": null,
    "hcaiId": "406190256",
    "businessName": "LA CARE HOSPICE INC",
    "contactEmail": "LACAREHOSPICE1234@GMAIL.COM",
    "categoryName": "HOSPICE",
    "categoryCode": "HOSPICE",
    "licenseStatus": "ACTIVE",
    "inService": true,
    "licenseNumber": "550007562",
    "licenseEffectiveDate": "05/06/2025",
    "licenseExpirationDate": "12/17/2025",
    "dataDate": "10/18/2025",
    "capacity": 0,
    "address": "211 W ALAMEDA AVE, SUITE 101",
    "city": "BURBANK",
    "zip": "91502",
    "county": "LOS ANGELES",
    "phone": "(747) 320-0040",
    "lat": 34.16931901,
    "lng": -118.306364
  },
  {
    "id": "630019099",
    "name": "LA HOSPICE GROUP",
    "npi": null,
    "hcaiId": "406192712",
    "businessName": "LA HOSPICE GROUP",
    "contactEmail": "LAHOSPICEGROUP@YAHOO.COM",
    "categoryName": "HOSPICE",
    "categoryCode": "HOSPICE",
    "licenseStatus": "ACTIVE",
    "inService": true,
    "licenseNumber": "550005554",
    "licenseEffectiveDate": "02/27/2025",
    "licenseExpirationDate": "07/02/2026",
    "dataDate": "10/18/2025",
    "capacity": 0,
    "address": "315 W VERDUGO AVE, SUITE G",
    "city": "BURBANK",
    "zip": "91502",
    "county": "LOS ANGELES",
    "phone": "(626) 495-0890",
    "lat": 34.1710166,
    "lng": -118.3144585
  },
  {
    "id": "630024808",
    "name": "LA SKILLED HOME HEALTH INC",
    "npi": null,
    "hcaiId": "406197778",
    "businessName": "LA SKILLED HOME HEALTH INC",
    "contactEmail": "LASKILLED2024@YAHOO.COM",
    "categoryName": "HOME HEALTH AGENCY",
    "categoryCode": "HHA",
    "licenseStatus": "ACTIVE",
    "inService": true,
    "licenseNumber": "550008256",
    "licenseEffectiveDate": "12/01/2024",
    "licenseExpirationDate": "11/30/2025",
    "dataDate": "10/18/2025",
    "capacity": 0,
    "address": "146 N SAN FERNANDO BLVD, SUITE 219",
    "city": "BURBANK",
    "zip": "91502",
    "county": "LOS ANGELES",
    "phone": null,
    "lat": 34.181667,
    "lng": -118.309374
  },
  {
    "id": "630019319",
    "name": "LA VIDA HOME HEALTH, INC.",
    "npi": null,
    "hcaiId": "406192951",
    "businessName": "LA VIDA HOME HEALTH, INC.",
    "contactEmail": "LAVIDAHOMEHEALTHINC@GMAIL.COM",
    "categoryName": "HOME HEALTH AGENCY",
    "categoryCode": "HHA",
    "licenseStatus": "ACTIVE",
    "inService": true,
    "licenseNumber": "550005814",
    "licenseEffectiveDate": "10/21/2025",
    "licenseExpirationDate": "10/20/2026",
    "dataDate": "10/18/2025",
    "capacity": 0,
    "address": "348 E OLIVE AVE, SUITE G",
    "city": "BURBANK",
    "zip": "91502",
    "county": "LOS ANGELES",
    "phone": "(310) 694-1640",
    "lat": 34.182432,
    "lng": -118.3064985
  },
  {
    "id": "630012097",
    "name": "LAKEVIEW HOSPICE CARE, INC.",
    "npi": "1891931564",
    "hcaiId": "406197359",
    "businessName": "LAKEVIEW HOSPICE CARE, INC.",
    "contactEmail": "ARMOND@LAKEVIEWHOSPICE.COM",
    "categoryName": "HOSPICE",
    "categoryCode": "HOSPICE",
    "licenseStatus": "ACTIVE",
    "inService": true,
    "licenseNumber": "550001211",
    "licenseEffectiveDate": "02/02/2024",
    "licenseExpirationDate": "02/01/2026",
    "dataDate": "10/18/2025",
    "capacity": 0,
    "address": "140 N VICTORY BLVD, SUITE 105",
    "city": "BURBANK",
    "zip": "91502",
    "county": "LOS ANGELES",
    "phone": "(818) 841-5020",
    "lat": 34.174764,
    "lng": -118.316799
  },
  {
    "id": "630014744",
    "name": "LAKEWOOD HOME HEALTH & PALLIATIVE CARE, INC",
    "npi": "1255779187",
    "hcaiId": "406198258",
    "businessName": "LAKEWOOD HOME HEALTH & PALLIATIVE CARE, INC",
    "contactEmail": "LAKEWOODHCARE@GMAIL.COM",
    "categoryName": "HOME HEALTH AGENCY",
    "categoryCode": "HHA",
    "licenseStatus": "ACTIVE",
    "inService": true,
    "licenseNumber": "550003454",
    "licenseEffectiveDate": "11/08/2025",
    "licenseExpirationDate": "11/07/2026",
    "dataDate": "10/18/2025",
    "capacity": 0,
    "address": "539 N GLENOAKS BLVD, SUITE 301 F",
    "city": "BURBANK",
    "zip": "91502",
    "county": "LOS ANGELES",
    "phone": "(747) 241-8400",
    "lat": 34.186356,
    "lng": -118.310976
  },
  {
    "id": "630018187",
    "name": "LEGACY HOME HEALTH, LLC",
    "npi": null,
    "hcaiId": "406192024",
    "businessName": "LEGACY HOME HEALTH, LLC",
    "contactEmail": "CCM@CCMPARTNERS.ORG",
    "categoryName": "HOME HEALTH AGENCY",
    "categoryCode": "HHA",
    "licenseStatus": "ACTIVE",
    "inService": true,
    "licenseNumber": "550005072",
    "licenseEffectiveDate": "11/13/2022",
    "licenseExpirationDate": "11/12/2023",
    "dataDate": "10/18/2025",
    "capacity": 0,
    "address": "146 N SAN FERNANDO BLVD, SUITE 220",
    "city": "BURBANK",
    "zip": "91502",
    "county": "LOS ANGELES",
    "phone": "(818) 517-8743",
    "lat": 34.18149544,
    "lng": -118.3094483
  },
  {
    "id": "630018198",
    "name": "LEGACY HOSPICE LLC",
    "npi": "1962989293",
    "hcaiId": "406191811",
    "businessName": "LEGACY HOSPICE LLC",
    "contactEmail": "LEGACYHOSPICELLC@GMAIL.COM",
    "categoryName": "HOSPICE",
    "categoryCode": "HOSPICE",
    "licenseStatus": "ACTIVE",
    "inService": true,
    "licenseNumber": "550004879",
    "licenseEffectiveDate": "08/21/2021",
    "licenseExpirationDate": "08/20/2023",
    "dataDate": "10/18/2025",
    "capacity": 0,
    "address": "146 N SAN FERNANDO BLVD, SUITE 219",
    "city": "BURBANK",
    "zip": "91502",
    "county": "LOS ANGELES",
    "phone": "(818) 302-3488",
    "lat": 34.18149544,
    "lng": -118.3094483
  },
  {
    "id": "630021066",
    "name": "LIFE BRIDGE HOSPICE CARE, INC.",
    "npi": null,
    "hcaiId": "406193533",
    "businessName": "LIFE BRIDGE HOSPICE CARE, INC",
    "contactEmail": "LIFEBRIDGEHOSPICECARE@GMAIL.COM",
    "categoryName": "HOSPICE",
    "categoryCode": "HOSPICE",
    "licenseStatus": "ACTIVE",
    "inService": true,
    "licenseNumber": "550006538",
    "licenseEffectiveDate": "07/09/2025",
    "licenseExpirationDate": "07/08/2027",
    "dataDate": "10/18/2025",
    "capacity": 0,
    "address": "353 E ANGELENO AVE, SUITE D2",
    "city": "BURBANK",
    "zip": "91502",
    "county": "LOS ANGELES",
    "phone": "(747) 247-1245",
    "lat": 34.18219601,
    "lng": -118.306017
  },
  {
    "id": "630019076",
    "name": "LIFE TO LIFE HOSPICE CARE, INC.",
    "npi": "1578117776",
    "hcaiId": "406192193",
    "businessName": "LIFE TO LIFE HOSPICE CARE, INC.",
    "contactEmail": "LIFETOLIFEHOSPICE@GMAIL.COM",
    "categoryName": "HOSPICE",
    "categoryCode": "HOSPICE",
    "licenseStatus": "ACTIVE",
    "inService": true,
    "licenseNumber": "550005208",
    "licenseEffectiveDate": "10/23/2025",
    "licenseExpirationDate": "10/22/2027",
    "dataDate": "10/18/2025",
    "capacity": 0,
    "address": "905 S LAKE ST, UNIT 203",
    "city": "BURBANK",
    "zip": "91502",
    "county": "LOS ANGELES",
    "phone": "(747) 212-1166",
    "lat": 34.16931901,
    "lng": -118.306364
  },
  {
    "id": "630021028",
    "name": "LIGHT BEAM HOSPICE, INC",
    "npi": null,
    "hcaiId": "406190211",
    "businessName": "LIGHT BEAM HOSPICE, INC",
    "contactEmail": "LIGHTBEAMHOSPICE@YAHOO.COM",
    "categoryName": "HOSPICE",
    "categoryCode": "HOSPICE",
    "licenseStatus": "ACTIVE",
    "inService": true,
    "licenseNumber": "550006556",
    "licenseEffectiveDate": "07/16/2025",
    "licenseExpirationDate": "07/15/2027",
    "dataDate": "10/18/2025",
    "capacity": 0,
    "address": "120 N VICTORY BLVD, SUITE 106",
    "city": "BURBANK",
    "zip": "91502",
    "county": "LOS ANGELES",
    "phone": "(818) 290-3860",
    "lat": 34.17435599,
    "lng": -118.316561
  },
  {
    "id": "630017817",
    "name": "LIKE FAMILY HOME HEALTH CARE, INC",
    "npi": "1952812844",
    "hcaiId": "406192161",
    "businessName": "LIKE FAMILY HOME HEALTH CARE, INC",
    "contactEmail": "LIKEFAMILYHHC@GMAIL.COM",
    "categoryName": "HOME HEALTH AGENCY",
    "categoryCode": "HHA",
    "licenseStatus": "ACTIVE",
    "inService": true,
    "licenseNumber": "550004820",
    "licenseEffectiveDate": "08/05/2025",
    "licenseExpirationDate": "08/04/2026",
    "dataDate": "10/18/2025",
    "capacity": 0,
    "address": "269 W ALAMEDA AVE",
    "city": "BURBANK",
    "zip": "91502",
    "county": "LOS ANGELES",
    "phone": "(747) 241-8299",
    "lat": 34.167375,
    "lng": -118.3076595
  },
  {
    "id": "630013912",
    "name": "LLG HOSPICE, INC",
    "npi": "1447506373",
    "hcaiId": "406198181",
    "businessName": "LLG HOSPICE, INC.",
    "contactEmail": "LLGHOSPICE@YAHOO.COM",
    "categoryName": "HOSPICE",
    "categoryCode": "HOSPICE",
    "licenseStatus": "ACTIVE",
    "inService": true,
    "licenseNumber": "550002352",
    "licenseEffectiveDate": "06/27/2024",
    "licenseExpirationDate": "06/26/2026",
    "dataDate": "10/18/2025",
    "capacity": 0,
    "address": "719 S VICTORY BLVD, UNIT B",
    "city": "BURBANK",
    "zip": "91502",
    "county": "LOS ANGELES",
    "phone": "(818) 813-8079",
    "lat": 34.16832915,
    "lng": -118.3101711
  },
  {
    "id": "630018177",
    "name": "LOGOS HOME HEALTH CARE INC.",
    "npi": "1144713363",
    "hcaiId": "406191683",
    "businessName": "LOGOS HOME HEALTH CARE INC.",
    "contactEmail": "LOGOSHHA@GMAIL.COM",
    "categoryName": "HOME HEALTH AGENCY",
    "categoryCode": "HHA",
    "licenseStatus": "ACTIVE",
    "inService": true,
    "licenseNumber": "550004717",
    "licenseEffectiveDate": "05/17/2025",
    "licenseExpirationDate": "05/16/2026",
    "dataDate": "10/18/2025",
    "capacity": 0,
    "address": "209 E ALAMEDA AVE, 106",
    "city": "BURBANK",
    "zip": "91502",
    "county": "LOS ANGELES",
    "phone": "(818) 588-3132",
    "lat": 34.17516,
    "lng": -118.2995955
  },
  {
    "id": "630016110",
    "name": "LOYALTY HOME HEALTH, INC.",
    "npi": "1467835025",
    "hcaiId": "406198340",
    "businessName": "LOYALTY HOME HEALTH, INC.",
    "contactEmail": "LOYALTYHOMEHEALTH@GMAIL.COM",
    "categoryName": "HOME HEALTH AGENCY",
    "categoryCode": "HHA",
    "licenseStatus": "ACTIVE",
    "inService": true,
    "licenseNumber": "550003524",
    "licenseEffectiveDate": "09/09/2025",
    "licenseExpirationDate": "05/12/2026",
    "dataDate": "10/18/2025",
    "capacity": 0,
    "address": "905 S LAKE ST, SUITE 201",
    "city": "BURBANK",
    "zip": "91502",
    "county": "LOS ANGELES",
    "phone": "(818) 247-0007",
    "lat": 34.16913,
    "lng": -118.3064985
  },
  {
    "id": "630022263",
    "name": "LUSTY HOME HEALTH INC",
    "npi": null,
    "hcaiId": "406195782",
    "businessName": "LUSTY HOME HEALTH, INC.",
    "contactEmail": "LUSTYHHA@GMAIL.COM",
    "categoryName": "HOME HEALTH AGENCY",
    "categoryCode": "HHA",
    "licenseStatus": "ACTIVE",
    "inService": true,
    "licenseNumber": "550007809",
    "licenseEffectiveDate": "01/20/2025",
    "licenseExpirationDate": "01/19/2026",
    "dataDate": "10/18/2025",
    "capacity": 0,
    "address": "209 E ALAMEDA AVE, SUITE 104",
    "city": "BURBANK",
    "zip": "91502",
    "county": "LOS ANGELES",
    "phone": "(747) 283-1188",
    "lat": 34.17516,
    "lng": -118.2995955
  },
  {
    "id": "630025426",
    "name": "MAY LIGHT HOME HEALTH, INC.",
    "npi": null,
    "hcaiId": "406190054",
    "businessName": "MAY LIGHT HOME HEALTH, INC.",
    "contactEmail": "MAYLIGHTHH@GMAIL.COM",
    "categoryName": "HOME HEALTH AGENCY",
    "categoryCode": "HHA",
    "licenseStatus": "ACTIVE",
    "inService": true,
    "licenseNumber": "550008634",
    "licenseEffectiveDate": "08/19/2025",
    "licenseExpirationDate": "07/09/2026",
    "dataDate": "10/18/2025",
    "capacity": 0,
    "address": "300 NORTH 3RD STREET, SUITE 304",
    "city": "BURBANK",
    "zip": "91502",
    "county": "LOS ANGELES",
    "phone": "(818) 574-5005",
    "lat": 34.18387306,
    "lng": -118.3095865
  },
  {
    "id": "630021669",
    "name": "MD 1ST CHOICE HOSPICE, INC.",
    "npi": null,
    "hcaiId": "406195268",
    "businessName": "MD 1ST CHOICE HOSPICE INC.",
    "contactEmail": "MD1STCHOICEHOSPICE@GMAIL.COM",
    "categoryName": "HOSPICE",
    "categoryCode": "HOSPICE",
    "licenseStatus": "ACTIVE",
    "inService": true,
    "licenseNumber": "550007476",
    "licenseEffectiveDate": "12/17/2023",
    "licenseExpirationDate": "12/16/2025",
    "dataDate": "10/18/2025",
    "capacity": 0,
    "address": "150 E OLIVE AVE, SUITE 304",
    "city": "BURBANK",
    "zip": "91502",
    "county": "LOS ANGELES",
    "phone": "(323) 499-3311",
    "lat": 34.180419,
    "lng": -118.308646
  },
  {
    "id": "630020713",
    "name": "MD CARE HOSPICE",
    "npi": "1104436955",
    "hcaiId": "406194742",
    "businessName": "MD CARE HOSPICE",
    "contactEmail": "MDCAREHOSPICE@YAHOO.COM",
    "categoryName": "HOSPICE",
    "categoryCode": "HOSPICE",
    "licenseStatus": "ACTIVE",
    "inService": true,
    "licenseNumber": "550006095",
    "licenseEffectiveDate": "03/12/2025",
    "licenseExpirationDate": "03/11/2027",
    "dataDate": "10/18/2025",
    "capacity": 0,
    "address": "303 N GLENOAKS BLVD, SUITE 207",
    "city": "BURBANK",
    "zip": "91502",
    "county": "LOS ANGELES",
    "phone": "(562) 800-4010",
    "lat": 34.184367,
    "lng": -118.3090455
  },
  {
    "id": "630021214",
    "name": "MEDIA CITY HOSPICE CARE, INC",
    "npi": null,
    "hcaiId": "406196244",
    "businessName": "MEDIA CITY HOSPICE CARE, INC",
    "contactEmail": "MEDIACITYHOSPICECARE@YAHOO.COM",
    "categoryName": "HOSPICE",
    "categoryCode": "HOSPICE",
    "licenseStatus": "ACTIVE",
    "inService": true,
    "licenseNumber": "550006559",
    "licenseEffectiveDate": "07/20/2025",
    "licenseExpirationDate": "07/19/2027",
    "dataDate": "10/18/2025",
    "capacity": 0,
    "address": "348 E OLIVE AVE, SUITE H2",
    "city": "BURBANK",
    "zip": "91502",
    "county": "LOS ANGELES",
    "phone": "(747) 282-0420",
    "lat": 34.182459,
    "lng": -118.3064985
  },
  {
    "id": "630024118",
    "name": "MELA HOME HEALTH, CORP",
    "npi": null,
    "hcaiId": "406195315",
    "businessName": "MELA HOME HEALTH, CORP",
    "contactEmail": "INFO@MELAHOMEHEALTH.COM",
    "categoryName": "HOME HEALTH AGENCY",
    "categoryCode": "HHA",
    "licenseStatus": "ACTIVE",
    "inService": true,
    "licenseNumber": "550008047",
    "licenseEffectiveDate": "10/24/2025",
    "licenseExpirationDate": "06/20/2026",
    "dataDate": "10/18/2025",
    "capacity": 0,
    "address": "539 N GLENOAKS BLVD, UNIT 301-A",
    "city": "BURBANK",
    "zip": "91502",
    "county": "LOS ANGELES",
    "phone": "(747) 877-9077",
    "lat": 34.186356,
    "lng": -118.3110435
  },
  {
    "id": "630019023",
    "name": "MELROSE COMFORT HOSPICE, INC.",
    "npi": "1871153932",
    "hcaiId": "406191961",
    "businessName": "MELROSE COMFORT HOSPICE, INC.",
    "contactEmail": "MELROSECOMFORTHOSPICE@YAHOO.COM",
    "categoryName": "HOSPICE",
    "categoryCode": "HOSPICE",
    "licenseStatus": "ACTIVE",
    "inService": true,
    "licenseNumber": "550005059",
    "licenseEffectiveDate": "11/01/2023",
    "licenseExpirationDate": "10/31/2025",
    "dataDate": "10/18/2025",
    "capacity": 0,
    "address": "150 E OLIVE AVE, SUITE 113",
    "city": "BURBANK",
    "zip": "91502",
    "county": "LOS ANGELES",
    "phone": "(818) 275-3311",
    "lat": 34.180371,
    "lng": -118.308672
  },
  {
    "id": "630023450",
    "name": "MERRICK HHC, INC.",
    "npi": null,
    "hcaiId": "406195761",
    "businessName": "MERRICK HHC, INC.",
    "contactEmail": "MERRICKHHC@GMAIL.COM",
    "categoryName": "HOME HEALTH AGENCY",
    "categoryCode": "HHA",
    "licenseStatus": "ACTIVE",
    "inService": true,
    "licenseNumber": "550007784",
    "licenseEffectiveDate": "01/17/2025",
    "licenseExpirationDate": "01/16/2026",
    "dataDate": "10/18/2025",
    "capacity": 0,
    "address": "209 E ALAMEDA AVE, SUITE 200",
    "city": "BURBANK",
    "zip": "91502",
    "county": "LOS ANGELES",
    "phone": "(818) 527-2660",
    "lat": 34.165431,
    "lng": -118.526598
  },
  {
    "id": "630020126",
    "name": "MILAR HOSPICE, INC.",
    "npi": null,
    "hcaiId": "406194783",
    "businessName": "MILAR HOSPICE, INC.",
    "contactEmail": "MILARHOSPICE@GMAIL.COM",
    "categoryName": "HOSPICE",
    "categoryCode": "HOSPICE",
    "licenseStatus": "ACTIVE",
    "inService": true,
    "licenseNumber": "550006082",
    "licenseEffectiveDate": "02/23/2023",
    "licenseExpirationDate": "02/22/2025",
    "dataDate": "10/18/2025",
    "capacity": 0,
    "address": "224 E OLIVE AVE, SUITE 202-A",
    "city": "BURBANK",
    "zip": "91502",
    "county": "LOS ANGELES",
    "phone": "(747) 444-4001",
    "lat": 34.1810753,
    "lng": -118.3084538
  },
  {
    "id": "630015610",
    "name": "MIRACLE HEARTS HOME HEALTH CARE, INC.",
    "npi": "1538565437",
    "hcaiId": "406191432",
    "businessName": "MIRACLE HEARTS HOME HEALTH CARE, INC.",
    "contactEmail": "MIRACLEHEARTS@YAHOO.COM",
    "categoryName": "HOME HEALTH AGENCY",
    "categoryCode": "HHA",
    "licenseStatus": "ACTIVE",
    "inService": true,
    "licenseNumber": "550004447",
    "licenseEffectiveDate": "04/30/2025",
    "licenseExpirationDate": "12/02/2025",
    "dataDate": "10/18/2025",
    "capacity": 0,
    "address": "101 S 1ST ST, SUITE 405A",
    "city": "BURBANK",
    "zip": "91502",
    "county": "LOS ANGELES",
    "phone": "(818) 616-3550",
    "lat": 34.17922198,
    "lng": -118.309915
  },
  {
    "id": "630025060",
    "name": "MONARCH HOME HEALTH",
    "npi": null,
    "hcaiId": "406196216",
    "businessName": "MONARCH HOME HEALTH",
    "contactEmail": "HOMEHEALTHMONARCH@GMAIL.COM",
    "categoryName": "HOME HEALTH AGENCY",
    "categoryCode": "HHA",
    "licenseStatus": "ACTIVE",
    "inService": true,
    "licenseNumber": "550008397",
    "licenseEffectiveDate": "07/29/2025",
    "licenseExpirationDate": "01/24/2026",
    "dataDate": "10/18/2025",
    "capacity": 0,
    "address": "269 WEST ALAMEDA AVENUE, SUITE B",
    "city": "BURBANK",
    "zip": "91502",
    "county": "LOS ANGELES",
    "phone": "(818) 913-7294",
    "lat": 34.16743426,
    "lng": -118.3077542
  },
  {
    "id": "630017206",
    "name": "MOONLIGHT HOME HEALTHCARE, INC.",
    "npi": null,
    "hcaiId": "406191422",
    "businessName": "MOONLIGHT HOME HEALTHCARE, INC.",
    "contactEmail": "CHILIANR@YAHOO.COM",
    "categoryName": "HOME HEALTH AGENCY",
    "categoryCode": "HHA",
    "licenseStatus": "ACTIVE",
    "inService": true,
    "licenseNumber": "550004421",
    "licenseEffectiveDate": "10/10/2025",
    "licenseExpirationDate": "10/09/2026",
    "dataDate": "10/18/2025",
    "capacity": 0,
    "address": "348 E OLIVE AVE, SUITE K",
    "city": "BURBANK",
    "zip": "91502",
    "county": "LOS ANGELES",
    "phone": "(818) 429-0797",
    "lat": 34.182459,
    "lng": -118.3064985
  },
  {
    "id": "630016637",
    "name": "MOONLIGHT HOSPICE CARE, INC.",
    "npi": "1205297314",
    "hcaiId": "406190684",
    "businessName": "MOONLIGHT HOSPICE CARE, INC.",
    "contactEmail": "INFO@MOONLIGHTHOSPICE.COM",
    "categoryName": "HOSPICE",
    "categoryCode": "HOSPICE",
    "licenseStatus": "ACTIVE",
    "inService": true,
    "licenseNumber": "550004142",
    "licenseEffectiveDate": "03/06/2024",
    "licenseExpirationDate": "03/05/2026",
    "dataDate": "10/18/2025",
    "capacity": 0,
    "address": "348 E. OLIVE AVENUE, SUITE J",
    "city": "BURBANK",
    "zip": "91502",
    "county": "LOS ANGELES",
    "phone": "(818) 429-0797",
    "lat": 34.182459,
    "lng": -118.3064985
  },
  {
    "id": "630021422",
    "name": "NC HOSPICE INC",
    "npi": null,
    "hcaiId": "406193983",
    "businessName": "NC HOSPICE INC",
    "contactEmail": "NCHOSPICECARE@GMAIL.COM",
    "categoryName": "HOSPICE",
    "categoryCode": "HOSPICE",
    "licenseStatus": "ACTIVE",
    "inService": true,
    "licenseNumber": "550007327",
    "licenseEffectiveDate": "11/23/2023",
    "licenseExpirationDate": "11/22/2025",
    "dataDate": "10/18/2025",
    "capacity": 0,
    "address": "224 E OLIVE AVE, SUITE 219",
    "city": "BURBANK",
    "zip": "91502",
    "county": "LOS ANGELES",
    "phone": "(747) 477-1027",
    "lat": 34.181091,
    "lng": -118.30848
  },
  {
    "id": "630020368",
    "name": "NCM CARE HOME HEALTH LLC",
    "npi": null,
    "hcaiId": "406193056",
    "businessName": "NCM CARE HOME HEALTH LLC",
    "contactEmail": "NARINEDAVTYAN@ATT.NET",
    "categoryName": "HOME HEALTH AGENCY",
    "categoryCode": "HHA",
    "licenseStatus": "ACTIVE",
    "inService": true,
    "licenseNumber": "550006093",
    "licenseEffectiveDate": "03/01/2025",
    "licenseExpirationDate": "02/28/2026",
    "dataDate": "10/18/2025",
    "capacity": 0,
    "address": "303 N GLENOAKS BLVD, SUITE 225",
    "city": "BURBANK",
    "zip": "91502",
    "county": "LOS ANGELES",
    "phone": "(323) 314-7344",
    "lat": 34.184367,
    "lng": -118.3090455
  },
  {
    "id": "630027799",
    "name": "ND MANAGEMENT INC",
    "npi": null,
    "hcaiId": null,
    "businessName": "ND MANAGEMENT INC",
    "contactEmail": "NDMANAGEMENTINC@GMAIL.COM",
    "categoryName": "HOME HEALTH AGENCY",
    "categoryCode": "HHA",
    "licenseStatus": "ACTIVE",
    "inService": true,
    "licenseNumber": "550009747",
    "licenseEffectiveDate": "09/24/2025",
    "licenseExpirationDate": "03/23/2026",
    "dataDate": "10/18/2025",
    "capacity": 0,
    "address": "303 N GLENOAKS BLVD, SUITE 214",
    "city": "BURBANK",
    "zip": "91502",
    "county": "LOS ANGELES",
    "phone": "(747) 307-1474",
    "lat": 34.18434802,
    "lng": -118.309084
  },
  {
    "id": "630020477",
    "name": "NEST HOME HEALTH, INC.",
    "npi": null,
    "hcaiId": "406194817",
    "businessName": "NEST HOME HEALTH, INC.",
    "contactEmail": "INFO@NESTHOMEHEALTH.COM",
    "categoryName": "HOME HEALTH AGENCY",
    "categoryCode": "HHA",
    "licenseStatus": "ACTIVE",
    "inService": true,
    "licenseNumber": "550005962",
    "licenseEffectiveDate": "01/07/2025",
    "licenseExpirationDate": "01/06/2026",
    "dataDate": "10/18/2025",
    "capacity": 0,
    "address": "207 W ALAMEDA AVE, SUITE 202",
    "city": "BURBANK",
    "zip": "91502",
    "county": "LOS ANGELES",
    "phone": "(818) 457-1346",
    "lat": 34.16931901,
    "lng": -118.306364
  },
  {
    "id": "630017551",
    "name": "NEW CHAPTER HOME HEALTH, INC.",
    "npi": "1942722558",
    "hcaiId": "406191706",
    "businessName": "NEW CHAPTER HOME HEALTH, INC.",
    "contactEmail": "NEWCHAPTERHH@GMAIL.COM",
    "categoryName": "HOME HEALTH AGENCY",
    "categoryCode": "HHA",
    "licenseStatus": "ACTIVE",
    "inService": true,
    "licenseNumber": "550004697",
    "licenseEffectiveDate": "04/05/2025",
    "licenseExpirationDate": "04/04/2026",
    "dataDate": "10/18/2025",
    "capacity": 0,
    "address": "224 E OLIVE AVE, SUITE 217",
    "city": "BURBANK",
    "zip": "91502",
    "county": "LOS ANGELES",
    "phone": "(818) 650-8439",
    "lat": 34.1810753,
    "lng": -118.3084538
  },
  {
    "id": "630021824",
    "name": "NOBLE LIFE HOSPICE INC",
    "npi": null,
    "hcaiId": "406195725",
    "businessName": "NOBLE LIFE HOSPICE INC",
    "contactEmail": "NOBLELIFEHOSPICE@GMAIL.COM",
    "categoryName": "HOSPICE",
    "categoryCode": "HOSPICE",
    "licenseStatus": "ACTIVE",
    "inService": true,
    "licenseNumber": "550007696",
    "licenseEffectiveDate": "12/17/2023",
    "licenseExpirationDate": "12/16/2025",
    "dataDate": "10/18/2025",
    "capacity": 0,
    "address": "217 E ALAMEDA AVE, SUITE 208",
    "city": "BURBANK",
    "zip": "91502",
    "county": "LOS ANGELES",
    "phone": "(747) 202-1616",
    "lat": 34.17533999,
    "lng": -118.29938
  },
  {
    "id": "630018430",
    "name": "OMEGA HOME HEALTH AGENCY, INC.",
    "npi": "1912477480",
    "hcaiId": "406191687",
    "businessName": "OMEGA HOME HEALTH AGENCY, INC.",
    "contactEmail": "HOMEHEALTHOMEGA@GMAIL.COM",
    "categoryName": "HOME HEALTH AGENCY",
    "categoryCode": "HHA",
    "licenseStatus": "ACTIVE",
    "inService": true,
    "licenseNumber": "550004726",
    "licenseEffectiveDate": "07/15/2025",
    "licenseExpirationDate": "06/04/2026",
    "dataDate": "10/18/2025",
    "capacity": 0,
    "address": "273 W ALAMEDA AVE",
    "city": "BURBANK",
    "zip": "91502",
    "county": "LOS ANGELES",
    "phone": "(747) 240-6747",
    "lat": 34.16737802,
    "lng": -118.307679
  },
  {
    "id": "630015984",
    "name": "ONE LEGACY HOSPICE & PALLIATIVE CARE, INC.",
    "npi": "1003209784",
    "hcaiId": "406190665",
    "businessName": "ONE LEGACY HOSPICE & PALLIATIVE CARE, INC.",
    "contactEmail": "ONELEGACY.HOSPICE@GMAIL.COM",
    "categoryName": "HOSPICE",
    "categoryCode": "HOSPICE",
    "licenseStatus": "ACTIVE",
    "inService": true,
    "licenseNumber": "550004173",
    "licenseEffectiveDate": "01/22/2024",
    "licenseExpirationDate": "01/21/2026",
    "dataDate": "10/18/2025",
    "capacity": 0,
    "address": "178 S. VICTORY BLVD., UNIT 107",
    "city": "BURBANK",
    "zip": "91502",
    "county": "LOS ANGELES",
    "phone": "(818) 588-3273",
    "lat": 34.17246729,
    "lng": -118.3159422
  },
  {
    "id": "630025356",
    "name": "PALA HOME HEALTH CARE, INC",
    "npi": null,
    "hcaiId": null,
    "businessName": "PALA HOME HEALTH CARE, INC",
    "contactEmail": "PALLIATIVEHOMEHEALTHCARE@GMAIL.COM",
    "categoryName": "HOME HEALTH AGENCY",
    "categoryCode": "HHA",
    "licenseStatus": "ACTIVE",
    "inService": true,
    "licenseNumber": "550009154",
    "licenseEffectiveDate": "05/17/2024",
    "licenseExpirationDate": "11/16/2024",
    "dataDate": "10/18/2025",
    "capacity": 0,
    "address": "209 W ALAMEDA AVE, UNIT 103-A",
    "city": "BURBANK",
    "zip": "91502",
    "county": "LOS ANGELES",
    "phone": "(747) 292-6066",
    "lat": 34.16913,
    "lng": -118.3064985
  },
  {
    "id": "630020611",
    "name": "PARADISE HOME HEALTH GROUP, INC.",
    "npi": null,
    "hcaiId": "406193462",
    "businessName": "PARADISE HOME HEALTH GROUP, INC.",
    "contactEmail": "PARADISEHOMEHEALTHINC@GMAIL.COM",
    "categoryName": "HOME HEALTH AGENCY",
    "categoryCode": "HHA",
    "licenseStatus": "ACTIVE",
    "inService": true,
    "licenseNumber": "550007110",
    "licenseEffectiveDate": "08/26/2024",
    "licenseExpirationDate": "08/25/2025",
    "dataDate": "10/18/2025",
    "capacity": 0,
    "address": "120 N VICTORY BLVD, SUITE 205",
    "city": "BURBANK",
    "zip": "91502",
    "county": "LOS ANGELES",
    "phone": "(747) 567-5157",
    "lat": 34.17435599,
    "lng": -118.316561
  },
  {
    "id": "630015867",
    "name": "PEACE AND CARE HOSPICE, INC.",
    "npi": "1942691704",
    "hcaiId": "406191479",
    "businessName": "PEACE AND CARE HOSPICE, INC.",
    "contactEmail": "PEACEANDCAREHOSPICE@YAHOO.COM",
    "categoryName": "HOSPICE",
    "categoryCode": "HOSPICE",
    "licenseStatus": "ACTIVE",
    "inService": true,
    "licenseNumber": "550004367",
    "licenseEffectiveDate": "09/15/2022",
    "licenseExpirationDate": "09/14/2024",
    "dataDate": "10/18/2025",
    "capacity": 0,
    "address": "539 N GLENOAKS BLVD, SUITE 301-A",
    "city": "BURBANK",
    "zip": "91502",
    "county": "LOS ANGELES",
    "phone": "(818) 669-6937",
    "lat": 34.186356,
    "lng": -118.310976
  },
  {
    "id": "630020602",
    "name": "PEACE AND LOVE SERVICES",
    "npi": "1528670114",
    "hcaiId": null,
    "businessName": "PEACE AND LOVE SERVICES",
    "contactEmail": "PEACEANDLOVEHOSPICE@GMAIL.COM",
    "categoryName": "HOSPICE",
    "categoryCode": "HOSPICE",
    "licenseStatus": "ACTIVE",
    "inService": true,
    "licenseNumber": "550005920",
    "licenseEffectiveDate": "12/18/2024",
    "licenseExpirationDate": "12/17/2026",
    "dataDate": "10/18/2025",
    "capacity": 0,
    "address": "105 W ALAMEDA AVE, SUITE 200",
    "city": "BURBANK",
    "zip": "91502",
    "county": "LOS ANGELES",
    "phone": "(747) 245-4645",
    "lat": 34.17139143,
    "lng": -118.3031245
  },
  {
    "id": "630020582",
    "name": "PEOPLE'S CHOICE HOSPICE, INC.",
    "npi": null,
    "hcaiId": "406196110",
    "businessName": "PEOPLE'S CHOICE HOSPICE, INC.",
    "contactEmail": "PEOPLESCHOICEHOSPICE@GMAIL.COM",
    "categoryName": "HOSPICE",
    "categoryCode": "HOSPICE",
    "licenseStatus": "ACTIVE",
    "inService": true,
    "licenseNumber": "550006443",
    "licenseEffectiveDate": "06/04/2025",
    "licenseExpirationDate": "06/03/2027",
    "dataDate": "10/18/2025",
    "capacity": 0,
    "address": "120 N VICTORY BLVD, SUITE 202",
    "city": "BURBANK",
    "zip": "91502",
    "county": "LOS ANGELES",
    "phone": "(818) 646-1296",
    "lat": 34.17435599,
    "lng": -118.316561
  },
  {
    "id": "630020807",
    "name": "PRIMARY HOME HEALTH SERVICES INC.",
    "npi": null,
    "hcaiId": "406195387",
    "businessName": "PRIMARY HOME HEALTH SERVICES INC.",
    "contactEmail": "PRIMARYHHS@GMAIL.COM",
    "categoryName": "HOME HEALTH AGENCY",
    "categoryCode": "HHA",
    "licenseStatus": "ACTIVE",
    "inService": true,
    "licenseNumber": "550006503",
    "licenseEffectiveDate": "06/04/2025",
    "licenseExpirationDate": "06/03/2026",
    "dataDate": "10/18/2025",
    "capacity": 0,
    "address": "406 S GLENOAKS BLVD, UNIT A",
    "city": "BURBANK",
    "zip": "91502",
    "county": "LOS ANGELES",
    "phone": "(818) 736-5582",
    "lat": 34.18094547,
    "lng": -118.3030171
  },
  {
    "id": "980000981",
    "name": "PROVIDENCE HOME HEALTH LA COUNTY NORTH",
    "npi": "1164429684",
    "hcaiId": "406191290",
    "businessName": "PROVIDENCE HEALTH SYSTEM- SOUTHERN CALIFORNIA",
    "contactEmail": "SARAH.ELLIOTT@PROVIDENCE.ORG",
    "categoryName": "HOME HEALTH AGENCY",
    "categoryCode": "HHA",
    "licenseStatus": "ACTIVE",
    "inService": true,
    "licenseNumber": "980000499",
    "licenseEffectiveDate": "01/30/2025",
    "licenseExpirationDate": "01/29/2026",
    "dataDate": "10/18/2025",
    "capacity": 0,
    "address": "250 E OLIVE AVE, SUITE 202",
    "city": "BURBANK",
    "zip": "91502",
    "county": "LOS ANGELES",
    "phone": "(818) 953-4451",
    "lat": 34.1814216,
    "lng": -118.3080927
  },
  {
    "id": "630018647",
    "name": "PURE HOME HEALTH",
    "npi": null,
    "hcaiId": "406192399",
    "businessName": "PURE HOME HEALTH",
    "contactEmail": "HOMEHEALTHPURE@GMAIL.COM",
    "categoryName": "HOME HEALTH AGENCY",
    "categoryCode": "HHA",
    "licenseStatus": "ACTIVE",
    "inService": true,
    "licenseNumber": "550005265",
    "licenseEffectiveDate": "02/01/2025",
    "licenseExpirationDate": "01/31/2026",
    "dataDate": "10/18/2025",
    "capacity": 0,
    "address": "315 W VERDUGO AVE, SUITE B",
    "city": "BURBANK",
    "zip": "91502",
    "county": "LOS ANGELES",
    "phone": "(818) 813-6651",
    "lat": 34.17102,
    "lng": -118.314441
  },
  {
    "id": "630021590",
    "name": "QA CARE HOSPICE",
    "npi": null,
    "hcaiId": "406197725",
    "businessName": "QA CARE HOSPICE",
    "contactEmail": "QACAREHOSPICE@YAHOO.COM",
    "categoryName": "HOSPICE",
    "categoryCode": "HOSPICE",
    "licenseStatus": "ACTIVE",
    "inService": true,
    "licenseNumber": "550007672",
    "licenseEffectiveDate": "12/13/2023",
    "licenseExpirationDate": "12/12/2025",
    "dataDate": "10/18/2025",
    "capacity": 0,
    "address": "303 N GLENOAKS BLVD, SUITE 231",
    "city": "BURBANK",
    "zip": "91502",
    "county": "LOS ANGELES",
    "phone": "(818) 478-1422",
    "lat": 34.184367,
    "lng": -118.3090455
  },
  {
    "id": "630024717",
    "name": "QUALITY SERVICE HOME HEALTH, INC.",
    "npi": null,
    "hcaiId": "406197794",
    "businessName": "QUALITY SERVICE HOME HEALTH, INC.",
    "contactEmail": "QUALITYSERVICEHOMEHEALTH@GMAIL.COM",
    "categoryName": "HOME HEALTH AGENCY",
    "categoryCode": "HHA",
    "licenseStatus": "ACTIVE",
    "inService": true,
    "licenseNumber": "550008376",
    "licenseEffectiveDate": "02/06/2025",
    "licenseExpirationDate": "02/05/2026",
    "dataDate": "10/18/2025",
    "capacity": 0,
    "address": "146 N SAN FERNANDO BLVD, SUITE 214",
    "city": "BURBANK",
    "zip": "91502",
    "county": "LOS ANGELES",
    "phone": "(747) 528-6161",
    "lat": 34.18149544,
    "lng": -118.3094483
  },
  {
    "id": "630011172",
    "name": "QUEST HOME HEALTH, INC.",
    "npi": "1972641579",
    "hcaiId": "406197108",
    "businessName": "QUEST HOME HEALTH, INC.",
    "contactEmail": "QUESTHOMEHEALTH@YAHOO.COM",
    "categoryName": "HOME HEALTH AGENCY",
    "categoryCode": "HHA",
    "licenseStatus": "ACTIVE",
    "inService": true,
    "licenseNumber": "550000713",
    "licenseEffectiveDate": "11/05/2025",
    "licenseExpirationDate": "11/04/2026",
    "dataDate": "10/18/2025",
    "capacity": 0,
    "address": "150 E OLIVE AVE, SUITE 116B",
    "city": "BURBANK",
    "zip": "91502",
    "county": "LOS ANGELES",
    "phone": "(818) 765-5400",
    "lat": 34.180419,
    "lng": -118.308646
  },
  {
    "id": "630011354",
    "name": "R & G HOME HEALTH CARE SERVICES, INC.",
    "npi": "1750587804",
    "hcaiId": "406197307",
    "businessName": "R & G HOME HEALTH CARE SERVICES, INC.",
    "contactEmail": "RANDGHHC@YHAOO.COM",
    "categoryName": "HOME HEALTH AGENCY",
    "categoryCode": "HHA",
    "licenseStatus": "ACTIVE",
    "inService": true,
    "licenseNumber": "550000920",
    "licenseEffectiveDate": "02/24/2025",
    "licenseExpirationDate": "02/23/2026",
    "dataDate": "10/18/2025",
    "capacity": 0,
    "address": "539 N GLENOAKS BLVD, SUITE 204B",
    "city": "BURBANK",
    "zip": "91502",
    "county": "LOS ANGELES",
    "phone": "(818) 840-0900",
    "lat": 34.186356,
    "lng": -118.310976
  },
  {
    "id": "630025401",
    "name": "REALTIME HOME HEALTH CARE, INC.",
    "npi": null,
    "hcaiId": "406190075",
    "businessName": "REALTIME HOME HEALTH CARE, INC.",
    "contactEmail": "REALTIMEHOMEHEALTH@GMAIL.COM",
    "categoryName": "HOME HEALTH AGENCY",
    "categoryCode": "HHA",
    "licenseStatus": "ACTIVE",
    "inService": true,
    "licenseNumber": "550008842",
    "licenseEffectiveDate": "11/02/2023",
    "licenseExpirationDate": "05/04/2024",
    "dataDate": "10/18/2025",
    "capacity": 0,
    "address": "207 W ALAMEDA AVE, UNIT 200, SUITE F",
    "city": "BURBANK",
    "zip": "91502",
    "county": "LOS ANGELES",
    "phone": "(747) 313-6101",
    "lat": 34.16913,
    "lng": -118.3064985
  },
  {
    "id": "630023296",
    "name": "RED STAR HOME HEALTH CARE, INC",
    "npi": null,
    "hcaiId": "406195485",
    "businessName": "RED STAR HOME HEALTH CARE, INC",
    "contactEmail": "REDSTARHOMEHEALTH@GMAIL.COM",
    "categoryName": "HOME HEALTH AGENCY",
    "categoryCode": "HHA",
    "licenseStatus": "ACTIVE",
    "inService": true,
    "licenseNumber": "550008126",
    "licenseEffectiveDate": "08/18/2025",
    "licenseExpirationDate": "08/17/2026",
    "dataDate": "10/18/2025",
    "capacity": 0,
    "address": "215 WEST ALAMEDA AVENUE, SUITE 105",
    "city": "BURBANK",
    "zip": "91502",
    "county": "LOS ANGELES",
    "phone": "(747) 477-1138",
    "lat": 34.168971,
    "lng": -118.3067406
  },
  {
    "id": "630020573",
    "name": "REFLECTIONS HOSPICE, INC.",
    "npi": null,
    "hcaiId": "406196034",
    "businessName": "REFLECTIONS HOSPICE, INC.",
    "contactEmail": "REFLECTIONSHOSPICEINC@GMAIL.COM",
    "categoryName": "HOSPICE",
    "categoryCode": "HOSPICE",
    "licenseStatus": "ACTIVE",
    "inService": true,
    "licenseNumber": "550006438",
    "licenseEffectiveDate": "06/14/2025",
    "licenseExpirationDate": "06/13/2027",
    "dataDate": "10/18/2025",
    "capacity": 0,
    "address": "150 E OLIVE AVE, SUITE 214",
    "city": "BURBANK",
    "zip": "91502",
    "county": "LOS ANGELES",
    "phone": "(818) 646-1290",
    "lat": 34.180419,
    "lng": -118.308646
  },
  {
    "id": "630014654",
    "name": "REGAL HOSPICE HEALTH INC.",
    "npi": null,
    "hcaiId": "406198337",
    "businessName": "REGAL HOSPICE HEALTH INC.",
    "contactEmail": "REGALHOSPICE@GMAIL.COM",
    "categoryName": "HOSPICE",
    "categoryCode": "HOSPICE",
    "licenseStatus": "ACTIVE",
    "inService": true,
    "licenseNumber": "550003088",
    "licenseEffectiveDate": "04/23/2025",
    "licenseExpirationDate": "04/22/2027",
    "dataDate": "10/18/2025",
    "capacity": 0,
    "address": "150 E OLIVE AVE, SUITE 116A",
    "city": "BURBANK",
    "zip": "91502",
    "county": "LOS ANGELES",
    "phone": "(818) 480-0007",
    "lat": 34.180419,
    "lng": -118.308646
  },
  {
    "id": "630018486",
    "name": "REMEDIUM HOME HEALTH CARE, INC",
    "npi": "1649740937",
    "hcaiId": "406192031",
    "businessName": "REMEDIUM HOME HEALTH CARE, INC",
    "contactEmail": "REMEDIUMHHC@GMAIL.COM",
    "categoryName": "HOME HEALTH AGENCY",
    "categoryCode": "HHA",
    "licenseStatus": "ACTIVE",
    "inService": true,
    "licenseNumber": "550005083",
    "licenseEffectiveDate": "11/02/2025",
    "licenseExpirationDate": "11/01/2026",
    "dataDate": "10/18/2025",
    "capacity": 0,
    "address": "601 S GLENOAKS BLVD, SUITE 410",
    "city": "BURBANK",
    "zip": "91502",
    "county": "LOS ANGELES",
    "phone": "(818) 900-9060",
    "lat": 34.179124,
    "lng": -118.301316
  },
  {
    "id": "630021281",
    "name": "SAINT CARE HOSPICE",
    "npi": null,
    "hcaiId": null,
    "businessName": "SAINT CARE HOSPICE",
    "contactEmail": "KAMAL.SAKKAY@GMAIL.COM",
    "categoryName": "HOSPICE",
    "categoryCode": "HOSPICE",
    "licenseStatus": "ACTIVE",
    "inService": true,
    "licenseNumber": "550006087",
    "licenseEffectiveDate": "03/12/2023",
    "licenseExpirationDate": "03/11/2025",
    "dataDate": "10/18/2025",
    "capacity": 0,
    "address": "303 N GLENOAKS BLVD, SUITE 264",
    "city": "BURBANK",
    "zip": "91502",
    "county": "LOS ANGELES",
    "phone": "(747) 356-0330",
    "lat": 34.184367,
    "lng": -118.3090455
  },
  {
    "id": "630014249",
    "name": "SAINT MONTSERRAT HOSPICE CARE, INC.",
    "npi": null,
    "hcaiId": "406198010",
    "businessName": "SAINT MONTSERRAT HOSPICE CARE INC",
    "contactEmail": "STMONTSERRATHOSPICECARE@YAHOO.COM",
    "categoryName": "HOSPICE",
    "categoryCode": "HOSPICE",
    "licenseStatus": "ACTIVE",
    "inService": true,
    "licenseNumber": "550002671",
    "licenseEffectiveDate": "05/15/2024",
    "licenseExpirationDate": "05/14/2026",
    "dataDate": "10/18/2025",
    "capacity": 0,
    "address": "523 N GLENOAKS BLVD",
    "city": "BURBANK",
    "zip": "91502",
    "county": "LOS ANGELES",
    "phone": "(818) 567-6520",
    "lat": 34.18632014,
    "lng": -118.3106454
  },
  {
    "id": "630015546",
    "name": "SECURE HOME HEALTH CARE",
    "npi": "1255733234",
    "hcaiId": "406198237",
    "businessName": "PEGASUS HH, INC.",
    "contactEmail": "SECUREHH@YAHOO.COM",
    "categoryName": "HOME HEALTH AGENCY",
    "categoryCode": "HHA",
    "licenseStatus": "ACTIVE",
    "inService": true,
    "licenseNumber": "550003475",
    "licenseEffectiveDate": "04/05/2025",
    "licenseExpirationDate": "04/04/2026",
    "dataDate": "10/18/2025",
    "capacity": 0,
    "address": "105 W. ALAMEDA AVENUE, SUITE 217",
    "city": "BURBANK",
    "zip": "91502",
    "county": "LOS ANGELES",
    "phone": "(818) 967-5040",
    "lat": 34.17139143,
    "lng": -118.3031245
  },
  {
    "id": "630022386",
    "name": "SELECTIVE CARE HOSPICE, INC.",
    "npi": null,
    "hcaiId": "406190194",
    "businessName": "SELECTIVE CARE HOSPICE, INC.",
    "contactEmail": "SELECTIVECAREHOSPICE@GMAIL.COM",
    "categoryName": "HOSPICE",
    "categoryCode": "HOSPICE",
    "licenseStatus": "ACTIVE",
    "inService": true,
    "licenseNumber": "550007667",
    "licenseEffectiveDate": "12/22/2023",
    "licenseExpirationDate": "12/21/2025",
    "dataDate": "10/18/2025",
    "capacity": 0,
    "address": "315 W VERDUGO AVE, SUITE F",
    "city": "BURBANK",
    "zip": "91502",
    "county": "LOS ANGELES",
    "phone": "(818) 350-7730",
    "lat": 34.17102,
    "lng": -118.314441
  },
  {
    "id": "630018200",
    "name": "SENIOR HEALTH ADVOCATES, INC.",
    "npi": null,
    "hcaiId": "406192446",
    "businessName": "SENIOR HEALTH ADVOCATES, INC.",
    "contactEmail": "ADMIN@SENIORHOMEHEALTH.ORG",
    "categoryName": "HOME HEALTH AGENCY",
    "categoryCode": "HHA",
    "licenseStatus": "ACTIVE",
    "inService": true,
    "licenseNumber": "550005447",
    "licenseEffectiveDate": "05/12/2025",
    "licenseExpirationDate": "05/11/2026",
    "dataDate": "10/18/2025",
    "capacity": 0,
    "address": "303 N GLENOAKS BLVD, SUITE 233",
    "city": "BURBANK",
    "zip": "91502",
    "county": "LOS ANGELES",
    "phone": "(818) 605-5365",
    "lat": 34.184367,
    "lng": -118.3090455
  },
  {
    "id": "630025676",
    "name": "SERA HEALTHCARE",
    "npi": null,
    "hcaiId": null,
    "businessName": "SERA HEALTHCARE",
    "contactEmail": "SERAHOSPICE@GMAIL.COM",
    "categoryName": "HOME HEALTH AGENCY",
    "categoryCode": "HHA",
    "licenseStatus": "ACTIVE",
    "inService": true,
    "licenseNumber": "550008804",
    "licenseEffectiveDate": "07/29/2025",
    "licenseExpirationDate": "10/14/2025",
    "dataDate": "10/18/2025",
    "capacity": 0,
    "address": "300 NORTH 3RD STREET, SUITE 254",
    "city": "BURBANK",
    "zip": "91502",
    "county": "LOS ANGELES",
    "phone": "(818) 795-2953",
    "lat": 34.18387306,
    "lng": -118.3095865
  },
  {
    "id": "630021679",
    "name": "SERENITY HILLS HOSPICE INC",
    "npi": null,
    "hcaiId": "406193830",
    "businessName": "SERENITY HILLS HOSPICE, INC",
    "contactEmail": "SERENITYHILLSHOSPICE@YAHOO.COM",
    "categoryName": "HOSPICE",
    "categoryCode": "HOSPICE",
    "licenseStatus": "ACTIVE",
    "inService": true,
    "licenseNumber": "550007193",
    "licenseEffectiveDate": "10/28/2025",
    "licenseExpirationDate": "10/27/2027",
    "dataDate": "10/18/2025",
    "capacity": 0,
    "address": "120 N VICTORY BLVD, SUITE 309",
    "city": "BURBANK",
    "zip": "91502",
    "county": "LOS ANGELES",
    "phone": "(747) 208-3300",
    "lat": 34.17435599,
    "lng": -118.316561
  },
  {
    "id": "630018831",
    "name": "SIGNIFICANT HOME HEALTH, INC.",
    "npi": "1205499712",
    "hcaiId": "406192028",
    "businessName": "SIGNIFICANT HOME HEALTH, INC.",
    "contactEmail": "SIGNIFICANTHOMEHEALTH@YAHOO.COM",
    "categoryName": "HOME HEALTH AGENCY",
    "categoryCode": "HHA",
    "licenseStatus": "ACTIVE",
    "inService": true,
    "licenseNumber": "550005086",
    "licenseEffectiveDate": "11/07/2023",
    "licenseExpirationDate": "11/06/2024",
    "dataDate": "10/18/2025",
    "capacity": 0,
    "address": "912 S VICTORY BLVD",
    "city": "BURBANK",
    "zip": "91502",
    "county": "LOS ANGELES",
    "phone": "(818) 875-4175",
    "lat": 34.167366,
    "lng": -118.308321
  },
  {
    "id": "630020209",
    "name": "SILVER CITY HOSPICE AND PALLIATIVE CARE",
    "npi": null,
    "hcaiId": "406196022",
    "businessName": "SILVER CITY HOSPICE AND PALLIATIVE CARE",
    "contactEmail": "SILVERCITYHOSPICE@GMAIL.COM",
    "categoryName": "HOSPICE",
    "categoryCode": "HOSPICE",
    "licenseStatus": "ACTIVE",
    "inService": true,
    "licenseNumber": "550006021",
    "licenseEffectiveDate": "11/04/2024",
    "licenseExpirationDate": "11/03/2026",
    "dataDate": "10/18/2025",
    "capacity": 0,
    "address": "121 S GLENOAKS BLVD, SUITE 1-A",
    "city": "BURBANK",
    "zip": "91502",
    "county": "LOS ANGELES",
    "phone": "(747) 301-3555",
    "lat": 34.182738,
    "lng": -118.306053
  },
  {
    "id": "630024410",
    "name": "SILVER LINING HOME HEALTH CARE, INC.",
    "npi": null,
    "hcaiId": "406195447",
    "businessName": "SILVER LINING HOME HEALTH CARE, INC.",
    "contactEmail": "SILVERLININGHOMEHEALTHCARE@GMAIL.COM",
    "categoryName": "HOME HEALTH AGENCY",
    "categoryCode": "HHA",
    "licenseStatus": "ACTIVE",
    "inService": true,
    "licenseNumber": "550008102",
    "licenseEffectiveDate": "09/17/2024",
    "licenseExpirationDate": "07/18/2025",
    "dataDate": "10/18/2025",
    "capacity": 0,
    "address": "353 E ANGELENO AVE, SUITE #A",
    "city": "BURBANK",
    "zip": "91502",
    "county": "LOS ANGELES",
    "phone": "(747) 208-0150",
    "lat": 34.18219601,
    "lng": -118.306017
  },
  {
    "id": "630014567",
    "name": "SINCLAIR HOME HEALTH SERVICES, INC.",
    "npi": "1700210614",
    "hcaiId": "406198235",
    "businessName": "SINCLAIR HOME HEALTH SERVICES, INC.",
    "contactEmail": "SINCLAIRHHS@YAHOO.COM",
    "categoryName": "HOME HEALTH AGENCY",
    "categoryCode": "HHA",
    "licenseStatus": "ACTIVE",
    "inService": true,
    "licenseNumber": "550002987",
    "licenseEffectiveDate": "05/24/2025",
    "licenseExpirationDate": "05/23/2026",
    "dataDate": "10/18/2025",
    "capacity": 0,
    "address": "800 S VICTORY BLVD, SUITE 107",
    "city": "BURBANK",
    "zip": "91502",
    "county": "LOS ANGELES",
    "phone": "(818) 781-9800",
    "lat": 34.16832211,
    "lng": -118.3094748
  },
  {
    "id": "630025109",
    "name": "SOLAR HOME HEALTH CARE INC",
    "npi": null,
    "hcaiId": "406190318",
    "businessName": "SOLAR HOME HEALTH CARE INC",
    "contactEmail": "SOLARHHC@PROTONMAIL.COM",
    "categoryName": "HOME HEALTH AGENCY",
    "categoryCode": "HHA",
    "licenseStatus": "ACTIVE",
    "inService": true,
    "licenseNumber": "550008513",
    "licenseEffectiveDate": "04/21/2025",
    "licenseExpirationDate": "04/20/2026",
    "dataDate": "10/18/2025",
    "capacity": 0,
    "address": "903 S LAKE ST, SUITE 102",
    "city": "BURBANK",
    "zip": "91502",
    "county": "LOS ANGELES",
    "phone": "(818) 755-3580",
    "lat": 34.16931801,
    "lng": -118.306369
  },
  {
    "id": "630026128",
    "name": "SPRING GARDEN HHA",
    "npi": null,
    "hcaiId": null,
    "businessName": "SPRING GARDEN HHA",
    "contactEmail": "SPRINGGARDENHHA@GMAIL.COM",
    "categoryName": "HOME HEALTH AGENCY",
    "categoryCode": "HHA",
    "licenseStatus": "ACTIVE",
    "inService": true,
    "licenseNumber": "550009244",
    "licenseEffectiveDate": "10/14/2025",
    "licenseExpirationDate": "07/14/2026",
    "dataDate": "10/18/2025",
    "capacity": 0,
    "address": "303 N GLENOAKS BLVD, SUITE 218",
    "city": "BURBANK",
    "zip": "91502",
    "county": "LOS ANGELES",
    "phone": "(818) 277-7714",
    "lat": 34.184349,
    "lng": -118.309086
  },
  {
    "id": "630020833",
    "name": "ST LUKES HOSPICE AND PALLIATIVE CARE INC",
    "npi": null,
    "hcaiId": "406194810",
    "businessName": "ST LUKES HOSPICE AND PALLIATIVE CARE INC",
    "contactEmail": "STLUKEHOSPICE210@GMAIL.COM",
    "categoryName": "HOSPICE",
    "categoryCode": "HOSPICE",
    "licenseStatus": "ACTIVE",
    "inService": true,
    "licenseNumber": "550006821",
    "licenseEffectiveDate": "09/08/2025",
    "licenseExpirationDate": "09/07/2027",
    "dataDate": "10/18/2025",
    "capacity": 0,
    "address": "224 E OLIVE AVE, SUITE 207",
    "city": "BURBANK",
    "zip": "91502",
    "county": "LOS ANGELES",
    "phone": "(310) 940-4728",
    "lat": 34.18108934,
    "lng": -118.3081623
  },
  {
    "id": "630022072",
    "name": "ST MARTIN HOSPICE CARE INC",
    "npi": null,
    "hcaiId": "406195709",
    "businessName": "ST MARTIN HOSPICE CARE INC",
    "contactEmail": "STMARTINHOSPICECAREINC@GMAIL.COM",
    "categoryName": "HOSPICE",
    "categoryCode": "HOSPICE",
    "licenseStatus": "ACTIVE",
    "inService": true,
    "licenseNumber": "550007526",
    "licenseEffectiveDate": "07/23/2025",
    "licenseExpirationDate": "12/07/2025",
    "dataDate": "10/18/2025",
    "capacity": 0,
    "address": "121 S GLENOAKS BLVD, SUITE 1-B",
    "city": "BURBANK",
    "zip": "91502",
    "county": "LOS ANGELES",
    "phone": "(747) 264-9596",
    "lat": 34.182756,
    "lng": -118.306047
  },
  {
    "id": "630016955",
    "name": "ST. JOSEPH HOME HEALTH CARE, INC.",
    "npi": "1891170965",
    "hcaiId": "406190839",
    "businessName": "ST. JOSEPH HOME HEALTH CARE, INC.",
    "contactEmail": "ST.JOSEPH4@YAHOO.COM",
    "categoryName": "HOME HEALTH AGENCY",
    "categoryCode": "HHA",
    "licenseStatus": "ACTIVE",
    "inService": true,
    "licenseNumber": "550004219",
    "licenseEffectiveDate": "04/19/2025",
    "licenseExpirationDate": "04/18/2026",
    "dataDate": "10/18/2025",
    "capacity": 0,
    "address": "353 EAST ANGELENO AVENUE, SUITE E",
    "city": "BURBANK",
    "zip": "91502",
    "county": "LOS ANGELES",
    "phone": "(818) 523-2393",
    "lat": 34.182099,
    "lng": -118.3058775
  },
  {
    "id": "630016593",
    "name": "STARLIGHT HOME HEALTH SERVICES",
    "npi": "1598124158",
    "hcaiId": "406190901",
    "businessName": "STARLIGHT HEALTH SYSTEM, INC.",
    "contactEmail": "STARHHCARE@GMAIL.COM",
    "categoryName": "HOME HEALTH AGENCY",
    "categoryCode": "HHA",
    "licenseStatus": "ACTIVE",
    "inService": true,
    "licenseNumber": "550004272",
    "licenseEffectiveDate": "06/16/2025",
    "licenseExpirationDate": "06/15/2026",
    "dataDate": "10/18/2025",
    "capacity": 0,
    "address": "220 N GLENOAKS BLVD, SUITE C",
    "city": "BURBANK",
    "zip": "91502",
    "county": "LOS ANGELES",
    "phone": "(818) 849-6044",
    "lat": 34.18432099,
    "lng": -118.307424
  },
  {
    "id": "630021204",
    "name": "STARLIGHT HOSPICE",
    "npi": null,
    "hcaiId": "406193688",
    "businessName": "VENTURA HOSPICE, INC.",
    "contactEmail": "STARLIGHTHOSPICESERVICES@GMAIL.COM",
    "categoryName": "HOSPICE",
    "categoryCode": "HOSPICE",
    "licenseStatus": "ACTIVE",
    "inService": true,
    "licenseNumber": "550006872",
    "licenseEffectiveDate": "09/21/2025",
    "licenseExpirationDate": "09/20/2027",
    "dataDate": "10/18/2025",
    "capacity": 0,
    "address": "224 E OLIVE AVE, SUITE 213",
    "city": "BURBANK",
    "zip": "91502",
    "county": "LOS ANGELES",
    "phone": "(323) 282-7679",
    "lat": 34.18108934,
    "lng": -118.3081623
  },
  {
    "id": "630016803",
    "name": "STARPROS HOME HEALTH CARE INC",
    "npi": "1740784578",
    "hcaiId": "406190673",
    "businessName": "STARPROS HOME HEALTH CARE INC",
    "contactEmail": "STARPROSHHC@GMAIL.COM",
    "categoryName": "HOME HEALTH AGENCY",
    "categoryCode": "HHA",
    "licenseStatus": "ACTIVE",
    "inService": true,
    "licenseNumber": "550004176",
    "licenseEffectiveDate": "03/02/2025",
    "licenseExpirationDate": "03/01/2026",
    "dataDate": "10/18/2025",
    "capacity": 0,
    "address": "224 E. OLIVE AVE, UNIT 210",
    "city": "BURBANK",
    "zip": "91502",
    "county": "LOS ANGELES",
    "phone": "(747) 241-8150",
    "lat": 34.1810663,
    "lng": -118.3084583
  },
  {
    "id": "630025577",
    "name": "STONEBRIDGE HHA",
    "npi": null,
    "hcaiId": null,
    "businessName": "STONEBRIDGE HHA",
    "contactEmail": "STONEBRIDGEHHA@GMAIL.COM",
    "categoryName": "HOME HEALTH AGENCY",
    "categoryCode": "HHA",
    "licenseStatus": "ACTIVE",
    "inService": true,
    "licenseNumber": "550008632",
    "licenseEffectiveDate": "07/10/2025",
    "licenseExpirationDate": "07/09/2026",
    "dataDate": "10/18/2025",
    "capacity": 0,
    "address": "209 E ALAMEDA AVE, UNIT 200 B",
    "city": "BURBANK",
    "zip": "91502",
    "county": "LOS ANGELES",
    "phone": "(818) 433-7198",
    "lat": 34.17516288,
    "lng": -118.2996057
  },
  {
    "id": "630022115",
    "name": "SUMMIT HOSPICE, INC.",
    "npi": null,
    "hcaiId": "406195106",
    "businessName": "SUMMIT HOSPICE, INC.",
    "contactEmail": "SUMMITHOSPICEINC@GMAIL.COM",
    "categoryName": "HOSPICE",
    "categoryCode": "HOSPICE",
    "licenseStatus": "ACTIVE",
    "inService": true,
    "licenseNumber": "550007488",
    "licenseEffectiveDate": "08/27/2025",
    "licenseExpirationDate": "12/08/2025",
    "dataDate": "10/18/2025",
    "capacity": 0,
    "address": "101 SOUTH 1ST STREET, SUITE 405B",
    "city": "BURBANK",
    "zip": "91502",
    "county": "LOS ANGELES",
    "phone": "(818) 813-7832",
    "lat": 34.17895745,
    "lng": -118.3098452
  },
  {
    "id": "630012252",
    "name": "TOP CHOICE HOME HEALTHCARE, INC.",
    "npi": "1013151570",
    "hcaiId": "406197392",
    "businessName": "TOP CHOICE HOME HEALTHCARE, INC.",
    "contactEmail": "INFO@TOPCHOICEHH.COM",
    "categoryName": "HOME HEALTH AGENCY",
    "categoryCode": "HHA",
    "licenseStatus": "ACTIVE",
    "inService": true,
    "licenseNumber": "550001292",
    "licenseEffectiveDate": "05/27/2025",
    "licenseExpirationDate": "05/26/2026",
    "dataDate": "10/18/2025",
    "capacity": 0,
    "address": "539 N GLENOAKS BLVD, SUITE 201",
    "city": "BURBANK",
    "zip": "91502",
    "county": "LOS ANGELES",
    "phone": "(818) 698-8282",
    "lat": 34.186356,
    "lng": -118.310976
  },
  {
    "id": "630013047",
    "name": "TOTAL CARE HOME HEALTH CARE, INC.",
    "npi": null,
    "hcaiId": "406197602",
    "businessName": "TOTAL CARE HOME HEALTH CARE, INC.",
    "contactEmail": "TOTALCAREHHCI@YAHOO.COM",
    "categoryName": "HOME HEALTH AGENCY",
    "categoryCode": "HHA",
    "licenseStatus": "ACTIVE",
    "inService": true,
    "licenseNumber": "550001707",
    "licenseEffectiveDate": "11/16/2024",
    "licenseExpirationDate": "11/15/2025",
    "dataDate": "10/18/2025",
    "capacity": 0,
    "address": "178 S VICTORY BLVD, SUITE 207",
    "city": "BURBANK",
    "zip": "91502",
    "county": "LOS ANGELES",
    "phone": "(818) 842-2273",
    "lat": 34.17246729,
    "lng": -118.3159422
  },
  {
    "id": "630017712",
    "name": "TRUSTED QUALITY HOME HEALTH, INC.",
    "npi": null,
    "hcaiId": "406191651",
    "businessName": "TRUSTED QUALITY HOME HEALTH, INC.",
    "contactEmail": "TRUSTEDQHH@GMAIL.COM",
    "categoryName": "HOME HEALTH AGENCY",
    "categoryCode": "HHA",
    "licenseStatus": "ACTIVE",
    "inService": true,
    "licenseNumber": "550004648",
    "licenseEffectiveDate": "08/21/2024",
    "licenseExpirationDate": "04/26/2025",
    "dataDate": "10/18/2025",
    "capacity": 0,
    "address": "120 N VICTORY BLVD, SUITE 303",
    "city": "BURBANK",
    "zip": "91502",
    "county": "LOS ANGELES",
    "phone": "(818) 579-8579",
    "lat": 34.17435599,
    "lng": -118.316561
  },
  {
    "id": "630021055",
    "name": "TRUSTING HANDS HOSPICE, INC.",
    "npi": null,
    "hcaiId": "406194867",
    "businessName": "TRUSTING HANDS HOSPICE, INC.",
    "contactEmail": "TRUSTINGHANDSHOSPICE@GMAIL.COM",
    "categoryName": "HOSPICE",
    "categoryCode": "HOSPICE",
    "licenseStatus": "ACTIVE",
    "inService": true,
    "licenseNumber": "550006853",
    "licenseEffectiveDate": "09/10/2025",
    "licenseExpirationDate": "09/09/2027",
    "dataDate": "10/18/2025",
    "capacity": 0,
    "address": "135 N VICTORY BLVD, SUITE 1",
    "city": "BURBANK",
    "zip": "91502",
    "county": "LOS ANGELES",
    "phone": "(818) 483-3078",
    "lat": 34.174479,
    "lng": -118.317389
  },
  {
    "id": "630023803",
    "name": "UNCONDITIONAL CARE HOME HEALTH",
    "npi": null,
    "hcaiId": "406195322",
    "businessName": "UNCONDITIONAL CARE HOME HEALTH",
    "contactEmail": "UNCONDITIONALCAREHH@GMAIL.COM",
    "categoryName": "HOME HEALTH AGENCY",
    "categoryCode": "HHA",
    "licenseStatus": "ACTIVE",
    "inService": true,
    "licenseNumber": "550007890",
    "licenseEffectiveDate": "03/10/2025",
    "licenseExpirationDate": "03/09/2026",
    "dataDate": "10/18/2025",
    "capacity": 0,
    "address": "300 N 3RD ST, SUITE 306",
    "city": "BURBANK",
    "zip": "91502",
    "county": "LOS ANGELES",
    "phone": "(818) 452-5005",
    "lat": 34.18386899,
    "lng": -118.309575
  },
  {
    "id": "630019795",
    "name": "USA HOSPICE, INC.",
    "npi": null,
    "hcaiId": "406192929",
    "businessName": "USA HOSPICE, INC.",
    "contactEmail": "USAHOSPICE@YAHOO.COM",
    "categoryName": "HOSPICE",
    "categoryCode": "HOSPICE",
    "licenseStatus": "ACTIVE",
    "inService": true,
    "licenseNumber": "550005768",
    "licenseEffectiveDate": "09/11/2024",
    "licenseExpirationDate": "09/10/2026",
    "dataDate": "10/18/2025",
    "capacity": 0,
    "address": "120 N VICTORY BLVD, SUITE 305",
    "city": "BURBANK",
    "zip": "91502",
    "county": "LOS ANGELES",
    "phone": "(818) 850-0955",
    "lat": 34.17435599,
    "lng": -118.316561
  },
  {
    "id": "630021229",
    "name": "VA CARE HOSPICE",
    "npi": null,
    "hcaiId": "406196221",
    "businessName": "VA CARE HOSPICE",
    "contactEmail": "VACAREHOSPICE@YAHOO.COM",
    "categoryName": "HOSPICE",
    "categoryCode": "HOSPICE",
    "licenseStatus": "ACTIVE",
    "inService": true,
    "licenseNumber": "550006106",
    "licenseEffectiveDate": "02/18/2023",
    "licenseExpirationDate": "02/17/2025",
    "dataDate": "10/18/2025",
    "capacity": 0,
    "address": "303 N GLENOAKS BLVD, SUITE 261",
    "city": "BURBANK",
    "zip": "91502",
    "county": "LOS ANGELES",
    "phone": "(747) 291-7007",
    "lat": 34.184367,
    "lng": -118.3090455
  },
  {
    "id": "630012431",
    "name": "VALLEY'S BEST HOSPICE, INC.",
    "npi": null,
    "hcaiId": "406197425",
    "businessName": "VALLEY'S BEST HOSPICE, INC.",
    "contactEmail": "FSTAAGUEDA@VBHOSPICE.COM",
    "categoryName": "HOSPICE",
    "categoryCode": "HOSPICE",
    "licenseStatus": "ACTIVE",
    "inService": true,
    "licenseNumber": "550001335",
    "licenseEffectiveDate": "06/11/2024",
    "licenseExpirationDate": "06/10/2026",
    "dataDate": "10/18/2025",
    "capacity": 0,
    "address": "101 S 1ST ST, SUITE 301",
    "city": "BURBANK",
    "zip": "91502",
    "county": "LOS ANGELES",
    "phone": "(818) 761-1205",
    "lat": 34.179219,
    "lng": -118.3099005
  },
  {
    "id": "630016178",
    "name": "VANGUARD HOSPICE, INC.",
    "npi": "1346637311",
    "hcaiId": "406190814",
    "businessName": "VANGUARD HOSPICE, INC.",
    "contactEmail": "MEDICONNECTHOSPICE@GMAIL.COM",
    "categoryName": "HOSPICE",
    "categoryCode": "HOSPICE",
    "licenseStatus": "ACTIVE",
    "inService": false,
    "licenseNumber": "550004019",
    "licenseEffectiveDate": "10/23/2023",
    "licenseExpirationDate": "10/22/2025",
    "dataDate": "10/18/2025",
    "capacity": 0,
    "address": "539 N GLENOAKS BLVD, SUITE 303",
    "city": "BURBANK",
    "zip": "91502",
    "county": "LOS ANGELES",
    "phone": "(818) 926-4104",
    "lat": 34.186356,
    "lng": -118.310976
  },
  {
    "id": "630022254",
    "name": "VERVE HOSPICE CARE INC",
    "npi": null,
    "hcaiId": "406193869",
    "businessName": "VERVE HOSPICE CARE INC",
    "contactEmail": "VERVEHOSPICECARE@GMAIL.COM",
    "categoryName": "HOSPICE",
    "categoryCode": "HOSPICE",
    "licenseStatus": "ACTIVE",
    "inService": true,
    "licenseNumber": "550007367",
    "licenseEffectiveDate": "09/30/2024",
    "licenseExpirationDate": "12/02/2025",
    "dataDate": "10/18/2025",
    "capacity": 0,
    "address": "315 W VERDUGO AVE, SUITE 214",
    "city": "BURBANK",
    "zip": "91502",
    "county": "LOS ANGELES",
    "phone": "(747) 285-4502",
    "lat": 34.171021,
    "lng": -118.314458
  },
  {
    "id": "630016206",
    "name": "VIA PLUS HOME HEALTH, INC.",
    "npi": null,
    "hcaiId": "406190682",
    "businessName": "VIA PLUS HOME HEALTH, INC.",
    "contactEmail": "VIAPLUSHHA@YAHOO.COM",
    "categoryName": "HOME HEALTH AGENCY",
    "categoryCode": "HHA",
    "licenseStatus": "ACTIVE",
    "inService": true,
    "licenseNumber": "550004033",
    "licenseEffectiveDate": "11/14/2023",
    "licenseExpirationDate": "11/13/2024",
    "dataDate": "10/18/2025",
    "capacity": 0,
    "address": "239 E ALAMEDA AVE, SUITE 103",
    "city": "BURBANK",
    "zip": "91502",
    "county": "LOS ANGELES",
    "phone": "(818) 646-1210",
    "lat": 34.175538,
    "lng": -118.299033
  },
  {
    "id": "630027327",
    "name": "VICTORY CHOICE HOME HEALTH",
    "npi": null,
    "hcaiId": null,
    "businessName": "VICTORY CHOICE HOME HEALTH",
    "contactEmail": "VICTORYCHOICEHH@GMAIL.COM",
    "categoryName": "HOME HEALTH AGENCY",
    "categoryCode": "HHA",
    "licenseStatus": "ACTIVE",
    "inService": true,
    "licenseNumber": "550009658",
    "licenseEffectiveDate": "08/14/2025",
    "licenseExpirationDate": "02/13/2026",
    "dataDate": "10/18/2025",
    "capacity": 0,
    "address": "515 S VICTORY BLVD",
    "city": "BURBANK",
    "zip": "91502",
    "county": "LOS ANGELES",
    "phone": "(310) 752-4878",
    "lat": 34.16953699,
    "lng": -118.312907
  },
  {
    "id": "630020403",
    "name": "VICTORY MANAGEMENT GROUP, INC",
    "npi": null,
    "hcaiId": "406193537",
    "businessName": "VICTORY MANAGEMENT GROUP, INC",
    "contactEmail": "VICTORYM719@GMAIL.COM",
    "categoryName": "HOSPICE",
    "categoryCode": "HOSPICE",
    "licenseStatus": "ACTIVE",
    "inService": true,
    "licenseNumber": "550006539",
    "licenseEffectiveDate": "07/09/2023",
    "licenseExpirationDate": "07/08/2025",
    "dataDate": "10/18/2025",
    "capacity": 0,
    "address": "717 S VICTORY BLVD, SUITE B",
    "city": "BURBANK",
    "zip": "91502",
    "county": "LOS ANGELES",
    "phone": "(818) 745-0269",
    "lat": 34.168293,
    "lng": -118.3103865
  },
  {
    "id": "630019606",
    "name": "VIGILANCE HOME HEALTH INC",
    "npi": null,
    "hcaiId": "406192528",
    "businessName": "VIGILANCE HOME HEALTH INC",
    "contactEmail": "VIGILANCEHOMEHEALTH@GMAIL.COM",
    "categoryName": "HOME HEALTH AGENCY",
    "categoryCode": "HHA",
    "licenseStatus": "ACTIVE",
    "inService": true,
    "licenseNumber": "550005463",
    "licenseEffectiveDate": "05/14/2025",
    "licenseExpirationDate": "05/13/2026",
    "dataDate": "10/18/2025",
    "capacity": 0,
    "address": "315 W VERDUGO AVE, SUITE A",
    "city": "BURBANK",
    "zip": "91502",
    "county": "LOS ANGELES",
    "phone": "(818) 855-9033",
    "lat": 34.171021,
    "lng": -118.314458
  },
  {
    "id": "630014724",
    "name": "VISITING ANGELS HOSPICE, INC.",
    "npi": "1699101816",
    "hcaiId": "406198478",
    "businessName": "VISITING ANGEL HOSPICE, INC.",
    "contactEmail": "INFO@VISITINGANGELSHOSPICE.COM",
    "categoryName": "HOSPICE",
    "categoryCode": "HOSPICE",
    "licenseStatus": "ACTIVE",
    "inService": true,
    "licenseNumber": "550002907",
    "licenseEffectiveDate": "11/26/2024",
    "licenseExpirationDate": "11/25/2026",
    "dataDate": "10/18/2025",
    "capacity": 0,
    "address": "539 N GLENOAKS BLVD, SUITE 307",
    "city": "BURBANK",
    "zip": "91502",
    "county": "LOS ANGELES",
    "phone": "(818) 846-6300",
    "lat": 34.186356,
    "lng": -118.310976
  },
  {
    "id": "630013561",
    "name": "VISITING NURSES HOSPICE, INC.",
    "npi": null,
    "hcaiId": "406197809",
    "businessName": "VISITING NURSES HOSPICE, INC.",
    "contactEmail": "VISITINGNURSESHOSPICE@YAHOO.COM",
    "categoryName": "HOSPICE",
    "categoryCode": "HOSPICE",
    "licenseStatus": "ACTIVE",
    "inService": true,
    "licenseNumber": "550002226",
    "licenseEffectiveDate": "02/27/2023",
    "licenseExpirationDate": "02/26/2025",
    "dataDate": "10/18/2025",
    "capacity": 0,
    "address": "539 N GLENOAKS BLVD, SUITE 203",
    "city": "BURBANK",
    "zip": "91502",
    "county": "LOS ANGELES",
    "phone": "(818) 485-2218",
    "lat": 34.186356,
    "lng": -118.310976
  },
  {
    "id": "630021664",
    "name": "VIVENDI HOSPICE CARE, INC",
    "npi": null,
    "hcaiId": "406195267",
    "businessName": "VIVENDI HOSPICE CARE, INC",
    "contactEmail": "VIVENDIHOSPICE@GMAIL.COM",
    "categoryName": "HOSPICE",
    "categoryCode": "HOSPICE",
    "licenseStatus": "ACTIVE",
    "inService": true,
    "licenseNumber": "550007455",
    "licenseEffectiveDate": "12/15/2023",
    "licenseExpirationDate": "12/14/2025",
    "dataDate": "10/18/2025",
    "capacity": 0,
    "address": "105 W ALAMEDA AVE, SUITE 205",
    "city": "BURBANK",
    "zip": "91502",
    "county": "LOS ANGELES",
    "phone": "(818) 550-6696",
    "lat": 34.17139143,
    "lng": -118.3031245
  },
  {
    "id": "630021672",
    "name": "WELL CARE HOSPICE & PALLIATIVE CARE, INC.",
    "npi": null,
    "hcaiId": "406196009",
    "businessName": "WELL CARE HOSPICE & PALLIATIVE CARE, INC.",
    "contactEmail": "WELLCAREHOSPICE13@GMAIL.COM",
    "categoryName": "HOSPICE",
    "categoryCode": "HOSPICE",
    "licenseStatus": "ACTIVE",
    "inService": true,
    "licenseNumber": "550007450",
    "licenseEffectiveDate": "08/25/2025",
    "licenseExpirationDate": "12/14/2025",
    "dataDate": "10/18/2025",
    "capacity": 0,
    "address": "300 NORTH 3RD STREET, SUITE 348",
    "city": "BURBANK",
    "zip": "91502",
    "county": "LOS ANGELES",
    "phone": "(818) 285-8803",
    "lat": 34.18387306,
    "lng": -118.3095865
  },
  {
    "id": "630019840",
    "name": "WELL- BEING HOME HEALTH SERVICES, INC.",
    "npi": "1023649530",
    "hcaiId": "406192846",
    "businessName": "WELL- BEING HOME HEALTH SERVICES, INC.",
    "contactEmail": "WELLBEINGHOMEHEALTHSERVICES@GMAIL.COM",
    "categoryName": "HOME HEALTH AGENCY",
    "categoryCode": "HHA",
    "licenseStatus": "ACTIVE",
    "inService": true,
    "licenseNumber": "550005678",
    "licenseEffectiveDate": "08/19/2025",
    "licenseExpirationDate": "08/18/2026",
    "dataDate": "10/18/2025",
    "capacity": 0,
    "address": "224 E OLIVE AVE, SUITE 218",
    "city": "BURBANK",
    "zip": "91502",
    "county": "LOS ANGELES",
    "phone": "(818) 748-3001",
    "lat": 34.18091102,
    "lng": -118.308232
  },
  {
    "id": "630023855",
    "name": "WELLNESS MIND HOME HEALTH CARE",
    "npi": null,
    "hcaiId": "406195364",
    "businessName": "WELLNESS MIND HOME HEALTH CARE",
    "contactEmail": "WELLNESSMINDHHC@GMAIL.COM",
    "categoryName": "HOME HEALTH AGENCY",
    "categoryCode": "HHA",
    "licenseStatus": "ACTIVE",
    "inService": true,
    "licenseNumber": "550007932",
    "licenseEffectiveDate": "03/31/2025",
    "licenseExpirationDate": "03/30/2026",
    "dataDate": "10/18/2025",
    "capacity": 0,
    "address": "209 E ALAMEDA AVE, SUITE 103",
    "city": "BURBANK",
    "zip": "91502",
    "county": "LOS ANGELES",
    "phone": "(818) 588-3004",
    "lat": 34.17516,
    "lng": -118.2995955
  },
  {
    "id": "630025834",
    "name": "YOUR BEST CARE INC",
    "npi": null,
    "hcaiId": "406198026",
    "businessName": "YOUR BEST CARE INC",
    "contactEmail": "YOURCAREINC@YAHOO.COM",
    "categoryName": "HOME HEALTH AGENCY",
    "categoryCode": "HHA",
    "licenseStatus": "ACTIVE",
    "inService": true,
    "licenseNumber": "550008810",
    "licenseEffectiveDate": "11/01/2025",
    "licenseExpirationDate": "10/31/2026",
    "dataDate": "10/18/2025",
    "capacity": 0,
    "address": "239 E ALAMEDA AVE, SUITE #103",
    "city": "BURBANK",
    "zip": "91502",
    "county": "LOS ANGELES",
    "phone": "(747) 688-0387",
    "lat": 34.175601,
    "lng": -118.299123
  },
  {
    "id": "630021175",
    "name": "ZIRRA HOSPICE CARE, INC",
    "npi": null,
    "hcaiId": "406190235",
    "businessName": "ZIRRA HOSPICE CARE, INC",
    "contactEmail": "ZIRRAHOSPICE@GMAIL.COM",
    "categoryName": "HOSPICE",
    "categoryCode": "HOSPICE",
    "licenseStatus": "ACTIVE",
    "inService": true,
    "licenseNumber": "550007259",
    "licenseEffectiveDate": "11/19/2023",
    "licenseExpirationDate": "11/18/2025",
    "dataDate": "10/18/2025",
    "capacity": 0,
    "address": "224 E OLIVE AVE, SUITE 208",
    "city": "BURBANK",
    "zip": "91502",
    "county": "LOS ANGELES",
    "phone": "(818) 925-1279",
    "lat": 34.1810753,
    "lng": -118.3084538
  },
  {
    "id": "630021264",
    "name": "ZOOM HOME HEALTH CARE, INC.",
    "npi": null,
    "hcaiId": "406190084",
    "businessName": "ZOOM HOME HEALTH CARE, INC.",
    "contactEmail": "ZOOMHHSERVICES@GMAIL.COM",
    "categoryName": "HOME HEALTH AGENCY",
    "categoryCode": "HHA",
    "licenseStatus": "ACTIVE",
    "inService": true,
    "licenseNumber": "550007767",
    "licenseEffectiveDate": "01/14/2025",
    "licenseExpirationDate": "01/13/2026",
    "dataDate": "10/18/2025",
    "capacity": 0,
    "address": "120 S VICTORY BLVD, SUITE 204",
    "city": "BURBANK",
    "zip": "91502",
    "county": "LOS ANGELES",
    "phone": "(818) 861-7178",
    "lat": 34.173279,
    "lng": -118.3150935
  }
]