[
  {
    "id": "630020230",
    "name": "2ND HOME HEALTH CARE",
    "npi": null,
    "hcaiId": "406195288",
    "businessName": "2ND HOME HEALTH CARE",
    "contactEmail": "2NDHOMEHEALTHCARE@GMAIL.COM",
    "categoryName": "HOME HEALTH AGENCY",
    "categoryCode": "HHA",
    "licenseStatus": "ACTIVE",
    "inService": true,
    "licenseNumber": "550006018",
    "licenseEffectiveDate": "02/04/2024",
    "licenseExpirationDate": "02/03/2025",
    "dataDate": "10/18/2025",
    "capacity": 0,
    "address": "12500 RIVERSIDE DR, UNIT 201D",
    "city": "VALLEY VILLAGE",
    "zip": "91607",
    "county": "LOS ANGELES",
    "phone": "(209) 500-0047",
    "lat": 34.157439,
    "lng": -118.4058765
  },
  {
    "id": "630017423",
    "name": "911 HOME HEALTH CARE INC",
    "npi": "1598206419",
    "hcaiId": "406191405",
    "businessName": "911 HOME HEALTH CARE INC",
    "contactEmail": "911HOMEHEALTHCARE@GMAIL.COM",
    "categoryName": "HOME HEALTH AGENCY",
    "categoryCode": "HHA",
    "licenseStatus": "ACTIVE",
    "inService": true,
    "licenseNumber": "550004504",
    "licenseEffectiveDate": "12/19/2024",
    "licenseExpirationDate": "12/18/2025",
    "dataDate": "10/18/2025",
    "capacity": 0,
    "address": "5301 LAUREL CANYON BLVD, SUITE 242",
    "city": "VALLEY VILLAGE",
    "zip": "91607",
    "county": "LOS ANGELES",
    "phone": "(818) 303-9590",
    "lat": 34.166961,
    "lng": -118.3967055
  },
  {
    "id": "630015811",
    "name": "A ONE HOSPICE, INC.",
    "npi": "1912302381",
    "hcaiId": "406190690",
    "businessName": "A ONE HOSPICE, INC.",
    "contactEmail": "AONEHC@YAHOO.COM",
    "categoryName": "HOSPICE",
    "categoryCode": "HOSPICE",
    "licenseStatus": "ACTIVE",
    "inService": true,
    "licenseNumber": "550004133",
    "licenseEffectiveDate": "01/19/2024",
    "licenseExpirationDate": "01/18/2026",
    "dataDate": "10/18/2025",
    "capacity": 0,
    "address": "5301 LAUREL CANYON BLVD, SUITE 223",
    "city": "VALLEY VILLAGE",
    "zip": "91607",
    "county": "LOS ANGELES",
    "phone": "(818) 351-7783",
    "lat": 34.166961,
    "lng": -118.3967055
  },
  {
    "id": "630017095",
    "name": "AARIEL HOSPICE",
    "npi": "1215488135",
    "hcaiId": "406191013",
    "businessName": "AARIEL HOSPICE",
    "contactEmail": "AARIELHOSPICE@GMAIL.COM",
    "categoryName": "HOSPICE",
    "categoryCode": "HOSPICE",
    "licenseStatus": "ACTIVE",
    "inService": true,
    "licenseNumber": "550004330",
    "licenseEffectiveDate": "07/30/2024",
    "licenseExpirationDate": "07/29/2026",
    "dataDate": "10/18/2025",
    "capacity": 0,
    "address": "5301 LAUREL CANYON BLVD, SUITE 201 A",
    "city": "VALLEY VILLAGE",
    "zip": "91607",
    "county": "LOS ANGELES",
    "phone": "(818) 824-9278",
    "lat": 34.166961,
    "lng": -118.3967055
  },
  {
    "id": "630026566",
    "name": "AGE WITH CARE HOME HEALTH, INC",
    "npi": null,
    "hcaiId": null,
    "businessName": "AGE WITH CARE HOME HEALTH, INC",
    "contactEmail": "AGEWITHCAREHOMEHEALTH@GMAIL.COM",
    "categoryName": "HOME HEALTH AGENCY",
    "categoryCode": "HHA",
    "licenseStatus": "ACTIVE",
    "inService": true,
    "licenseNumber": "550009131",
    "licenseEffectiveDate": "05/03/2025",
    "licenseExpirationDate": "05/02/2026",
    "dataDate": "10/18/2025",
    "capacity": 0,
    "address": "12501 CHANDLER BLVD, SUITE 101",
    "city": "VALLEY VILLAGE",
    "zip": "91607",
    "county": "LOS ANGELES",
    "phone": null,
    "lat": 34.168806,
    "lng": -118.405692
  },
  {
    "id": "630026576",
    "name": "ANA HOME HEALTH INC",
    "npi": null,
    "hcaiId": null,
    "businessName": "ANA HOME HEALTH INC",
    "contactEmail": "HOMEHEALTHANA@GMAIL.COM",
    "categoryName": "HOME HEALTH AGENCY",
    "categoryCode": "HHA",
    "licenseStatus": "ACTIVE",
    "inService": true,
    "licenseNumber": "550009184",
    "licenseEffectiveDate": "06/11/2025",
    "licenseExpirationDate": "06/10/2026",
    "dataDate": "10/18/2025",
    "capacity": 0,
    "address": "5315 LAUREL CANYON BLVD, SUITE 103",
    "city": "VALLEY VILLAGE",
    "zip": "91607",
    "county": "LOS ANGELES",
    "phone": "(747) 588-2596",
    "lat": 34.167222,
    "lng": -118.396701
  },
  {
    "id": "630020989",
    "name": "ARKA HOME HEALTH SERVICES",
    "npi": null,
    "hcaiId": "406193435",
    "businessName": "ARKA HOME HEALTH SERVICES",
    "contactEmail": "ARKAHHS@GMAIL.COM",
    "categoryName": "HOME HEALTH AGENCY",
    "categoryCode": "HHA",
    "licenseStatus": "ACTIVE",
    "inService": true,
    "licenseNumber": "550006941",
    "licenseEffectiveDate": "10/12/2025",
    "licenseExpirationDate": "10/11/2026",
    "dataDate": "10/18/2025",
    "capacity": 0,
    "address": "12501 CHANDLER BLVD, SUITE 207",
    "city": "VALLEY VILLAGE",
    "zip": "91607",
    "county": "LOS ANGELES",
    "phone": "(213) 222-7722",
    "lat": 34.16887301,
    "lng": -118.405606
  },
  {
    "id": "980002185",
    "name": "ARS HEALTH CARE, INC.",
    "npi": "1750306791",
    "hcaiId": "406196155",
    "businessName": "ARS HEALTH CARE, INC.",
    "contactEmail": "ARSHEALTHCAREINC@GMAIL.COM",
    "categoryName": "HOME HEALTH AGENCY",
    "categoryCode": "HHA",
    "licenseStatus": "ACTIVE",
    "inService": true,
    "licenseNumber": "980001310",
    "licenseEffectiveDate": "10/11/2025",
    "licenseExpirationDate": "10/10/2026",
    "dataDate": "10/18/2025",
    "capacity": 0,
    "address": "12500 RIVERSIDE DR, SUITE 205",
    "city": "VALLEY VILLAGE",
    "zip": "91607",
    "county": "LOS ANGELES",
    "phone": "(818) 927-4244",
    "lat": 34.15731801,
    "lng": -118.405659
  },
  {
    "id": "630024673",
    "name": "ASSISTING HANDS PALLIATIVE CARE, INC",
    "npi": null,
    "hcaiId": "406193305",
    "businessName": "ASSISTING HANDS PALLIATIVE CARE, INC",
    "contactEmail": "ASSISTINGHANDSPALLIATIVECARE@GMAIL.COM",
    "categoryName": "HOSPICE",
    "categoryCode": "HOSPICE",
    "licenseStatus": "ACTIVE",
    "inService": true,
    "licenseNumber": "550007117",
    "licenseEffectiveDate": "11/04/2023",
    "licenseExpirationDate": "11/03/2025",
    "dataDate": "10/18/2025",
    "capacity": 0,
    "address": "12500 RIVERSIDE DR, SUITE 209",
    "city": "VALLEY VILLAGE",
    "zip": "91607",
    "county": "LOS ANGELES",
    "phone": "(818) 821-3570",
    "lat": 34.157439,
    "lng": -118.4058765
  },
  {
    "id": "630020632",
    "name": "AUTHORIZED HOME HEALTH CARE, INC.",
    "npi": null,
    "hcaiId": "406193157",
    "businessName": "AUTHORIZED HOME HEALTH CARE, INC.",
    "contactEmail": "AUTHORIZEDHHC@YAHOO.COM",
    "categoryName": "HOME HEALTH AGENCY",
    "categoryCode": "HHA",
    "licenseStatus": "ACTIVE",
    "inService": true,
    "licenseNumber": "550006308",
    "licenseEffectiveDate": "05/26/2025",
    "licenseExpirationDate": "05/25/2026",
    "dataDate": "10/18/2025",
    "capacity": 0,
    "address": "12410 BURBANK BLVD, SUITE 200",
    "city": "VALLEY VILLAGE",
    "zip": "91607",
    "county": "LOS ANGELES",
    "phone": "(818) 821-3006",
    "lat": 34.171749,
    "lng": -118.403748
  },
  {
    "id": "630025853",
    "name": "AVIVA HEALTH SERVICES, INC.",
    "npi": null,
    "hcaiId": "406190257",
    "businessName": "AVIVA HEALTH SERVICES, INC.",
    "contactEmail": "AVIVAHEALTHSEVICES@GMAIL.COM",
    "categoryName": "HOME HEALTH AGENCY",
    "categoryCode": "HHA",
    "licenseStatus": "ACTIVE",
    "inService": true,
    "licenseNumber": "550008964",
    "licenseEffectiveDate": "02/22/2025",
    "licenseExpirationDate": "02/21/2026",
    "dataDate": "10/18/2025",
    "capacity": 0,
    "address": "12722 RIVERSIDE DR, SUITE 105A",
    "city": "VALLEY VILLAGE",
    "zip": "91607",
    "county": "LOS ANGELES",
    "phone": "(818) 658-9005",
    "lat": 34.157448,
    "lng": -118.4104755
  },
  {
    "id": "630018923",
    "name": "BEST HOME HEALTH IN CALIFORNIA, INC.",
    "npi": null,
    "hcaiId": "406192051",
    "businessName": "BEST HOME HEALTH IN CALIFORNIA, INC.",
    "contactEmail": "BESTCALHHA@YAHOO.COM",
    "categoryName": "HOME HEALTH AGENCY",
    "categoryCode": "HHA",
    "licenseStatus": "ACTIVE",
    "inService": true,
    "licenseNumber": "550005099",
    "licenseEffectiveDate": "11/13/2025",
    "licenseExpirationDate": "11/12/2026",
    "dataDate": "10/18/2025",
    "capacity": 0,
    "address": "12501 CHANDLER BLVD, SUITE 204",
    "city": "VALLEY VILLAGE",
    "zip": "91607",
    "county": "LOS ANGELES",
    "phone": "(818) 527-5165",
    "lat": 34.16887301,
    "lng": -118.405606
  },
  {
    "id": "630020302",
    "name": "BONA FIDE HOSPICE, INC.",
    "npi": null,
    "hcaiId": "406195989",
    "businessName": "BONA FIDE HOSPICE, INC",
    "contactEmail": "BONAFIDEHOSPICE@GMAIL.COM",
    "categoryName": "HOSPICE",
    "categoryCode": "HOSPICE",
    "licenseStatus": "ACTIVE",
    "inService": true,
    "licenseNumber": "550006003",
    "licenseEffectiveDate": "01/22/2025",
    "licenseExpirationDate": "01/21/2027",
    "dataDate": "10/18/2025",
    "capacity": 0,
    "address": "5315 LAUREL CANYON BLVD, SUITE 201",
    "city": "VALLEY VILLAGE",
    "zip": "91607",
    "county": "LOS ANGELES",
    "phone": "(747) 205-1585",
    "lat": 34.16714198,
    "lng": -118.396809
  },
  {
    "id": "630012751",
    "name": "CENTRAL CALIFORNIA HOME HEALTH, INC.",
    "npi": "1316264948",
    "hcaiId": "406197513",
    "businessName": "CENTRAL CALIFORNIA HOME HEALTH, INC.",
    "contactEmail": "CENTRALCAHHC@GMAIL.COM",
    "categoryName": "HOME HEALTH AGENCY",
    "categoryCode": "HHA",
    "licenseStatus": "ACTIVE",
    "inService": true,
    "licenseNumber": "550001557",
    "licenseEffectiveDate": "04/05/2025",
    "licenseExpirationDate": "04/04/2026",
    "dataDate": "10/18/2025",
    "capacity": 0,
    "address": "12722 RIVERSIDE DR, SUITE 201",
    "city": "VALLEY VILLAGE",
    "zip": "91607",
    "county": "LOS ANGELES",
    "phone": "(818) 703-6628",
    "lat": 34.157367,
    "lng": -118.4103
  },
  {
    "id": "630025317",
    "name": "CENTRUM HOME HEALTH, INC.",
    "npi": null,
    "hcaiId": "406196472",
    "businessName": "CENTRUM HOME HEALTH, INC.",
    "contactEmail": "CENTRUMHOMEHEALTH@GMAIL.COM",
    "categoryName": "HOME HEALTH AGENCY",
    "categoryCode": "HHA",
    "licenseStatus": "ACTIVE",
    "inService": true,
    "licenseNumber": "550008506",
    "licenseEffectiveDate": "06/02/2025",
    "licenseExpirationDate": "04/19/2026",
    "dataDate": "10/18/2025",
    "capacity": 0,
    "address": "12722 RIVERSIDE DR, SUITE 209",
    "city": "VALLEY VILLAGE",
    "zip": "91607",
    "county": "LOS ANGELES",
    "phone": "(747) 377-1949",
    "lat": 34.168806,
    "lng": -118.405692
  },
  {
    "id": "630020487",
    "name": "COMFORT NURSING CARE HOSPICE, INC.",
    "npi": null,
    "hcaiId": "406195951",
    "businessName": "COMFORT NURSING CARE HOSPICE, INC.",
    "contactEmail": "COMFORTNURSINGCARE@YAHOO.COM",
    "categoryName": "HOSPICE",
    "categoryCode": "HOSPICE",
    "licenseStatus": "ACTIVE",
    "inService": true,
    "licenseNumber": "550006196",
    "licenseEffectiveDate": "03/22/2025",
    "licenseExpirationDate": "03/21/2027",
    "dataDate": "10/18/2025",
    "capacity": 0,
    "address": "12500 RIVERSIDE DR, SUITE 204",
    "city": "VALLEY VILLAGE",
    "zip": "91607",
    "county": "LOS ANGELES",
    "phone": "(747) 262-5888",
    "lat": 34.15731801,
    "lng": -118.405659
  },
  {
    "id": "630026710",
    "name": "COMPETENT HOME CARE INC",
    "npi": null,
    "hcaiId": null,
    "businessName": "COMPETENT HOME CARE INC",
    "contactEmail": "COMPETENTHH@GMAIL.COM",
    "categoryName": "HOME HEALTH AGENCY",
    "categoryCode": "HHA",
    "licenseStatus": "ACTIVE",
    "inService": true,
    "licenseNumber": "550009670",
    "licenseEffectiveDate": "09/03/2025",
    "licenseExpirationDate": "03/02/2026",
    "dataDate": "10/18/2025",
    "capacity": 0,
    "address": "5315 LAUREL CANYON BLVD, SUITE 103A",
    "city": "VALLEY VILLAGE",
    "zip": "91607",
    "county": "LOS ANGELES",
    "phone": "(818) 646-7750",
    "lat": 34.167222,
    "lng": -118.396701
  },
  {
    "id": "980001122",
    "name": "CONTINUITY CARE HOME NURSES INC",
    "npi": null,
    "hcaiId": "406194507",
    "businessName": "CONTINUITY CARE HOME NURSES INC",
    "contactEmail": "MARYANNE@CCHOMENURSES.COM",
    "categoryName": "HOME HEALTH AGENCY",
    "categoryCode": "HHA",
    "licenseStatus": "ACTIVE",
    "inService": true,
    "licenseNumber": "980000636",
    "licenseEffectiveDate": "11/08/2025",
    "licenseExpirationDate": "11/07/2026",
    "dataDate": "10/18/2025",
    "capacity": 0,
    "address": "12722 RIVERSIDE DR, SUITE 108",
    "city": "NORTH HOLLYWOOD",
    "zip": "91607",
    "county": "LOS ANGELES",
    "phone": "(818) 753-5106",
    "lat": 34.1573408,
    "lng": -118.4103374
  },
  {
    "id": "630024759",
    "name": "DISTINCTIVE HOME HEALTH CARE INC",
    "npi": null,
    "hcaiId": null,
    "businessName": "DISTINCTIVE HOME HEALTH CARE INC",
    "contactEmail": "DISTINCTIVE2021@YAHOO.COM",
    "categoryName": "HOME HEALTH AGENCY",
    "categoryCode": "HHA",
    "licenseStatus": "ACTIVE",
    "inService": true,
    "licenseNumber": "550008849",
    "licenseEffectiveDate": "12/01/2024",
    "licenseExpirationDate": "11/30/2025",
    "dataDate": "10/18/2025",
    "capacity": 0,
    "address": "12501 CHANDLER BLVD, SUITE 104",
    "city": "VALLEY VILLAGE",
    "zip": "91607",
    "county": "LOS ANGELES",
    "phone": "(818) 210-0073",
    "lat": 34.168806,
    "lng": -118.405692
  },
  {
    "id": "630015549",
    "name": "EASE & COMFORT HOME HEALTH INC.",
    "npi": "1063814671",
    "hcaiId": "406198075",
    "businessName": "EASE & COMFORT HOME HEALTH, INC.",
    "contactEmail": "ECHH110@GMAIL.COM",
    "categoryName": "HOME HEALTH AGENCY",
    "categoryCode": "HHA",
    "licenseStatus": "ACTIVE",
    "inService": true,
    "licenseNumber": "550003095",
    "licenseEffectiveDate": "05/15/2025",
    "licenseExpirationDate": "05/14/2026",
    "dataDate": "10/18/2025",
    "capacity": 0,
    "address": "5301 LAUREL CANYON BLVD, SUITE 132",
    "city": "VALLEY VILLAGE",
    "zip": "91607",
    "county": "LOS ANGELES",
    "phone": "(818) 241-1200",
    "lat": 34.16691102,
    "lng": -118.396959
  },
  {
    "id": "630020627",
    "name": "ER HOSPICE CARE, INC",
    "npi": null,
    "hcaiId": "406196159",
    "businessName": "ER HOSPICE CARE, INC",
    "contactEmail": "INFO@ERHOSPICE.COM",
    "categoryName": "HOSPICE",
    "categoryCode": "HOSPICE",
    "licenseStatus": "ACTIVE",
    "inService": true,
    "licenseNumber": "550006367",
    "licenseEffectiveDate": "05/11/2025",
    "licenseExpirationDate": "05/10/2027",
    "dataDate": "10/18/2025",
    "capacity": 0,
    "address": "5301 LAUREL CANYON BLVD, SUITE 128",
    "city": "VALLEY VILLAGE",
    "zip": "91607",
    "county": "LOS ANGELES",
    "phone": "(747) 212-1266",
    "lat": 34.166961,
    "lng": -118.3967055
  },
  {
    "id": "630024663",
    "name": "EXCELLERATED HOME HEALTH, INC.",
    "npi": null,
    "hcaiId": "406198203",
    "businessName": "EXCELLERATED HOME HEALTH, INC.",
    "contactEmail": "EXCELLERATEDHOMEHEALTHINC@YAHOO.COM",
    "categoryName": "HOME HEALTH AGENCY",
    "categoryCode": "HHA",
    "licenseStatus": "ACTIVE",
    "inService": true,
    "licenseNumber": "550008792",
    "licenseEffectiveDate": "10/27/2025",
    "licenseExpirationDate": "10/26/2026",
    "dataDate": "10/18/2025",
    "capacity": 0,
    "address": "4741 LAUREL CANYON BLVD, UNIT 101",
    "city": "VALLEY VILLAGE",
    "zip": "91607",
    "county": "LOS ANGELES",
    "phone": "(626) 310-3000",
    "lat": 34.15689,
    "lng": -118.396683
  },
  {
    "id": "630023915",
    "name": "FINDING HOPE HOME HEALTH, INC.",
    "npi": null,
    "hcaiId": "406196553",
    "businessName": "FINDING HOPE HOME HEALTH, INC.",
    "contactEmail": "FINDINGHOPEHOMEHEALTH@GMAIL.COM",
    "categoryName": "HOME HEALTH AGENCY",
    "categoryCode": "HHA",
    "licenseStatus": "ACTIVE",
    "inService": true,
    "licenseNumber": "550008553",
    "licenseEffectiveDate": "11/12/2023",
    "licenseExpirationDate": "05/11/2024",
    "dataDate": "10/18/2025",
    "capacity": 0,
    "address": "5208 LAUREL CANYON BLVD, UNIT B",
    "city": "VALLEY VILLAGE",
    "zip": "91607",
    "county": "LOS ANGELES",
    "phone": "(559) 763-4588",
    "lat": 34.165197,
    "lng": -118.396296
  },
  {
    "id": "630025593",
    "name": "FORUM HEALTH SERVICES, INC",
    "npi": null,
    "hcaiId": "406190255",
    "businessName": "FORUM HEALTH SERVICES, INC.",
    "contactEmail": "FORUMHEALTHSERVICES@GMAIL.COM",
    "categoryName": "HOME HEALTH AGENCY",
    "categoryCode": "HHA",
    "licenseStatus": "ACTIVE",
    "inService": true,
    "licenseNumber": "550008746",
    "licenseEffectiveDate": "09/13/2025",
    "licenseExpirationDate": "09/12/2026",
    "dataDate": "10/18/2025",
    "capacity": 0,
    "address": "12722 RIVERSIDE DR, SUITE 207A",
    "city": "VALLEY VILLAGE",
    "zip": "91607",
    "county": "LOS ANGELES",
    "phone": "(818) 468-7864",
    "lat": 34.157448,
    "lng": -118.4104755
  },
  {
    "id": "920000004",
    "name": "FOUR SEASONS HEALTHCARE & WELLNESS CENTER, LP",
    "npi": "1932496767",
    "hcaiId": "206190161",
    "businessName": "FOUR SEASONS HEALTHCARE & WELLNESS CENTER, LP",
    "contactEmail": "ADMINISTRATOR@FSWELLNESS.COM",
    "categoryName": "SKILLED NURSING FACILITY",
    "categoryCode": "SNF",
    "licenseStatus": "ACTIVE",
    "inService": true,
    "licenseNumber": "920000018",
    "licenseEffectiveDate": "11/13/2024",
    "licenseExpirationDate": "11/12/2025",
    "dataDate": "10/18/2025",
    "capacity": 201,
    "address": "5335 LAUREL CANYON BLVD",
    "city": "NORTH HOLLYWOOD",
    "zip": "91607",
    "county": "LOS ANGELES",
    "phone": "(818) 985-1814",
    "lat": 34.167843,
    "lng": -118.396701
  },
  {
    "id": "630017755",
    "name": "GO FOR HELP HOSPICE, INC.",
    "npi": "1811407604",
    "hcaiId": "406192533",
    "businessName": "GO FOR HELP HOSPICE, INC.",
    "contactEmail": "GOFORHELP@YAHOO.COM",
    "categoryName": "HOSPICE",
    "categoryCode": "HOSPICE",
    "licenseStatus": "ACTIVE",
    "inService": true,
    "licenseNumber": "550005317",
    "licenseEffectiveDate": "02/12/2024",
    "licenseExpirationDate": "02/11/2026",
    "dataDate": "10/18/2025",
    "capacity": 0,
    "address": "5352 LAUREL CANYON BLVD, SUITE 201",
    "city": "VALLEY VILLAGE",
    "zip": "91607",
    "county": "LOS ANGELES",
    "phone": "(818) 756-2047",
    "lat": 34.168185,
    "lng": -118.3962915
  },
  {
    "id": "630026842",
    "name": "GOLDEN HANDS HOME HEALTH INC",
    "npi": null,
    "hcaiId": null,
    "businessName": "GOLDEN HANDS HOME HEALTH INC",
    "contactEmail": "GOLDENHANDSHHINC@GMAIL.COM",
    "categoryName": "HOME HEALTH AGENCY",
    "categoryCode": "HHA",
    "licenseStatus": "ACTIVE",
    "inService": true,
    "licenseNumber": "550009488",
    "licenseEffectiveDate": "05/07/2025",
    "licenseExpirationDate": "11/06/2025",
    "dataDate": "10/18/2025",
    "capacity": 0,
    "address": "5315 LAUREL CANYON BLVD, SUITE 105",
    "city": "VALLEY VILLAGE",
    "zip": "91607",
    "county": "LOS ANGELES",
    "phone": "(818) 669-1023",
    "lat": 34.167222,
    "lng": -118.396701
  },
  {
    "id": "630025761",
    "name": "H AND N HOME HEALTH CARE, INC.",
    "npi": null,
    "hcaiId": null,
    "businessName": "H AND N HOME HEALTH CARE, INC.",
    "contactEmail": "HANDNHOMEHEALTHCAREINC@GMAIL.COM",
    "categoryName": "HOME HEALTH AGENCY",
    "categoryCode": "HHA",
    "licenseStatus": "ACTIVE",
    "inService": true,
    "licenseNumber": "550008985",
    "licenseEffectiveDate": "03/04/2025",
    "licenseExpirationDate": "03/03/2026",
    "dataDate": "10/18/2025",
    "capacity": 0,
    "address": "5301 LAUREL CANYON BLVD, SUITE 108",
    "city": "VALLEY VILLAGE",
    "zip": "91607",
    "county": "LOS ANGELES",
    "phone": "(818) 691-3096",
    "lat": 34.166961,
    "lng": -118.3967055
  },
  {
    "id": "630017541",
    "name": "INFINITE CARE HOME HEALTH, INC.",
    "npi": "1285159483",
    "hcaiId": "406191649",
    "businessName": "INFINITE CARE HOME HEALTH, INC.",
    "contactEmail": "INFINITEHHS@GMAIL.COM",
    "categoryName": "HOME HEALTH AGENCY",
    "categoryCode": "HHA",
    "licenseStatus": "ACTIVE",
    "inService": true,
    "licenseNumber": "550004650",
    "licenseEffectiveDate": "04/25/2025",
    "licenseExpirationDate": "04/24/2026",
    "dataDate": "10/18/2025",
    "capacity": 0,
    "address": "5301 LAUREL CANYON BLVD, SUITE 112",
    "city": "VALLEY VILLAGE",
    "zip": "91607",
    "county": "LOS ANGELES",
    "phone": "(747) 205-2565",
    "lat": 34.166961,
    "lng": -118.3967055
  },
  {
    "id": "630025614",
    "name": "ISABELLA HOME HEALTH",
    "npi": null,
    "hcaiId": "406190302",
    "businessName": "ISABELLA HOME HEALTH",
    "contactEmail": "ISABELLAHOMEHEALTH@GMAIL.COM",
    "categoryName": "HOME HEALTH AGENCY",
    "categoryCode": "HHA",
    "licenseStatus": "ACTIVE",
    "inService": true,
    "licenseNumber": "550009023",
    "licenseEffectiveDate": "05/30/2024",
    "licenseExpirationDate": "11/29/2024",
    "dataDate": "10/18/2025",
    "capacity": 0,
    "address": "5301 LAUREL CANYON BLVD, SUITE 237",
    "city": "VALLEY VILLAGE",
    "zip": "91607",
    "county": "LOS ANGELES",
    "phone": "(818) 570-2882",
    "lat": 34.166961,
    "lng": -118.3967055
  },
  {
    "id": "630027861",
    "name": "LOVELY HEART HOME HEALTH, INC.",
    "npi": null,
    "hcaiId": null,
    "businessName": "LOVELY HEART HOME HEALTH, INC.",
    "contactEmail": "LOVELYHEARTHH@YAHOO.COM",
    "categoryName": "HOME HEALTH AGENCY",
    "categoryCode": "HHA",
    "licenseStatus": "ACTIVE",
    "inService": true,
    "licenseNumber": "550009804",
    "licenseEffectiveDate": "11/09/2025",
    "licenseExpirationDate": "05/08/2026",
    "dataDate": "10/18/2025",
    "capacity": 0,
    "address": "12722 RIVERSIDE DR, SUITE 105",
    "city": "VALLEY VILLAGE",
    "zip": "91607",
    "county": "LOS ANGELES",
    "phone": "(818) 434-8549",
    "lat": 34.15737401,
    "lng": -118.410316
  },
  {
    "id": "630026618",
    "name": "MAVIANA HOME HEALTH",
    "npi": null,
    "hcaiId": null,
    "businessName": null,
    "contactEmail": "MAVIANAHH@GMAIL.COM",
    "categoryName": "HOME HEALTH AGENCY",
    "categoryCode": "HHA",
    "licenseStatus": null,
    "inService": null,
    "licenseNumber": null,
    "licenseEffectiveDate": null,
    "licenseExpirationDate": null,
    "dataDate": "10/18/2025",
    "capacity": 0,
    "address": "5301 LAUREL CANYON BLVD, SUITE 237A",
    "city": "VALLEY VILLAGE",
    "zip": "91607",
    "county": "LOS ANGELES",
    "phone": "(818) 658-9966",
    "lat": 34.166961,
    "lng": -118.3967055
  },
  {
    "id": "630013537",
    "name": "MAXIMUM CARE HOSPICE, INC.",
    "npi": null,
    "hcaiId": "406197767",
    "businessName": "MAXIMUM CARE HOSPICE, INC.",
    "contactEmail": "MAXLABUTIN@GMAIL.COM",
    "categoryName": "HOSPICE",
    "categoryCode": "HOSPICE",
    "licenseStatus": "ACTIVE",
    "inService": true,
    "licenseNumber": "550002106",
    "licenseEffectiveDate": "11/05/2024",
    "licenseExpirationDate": "11/04/2026",
    "dataDate": "10/18/2025",
    "capacity": 0,
    "address": "5301 LAUREL CANYON BLVD, SUITE 230",
    "city": "VALLEY VILLAGE",
    "zip": "91607",
    "county": "LOS ANGELES",
    "phone": "(818) 232-8123",
    "lat": 34.166961,
    "lng": -118.3967055
  },
  {
    "id": "630011621",
    "name": "MED CARE, INC.",
    "npi": "1942496906",
    "hcaiId": "406197223",
    "businessName": "MED CARE, INC.",
    "contactEmail": "MEDCARELAINC@GMAIL.COM",
    "categoryName": "HOME HEALTH AGENCY",
    "categoryCode": "HHA",
    "licenseStatus": "ACTIVE",
    "inService": true,
    "licenseNumber": "550000958",
    "licenseEffectiveDate": "04/03/2025",
    "licenseExpirationDate": "04/02/2026",
    "dataDate": "10/18/2025",
    "capacity": 0,
    "address": "12722 RIVERSIDE DR, SUITE 101",
    "city": "VALLEY VILLAGE",
    "zip": "91607",
    "county": "LOS ANGELES",
    "phone": "(818) 336-9811",
    "lat": 34.157367,
    "lng": -118.4103
  },
  {
    "id": "980002230",
    "name": "METROPOLITAN HOME HEALTH",
    "npi": "1912989005",
    "hcaiId": "406196658",
    "businessName": "OBOE HEALTH SERVICES, INC.",
    "contactEmail": "NORA@METROPOLITANHH.COM",
    "categoryName": "HOME HEALTH AGENCY",
    "categoryCode": "HHA",
    "licenseStatus": "ACTIVE",
    "inService": true,
    "licenseNumber": "980001348",
    "licenseEffectiveDate": "12/22/2024",
    "licenseExpirationDate": "12/21/2025",
    "dataDate": "10/18/2025",
    "capacity": 0,
    "address": "12135 RIVERSIDE DRIVE",
    "city": "VALLEY VILLAGE",
    "zip": "91607",
    "county": "LOS ANGELES",
    "phone": "(818) 508-5801",
    "lat": 34.157781,
    "lng": -118.397763
  },
  {
    "id": "630027506",
    "name": "METROPOLITAN HOME HEALTH CARE, INC",
    "npi": null,
    "hcaiId": null,
    "businessName": "METROPOLITAN HOME HEALTH CARE, INC",
    "contactEmail": "METROPOLITANHOMECAREINC@YAHOO.COM",
    "categoryName": "HOME HEALTH AGENCY",
    "categoryCode": "HHA",
    "licenseStatus": "ACTIVE",
    "inService": true,
    "licenseNumber": "550009786",
    "licenseEffectiveDate": "09/24/2025",
    "licenseExpirationDate": "03/23/2026",
    "dataDate": "10/18/2025",
    "capacity": 0,
    "address": "12500 RIVERSIDE DR, SUITE 214",
    "city": "VALLEY VILLAGE",
    "zip": "91607",
    "county": "LOS ANGELES",
    "phone": "(747) 400-2081",
    "lat": 34.15731801,
    "lng": -118.405659
  },
  {
    "id": "630027807",
    "name": "NEW LIGHT HOME HEALTH, INC.",
    "npi": null,
    "hcaiId": null,
    "businessName": "NEW LIGHT HOME HEALTH, INC",
    "contactEmail": "NEWLIGHTHH@YAHOO.COM",
    "categoryName": "HOME HEALTH AGENCY",
    "categoryCode": "HHA",
    "licenseStatus": "ACTIVE",
    "inService": true,
    "licenseNumber": "550009824",
    "licenseEffectiveDate": "11/09/2025",
    "licenseExpirationDate": "05/08/2026",
    "dataDate": "10/18/2025",
    "capacity": 0,
    "address": "12722 RIVERSIDE DR, SUITE 207B",
    "city": "VALLEY VILLAGE",
    "zip": "91607",
    "county": "LOS ANGELES",
    "phone": "(818) 434-0456",
    "lat": 34.15737401,
    "lng": -118.410316
  },
  {
    "id": "630021945",
    "name": "NEW REACH HOSPICE CARE",
    "npi": null,
    "hcaiId": null,
    "businessName": "NEW REACH HOSPICE CARE",
    "contactEmail": "NEWREACHHOSPICE@YAHOO.COM",
    "categoryName": "HOSPICE",
    "categoryCode": "HOSPICE",
    "licenseStatus": "ACTIVE",
    "inService": true,
    "licenseNumber": "550007534",
    "licenseEffectiveDate": "01/16/2024",
    "licenseExpirationDate": "12/08/2025",
    "dataDate": "10/18/2025",
    "capacity": 0,
    "address": "12047 MAGNOLIA BLVD, SUITE C",
    "city": "NORTH HOLLYWOOD",
    "zip": "91607",
    "county": "LOS ANGELES",
    "phone": "(747) 210-9014",
    "lat": 34.16510401,
    "lng": -118.3961
  },
  {
    "id": "630022038",
    "name": "NOOR HOME HEALTH",
    "npi": null,
    "hcaiId": "406193820",
    "businessName": "NOOR HOME HEALTH",
    "contactEmail": "NOORHOMEHEALTH@GMAIL.COM",
    "categoryName": "HOME HEALTH AGENCY",
    "categoryCode": "HHA",
    "licenseStatus": "ACTIVE",
    "inService": true,
    "licenseNumber": "550007165",
    "licenseEffectiveDate": "10/18/2025",
    "licenseExpirationDate": "10/17/2026",
    "dataDate": "10/18/2025",
    "capacity": 0,
    "address": "12410 BURBANK BLVD, SUITE 103",
    "city": "VALLEY VILLAGE",
    "zip": "91607",
    "county": "LOS ANGELES",
    "phone": "(818) 434-8001",
    "lat": 34.171749,
    "lng": -118.403748
  },
  {
    "id": "630025599",
    "name": "OPAL HOME HEALTH, INC.",
    "npi": null,
    "hcaiId": null,
    "businessName": "OPAL HOME HEALTH, INC.",
    "contactEmail": "4OPALHOMEHEALTH@GMAIL.COM",
    "categoryName": "HOME HEALTH AGENCY",
    "categoryCode": "HHA",
    "licenseStatus": "ACTIVE",
    "inService": true,
    "licenseNumber": "550009746",
    "licenseEffectiveDate": "08/13/2025",
    "licenseExpirationDate": "02/12/2026",
    "dataDate": "10/18/2025",
    "capacity": 0,
    "address": "5301 LAUREL CANYON BLVD, SUITE 237B",
    "city": "VALLEY VILLAGE",
    "zip": "91607",
    "county": "LOS ANGELES",
    "phone": "(818) 614-3332",
    "lat": 34.166961,
    "lng": -118.3967055
  },
  {
    "id": "630021935",
    "name": "OUTBOUND HOSPICE CARE INC",
    "npi": null,
    "hcaiId": null,
    "businessName": "OUTBOUND HOSPICE CARE INC",
    "contactEmail": "OUTBOUNDHOSPICE@GMAIL.COM",
    "categoryName": "HOSPICE",
    "categoryCode": "HOSPICE",
    "licenseStatus": "ACTIVE",
    "inService": true,
    "licenseNumber": "550007516",
    "licenseEffectiveDate": "02/01/2024",
    "licenseExpirationDate": "12/08/2025",
    "dataDate": "10/18/2025",
    "capacity": 0,
    "address": "12047 MAGNOLIA BLVD, UNIT B",
    "city": "NORTH HOLLYWOOD",
    "zip": "91607",
    "county": "LOS ANGELES",
    "phone": "(747) 998-2720",
    "lat": 34.16510401,
    "lng": -118.3961
  },
  {
    "id": "630021859",
    "name": "OUTREACH HOSPICE CARE, INC.",
    "npi": null,
    "hcaiId": "406193985",
    "businessName": "OUTREACH HOSPICE CARE, INC.",
    "contactEmail": "OUTREACHHOSPICE@YAHOO.COM",
    "categoryName": "HOSPICE",
    "categoryCode": "HOSPICE",
    "licenseStatus": "ACTIVE",
    "inService": true,
    "licenseNumber": "550007413",
    "licenseEffectiveDate": "12/09/2023",
    "licenseExpirationDate": "12/08/2025",
    "dataDate": "10/18/2025",
    "capacity": 0,
    "address": "12047 MAGNOLIA BLVD, UNIT A",
    "city": "NORTH HOLLYWOOD",
    "zip": "91607",
    "county": "LOS ANGELES",
    "phone": "(818) 702-1899",
    "lat": 34.16510401,
    "lng": -118.3961
  },
  {
    "id": "630021007",
    "name": "PANAKEIA HOSPICE, INC.",
    "npi": null,
    "hcaiId": "406193490",
    "businessName": "PANAKEIA HOSPICE, INC.",
    "contactEmail": "PANAKEIAHOSPICE@GMAIL.COM",
    "categoryName": "HOSPICE",
    "categoryCode": "HOSPICE",
    "licenseStatus": "ACTIVE",
    "inService": true,
    "licenseNumber": "550006686",
    "licenseEffectiveDate": "08/16/2025",
    "licenseExpirationDate": "08/15/2027",
    "dataDate": "10/18/2025",
    "capacity": 0,
    "address": "5301 LAUREL CANYON BLVD, SUITE 101",
    "city": "VALLEY VILLAGE",
    "zip": "91607",
    "county": "LOS ANGELES",
    "phone": "(747) 272-9236",
    "lat": 34.166961,
    "lng": -118.3967055
  },
  {
    "id": "630026052",
    "name": "PEOPLE'S CHOICE HOME HEALTH CARE INC",
    "npi": null,
    "hcaiId": null,
    "businessName": "PEOPLE'S CHOICE HOME HEALTH CARE INC",
    "contactEmail": "PEOPLESCHOICEHHC@GMAIL.COM",
    "categoryName": "HOME HEALTH AGENCY",
    "categoryCode": "HHA",
    "licenseStatus": "ACTIVE",
    "inService": true,
    "licenseNumber": "550008976",
    "licenseEffectiveDate": "02/28/2025",
    "licenseExpirationDate": "02/27/2026",
    "dataDate": "10/18/2025",
    "capacity": 0,
    "address": "5301 LAUREL CANYON BLVD, SUITE 124",
    "city": "VALLEY VILLAGE",
    "zip": "91607",
    "county": "LOS ANGELES",
    "phone": "(747) 300-0825",
    "lat": 34.166961,
    "lng": -118.3967055
  },
  {
    "id": "630027301",
    "name": "PREMIER CARE HOME HEALTH, INC.",
    "npi": null,
    "hcaiId": null,
    "businessName": "PREMIER CARE HOME HEALTH, INC.",
    "contactEmail": "PCHHC777@GMAIL.COM",
    "categoryName": "HOME HEALTH AGENCY",
    "categoryCode": "HHA",
    "licenseStatus": "ACTIVE",
    "inService": true,
    "licenseNumber": "550009431",
    "licenseEffectiveDate": "10/04/2025",
    "licenseExpirationDate": "10/03/2026",
    "dataDate": "10/18/2025",
    "capacity": 0,
    "address": "12501 CHANDLER BLVD, SUITE 101-2",
    "city": "VALLEY VILLAGE",
    "zip": "91607",
    "county": "LOS ANGELES",
    "phone": "(818) 477-4446",
    "lat": 34.16887301,
    "lng": -118.405606
  },
  {
    "id": "630015898",
    "name": "PREMIUM CARE SERVICES, INC.",
    "npi": null,
    "hcaiId": "406198445",
    "businessName": "PREMIUM CARE SERVICES, INC.",
    "contactEmail": "PREMIUMCARESERVICE@GMAIL.COM",
    "categoryName": "HOME HEALTH AGENCY",
    "categoryCode": "HHA",
    "licenseStatus": "ACTIVE",
    "inService": true,
    "licenseNumber": "550003701",
    "licenseEffectiveDate": "10/18/2023",
    "licenseExpirationDate": "10/17/2024",
    "dataDate": "10/18/2025",
    "capacity": 0,
    "address": "5301 LAUREL CANYON BLVD., SUITE 201",
    "city": "VALLEY VILLAGE",
    "zip": "91607",
    "county": "LOS ANGELES",
    "phone": "(818) 358-4334",
    "lat": 34.166907,
    "lng": -118.396962
  },
  {
    "id": "630011388",
    "name": "PROFESSIONAL NURSING, INC.",
    "npi": "1659577971",
    "hcaiId": "406197214",
    "businessName": "PROFESSIONAL NURSING, INC.",
    "contactEmail": "PRONURSINGCA@GMAIL.COM",
    "categoryName": "HOME HEALTH AGENCY",
    "categoryCode": "HHA",
    "licenseStatus": "ACTIVE",
    "inService": true,
    "licenseNumber": "550000933",
    "licenseEffectiveDate": "03/14/2025",
    "licenseExpirationDate": "03/13/2026",
    "dataDate": "10/18/2025",
    "capacity": 0,
    "address": "12501 CHANDLER BLVD, SUITE 205",
    "city": "VALLEY VILLAGE",
    "zip": "91607",
    "county": "LOS ANGELES",
    "phone": "(818) 955-5848",
    "lat": 34.16886,
    "lng": -118.4055975
  },
  {
    "id": "630021946",
    "name": "PROSPECTIVE HOSPICE INC",
    "npi": null,
    "hcaiId": "406195176",
    "businessName": "PROSPECTIVE HOSPICE INC",
    "contactEmail": "PROSPECTIVEHOSPICE@YAHOO.COM",
    "categoryName": "HOSPICE",
    "categoryCode": "HOSPICE",
    "licenseStatus": "ACTIVE",
    "inService": true,
    "licenseNumber": "550007513",
    "licenseEffectiveDate": "12/14/2023",
    "licenseExpirationDate": "12/13/2025",
    "dataDate": "10/18/2025",
    "capacity": 0,
    "address": "12047 MAGNOLIA BLVD, UNIT D",
    "city": "NORTH HOLLYWOOD",
    "zip": "91607",
    "county": "LOS ANGELES",
    "phone": "(747) 224-2483",
    "lat": 34.16510401,
    "lng": -118.3961
  },
  {
    "id": "630025322",
    "name": "REGIONAL HEALTH SERVICES, INC.",
    "npi": null,
    "hcaiId": "406190250",
    "businessName": "REGIONAL HEALTH SERVICES, INC.",
    "contactEmail": "REGIONALHEALTHSERVICESINC@GMAIL.COM",
    "categoryName": "HOME HEALTH AGENCY",
    "categoryCode": "HHA",
    "licenseStatus": "ACTIVE",
    "inService": true,
    "licenseNumber": "550008521",
    "licenseEffectiveDate": "05/04/2025",
    "licenseExpirationDate": "05/03/2026",
    "dataDate": "10/18/2025",
    "capacity": 0,
    "address": "12501 CHANDLER BLVD, SUITE 206A",
    "city": "VALLEY VILLAGE",
    "zip": "91607",
    "county": "LOS ANGELES",
    "phone": "(818) 465-8077",
    "lat": 34.168806,
    "lng": -118.405692
  },
  {
    "id": "630022315",
    "name": "RELEASE HOSPICE, INC",
    "npi": null,
    "hcaiId": "406195192",
    "businessName": "RELEASE HOSPICE, INC",
    "contactEmail": "RELEASEHOSPICE@GMAIL.COM",
    "categoryName": "HOSPICE",
    "categoryCode": "HOSPICE",
    "licenseStatus": "ACTIVE",
    "inService": true,
    "licenseNumber": "550007551",
    "licenseEffectiveDate": "12/03/2023",
    "licenseExpirationDate": "12/02/2025",
    "dataDate": "10/18/2025",
    "capacity": 0,
    "address": "5352 LAUREL CANYON BLVD, SUITE 202",
    "city": "NORTH HOLLYWOOD",
    "zip": "91607",
    "county": "LOS ANGELES",
    "phone": "(213) 693-1030",
    "lat": 34.168185,
    "lng": -118.3962915
  },
  {
    "id": "630022345",
    "name": "RESCUE HOME HEALTH CARE, INC",
    "npi": null,
    "hcaiId": "406195786",
    "businessName": "RESCUE HOME HEALTH CARE INC",
    "contactEmail": "RESCUEHHC@GMAIL.COM",
    "categoryName": "HOME HEALTH AGENCY",
    "categoryCode": "HHA",
    "licenseStatus": "ACTIVE",
    "inService": true,
    "licenseNumber": "550007815",
    "licenseEffectiveDate": "02/01/2023",
    "licenseExpirationDate": "01/31/2024",
    "dataDate": "10/18/2025",
    "capacity": 0,
    "address": "5352 LAUREL CANYON BLVD, SUITE 202A",
    "city": "VALLEY VILLAGE",
    "zip": "91607",
    "county": "LOS ANGELES",
    "phone": "(213) 566-0036",
    "lat": 34.168185,
    "lng": -118.3962915
  },
  {
    "id": "630020233",
    "name": "SAINT MARYAM HOSPICE CARE",
    "npi": null,
    "hcaiId": "406190254",
    "businessName": "SAINT MARYAM HOSPICE CARE",
    "contactEmail": "SAINTMARYAMHOSPICECARE@GMAIL.COM",
    "categoryName": "HOSPICE",
    "categoryCode": "HOSPICE",
    "licenseStatus": "ACTIVE",
    "inService": true,
    "licenseNumber": "550006130",
    "licenseEffectiveDate": "03/16/2025",
    "licenseExpirationDate": "03/15/2027",
    "dataDate": "10/18/2025",
    "capacity": 0,
    "address": "12500 RIVERSIDE DR, UNIT 201E",
    "city": "VALLEY VILLAGE",
    "zip": "91607",
    "county": "LOS ANGELES",
    "phone": "(209) 500-0052",
    "lat": 34.157439,
    "lng": -118.4058765
  },
  {
    "id": "630021348",
    "name": "SHAID HOSPICE, INC.",
    "npi": null,
    "hcaiId": null,
    "businessName": "SHAID HOSPICE, INC.",
    "contactEmail": "SHAIDHOSPICE@YAHOO.COM",
    "categoryName": "HOSPICE",
    "categoryCode": "HOSPICE",
    "licenseStatus": "ACTIVE",
    "inService": true,
    "licenseNumber": "550007541",
    "licenseEffectiveDate": "12/08/2023",
    "licenseExpirationDate": "12/07/2025",
    "dataDate": "10/18/2025",
    "capacity": 0,
    "address": "12501 CHANDLER BLVD, SUITE 103",
    "city": "VALLEY VILLAGE",
    "zip": "91607",
    "county": "LOS ANGELES",
    "phone": "(818) 308-7772",
    "lat": 34.16886,
    "lng": -118.4055975
  },
  {
    "id": "920000008",
    "name": "SHERMAN VILLAGE HEALTHCARE CENTER",
    "npi": "1790854180",
    "hcaiId": "206190653",
    "businessName": "COLDWATER CARE CENTER LLC",
    "contactEmail": "FAC46ADMIN@LONGWOODMGMT.COM",
    "categoryName": "SKILLED NURSING FACILITY",
    "categoryCode": "SNF",
    "licenseStatus": "ACTIVE",
    "inService": true,
    "licenseNumber": "920000059",
    "licenseEffectiveDate": "04/16/2025",
    "licenseExpirationDate": "04/15/2026",
    "dataDate": "10/18/2025",
    "capacity": 108,
    "address": "12750 RIVERSIDE DR",
    "city": "VALLEY VILLAGE",
    "zip": "91607",
    "county": "LOS ANGELES",
    "phone": "(818) 766-6105",
    "lat": 34.157277,
    "lng": -118.411245
  },
  {
    "id": "630025161",
    "name": "SILENT HOME HEALTH INC.",
    "npi": null,
    "hcaiId": "406190221",
    "businessName": "SILENT HOME HEALTH INC.",
    "contactEmail": "INFO@ALTEAHHC.COM",
    "categoryName": "HOME HEALTH AGENCY",
    "categoryCode": "HHA",
    "licenseStatus": "ACTIVE",
    "inService": true,
    "licenseNumber": "550008274",
    "licenseEffectiveDate": "12/13/2024",
    "licenseExpirationDate": "12/12/2025",
    "dataDate": "10/18/2025",
    "capacity": 0,
    "address": "12520 MAGNOLIA BLVD, SUITE 212",
    "city": "VALLEY VILLAGE",
    "zip": "91607",
    "county": "LOS ANGELES",
    "phone": "(818) 748-6006",
    "lat": 34.164592,
    "lng": -118.406107
  },
  {
    "id": "630020837",
    "name": "SS HELP HOSPICE INC",
    "npi": null,
    "hcaiId": "406193762",
    "businessName": "SS HELP HOSPICE INC",
    "contactEmail": "SSHELPHOSPICE@GMAIL.COM",
    "categoryName": "HOSPICE",
    "categoryCode": "HOSPICE",
    "licenseStatus": "ACTIVE",
    "inService": true,
    "licenseNumber": "550006565",
    "licenseEffectiveDate": "04/28/2025",
    "licenseExpirationDate": "07/21/2025",
    "dataDate": "10/18/2025",
    "capacity": 0,
    "address": "5301 LAUREL CANYON BLVD, SUITE 228",
    "city": "VALLEY VILLAGE",
    "zip": "91607",
    "county": "LOS ANGELES",
    "phone": "(818) 279-2706",
    "lat": 34.16691299,
    "lng": -118.396964
  },
  {
    "id": "630019272",
    "name": "ST. MARKOSS HOSPICE INC",
    "npi": "1306494034",
    "hcaiId": "406192555",
    "businessName": "ST. MARKOSS HOSPICE INC.",
    "contactEmail": "STMARKOSSHOSPICE@GMAIL.COM",
    "categoryName": "HOSPICE",
    "categoryCode": "HOSPICE",
    "licenseStatus": "ACTIVE",
    "inService": true,
    "licenseNumber": "550005352",
    "licenseEffectiveDate": "01/29/2024",
    "licenseExpirationDate": "01/28/2026",
    "dataDate": "10/18/2025",
    "capacity": 0,
    "address": "5301 LAUREL CANYON BLVD, SUITE 226",
    "city": "VALLEY VILLAGE",
    "zip": "91607",
    "county": "LOS ANGELES",
    "phone": "(747) 755-2020",
    "lat": 34.143174,
    "lng": -118.250442
  },
  {
    "id": "930001635",
    "name": "STARPOINT SURGERY CENTER, STUDIO CITY",
    "npi": "1144390725",
    "hcaiId": "306196115",
    "businessName": "STARPOINT SURGERY CENTER - STUDIO CITY, LP",
    "contactEmail": "EFRIEDLANDER@STARPOINTHEALTH.COM",
    "categoryName": "SURGICAL CLINIC",
    "categoryCode": "ASC",
    "licenseStatus": "INACTIVE - CAPEN DECISION",
    "inService": false,
    "licenseNumber": "930000905",
    "licenseEffectiveDate": "03/04/2008",
    "licenseExpirationDate": "03/03/2009",
    "dataDate": "10/18/2025",
    "capacity": 0,
    "address": "12660 RIVERSIDE DR, SUITE 300",
    "city": "VALLEY VILLAGE",
    "zip": "91607",
    "county": "LOS ANGELES",
    "phone": "(818) 623-4455",
    "lat": 34.157241,
    "lng": -118.409508
  },
  {
    "id": "630022276",
    "name": "SYLVAN HEALTH SERVICES INC",
    "npi": null,
    "hcaiId": "406194726",
    "businessName": "SYLVAN HEALTH SERVICES INC",
    "contactEmail": "SYLVANHEALTHSERVICES@GMAIL.COM",
    "categoryName": "HOME HEALTH AGENCY",
    "categoryCode": "HHA",
    "licenseStatus": "ACTIVE",
    "inService": true,
    "licenseNumber": "550007718",
    "licenseEffectiveDate": "11/15/2024",
    "licenseExpirationDate": "11/14/2025",
    "dataDate": "10/18/2025",
    "capacity": 0,
    "address": "12722 RIVERSIDE DR, SUITE 209",
    "city": "VALLEY VILLAGE",
    "zip": "91607",
    "county": "LOS ANGELES",
    "phone": "(747) 254-2424",
    "lat": 34.157448,
    "lng": -118.4104755
  },
  {
    "id": "630017784",
    "name": "TOP CHOICE HOME HEALTH INC.",
    "npi": "1508373986",
    "hcaiId": "406191626",
    "businessName": "TOP CHOICE HOME HEALTH INC.",
    "contactEmail": "TOPCHOICEHM@YAHOO.COM",
    "categoryName": "HOME HEALTH AGENCY",
    "categoryCode": "HHA",
    "licenseStatus": "ACTIVE",
    "inService": true,
    "licenseNumber": "550004548",
    "licenseEffectiveDate": "02/07/2025",
    "licenseExpirationDate": "02/06/2026",
    "dataDate": "10/18/2025",
    "capacity": 0,
    "address": "5301 LAUREL CANYON BLVD, UNIT 244",
    "city": "VALLEY VILLAGE",
    "zip": "91607",
    "county": "LOS ANGELES",
    "phone": "(818) 210-0300",
    "lat": 34.166961,
    "lng": -118.3967055
  },
  {
    "id": "630021080",
    "name": "TOP QUALITY HOSPICE & PALLIATIVE CARE INC",
    "npi": null,
    "hcaiId": "406193542",
    "businessName": "TOP QUALITY HOSPICE & PALLIATIVE CARE INC",
    "contactEmail": "TOPQUALITYHOSPICE@GMAIL.COM",
    "categoryName": "HOSPICE",
    "categoryCode": "HOSPICE",
    "licenseStatus": "ACTIVE",
    "inService": true,
    "licenseNumber": "550006615",
    "licenseEffectiveDate": "06/29/2025",
    "licenseExpirationDate": "06/28/2027",
    "dataDate": "10/18/2025",
    "capacity": 0,
    "address": "5315 LAUREL CANYON BLVD, SUITE 106",
    "city": "VALLEY VILLAGE",
    "zip": "91607",
    "county": "LOS ANGELES",
    "phone": "(818) 747-9444",
    "lat": 34.16714198,
    "lng": -118.396809
  },
  {
    "id": "630021001",
    "name": "TRUE CHOICE HOSPICE, INC.",
    "npi": null,
    "hcaiId": "406193788",
    "businessName": "TRUE CHOICE HOSPICE, INC.",
    "contactEmail": "TRUECHOICEHOSPICE@GMAIL.COM",
    "categoryName": "HOSPICE",
    "categoryCode": "HOSPICE",
    "licenseStatus": "ACTIVE",
    "inService": true,
    "licenseNumber": "550006714",
    "licenseEffectiveDate": "08/16/2025",
    "licenseExpirationDate": "08/15/2027",
    "dataDate": "10/18/2025",
    "capacity": 0,
    "address": "5301 LAUREL CANYON BLVD, SUITE 100",
    "city": "VALLEY VILLAGE",
    "zip": "91607",
    "county": "LOS ANGELES",
    "phone": "(747) 272-9235",
    "lat": 34.166961,
    "lng": -118.3967055
  },
  {
    "id": "630027911",
    "name": "TRUE VISION HOME HEALTH, INC",
    "npi": null,
    "hcaiId": null,
    "businessName": "TRUE VISION HOME HEALTH, INC.",
    "contactEmail": "TRUEVISIONHHI@GMAIL.COM",
    "categoryName": "HOME HEALTH AGENCY",
    "categoryCode": "HHA",
    "licenseStatus": "ACTIVE",
    "inService": true,
    "licenseNumber": "550009846",
    "licenseEffectiveDate": "06/10/2025",
    "licenseExpirationDate": "12/09/2025",
    "dataDate": "10/18/2025",
    "capacity": 0,
    "address": "12501 CHANDLER BLVD, SUITE 207A",
    "city": "VALLEY VILLAGE",
    "zip": "91607",
    "county": "LOS ANGELES",
    "phone": "(747) 295-8773",
    "lat": 34.16887301,
    "lng": -118.405606
  },
  {
    "id": "630023809",
    "name": "TRUSTEDCARE HOME HEALTH OF IMPERIAL VALLEY",
    "npi": null,
    "hcaiId": "406195973",
    "businessName": "ARGO HOME HEALTH INC",
    "contactEmail": "INFO@TRUSTEDCAREIV.COM",
    "categoryName": "HOME HEALTH AGENCY",
    "categoryCode": "HHA",
    "licenseStatus": "ACTIVE",
    "inService": true,
    "licenseNumber": "550008320",
    "licenseEffectiveDate": "01/10/2025",
    "licenseExpirationDate": "01/09/2026",
    "dataDate": "10/18/2025",
    "capacity": 0,
    "address": "12501 CHANDLER BLVD, SUITE 200",
    "city": "VALLEY VILLAGE",
    "zip": "91607",
    "county": "LOS ANGELES",
    "phone": "(760) 510-2577",
    "lat": 34.168806,
    "lng": -118.405692
  },
  {
    "id": "630021932",
    "name": "TRUSTING HANDS HOSPICE CARE INC",
    "npi": null,
    "hcaiId": null,
    "businessName": "TRUSTING HANDS HOSPICE CARE INC",
    "contactEmail": "TRUSTINGHOSPICE@GMAIL.COM",
    "categoryName": "HOSPICE",
    "categoryCode": "HOSPICE",
    "licenseStatus": "ACTIVE",
    "inService": true,
    "licenseNumber": "550007514",
    "licenseEffectiveDate": "12/14/2023",
    "licenseExpirationDate": "12/13/2025",
    "dataDate": "10/18/2025",
    "capacity": 0,
    "address": "12047 MAGNOLIA BLVD, UNIT E",
    "city": "NORTH HOLLYWOOD",
    "zip": "91607",
    "county": "LOS ANGELES",
    "phone": "(818) 649-3126",
    "lat": 34.16510401,
    "lng": -118.3961
  },
  {
    "id": "630021141",
    "name": "TS COMPASSION HOSPICE & PALLIATIVE CARE INC",
    "npi": null,
    "hcaiId": "406193687",
    "businessName": "TS COMPASSION HOSPICE & PALLIATIVE CARE INC",
    "contactEmail": "TSCOMPASSION@GMAIL.COM",
    "categoryName": "HOSPICE",
    "categoryCode": "HOSPICE",
    "licenseStatus": "ACTIVE",
    "inService": true,
    "licenseNumber": "550006871",
    "licenseEffectiveDate": "09/13/2025",
    "licenseExpirationDate": "09/12/2027",
    "dataDate": "10/18/2025",
    "capacity": 0,
    "address": "5301 LAUREL CANYON BLVD, SUITE 211",
    "city": "VALLEY VILLAGE",
    "zip": "91607",
    "county": "LOS ANGELES",
    "phone": "(747) 326-9009",
    "lat": 34.16691299,
    "lng": -118.396964
  },
  {
    "id": "630025946",
    "name": "ULTRA HEALTH SERVICES, INC.",
    "npi": null,
    "hcaiId": null,
    "businessName": "ULTRA HEALTH SERVICES, INC.",
    "contactEmail": "ULTRAHEALTHSERVICESINC@GMAIL.COM",
    "categoryName": "HOME HEALTH AGENCY",
    "categoryCode": "HHA",
    "licenseStatus": "ACTIVE",
    "inService": true,
    "licenseNumber": "550008986",
    "licenseEffectiveDate": "03/04/2025",
    "licenseExpirationDate": "03/03/2026",
    "dataDate": "10/18/2025",
    "capacity": 0,
    "address": "12501 CHANDLER BLVD, SUITE 206",
    "city": "VALLEY VILLAGE",
    "zip": "91607",
    "county": "LOS ANGELES",
    "phone": "(818) 927-4094",
    "lat": 34.168806,
    "lng": -118.405692
  },
  {
    "id": "630022303",
    "name": "ULTRA STAR HOSPICE, INC.",
    "npi": null,
    "hcaiId": "406194776",
    "businessName": "ULTRA STAR HOSPICE, INC.",
    "contactEmail": "ULTRASTARHOSPICE@GMAIL.COM",
    "categoryName": "HOSPICE",
    "categoryCode": "HOSPICE",
    "licenseStatus": "ACTIVE",
    "inService": true,
    "licenseNumber": "550007668",
    "licenseEffectiveDate": "12/22/2023",
    "licenseExpirationDate": "12/21/2025",
    "dataDate": "10/18/2025",
    "capacity": 0,
    "address": "12501 CHANDLER BLVD, SUITE 105-A",
    "city": "VALLEY VILLAGE",
    "zip": "91607",
    "county": "LOS ANGELES",
    "phone": "(818) 646-7079",
    "lat": 34.168806,
    "lng": -118.405692
  },
  {
    "id": "630020903",
    "name": "USA VALLEY HOSPICE INC",
    "npi": null,
    "hcaiId": "406193574",
    "businessName": "USA VALLEY HOSPICE INC",
    "contactEmail": "USAVALLEYHOSPICE@GMAIL.COM",
    "categoryName": "HOSPICE",
    "categoryCode": "HOSPICE",
    "licenseStatus": "ACTIVE",
    "inService": true,
    "licenseNumber": "550006592",
    "licenseEffectiveDate": "07/15/2025",
    "licenseExpirationDate": "07/14/2027",
    "dataDate": "10/18/2025",
    "capacity": 0,
    "address": "12501 CHANDLER BLVD, SUITE 106",
    "city": "VALLEY VILLAGE",
    "zip": "91607",
    "county": "LOS ANGELES",
    "phone": "(818) 875-0707",
    "lat": 34.16886,
    "lng": -118.4055975
  },
  {
    "id": "630027170",
    "name": "VA TOUCH HOME CARE INC",
    "npi": null,
    "hcaiId": null,
    "businessName": "VA TOUCH HOME CARE INC",
    "contactEmail": "VAHOMEHEALTHCAREINC@GMAIL.COM",
    "categoryName": "HOME HEALTH AGENCY",
    "categoryCode": "HHA",
    "licenseStatus": "ACTIVE",
    "inService": true,
    "licenseNumber": "550009716",
    "licenseEffectiveDate": "09/07/2025",
    "licenseExpirationDate": "03/06/2026",
    "dataDate": "10/18/2025",
    "capacity": 0,
    "address": "5315 LAUREL CANYON BLVD, SUITE 107",
    "city": "VALLEY VILLAGE",
    "zip": "91607",
    "county": "LOS ANGELES",
    "phone": "(818) 355-8454",
    "lat": 34.16714198,
    "lng": -118.396809
  },
  {
    "id": "630016465",
    "name": "VALLEY VILLAGE HOME HEALTH, INC.",
    "npi": "1811361926",
    "hcaiId": "406190634",
    "businessName": "VALLEY VILLAGE HOME HEALTH, INC.",
    "contactEmail": "VALLEYVILLAGEHH@YAHOO.COM",
    "categoryName": "HOME HEALTH AGENCY",
    "categoryCode": "HHA",
    "licenseStatus": "ACTIVE",
    "inService": true,
    "licenseNumber": "550004138",
    "licenseEffectiveDate": "02/10/2025",
    "licenseExpirationDate": "02/09/2026",
    "dataDate": "10/18/2025",
    "capacity": 0,
    "address": "12722 RIVERSIDE DRIVE, SUITE 207",
    "city": "VALLEY VILLAGE",
    "zip": "91607",
    "county": "LOS ANGELES",
    "phone": "(818) 763-2063",
    "lat": 34.157367,
    "lng": -118.4103
  },
  {
    "id": "630025169",
    "name": "VITALIN HOME HEALTH CARE, INC.",
    "npi": null,
    "hcaiId": "406196330",
    "businessName": "VITALIN HOME HEALTH CARE, INC.",
    "contactEmail": "VITALINHHC@GMAIL.COM",
    "categoryName": "HOME HEALTH AGENCY",
    "categoryCode": "HHA",
    "licenseStatus": "ACTIVE",
    "inService": true,
    "licenseNumber": "550008441",
    "licenseEffectiveDate": "08/07/2025",
    "licenseExpirationDate": "02/21/2026",
    "dataDate": "10/18/2025",
    "capacity": 0,
    "address": "5301 LAUREL CANYON BLVD, SUITE 130",
    "city": "VALLEY VILLAGE",
    "zip": "91607",
    "county": "LOS ANGELES",
    "phone": "(818) 747-2414",
    "lat": 34.166961,
    "lng": -118.3967055
  },
  {
    "id": "630026711",
    "name": "VLS HOME HEALTH INC",
    "npi": null,
    "hcaiId": null,
    "businessName": "VLS HOME HEALTH INC",
    "contactEmail": "VLSHOMEHEALTH@GMAIL.COM",
    "categoryName": "HOME HEALTH AGENCY",
    "categoryCode": "HHA",
    "licenseStatus": "ACTIVE",
    "inService": true,
    "licenseNumber": "550009556",
    "licenseEffectiveDate": "12/13/2025",
    "licenseExpirationDate": "12/12/2026",
    "dataDate": "10/18/2025",
    "capacity": 0,
    "address": "5315 LAUREL CANYON BLVD, SUITE 103B",
    "city": "VALLEY VILLAGE",
    "zip": "91607",
    "county": "LOS ANGELES",
    "phone": "(747) 977-0658",
    "lat": 34.16714198,
    "lng": -118.396809
  },
  {
    "id": "630017891",
    "name": "WELL-BEING HOME HEALTH, INC.",
    "npi": null,
    "hcaiId": "406191400",
    "businessName": "WELL-BEING HOME HEALTH, INC.",
    "contactEmail": "WELLBEINGHHC@GMAIL.COM",
    "categoryName": "HOME HEALTH AGENCY",
    "categoryCode": "HHA",
    "licenseStatus": "ACTIVE",
    "inService": true,
    "licenseNumber": "550004480",
    "licenseEffectiveDate": "12/19/2023",
    "licenseExpirationDate": "12/18/2024",
    "dataDate": "10/18/2025",
    "capacity": 0,
    "address": "5315 LAUREL CANYON BLVD, SUITE 200",
    "city": "VALLEY VILLAGE",
    "zip": "91607",
    "county": "LOS ANGELES",
    "phone": "(818) 273-2626",
    "lat": 34.16715,
    "lng": -118.396782
  },
  {
    "id": "630025385",
    "name": "YANED HOME HEALTH SERVICES",
    "npi": null,
    "hcaiId": "406190105",
    "businessName": "YANED HOME HEALTH SERVICES",
    "contactEmail": "YANEDHHS@GMAIL.COM",
    "categoryName": "HOME HEALTH AGENCY",
    "categoryCode": "HHA",
    "licenseStatus": "ACTIVE",
    "inService": true,
    "licenseNumber": "550008858",
    "licenseEffectiveDate": "10/15/2025",
    "licenseExpirationDate": "08/31/2026",
    "dataDate": "10/18/2025",
    "capacity": 0,
    "address": "12501 CHANDLER BLVD, SUITE 203",
    "city": "VALLEY VILLAGE",
    "zip": "91607",
    "county": "LOS ANGELES",
    "phone": "(818) 213-6262",
    "lat": 34.168869,
    "lng": -118.4056065
  }
]