[
  {
    "id": "630022430",
    "name": "ASPET HOME HEALTH",
    "npi": null,
    "hcaiId": "406195400",
    "businessName": "ASPET HOME HEALTH",
    "contactEmail": "ASPETHOMEHEALTH@GMAIL.COM",
    "categoryName": "HOME HEALTH AGENCY",
    "categoryCode": "HHA",
    "licenseStatus": "ACTIVE",
    "inService": true,
    "licenseNumber": "550007863",
    "licenseEffectiveDate": "02/17/2025",
    "licenseExpirationDate": "02/16/2026",
    "dataDate": "10/18/2025",
    "capacity": 0,
    "address": "4605 LANKERSHIM BLVD, SUITE 601",
    "city": "NORTH HOLLYWOOD",
    "zip": "91602",
    "county": "LOS ANGELES",
    "phone": "(818) 824-3373",
    "lat": 34.154046,
    "lng": -118.3683195
  },
  {
    "id": "630021918",
    "name": "ATLANTICA MANAGEMENT, INC",
    "npi": null,
    "hcaiId": "406193306",
    "businessName": "ATLANTICA MANAGEMENT, INC",
    "contactEmail": "INFO.ATLANTICAMANAGEMENT@GMAIL.COM",
    "categoryName": "HOSPICE",
    "categoryCode": "HOSPICE",
    "licenseStatus": "ACTIVE",
    "inService": true,
    "licenseNumber": "550007180",
    "licenseEffectiveDate": "04/10/2025",
    "licenseExpirationDate": "11/10/2025",
    "dataDate": "10/18/2025",
    "capacity": 0,
    "address": "4605 LANKERSHIM BLVD, SUITE 311A",
    "city": "NORTH HOLLYWOOD",
    "zip": "91602",
    "county": "LOS ANGELES",
    "phone": "(800) 969-9161",
    "lat": 34.15378701,
    "lng": -118.368262
  },
  {
    "id": "630016521",
    "name": "AXIS HOME HEALTH CARE, INC.",
    "npi": "1972968493",
    "hcaiId": "406190686",
    "businessName": "AXIS HOME HEALTH CARE, INC.",
    "contactEmail": "AXISHOMEHEALTH@YAHOO.COM",
    "categoryName": "HOME HEALTH AGENCY",
    "categoryCode": "HHA",
    "licenseStatus": "ACTIVE",
    "inService": true,
    "licenseNumber": "550004131",
    "licenseEffectiveDate": "02/07/2025",
    "licenseExpirationDate": "02/06/2026",
    "dataDate": "10/18/2025",
    "capacity": 0,
    "address": "4444 LANKERSHIM BLVD, SUITE 203",
    "city": "TOLUCA LAKE",
    "zip": "91602",
    "county": "LOS ANGELES",
    "phone": "(818) 392-8060",
    "lat": 34.151697,
    "lng": -118.366425
  },
  {
    "id": "630019553",
    "name": "BLUE CROSS HOSPICE",
    "npi": "1902441371",
    "hcaiId": "406192658",
    "businessName": "BLUE CROSS HOSPICE",
    "contactEmail": "BLUECROSSHOSPICE@GMAIL.COM",
    "categoryName": "HOSPICE",
    "categoryCode": "HOSPICE",
    "licenseStatus": "ACTIVE",
    "inService": true,
    "licenseNumber": "550005425",
    "licenseEffectiveDate": "04/24/2024",
    "licenseExpirationDate": "04/23/2026",
    "dataDate": "10/18/2025",
    "capacity": 0,
    "address": "4605 LANKERSHIM BLVD, SUITE 305",
    "city": "NORTH HOLLYWOOD",
    "zip": "91602",
    "county": "LOS ANGELES",
    "phone": "(747) 666-1603",
    "lat": 34.154046,
    "lng": -118.3683195
  },
  {
    "id": "630026250",
    "name": "CAPITALHOME CARE INC",
    "npi": null,
    "hcaiId": null,
    "businessName": "CAPITALHOME CARE INC.",
    "contactEmail": "CAPITALHEALTHPROVIDERS@GMAIL.COM",
    "categoryName": "HOME HEALTH AGENCY",
    "categoryCode": "HHA",
    "licenseStatus": "ACTIVE",
    "inService": true,
    "licenseNumber": "550009421",
    "licenseEffectiveDate": "04/05/2025",
    "licenseExpirationDate": "10/04/2025",
    "dataDate": "10/18/2025",
    "capacity": 0,
    "address": "4789 VINELAND AVE, SUITE 204A",
    "city": "NORTH HOLLYWOOD",
    "zip": "91602",
    "county": "LOS ANGELES",
    "phone": "(818) 747-2880",
    "lat": 34.157259,
    "lng": -118.3708845
  },
  {
    "id": "630020947",
    "name": "CELESTIAL CARE HOSPICE",
    "npi": null,
    "hcaiId": "406197664",
    "businessName": "CELESTIAL CARE HOSPICE",
    "contactEmail": "CELESTIALCAREHOSPICE1@GMAIL.COM",
    "categoryName": "HOSPICE",
    "categoryCode": "HOSPICE",
    "licenseStatus": "ACTIVE",
    "inService": true,
    "licenseNumber": "550007258",
    "licenseEffectiveDate": "11/19/2023",
    "licenseExpirationDate": "11/18/2025",
    "dataDate": "10/18/2025",
    "capacity": 0,
    "address": "10720 RIVERSIDE DR, SUITE B",
    "city": "NORTH HOLLYWOOD",
    "zip": "91602",
    "county": "LOS ANGELES",
    "phone": "(747) 389-4525",
    "lat": 34.15199199,
    "lng": -118.36436
  },
  {
    "id": "630025941",
    "name": "CITIZENS HOME HEALTH, INC.",
    "npi": null,
    "hcaiId": null,
    "businessName": "CITIZENS HOME HEALTH, INC.",
    "contactEmail": "CITIZENSHH@GMAIL.COM",
    "categoryName": "HOME HEALTH AGENCY",
    "categoryCode": "HHA",
    "licenseStatus": "ACTIVE",
    "inService": true,
    "licenseNumber": "550009281",
    "licenseEffectiveDate": "07/26/2025",
    "licenseExpirationDate": "07/25/2026",
    "dataDate": "10/18/2025",
    "capacity": 0,
    "address": "4605 LANKERSHIM BLVD, SUITE 216",
    "city": "NORTH HOLLYWOOD",
    "zip": "91602",
    "county": "LOS ANGELES",
    "phone": "(818) 691-5100",
    "lat": 34.154046,
    "lng": -118.3683195
  },
  {
    "id": "630020790",
    "name": "DESTINY HOME HEALTH, INC",
    "npi": null,
    "hcaiId": "406195309",
    "businessName": "DESTINY HOME HEALTH, INC",
    "contactEmail": "DESTINYHH01@GMAIL.COM",
    "categoryName": "HOME HEALTH AGENCY",
    "categoryCode": "HHA",
    "licenseStatus": "ACTIVE",
    "inService": true,
    "licenseNumber": "550007099",
    "licenseEffectiveDate": "08/13/2025",
    "licenseExpirationDate": "08/12/2026",
    "dataDate": "10/18/2025",
    "capacity": 0,
    "address": "10201 RIVERSIDE DR, SUITE 200",
    "city": "WEST TOLUCA LAKE",
    "zip": "91602",
    "county": "LOS ANGELES",
    "phone": "(818) 856-0448",
    "lat": 34.152426,
    "lng": -118.353033
  },
  {
    "id": "630019813",
    "name": "DHS HOSPICE CARE",
    "npi": "1922648682",
    "hcaiId": "406192843",
    "businessName": "DHS HOSPICE CARE",
    "contactEmail": "DHSHOSPICECARE@GMAIL.COM",
    "categoryName": "HOSPICE",
    "categoryCode": "HOSPICE",
    "licenseStatus": "ACTIVE",
    "inService": true,
    "licenseNumber": "550005672",
    "licenseEffectiveDate": "07/29/2024",
    "licenseExpirationDate": "07/28/2026",
    "dataDate": "10/18/2025",
    "capacity": 0,
    "address": "4605 LANKERSHIM BLVD, SUITE 208",
    "city": "NORTH HOLLYWOOD",
    "zip": "91602",
    "county": "LOS ANGELES",
    "phone": "(818) 452-0085",
    "lat": 34.154046,
    "lng": -118.3683195
  },
  {
    "id": "630013976",
    "name": "EMBRACE HEALTHCARE",
    "npi": null,
    "hcaiId": "406198140",
    "businessName": "TOLUCA HOSPICE, INC.",
    "contactEmail": "EMBRACEHEALTH@YAHOO.COM",
    "categoryName": "HOSPICE",
    "categoryCode": "HOSPICE",
    "licenseStatus": "ACTIVE",
    "inService": true,
    "licenseNumber": "550002599",
    "licenseEffectiveDate": "01/15/2024",
    "licenseExpirationDate": "01/14/2026",
    "dataDate": "10/18/2025",
    "capacity": 0,
    "address": "4511 DENNY AVE",
    "city": "NORTH HOLLYWOOD",
    "zip": "91602",
    "county": "LOS ANGELES",
    "phone": "(818) 824-5655",
    "lat": 34.152696,
    "lng": -118.364931
  },
  {
    "id": "630014712",
    "name": "EMINENT HOSPICE CARE, INC.",
    "npi": "1992134696",
    "hcaiId": "406198442",
    "businessName": "EMINENT HOSPICE CARE, INC.",
    "contactEmail": "EMINENTHOSPICE@GMAIL.COM",
    "categoryName": "HOSPICE",
    "categoryCode": "HOSPICE",
    "licenseStatus": "ACTIVE",
    "inService": true,
    "licenseNumber": "550003086",
    "licenseEffectiveDate": "04/28/2025",
    "licenseExpirationDate": "04/27/2027",
    "dataDate": "10/18/2025",
    "capacity": 0,
    "address": "10999 RIVERSIDE DR, SUITE 306",
    "city": "NORTH HOLLYWOOD",
    "zip": "91602",
    "county": "LOS ANGELES",
    "phone": "(818) 824-3702",
    "lat": 34.152543,
    "lng": -118.3693455
  },
  {
    "id": "630026237",
    "name": "FIRST CHOICE HEALTH PROVIDERS INC",
    "npi": null,
    "hcaiId": null,
    "businessName": "FIRST CHOICE HEALTH PROVIDERS INC",
    "contactEmail": "FIRSTCHOICEHEALTHPROVIDERS@GMAIL.COM",
    "categoryName": "HOME HEALTH AGENCY",
    "categoryCode": "HHA",
    "licenseStatus": "ACTIVE",
    "inService": true,
    "licenseNumber": "550009422",
    "licenseEffectiveDate": "04/12/2025",
    "licenseExpirationDate": "10/11/2025",
    "dataDate": "10/18/2025",
    "capacity": 0,
    "address": "4789 VINELAND AVE, SUITE 204B",
    "city": "NORTH HOLLYWOOD",
    "zip": "91602",
    "county": "LOS ANGELES",
    "phone": "(818) 358-3829",
    "lat": 34.157259,
    "lng": -118.3708845
  },
  {
    "id": "630022397",
    "name": "FOUR LIFE HOSPICE CARE, INC.",
    "npi": null,
    "hcaiId": "406195169",
    "businessName": "FOUR LIFE HOSPICE CARE, INC.",
    "contactEmail": "FOURLIFEHOSPICECARE@GMAIL.COM",
    "categoryName": "HOSPICE",
    "categoryCode": "HOSPICE",
    "licenseStatus": "ACTIVE",
    "inService": true,
    "licenseNumber": "550007559",
    "licenseEffectiveDate": "12/17/2023",
    "licenseExpirationDate": "12/16/2025",
    "dataDate": "10/18/2025",
    "capacity": 0,
    "address": "10718 1/2 RIVERSIDE DR",
    "city": "NORTH HOLLYWOOD",
    "zip": "91602",
    "county": "LOS ANGELES",
    "phone": "(818) 509-4392",
    "lat": 34.15217456,
    "lng": -118.3641714
  },
  {
    "id": "630018843",
    "name": "GUARDIAN HOME HEALTH AGENCY INC",
    "npi": null,
    "hcaiId": "406192684",
    "businessName": "GUARDIAN HOME HEALTH AGENCY INC",
    "contactEmail": "GUARDIANHOMEHEALTHAGENCYINC@GMAIL.COM",
    "categoryName": "HOME HEALTH AGENCY",
    "categoryCode": "HHA",
    "licenseStatus": "ACTIVE",
    "inService": true,
    "licenseNumber": "550005535",
    "licenseEffectiveDate": "05/13/2025",
    "licenseExpirationDate": "05/12/2026",
    "dataDate": "10/18/2025",
    "capacity": 0,
    "address": "4605 LANKERSHIM BLVD, SUITE 716",
    "city": "NORTH HOLLYWOOD",
    "zip": "91602",
    "county": "LOS ANGELES",
    "phone": "(747) 202-1502",
    "lat": 34.15405268,
    "lng": -118.3683323
  },
  {
    "id": "630021097",
    "name": "H & A DEDICATED HOME HEALTH, INC.",
    "npi": null,
    "hcaiId": "406195297",
    "businessName": "H & A DEDICATED HOME HEALTH, INC.",
    "contactEmail": "HAHOMEHEALTHINC@GMAIL.COM",
    "categoryName": "HOME HEALTH AGENCY",
    "categoryCode": "HHA",
    "licenseStatus": "ACTIVE",
    "inService": true,
    "licenseNumber": "550006658",
    "licenseEffectiveDate": "08/12/2025",
    "licenseExpirationDate": "08/11/2026",
    "dataDate": "10/18/2025",
    "capacity": 0,
    "address": "10999 RIVERSIDE DR, SUITE 100",
    "city": "STUDIO CITY",
    "zip": "91602",
    "county": "LOS ANGELES",
    "phone": "(747) 224-0825",
    "lat": 34.15254699,
    "lng": -118.369363
  },
  {
    "id": "630017107",
    "name": "HAPPY LIFE ADULT DAY HEALTH CARE CENTER",
    "npi": null,
    "hcaiId": null,
    "businessName": "HAPPY LIFE ADHC, INC.",
    "contactEmail": "HAPPYLIFEADHC@GMAIL.COM",
    "categoryName": "ADULT DAY HEALTH CARE",
    "categoryCode": "ADHC",
    "licenseStatus": "ACTIVE",
    "inService": true,
    "licenseNumber": "550004026",
    "licenseEffectiveDate": "10/18/2025",
    "licenseExpirationDate": "10/17/2026",
    "dataDate": "10/18/2025",
    "capacity": 0,
    "address": "4227 LANKERSHIM BLVD",
    "city": "NORTH HOLLYWOOD",
    "zip": "91602",
    "county": "LOS ANGELES",
    "phone": "(747) 205-6101",
    "lat": 34.146585,
    "lng": -118.3637925
  },
  {
    "id": "630019258",
    "name": "HEART OF HOPE HOME HEALTHCARE, INC.",
    "npi": "1528615465",
    "hcaiId": "406192812",
    "businessName": "HEART OF HOPE HOME HEALTHCARE, INC.",
    "contactEmail": "INFO@HEARTOFHOPEHHC.COM",
    "categoryName": "HOME HEALTH AGENCY",
    "categoryCode": "HHA",
    "licenseStatus": "ACTIVE",
    "inService": true,
    "licenseNumber": "550005656",
    "licenseEffectiveDate": "02/14/2025",
    "licenseExpirationDate": "02/13/2026",
    "dataDate": "10/18/2025",
    "capacity": 0,
    "address": "10999 RIVERSIDE DR, SUITE 103",
    "city": "STUDIO CITY",
    "zip": "91602",
    "county": "LOS ANGELES",
    "phone": "(818) 650-0700",
    "lat": 34.152543,
    "lng": -118.3693455
  },
  {
    "id": "630022106",
    "name": "HEART OF HOPE HOSPICE CARE, INC.",
    "npi": null,
    "hcaiId": "406195754",
    "businessName": "HEART OF HOPE HOSPICE CARE, INC.",
    "contactEmail": "INFO@HOHHOSPICE.COM",
    "categoryName": "HOSPICE",
    "categoryCode": "HOSPICE",
    "licenseStatus": "ACTIVE",
    "inService": true,
    "licenseNumber": "550007741",
    "licenseEffectiveDate": "12/16/2023",
    "licenseExpirationDate": "12/15/2025",
    "dataDate": "10/18/2025",
    "capacity": 0,
    "address": "10999 RIVERSIDE DR, SUITE 105",
    "city": "NORTH HOLLYWOOD",
    "zip": "91602",
    "county": "LOS ANGELES",
    "phone": "(818) 697-0030",
    "lat": 34.152543,
    "lng": -118.3693455
  },
  {
    "id": "630021392",
    "name": "HEART TO HEART HOSPICE AND PALLIATIVE CARE, INC.",
    "npi": null,
    "hcaiId": "406194949",
    "businessName": "HEART TO HEART HOSPICE AND PALLIATIVE CARE, INC.",
    "contactEmail": "HEART2HEARTHOSPICEINC@OUTLOOK.COM",
    "categoryName": "HOSPICE",
    "categoryCode": "HOSPICE",
    "licenseStatus": "ACTIVE",
    "inService": true,
    "licenseNumber": "550007074",
    "licenseEffectiveDate": "10/28/2023",
    "licenseExpirationDate": "10/27/2025",
    "dataDate": "10/18/2025",
    "capacity": 0,
    "address": "11336 CAMARILLO ST, SUITE 306",
    "city": "NORTH HOLLYWOOD",
    "zip": "91602",
    "county": "LOS ANGELES",
    "phone": "(818) 821-3402",
    "lat": 34.157322,
    "lng": -118.377909
  },
  {
    "id": "630021727",
    "name": "HEARTS EASE HOSPICE INC.",
    "npi": null,
    "hcaiId": "406195718",
    "businessName": "HEARTS EASE HOSPICE INC",
    "contactEmail": "HEHOSPICE@GMAIL.COM",
    "categoryName": "HOSPICE",
    "categoryCode": "HOSPICE",
    "licenseStatus": "ACTIVE",
    "inService": true,
    "licenseNumber": "550007689",
    "licenseEffectiveDate": "12/16/2023",
    "licenseExpirationDate": "12/15/2025",
    "dataDate": "10/18/2025",
    "capacity": 0,
    "address": "4605 LANKERSHIM BLVD, SUITE 200",
    "city": "NORTH HOLLYWOOD",
    "zip": "91602",
    "county": "LOS ANGELES",
    "phone": "(818) 824-3160",
    "lat": 34.154046,
    "lng": -118.3683195
  },
  {
    "id": "630025875",
    "name": "HELPING HANDS HEALTHCARE SERVICES INC",
    "npi": null,
    "hcaiId": null,
    "businessName": "HELPING HANDS HEALTHCARE SERVICES INC",
    "contactEmail": "HELPINGHHA@GMAIL.COM",
    "categoryName": "HOME HEALTH AGENCY",
    "categoryCode": "HHA",
    "licenseStatus": "ACTIVE",
    "inService": true,
    "licenseNumber": "550009291",
    "licenseEffectiveDate": "08/07/2025",
    "licenseExpirationDate": "08/06/2026",
    "dataDate": "10/18/2025",
    "capacity": 0,
    "address": "10153 RIVERSIDE DR, UNIT 2",
    "city": "NORTH HOLLYWOOD",
    "zip": "91602",
    "county": "LOS ANGELES",
    "phone": "(818) 802-3191",
    "lat": 34.152372,
    "lng": -118.3524705
  },
  {
    "id": "980002423",
    "name": "HOLLYWOOD HOME HEALTH SERVICES",
    "npi": null,
    "hcaiId": "406196574",
    "businessName": "HOLLYWOOD HEALTH SYSTEM, INC.",
    "contactEmail": "INFO@HHACARE.COM",
    "categoryName": "HOME HEALTH AGENCY",
    "categoryCode": "HHA",
    "licenseStatus": "ACTIVE",
    "inService": true,
    "licenseNumber": "980001532",
    "licenseEffectiveDate": "05/18/2025",
    "licenseExpirationDate": "05/17/2026",
    "dataDate": "10/18/2025",
    "capacity": 0,
    "address": "4640 LANKERSHIM BLVD., SUITE 100",
    "city": "NORTH HOLLYWOOD",
    "zip": "91602",
    "county": "LOS ANGELES",
    "phone": "(323) 662-3731",
    "lat": 34.155027,
    "lng": -118.3682475
  },
  {
    "id": "630013192",
    "name": "HOLLYWOOD HOSPICE",
    "npi": null,
    "hcaiId": "406197694",
    "businessName": "EMMANUEL HOSPICE, INC.",
    "contactEmail": "HOSPICE@HHACARE.COM",
    "categoryName": "HOSPICE",
    "categoryCode": "HOSPICE",
    "licenseStatus": "ACTIVE",
    "inService": true,
    "licenseNumber": "550001914",
    "licenseEffectiveDate": "04/12/2025",
    "licenseExpirationDate": "04/11/2027",
    "dataDate": "10/18/2025",
    "capacity": 0,
    "address": "4640 LANKERSHIM BLVD, SUITE 110",
    "city": "NORTH HOLLYWOOD",
    "zip": "91602",
    "county": "LOS ANGELES",
    "phone": "(818) 763-2728",
    "lat": 34.15503298,
    "lng": -118.36799
  },
  {
    "id": "630020274",
    "name": "INTENSIVE HOSPICE CARE, INC.",
    "npi": null,
    "hcaiId": "406196625",
    "businessName": "INTENSIVE HOSPICE CARE, INC.",
    "contactEmail": "IHCINC2020@GMAIL.COM",
    "categoryName": "HOSPICE",
    "categoryCode": "HOSPICE",
    "licenseStatus": "ACTIVE",
    "inService": true,
    "licenseNumber": "550006373",
    "licenseEffectiveDate": "05/19/2025",
    "licenseExpirationDate": "05/18/2027",
    "dataDate": "10/18/2025",
    "capacity": 0,
    "address": "4605 LANKERSHIM BLVD, SUITE 106",
    "city": "NORTH HOLLYWOOD",
    "zip": "91602",
    "county": "LOS ANGELES",
    "phone": "(747) 282-1881",
    "lat": 34.154046,
    "lng": -118.3683195
  },
  {
    "id": "630020149",
    "name": "JOURNEY HOME HEALTH CARE, INC.",
    "npi": null,
    "hcaiId": "406192966",
    "businessName": "JOURNEY HOME HEALTH CARE, INC.",
    "contactEmail": "JOURNEYHOMEHEALTH@GMAIL.COM",
    "categoryName": "HOME HEALTH AGENCY",
    "categoryCode": "HHA",
    "licenseStatus": "ACTIVE",
    "inService": true,
    "licenseNumber": "550005825",
    "licenseEffectiveDate": "10/14/2025",
    "licenseExpirationDate": "10/13/2026",
    "dataDate": "10/18/2025",
    "capacity": 0,
    "address": "11336 CAMARILLO ST, SUITE 310",
    "city": "NORTH HOLLYWOOD",
    "zip": "91602",
    "county": "LOS ANGELES",
    "phone": "(818) 600-8725",
    "lat": 34.15731998,
    "lng": -118.37792
  },
  {
    "id": "630020950",
    "name": "KEEPERS OF HOPE",
    "npi": null,
    "hcaiId": "406193854",
    "businessName": "KEEPERS OF HOPE",
    "contactEmail": "GUARDIANSOFHOPEHOSPICE@GMAIL.COM",
    "categoryName": "HOSPICE",
    "categoryCode": "HOSPICE",
    "licenseStatus": "ACTIVE",
    "inService": true,
    "licenseNumber": "550007351",
    "licenseEffectiveDate": "11/27/2023",
    "licenseExpirationDate": "11/26/2025",
    "dataDate": "10/18/2025",
    "capacity": 0,
    "address": "4605 LANKERSHIM BLVD, SUITE 217",
    "city": "NORTH HOLLYWOOD",
    "zip": "91602",
    "county": "LOS ANGELES",
    "phone": "(747) 281-4117",
    "lat": 34.15378701,
    "lng": -118.368262
  },
  {
    "id": "630019283",
    "name": "LA HOSPICE CENTER, INC.",
    "npi": "1316595283",
    "hcaiId": "406192201",
    "businessName": "LA HOSPICE CENTER, INC.",
    "contactEmail": "LAHOSPICECENTER@GMAIL.COM",
    "categoryName": "HOSPICE",
    "categoryCode": "HOSPICE",
    "licenseStatus": "ACTIVE",
    "inService": true,
    "licenseNumber": "550005173",
    "licenseEffectiveDate": "12/12/2023",
    "licenseExpirationDate": "12/11/2025",
    "dataDate": "10/18/2025",
    "capacity": 0,
    "address": "10201 RIVERSIDE DR, SUITE 203",
    "city": "TOLUCA LAKE",
    "zip": "91602",
    "county": "LOS ANGELES",
    "phone": "(818) 696-5016",
    "lat": 34.152435,
    "lng": -118.352952
  },
  {
    "id": "630020181",
    "name": "LATOPCARE HOSPICE",
    "npi": "1720600430",
    "hcaiId": "406192936",
    "businessName": "LATOPCARE HOSPICE",
    "contactEmail": "LATOPCAREHOSPICE@YAHOO.COM",
    "categoryName": "HOSPICE",
    "categoryCode": "HOSPICE",
    "licenseStatus": "ACTIVE",
    "inService": true,
    "licenseNumber": "550005776",
    "licenseEffectiveDate": "12/29/2021",
    "licenseExpirationDate": "09/16/2022",
    "dataDate": "10/18/2025",
    "capacity": 0,
    "address": "10999 RIVERSIDE DR, SUITE 306B",
    "city": "NORTH HOLLYWOOD",
    "zip": "91602",
    "county": "LOS ANGELES",
    "phone": "(818) 821-3107",
    "lat": 34.152543,
    "lng": -118.3693455
  },
  {
    "id": "630020935",
    "name": "LEGACY HOME HEALTH SERVICE, INC",
    "npi": null,
    "hcaiId": "406193548",
    "businessName": "LEGACY HOME HEALTH SERVICE, INC.",
    "contactEmail": "LEGACYHOMEHEALTHSERVICE@GMAIL.COM",
    "categoryName": "HOME HEALTH AGENCY",
    "categoryCode": "HHA",
    "licenseStatus": "ACTIVE",
    "inService": true,
    "licenseNumber": "550006479",
    "licenseEffectiveDate": "07/06/2025",
    "licenseExpirationDate": "07/05/2026",
    "dataDate": "10/18/2025",
    "capacity": 0,
    "address": "10201 RIVERSIDE DR, UNIT 202",
    "city": "TOLUCA LAKE",
    "zip": "91602",
    "county": "LOS ANGELES",
    "phone": "(747) 900-9263",
    "lat": 34.152426,
    "lng": -118.353033
  },
  {
    "id": "630018308",
    "name": "MAGIC CARE HOME HEALTH, INC",
    "npi": "1043796253",
    "hcaiId": "406191976",
    "businessName": "MAGIC CARE HOME HEALTH, INC",
    "contactEmail": "MAGICCAREHH@GMAIL.COM",
    "categoryName": "HOME HEALTH AGENCY",
    "categoryCode": "HHA",
    "licenseStatus": "ACTIVE",
    "inService": true,
    "licenseNumber": "550005058",
    "licenseEffectiveDate": "10/31/2025",
    "licenseExpirationDate": "10/30/2026",
    "dataDate": "10/18/2025",
    "capacity": 0,
    "address": "10720 RIVERSIDE DR, SUITE A",
    "city": "NORTH HOLLYWOOD",
    "zip": "91602",
    "county": "LOS ANGELES",
    "phone": "(818) 650-2727",
    "lat": 34.15199199,
    "lng": -118.36436
  },
  {
    "id": "630025929",
    "name": "NOHO BEST HOME HEALTH",
    "npi": null,
    "hcaiId": null,
    "businessName": "NOHO BEST HOME HEALTH",
    "contactEmail": "NOHOBESTHOMEHEALTH@GMAIL.COM",
    "categoryName": "HOME HEALTH AGENCY",
    "categoryCode": "HHA",
    "licenseStatus": "ACTIVE",
    "inService": true,
    "licenseNumber": "550009056",
    "licenseEffectiveDate": "04/01/2025",
    "licenseExpirationDate": "03/31/2026",
    "dataDate": "10/18/2025",
    "capacity": 0,
    "address": "4605 LANKERSHIM BLVD, SUITE 617",
    "city": "NORTH HOLLYWOOD",
    "zip": "91602",
    "county": "LOS ANGELES",
    "phone": "(818) 824-3499",
    "lat": 34.154046,
    "lng": -118.3683195
  },
  {
    "id": "630022249",
    "name": "PACIFICA HOME HEALTH, INC.",
    "npi": null,
    "hcaiId": "406195326",
    "businessName": "PACIFICA HOME HEALTH, INC.",
    "contactEmail": "HOMEHEALTHPACIFICA@GMAIL.COM",
    "categoryName": "HOME HEALTH AGENCY",
    "categoryCode": "HHA",
    "licenseStatus": "ACTIVE",
    "inService": true,
    "licenseNumber": "550007748",
    "licenseEffectiveDate": "01/05/2023",
    "licenseExpirationDate": "01/04/2024",
    "dataDate": "10/18/2025",
    "capacity": 0,
    "address": "4605 LANKERSHIM BLVD, SUITE 609",
    "city": "NORTH HOLLYWOOD",
    "zip": "91602",
    "county": "LOS ANGELES",
    "phone": "(800) 340-2818",
    "lat": 34.154046,
    "lng": -118.3683195
  },
  {
    "id": "630019147",
    "name": "PROMINENT HOSPICE CARE GROUP INC",
    "npi": "1275187379",
    "hcaiId": "406191964",
    "businessName": "PROMINENT HOSPICE CARE GROUP INC",
    "contactEmail": "PROMINENTHOSPICE@GMAIL.COM",
    "categoryName": "HOSPICE",
    "categoryCode": "HOSPICE",
    "licenseStatus": "ACTIVE",
    "inService": true,
    "licenseNumber": "550005054",
    "licenseEffectiveDate": "11/07/2023",
    "licenseExpirationDate": "11/06/2025",
    "dataDate": "10/18/2025",
    "capacity": 0,
    "address": "4605 LANKERSHIM BLVD, SUITE 311A",
    "city": "NORTH HOLLYWOOD",
    "zip": "91602",
    "county": "LOS ANGELES",
    "phone": "(818) 293-3565",
    "lat": 34.154046,
    "lng": -118.3683195
  },
  {
    "id": "630021571",
    "name": "PROVIDER LINK HOSPICE AND PALLIATIVE CARE INC",
    "npi": null,
    "hcaiId": "406197745",
    "businessName": "PROVIDER LINK HOSPICE AND PALLIATIVE CARE INC",
    "contactEmail": "PROVIDERLINKHPC@YAHOO.COM",
    "categoryName": "HOSPICE",
    "categoryCode": "HOSPICE",
    "licenseStatus": "ACTIVE",
    "inService": true,
    "licenseNumber": "550007596",
    "licenseEffectiveDate": "12/20/2023",
    "licenseExpirationDate": "12/19/2025",
    "dataDate": "10/18/2025",
    "capacity": 0,
    "address": "10999 RIVERSIDE DR, SUITE 210",
    "city": "NORTH HOLLYWOOD",
    "zip": "91602",
    "county": "LOS ANGELES",
    "phone": "(818) 452-9529",
    "lat": 34.15254699,
    "lng": -118.369363
  },
  {
    "id": "630015172",
    "name": "PURE LIFE HOME HEALTH CARE, INC.",
    "npi": "1851703441",
    "hcaiId": "406198193",
    "businessName": "PURE LIFE HOME HEALTH CARE, INC.",
    "contactEmail": "PURELIFEHS@YAHOO.COM",
    "categoryName": "HOME HEALTH AGENCY",
    "categoryCode": "HHA",
    "licenseStatus": "ACTIVE",
    "inService": true,
    "licenseNumber": "550003361",
    "licenseEffectiveDate": "12/11/2024",
    "licenseExpirationDate": "12/10/2025",
    "dataDate": "10/18/2025",
    "capacity": 0,
    "address": "4605 LANKERSHIM BLVD, SUITE 102",
    "city": "NORTH HOLLYWOOD",
    "zip": "91602",
    "county": "LOS ANGELES",
    "phone": "(818) 762-2636",
    "lat": 34.154046,
    "lng": -118.3683195
  },
  {
    "id": "630021102",
    "name": "REST AT HOME HOSPICE, INC.",
    "npi": null,
    "hcaiId": "406193503",
    "businessName": "REST AT HOME HOSPICE, INC.",
    "contactEmail": "RESTATHOMEHOSPICE@GMAIL.COM",
    "categoryName": "HOSPICE",
    "categoryCode": "HOSPICE",
    "licenseStatus": "ACTIVE",
    "inService": true,
    "licenseNumber": "550006744",
    "licenseEffectiveDate": "08/25/2023",
    "licenseExpirationDate": "08/24/2025",
    "dataDate": "10/18/2025",
    "capacity": 0,
    "address": "11336 CAMARILLO ST, SUITE 307",
    "city": "NORTH HOLLYWOOD",
    "zip": "91602",
    "county": "LOS ANGELES",
    "phone": "(818) 570-7109",
    "lat": 34.157484,
    "lng": -118.377846
  },
  {
    "id": "630018319",
    "name": "REVIVIFY HOME HEALTH CARE, INC.",
    "npi": null,
    "hcaiId": "406192449",
    "businessName": "REVIVIFY HOME HEALTH CARE, INC.",
    "contactEmail": "REVIVIFYHHC@YAHOO.COM",
    "categoryName": "HOME HEALTH AGENCY",
    "categoryCode": "HHA",
    "licenseStatus": "ACTIVE",
    "inService": true,
    "licenseNumber": "550005394",
    "licenseEffectiveDate": "01/24/2025",
    "licenseExpirationDate": "01/23/2026",
    "dataDate": "10/18/2025",
    "capacity": 0,
    "address": "10201 RIVERSIDE DR, SUITE 206",
    "city": "TOLUCA LAKE",
    "zip": "91602",
    "county": "LOS ANGELES",
    "phone": "(818) 967-5090",
    "lat": 34.152435,
    "lng": -118.352952
  },
  {
    "id": "630016550",
    "name": "ROYAL CROWN HOME HEALTH CARE, INC.",
    "npi": "1760856975",
    "hcaiId": "406190513",
    "businessName": "ROYAL CROWN HOME HEALTH CARE, INC.",
    "contactEmail": "INFO@ROYALCROWNCARE.COM",
    "categoryName": "HOME HEALTH AGENCY",
    "categoryCode": "HHA",
    "licenseStatus": "ACTIVE",
    "inService": true,
    "licenseNumber": "550004144",
    "licenseEffectiveDate": "12/13/2024",
    "licenseExpirationDate": "12/12/2025",
    "dataDate": "10/18/2025",
    "capacity": 0,
    "address": "10999 RIVERSIDE DR, SUITE 104",
    "city": "STUDIO CITY",
    "zip": "91602",
    "county": "LOS ANGELES",
    "phone": "(818) 742-6585",
    "lat": 34.152543,
    "lng": -118.3693455
  },
  {
    "id": "630026325",
    "name": "STAR SPANGLED HOME HEALTH INC",
    "npi": null,
    "hcaiId": null,
    "businessName": "STAR SPANGLED HOME HEALTH INC",
    "contactEmail": "STARSPANGLEDHOMEHEALTH@OUTLOOK.COM",
    "categoryName": "HOME HEALTH AGENCY",
    "categoryCode": "HHA",
    "licenseStatus": "ACTIVE",
    "inService": true,
    "licenseNumber": "550009141",
    "licenseEffectiveDate": "05/10/2025",
    "licenseExpirationDate": "05/09/2026",
    "dataDate": "10/18/2025",
    "capacity": 0,
    "address": "4605 LANKERSHIM BLVD, SUITE 209",
    "city": "NORTH HOLLYWOOD",
    "zip": "91602",
    "county": "LOS ANGELES",
    "phone": "(747) 282-1960",
    "lat": 34.154046,
    "lng": -118.3683195
  },
  {
    "id": "630024333",
    "name": "STARS AND STRIPES HOME HEALTH",
    "npi": null,
    "hcaiId": "406195854",
    "businessName": "STARS AND STRIPES HOME HEALTH",
    "contactEmail": "STARSANDSTRIPESHEALTH@GMAIL.COM",
    "categoryName": "HOME HEALTH AGENCY",
    "categoryCode": "HHA",
    "licenseStatus": "ACTIVE",
    "inService": true,
    "licenseNumber": "550008009",
    "licenseEffectiveDate": "05/12/2025",
    "licenseExpirationDate": "05/11/2026",
    "dataDate": "10/18/2025",
    "capacity": 0,
    "address": "4605 LANKERSHIM BLVD, SUITE 209A",
    "city": "NORTH HOLLYWOOD",
    "zip": "91602",
    "county": "LOS ANGELES",
    "phone": "(747) 282-0856",
    "lat": 34.154046,
    "lng": -118.3683195
  },
  {
    "id": "630020027",
    "name": "TLC HOSPICE CARE, INC.",
    "npi": null,
    "hcaiId": "406192860",
    "businessName": "TLC HOSPICE CARE, INC.",
    "contactEmail": "TLCHOSPICECAREINC@GMAIL.COM",
    "categoryName": "HOSPICE",
    "categoryCode": "HOSPICE",
    "licenseStatus": "ACTIVE",
    "inService": true,
    "licenseNumber": "550005682",
    "licenseEffectiveDate": "08/14/2024",
    "licenseExpirationDate": "08/13/2026",
    "dataDate": "10/18/2025",
    "capacity": 0,
    "address": "4605 LANKERSHIM BLVD, SUITE 305A",
    "city": "NORTH HOLLYWOOD",
    "zip": "91602",
    "county": "LOS ANGELES",
    "phone": "(818) 736-9622",
    "lat": 34.154046,
    "lng": -118.3683195
  },
  {
    "id": "630025871",
    "name": "TOLUCA LAKE HOME HEALTH INC",
    "npi": null,
    "hcaiId": null,
    "businessName": "TOLUCA LAKE HOME HEALTH INC",
    "contactEmail": null,
    "categoryName": "HOME HEALTH AGENCY",
    "categoryCode": "HHA",
    "licenseStatus": "ACTIVE",
    "inService": true,
    "licenseNumber": "550009289",
    "licenseEffectiveDate": "08/06/2025",
    "licenseExpirationDate": "08/05/2026",
    "dataDate": "10/18/2025",
    "capacity": 0,
    "address": "10153 RIVERSIDE DR, UNIT 3",
    "city": "NORTH HOLLYWOOD",
    "zip": "91602",
    "county": "LOS ANGELES",
    "phone": "(818) 824-6375",
    "lat": 34.152372,
    "lng": -118.3524705
  },
  {
    "id": "630019322",
    "name": "TOP TIER HOME HEALTH CARE, INC.",
    "npi": null,
    "hcaiId": "406192942",
    "businessName": "TOP TIER HOME HEALTH CARE, INC.",
    "contactEmail": "TOPTIERHOMEHEALTH@GMAIL.COM",
    "categoryName": "HOME HEALTH AGENCY",
    "categoryCode": "HHA",
    "licenseStatus": "ACTIVE",
    "inService": true,
    "licenseNumber": "550005800",
    "licenseEffectiveDate": "10/21/2024",
    "licenseExpirationDate": "10/20/2025",
    "dataDate": "10/18/2025",
    "capacity": 0,
    "address": "4605 LANKERSHIM BLVD, SUITE 220",
    "city": "NORTH HOLLYWOOD",
    "zip": "91602",
    "county": "LOS ANGELES",
    "phone": "(818) 746-0400",
    "lat": 34.154046,
    "lng": -118.3683195
  },
  {
    "id": "630020130",
    "name": "TRUST CARE HOSPICE, INC.",
    "npi": null,
    "hcaiId": "406196575",
    "businessName": "TRUST CARE HOSPICE, INC.",
    "contactEmail": "TRUSTCAREHOSPICE@YAHOO.COM",
    "categoryName": "HOSPICE",
    "categoryCode": "HOSPICE",
    "licenseStatus": "ACTIVE",
    "inService": true,
    "licenseNumber": "550006414",
    "licenseEffectiveDate": "04/30/2025",
    "licenseExpirationDate": "04/29/2027",
    "dataDate": "10/18/2025",
    "capacity": 0,
    "address": "4605 LANKERSHIM BLVD, SUITE 218",
    "city": "NORTH HOLLYWOOD",
    "zip": "91602",
    "county": "LOS ANGELES",
    "phone": "(818) 740-8135",
    "lat": 34.15378701,
    "lng": -118.368262
  },
  {
    "id": "630017868",
    "name": "TRUSTBRIDGE HOSPICE CARE LLC",
    "npi": null,
    "hcaiId": "406192078",
    "businessName": "TRUSTBRIDGE HOSPICE CARE LLC",
    "contactEmail": "TRUSTBRIDGEHOSPICE@YAHOO.COM",
    "categoryName": "HOSPICE",
    "categoryCode": "HOSPICE",
    "licenseStatus": "ACTIVE",
    "inService": true,
    "licenseNumber": "550005111",
    "licenseEffectiveDate": "04/08/2025",
    "licenseExpirationDate": "11/20/2025",
    "dataDate": "10/18/2025",
    "capacity": 0,
    "address": "10999 RIVERSIDE DR, SUITE 102",
    "city": "NORTH HOLLYWOOD",
    "zip": "91602",
    "county": "LOS ANGELES",
    "phone": "(818) 639-0933",
    "lat": 34.15254699,
    "lng": -118.369363
  },
  {
    "id": "630022231",
    "name": "UCLA DEPT OF MEDICINE",
    "npi": null,
    "hcaiId": null,
    "businessName": null,
    "contactEmail": "ARIANNACASTRO@MEDNET.UCLA.EDU",
    "categoryName": "SURGICAL CLINIC",
    "categoryCode": "ASC",
    "licenseStatus": null,
    "inService": null,
    "licenseNumber": null,
    "licenseEffectiveDate": null,
    "licenseExpirationDate": null,
    "dataDate": "10/18/2025",
    "capacity": 0,
    "address": "4343 LANKERSHIM BLVD, SUITE 210",
    "city": "NORTH HOLLYWOOD",
    "zip": "91602",
    "county": "LOS ANGELES",
    "phone": "(818) 843-9038",
    "lat": 34.149096,
    "lng": -118.3653045
  }
]