[
  {
    "id": "630018419",
    "name": "A & F CARING HOME HEALTH, INC",
    "npi": "1477022085",
    "hcaiId": "406191668",
    "businessName": "A & F CARING HOME HEALTH, INC",
    "contactEmail": "DONARAHAROUTUNIAN@YAHOO.COM",
    "categoryName": "HOME HEALTH AGENCY",
    "categoryCode": "HHA",
    "licenseStatus": "ACTIVE",
    "inService": true,
    "licenseNumber": "550004683",
    "licenseEffectiveDate": "04/16/2025",
    "licenseExpirationDate": "04/15/2026",
    "dataDate": "10/18/2025",
    "capacity": 0,
    "address": "10523 BURBANK BLVD, SUITE 207",
    "city": "NORTH HOLLYWOOD",
    "zip": "91601",
    "county": "LOS ANGELES",
    "phone": "(818) 824-3886",
    "lat": 34.172334,
    "lng": -118.360188
  },
  {
    "id": "630018074",
    "name": "A&M MIRACLE HOME HEALTH CARE, INC.",
    "npi": "1194187609",
    "hcaiId": "406191689",
    "businessName": "A&M MIRACLE HOME HEALTH CARE, INC.",
    "contactEmail": "AMMIRACLEHHC@GMAIL.COM",
    "categoryName": "HOME HEALTH AGENCY",
    "categoryCode": "HHA",
    "licenseStatus": "ACTIVE",
    "inService": true,
    "licenseNumber": "550004725",
    "licenseEffectiveDate": "06/05/2025",
    "licenseExpirationDate": "06/04/2026",
    "dataDate": "10/18/2025",
    "capacity": 0,
    "address": "10523 BURBANK BLVD, SUITE 203",
    "city": "NORTH HOLLYWOOD",
    "zip": "91601",
    "county": "LOS ANGELES",
    "phone": "(818) 922-2302",
    "lat": 34.172334,
    "lng": -118.360188
  },
  {
    "id": "630019953",
    "name": "ALL FOR HEALTH, HEALTH FOR ALL, INC.",
    "npi": null,
    "hcaiId": "306190595",
    "businessName": "ALL FOR HEALTH, HEALTH FOR ALL, INC.",
    "contactEmail": "HISRAELIAN@ALL4HEALTH.ORG",
    "categoryName": "PRIMARY CARE CLINIC",
    "categoryCode": "COMTYC",
    "licenseStatus": "ACTIVE",
    "inService": true,
    "licenseNumber": "550005838",
    "licenseEffectiveDate": "11/12/2025",
    "licenseExpirationDate": "11/11/2026",
    "dataDate": "10/18/2025",
    "capacity": 0,
    "address": "5160 VINELAND AVE, UNIT 109",
    "city": "NORTH HOLLYWOOD",
    "zip": "91601",
    "county": "LOS ANGELES",
    "phone": "(818) 409-3020",
    "lat": 34.164117,
    "lng": -118.369566
  },
  {
    "id": "630020198",
    "name": "ALTUS HOSPICE, INC.",
    "npi": null,
    "hcaiId": "406195414",
    "businessName": "ALTUS HOSPICE, INC",
    "contactEmail": "ALTUSHOSPICEINC@GMAIL.COM",
    "categoryName": "HOSPICE",
    "categoryCode": "HOSPICE",
    "licenseStatus": "ACTIVE",
    "inService": true,
    "licenseNumber": "550005880",
    "licenseEffectiveDate": "11/25/2022",
    "licenseExpirationDate": "11/24/2024",
    "dataDate": "10/18/2025",
    "capacity": 0,
    "address": "11490 BURBANK BLVD, SUITE 3D",
    "city": "NORTH HOLLYWOOD",
    "zip": "91601",
    "county": "LOS ANGELES",
    "phone": "(818) 813-8171",
    "lat": 34.171884,
    "lng": -118.381986
  },
  {
    "id": "630020904",
    "name": "ALUNA CARE INC",
    "npi": null,
    "hcaiId": "406193333",
    "businessName": "ALUNA CARE, INC.",
    "contactEmail": "ALUNACARE@GMAIL.COM",
    "categoryName": "HOSPICE",
    "categoryCode": "HOSPICE",
    "licenseStatus": "ACTIVE",
    "inService": true,
    "licenseNumber": "550006979",
    "licenseEffectiveDate": "06/18/2023",
    "licenseExpirationDate": "06/17/2025",
    "dataDate": "10/18/2025",
    "capacity": 0,
    "address": "10545 BURBANK BLVD, SUITE 109",
    "city": "NORTH HOLLYWOOD",
    "zip": "91601",
    "county": "LOS ANGELES",
    "phone": "(818) 356-2816",
    "lat": 34.172298,
    "lng": -118.360845
  },
  {
    "id": "630019756",
    "name": "ANGEL STORM HOSPICE CARE, INC.",
    "npi": null,
    "hcaiId": "406192841",
    "businessName": "ANGEL STORM HOSPICE CARE, INC.",
    "contactEmail": "ANGELSTORMHC@GMAIL.COM",
    "categoryName": "HOSPICE",
    "categoryCode": "HOSPICE",
    "licenseStatus": "ACTIVE",
    "inService": true,
    "licenseNumber": "550005635",
    "licenseEffectiveDate": "07/21/2024",
    "licenseExpirationDate": "07/20/2026",
    "dataDate": "10/18/2025",
    "capacity": 0,
    "address": "5761 WHITNALL HWY, SUITE E",
    "city": "NORTH HOLLYWOOD",
    "zip": "91601",
    "county": "LOS ANGELES",
    "phone": "(747) 264-4400",
    "lat": 34.175655,
    "lng": -118.362033
  },
  {
    "id": "630024807",
    "name": "ANGEL WINGS HOME HEALTH INC",
    "npi": null,
    "hcaiId": "406190216",
    "businessName": "ANGEL WINGS HOME HEALTH INC.",
    "contactEmail": "ANGELWINGSHOMEHEALTHINC@YAHOO.COM",
    "categoryName": "HOME HEALTH AGENCY",
    "categoryCode": "HHA",
    "licenseStatus": "ACTIVE",
    "inService": true,
    "licenseNumber": "550008253",
    "licenseEffectiveDate": "11/30/2025",
    "licenseExpirationDate": "11/29/2026",
    "dataDate": "10/18/2025",
    "capacity": 0,
    "address": "5958 VINELAND AVE, SUITE G",
    "city": "NORTH HOLLYWOOD",
    "zip": "91601",
    "county": "LOS ANGELES",
    "phone": "(323) 268-3101",
    "lat": 34.179201,
    "lng": -118.370106
  },
  {
    "id": "630018232",
    "name": "ARBA HOME HEALTHCARE, INC",
    "npi": "1932687670",
    "hcaiId": "406191708",
    "businessName": "ARBA HOME HEALTHCARE, INC",
    "contactEmail": "ARBAHHC@GMAIL.COM",
    "categoryName": "HOME HEALTH AGENCY",
    "categoryCode": "HHA",
    "licenseStatus": "ACTIVE",
    "inService": true,
    "licenseNumber": "550004745",
    "licenseEffectiveDate": "05/21/2025",
    "licenseExpirationDate": "05/20/2026",
    "dataDate": "10/18/2025",
    "capacity": 0,
    "address": "5958 VINELAND AVE, SUITE H",
    "city": "NORTH HOLLYWOOD",
    "zip": "91601",
    "county": "LOS ANGELES",
    "phone": "(818) 821-3296",
    "lat": 34.179201,
    "lng": -118.370106
  },
  {
    "id": "630027077",
    "name": "ARRANGE HOME HEALTH CARE, INC",
    "npi": null,
    "hcaiId": null,
    "businessName": "ARRANGE HOME HEALTH CARE, INC",
    "contactEmail": "ARRANGEHOMEHEALTHCAREINC@GMAIL.COM",
    "categoryName": "HOME HEALTH AGENCY",
    "categoryCode": "HHA",
    "licenseStatus": "ACTIVE",
    "inService": true,
    "licenseNumber": "550009064",
    "licenseEffectiveDate": "04/04/2025",
    "licenseExpirationDate": "04/03/2026",
    "dataDate": "10/18/2025",
    "capacity": 0,
    "address": "10545 BURBANK BLVD, SUITE 100B",
    "city": "NORTH HOLLYWOOD",
    "zip": "91601",
    "county": "LOS ANGELES",
    "phone": "(747) 837-2040",
    "lat": 34.17242602,
    "lng": -118.360833
  },
  {
    "id": "980002218",
    "name": "ATTENTIVE SERVICES HOME HEALTH, INC.",
    "npi": "1245238500",
    "hcaiId": "406197067",
    "businessName": "ATTENTIVE SERVICES HOME HEALTH,INC.",
    "contactEmail": "ATTENTIVESERVICESHH@YAHOO.COM",
    "categoryName": "HOME HEALTH AGENCY",
    "categoryCode": "HHA",
    "licenseStatus": "ACTIVE",
    "inService": true,
    "licenseNumber": "980001338",
    "licenseEffectiveDate": "06/04/2025",
    "licenseExpirationDate": "06/03/2026",
    "dataDate": "10/18/2025",
    "capacity": 0,
    "address": "11240 MAGNOLIA BLVD, SUITE 103",
    "city": "NORTH HOLLYWOOD",
    "zip": "91601",
    "county": "LOS ANGELES",
    "phone": "(818) 853-7210",
    "lat": 34.164702,
    "lng": -118.375956
  },
  {
    "id": "630021541",
    "name": "BEATUS HOSPICE CARE,INC.",
    "npi": null,
    "hcaiId": "406194832",
    "businessName": "BEATUS HOSPICE CARE,INC.",
    "contactEmail": "BEATUSHOSPICE@GMAIL.COM",
    "categoryName": "HOSPICE",
    "categoryCode": "HOSPICE",
    "licenseStatus": "ACTIVE",
    "inService": true,
    "licenseNumber": "550006814",
    "licenseEffectiveDate": "09/21/2025",
    "licenseExpirationDate": "09/20/2027",
    "dataDate": "10/18/2025",
    "capacity": 0,
    "address": "11490 BURBANK BLVD, SUITE 2A",
    "city": "NORTH HOLLYWOOD",
    "zip": "91601",
    "county": "LOS ANGELES",
    "phone": "(818) 561-5031",
    "lat": 34.171992,
    "lng": -118.381959
  },
  {
    "id": "630018136",
    "name": "BEST SKILLED HOME HEALTH, INC.",
    "npi": null,
    "hcaiId": "406195518",
    "businessName": "BEST SKILLED HOME HEALTH, INC.",
    "contactEmail": "BESTSKILLEDHOME@GMAIL.COM",
    "categoryName": "HOME HEALTH AGENCY",
    "categoryCode": "HHA",
    "licenseStatus": "ACTIVE",
    "inService": true,
    "licenseNumber": "550005971",
    "licenseEffectiveDate": "01/11/2025",
    "licenseExpirationDate": "01/10/2026",
    "dataDate": "10/18/2025",
    "capacity": 0,
    "address": "10523 BURBANK BLVD, SUITE 222",
    "city": "NORTH HOLLYWOOD",
    "zip": "91601",
    "county": "LOS ANGELES",
    "phone": "(818) 691-3061",
    "lat": 34.172334,
    "lng": -118.360188
  },
  {
    "id": "630016748",
    "name": "BLOOMING HOME HEALTH CARE, INC.",
    "npi": "1891142147",
    "hcaiId": "406191332",
    "businessName": "BLOOMING HOME HEALTH CARE, INC.",
    "contactEmail": "BLOOMINGHOMEHEALTH@GMAIL.COM",
    "categoryName": "HOME HEALTH AGENCY",
    "categoryCode": "HHA",
    "licenseStatus": "ACTIVE",
    "inService": true,
    "licenseNumber": "550004313",
    "licenseEffectiveDate": "06/27/2025",
    "licenseExpirationDate": "06/26/2026",
    "dataDate": "10/18/2025",
    "capacity": 0,
    "address": "10545 BURBANK BLVD., UNIT 107",
    "city": "NORTH HOLLYWOOD",
    "zip": "91601",
    "county": "LOS ANGELES",
    "phone": "(747) 205-2597",
    "lat": 34.172298,
    "lng": -118.360845
  },
  {
    "id": "630020606",
    "name": "BURBANK BLVD HOSPICE, INC",
    "npi": null,
    "hcaiId": "406195177",
    "businessName": "BURBANK BLVD HOSPICE, INC",
    "contactEmail": "BURBANKBLVDHOSPICE@YAHOO.COM",
    "categoryName": "HOSPICE",
    "categoryCode": "HOSPICE",
    "licenseStatus": "ACTIVE",
    "inService": true,
    "licenseNumber": "550007518",
    "licenseEffectiveDate": "12/15/2023",
    "licenseExpirationDate": "12/14/2025",
    "dataDate": "10/18/2025",
    "capacity": 0,
    "address": "10523 BURBANK BLVD, SUITE 224",
    "city": "NORTH HOLLYWOOD",
    "zip": "91601",
    "county": "LOS ANGELES",
    "phone": "(747) 266-1331",
    "lat": 34.172334,
    "lng": -118.360188
  },
  {
    "id": "630027064",
    "name": "CARE FIRST HOME HEALTH SERVICES, INC.",
    "npi": null,
    "hcaiId": null,
    "businessName": "CARE FIRST HOME HEALTH SERVICES, INC.",
    "contactEmail": "CARE1HHS@GMAIL.COM",
    "categoryName": "HOME HEALTH AGENCY",
    "categoryCode": "HHA",
    "licenseStatus": "ACTIVE",
    "inService": true,
    "licenseNumber": "550009108",
    "licenseEffectiveDate": "02/09/2025",
    "licenseExpirationDate": "02/08/2026",
    "dataDate": "10/18/2025",
    "capacity": 0,
    "address": "5032 LANKERSHIM BLVD, SUITE 6",
    "city": "NORTH HOLLYWOOD",
    "zip": "91601",
    "county": "LOS ANGELES",
    "phone": "(747) 273-6018",
    "lat": 34.16188502,
    "lng": -118.372488
  },
  {
    "id": "630020268",
    "name": "CARING SISTERS HOME HEALTH CARE, INC.",
    "npi": null,
    "hcaiId": "406193054",
    "businessName": "CARING SISTERS HOME  HEALTH CARE, INC.",
    "contactEmail": "CARINGSISTERSHHC@YAHOO.COM",
    "categoryName": "HOME HEALTH AGENCY",
    "categoryCode": "HHA",
    "licenseStatus": "ACTIVE",
    "inService": true,
    "licenseNumber": "550006098",
    "licenseEffectiveDate": "03/13/2025",
    "licenseExpirationDate": "03/12/2026",
    "dataDate": "10/18/2025",
    "capacity": 0,
    "address": "10545 BURBANK BLVD, SUITE 125",
    "city": "NORTH HOLLYWOOD",
    "zip": "91601",
    "county": "LOS ANGELES",
    "phone": "(747) 251-1070",
    "lat": 34.172298,
    "lng": -118.360845
  },
  {
    "id": "630019392",
    "name": "CONFIDENT HOME HEALTH CARE, INC.",
    "npi": null,
    "hcaiId": "406192740",
    "businessName": "CONFIDENT HOME HEALTH CARE, INC.",
    "contactEmail": "CONFIDENTHOMEHEALTH@YAHOO.COM",
    "categoryName": "HOME HEALTH AGENCY",
    "categoryCode": "HHA",
    "licenseStatus": "ACTIVE",
    "inService": true,
    "licenseNumber": "550005621",
    "licenseEffectiveDate": "08/07/2023",
    "licenseExpirationDate": "08/06/2024",
    "dataDate": "10/18/2025",
    "capacity": 0,
    "address": "10545 BURBANK BLVD, SUITE 136",
    "city": "NORTH HOLLYWOOD",
    "zip": "91601",
    "county": "LOS ANGELES",
    "phone": "(818) 983-8517",
    "lat": 34.172298,
    "lng": -118.360845
  },
  {
    "id": "630018467",
    "name": "D & J HOME HEALTH INC",
    "npi": null,
    "hcaiId": "406191991",
    "businessName": "D & J HOME HEALTH INC",
    "contactEmail": "DJHHINC@YAHOO.COM",
    "categoryName": "HOME HEALTH AGENCY",
    "categoryCode": "HHA",
    "licenseStatus": "ACTIVE",
    "inService": true,
    "licenseNumber": "550005016",
    "licenseEffectiveDate": "10/16/2025",
    "licenseExpirationDate": "10/15/2026",
    "dataDate": "10/18/2025",
    "capacity": 0,
    "address": "10523 BURBANK BLVD, SUITE 204",
    "city": "NORTH HOLLYWOOD",
    "zip": "91601",
    "county": "LOS ANGELES",
    "phone": "(818) 821-3421",
    "lat": 34.172334,
    "lng": -118.360188
  },
  {
    "id": "630017305",
    "name": "DAVIDA ENTERPRISES, INC.",
    "npi": "1295268613",
    "hcaiId": "406191377",
    "businessName": "DAVIDA ENTERPRISES, INC.",
    "contactEmail": "DAVIDAENTERP@GMAIL.COM",
    "categoryName": "HOME HEALTH AGENCY",
    "categoryCode": "HHA",
    "licenseStatus": "ACTIVE",
    "inService": true,
    "licenseNumber": "550004320",
    "licenseEffectiveDate": "06/25/2025",
    "licenseExpirationDate": "06/24/2026",
    "dataDate": "10/18/2025",
    "capacity": 0,
    "address": "10545 BURBANK BLVD, SUITE 116",
    "city": "NORTH HOLLYWOOD",
    "zip": "91601",
    "county": "LOS ANGELES",
    "phone": "(818) 579-4036",
    "lat": 34.172298,
    "lng": -118.360845
  },
  {
    "id": "630024988",
    "name": "ELYSIUM HOME HEALTH INC",
    "npi": null,
    "hcaiId": "406196420",
    "businessName": "ELYSIUM HOME HEALTH INC",
    "contactEmail": "ELYSIUMHOMEHEALTHINC@GMAIL.COM",
    "categoryName": "HOME HEALTH AGENCY",
    "categoryCode": "HHA",
    "licenseStatus": "ACTIVE",
    "inService": true,
    "licenseNumber": "550008467",
    "licenseEffectiveDate": "03/22/2025",
    "licenseExpirationDate": "03/21/2026",
    "dataDate": "10/18/2025",
    "capacity": 0,
    "address": "5958 VINELAND AVE, UNIT J",
    "city": "NORTH HOLLYWOOD",
    "zip": "91601",
    "county": "LOS ANGELES",
    "phone": "(818) 358-4904",
    "lat": 34.179201,
    "lng": -118.370106
  },
  {
    "id": "630022198",
    "name": "EMPHATY PALLIATIVE CARE, INC.",
    "npi": null,
    "hcaiId": "406193840",
    "businessName": "EMPHATY PALLIATIVE CARE, INC.",
    "contactEmail": "EMPHATYPALLIATIVE@GMAIL.COM",
    "categoryName": "HOSPICE",
    "categoryCode": "HOSPICE",
    "licenseStatus": "ACTIVE",
    "inService": true,
    "licenseNumber": "550007384",
    "licenseEffectiveDate": "12/07/2023",
    "licenseExpirationDate": "12/06/2025",
    "dataDate": "10/18/2025",
    "capacity": 0,
    "address": "10523 BURBANK BLVD, SUITE 117",
    "city": "NORTH HOLLYWOOD",
    "zip": "91601",
    "county": "LOS ANGELES",
    "phone": "(818) 531-3127",
    "lat": 34.172334,
    "lng": -118.360188
  },
  {
    "id": "630019826",
    "name": "G AND G HOSPICE CARE, INC.",
    "npi": null,
    "hcaiId": "406193008",
    "businessName": "G AND G HOSPICE CARE, INC.",
    "contactEmail": "GGHCINC@YAHOO.COM",
    "categoryName": "HOSPICE",
    "categoryCode": "HOSPICE",
    "licenseStatus": "ACTIVE",
    "inService": true,
    "licenseNumber": "550005900",
    "licenseEffectiveDate": "08/10/2024",
    "licenseExpirationDate": "08/09/2026",
    "dataDate": "10/18/2025",
    "capacity": 0,
    "address": "10523 BURBANK BLVD, SUITE 119",
    "city": "NORTH HOLLYWOOD",
    "zip": "91601",
    "county": "LOS ANGELES",
    "phone": "(818) 927-4444",
    "lat": 34.172334,
    "lng": -118.360188
  },
  {
    "id": "630025700",
    "name": "GODS WAY HOME HEALTH CARE INC",
    "npi": null,
    "hcaiId": "406190185",
    "businessName": "GODS WAY HOME HEALTH CARE INC",
    "contactEmail": "GODSWAYHOMEHEALTH@GMAIL.COM",
    "categoryName": "HOME HEALTH AGENCY",
    "categoryCode": "HHA",
    "licenseStatus": "ACTIVE",
    "inService": true,
    "licenseNumber": "550008691",
    "licenseEffectiveDate": "10/14/2025",
    "licenseExpirationDate": "08/07/2026",
    "dataDate": "10/18/2025",
    "capacity": 0,
    "address": "5761 N WHITNALL HWY, UNIT C",
    "city": "NORTH HOLLYWOOD",
    "zip": "91601",
    "county": "LOS ANGELES",
    "phone": "(747) 877-2710",
    "lat": 34.1755363,
    "lng": -118.3646283
  },
  {
    "id": "630021814",
    "name": "GOLDEN ROAD HOSPICE, INC.",
    "npi": null,
    "hcaiId": "406195161",
    "businessName": "GOLDEN ROAD HOSPICE, INC.",
    "contactEmail": "GOLDENROADHOSPICE@GMAIL.COM",
    "categoryName": "HOSPICE",
    "categoryCode": "HOSPICE",
    "licenseStatus": "ACTIVE",
    "inService": true,
    "licenseNumber": "550007442",
    "licenseEffectiveDate": "12/10/2023",
    "licenseExpirationDate": "12/09/2025",
    "dataDate": "10/18/2025",
    "capacity": 0,
    "address": "11490 BURBANK BLVD, SUITE 2D",
    "city": "NORTH HOLLYWOOD",
    "zip": "91601",
    "county": "LOS ANGELES",
    "phone": "(818) 579-4281",
    "lat": 34.171992,
    "lng": -118.381959
  },
  {
    "id": "630015009",
    "name": "GOOD CARE HOSPICE, INC.",
    "npi": "1619393766",
    "hcaiId": "406198469",
    "businessName": "GOOD CARE HOSPICE, INC.",
    "contactEmail": "GOODCAREHOSPICE1@YAHOO.COM",
    "categoryName": "HOSPICE",
    "categoryCode": "HOSPICE",
    "licenseStatus": "ACTIVE",
    "inService": true,
    "licenseNumber": "550003232",
    "licenseEffectiveDate": "11/15/2019",
    "licenseExpirationDate": "08/24/2021",
    "dataDate": "10/18/2025",
    "capacity": 0,
    "address": "10545 BURBANK BLVD, UNIT 101",
    "city": "NORTH HOLLYWOOD",
    "zip": "91601",
    "county": "LOS ANGELES",
    "phone": "(818) 786-1430",
    "lat": 34.172298,
    "lng": -118.360845
  },
  {
    "id": "630024609",
    "name": "HAPPY VENUE ADHC",
    "npi": null,
    "hcaiId": null,
    "businessName": "HAPPY VENUE ADHC INC",
    "contactEmail": "HAPPYVENUE21@GMAIL.COM",
    "categoryName": "ADULT DAY HEALTH CARE",
    "categoryCode": "ADHC",
    "licenseStatus": "ACTIVE",
    "inService": true,
    "licenseNumber": "550009298",
    "licenseEffectiveDate": "08/01/2025",
    "licenseExpirationDate": "07/31/2026",
    "dataDate": "10/18/2025",
    "capacity": 0,
    "address": "5716 LANKERSHIM BLVD",
    "city": "NORTH HOLLYWOOD",
    "zip": "91601",
    "county": "LOS ANGELES",
    "phone": "(808) 731-4021",
    "lat": 34.174467,
    "lng": -118.380195
  },
  {
    "id": "060001840",
    "name": "HEALTH GUARD ADULT DAY HEALTH CARE",
    "npi": null,
    "hcaiId": null,
    "businessName": "HEALTH GUARD, INC.",
    "contactEmail": "MARISOUN@HOTMAIL.COM",
    "categoryName": "ADULT DAY HEALTH CARE",
    "categoryCode": "ADHC",
    "licenseStatus": "ACTIVE",
    "inService": true,
    "licenseNumber": "060000657",
    "licenseEffectiveDate": "01/26/2025",
    "licenseExpirationDate": "01/25/2026",
    "dataDate": "10/18/2025",
    "capacity": 0,
    "address": "5648-5652 VINELAND AVENUE",
    "city": "NORTH HOLLYWOOD",
    "zip": "91601",
    "county": "LOS ANGELES",
    "phone": "(818) 760-7727",
    "lat": 34.173657,
    "lng": -118.369935
  },
  {
    "id": "630027334",
    "name": "HEALTHINESS HOME CARE",
    "npi": null,
    "hcaiId": null,
    "businessName": "HEALTHINESS HOME CARE",
    "contactEmail": "HEALTHINESSHOMECAREE@GMAIL.COM",
    "categoryName": "HOME HEALTH AGENCY",
    "categoryCode": "HHA",
    "licenseStatus": "ACTIVE",
    "inService": true,
    "licenseNumber": "550009551",
    "licenseEffectiveDate": "06/16/2025",
    "licenseExpirationDate": "12/15/2025",
    "dataDate": "10/18/2025",
    "capacity": 0,
    "address": "11490 BURBANK BLVD, SUITE 1",
    "city": "N HOLLYWOOD",
    "zip": "91601",
    "county": "LOS ANGELES",
    "phone": "(818) 858-6057",
    "lat": 34.17188501,
    "lng": -118.381992
  },
  {
    "id": "630022460",
    "name": "HELIUS HOSPICE AND PALLIATIVE CARE, INC.",
    "npi": "1396330957",
    "hcaiId": "406195755",
    "businessName": "HELIUS HOSPICE AND PALLIATIVE CARE, INC.",
    "contactEmail": "HELLIUSHOSPICE@GMAIL.COM",
    "categoryName": "HOSPICE",
    "categoryCode": "HOSPICE",
    "licenseStatus": "ACTIVE",
    "inService": true,
    "licenseNumber": "550007742",
    "licenseEffectiveDate": "09/30/2024",
    "licenseExpirationDate": "12/13/2025",
    "dataDate": "10/18/2025",
    "capacity": 0,
    "address": "10700 BURBANK BLVD, UNIT 4",
    "city": "NORTH HOLLYWOOD",
    "zip": "91601",
    "county": "LOS ANGELES",
    "phone": "(805) 864-1222",
    "lat": 34.17190802,
    "lng": -118.363958
  },
  {
    "id": "630027288",
    "name": "HELP AND CARE HOME HEALTH CARE, INC",
    "npi": null,
    "hcaiId": null,
    "businessName": "HELP AND CARE HOME HEALTH CARE, INC",
    "contactEmail": "HCHOMEHEALTH22@GMAIL.COM",
    "categoryName": "HOME HEALTH AGENCY",
    "categoryCode": "HHA",
    "licenseStatus": "ACTIVE",
    "inService": true,
    "licenseNumber": "550009623",
    "licenseEffectiveDate": "07/17/2025",
    "licenseExpirationDate": "01/16/2026",
    "dataDate": "10/18/2025",
    "capacity": 0,
    "address": "10545 BURBANK BLVD, SUITE 102",
    "city": "NORTH HOLLYWOOD",
    "zip": "91601",
    "county": "LOS ANGELES",
    "phone": "(818) 491-8397",
    "lat": 34.17242602,
    "lng": -118.360833
  },
  {
    "id": "630014287",
    "name": "HELP AND CARE HOSPICE, INC",
    "npi": "1194335810",
    "hcaiId": "406198261",
    "businessName": "HELP AND CARE HOSPICE, INC.",
    "contactEmail": "HCHOSPICE@YAHOO.COM",
    "categoryName": "HOSPICE",
    "categoryCode": "HOSPICE",
    "licenseStatus": "ACTIVE",
    "inService": true,
    "licenseNumber": "550002665",
    "licenseEffectiveDate": "04/25/2024",
    "licenseExpirationDate": "04/24/2026",
    "dataDate": "10/18/2025",
    "capacity": 0,
    "address": "10545 BURBANK BLVD, UNIT 130",
    "city": "NORTH HOLLYWOOD",
    "zip": "91601",
    "county": "LOS ANGELES",
    "phone": "(213) 294-9029",
    "lat": 34.172298,
    "lng": -118.360845
  },
  {
    "id": "630021493",
    "name": "IHOME HEALTH CARE, INC",
    "npi": null,
    "hcaiId": "406195821",
    "businessName": "IHOME HEALTH CARE, INC",
    "contactEmail": "IHOMEHEALTHCAREINC@GMAIL.COM",
    "categoryName": "HOME HEALTH AGENCY",
    "categoryCode": "HHA",
    "licenseStatus": "ACTIVE",
    "inService": true,
    "licenseNumber": "550007855",
    "licenseEffectiveDate": "09/23/2025",
    "licenseExpirationDate": "02/14/2026",
    "dataDate": "10/18/2025",
    "capacity": 0,
    "address": "10545 BURBANK BLVD, SUITE 117B",
    "city": "NORTH HOLLYWOOD",
    "zip": "91601",
    "county": "LOS ANGELES",
    "phone": "(818) 821-1557",
    "lat": 34.172169,
    "lng": -118.36085
  },
  {
    "id": "630019396",
    "name": "ILLUMINATE HOME HEALTH CARE, INC.",
    "npi": null,
    "hcaiId": "406192741",
    "businessName": "ILLUMINATE HOME HEALTH CARE, INC.",
    "contactEmail": "ILLUMINATEHOMEHEALTH@YAHOO.COM",
    "categoryName": "HOME HEALTH AGENCY",
    "categoryCode": "HHA",
    "licenseStatus": "ACTIVE",
    "inService": true,
    "licenseNumber": "550005596",
    "licenseEffectiveDate": "07/25/2025",
    "licenseExpirationDate": "07/24/2026",
    "dataDate": "10/18/2025",
    "capacity": 0,
    "address": "10545 BURBANK BLVD, SUITE 137",
    "city": "NORTH HOLLYWOOD",
    "zip": "91601",
    "county": "LOS ANGELES",
    "phone": "(818) 987-4173",
    "lat": 34.172298,
    "lng": -118.360845
  },
  {
    "id": "630020887",
    "name": "INFINITE LIFE, INC",
    "npi": null,
    "hcaiId": "406196692",
    "businessName": "INFINITE LIFE, INC",
    "contactEmail": "INFLIFEHHC@GMAIL.COM",
    "categoryName": "HOSPICE",
    "categoryCode": "HOSPICE",
    "licenseStatus": "ACTIVE",
    "inService": true,
    "licenseNumber": "550006385",
    "licenseEffectiveDate": "05/25/2025",
    "licenseExpirationDate": "05/24/2027",
    "dataDate": "10/18/2025",
    "capacity": 0,
    "address": "5958 VINELAND AVE, SUITE L-2",
    "city": "NORTH HOLLYWOOD",
    "zip": "91601",
    "county": "LOS ANGELES",
    "phone": "(818) 579-4124",
    "lat": 34.179201,
    "lng": -118.370106
  },
  {
    "id": "630016809",
    "name": "INSPIRED LIFE HOME HEALTH, INC.",
    "npi": null,
    "hcaiId": "406364581",
    "businessName": "INSPIRED LIFE HOME HEALTH, INC.",
    "contactEmail": "INSPIREDHOMEHEALTH@GMAIL.COM",
    "categoryName": "HOME HEALTH AGENCY",
    "categoryCode": "HHA",
    "licenseStatus": "ACTIVE",
    "inService": true,
    "licenseNumber": "550003939",
    "licenseEffectiveDate": "08/07/2025",
    "licenseExpirationDate": "08/06/2026",
    "dataDate": "10/18/2025",
    "capacity": 0,
    "address": "10746 BURBANK BLVD, UNIT D",
    "city": "NORTH HOLLYWOOD",
    "zip": "91601",
    "county": "LOS ANGELES",
    "phone": "(909) 361-4410",
    "lat": 34.171875,
    "lng": -118.365291
  },
  {
    "id": "630021486",
    "name": "KAPLAN HOSPICE, INC",
    "npi": null,
    "hcaiId": "406193735",
    "businessName": "KAPLAN HOSPICE, INC",
    "contactEmail": "KAPLANHOSPICEINC@GMAIL.COM",
    "categoryName": "HOSPICE",
    "categoryCode": "HOSPICE",
    "licenseStatus": "ACTIVE",
    "inService": true,
    "licenseNumber": "550006915",
    "licenseEffectiveDate": "09/24/2023",
    "licenseExpirationDate": "09/23/2025",
    "dataDate": "10/18/2025",
    "capacity": 0,
    "address": "10545 BURBANK BLVD, SUITE 138",
    "city": "NORTH HOLLYWOOD",
    "zip": "91601",
    "county": "LOS ANGELES",
    "phone": "(818) 747-2263",
    "lat": 34.172169,
    "lng": -118.36085
  },
  {
    "id": "630013548",
    "name": "LA ARC HOSPICE, INC.",
    "npi": "1376827758",
    "hcaiId": "406197801",
    "businessName": "LA ARC HOSPICE, INC.",
    "contactEmail": "LAARCHOSPICE@YAHOO.COM",
    "categoryName": "HOSPICE",
    "categoryCode": "HOSPICE",
    "licenseStatus": "ACTIVE",
    "inService": true,
    "licenseNumber": "550002180",
    "licenseEffectiveDate": "11/26/2024",
    "licenseExpirationDate": "11/25/2026",
    "dataDate": "10/18/2025",
    "capacity": 0,
    "address": "5652 VINELAND AVENUE, SUITE 202B",
    "city": "NORTH HOLLYWOOD",
    "zip": "91601",
    "county": "LOS ANGELES",
    "phone": "(818) 762-3777",
    "lat": 34.173657,
    "lng": -118.369935
  },
  {
    "id": "630019275",
    "name": "LA VERA HOSPICE, INC.",
    "npi": "1598329302",
    "hcaiId": "406195279",
    "businessName": "LA VERA HOSPICE, INC.",
    "contactEmail": "LAVERAHOSPICE@GMAIL.COM",
    "categoryName": "HOSPICE",
    "categoryCode": "HOSPICE",
    "licenseStatus": "ACTIVE",
    "inService": true,
    "licenseNumber": "550005803",
    "licenseEffectiveDate": "10/07/2022",
    "licenseExpirationDate": "10/06/2024",
    "dataDate": "10/18/2025",
    "capacity": 0,
    "address": "10700 BURBANK BLVD, SUITE 1",
    "city": "NORTH HOLLYWOOD",
    "zip": "91601",
    "county": "LOS ANGELES",
    "phone": "(747) 306-8008",
    "lat": 34.171983,
    "lng": -118.364004
  },
  {
    "id": "630013549",
    "name": "LA WELLNESS HEALTH CARE, INC.",
    "npi": "1295019669",
    "hcaiId": "406197859",
    "businessName": "LA WELLNESS HEALTH CARE, INC.",
    "contactEmail": "LAWELLNESS@HOTMAIL.COM",
    "categoryName": "HOME HEALTH AGENCY",
    "categoryCode": "HHA",
    "licenseStatus": "ACTIVE",
    "inService": true,
    "licenseNumber": "550002269",
    "licenseEffectiveDate": "05/01/2025",
    "licenseExpirationDate": "04/30/2026",
    "dataDate": "10/18/2025",
    "capacity": 0,
    "address": "5652 VINELAND AVE, SUITE 202A",
    "city": "NORTH HOLLYWOOD",
    "zip": "91601",
    "county": "LOS ANGELES",
    "phone": "(818) 762-6777",
    "lat": 34.173657,
    "lng": -118.369935
  },
  {
    "id": "630021455",
    "name": "LIGHTHOUSE HHC",
    "npi": null,
    "hcaiId": "406195473",
    "businessName": "LIGHTHOUSE HHC",
    "contactEmail": "LIGHTHOUSEHHCA@GMAIL.COM",
    "categoryName": "HOME HEALTH AGENCY",
    "categoryCode": "HHA",
    "licenseStatus": "ACTIVE",
    "inService": true,
    "licenseNumber": "550007889",
    "licenseEffectiveDate": "03/01/2024",
    "licenseExpirationDate": "02/28/2025",
    "dataDate": "10/18/2025",
    "capacity": 0,
    "address": "10545 BURBANK BLVD, SUITE 117A",
    "city": "NORTH HOLLYWOOD",
    "zip": "91601",
    "county": "LOS ANGELES",
    "phone": "(818) 660-5855",
    "lat": 34.172169,
    "lng": -118.36085
  },
  {
    "id": "630026964",
    "name": "LUNA HOME CARE INC",
    "npi": null,
    "hcaiId": null,
    "businessName": "LUNA HOME CARE, INC",
    "contactEmail": "LUNAHOMECAREINC@GMAIL.COM",
    "categoryName": "HOME HEALTH AGENCY",
    "categoryCode": "HHA",
    "licenseStatus": "ACTIVE",
    "inService": true,
    "licenseNumber": "550009735",
    "licenseEffectiveDate": "09/24/2025",
    "licenseExpirationDate": "03/23/2026",
    "dataDate": "10/18/2025",
    "capacity": 0,
    "address": "11490 BURBANK BLVD, SUITE 5E",
    "city": "NORTH HOLLYWOOD",
    "zip": "91601",
    "county": "LOS ANGELES",
    "phone": "(818) 821-3337",
    "lat": 34.171992,
    "lng": -118.381959
  },
  {
    "id": "630020418",
    "name": "MAGNA HOSPICE SERVICES, INC.",
    "npi": null,
    "hcaiId": null,
    "businessName": "MAGNA HOSPICE SERVICES, INC.",
    "contactEmail": "MAGNAHOSPICE@GMAIL.COM",
    "categoryName": "HOSPICE",
    "categoryCode": "HOSPICE",
    "licenseStatus": "ACTIVE",
    "inService": true,
    "licenseNumber": "550006605",
    "licenseEffectiveDate": "07/09/2023",
    "licenseExpirationDate": "07/08/2025",
    "dataDate": "10/18/2025",
    "capacity": 0,
    "address": "5032 LANKERSHIM BLVD, SUITE 4",
    "city": "NORTH HOLLYWOOD",
    "zip": "91601",
    "county": "LOS ANGELES",
    "phone": "(818) 966-4311",
    "lat": 34.161894,
    "lng": -118.372626
  },
  {
    "id": "630020012",
    "name": "MANN HOSPICE & PALLIATIVE CARE, INC",
    "npi": null,
    "hcaiId": "406193838",
    "businessName": "MANN HOSPICE & PALLIATIVE CARE, INC",
    "contactEmail": "MANNHOSPICE@GMAIL.COM",
    "categoryName": "HOSPICE",
    "categoryCode": "HOSPICE",
    "licenseStatus": "ACTIVE",
    "inService": true,
    "licenseNumber": "550006381",
    "licenseEffectiveDate": "04/17/2025",
    "licenseExpirationDate": "04/16/2027",
    "dataDate": "10/18/2025",
    "capacity": 0,
    "address": "5032 LANKERSHIM BLVD, SUITE 7",
    "city": "NORTH HOLLYWOOD",
    "zip": "91601",
    "county": "LOS ANGELES",
    "phone": "(818) 308-5272",
    "lat": 34.161894,
    "lng": -118.372626
  },
  {
    "id": "630020070",
    "name": "MEDHOSPICE, INC",
    "npi": "1821617572",
    "hcaiId": "406192861",
    "businessName": "MEDHOSPICE, INC",
    "contactEmail": "MEDHOSPICEINC@GMAIL.COM",
    "categoryName": "HOSPICE",
    "categoryCode": "HOSPICE",
    "licenseStatus": "ACTIVE",
    "inService": true,
    "licenseNumber": "550005684",
    "licenseEffectiveDate": "07/29/2022",
    "licenseExpirationDate": "07/28/2024",
    "dataDate": "10/18/2025",
    "capacity": 0,
    "address": "10523 BURBANK BLVD, SUITE 108",
    "city": "NORTH HOLLYWOOD",
    "zip": "91601",
    "county": "LOS ANGELES",
    "phone": "(818) 358-2768",
    "lat": 34.172334,
    "lng": -118.360188
  },
  {
    "id": "630018636",
    "name": "MEDLIFE HOME CARE INC",
    "npi": null,
    "hcaiId": "406191974",
    "businessName": "MEDLIFE HOME CARE INC",
    "contactEmail": "HAROUTINNAZARIAN@GMAIL.COM",
    "categoryName": "HOME HEALTH AGENCY",
    "categoryCode": "HHA",
    "licenseStatus": "ACTIVE",
    "inService": true,
    "licenseNumber": "550005038",
    "licenseEffectiveDate": "10/26/2025",
    "licenseExpirationDate": "10/25/2026",
    "dataDate": "10/18/2025",
    "capacity": 0,
    "address": "5739 CAHUENGA BLVD, UNIT C",
    "city": "NORTH HOLLYWOOD",
    "zip": "91601",
    "county": "LOS ANGELES",
    "phone": "(818) 624-6360",
    "lat": 34.17505898,
    "lng": -118.361933
  },
  {
    "id": "630019394",
    "name": "METCARE HOSPICE INC.",
    "npi": null,
    "hcaiId": "406192568",
    "businessName": "METCARE HOSPICE INC.",
    "contactEmail": "INFO@METCAREHOSPICE.COM",
    "categoryName": "HOSPICE",
    "categoryCode": "HOSPICE",
    "licenseStatus": "ACTIVE",
    "inService": true,
    "licenseNumber": "550005485",
    "licenseEffectiveDate": "05/15/2022",
    "licenseExpirationDate": "05/14/2024",
    "dataDate": "10/18/2025",
    "capacity": 0,
    "address": "10523 BURBANK BLVD, SUITE 102",
    "city": "NORTH HOLLYWOOD",
    "zip": "91601",
    "county": "LOS ANGELES",
    "phone": "(818) 358-2168",
    "lat": 34.172334,
    "lng": -118.360188
  },
  {
    "id": "630018868",
    "name": "NAARS HOSPICE, INC.",
    "npi": "1700352572",
    "hcaiId": "406191820",
    "businessName": "NAARS HOSPICE, INC.",
    "contactEmail": "NAARSHOSPICEINC@GMAIL.COM",
    "categoryName": "HOSPICE",
    "categoryCode": "HOSPICE",
    "licenseStatus": "ACTIVE",
    "inService": true,
    "licenseNumber": "550004917",
    "licenseEffectiveDate": "08/27/2023",
    "licenseExpirationDate": "08/26/2025",
    "dataDate": "10/18/2025",
    "capacity": 0,
    "address": "10523 BURBANK BLVD, SUITE 122",
    "city": "NORTH HOLLYWOOD",
    "zip": "91601",
    "county": "LOS ANGELES",
    "phone": "(818) 927-4047",
    "lat": 34.172334,
    "lng": -118.360188
  },
  {
    "id": "630016609",
    "name": "NEW PLACE HOME HEALTH CARE, INC.",
    "npi": "1164883740",
    "hcaiId": "406191363",
    "businessName": "NEW PLACE HOME HEALTH CARE, INC.",
    "contactEmail": "NEWPLACEHHC@GMAIL.COM",
    "categoryName": "HOME HEALTH AGENCY",
    "categoryCode": "HHA",
    "licenseStatus": "ACTIVE",
    "inService": true,
    "licenseNumber": "550004450",
    "licenseEffectiveDate": "09/17/2024",
    "licenseExpirationDate": "09/16/2025",
    "dataDate": "10/18/2025",
    "capacity": 0,
    "address": "10545 BURBANK BLVD, SUITE 121",
    "city": "NORTH HOLLYWOOD",
    "zip": "91601",
    "county": "LOS ANGELES",
    "phone": "(818) 200-1712",
    "lat": 34.17242602,
    "lng": -118.360833
  },
  {
    "id": "630026471",
    "name": "NEW WORLD HOME HEALTH, INC.",
    "npi": null,
    "hcaiId": null,
    "businessName": "NEW WORLD HOME HEALTH, INC.",
    "contactEmail": "NWORLDHHC@GMAIL.COM",
    "categoryName": "HOME HEALTH AGENCY",
    "categoryCode": "HHA",
    "licenseStatus": "ACTIVE",
    "inService": true,
    "licenseNumber": "550009370",
    "licenseEffectiveDate": "09/01/2025",
    "licenseExpirationDate": "08/31/2026",
    "dataDate": "10/18/2025",
    "capacity": 0,
    "address": "5032 LANKERSHIM BLVD, SUITE 2",
    "city": "NORTH HOLLYWOOD",
    "zip": "91601",
    "county": "LOS ANGELES",
    "phone": "(747) 286-8131",
    "lat": 34.161894,
    "lng": -118.372626
  },
  {
    "id": "630024844",
    "name": "NOVA HOME HEALTH CARE, INC",
    "npi": null,
    "hcaiId": "406190197",
    "businessName": "NOVA HOME HEALTH CARE, INC.",
    "contactEmail": "NOVAHHC555@GMAIL.COM",
    "categoryName": "HOME HEALTH AGENCY",
    "categoryCode": "HHA",
    "licenseStatus": "ACTIVE",
    "inService": true,
    "licenseNumber": "550008609",
    "licenseEffectiveDate": "05/04/2025",
    "licenseExpirationDate": "05/03/2026",
    "dataDate": "10/18/2025",
    "capacity": 0,
    "address": "10521 BURBANK BLVD",
    "city": "NORTH HOLLYWOOD",
    "zip": "91601",
    "county": "LOS ANGELES",
    "phone": "(818) 478-2525",
    "lat": 34.172334,
    "lng": -118.360134
  },
  {
    "id": "630018251",
    "name": "ORISON HOSPICE INC.",
    "npi": "1053891176",
    "hcaiId": "406191833",
    "businessName": "ORISON HOSPICE INC.",
    "contactEmail": "ORISONHOSPICEINC@YAHOO.COM",
    "categoryName": "HOSPICE",
    "categoryCode": "HOSPICE",
    "licenseStatus": "ACTIVE",
    "inService": true,
    "licenseNumber": "550004907",
    "licenseEffectiveDate": "09/13/2023",
    "licenseExpirationDate": "09/12/2025",
    "dataDate": "10/18/2025",
    "capacity": 0,
    "address": "5958 VINELAND AVE, SUITE I",
    "city": "NORTH HOLLYWOOD",
    "zip": "91601",
    "county": "LOS ANGELES",
    "phone": "(818) 579-4143",
    "lat": 34.179201,
    "lng": -118.370106
  },
  {
    "id": "630020242",
    "name": "PACIFIC PALLIATIVE SERVICES, INC",
    "npi": "1487278065",
    "hcaiId": "406195956",
    "businessName": "PACIFIC PALLIATIVE SERVICES INC",
    "contactEmail": "INFO@PACIFICPALLIATIVE.COM",
    "categoryName": "HOSPICE",
    "categoryCode": "HOSPICE",
    "licenseStatus": "ACTIVE",
    "inService": true,
    "licenseNumber": "550006445",
    "licenseEffectiveDate": "10/05/2024",
    "licenseExpirationDate": "10/04/2026",
    "dataDate": "10/18/2025",
    "capacity": 0,
    "address": "10523 BURBANK BLVD, SUITE 107",
    "city": "NORTH HOLLYWOOD",
    "zip": "91601",
    "county": "LOS ANGELES",
    "phone": "(747) 322-0055",
    "lat": 34.172334,
    "lng": -118.360188
  },
  {
    "id": "630021754",
    "name": "PALIO HOSPICE, INC.",
    "npi": null,
    "hcaiId": "406193742",
    "businessName": "PALIO HOSPICE, INC.",
    "contactEmail": "PALIOHOSPICE@YAHOO.COM",
    "categoryName": "HOSPICE",
    "categoryCode": "HOSPICE",
    "licenseStatus": "ACTIVE",
    "inService": true,
    "licenseNumber": "550006917",
    "licenseEffectiveDate": "10/01/2023",
    "licenseExpirationDate": "09/30/2025",
    "dataDate": "10/18/2025",
    "capacity": 0,
    "address": "10523 BURBANK BLVD, SUITE 102A",
    "city": "NORTH HOLLYWOOD",
    "zip": "91601",
    "county": "LOS ANGELES",
    "phone": "(818) 281-2637",
    "lat": 34.172334,
    "lng": -118.360188
  },
  {
    "id": "630024371",
    "name": "PERFECT HARMONY HOME HEALTH, INC.",
    "npi": null,
    "hcaiId": "406197141",
    "businessName": "PERFECT HARMONY HOME HEALTH, INC.",
    "contactEmail": "PERFECTHARMONYHH@GMAIL.COM",
    "categoryName": "HOME HEALTH AGENCY",
    "categoryCode": "HHA",
    "licenseStatus": "ACTIVE",
    "inService": true,
    "licenseNumber": "550008290",
    "licenseEffectiveDate": "12/22/2024",
    "licenseExpirationDate": "12/21/2025",
    "dataDate": "10/18/2025",
    "capacity": 0,
    "address": "11484 1/2 BURBANK BLVD",
    "city": "NORTH HOLLYWOOD",
    "zip": "91601",
    "county": "LOS ANGELES",
    "phone": "(800) 647-1773",
    "lat": 34.1720849,
    "lng": -118.381711
  },
  {
    "id": "630027824",
    "name": "PERFECT HOME HEALTH CARE, INC.",
    "npi": null,
    "hcaiId": null,
    "businessName": "PERFECT HOME HEALTH CARE, INC.",
    "contactEmail": "CARESERVICEHOMEHEALTH@GMAIL.COM",
    "categoryName": "HOME HEALTH AGENCY",
    "categoryCode": "HHA",
    "licenseStatus": "ACTIVE",
    "inService": true,
    "licenseNumber": "550009724",
    "licenseEffectiveDate": "09/26/2025",
    "licenseExpirationDate": "03/25/2026",
    "dataDate": "10/18/2025",
    "capacity": 0,
    "address": "10523 BURBANK BLVD, SUITE 110",
    "city": "NORTH HOLLYWOOD",
    "zip": "91601",
    "county": "LOS ANGELES",
    "phone": "(818) 422-0221",
    "lat": 34.17239999,
    "lng": -118.360172
  },
  {
    "id": "630027293",
    "name": "PLUTO HOME HEALTH CARE, INC.",
    "npi": null,
    "hcaiId": null,
    "businessName": "PLUTO HOME HEALTH CARE, INC.",
    "contactEmail": "PLUTOHOMEHEALTH@GMAIL.COM",
    "categoryName": "HOME HEALTH AGENCY",
    "categoryCode": "HHA",
    "licenseStatus": "ACTIVE",
    "inService": true,
    "licenseNumber": "550009500",
    "licenseEffectiveDate": "10/12/2025",
    "licenseExpirationDate": "10/11/2026",
    "dataDate": "10/18/2025",
    "capacity": 0,
    "address": "10545 BURBANK BLVD, SUITE 122",
    "city": "NORTH HOLLYWOOD",
    "zip": "91601",
    "county": "LOS ANGELES",
    "phone": "(818) 491-8957",
    "lat": 34.17242602,
    "lng": -118.360833
  },
  {
    "id": "630025697",
    "name": "PRIORITY SERVICES HOME HEALTH, INC.",
    "npi": null,
    "hcaiId": "406190205",
    "businessName": "PRIORITY SERVICES HOME HEALTH, INC.",
    "contactEmail": "PRIORITYSERVICESHH@GMAIL.COM",
    "categoryName": "HOME HEALTH AGENCY",
    "categoryCode": "HHA",
    "licenseStatus": "ACTIVE",
    "inService": true,
    "licenseNumber": "550008946",
    "licenseEffectiveDate": "02/10/2025",
    "licenseExpirationDate": "02/09/2026",
    "dataDate": "10/18/2025",
    "capacity": 0,
    "address": "5032 LANKERSHIM BLVD, SUITE 3",
    "city": "NORTH HOLLYWOOD",
    "zip": "91601",
    "county": "LOS ANGELES",
    "phone": "(323) 712-1408",
    "lat": 34.161894,
    "lng": -118.372626
  },
  {
    "id": "920000074",
    "name": "PROVIDENCE ST. ELIZABETH CARE CENTER",
    "npi": "1477647444",
    "hcaiId": "206190752",
    "businessName": "PROVIDENCE HEALTH SYSTEM - SOUTHERN CALIFORNIA",
    "contactEmail": "CBARRON@ENSIGNSERVICES.NET",
    "categoryName": "SKILLED NURSING FACILITY",
    "categoryCode": "SNF",
    "licenseStatus": "ACTIVE",
    "inService": true,
    "licenseNumber": "920000070",
    "licenseEffectiveDate": "06/01/2025",
    "licenseExpirationDate": "05/31/2026",
    "dataDate": "10/18/2025",
    "capacity": 52,
    "address": "10425 MAGNOLIA BLVD",
    "city": "NORTH HOLLYWOOD",
    "zip": "91601",
    "county": "LOS ANGELES",
    "phone": "(818) 980-3872",
    "lat": 34.165062,
    "lng": -118.357992
  },
  {
    "id": "630019092",
    "name": "PURE SOUL HOSPICE, INC.",
    "npi": null,
    "hcaiId": "406192544",
    "businessName": "PURE SOUL HOSPICE, INC.",
    "contactEmail": "PURESOULHOSPICE@GMAIL.COM",
    "categoryName": "HOSPICE",
    "categoryCode": "HOSPICE",
    "licenseStatus": "ACTIVE",
    "inService": true,
    "licenseNumber": "550005383",
    "licenseEffectiveDate": "03/13/2024",
    "licenseExpirationDate": "03/12/2026",
    "dataDate": "10/18/2025",
    "capacity": 0,
    "address": "10700 BURBANK BLVD, UNIT 5",
    "city": "NORTH HOLLYWOOD",
    "zip": "91601",
    "county": "LOS ANGELES",
    "phone": "(818) 452-9151",
    "lat": 34.171983,
    "lng": -118.364004
  },
  {
    "id": "630015025",
    "name": "RELIABLE COMFORT AND CARE HOSPICE, INC.",
    "npi": null,
    "hcaiId": "406198517",
    "businessName": "RELIABLE COMFORT AND CARE HOSPICE, INC.",
    "contactEmail": "RCACHOSPICE@GMAIL.COM",
    "categoryName": "HOSPICE",
    "categoryCode": "HOSPICE",
    "licenseStatus": "ACTIVE",
    "inService": true,
    "licenseNumber": "550003285",
    "licenseEffectiveDate": "11/12/2023",
    "licenseExpirationDate": "11/11/2025",
    "dataDate": "10/18/2025",
    "capacity": 0,
    "address": "10523 BURBANK BLVD, SUITE 218",
    "city": "NORTH HOLLYWOOD",
    "zip": "91601",
    "county": "LOS ANGELES",
    "phone": "(818) 319-3939",
    "lat": 34.172334,
    "lng": -118.360188
  },
  {
    "id": "630023859",
    "name": "RELIABLE HOME HEALTH SERVICES, INC.",
    "npi": null,
    "hcaiId": "406195451",
    "businessName": "RELIABLE HOME HEALTH SERVICES, INC.",
    "contactEmail": "RELIABLE.8773@YAHOO.COM",
    "categoryName": "HOME HEALTH AGENCY",
    "categoryCode": "HHA",
    "licenseStatus": "ACTIVE",
    "inService": true,
    "licenseNumber": "550008124",
    "licenseEffectiveDate": "08/02/2025",
    "licenseExpirationDate": "08/01/2026",
    "dataDate": "10/18/2025",
    "capacity": 0,
    "address": "5250 LANKERSHIM BLVD, SUITE 500",
    "city": "NORTH HOLLYWOOD",
    "zip": "91601",
    "county": "LOS ANGELES",
    "phone": "(818) 518-9690",
    "lat": 34.16670294,
    "lng": -118.3751047
  },
  {
    "id": "630016474",
    "name": "REVIVE HOME HEALTH AGENCY, INC.",
    "npi": null,
    "hcaiId": "406190813",
    "businessName": "REVIVE HOME HEALTH AGENCY, INC.",
    "contactEmail": "INFO@REVIVEHOMEHEALTH.COM",
    "categoryName": "HOME HEALTH AGENCY",
    "categoryCode": "HHA",
    "licenseStatus": "ACTIVE",
    "inService": true,
    "licenseNumber": "550004215",
    "licenseEffectiveDate": "04/02/2024",
    "licenseExpirationDate": "04/01/2025",
    "dataDate": "10/18/2025",
    "capacity": 0,
    "address": "11484 BURBANK BLVD.",
    "city": "NORTH HOLLYWOOD",
    "zip": "91601",
    "county": "LOS ANGELES",
    "phone": "(818) 358-4349",
    "lat": 34.171866,
    "lng": -118.3818105
  },
  {
    "id": "630024809",
    "name": "ROCKWELL CARE INC",
    "npi": null,
    "hcaiId": "406197431",
    "businessName": "ROCKWELL CARE INC",
    "contactEmail": "ROCKWELLCAREINC@GMAIL.COM",
    "categoryName": "HOME HEALTH AGENCY",
    "categoryCode": "HHA",
    "licenseStatus": "ACTIVE",
    "inService": true,
    "licenseNumber": "550008545",
    "licenseEffectiveDate": "11/25/2023",
    "licenseExpirationDate": "05/24/2024",
    "dataDate": "10/18/2025",
    "capacity": 0,
    "address": "5503 CAHUENGA BLVD, SUITE 202",
    "city": "NORTH HOLLYWOOD",
    "zip": "91601",
    "county": "LOS ANGELES",
    "phone": "(818) 821-9276",
    "lat": 34.170147,
    "lng": -118.3619115
  },
  {
    "id": "630025150",
    "name": "ROYAL HHC",
    "npi": null,
    "hcaiId": "406197264",
    "businessName": "ROYAL HHC",
    "contactEmail": "ROYALHHC1@GMAIL.COM",
    "categoryName": "HOME HEALTH AGENCY",
    "categoryCode": "HHA",
    "licenseStatus": "ACTIVE",
    "inService": true,
    "licenseNumber": "550008556",
    "licenseEffectiveDate": "04/14/2025",
    "licenseExpirationDate": "04/13/2026",
    "dataDate": "10/18/2025",
    "capacity": 0,
    "address": "11240 MAGNOLIA BLVD, SUITE 201",
    "city": "NORTH HOLLYWOOD",
    "zip": "91601",
    "county": "LOS ANGELES",
    "phone": "(747) 333-6108",
    "lat": 34.164756,
    "lng": -118.376046
  },
  {
    "id": "630018880",
    "name": "SAMA HOSPICE, INC.",
    "npi": null,
    "hcaiId": "406191835",
    "businessName": "SAMA HOSPICE, INC.",
    "contactEmail": "SAMAHOSPICE@GMAIL.COM",
    "categoryName": "HOSPICE",
    "categoryCode": "HOSPICE",
    "licenseStatus": "ACTIVE",
    "inService": true,
    "licenseNumber": "550004902",
    "licenseEffectiveDate": "08/21/2023",
    "licenseExpirationDate": "08/20/2025",
    "dataDate": "10/18/2025",
    "capacity": 0,
    "address": "10545 BURBANK BLVD, SUITE 120",
    "city": "NORTH HOLLYWOOD",
    "zip": "91601",
    "county": "LOS ANGELES",
    "phone": "(818) 579-4128",
    "lat": 34.172298,
    "lng": -118.360845
  },
  {
    "id": "630012774",
    "name": "SANTA YEKATERINA HOSPICE, INC.",
    "npi": "1811200553",
    "hcaiId": "406197539",
    "businessName": "SANTA YEKATERINA HOSPICE, INC",
    "contactEmail": "SYHOSPICE@YAHOO.COM",
    "categoryName": "HOSPICE",
    "categoryCode": "HOSPICE",
    "licenseStatus": "ACTIVE",
    "inService": true,
    "licenseNumber": "550001494",
    "licenseEffectiveDate": "01/20/2025",
    "licenseExpirationDate": "01/19/2027",
    "dataDate": "10/18/2025",
    "capacity": 0,
    "address": "5958 VINELAND AVE, SUITE J",
    "city": "NORTH HOLLYWOOD",
    "zip": "91601",
    "county": "LOS ANGELES",
    "phone": "(818) 623-8888",
    "lat": 34.179201,
    "lng": -118.370106
  },
  {
    "id": "630027292",
    "name": "SATURN HOME HEALTH CARE, INC.",
    "npi": null,
    "hcaiId": null,
    "businessName": "SATURN HOME HEALTH CARE, INC.",
    "contactEmail": "SATURNHOMEHEALTHCARE@GMAIL.COM",
    "categoryName": "HOME HEALTH AGENCY",
    "categoryCode": "HHA",
    "licenseStatus": "ACTIVE",
    "inService": true,
    "licenseNumber": "550009761",
    "licenseEffectiveDate": "09/28/2025",
    "licenseExpirationDate": "03/27/2026",
    "dataDate": "10/18/2025",
    "capacity": 0,
    "address": "10545 BURBANK BLVD, SUITE 101",
    "city": "NORTH HOLLYWOOD",
    "zip": "91601",
    "county": "LOS ANGELES",
    "phone": "(818) 669-3326",
    "lat": 34.17242602,
    "lng": -118.360833
  },
  {
    "id": "630027082",
    "name": "SECURE HOME HEALTH CARE, INC.",
    "npi": null,
    "hcaiId": null,
    "businessName": "SECURE HOME HEALTH CARE, INC.",
    "contactEmail": "SECUREHOMEHEALTH23@GMAIL.COM",
    "categoryName": "HOME HEALTH AGENCY",
    "categoryCode": "HHA",
    "licenseStatus": "ACTIVE",
    "inService": true,
    "licenseNumber": "550009461",
    "licenseEffectiveDate": "03/13/2025",
    "licenseExpirationDate": "09/12/2025",
    "dataDate": "10/18/2025",
    "capacity": 0,
    "address": "10545 BURBANK BLVD, SUITE 123",
    "city": "NORTH HOLLYWOOD",
    "zip": "91601",
    "county": "LOS ANGELES",
    "phone": "(747) 946-6010",
    "lat": 34.17242602,
    "lng": -118.360833
  },
  {
    "id": "630026108",
    "name": "SHINING GRACE HOME HEALTH INC.",
    "npi": null,
    "hcaiId": null,
    "businessName": "SHINING GRACE HOME HEALTH INC.",
    "contactEmail": "SHININGGRACEHOME@GMAIL.COM",
    "categoryName": "HOME HEALTH AGENCY",
    "categoryCode": "HHA",
    "licenseStatus": "ACTIVE",
    "inService": true,
    "licenseNumber": "550009806",
    "licenseEffectiveDate": "09/29/2025",
    "licenseExpirationDate": "03/28/2026",
    "dataDate": "10/18/2025",
    "capacity": 0,
    "address": "10545 BURBANK BLVD, SUITE 141",
    "city": "NORTH HOLLYWOOD",
    "zip": "91601",
    "county": "LOS ANGELES",
    "phone": "(323) 847-2527",
    "lat": 34.172298,
    "lng": -118.360845
  },
  {
    "id": "630016174",
    "name": "SIMPLICITY CARE, INC.",
    "npi": "1134506421",
    "hcaiId": "406198356",
    "businessName": "SIMPLICITY CARE, INC.",
    "contactEmail": "SIMPLICITY_CARE@YAHOO.COM",
    "categoryName": "HOSPICE",
    "categoryCode": "HOSPICE",
    "licenseStatus": "ACTIVE",
    "inService": true,
    "licenseNumber": "550003578",
    "licenseEffectiveDate": "06/28/2020",
    "licenseExpirationDate": "06/27/2022",
    "dataDate": "10/18/2025",
    "capacity": 0,
    "address": "10523 BURBANK BLVD., SUITE 111",
    "city": "NORTH HOLLYWOOD",
    "zip": "91601",
    "county": "LOS ANGELES",
    "phone": "(818) 697-4504",
    "lat": 34.172334,
    "lng": -118.360188
  },
  {
    "id": "630014313",
    "name": "STAR HOME HEALTH",
    "npi": "1396082004",
    "hcaiId": "406197985",
    "businessName": "STAR CENTER GROUP, INC.",
    "contactEmail": "STARCENTERGROUP@YAHOO.COM",
    "categoryName": "HOME HEALTH AGENCY",
    "categoryCode": "HHA",
    "licenseStatus": "ACTIVE",
    "inService": true,
    "licenseNumber": "550002723",
    "licenseEffectiveDate": "05/02/2025",
    "licenseExpirationDate": "05/01/2026",
    "dataDate": "10/18/2025",
    "capacity": 0,
    "address": "5958 VINELAND AVE, SUITE K",
    "city": "NORTH HOLLYWOOD",
    "zip": "91601",
    "county": "LOS ANGELES",
    "phone": "(818) 821-6854",
    "lat": 34.179201,
    "lng": -118.370106
  },
  {
    "id": "630015678",
    "name": "THRIVE HOME HEALTH INC.",
    "npi": "1598169864",
    "hcaiId": "406198301",
    "businessName": "THRIVE HOME HEALTH INC.",
    "contactEmail": "THRIVEHOMEHEALTH@HOTMAIL.COM",
    "categoryName": "HOME HEALTH AGENCY",
    "categoryCode": "HHA",
    "licenseStatus": "ACTIVE",
    "inService": true,
    "licenseNumber": "550003428",
    "licenseEffectiveDate": "02/25/2025",
    "licenseExpirationDate": "02/24/2026",
    "dataDate": "10/18/2025",
    "capacity": 0,
    "address": "10523 BURBANK BLVD., SUITE 202",
    "city": "NORTH HOLLYWOOD",
    "zip": "91601",
    "county": "LOS ANGELES",
    "phone": "(818) 853-7285",
    "lat": 34.172334,
    "lng": -118.360188
  },
  {
    "id": "630019029",
    "name": "THRONE HOSPICE, INC.",
    "npi": null,
    "hcaiId": "406192542",
    "businessName": "THRONE HOSPICE, INC.",
    "contactEmail": "THRONEHOSPICE@YAHOO.COM",
    "categoryName": "HOSPICE",
    "categoryCode": "HOSPICE",
    "licenseStatus": "ACTIVE",
    "inService": true,
    "licenseNumber": "550005471",
    "licenseEffectiveDate": "05/08/2024",
    "licenseExpirationDate": "05/07/2026",
    "dataDate": "10/18/2025",
    "capacity": 0,
    "address": "10545 BURBANK BLVD, SUITE 129",
    "city": "NORTH HOLLYWOOD",
    "zip": "91601",
    "county": "LOS ANGELES",
    "phone": "(818) 452-9705",
    "lat": 34.172298,
    "lng": -118.360845
  },
  {
    "id": "630019144",
    "name": "V & H HOSPICE CARE, INC.",
    "npi": "1932757143",
    "hcaiId": "406192547",
    "businessName": "V & H HOSPICE CARE, INC.",
    "contactEmail": "VHHOSPICECARE@GMAIL.COM",
    "categoryName": "HOSPICE",
    "categoryCode": "HOSPICE",
    "licenseStatus": "ACTIVE",
    "inService": true,
    "licenseNumber": "550005488",
    "licenseEffectiveDate": "05/15/2022",
    "licenseExpirationDate": "05/14/2024",
    "dataDate": "10/18/2025",
    "capacity": 0,
    "address": "10545 BURBANK BLVD, SUITE 100",
    "city": "NORTH HOLLYWOOD",
    "zip": "91601",
    "county": "LOS ANGELES",
    "phone": "(818) 747-2747",
    "lat": 34.172298,
    "lng": -118.360845
  },
  {
    "id": "060001853",
    "name": "VINELAND ADULT DAY HEALTH CARE CENTER",
    "npi": null,
    "hcaiId": null,
    "businessName": "MEVAGA CORP",
    "contactEmail": "VINELANDADHCCBAS@GMAIL.COM",
    "categoryName": "ADULT DAY HEALTH CARE",
    "categoryCode": "ADHC",
    "licenseStatus": "ACTIVE",
    "inService": true,
    "licenseNumber": "060000670",
    "licenseEffectiveDate": "06/15/2025",
    "licenseExpirationDate": "06/14/2026",
    "dataDate": "10/18/2025",
    "capacity": 0,
    "address": "5629 VINELAND AVE",
    "city": "NORTH HOLLYWOOD",
    "zip": "91601",
    "county": "LOS ANGELES",
    "phone": "(818) 753-0714",
    "lat": 34.173117,
    "lng": -118.3706595
  },
  {
    "id": "630020522",
    "name": "VISITING ANGELS HOSPICE CARE, INC.",
    "npi": null,
    "hcaiId": "406196203",
    "businessName": "VISITING ANGELS HOSPICE CARE, INC.",
    "contactEmail": "VISITINGANGELSHSP@GMAIL.COM",
    "categoryName": "HOSPICE",
    "categoryCode": "HOSPICE",
    "licenseStatus": "ACTIVE",
    "inService": true,
    "licenseNumber": "550006062",
    "licenseEffectiveDate": "02/18/2025",
    "licenseExpirationDate": "02/17/2027",
    "dataDate": "10/18/2025",
    "capacity": 0,
    "address": "5958 VINELAND AVE, UNIT L-1",
    "city": "NORTH HOLLYWOOD",
    "zip": "91601",
    "county": "LOS ANGELES",
    "phone": "(818) 821-3604",
    "lat": 34.179201,
    "lng": -118.370106
  },
  {
    "id": "630020370",
    "name": "VITALITY FIRST HOME HEALTH CARE",
    "npi": null,
    "hcaiId": "406193681",
    "businessName": "VITALITY FIRST HOME HEALTH CARE",
    "contactEmail": "VITALITYFIRSTHHC@GMAIL.COM",
    "categoryName": "HOME HEALTH AGENCY",
    "categoryCode": "HHA",
    "licenseStatus": "ACTIVE",
    "inService": true,
    "licenseNumber": "550007475",
    "licenseEffectiveDate": "12/02/2024",
    "licenseExpirationDate": "12/01/2025",
    "dataDate": "10/18/2025",
    "capacity": 0,
    "address": "5250 LANKERSHIM BLVD, SUITE 540",
    "city": "NORTH HOLLYWOOD",
    "zip": "91601",
    "county": "LOS ANGELES",
    "phone": "(818) 213-3970",
    "lat": 34.16622704,
    "lng": -118.3753715
  },
  {
    "id": "630020581",
    "name": "Y&B HOSPICE CARE, INC.",
    "npi": null,
    "hcaiId": "406195726",
    "businessName": "Y&B HOSPICE CARE, INC.",
    "contactEmail": "YBHOSPICE@YAHOO.COM",
    "categoryName": "HOSPICE",
    "categoryCode": "HOSPICE",
    "licenseStatus": "ACTIVE",
    "inService": true,
    "licenseNumber": "550007697",
    "licenseEffectiveDate": "12/16/2023",
    "licenseExpirationDate": "12/15/2025",
    "dataDate": "10/18/2025",
    "capacity": 0,
    "address": "10523 BURBANK BLVD, SUITE 100",
    "city": "NORTH HOLLYWOOD",
    "zip": "91601",
    "county": "LOS ANGELES",
    "phone": "(747) 265-3545",
    "lat": 34.172334,
    "lng": -118.360188
  }
]