[
  {
    "id": "630024148",
    "name": "A & G HOME HEALTH, INC",
    "npi": null,
    "hcaiId": "406195881",
    "businessName": "A & G HOME HEALTH, INC",
    "contactEmail": "AGHEALTHCARE99@GMAIL.COM",
    "categoryName": "HOME HEALTH AGENCY",
    "categoryCode": "HHA",
    "licenseStatus": "ACTIVE",
    "inService": true,
    "licenseNumber": "550008054",
    "licenseEffectiveDate": "06/27/2025",
    "licenseExpirationDate": "06/26/2026",
    "dataDate": "10/18/2025",
    "capacity": 0,
    "address": "11712 MOORPARK ST, SUITE 110",
    "city": "STUDIO CITY",
    "zip": "91604",
    "county": "LOS ANGELES",
    "phone": "(747) 477-2149",
    "lat": 34.150212,
    "lng": -118.3881645
  },
  {
    "id": "630024144",
    "name": "A & L HOME HEALTHCARE SERVICES, INC.",
    "npi": null,
    "hcaiId": null,
    "businessName": "A & L HOME HEALTHCARE SERVICES, INC.",
    "contactEmail": "ALHOMEHEALTH1@GMAIL.COM",
    "categoryName": "HOME HEALTH AGENCY",
    "categoryCode": "HHA",
    "licenseStatus": "ACTIVE",
    "inService": true,
    "licenseNumber": "550008272",
    "licenseEffectiveDate": "12/12/2022",
    "licenseExpirationDate": "06/11/2023",
    "dataDate": "10/18/2025",
    "capacity": 0,
    "address": "11712 MOORPARK ST, SUITE 110B",
    "city": "STUDIO CITY",
    "zip": "91604",
    "county": "LOS ANGELES",
    "phone": "(747) 345-4415",
    "lat": 34.150212,
    "lng": -118.3881645
  },
  {
    "id": "630024433",
    "name": "ADVANTAGEOUS HOME HEALTH CARE, INC.",
    "npi": null,
    "hcaiId": "406195962",
    "businessName": "ADVANTAGEOUS HOME HEALTH CARE, INC.",
    "contactEmail": "ADVANTAGEOUSHHC@GMAIL.COM",
    "categoryName": "HOME HEALTH AGENCY",
    "categoryCode": "HHA",
    "licenseStatus": "ACTIVE",
    "inService": true,
    "licenseNumber": "550008211",
    "licenseEffectiveDate": "10/20/2025",
    "licenseExpirationDate": "10/19/2026",
    "dataDate": "10/18/2025",
    "capacity": 0,
    "address": "11350 VENTURA BLVD, SUITE 203",
    "city": "STUDIO CITY",
    "zip": "91604",
    "county": "LOS ANGELES",
    "phone": "(747) 300-0823",
    "lat": 34.140006,
    "lng": -118.3775085
  },
  {
    "id": "630025100",
    "name": "CARING KIND HOME HEALTH CARE, INC.",
    "npi": null,
    "hcaiId": null,
    "businessName": "CARING KIND HOME HEALTH CARE, INC.",
    "contactEmail": "CARINGKIND.HHC@GMAIL.COM",
    "categoryName": "HOME HEALTH AGENCY",
    "categoryCode": "HHA",
    "licenseStatus": "ACTIVE",
    "inService": true,
    "licenseNumber": "550008307",
    "licenseEffectiveDate": "01/03/2025",
    "licenseExpirationDate": "12/27/2025",
    "dataDate": "10/18/2025",
    "capacity": 0,
    "address": "11712 MOORPARK ST, SUITE 205B",
    "city": "STUDIO CITY",
    "zip": "91604",
    "county": "LOS ANGELES",
    "phone": "(747) 800-0012",
    "lat": 34.149974,
    "lng": -118.3882562
  },
  {
    "id": "630021755",
    "name": "CLEAR PATH HOSPICE & PALLIATIVE CARE, INC.",
    "npi": null,
    "hcaiId": "406193877",
    "businessName": "CLEAR PATH HOSPICE & PALLIATIVE CARE, INC.",
    "contactEmail": "CLEARPATHHPC@GMAIL.COM",
    "categoryName": "HOSPICE",
    "categoryCode": "HOSPICE",
    "licenseStatus": "ACTIVE",
    "inService": true,
    "licenseNumber": "550007360",
    "licenseEffectiveDate": "07/25/2024",
    "licenseExpirationDate": "11/30/2025",
    "dataDate": "10/18/2025",
    "capacity": 0,
    "address": "4400 COLDWATER CANYON AVE, SUITE 355, UNIT B",
    "city": "STUDIO CITY",
    "zip": "91604",
    "county": "LOS ANGELES",
    "phone": "(747) 233-9222",
    "lat": 34.15063399,
    "lng": -118.413473
  },
  {
    "id": "630025180",
    "name": "CONSISTENT CARE HOME HEALTH",
    "npi": null,
    "hcaiId": "406196152",
    "businessName": "CONSISTENT CARE HOME HEALTH",
    "contactEmail": "CONSISTENTCAREHH@GMAIL.COM",
    "categoryName": "HOME HEALTH AGENCY",
    "categoryCode": "HHA",
    "licenseStatus": "ACTIVE",
    "inService": true,
    "licenseNumber": "550008208",
    "licenseEffectiveDate": "10/28/2025",
    "licenseExpirationDate": "10/27/2026",
    "dataDate": "10/18/2025",
    "capacity": 0,
    "address": "4419 COLDWATER CANYON AVE, UNIT J",
    "city": "STUDIO CITY",
    "zip": "91604",
    "county": "LOS ANGELES",
    "phone": "(800) 484-7173",
    "lat": 34.15095,
    "lng": -118.4141295
  },
  {
    "id": "630020526",
    "name": "DAY & NIGHT HOSPICE CARE, INC.",
    "npi": null,
    "hcaiId": "406193373",
    "businessName": "DAY & NIGHT HOSPICE CARE INC",
    "contactEmail": "DAYNIGHTHOSPICE@GMAIL.COM",
    "categoryName": "HOSPICE",
    "categoryCode": "HOSPICE",
    "licenseStatus": "ACTIVE",
    "inService": true,
    "licenseNumber": "550007179",
    "licenseEffectiveDate": "11/11/2023",
    "licenseExpirationDate": "11/10/2025",
    "dataDate": "10/18/2025",
    "capacity": 0,
    "address": "11485 VENTURA BLVD, UNIT B",
    "city": "STUDIO CITY",
    "zip": "91604",
    "county": "LOS ANGELES",
    "phone": "(323) 677-5533",
    "lat": 34.139817,
    "lng": -118.381635
  },
  {
    "id": "630025844",
    "name": "FIRST CHOICE HOME CARE, INC",
    "npi": null,
    "hcaiId": "406190202",
    "businessName": "FIRST CHOICE HOME CARE, INC",
    "contactEmail": "FIRSTCHOICEHHC2@GMAIL.COM",
    "categoryName": "HOME HEALTH AGENCY",
    "categoryCode": "HHA",
    "licenseStatus": "ACTIVE",
    "inService": true,
    "licenseNumber": "550008941",
    "licenseEffectiveDate": "12/20/2024",
    "licenseExpirationDate": "12/19/2025",
    "dataDate": "10/18/2025",
    "capacity": 0,
    "address": "11360 VENTURA BLVD, SUITE A",
    "city": "STUDIO CITY",
    "zip": "91604",
    "county": "LOS ANGELES",
    "phone": "(747) 282-0050",
    "lat": 34.139952,
    "lng": -118.3778775
  },
  {
    "id": "630026807",
    "name": "HGP HOME HEALTH CARE INC.",
    "npi": null,
    "hcaiId": null,
    "businessName": "HGP HOME HEALTH CARE INC.",
    "contactEmail": "HGPHOMEHEALTH@GMAIL.COM",
    "categoryName": "HOME HEALTH AGENCY",
    "categoryCode": "HHA",
    "licenseStatus": "ACTIVE",
    "inService": true,
    "licenseNumber": "550009175",
    "licenseEffectiveDate": "05/31/2025",
    "licenseExpirationDate": "05/30/2026",
    "dataDate": "10/18/2025",
    "capacity": 0,
    "address": "11360 VENTURA BLVD, SUITE D",
    "city": "STUDIO CITY",
    "zip": "91604",
    "county": "LOS ANGELES",
    "phone": "(747) 799-0065",
    "lat": 34.139952,
    "lng": -118.3778775
  },
  {
    "id": "630025787",
    "name": "HWY TO HOME HEALTH INC",
    "npi": null,
    "hcaiId": null,
    "businessName": "HWY TO HOME HEALTH INC",
    "contactEmail": null,
    "categoryName": "HOME HEALTH AGENCY",
    "categoryCode": "HHA",
    "licenseStatus": "ACTIVE",
    "inService": true,
    "licenseNumber": "550009267",
    "licenseEffectiveDate": "07/15/2025",
    "licenseExpirationDate": "07/14/2026",
    "dataDate": "10/18/2025",
    "capacity": 0,
    "address": "10700 VENTURA BLVD, UNIT C-1",
    "city": "STUDIO CITY",
    "zip": "91604",
    "county": "LOS ANGELES",
    "phone": "(747) 262-7973",
    "lat": 34.138053,
    "lng": -118.3645845
  },
  {
    "id": "920000078",
    "name": "IMPERIAL CARE CENTER",
    "npi": "1265502405",
    "hcaiId": "206190405",
    "businessName": "ICC CONVALESCENT LLC",
    "contactEmail": "FAC47@LONGWOODMGMT.COM",
    "categoryName": "SKILLED NURSING FACILITY",
    "categoryCode": "SNF",
    "licenseStatus": "ACTIVE",
    "inService": true,
    "licenseNumber": "920000042",
    "licenseEffectiveDate": "02/10/2025",
    "licenseExpirationDate": "02/09/2026",
    "dataDate": "10/18/2025",
    "capacity": 130,
    "address": "11441 VENTURA BLVD",
    "city": "STUDIO CITY",
    "zip": "91604",
    "county": "LOS ANGELES",
    "phone": "(323) 877-7027",
    "lat": 34.139979,
    "lng": -118.3803075
  },
  {
    "id": "630026036",
    "name": "L&L HOME HEALTH CARE",
    "npi": null,
    "hcaiId": null,
    "businessName": "L&L HOME HEALTH CARE",
    "contactEmail": "LLHOMEHEALTHCARE05@GMAIL.COM",
    "categoryName": "HOME HEALTH AGENCY",
    "categoryCode": "HHA",
    "licenseStatus": "ACTIVE",
    "inService": true,
    "licenseNumber": "550009316",
    "licenseEffectiveDate": "08/22/2025",
    "licenseExpirationDate": "08/21/2026",
    "dataDate": "10/18/2025",
    "capacity": 0,
    "address": "11360 VENTURA BLVD, SUITE B",
    "city": "STUDIO CITY",
    "zip": "91604",
    "county": "LOS ANGELES",
    "phone": "(747) 204-0030",
    "lat": 34.139952,
    "lng": -118.3778775
  },
  {
    "id": "630018966",
    "name": "LIFE & LOVE HOSPICE CARE GROUP",
    "npi": "1780242081",
    "hcaiId": "406192071",
    "businessName": "LIFE & LOVE HOSPICE CARE GROUP",
    "contactEmail": "LIFEANDLOVEHOSPICE@GMAIL.COM",
    "categoryName": "HOSPICE",
    "categoryCode": "HOSPICE",
    "licenseStatus": "ACTIVE",
    "inService": true,
    "licenseNumber": "550005114",
    "licenseEffectiveDate": "11/18/2023",
    "licenseExpirationDate": "11/17/2025",
    "dataDate": "10/18/2025",
    "capacity": 0,
    "address": "11331 VENTURA BLVD, SUITE 305",
    "city": "STUDIO CITY",
    "zip": "91604",
    "county": "LOS ANGELES",
    "phone": "(818) 821-3340",
    "lat": 34.1406,
    "lng": -118.377189
  },
  {
    "id": "630021132",
    "name": "LIFETIME HOME HEALTH CARE SERVICES, INC.",
    "npi": null,
    "hcaiId": "406195688",
    "businessName": "LIFETIME HOME HEALTH CARE SERVICES, INC.",
    "contactEmail": "LIFETIMEHOMEHEALTHSERVICES@GMAIL.COM",
    "categoryName": "HOME HEALTH AGENCY",
    "categoryCode": "HHA",
    "licenseStatus": "ACTIVE",
    "inService": true,
    "licenseNumber": "550006562",
    "licenseEffectiveDate": "07/21/2025",
    "licenseExpirationDate": "07/20/2026",
    "dataDate": "10/18/2025",
    "capacity": 0,
    "address": "11350 VENTURA BLVD, UNIT 201",
    "city": "STUDIO CITY",
    "zip": "91604",
    "county": "LOS ANGELES",
    "phone": "(818) 738-9315",
    "lat": 34.139925,
    "lng": -118.37745
  },
  {
    "id": "630025597",
    "name": "MAVI HOME HEALTH",
    "npi": null,
    "hcaiId": null,
    "businessName": "MAVI HOME HEALTH",
    "contactEmail": "MAVIHOMEHEALTH@GMAIL.COM",
    "categoryName": "HOME HEALTH AGENCY",
    "categoryCode": "HHA",
    "licenseStatus": "ACTIVE",
    "inService": true,
    "licenseNumber": "550009352",
    "licenseEffectiveDate": "01/08/2025",
    "licenseExpirationDate": "07/07/2025",
    "dataDate": "10/18/2025",
    "capacity": 0,
    "address": "10700 VENTURA BLVD, #B",
    "city": "STUDIO CITY",
    "zip": "91604",
    "county": "LOS ANGELES",
    "phone": "(818) 650-2225",
    "lat": 34.138053,
    "lng": -118.3645845
  },
  {
    "id": "630018982",
    "name": "MEDPROF HOME HEALTH CARE, INC.",
    "npi": "1770141889",
    "hcaiId": "406192493",
    "businessName": "MEDPROF HOME HEALTH CARE, INC.",
    "contactEmail": "MEDPROFINC@GMAIL.COM",
    "categoryName": "HOME HEALTH AGENCY",
    "categoryCode": "HHA",
    "licenseStatus": "ACTIVE",
    "inService": true,
    "licenseNumber": "550005280",
    "licenseEffectiveDate": "02/12/2025",
    "licenseExpirationDate": "02/11/2026",
    "dataDate": "10/18/2025",
    "capacity": 0,
    "address": "11712 MOORPARK ST, SUITE 203",
    "city": "STUDIO CITY",
    "zip": "91604",
    "county": "LOS ANGELES",
    "phone": "(818) 646-0143",
    "lat": 34.149988,
    "lng": -118.388252
  },
  {
    "id": "630025230",
    "name": "NEW CENTURY HOME HEALTH CARE INC.",
    "npi": null,
    "hcaiId": "406197886",
    "businessName": "NEW CENTURY HOME HEALTH CARE INC.",
    "contactEmail": "NEWCENTURYHHC@GMAIL.COM",
    "categoryName": "HOME HEALTH AGENCY",
    "categoryCode": "HHA",
    "licenseStatus": "ACTIVE",
    "inService": true,
    "licenseNumber": "550008359",
    "licenseEffectiveDate": "01/16/2025",
    "licenseExpirationDate": "01/15/2026",
    "dataDate": "10/18/2025",
    "capacity": 0,
    "address": "11908 VENTURA BLVD, SUITE 202",
    "city": "STUDIO CITY",
    "zip": "91604",
    "county": "LOS ANGELES",
    "phone": "(818) 821-1550",
    "lat": 34.14267,
    "lng": -118.391139
  },
  {
    "id": "630026855",
    "name": "OAK MOUNTAIN HOME HEALTH INC",
    "npi": null,
    "hcaiId": null,
    "businessName": "OAK MOUNTAIN HOME HEALTH INC",
    "contactEmail": "OAKMOUNTAINHOMEHEALTH@GMAIL.COM",
    "categoryName": "HOME HEALTH AGENCY",
    "categoryCode": "HHA",
    "licenseStatus": "ACTIVE",
    "inService": true,
    "licenseNumber": "550009306",
    "licenseEffectiveDate": "08/21/2025",
    "licenseExpirationDate": "08/20/2026",
    "dataDate": "10/18/2025",
    "capacity": 0,
    "address": "4400 COLDWATER CANYON AVE, SUITE 355",
    "city": "STUDIO CITY",
    "zip": "91604",
    "county": "LOS ANGELES",
    "phone": "(747) 207-2223",
    "lat": 34.150608,
    "lng": -118.413585
  },
  {
    "id": "630020360",
    "name": "OMNI HOSPICE SERVICES",
    "npi": null,
    "hcaiId": "406194806",
    "businessName": "OMNI HOSPICE SERVICES",
    "contactEmail": "OMNIHOSPICE@GMAIL.COM",
    "categoryName": "HOSPICE",
    "categoryCode": "HOSPICE",
    "licenseStatus": "ACTIVE",
    "inService": true,
    "licenseNumber": "550005965",
    "licenseEffectiveDate": "01/12/2025",
    "licenseExpirationDate": "01/11/2027",
    "dataDate": "10/18/2025",
    "capacity": 0,
    "address": "12725 VENTURA BLVD, SUITE L",
    "city": "STUDIO CITY",
    "zip": "91604",
    "county": "LOS ANGELES",
    "phone": "(818) 927-4103",
    "lat": 34.14481254,
    "lng": -118.410619
  },
  {
    "id": "630022205",
    "name": "PEACE & HARMONY HOSPICE CARE INC",
    "npi": null,
    "hcaiId": "406193841",
    "businessName": "PEACE & HARMONY HOSPICE CARE INC",
    "contactEmail": "PEACEHARMONYHOSPICECARE@GMAIL.COM",
    "categoryName": "HOSPICE",
    "categoryCode": "HOSPICE",
    "licenseStatus": "ACTIVE",
    "inService": true,
    "licenseNumber": "550007383",
    "licenseEffectiveDate": "12/07/2023",
    "licenseExpirationDate": "12/06/2025",
    "dataDate": "10/18/2025",
    "capacity": 0,
    "address": "11350 VENTURA BLVD, SUITE 101",
    "city": "STUDIO CITY",
    "zip": "91604",
    "county": "LOS ANGELES",
    "phone": "(747) 264-9539",
    "lat": 34.140006,
    "lng": -118.3775085
  },
  {
    "id": "630018856",
    "name": "PRESTIGE HOME HEALTH INC.",
    "npi": null,
    "hcaiId": "406192481",
    "businessName": "PRESTIGE HOME HEALTH INC.",
    "contactEmail": "PRESTIGEHHINCCA@GMAIL.COM",
    "categoryName": "HOME HEALTH AGENCY",
    "categoryCode": "HHA",
    "licenseStatus": "ACTIVE",
    "inService": true,
    "licenseNumber": "550005270",
    "licenseEffectiveDate": "01/30/2025",
    "licenseExpirationDate": "01/29/2026",
    "dataDate": "10/18/2025",
    "capacity": 0,
    "address": "10806 VENTURA BLVD, SUITE 1",
    "city": "STUDIO CITY",
    "zip": "91604",
    "county": "LOS ANGELES",
    "phone": "(323) 400-4443",
    "lat": 34.13860801,
    "lng": -118.366295
  },
  {
    "id": "630021158",
    "name": "S & M HOSPICE, INC.",
    "npi": null,
    "hcaiId": "406193504",
    "businessName": "S & M HOSPICE, INC.",
    "contactEmail": "SMHOSPICE123@GMAIL.COM",
    "categoryName": "HOSPICE",
    "categoryCode": "HOSPICE",
    "licenseStatus": "ACTIVE",
    "inService": true,
    "licenseNumber": "550006691",
    "licenseEffectiveDate": "08/19/2025",
    "licenseExpirationDate": "08/18/2027",
    "dataDate": "10/18/2025",
    "capacity": 0,
    "address": "11712 MOORPARK ST, SUITE 212",
    "city": "STUDIO CITY",
    "zip": "91604",
    "county": "LOS ANGELES",
    "phone": "(747) 267-1151",
    "lat": 34.149978,
    "lng": -118.3882365
  },
  {
    "id": "630026230",
    "name": "SAVIOR HOME HEALTH CARE, INC.",
    "npi": null,
    "hcaiId": null,
    "businessName": "SAVIOR HOME HEALTH CARE, INC.",
    "contactEmail": "SAVIORHHC@GMAIL.COM",
    "categoryName": "HOME HEALTH AGENCY",
    "categoryCode": "HHA",
    "licenseStatus": "ACTIVE",
    "inService": true,
    "licenseNumber": "550009133",
    "licenseEffectiveDate": "05/09/2025",
    "licenseExpirationDate": "05/08/2026",
    "dataDate": "10/18/2025",
    "capacity": 0,
    "address": "11360 VENTURA BLVD, UNIT C",
    "city": "STUDIO CITY",
    "zip": "91604",
    "county": "LOS ANGELES",
    "phone": "(747) 441-1106",
    "lat": 34.139952,
    "lng": -118.3778775
  },
  {
    "id": "630021152",
    "name": "SELECTIVE HOSPICE, INC.",
    "npi": null,
    "hcaiId": "406193141",
    "businessName": "SELECTIVE HOSPICE, INC.",
    "contactEmail": "SELECTIVEHOSPICE@GMAIL.COM",
    "categoryName": "HOSPICE",
    "categoryCode": "HOSPICE",
    "licenseStatus": "ACTIVE",
    "inService": true,
    "licenseNumber": "550006547",
    "licenseEffectiveDate": "07/20/2025",
    "licenseExpirationDate": "07/19/2027",
    "dataDate": "10/18/2025",
    "capacity": 0,
    "address": "11712 MOORPARK ST, SUITE 212B",
    "city": "STUDIO CITY",
    "zip": "91604",
    "county": "LOS ANGELES",
    "phone": "(747) 240-3075",
    "lat": 34.150212,
    "lng": -118.3881645
  },
  {
    "id": "630021284",
    "name": "SIGNATURE HOSPICE, INC.",
    "npi": null,
    "hcaiId": "406193641",
    "businessName": "SIGNATURE HOSPICE, INC.",
    "contactEmail": "SIGNATUREHOSPICEINC@GMAIL.COM",
    "categoryName": "HOSPICE",
    "categoryCode": "HOSPICE",
    "licenseStatus": "ACTIVE",
    "inService": true,
    "licenseNumber": "550006492",
    "licenseEffectiveDate": "07/09/2023",
    "licenseExpirationDate": "07/08/2025",
    "dataDate": "10/18/2025",
    "capacity": 0,
    "address": "11712 MOORPARK ST, SUITE 202B",
    "city": "STUDIO CITY",
    "zip": "91604",
    "county": "LOS ANGELES",
    "phone": "(747) 300-3457",
    "lat": 34.150212,
    "lng": -118.3881645
  },
  {
    "id": "920000075",
    "name": "STUDIO CITY REHABILITATION CENTER",
    "npi": "1821160839",
    "hcaiId": "206190767",
    "businessName": "STUDIO CITY CONVALESCENT HOSPITAL LLC",
    "contactEmail": "FAC06ADMIN@LONGWOODMGMT.COM",
    "categoryName": "SKILLED NURSING FACILITY",
    "categoryCode": "SNF",
    "licenseStatus": "ACTIVE",
    "inService": true,
    "licenseNumber": "920000071",
    "licenseEffectiveDate": "11/01/2025",
    "licenseExpirationDate": "10/31/2026",
    "dataDate": "10/18/2025",
    "capacity": 181,
    "address": "11429 VENTURA BLVD",
    "city": "STUDIO CITY",
    "zip": "91604",
    "county": "LOS ANGELES",
    "phone": "(818) 766-9551",
    "lat": 34.139889,
    "lng": -118.379691
  },
  {
    "id": "630025794",
    "name": "YOUR GOLDEN YEARS HOME HEALTH INC",
    "npi": null,
    "hcaiId": "406190062",
    "businessName": "YOUR GOLDEN YEARS HOME HEALTH INC",
    "contactEmail": "YOURGOLDENYEARSHOMEHEALTH@GMAIL.COM",
    "categoryName": "HOME HEALTH AGENCY",
    "categoryCode": "HHA",
    "licenseStatus": "ACTIVE",
    "inService": true,
    "licenseNumber": "550008889",
    "licenseEffectiveDate": "11/17/2024",
    "licenseExpirationDate": "11/16/2025",
    "dataDate": "10/18/2025",
    "capacity": 0,
    "address": "10700 VENTURA BLVD, UNIT C",
    "city": "STUDIO CITY",
    "zip": "91604",
    "county": "LOS ANGELES",
    "phone": "(747) 264-5627",
    "lat": 34.138053,
    "lng": -118.3645845
  },
  {
    "id": "630019397",
    "name": "ZENTOR HOSPICE, INC.",
    "npi": null,
    "hcaiId": "406192822",
    "businessName": "ZENTOR HOSPICE, INC.",
    "contactEmail": "ZENTORHOSPICE@GMAIL.COM",
    "categoryName": "HOSPICE",
    "categoryCode": "HOSPICE",
    "licenseStatus": "ACTIVE",
    "inService": true,
    "licenseNumber": "550005699",
    "licenseEffectiveDate": "08/27/2024",
    "licenseExpirationDate": "08/26/2026",
    "dataDate": "10/18/2025",
    "capacity": 0,
    "address": "13273 VENTURA BLVD, SUITE 210",
    "city": "STUDIO CITY",
    "zip": "91604",
    "county": "LOS ANGELES",
    "phone": "(424) 292-5111",
    "lat": 34.14682002,
    "lng": -118.422094
  }
]