[
  {
    "id": "630018557",
    "name": "A NEW HOPE HOME HEALTH CARE INC",
    "npi": null,
    "hcaiId": "406191979",
    "businessName": "A NEW HOPE HOME HEALTH CARE INC.",
    "contactEmail": "ANEWHOPEHH1@GMAIL.COM",
    "categoryName": "HOME HEALTH AGENCY",
    "categoryCode": "HHA",
    "licenseStatus": "ACTIVE",
    "inService": true,
    "licenseNumber": "550004990",
    "licenseEffectiveDate": "09/28/2025",
    "licenseExpirationDate": "09/27/2026",
    "dataDate": "10/18/2025",
    "capacity": 0,
    "address": "12444 VICTORY BLVD, UNIT 501",
    "city": "NORTH HOLLYWOOD",
    "zip": "91606",
    "county": "LOS ANGELES",
    "phone": "(818) 824-3415",
    "lat": 34.186446,
    "lng": -118.40454
  },
  {
    "id": "630016081",
    "name": "A&G HOME HEALTH CARE, INC.",
    "npi": "1326427436",
    "hcaiId": "406190365",
    "businessName": "A&G HOME HEALTH CARE, INC.",
    "contactEmail": "A_GHOMEHEALTH@YAHOO.COM",
    "categoryName": "HOME HEALTH AGENCY",
    "categoryCode": "HHA",
    "licenseStatus": "ACTIVE",
    "inService": true,
    "licenseNumber": "550004118",
    "licenseEffectiveDate": "12/15/2024",
    "licenseExpirationDate": "12/14/2025",
    "dataDate": "10/18/2025",
    "capacity": 0,
    "address": "6005 VINELAND AVENUE, SUITE 206",
    "city": "NORTH HOLLYWOOD",
    "zip": "91606",
    "county": "LOS ANGELES",
    "phone": "(818) 761-1702",
    "lat": 34.179912,
    "lng": -118.3705515
  },
  {
    "id": "630012475",
    "name": "A-BIZ HEALTH SYSTEMS",
    "npi": "1497998553",
    "hcaiId": "406198323",
    "businessName": "A-BIZ, INC.",
    "contactEmail": "INFO@ABIZHEALTH.COM",
    "categoryName": "HOME HEALTH AGENCY",
    "categoryCode": "HHA",
    "licenseStatus": "ACTIVE",
    "inService": true,
    "licenseNumber": "550001367",
    "licenseEffectiveDate": "06/26/2025",
    "licenseExpirationDate": "06/25/2026",
    "dataDate": "10/18/2025",
    "capacity": 0,
    "address": "11631 VICTORY BLVD, SUITE 100",
    "city": "NORTH HOLLYWOOD",
    "zip": "91606",
    "county": "LOS ANGELES",
    "phone": "(818) 654-6874",
    "lat": 34.18726199,
    "lng": -118.38571
  },
  {
    "id": "630027353",
    "name": "AAA DENTAL",
    "npi": "1396067500",
    "hcaiId": null,
    "businessName": "AAA COMPREHENSIVE HEALTHCARE, INC.",
    "contactEmail": null,
    "categoryName": "PRIMARY CARE CLINIC",
    "categoryCode": "COMTYC",
    "licenseStatus": "ACTIVE",
    "inService": true,
    "licenseNumber": "550001275",
    "licenseEffectiveDate": "04/30/2025",
    "licenseExpirationDate": "04/29/2026",
    "dataDate": "10/18/2025",
    "capacity": 0,
    "address": "6058 LANKERSHIM BLVD, BUILDING 65",
    "city": "NORTH HOLLYWOOD",
    "zip": "91606",
    "county": "LOS ANGELES",
    "phone": null,
    "lat": 34.18119894,
    "lng": -118.3844121
  },
  {
    "id": "630017422",
    "name": "ACCELERATED HEALTH HOME CARE, INC.",
    "npi": "1215470042",
    "hcaiId": "406191447",
    "businessName": "ACCELERATED HEALTH HOME CARE, INC.",
    "contactEmail": "ACCELERATEDHHCI@GMAIL.COM",
    "categoryName": "HOME HEALTH AGENCY",
    "categoryCode": "HHA",
    "licenseStatus": "ACTIVE",
    "inService": true,
    "licenseNumber": "550004443",
    "licenseEffectiveDate": "10/19/2025",
    "licenseExpirationDate": "10/18/2026",
    "dataDate": "10/18/2025",
    "capacity": 0,
    "address": "6350 LAUREL CANYON BLVD, SUITE 208",
    "city": "NORTH HOLLYWOOD",
    "zip": "91606",
    "county": "LOS ANGELES",
    "phone": "(213) 985-7177",
    "lat": 34.186194,
    "lng": -118.396314
  },
  {
    "id": "630021037",
    "name": "ADVANCED EFFORT HOSPICE, INC",
    "npi": null,
    "hcaiId": "406197189",
    "businessName": "ADVANCED EFFORT HOSPICE INC",
    "contactEmail": "ADVANCEDEFFORTHOSPICE@GMAIL.COM",
    "categoryName": "HOSPICE",
    "categoryCode": "HOSPICE",
    "licenseStatus": "ACTIVE",
    "inService": true,
    "licenseNumber": "550006779",
    "licenseEffectiveDate": "09/01/2023",
    "licenseExpirationDate": "08/31/2025",
    "dataDate": "10/18/2025",
    "capacity": 0,
    "address": "12444 VICTORY BLVD, SUITE 222",
    "city": "NORTH HOLLYWOOD",
    "zip": "91606",
    "county": "LOS ANGELES",
    "phone": "(818) 853-4538",
    "lat": 34.186446,
    "lng": -118.40454
  },
  {
    "id": "630020122",
    "name": "ALWAYS BETTER HOSPICE CARE, INC.",
    "npi": null,
    "hcaiId": null,
    "businessName": "ALWAYS BETTER HOSPICE CARE, INC.",
    "contactEmail": "ALWAYSBETTERHOSPICE@GMAIL.COM",
    "categoryName": "HOSPICE",
    "categoryCode": "HOSPICE",
    "licenseStatus": "ACTIVE",
    "inService": true,
    "licenseNumber": "550006040",
    "licenseEffectiveDate": "01/08/2023",
    "licenseExpirationDate": "01/07/2025",
    "dataDate": "10/18/2025",
    "capacity": 0,
    "address": "11755 VICTORY BLVD, SUITE 205",
    "city": "NORTH HOLLYWOOD",
    "zip": "91606",
    "county": "LOS ANGELES",
    "phone": "(818) 273-7530",
    "lat": 34.186842,
    "lng": -118.3897845
  },
  {
    "id": "630025833",
    "name": "ALWAYS SUNNY HOME HEALTH",
    "npi": null,
    "hcaiId": "406190092",
    "businessName": "ALWAYS SUNNY HOME HEALTH",
    "contactEmail": "ALWAYSSUNNYHOSPICE@GMAIL.COM",
    "categoryName": "HOME HEALTH AGENCY",
    "categoryCode": "HHA",
    "licenseStatus": "ACTIVE",
    "inService": true,
    "licenseNumber": "550008826",
    "licenseEffectiveDate": "04/27/2024",
    "licenseExpirationDate": "10/26/2024",
    "dataDate": "10/18/2025",
    "capacity": 0,
    "address": "12444 VICTORY BLVD, SUITE 422",
    "city": "NORTH HOLLYWOOD",
    "zip": "91606",
    "county": "LOS ANGELES",
    "phone": "(747) 254-6055",
    "lat": 34.186446,
    "lng": -118.40454
  },
  {
    "id": "630025570",
    "name": "AMALIYAS HOME HEALTH INC",
    "npi": null,
    "hcaiId": "406198090",
    "businessName": "AMALIYAS HOME HEALTH INC",
    "contactEmail": "AMALIYASHHI@GMAIL.COM",
    "categoryName": "HOME HEALTH AGENCY",
    "categoryCode": "HHA",
    "licenseStatus": "ACTIVE",
    "inService": true,
    "licenseNumber": "550008805",
    "licenseEffectiveDate": "04/14/2024",
    "licenseExpirationDate": "10/13/2024",
    "dataDate": "10/18/2025",
    "capacity": 0,
    "address": "12444 VICTORY BLVD, SUITE 301-K",
    "city": "NORTH HOLLYWOOD",
    "zip": "91606",
    "county": "LOS ANGELES",
    "phone": "(747) 267-2046",
    "lat": 34.186446,
    "lng": -118.40454
  },
  {
    "id": "980002387",
    "name": "AMERICAN HOME HEALTH, INC.",
    "npi": "1003068180",
    "hcaiId": "406197202",
    "businessName": "AMERICAN HOME HEALTH, INC.",
    "contactEmail": "AMERICANHH@GMAIL.COM",
    "categoryName": "HOME HEALTH AGENCY",
    "categoryCode": "HHA",
    "licenseStatus": "ACTIVE",
    "inService": true,
    "licenseNumber": "980001497",
    "licenseEffectiveDate": "11/14/2023",
    "licenseExpirationDate": "11/13/2024",
    "dataDate": "10/18/2025",
    "capacity": 0,
    "address": "11631 VICTORY BLVD., SUITE 205",
    "city": "NORTH HOLLYWOOD",
    "zip": "91606",
    "county": "LOS ANGELES",
    "phone": "(818) 507-6929",
    "lat": 34.187004,
    "lng": -118.386081
  },
  {
    "id": "630020496",
    "name": "AMERICAN HOSPICE CONNECTION",
    "npi": null,
    "hcaiId": "406196106",
    "businessName": "AMERICAN HOSPICE CONNECTION",
    "contactEmail": "AMERICANHOSPICECONNECTION@GMAIL.COM",
    "categoryName": "HOSPICE",
    "categoryCode": "HOSPICE",
    "licenseStatus": "ACTIVE",
    "inService": true,
    "licenseNumber": "550006289",
    "licenseEffectiveDate": "05/07/2025",
    "licenseExpirationDate": "05/06/2027",
    "dataDate": "10/18/2025",
    "capacity": 0,
    "address": "11631 VICTORY BLVD, SUITE 209",
    "city": "NORTH HOLLYWOOD",
    "zip": "91606",
    "county": "LOS ANGELES",
    "phone": "(818) 869-4998",
    "lat": 34.187004,
    "lng": -118.386081
  },
  {
    "id": "630022083",
    "name": "ARSMED HOSPICE CARE, INC.",
    "npi": null,
    "hcaiId": "406193882",
    "businessName": "ARSMED HOSPICE CARE, INC.",
    "contactEmail": "ARSMEDHOSPICE@GMAIL.COM",
    "categoryName": "HOSPICE",
    "categoryCode": "HOSPICE",
    "licenseStatus": "ACTIVE",
    "inService": true,
    "licenseNumber": "550007266",
    "licenseEffectiveDate": "01/11/2024",
    "licenseExpirationDate": "11/22/2025",
    "dataDate": "10/18/2025",
    "capacity": 0,
    "address": "12444 VICTORY BLVD, SUITE 203",
    "city": "NORTH HOLLYWOOD",
    "zip": "91606",
    "county": "LOS ANGELES",
    "phone": "(747) 252-5905",
    "lat": 34.18636801,
    "lng": -118.404355
  },
  {
    "id": "630012501",
    "name": "ATLANTIC CARE HOSPICE, INC.",
    "npi": "1598316606",
    "hcaiId": "406197462",
    "businessName": "ATLANTIC CARE HOSPICE, INC.",
    "contactEmail": "MELANIE@ATLANTICAREHOSPICE.COM",
    "categoryName": "HOSPICE",
    "categoryCode": "HOSPICE",
    "licenseStatus": "ACTIVE",
    "inService": true,
    "licenseNumber": "550001420",
    "licenseEffectiveDate": "11/29/2022",
    "licenseExpirationDate": "11/28/2024",
    "dataDate": "10/18/2025",
    "capacity": 0,
    "address": "12444 VICTORY BLVD, SUITE 303",
    "city": "NORTH HOLLYWOOD",
    "zip": "91606",
    "county": "LOS ANGELES",
    "phone": "(818) 980-9770",
    "lat": 34.186446,
    "lng": -118.40454
  },
  {
    "id": "630014253",
    "name": "BEN CONGREGATE LIVING INC",
    "npi": null,
    "hcaiId": "206198176",
    "businessName": "BEN CONGREGATE LIVING INC",
    "contactEmail": "BENCONGREGATE@GMAIL.COM",
    "categoryName": "CONGREGATE LIVING HEALTH FACILITY",
    "categoryCode": "CLHF",
    "licenseStatus": "ACTIVE",
    "inService": true,
    "licenseNumber": "550002797",
    "licenseEffectiveDate": "08/12/2025",
    "licenseExpirationDate": "08/11/2026",
    "dataDate": "10/18/2025",
    "capacity": 6,
    "address": "6622 BEN AVE",
    "city": "NORTH HOLLYWOOD",
    "zip": "91606",
    "county": "LOS ANGELES",
    "phone": "(818) 765-7064",
    "lat": 34.190973,
    "lng": -118.394055
  },
  {
    "id": "630021011",
    "name": "BENEFICENT CARE HOSPICE INC",
    "npi": null,
    "hcaiId": "406197916",
    "businessName": "BENEFICENT CARE HOSPICE, INC",
    "contactEmail": "BENEFICENTCAREHOSPICE@GMAIL.COM",
    "categoryName": "HOSPICE",
    "categoryCode": "HOSPICE",
    "licenseStatus": "ACTIVE",
    "inService": true,
    "licenseNumber": "550006622",
    "licenseEffectiveDate": "07/30/2025",
    "licenseExpirationDate": "07/29/2027",
    "dataDate": "10/18/2025",
    "capacity": 0,
    "address": "12444 VICTORY BLVD, SUITE 223",
    "city": "NORTH HOLLYWOOD",
    "zip": "91606",
    "county": "LOS ANGELES",
    "phone": "(818) 853-4538",
    "lat": 34.186446,
    "lng": -118.40454
  },
  {
    "id": "630016977",
    "name": "BEST CARE NURSING HOME HEALTH, INC.",
    "npi": "1255705059",
    "hcaiId": "406191419",
    "businessName": "BEST CARE NURSING HOME HEALTH, INC.",
    "contactEmail": "GARY@BCN.HEALTH",
    "categoryName": "HOME HEALTH AGENCY",
    "categoryCode": "HHA",
    "licenseStatus": "ACTIVE",
    "inService": true,
    "licenseNumber": "550004415",
    "licenseEffectiveDate": "10/27/2025",
    "licenseExpirationDate": "10/26/2026",
    "dataDate": "10/18/2025",
    "capacity": 0,
    "address": "6350 LAUREL CANYON BLVD., SUITE 370",
    "city": "NORTH HOLLYWOOD",
    "zip": "91606",
    "county": "LOS ANGELES",
    "phone": "(818) 927-4404",
    "lat": 34.186194,
    "lng": -118.396314
  },
  {
    "id": "060001906",
    "name": "BEST COMMUNITY BASED ADULT SERVICES - N. HOLLYWOOD",
    "npi": null,
    "hcaiId": null,
    "businessName": "POBEDA SERVICES, INC",
    "contactEmail": "BESTCBAS2@YAHOO.COM",
    "categoryName": "ADULT DAY HEALTH CARE",
    "categoryCode": "ADHC",
    "licenseStatus": "ACTIVE",
    "inService": true,
    "licenseNumber": "060000723",
    "licenseEffectiveDate": "07/07/2025",
    "licenseExpirationDate": "07/06/2026",
    "dataDate": "10/18/2025",
    "capacity": 0,
    "address": "10858 OXNARD ST",
    "city": "NORTH HOLLYWOOD",
    "zip": "91606",
    "county": "LOS ANGELES",
    "phone": "(818) 509-1619",
    "lat": 34.179147,
    "lng": -118.367838
  },
  {
    "id": "630018451",
    "name": "BEST TRUST HOME HEALTH INC",
    "npi": "1487124871",
    "hcaiId": "406191724",
    "businessName": "BEST TRUST HOME HEALTH INC",
    "contactEmail": "BESTTRUSTHOMEHEALTH@YAHOO.COM",
    "categoryName": "HOME HEALTH AGENCY",
    "categoryCode": "HHA",
    "licenseStatus": "ACTIVE",
    "inService": true,
    "licenseNumber": "550004698",
    "licenseEffectiveDate": "04/05/2025",
    "licenseExpirationDate": "04/04/2026",
    "dataDate": "10/18/2025",
    "capacity": 0,
    "address": "12509 OXNARD ST, SUITE 204",
    "city": "NORTH HOLLYWOOD",
    "zip": "91606",
    "county": "LOS ANGELES",
    "phone": "(818) 927-4158",
    "lat": 34.17947711,
    "lng": -118.4058586
  },
  {
    "id": "630024995",
    "name": "BETTER LIFE HOME HEALTH AGENCY, INC.",
    "npi": null,
    "hcaiId": null,
    "businessName": "BETTER LIFE HOME HEALTH AGENCY, INC.",
    "contactEmail": "BETTERLIFEHHA@GMAIL.COM",
    "categoryName": "HOME HEALTH AGENCY",
    "categoryCode": "HHA",
    "licenseStatus": "ACTIVE",
    "inService": true,
    "licenseNumber": "550008591",
    "licenseEffectiveDate": "05/09/2025",
    "licenseExpirationDate": "05/08/2026",
    "dataDate": "10/18/2025",
    "capacity": 0,
    "address": "12444 VICTORY BLVD, SUITE 215",
    "city": "NORTH HOLLYWOOD",
    "zip": "91606",
    "county": "LOS ANGELES",
    "phone": "(818) 210-0142",
    "lat": 34.186446,
    "lng": -118.40454
  },
  {
    "id": "630025502",
    "name": "BLISS HEALTH SERVICES",
    "npi": null,
    "hcaiId": null,
    "businessName": "BLISS HEALTH SERVICES INC",
    "contactEmail": "BLISSHINC@YAHOO.COM",
    "categoryName": "HOME HEALTH AGENCY",
    "categoryCode": "HHA",
    "licenseStatus": "ACTIVE",
    "inService": true,
    "licenseNumber": "550009098",
    "licenseEffectiveDate": "09/27/2024",
    "licenseExpirationDate": "03/26/2025",
    "dataDate": "10/18/2025",
    "capacity": 0,
    "address": "12444 VICTORY BLVD, SUITE 301-E",
    "city": "NORTH HOLLYWOOD",
    "zip": "91606",
    "county": "LOS ANGELES",
    "phone": "(747) 877-9359",
    "lat": 34.186446,
    "lng": -118.40454
  },
  {
    "id": "630021992",
    "name": "BLUE PACIFIC HOME HEALTH",
    "npi": null,
    "hcaiId": "406195396",
    "businessName": "BLUE PACIFIC HOME HEALTH",
    "contactEmail": "BLUEPACIFICHH@YAHOO.COM",
    "categoryName": "HOME HEALTH AGENCY",
    "categoryCode": "HHA",
    "licenseStatus": "ACTIVE",
    "inService": true,
    "licenseNumber": "550007765",
    "licenseEffectiveDate": "05/05/2025",
    "licenseExpirationDate": "12/03/2025",
    "dataDate": "10/18/2025",
    "capacity": 0,
    "address": "12444 VICTORY BLVD, SUITE 305",
    "city": "NORTH HOLLYWOOD",
    "zip": "91606",
    "county": "LOS ANGELES",
    "phone": "(818) 946-8787",
    "lat": 34.18636801,
    "lng": -118.404355
  },
  {
    "id": "630025262",
    "name": "BRIDGE HEALTHCARE",
    "npi": null,
    "hcaiId": "406190116",
    "businessName": "BRIDGE HEALTHCARE",
    "contactEmail": "BRIDGEHEALTHCARE21@GMAIL.COM",
    "categoryName": "HOME HEALTH AGENCY",
    "categoryCode": "HHA",
    "licenseStatus": "ACTIVE",
    "inService": true,
    "licenseNumber": "550008617",
    "licenseEffectiveDate": "12/21/2023",
    "licenseExpirationDate": "06/20/2024",
    "dataDate": "10/18/2025",
    "capacity": 0,
    "address": "12444 VICTORY BLVD, SUITE 411B",
    "city": "NORTH HOLLYWOOD",
    "zip": "91606",
    "county": "LOS ANGELES",
    "phone": "(754) 230-8888",
    "lat": 34.186446,
    "lng": -118.40454
  },
  {
    "id": "630024646",
    "name": "BRIDGE HOME HEALTH INC",
    "npi": null,
    "hcaiId": "406190079",
    "businessName": "BRIDGE HOME HEALTH INC",
    "contactEmail": "BRIDGEHHINC@GMAIL.COM",
    "categoryName": "HOME HEALTH AGENCY",
    "categoryCode": "HHA",
    "licenseStatus": "ACTIVE",
    "inService": true,
    "licenseNumber": "550008821",
    "licenseEffectiveDate": "11/11/2024",
    "licenseExpirationDate": "11/10/2025",
    "dataDate": "10/18/2025",
    "capacity": 0,
    "address": "12444 VICTORY BLVD, SUITE 301-W",
    "city": "NORTH HOLLYWOOD",
    "zip": "91606",
    "county": "LOS ANGELES",
    "phone": "(818) 412-3070",
    "lat": 34.186446,
    "lng": -118.40454
  },
  {
    "id": "630017337",
    "name": "BRIGHT DAY ADULT DAY HEALTH CARE CENTER",
    "npi": null,
    "hcaiId": null,
    "businessName": "BRIGHT DAY ADULT DAY HEALTH CARE CENTER, LLC",
    "contactEmail": "BRIGHTDAYADHC@GMAIL.COM",
    "categoryName": "ADULT DAY HEALTH CARE",
    "categoryCode": "ADHC",
    "licenseStatus": "ACTIVE",
    "inService": true,
    "licenseNumber": "550004377",
    "licenseEffectiveDate": "09/26/2025",
    "licenseExpirationDate": "09/25/2026",
    "dataDate": "10/18/2025",
    "capacity": 0,
    "address": "6330 LAUREL CANYON BLVD",
    "city": "NORTH HOLLYWOOD",
    "zip": "91606",
    "county": "LOS ANGELES",
    "phone": "(818) 358-2763",
    "lat": 34.18578,
    "lng": -118.396314
  },
  {
    "id": "630018915",
    "name": "BRIGHTSTAR HOME HEALTH, INC.",
    "npi": null,
    "hcaiId": "406192486",
    "businessName": "BRIGHTSTAR HOME HEALTH, INC.",
    "contactEmail": "BRIGHTSTARHHCA@GMAIL.COM",
    "categoryName": "HOME HEALTH AGENCY",
    "categoryCode": "HHA",
    "licenseStatus": "ACTIVE",
    "inService": true,
    "licenseNumber": "550005357",
    "licenseEffectiveDate": "03/09/2024",
    "licenseExpirationDate": "03/08/2025",
    "dataDate": "10/18/2025",
    "capacity": 0,
    "address": "12509 OXNARD ST, SUITE 213",
    "city": "NORTH HOLLYWOOD",
    "zip": "91606",
    "county": "LOS ANGELES",
    "phone": "(818) 452-9582",
    "lat": 34.17947711,
    "lng": -118.4058586
  },
  {
    "id": "630025673",
    "name": "CALIFORNIA HEALTHCARE, INC",
    "npi": null,
    "hcaiId": "406190089",
    "businessName": "CALIFORNIA HEALTHCARE, INC",
    "contactEmail": "CALIFORNIAHEALTHCARESERVICES@GMAIL.COM",
    "categoryName": "HOME HEALTH AGENCY",
    "categoryCode": "HHA",
    "licenseStatus": "ACTIVE",
    "inService": true,
    "licenseNumber": "550008847",
    "licenseEffectiveDate": "10/20/2025",
    "licenseExpirationDate": "10/19/2026",
    "dataDate": "10/18/2025",
    "capacity": 0,
    "address": "12444 VICTORY BLVD, SUITE 100",
    "city": "NORTH HOLLYWOOD",
    "zip": "91606",
    "county": "LOS ANGELES",
    "phone": "(818) 915-1085",
    "lat": 34.186446,
    "lng": -118.40454
  },
  {
    "id": "630015395",
    "name": "CALIFORNIA PEOPLE'S HOME HEALTH, INC.",
    "npi": "1508274275",
    "hcaiId": "406198189",
    "businessName": "CALIFORNIA PEOPLE'S HOME HEALTH, INC.",
    "contactEmail": "CPHH.INC@GMAIL.COM",
    "categoryName": "HOME HEALTH AGENCY",
    "categoryCode": "HHA",
    "licenseStatus": "ACTIVE",
    "inService": true,
    "licenseNumber": "550003364",
    "licenseEffectiveDate": "01/02/2025",
    "licenseExpirationDate": "01/01/2026",
    "dataDate": "10/18/2025",
    "capacity": 0,
    "address": "12011 VICTORY BLVD, SUITE 205",
    "city": "NORTH HOLLYWOOD",
    "zip": "91606",
    "county": "LOS ANGELES",
    "phone": "(818) 980-0087",
    "lat": 34.186986,
    "lng": -118.394793
  },
  {
    "id": "630020838",
    "name": "CARE POINT HOSPICE INC",
    "npi": null,
    "hcaiId": "406193278",
    "businessName": "CARE POINT HOSPICE INC",
    "contactEmail": "CAREPOINTHOSPICE@GMAIL.COM",
    "categoryName": "HOSPICE",
    "categoryCode": "HOSPICE",
    "licenseStatus": "ACTIVE",
    "inService": true,
    "licenseNumber": "550007111",
    "licenseEffectiveDate": "10/29/2025",
    "licenseExpirationDate": "10/28/2027",
    "dataDate": "10/18/2025",
    "capacity": 0,
    "address": "12444 VICTORY BLVD, SUITE 220",
    "city": "NORTH HOLLYWOOD",
    "zip": "91606",
    "county": "LOS ANGELES",
    "phone": "(609) 787-6747",
    "lat": 34.186446,
    "lng": -118.40454
  },
  {
    "id": "630020534",
    "name": "CARE VIEW HOSPICE CARE",
    "npi": null,
    "hcaiId": "406196626",
    "businessName": "CARE VIEW HOSPICE CARE",
    "contactEmail": "CAREVHOSPICE@GMAIL.COM",
    "categoryName": "HOSPICE",
    "categoryCode": "HOSPICE",
    "licenseStatus": "ACTIVE",
    "inService": true,
    "licenseNumber": "550006424",
    "licenseEffectiveDate": "05/26/2025",
    "licenseExpirationDate": "05/25/2027",
    "dataDate": "10/18/2025",
    "capacity": 0,
    "address": "12444 VICTORY BLVD, UNIT 325",
    "city": "NORTH HOLLYWOOD",
    "zip": "91606",
    "county": "LOS ANGELES",
    "phone": "(573) 333-7373",
    "lat": 34.186446,
    "lng": -118.40454
  },
  {
    "id": "630020346",
    "name": "CARE VILLAGE HOSPICE, INC.",
    "npi": null,
    "hcaiId": "406196055",
    "businessName": "CARE VILLAGE HOSPICE, INC.",
    "contactEmail": "AKHVERDYANEDWARD@YAHOO.COM",
    "categoryName": "HOSPICE",
    "categoryCode": "HOSPICE",
    "licenseStatus": "ACTIVE",
    "inService": true,
    "licenseNumber": "550006227",
    "licenseEffectiveDate": "04/01/2025",
    "licenseExpirationDate": "03/31/2027",
    "dataDate": "10/18/2025",
    "capacity": 0,
    "address": "11631 VICTORY BLVD, SUITE 206",
    "city": "NORTH HOLLYWOOD",
    "zip": "91606",
    "county": "LOS ANGELES",
    "phone": "(747) 285-2101",
    "lat": 34.187004,
    "lng": -118.386081
  },
  {
    "id": "630025551",
    "name": "CAREFUL HANDS HOME HEALTH",
    "npi": null,
    "hcaiId": "406190184",
    "businessName": "CAREFUL HANDS HOME HEALTH",
    "contactEmail": "CAREFULCHH@GMAIL.COM",
    "categoryName": "HOME HEALTH AGENCY",
    "categoryCode": "HHA",
    "licenseStatus": "ACTIVE",
    "inService": true,
    "licenseNumber": "550008706",
    "licenseEffectiveDate": "08/18/2025",
    "licenseExpirationDate": "08/17/2026",
    "dataDate": "10/18/2025",
    "capacity": 0,
    "address": "12444 VICTORY BLVD, SUITE 301-Z1",
    "city": "NORTH HOLLYWOOD",
    "zip": "91606",
    "county": "LOS ANGELES",
    "phone": "(747) 297-4390",
    "lat": 34.186446,
    "lng": -118.40454
  },
  {
    "id": "630021800",
    "name": "CARING HEALTHCARE, INC.",
    "npi": null,
    "hcaiId": null,
    "businessName": "CARING HEALTHCARE, INC.",
    "contactEmail": "CARINGHEALTHCARECORP@GMAIL.COM",
    "categoryName": "HOME HEALTH AGENCY",
    "categoryCode": "HHA",
    "licenseStatus": "ACTIVE",
    "inService": true,
    "licenseNumber": "550008282",
    "licenseEffectiveDate": "12/13/2022",
    "licenseExpirationDate": "06/12/2023",
    "dataDate": "10/18/2025",
    "capacity": 0,
    "address": "12444 VICTORY BLVD, SUITE 214",
    "city": "NORTH HOLLYWOOD",
    "zip": "91606",
    "county": "LOS ANGELES",
    "phone": "(888) 788-6470",
    "lat": 34.186446,
    "lng": -118.40454
  },
  {
    "id": "630025606",
    "name": "CASTLE PINES HOME HEALTH INC",
    "npi": null,
    "hcaiId": "406190132",
    "businessName": "CASTLE PINES HOME HEALTH INC",
    "contactEmail": "CASTLEPINESHHINC@YAHOO.COM",
    "categoryName": "HOME HEALTH AGENCY",
    "categoryCode": "HHA",
    "licenseStatus": "ACTIVE",
    "inService": true,
    "licenseNumber": "550008621",
    "licenseEffectiveDate": "06/22/2025",
    "licenseExpirationDate": "06/21/2026",
    "dataDate": "10/18/2025",
    "capacity": 0,
    "address": "12444 VICTORY BLVD, SUITE 301-U2",
    "city": "NORTH HOLLYWOOD",
    "zip": "91606",
    "county": "LOS ANGELES",
    "phone": "(747) 313-6592",
    "lat": 34.186446,
    "lng": -118.40454
  },
  {
    "id": "630025574",
    "name": "CHATEAU HOME HEALTH INC",
    "npi": null,
    "hcaiId": "406196916",
    "businessName": "CHATEAU HOME HEALTH INC",
    "contactEmail": "CHATEAUHOMEHEALTH21@GMAIL.COM",
    "categoryName": "HOME HEALTH AGENCY",
    "categoryCode": "HHA",
    "licenseStatus": "ACTIVE",
    "inService": true,
    "licenseNumber": "550008650",
    "licenseEffectiveDate": "07/13/2025",
    "licenseExpirationDate": "07/12/2026",
    "dataDate": "10/18/2025",
    "capacity": 0,
    "address": "12444 VICTORY BLVD, SUITE 301-U",
    "city": "NORTH HOLLYWOOD",
    "zip": "91606",
    "county": "LOS ANGELES",
    "phone": "(424) 278-8849",
    "lat": 34.186446,
    "lng": -118.40454
  },
  {
    "id": "630025498",
    "name": "CHH HOME HEALTHCARE INC",
    "npi": null,
    "hcaiId": "406190181",
    "businessName": "CHH HOME HEALTHCARE INC",
    "contactEmail": "CHHHHCI22@GMAIL.COM",
    "categoryName": "HOME HEALTH AGENCY",
    "categoryCode": "HHA",
    "licenseStatus": "ACTIVE",
    "inService": true,
    "licenseNumber": "550008708",
    "licenseEffectiveDate": "08/19/2025",
    "licenseExpirationDate": "08/18/2026",
    "dataDate": "10/18/2025",
    "capacity": 0,
    "address": "12444 VICTORY BLVD, SUITE 411-I",
    "city": "NORTH HOLLYWOOD",
    "zip": "91606",
    "county": "LOS ANGELES",
    "phone": "(747) 977-3970",
    "lat": 34.186446,
    "lng": -118.40454
  },
  {
    "id": "630025556",
    "name": "CLEAR SOLUTIONS HOMECARE INC",
    "npi": null,
    "hcaiId": "406190183",
    "businessName": "CLEAR SOLUTIONS HOMECARE INC",
    "contactEmail": "CLEARSOLUTIONSHCI@GMAIL.COM",
    "categoryName": "HOME HEALTH AGENCY",
    "categoryCode": "HHA",
    "licenseStatus": "ACTIVE",
    "inService": true,
    "licenseNumber": "550008710",
    "licenseEffectiveDate": "08/26/2025",
    "licenseExpirationDate": "08/25/2026",
    "dataDate": "10/18/2025",
    "capacity": 0,
    "address": "12444 VICTORY BLVD, SUITE 411-H",
    "city": "NORTH HOLLYWOOD",
    "zip": "91606",
    "county": "LOS ANGELES",
    "phone": "(818) 732-4509",
    "lat": 34.186446,
    "lng": -118.40454
  },
  {
    "id": "630019874",
    "name": "CLOSE TO HOME HEALTHCARE SERVICES, INC",
    "npi": null,
    "hcaiId": "406192785",
    "businessName": "CLOSE TO HOME HEALTHCARE SERVICES, INC.",
    "contactEmail": "CLOSETOHOMEHH@GMAIL.COM",
    "categoryName": "HOME HEALTH AGENCY",
    "categoryCode": "HHA",
    "licenseStatus": "ACTIVE",
    "inService": true,
    "licenseNumber": "550005598",
    "licenseEffectiveDate": "07/24/2025",
    "licenseExpirationDate": "07/23/2026",
    "dataDate": "10/18/2025",
    "capacity": 0,
    "address": "6240 LAUREL CANYON BLVD, SUITE 200",
    "city": "NORTH HOLLYWOOD",
    "zip": "91606",
    "county": "LOS ANGELES",
    "phone": "(818) 331-5566",
    "lat": 34.18436399,
    "lng": -118.396268
  },
  {
    "id": "960002823",
    "name": "COMPREHENSIVE COMMUNITY HEALTH CTR INC-N HOLLYWOOD",
    "npi": null,
    "hcaiId": "306196530",
    "businessName": "COMPREHENSIVE COMMUNITY HEALTH CENTER, INC.",
    "contactEmail": "DAVIDLO@CCHCCENTERS.ORG",
    "categoryName": "PRIMARY CARE CLINIC",
    "categoryCode": "COMTYC",
    "licenseStatus": "ACTIVE",
    "inService": true,
    "licenseNumber": "550004115",
    "licenseEffectiveDate": "12/12/2024",
    "licenseExpirationDate": "12/11/2025",
    "dataDate": "10/18/2025",
    "capacity": 0,
    "address": "12157 VICTORY BLVD",
    "city": "NORTH HOLLYWOOD",
    "zip": "91606",
    "county": "LOS ANGELES",
    "phone": "(818) 755-8000",
    "lat": 34.186842,
    "lng": -118.3984785
  },
  {
    "id": "630024020",
    "name": "COSMOS HOME CARE INC.",
    "npi": null,
    "hcaiId": "406195505",
    "businessName": "COSMOS HOME CARE INC.",
    "contactEmail": "2021COSMOSHCI@GMAIL.COM",
    "categoryName": "HOME HEALTH AGENCY",
    "categoryCode": "HHA",
    "licenseStatus": "ACTIVE",
    "inService": true,
    "licenseNumber": "550008120",
    "licenseEffectiveDate": "07/27/2025",
    "licenseExpirationDate": "07/26/2026",
    "dataDate": "10/18/2025",
    "capacity": 0,
    "address": "6342 COLDWATER CANYON AVE",
    "city": "NORTH HOLLYWOOD",
    "zip": "91606",
    "county": "LOS ANGELES",
    "phone": "(818) 796-5595",
    "lat": 34.186176,
    "lng": -118.413621
  },
  {
    "id": "630025264",
    "name": "CRENSHAW HEALTHCARE",
    "npi": null,
    "hcaiId": "406197594",
    "businessName": "CRENSHAW HEALTHCARE",
    "contactEmail": "CRENSHAWHEALTHCARE@GMAIL.COM",
    "categoryName": "HOME HEALTH AGENCY",
    "categoryCode": "HHA",
    "licenseStatus": "ACTIVE",
    "inService": true,
    "licenseNumber": "550008756",
    "licenseEffectiveDate": "12/17/2023",
    "licenseExpirationDate": "06/16/2024",
    "dataDate": "10/18/2025",
    "capacity": 0,
    "address": "12444 VICTORY BLVD, SUITE 411C",
    "city": "NORTH HOLLYWOOD",
    "zip": "91606",
    "county": "LOS ANGELES",
    "phone": "(754) 230-8888",
    "lat": 34.186446,
    "lng": -118.40454
  },
  {
    "id": "630025549",
    "name": "D&T HEALTH SERVICES INC",
    "npi": null,
    "hcaiId": "406190097",
    "businessName": "D&T HEALTH SERVICES INC",
    "contactEmail": "DTHCSI@GMAIL.COM",
    "categoryName": "HOME HEALTH AGENCY",
    "categoryCode": "HHA",
    "licenseStatus": "ACTIVE",
    "inService": true,
    "licenseNumber": "550008859",
    "licenseEffectiveDate": "11/17/2024",
    "licenseExpirationDate": "11/16/2025",
    "dataDate": "10/18/2025",
    "capacity": 0,
    "address": "12444 VICTORY BLVD, SUITE 301-N4",
    "city": "NORTH HOLLYWOOD",
    "zip": "91606",
    "county": "LOS ANGELES",
    "phone": "(882) 266-6190",
    "lat": 34.186446,
    "lng": -118.40454
  },
  {
    "id": "630025579",
    "name": "DAGNIA HOME HEALTH INC",
    "npi": null,
    "hcaiId": "406190037",
    "businessName": "DAGNIA HOME HEALTH INC",
    "contactEmail": "DAGNIAHHI@GMAIL.COM",
    "categoryName": "HOME HEALTH AGENCY",
    "categoryCode": "HHA",
    "licenseStatus": "ACTIVE",
    "inService": true,
    "licenseNumber": "550008653",
    "licenseEffectiveDate": "07/14/2024",
    "licenseExpirationDate": "07/13/2025",
    "dataDate": "10/18/2025",
    "capacity": 0,
    "address": "12444 VICTORY BLVD, SUITE 301-L",
    "city": "NORTH HOLLYWOOD",
    "zip": "91606",
    "county": "LOS ANGELES",
    "phone": "(747) 267-2048",
    "lat": 34.186446,
    "lng": -118.40454
  },
  {
    "id": "630025578",
    "name": "DEVINE HEALTH SERVICES INC",
    "npi": null,
    "hcaiId": null,
    "businessName": "DEVINE HEALTH SERVICES INC",
    "contactEmail": "DEVINEHSI@GMAIL.COM",
    "categoryName": "HOME HEALTH AGENCY",
    "categoryCode": "HHA",
    "licenseStatus": "ACTIVE",
    "inService": true,
    "licenseNumber": "550008644",
    "licenseEffectiveDate": "07/12/2024",
    "licenseExpirationDate": "07/11/2025",
    "dataDate": "10/18/2025",
    "capacity": 0,
    "address": "12444 VICTORY BLVD, SUITE 411-D",
    "city": "NORTH HOLLYWOOD",
    "zip": "91606",
    "county": "LOS ANGELES",
    "phone": "(747) 677-1005",
    "lat": 34.186446,
    "lng": -118.40454
  },
  {
    "id": "630014697",
    "name": "DOCTORS PREFERRED HOSPICE INC",
    "npi": "1225429418",
    "hcaiId": "406198467",
    "businessName": "DOCTORS PREFERRED HOSPICE INC",
    "contactEmail": "DOCTORSPREFERREDHOSPICE@GMAIL.COM",
    "categoryName": "HOSPICE",
    "categoryCode": "HOSPICE",
    "licenseStatus": "ACTIVE",
    "inService": true,
    "licenseNumber": "550003083",
    "licenseEffectiveDate": "05/01/2025",
    "licenseExpirationDate": "04/30/2027",
    "dataDate": "10/18/2025",
    "capacity": 0,
    "address": "6422 BELLINGHAM AVE, SUITE 204",
    "city": "NORTH HOLLYWOOD",
    "zip": "91606",
    "county": "LOS ANGELES",
    "phone": "(888) 701-6404",
    "lat": 34.18739098,
    "lng": -118.398469
  },
  {
    "id": "630025752",
    "name": "DREAMQUEST HOME HEALTH, INC.",
    "npi": null,
    "hcaiId": null,
    "businessName": "DREAMQUEST HOME HEALTH, INC.",
    "contactEmail": "DREAMQUESTHH@GMAIL.COM",
    "categoryName": "HOME HEALTH AGENCY",
    "categoryCode": "HHA",
    "licenseStatus": "ACTIVE",
    "inService": true,
    "licenseNumber": "550009210",
    "licenseEffectiveDate": "05/24/2025",
    "licenseExpirationDate": "05/23/2026",
    "dataDate": "10/18/2025",
    "capacity": 0,
    "address": "6405 WILKINSON AVE",
    "city": "NORTH HOLLYWOOD",
    "zip": "91606",
    "county": "LOS ANGELES",
    "phone": "(747) 205-2483",
    "lat": 34.18697101,
    "lng": -118.40436
  },
  {
    "id": "630022102",
    "name": "DV QUALITY HOME HEALTH CARE, INC.",
    "npi": null,
    "hcaiId": "406195833",
    "businessName": "DV QUALITY HOME HEALTH CARE, INC.",
    "contactEmail": "DVQUALITYHHC999@GMAIL.COM",
    "categoryName": "HOME HEALTH AGENCY",
    "categoryCode": "HHA",
    "licenseStatus": "ACTIVE",
    "inService": true,
    "licenseNumber": "550007956",
    "licenseEffectiveDate": "04/28/2025",
    "licenseExpirationDate": "04/27/2026",
    "dataDate": "10/18/2025",
    "capacity": 0,
    "address": "6005 VINELAND AVE, UNIT 211",
    "city": "NORTH HOLLYWOOD",
    "zip": "91606",
    "county": "LOS ANGELES",
    "phone": "(747) 977-3331",
    "lat": 34.17991034,
    "lng": -118.3705315
  },
  {
    "id": "630017688",
    "name": "EAGLE HOME HEALTH",
    "npi": "1992219463",
    "hcaiId": "406191436",
    "businessName": "EAGLE HOME HEALTH",
    "contactEmail": "EAGLEHOMEHEALTHINC@GMAIL.COM",
    "categoryName": "HOME HEALTH AGENCY",
    "categoryCode": "HHA",
    "licenseStatus": "ACTIVE",
    "inService": true,
    "licenseNumber": "550004486",
    "licenseEffectiveDate": "12/19/2024",
    "licenseExpirationDate": "12/18/2025",
    "dataDate": "10/18/2025",
    "capacity": 0,
    "address": "6005 VINELAND AVE, SUITE 204",
    "city": "NORTH HOLLYWOOD",
    "zip": "91606",
    "county": "LOS ANGELES",
    "phone": "(818) 927-4039",
    "lat": 34.179912,
    "lng": -118.3705515
  },
  {
    "id": "630021123",
    "name": "EASYCARE, INC",
    "npi": null,
    "hcaiId": "406193339",
    "businessName": "EASYCARE, INC.",
    "contactEmail": "EASYCAREINCNH@GMAIL.COM",
    "categoryName": "HOSPICE",
    "categoryCode": "HOSPICE",
    "licenseStatus": "ACTIVE",
    "inService": true,
    "licenseNumber": "550007026",
    "licenseEffectiveDate": "10/20/2023",
    "licenseExpirationDate": "10/19/2025",
    "dataDate": "10/18/2025",
    "capacity": 0,
    "address": "12509 OXNARD ST, SUITE #207",
    "city": "NORTH HOLLYWOOD",
    "zip": "91606",
    "county": "LOS ANGELES",
    "phone": "(626) 250-9814",
    "lat": 34.179743,
    "lng": -118.405684
  },
  {
    "id": "630025439",
    "name": "EG HOME HEALTH, INC",
    "npi": null,
    "hcaiId": "406190036",
    "businessName": "EG HOME HEALTH, INC",
    "contactEmail": "EGHOMEHEALTH2021@GMAIL.COM",
    "categoryName": "HOME HEALTH AGENCY",
    "categoryCode": "HHA",
    "licenseStatus": "ACTIVE",
    "inService": true,
    "licenseNumber": "550008657",
    "licenseEffectiveDate": "07/14/2025",
    "licenseExpirationDate": "07/13/2026",
    "dataDate": "10/18/2025",
    "capacity": 0,
    "address": "12444 VICTORY BLVD, SUITE 301-R",
    "city": "NORTH HOLLYWOOD",
    "zip": "91606",
    "county": "LOS ANGELES",
    "phone": "(747) 286-6540",
    "lat": 34.186446,
    "lng": -118.40454
  },
  {
    "id": "630020191",
    "name": "ELDERLY HOSPICE AND PALLIATIVE CARE, INC.",
    "npi": null,
    "hcaiId": "406192948",
    "businessName": "ELDERLY HOSPICE AND PALLIATIVE CARE, INC.",
    "contactEmail": "ELDERLYHOSPICEINC@GMAIL.COM",
    "categoryName": "HOSPICE",
    "categoryCode": "HOSPICE",
    "licenseStatus": "ACTIVE",
    "inService": true,
    "licenseNumber": "550005812",
    "licenseEffectiveDate": "10/28/2024",
    "licenseExpirationDate": "10/27/2026",
    "dataDate": "10/18/2025",
    "capacity": 0,
    "address": "12444 VICTORY BLVD, SUITE 504",
    "city": "NORTH HOLLYWOOD",
    "zip": "91606",
    "county": "LOS ANGELES",
    "phone": "(310) 436-5258",
    "lat": 34.186446,
    "lng": -118.40454
  },
  {
    "id": "630015573",
    "name": "ELKA HOSPICE CARE, INC.",
    "npi": "1487059390",
    "hcaiId": "406198448",
    "businessName": "ELKA HOSPICE CARE, INC.",
    "contactEmail": "ELKAHOSPICE@GMAIL.COM",
    "categoryName": "HOSPICE",
    "categoryCode": "HOSPICE",
    "licenseStatus": "ACTIVE",
    "inService": true,
    "licenseNumber": "550003403",
    "licenseEffectiveDate": "02/04/2024",
    "licenseExpirationDate": "02/03/2026",
    "dataDate": "10/18/2025",
    "capacity": 0,
    "address": "11755 VICTORY BLVD, SUITE 213",
    "city": "NORTH HOLLYWOOD",
    "zip": "91606",
    "county": "LOS ANGELES",
    "phone": "(818) 797-1800",
    "lat": 34.186842,
    "lng": -118.3897845
  },
  {
    "id": "630027089",
    "name": "EMBRACE HOME HEALTH CARE, INC.",
    "npi": null,
    "hcaiId": null,
    "businessName": "EMBRACE HOME HEALTH CARE, INC.",
    "contactEmail": "EMBRACEHOMEHEALTHCARE1@GMAIL.COM",
    "categoryName": "HOME HEALTH AGENCY",
    "categoryCode": "HHA",
    "licenseStatus": "ACTIVE",
    "inService": true,
    "licenseNumber": "550009743",
    "licenseEffectiveDate": "10/01/2025",
    "licenseExpirationDate": "03/31/2026",
    "dataDate": "10/18/2025",
    "capacity": 0,
    "address": "12511 OXNARD ST, SUITE 213",
    "city": "NORTH HOLLYWOOD",
    "zip": "91606",
    "county": "LOS ANGELES",
    "phone": "(747) 788-6106",
    "lat": 34.17946728,
    "lng": -118.4058817
  },
  {
    "id": "630021654",
    "name": "ENTRUSTED HEALTH CARE PROVIDERS INC",
    "npi": null,
    "hcaiId": "406195381",
    "businessName": "ENTRUSTED HEALTH CARE PROVIDERS INC",
    "contactEmail": "ENTRUSTEDHEALTHCAREPROVIDERS@GMAIL.COM",
    "categoryName": "HOME HEALTH AGENCY",
    "categoryCode": "HHA",
    "licenseStatus": "ACTIVE",
    "inService": true,
    "licenseNumber": "550007962",
    "licenseEffectiveDate": "05/19/2025",
    "licenseExpirationDate": "04/26/2026",
    "dataDate": "10/18/2025",
    "capacity": 0,
    "address": "12444 VICTORY BLVD, 415",
    "city": "NORTH HOLLYWOOD",
    "zip": "91606",
    "county": "LOS ANGELES",
    "phone": "(818) 960-3890",
    "lat": 34.186446,
    "lng": -118.40454
  },
  {
    "id": "630025509",
    "name": "EV HOME HEALTH CARE INC",
    "npi": null,
    "hcaiId": null,
    "businessName": "EV HOME HEALTH CARE INC",
    "contactEmail": "EVHOMEHEALTHCINC@GMAIL.COM",
    "categoryName": "HOME HEALTH AGENCY",
    "categoryCode": "HHA",
    "licenseStatus": "ACTIVE",
    "inService": true,
    "licenseNumber": "550008721",
    "licenseEffectiveDate": "07/26/2025",
    "licenseExpirationDate": "07/25/2026",
    "dataDate": "10/18/2025",
    "capacity": 0,
    "address": "12444 VICTORY BLVD, SUITE 411-O",
    "city": "NORTH HOLLYWOOD",
    "zip": "91606",
    "county": "LOS ANGELES",
    "phone": "(747) 267-2050",
    "lat": 34.186446,
    "lng": -118.40454
  },
  {
    "id": "630019182",
    "name": "EVEREST PEAK HOME HEALTHCARE",
    "npi": null,
    "hcaiId": "406192722",
    "businessName": "EVEREST PEAK HOME HEALTHCARE",
    "contactEmail": "EVERESTPHH@GMAIL.COM",
    "categoryName": "HOME HEALTH AGENCY",
    "categoryCode": "HHA",
    "licenseStatus": "ACTIVE",
    "inService": true,
    "licenseNumber": "550005509",
    "licenseEffectiveDate": "06/13/2025",
    "licenseExpirationDate": "06/12/2026",
    "dataDate": "10/18/2025",
    "capacity": 0,
    "address": "12160 HAMLIN ST",
    "city": "NORTH HOLLYWOOD",
    "zip": "91606",
    "county": "LOS ANGELES",
    "phone": "(818) 588-0265",
    "lat": 34.18834199,
    "lng": -118.398466
  },
  {
    "id": "630025543",
    "name": "EVERGREEN HEALTH CARE SERVICES",
    "npi": null,
    "hcaiId": "406190047",
    "businessName": "EVERGREEN HEALTH CARE SERVICES",
    "contactEmail": "EVERGREENHCI22@GMAIL.COM",
    "categoryName": "HOME HEALTH AGENCY",
    "categoryCode": "HHA",
    "licenseStatus": "ACTIVE",
    "inService": true,
    "licenseNumber": "550008877",
    "licenseEffectiveDate": "10/16/2025",
    "licenseExpirationDate": "10/15/2026",
    "dataDate": "10/18/2025",
    "capacity": 0,
    "address": "12444 VICTORY BLVD, SUITE 411-G",
    "city": "NORTH HOLLYWOOD",
    "zip": "91606",
    "county": "LOS ANGELES",
    "phone": "(818) 304-8020",
    "lat": 34.186446,
    "lng": -118.40454
  },
  {
    "id": "630025496",
    "name": "EVERLOVING HEALTH CARE INC",
    "npi": null,
    "hcaiId": "406190146",
    "businessName": "EVERLOVING HEALTH CARE INC",
    "contactEmail": "EVERLOVINGHCI@GMAIL.COM",
    "categoryName": "HOME HEALTH AGENCY",
    "categoryCode": "HHA",
    "licenseStatus": "ACTIVE",
    "inService": true,
    "licenseNumber": "550008902",
    "licenseEffectiveDate": "09/01/2025",
    "licenseExpirationDate": "08/31/2026",
    "dataDate": "10/18/2025",
    "capacity": 0,
    "address": "12444 VICTORY BLVD, SUITE 411-N",
    "city": "NORTH HOLLYWOOD",
    "zip": "91606",
    "county": "LOS ANGELES",
    "phone": "(747) 677-0705",
    "lat": 34.186446,
    "lng": -118.40454
  },
  {
    "id": "630025444",
    "name": "EXODUS HOME HEALTH CARE INC",
    "npi": null,
    "hcaiId": null,
    "businessName": "EXODUS HOME HEALTH CARE INC",
    "contactEmail": "EXODUSHOMEHEALTH@GMAIL.COM",
    "categoryName": "HOME HEALTH AGENCY",
    "categoryCode": "HHA",
    "licenseStatus": "ACTIVE",
    "inService": true,
    "licenseNumber": "550009171",
    "licenseEffectiveDate": "05/24/2025",
    "licenseExpirationDate": "05/23/2026",
    "dataDate": "10/18/2025",
    "capacity": 0,
    "address": "11755 VICTORY BLVD, SUITE 202",
    "city": "NORTH HOLLYWOOD",
    "zip": "91606",
    "county": "LOS ANGELES",
    "phone": "(747) 977-3977",
    "lat": 34.18692591,
    "lng": -118.3897104
  },
  {
    "id": "060001929",
    "name": "FAMILY CARE ADHC",
    "npi": null,
    "hcaiId": null,
    "businessName": "FAMILY CARE ADHC, INC.",
    "contactEmail": "FAMILYCAREADHC@YAHOO.COM",
    "categoryName": "ADULT DAY HEALTH CARE",
    "categoryCode": "ADHC",
    "licenseStatus": "ACTIVE",
    "inService": true,
    "licenseNumber": "060000746",
    "licenseEffectiveDate": "11/01/2025",
    "licenseExpirationDate": "10/31/2026",
    "dataDate": "10/18/2025",
    "capacity": 0,
    "address": "6440 COLDWATER CANYON AVE",
    "city": "NORTH HOLLYWOOD",
    "zip": "91606",
    "county": "LOS ANGELES",
    "phone": "(818) 762-0373",
    "lat": 34.187805,
    "lng": -118.413621
  },
  {
    "id": "630018161",
    "name": "FIDELIA HOME HEALTH SERVICES, INC.",
    "npi": "1891280475",
    "hcaiId": "406191879",
    "businessName": "FIDELIA HOME HEALTH SERVICES, INC",
    "contactEmail": "FIDELIAHHS@YAHOO.COM",
    "categoryName": "HOME HEALTH AGENCY",
    "categoryCode": "HHA",
    "licenseStatus": "ACTIVE",
    "inService": true,
    "licenseNumber": "550004582",
    "licenseEffectiveDate": "03/09/2024",
    "licenseExpirationDate": "03/08/2025",
    "dataDate": "10/18/2025",
    "capacity": 0,
    "address": "12509 OXNARD ST, SUITE 211",
    "city": "NORTH HOLLYWOOD",
    "zip": "91606",
    "county": "LOS ANGELES",
    "phone": "(818) 755-2869",
    "lat": 34.17947711,
    "lng": -118.4058586
  },
  {
    "id": "630025817",
    "name": "FOUR SEASONS HEALTH",
    "npi": null,
    "hcaiId": "406198019",
    "businessName": "FOUR SEASONS HEALTH",
    "contactEmail": "FSEASONSHEALTH@YAHOO.COM",
    "categoryName": "HOME HEALTH AGENCY",
    "categoryCode": "HHA",
    "licenseStatus": "ACTIVE",
    "inService": true,
    "licenseNumber": "550008807",
    "licenseEffectiveDate": "09/09/2025",
    "licenseExpirationDate": "10/31/2025",
    "dataDate": "10/18/2025",
    "capacity": 0,
    "address": "11755 VICTORY BLVD, SUITE 205A",
    "city": "NORTH HOLLYWOOD",
    "zip": "91606",
    "county": "LOS ANGELES",
    "phone": "(818) 855-9515",
    "lat": 34.18674036,
    "lng": -118.3892599
  },
  {
    "id": "630020185",
    "name": "GENERAL CARE GROUP INC",
    "npi": null,
    "hcaiId": "406195693",
    "businessName": "GENERAL CARE GROUP INC.",
    "contactEmail": "GENERALCAREGROUPINC@GMAIL.COM",
    "categoryName": "HOSPICE",
    "categoryCode": "HOSPICE",
    "licenseStatus": "ACTIVE",
    "inService": true,
    "licenseNumber": "550006938",
    "licenseEffectiveDate": "10/06/2025",
    "licenseExpirationDate": "10/05/2027",
    "dataDate": "10/18/2025",
    "capacity": 0,
    "address": "6005 VINELAND AVE, SUITE 202",
    "city": "NORTH HOLLYWOOD",
    "zip": "91606",
    "county": "LOS ANGELES",
    "phone": "(424) 599-4094",
    "lat": 34.179912,
    "lng": -118.3705515
  },
  {
    "id": "630017222",
    "name": "GENERATIONS HOSPICE AND PALLIATIVE CARE, INC",
    "npi": "1609319532",
    "hcaiId": "406191484",
    "businessName": "GENERATIONS HOSPICE AND PALLIATIVE CARE, INC.",
    "contactEmail": "GENERATIONHOSPICEINC@GMAIL.COM",
    "categoryName": "HOSPICE",
    "categoryCode": "HOSPICE",
    "licenseStatus": "ACTIVE",
    "inService": true,
    "licenseNumber": "550004439",
    "licenseEffectiveDate": "10/04/2024",
    "licenseExpirationDate": "10/03/2026",
    "dataDate": "10/18/2025",
    "capacity": 0,
    "address": "6422 BELLINGHAM AVE, SUITE 201",
    "city": "NORTH HOLLYWOOD",
    "zip": "91606",
    "county": "LOS ANGELES",
    "phone": "(818) 824-3486",
    "lat": 34.18739098,
    "lng": -118.398469
  },
  {
    "id": "630025584",
    "name": "GENTLE HANDS HEALTH CARE INC",
    "npi": null,
    "hcaiId": null,
    "businessName": "GENTLE HANDS HEALTH CARE INC",
    "contactEmail": "GENTLEHANDSHCI@GMAIL.COM",
    "categoryName": "HOME HEALTH AGENCY",
    "categoryCode": "HHA",
    "licenseStatus": "ACTIVE",
    "inService": true,
    "licenseNumber": "550008669",
    "licenseEffectiveDate": "07/13/2025",
    "licenseExpirationDate": "07/12/2026",
    "dataDate": "10/18/2025",
    "capacity": 0,
    "address": "12444 VICTORY BLVD, SUITE 411-F",
    "city": "NORTH HOLLYWOOD",
    "zip": "91606",
    "county": "LOS ANGELES",
    "phone": "(818) 290-8462",
    "lat": 34.186446,
    "lng": -118.40454
  },
  {
    "id": "630014239",
    "name": "GENTLE TOUCH HOSPICE CARE, INC.",
    "npi": null,
    "hcaiId": "406198104",
    "businessName": "GENTLE TOUCH HOSPICE CARE, INC.",
    "contactEmail": "GENTLETOUCHHOSPICE@YAHOO.COM",
    "categoryName": "HOSPICE",
    "categoryCode": "HOSPICE",
    "licenseStatus": "ACTIVE",
    "inService": true,
    "licenseNumber": "550002459",
    "licenseEffectiveDate": "10/17/2023",
    "licenseExpirationDate": "10/16/2025",
    "dataDate": "10/18/2025",
    "capacity": 0,
    "address": "6338 COLDWATER CANYON AVE",
    "city": "NORTH HOLLYWOOD",
    "zip": "91606",
    "county": "LOS ANGELES",
    "phone": "(818) 408-8009",
    "lat": 34.186104,
    "lng": -118.413621
  },
  {
    "id": "630019227",
    "name": "GK HOSPICE CARE, INC.",
    "npi": "1609422252",
    "hcaiId": "406192038",
    "businessName": "GK HOSPICE CARE, INC.",
    "contactEmail": "GKHOSPICECARE@GMAIL.COM",
    "categoryName": "HOSPICE",
    "categoryCode": "HOSPICE",
    "licenseStatus": "ACTIVE",
    "inService": true,
    "licenseNumber": "550005151",
    "licenseEffectiveDate": "11/27/2023",
    "licenseExpirationDate": "11/26/2025",
    "dataDate": "10/18/2025",
    "capacity": 0,
    "address": "6440 BELLINGHAM AVE, UNIT 1",
    "city": "NORTH HOLLYWOOD",
    "zip": "91606",
    "county": "LOS ANGELES",
    "phone": "(818) 966-8398",
    "lat": 34.18774499,
    "lng": -118.398469
  },
  {
    "id": "630024787",
    "name": "GNA HOME HEALTH CARE",
    "npi": null,
    "hcaiId": "406197841",
    "businessName": "GNA HOME HEALTH CARE",
    "contactEmail": "GNAHOMEHCARE@GMAIL.COM",
    "categoryName": "HOME HEALTH AGENCY",
    "categoryCode": "HHA",
    "licenseStatus": "ACTIVE",
    "inService": true,
    "licenseNumber": "550008249",
    "licenseEffectiveDate": "12/06/2024",
    "licenseExpirationDate": "12/05/2025",
    "dataDate": "10/18/2025",
    "capacity": 0,
    "address": "6240 LAUREL CANYON BLVD, SUITE 207",
    "city": "NORTH HOLLYWOOD",
    "zip": "91606",
    "county": "LOS ANGELES",
    "phone": "(818) 390-7202",
    "lat": 34.184232,
    "lng": -118.3963095
  },
  {
    "id": "630025484",
    "name": "GOLD EAGLE HOME HEALTH CARE",
    "npi": null,
    "hcaiId": null,
    "businessName": "GOLD EAGLE HOME HEALTH CARE",
    "contactEmail": "GOLDEAGLEHHC@GMAIL.COM",
    "categoryName": "HOME HEALTH AGENCY",
    "categoryCode": "HHA",
    "licenseStatus": "ACTIVE",
    "inService": true,
    "licenseNumber": "550008649",
    "licenseEffectiveDate": "07/13/2024",
    "licenseExpirationDate": "07/12/2025",
    "dataDate": "10/18/2025",
    "capacity": 0,
    "address": "12444 VICTORY BLVD, SUITE 301-Y1",
    "city": "NORTH HOLLYWOOD",
    "zip": "91606",
    "county": "LOS ANGELES",
    "phone": "(747) 297-4010",
    "lat": 34.186446,
    "lng": -118.40454
  },
  {
    "id": "630024606",
    "name": "GOLD STAR COMMUNITY HEALTH CENTER, INC",
    "npi": null,
    "hcaiId": null,
    "businessName": null,
    "contactEmail": "GOLDSTARCHC@GMAIL.COM",
    "categoryName": "PSYCHOLOGY CLINIC",
    "categoryCode": "CMHC",
    "licenseStatus": null,
    "inService": null,
    "licenseNumber": null,
    "licenseEffectiveDate": null,
    "licenseExpirationDate": null,
    "dataDate": "10/18/2025",
    "capacity": 0,
    "address": "6343 VINELAND AVE",
    "city": "NORTH HOLLYWOOD",
    "zip": "91606",
    "county": "LOS ANGELES",
    "phone": "(747) 877-2788",
    "lat": 34.186068,
    "lng": -118.3705245
  },
  {
    "id": "630021245",
    "name": "GOLDEN HEALTH HOSPICE",
    "npi": null,
    "hcaiId": "406195024",
    "businessName": "GOLDEN HEALTH HOSPICE",
    "contactEmail": "GOLDENHEALTHINC@GMAIL.COM",
    "categoryName": "HOSPICE",
    "categoryCode": "HOSPICE",
    "licenseStatus": "ACTIVE",
    "inService": true,
    "licenseNumber": "550007410",
    "licenseEffectiveDate": "10/06/2025",
    "licenseExpirationDate": "10/05/2027",
    "dataDate": "10/18/2025",
    "capacity": 0,
    "address": "12509 OXNARD ST, SUITE 213",
    "city": "NORTH HOLLYWOOD",
    "zip": "91606",
    "county": "LOS ANGELES",
    "phone": "(818) 219-9013",
    "lat": 34.179743,
    "lng": -118.405678
  },
  {
    "id": "630025566",
    "name": "GOLDEN LIFE HEALTH CARE INC",
    "npi": null,
    "hcaiId": "406198163",
    "businessName": "GOLDEN LIFE HEALTH CARE INC",
    "contactEmail": "GOLDENLIFEHCI@GMAIL.COM",
    "categoryName": "HOME HEALTH AGENCY",
    "categoryCode": "HHA",
    "licenseStatus": "ACTIVE",
    "inService": true,
    "licenseNumber": "550008789",
    "licenseEffectiveDate": "10/17/2024",
    "licenseExpirationDate": "10/16/2025",
    "dataDate": "10/18/2025",
    "capacity": 0,
    "address": "12444 VICTORY BLVD, SUITE 301-N1",
    "city": "NORTH HOLLYWOOD",
    "zip": "91606",
    "county": "LOS ANGELES",
    "phone": "(818) 538-6737",
    "lat": 34.186446,
    "lng": -118.40454
  },
  {
    "id": "630018881",
    "name": "GOLDEN LIFE HOSPICE INC",
    "npi": null,
    "hcaiId": "406192215",
    "businessName": "GOLDEN LIFE HOSPICE INC",
    "contactEmail": "GOLDENLIFEHOSPICE@YAHOO.COM",
    "categoryName": "HOSPICE",
    "categoryCode": "HOSPICE",
    "licenseStatus": "ACTIVE",
    "inService": true,
    "licenseNumber": "550005169",
    "licenseEffectiveDate": "12/07/2023",
    "licenseExpirationDate": "12/06/2025",
    "dataDate": "10/18/2025",
    "capacity": 0,
    "address": "12011 VICTORY BLVD, SUITE 207",
    "city": "NORTH HOLLYWOOD",
    "zip": "91606",
    "county": "LOS ANGELES",
    "phone": "(818) 358-2189",
    "lat": 34.186842,
    "lng": -118.394892
  },
  {
    "id": "630025535",
    "name": "GOLDEN ROSE HOME HEALTH",
    "npi": null,
    "hcaiId": "406190033",
    "businessName": "GOLDEN ROSE HOME HEALTH",
    "contactEmail": "GOLDENROSEHH22@GMAIL.COM",
    "categoryName": "HOME HEALTH AGENCY",
    "categoryCode": "HHA",
    "licenseStatus": "ACTIVE",
    "inService": true,
    "licenseNumber": "550008666",
    "licenseEffectiveDate": "07/15/2025",
    "licenseExpirationDate": "07/14/2026",
    "dataDate": "10/18/2025",
    "capacity": 0,
    "address": "12444 VICTORY BLVD, SUITE 301-J",
    "city": "NORTH HOLLYWOOD",
    "zip": "91606",
    "county": "LOS ANGELES",
    "phone": "(818) 324-2687",
    "lat": 34.186446,
    "lng": -118.40454
  },
  {
    "id": "630025466",
    "name": "GOOD HOPE HEALTH CARE SERVICES INC",
    "npi": null,
    "hcaiId": "406198165",
    "businessName": "GOOD HOPE HEALTH CARE SERVICES INC",
    "contactEmail": "GOODHOPEHCSI@GMAIL.COM",
    "categoryName": "HOME HEALTH AGENCY",
    "categoryCode": "HHA",
    "licenseStatus": "ACTIVE",
    "inService": true,
    "licenseNumber": "550008768",
    "licenseEffectiveDate": "10/05/2025",
    "licenseExpirationDate": "10/04/2026",
    "dataDate": "10/18/2025",
    "capacity": 0,
    "address": "12444 VICTORY BLVD, SUITE 411-E",
    "city": "NORTH HOLLYWOOD",
    "zip": "91606",
    "county": "LOS ANGELES",
    "phone": "(818) 334-6321",
    "lat": 34.186446,
    "lng": -118.40454
  },
  {
    "id": "630024650",
    "name": "GOOD HOPE HEALTH SERVICES INC",
    "npi": null,
    "hcaiId": "406197050",
    "businessName": "GOOD HOPE HEALTH SERVICES INC",
    "contactEmail": "GOODHOPEHH@GMAIL.COM",
    "categoryName": "HOME HEALTH AGENCY",
    "categoryCode": "HHA",
    "licenseStatus": "ACTIVE",
    "inService": true,
    "licenseNumber": "550008720",
    "licenseEffectiveDate": "09/05/2025",
    "licenseExpirationDate": "09/04/2026",
    "dataDate": "10/18/2025",
    "capacity": 0,
    "address": "11755 VICTORY BLVD, SUITE 203",
    "city": "NORTH HOLLYWOOD",
    "zip": "91606",
    "county": "LOS ANGELES",
    "phone": "(818) 626-3320",
    "lat": 34.186842,
    "lng": -118.3897845
  },
  {
    "id": "630025527",
    "name": "GREEN LINE HOME CARE INC",
    "npi": null,
    "hcaiId": "406190032",
    "businessName": "GREEN LINE HOME CARE, INC.",
    "contactEmail": "GREENLINEHOMECARE@GMAIL.COM",
    "categoryName": "HOME HEALTH AGENCY",
    "categoryCode": "HHA",
    "licenseStatus": "ACTIVE",
    "inService": true,
    "licenseNumber": "550008663",
    "licenseEffectiveDate": "07/25/2025",
    "licenseExpirationDate": "07/24/2026",
    "dataDate": "10/18/2025",
    "capacity": 0,
    "address": "12444 VICTORY BLVD, SUITE 114",
    "city": "NORTH HOLLYWOOD",
    "zip": "91606",
    "county": "LOS ANGELES",
    "phone": "(818) 624-6360",
    "lat": 34.18636801,
    "lng": -118.404355
  },
  {
    "id": "630019089",
    "name": "GREEN PATH HOME HEALTH",
    "npi": null,
    "hcaiId": "406192803",
    "businessName": "GREEN PATH HOME HEALTH",
    "contactEmail": "GREENPATHHHCA@GMAIL.COM",
    "categoryName": "HOME HEALTH AGENCY",
    "categoryCode": "HHA",
    "licenseStatus": "ACTIVE",
    "inService": true,
    "licenseNumber": "550005706",
    "licenseEffectiveDate": "09/03/2025",
    "licenseExpirationDate": "09/02/2026",
    "dataDate": "10/18/2025",
    "capacity": 0,
    "address": "12158 HAMLIN ST, SUITE 2A",
    "city": "NORTH HOLLYWOOD",
    "zip": "91606",
    "county": "LOS ANGELES",
    "phone": "(818) 331-1913",
    "lat": 34.188381,
    "lng": -118.3984695
  },
  {
    "id": "630025454",
    "name": "GREENWAY HOME HEALTH CARE INC",
    "npi": null,
    "hcaiId": "406190130",
    "businessName": "GREENWAY HOME HEALTH CARE INC",
    "contactEmail": "GREENWAYHHC@GMAIL.COM",
    "categoryName": "HOME HEALTH AGENCY",
    "categoryCode": "HHA",
    "licenseStatus": "ACTIVE",
    "inService": true,
    "licenseNumber": "550008629",
    "licenseEffectiveDate": "06/23/2025",
    "licenseExpirationDate": "06/22/2026",
    "dataDate": "10/18/2025",
    "capacity": 0,
    "address": "12444 VICTORY BLVD, SUITE 301-V",
    "city": "NORTH HOLLYWOOD",
    "zip": "91606",
    "county": "LOS ANGELES",
    "phone": "(818) 812-6444",
    "lat": 34.186446,
    "lng": -118.40454
  },
  {
    "id": "630025490",
    "name": "GUARDIAN ANGELS HOME HEALTH INC",
    "npi": null,
    "hcaiId": "406190275",
    "businessName": "GUARDIAN ANGELS HOME HEALTH INC",
    "contactEmail": "GUARDIANANGELSHOMEHEALTHINC@GMAIL.COM",
    "categoryName": "HOME HEALTH AGENCY",
    "categoryCode": "HHA",
    "licenseStatus": "ACTIVE",
    "inService": true,
    "licenseNumber": "550008983",
    "licenseEffectiveDate": "12/07/2025",
    "licenseExpirationDate": "12/06/2026",
    "dataDate": "10/18/2025",
    "capacity": 0,
    "address": "12444 VICTORY BLVD, SUITE 301-P1",
    "city": "NORTH HOLLYWOOD",
    "zip": "91606",
    "county": "LOS ANGELES",
    "phone": "(213) 652-3322",
    "lat": 34.186446,
    "lng": -118.40454
  },
  {
    "id": "630020679",
    "name": "GUARDIAN ANGELS HOME HEALTHCARE INC",
    "npi": null,
    "hcaiId": "406193062",
    "businessName": "GUARDIAN ANGELS HOME HEALTHCARE INC",
    "contactEmail": "GUARDIANANGELSHH@GMAIL.COM",
    "categoryName": "HOME HEALTH AGENCY",
    "categoryCode": "HHA",
    "licenseStatus": "ACTIVE",
    "inService": true,
    "licenseNumber": "550006125",
    "licenseEffectiveDate": "03/19/2025",
    "licenseExpirationDate": "03/18/2026",
    "dataDate": "10/18/2025",
    "capacity": 0,
    "address": "12509 OXNARD ST, SUITE 206",
    "city": "NORTH HOLLYWOOD",
    "zip": "91606",
    "county": "LOS ANGELES",
    "phone": "(818) 824-3390",
    "lat": 34.17947711,
    "lng": -118.4058586
  },
  {
    "id": "630025485",
    "name": "GULINYAN HEALTH SERVICES INC",
    "npi": null,
    "hcaiId": "406190131",
    "businessName": "GULINYAN HEALTH SERVICES INC",
    "contactEmail": "GULINYANHSI@GMAIL.COM",
    "categoryName": "HOME HEALTH AGENCY",
    "categoryCode": "HHA",
    "licenseStatus": "ACTIVE",
    "inService": true,
    "licenseNumber": "550008620",
    "licenseEffectiveDate": "12/22/2023",
    "licenseExpirationDate": "06/21/2024",
    "dataDate": "10/18/2025",
    "capacity": 0,
    "address": "12444 VICTORY BLVD, SUITE 411-P",
    "city": "NORTH HOLLYWOOD",
    "zip": "91606",
    "county": "LOS ANGELES",
    "phone": "(747) 250-7355",
    "lat": 34.186446,
    "lng": -118.40454
  },
  {
    "id": "630025094",
    "name": "HAPPINESS HEALTH CARE, INC",
    "npi": null,
    "hcaiId": "406197866",
    "businessName": "HAPPINESS HEALTH CARE, INC",
    "contactEmail": "HHCHAPPINESS@GMAIL.COM",
    "categoryName": "HOME HEALTH AGENCY",
    "categoryCode": "HHA",
    "licenseStatus": "ACTIVE",
    "inService": true,
    "licenseNumber": "550008329",
    "licenseEffectiveDate": "01/16/2025",
    "licenseExpirationDate": "01/15/2026",
    "dataDate": "10/18/2025",
    "capacity": 0,
    "address": "6005 VINELAND AVE, UNIT 209",
    "city": "NORTH HOLLYWOOD",
    "zip": "91606",
    "county": "LOS ANGELES",
    "phone": "(818) 391-1128",
    "lat": 34.179615,
    "lng": -118.370502
  },
  {
    "id": "630015385",
    "name": "HARMONY CONGREGATE LIVING, INC.",
    "npi": null,
    "hcaiId": "206198483",
    "businessName": "HARMONY CONGREGATE LIVING, INC.",
    "contactEmail": "HARMONYLIVINGCLHF@GMAIL.COM",
    "categoryName": "CONGREGATE LIVING HEALTH FACILITY",
    "categoryCode": "CLHF",
    "licenseStatus": "ACTIVE",
    "inService": true,
    "licenseNumber": "550003835",
    "licenseEffectiveDate": "03/14/2025",
    "licenseExpirationDate": "03/13/2026",
    "dataDate": "10/18/2025",
    "capacity": 6,
    "address": "6507 BABCOCK AVE",
    "city": "NORTH HOLLYWOOD",
    "zip": "91606",
    "county": "LOS ANGELES",
    "phone": "(562) 331-0332",
    "lat": 34.188786,
    "lng": -118.40661
  },
  {
    "id": "630019273",
    "name": "HARMONY HOME HEALTH CARE, INC",
    "npi": null,
    "hcaiId": "406195658",
    "businessName": "HARMONY HOME HEALTH CARE, INC",
    "contactEmail": "HARMONYHOMEHEALTH123@GMAIL.COM",
    "categoryName": "HOME HEALTH AGENCY",
    "categoryCode": "HHA",
    "licenseStatus": "ACTIVE",
    "inService": true,
    "licenseNumber": "550006377",
    "licenseEffectiveDate": "08/28/2025",
    "licenseExpirationDate": "08/27/2026",
    "dataDate": "10/18/2025",
    "capacity": 0,
    "address": "12444 VICTORY BLVD, SUITE 211",
    "city": "NORTH HOLLYWOOD",
    "zip": "91606",
    "county": "LOS ANGELES",
    "phone": "(747) 248-2666",
    "lat": 34.186446,
    "lng": -118.40454
  },
  {
    "id": "630020167",
    "name": "HEALING ANGELS HOSPICE CARE, INC.",
    "npi": null,
    "hcaiId": null,
    "businessName": "HEALING ANGELS HOSPICE CARE, INC.",
    "contactEmail": "HEALINGANGELSHOSPICECARE@YAHOO.COM",
    "categoryName": "HOSPICE",
    "categoryCode": "HOSPICE",
    "licenseStatus": "ACTIVE",
    "inService": true,
    "licenseNumber": "550006136",
    "licenseEffectiveDate": "02/24/2025",
    "licenseExpirationDate": "02/23/2027",
    "dataDate": "10/18/2025",
    "capacity": 0,
    "address": "11755 VICTORY BLVD, SUITE 100-C",
    "city": "NORTH HOLLYWOOD",
    "zip": "91606",
    "county": "LOS ANGELES",
    "phone": "(818) 579-4465",
    "lat": 34.186842,
    "lng": -118.3897845
  },
  {
    "id": "630012123",
    "name": "HEALTH FIRST HOSPICE, INC.",
    "npi": "1508002460",
    "hcaiId": "406197489",
    "businessName": "HEALTH FIRST HOSPICE, INC.",
    "contactEmail": "ALINA@HEALTHFIRSTHOSPICE.COM",
    "categoryName": "HOSPICE",
    "categoryCode": "HOSPICE",
    "licenseStatus": "ACTIVE",
    "inService": true,
    "licenseNumber": "550001560",
    "licenseEffectiveDate": "11/08/2022",
    "licenseExpirationDate": "11/07/2024",
    "dataDate": "10/18/2025",
    "capacity": 0,
    "address": "12158 HAMLIN ST, SUITE 6",
    "city": "NORTH HOLLYWOOD",
    "zip": "91606",
    "county": "LOS ANGELES",
    "phone": "(818) 761-1445",
    "lat": 34.188381,
    "lng": -118.3984695
  },
  {
    "id": "630016364",
    "name": "HEALTHY FAMILY HOME HEALTH CARE, INC.",
    "npi": "1982086310",
    "hcaiId": "406198537",
    "businessName": "HEALTHY FAMILY HOME HEALTH CARE, INC",
    "contactEmail": "FAMILYHCARE@YAHOO.COM",
    "categoryName": "HOME HEALTH AGENCY",
    "categoryCode": "HHA",
    "licenseStatus": "ACTIVE",
    "inService": true,
    "licenseNumber": "550004010",
    "licenseEffectiveDate": "11/07/2024",
    "licenseExpirationDate": "11/06/2025",
    "dataDate": "10/18/2025",
    "capacity": 0,
    "address": "6422 BELLINGHAM AVE, UNIT 205",
    "city": "NORTH HOLLYWOOD",
    "zip": "91606",
    "county": "LOS ANGELES",
    "phone": "(800) 929-8982",
    "lat": 34.187436,
    "lng": -118.3985955
  },
  {
    "id": "630011790",
    "name": "HG HOME CARE, INC.",
    "npi": "1831423102",
    "hcaiId": "406197210",
    "businessName": "HG HOME CARE, INC.",
    "contactEmail": "HGHOMECAREINC@YAHOO.COM",
    "categoryName": "HOME HEALTH AGENCY",
    "categoryCode": "HHA",
    "licenseStatus": "ACTIVE",
    "inService": true,
    "licenseNumber": "550000939",
    "licenseEffectiveDate": "03/25/2025",
    "licenseExpirationDate": "03/24/2026",
    "dataDate": "10/18/2025",
    "capacity": 0,
    "address": "6422 BELLINGHAM AVE, SUITE 207",
    "city": "NORTH HOLLYWOOD",
    "zip": "91606",
    "county": "LOS ANGELES",
    "phone": "(818) 851-6056",
    "lat": 34.18739098,
    "lng": -118.398469
  },
  {
    "id": "630025669",
    "name": "HOLISTIC HOME HEALTH SERVICES, INC",
    "npi": null,
    "hcaiId": "406197948",
    "businessName": "HOLISTIC HOME HEALTH SERVICES, INC",
    "contactEmail": "HOLISTICHHS@GMAIL.COM",
    "categoryName": "HOME HEALTH AGENCY",
    "categoryCode": "HHA",
    "licenseStatus": "ACTIVE",
    "inService": true,
    "licenseNumber": "550008745",
    "licenseEffectiveDate": "09/19/2025",
    "licenseExpirationDate": "09/18/2026",
    "dataDate": "10/18/2025",
    "capacity": 0,
    "address": "12444 VICTORY BLVD, SUITE 310",
    "city": "NORTH HOLLYWOOD",
    "zip": "91606",
    "county": "LOS ANGELES",
    "phone": "(818) 616-7588",
    "lat": 34.186446,
    "lng": -118.40454
  },
  {
    "id": "630017234",
    "name": "HOLLY TRINITY HOSPICE, INC.",
    "npi": null,
    "hcaiId": "406191483",
    "businessName": "HOLLY TRINITY HOSPICE, INC.",
    "contactEmail": "HOLYTRINITYHOSPICE@GMAIL.COM",
    "categoryName": "HOSPICE",
    "categoryCode": "HOSPICE",
    "licenseStatus": "ACTIVE",
    "inService": true,
    "licenseNumber": "550004420",
    "licenseEffectiveDate": "08/26/2025",
    "licenseExpirationDate": "10/22/2026",
    "dataDate": "10/18/2025",
    "capacity": 0,
    "address": "6340 NORTH COLDWATER CANYON AVENUE, SUITE 203",
    "city": "NORTH HOLLYWOOD",
    "zip": "91606",
    "county": "LOS ANGELES",
    "phone": "(818) 502-0724",
    "lat": 34.18614149,
    "lng": -118.4136321
  },
  {
    "id": "630026802",
    "name": "HOME HEALTH OF THE VALLEY",
    "npi": null,
    "hcaiId": null,
    "businessName": "HOME HEALTH OF THE VALLEY",
    "contactEmail": "HOMEHEALTHOFTHEVALLEY@GMAIL.COM",
    "categoryName": "HOME HEALTH AGENCY",
    "categoryCode": "HHA",
    "licenseStatus": "ACTIVE",
    "inService": true,
    "licenseNumber": "550009843",
    "licenseEffectiveDate": "11/30/2025",
    "licenseExpirationDate": "05/29/2026",
    "dataDate": "10/18/2025",
    "capacity": 0,
    "address": "12444 VICTORY BLVD, SUITE 210A",
    "city": "NORTH HOLLYWOOD",
    "zip": "91606",
    "county": "LOS ANGELES",
    "phone": "(818) 963-5905",
    "lat": 34.186446,
    "lng": -118.40454
  },
  {
    "id": "630026801",
    "name": "HOME LIFE HEALTHCARE",
    "npi": null,
    "hcaiId": null,
    "businessName": "HOME LIFE HEALTHCARE",
    "contactEmail": "HOMELIFEHOMEHEALTH@GMAIL.COM",
    "categoryName": "HOME HEALTH AGENCY",
    "categoryCode": "HHA",
    "licenseStatus": "ACTIVE",
    "inService": true,
    "licenseNumber": "550009438",
    "licenseEffectiveDate": "03/24/2025",
    "licenseExpirationDate": "09/23/2025",
    "dataDate": "10/18/2025",
    "capacity": 0,
    "address": "12444 VICTORY BLVD, SUITE 111",
    "city": "NORTH HOLLYWOOD",
    "zip": "91606",
    "county": "LOS ANGELES",
    "phone": "(818) 647-1487",
    "lat": 34.186446,
    "lng": -118.40454
  },
  {
    "id": "630025515",
    "name": "HOMESTEAD HOME HEALTH INC",
    "npi": null,
    "hcaiId": "406190160",
    "businessName": "HOMESTEAD HOME HEALTH INC",
    "contactEmail": "HOMESTEADHHINC@GMAIL.COM",
    "categoryName": "HOME HEALTH AGENCY",
    "categoryCode": "HHA",
    "licenseStatus": "ACTIVE",
    "inService": true,
    "licenseNumber": "550008915",
    "licenseEffectiveDate": "11/30/2024",
    "licenseExpirationDate": "11/29/2025",
    "dataDate": "10/18/2025",
    "capacity": 0,
    "address": "12444 VICTORY BLVD, SUITE 301-V2",
    "city": "NORTH HOLLYWOOD",
    "zip": "91606",
    "county": "LOS ANGELES",
    "phone": "(747) 313-6591",
    "lat": 34.186446,
    "lng": -118.40454
  },
  {
    "id": "630025494",
    "name": "HRM HEALTH CARE INC",
    "npi": null,
    "hcaiId": "406190034",
    "businessName": "HRM HEALTH CARE INC",
    "contactEmail": "HRMHCI22@GMAIL.COM",
    "categoryName": "HOME HEALTH AGENCY",
    "categoryCode": "HHA",
    "licenseStatus": "ACTIVE",
    "inService": true,
    "licenseNumber": "550008668",
    "licenseEffectiveDate": "07/26/2025",
    "licenseExpirationDate": "07/25/2026",
    "dataDate": "10/18/2025",
    "capacity": 0,
    "address": "12444 VICTORY BLVD, SUITE 301-M",
    "city": "NORTH HOLLYWOOD",
    "zip": "91606",
    "county": "LOS ANGELES",
    "phone": "(747) 250-8647",
    "lat": 34.186446,
    "lng": -118.40454
  },
  {
    "id": "630025533",
    "name": "HUMANITY HEALTH CARE SERVICES INC",
    "npi": null,
    "hcaiId": "406190289",
    "businessName": "HUMANITY HEALTH CARE SERVICES INC",
    "contactEmail": "HUMANITYHEALTHCSI@GMAIL.COM",
    "categoryName": "HOME HEALTH AGENCY",
    "categoryCode": "HHA",
    "licenseStatus": "ACTIVE",
    "inService": true,
    "licenseNumber": "550008994",
    "licenseEffectiveDate": "03/09/2024",
    "licenseExpirationDate": "09/08/2024",
    "dataDate": "10/18/2025",
    "capacity": 0,
    "address": "12444 VICTORY BLVD, SUITE 301-D",
    "city": "NORTH HOLLYWOOD",
    "zip": "91606",
    "county": "LOS ANGELES",
    "phone": "(747) 877-9339",
    "lat": 34.186446,
    "lng": -118.40454
  },
  {
    "id": "980002307",
    "name": "HYE NURSES HOME HEALTH, INC.",
    "npi": "1467400234",
    "hcaiId": "406196358",
    "businessName": "HYE NURSES HOME HEALTH, INC.",
    "contactEmail": "HYENURSESHH@SBCGLOBAL.NET",
    "categoryName": "HOME HEALTH AGENCY",
    "categoryCode": "HHA",
    "licenseStatus": "ACTIVE",
    "inService": true,
    "licenseNumber": "980001421",
    "licenseEffectiveDate": "10/08/2025",
    "licenseExpirationDate": "10/07/2026",
    "dataDate": "10/18/2025",
    "capacity": 0,
    "address": "12011 VICTORY BLVD, SUITE 202",
    "city": "NORTH HOLLYWOOD",
    "zip": "91606",
    "county": "LOS ANGELES",
    "phone": "(818) 509-1892",
    "lat": 34.186986,
    "lng": -118.394793
  },
  {
    "id": "630017606",
    "name": "ICARE HOSPICE SERVICES, INC.",
    "npi": null,
    "hcaiId": "406192425",
    "businessName": "ICARE HOSPICE SERVICES,INC.",
    "contactEmail": "ICAREHOSPICESERVICES@GMAIL.COM",
    "categoryName": "HOSPICE",
    "categoryCode": "HOSPICE",
    "licenseStatus": "ACTIVE",
    "inService": true,
    "licenseNumber": "550005288",
    "licenseEffectiveDate": "02/15/2024",
    "licenseExpirationDate": "02/14/2026",
    "dataDate": "10/18/2025",
    "capacity": 0,
    "address": "12011 VICTORY BLVD, SUITE 100",
    "city": "NORTH HOLLYWOOD",
    "zip": "91606",
    "county": "LOS ANGELES",
    "phone": "(818) 821-3257",
    "lat": 34.186986,
    "lng": -118.394793
  },
  {
    "id": "630027518",
    "name": "ICF LA LLC",
    "npi": null,
    "hcaiId": null,
    "businessName": "ICF LA LLC",
    "contactEmail": "ICFLA6631@GMAIL.COM",
    "categoryName": "INTERMEDIATE CARE FACILITY-DD/H/N/CN/IID",
    "categoryCode": "ICFDDH",
    "licenseStatus": "ACTIVE",
    "inService": true,
    "licenseNumber": "550009609",
    "licenseEffectiveDate": "04/01/2025",
    "licenseExpirationDate": "09/30/2025",
    "dataDate": "10/18/2025",
    "capacity": 6,
    "address": "6631 CLEON AVE",
    "city": "NORTH HOLLYWOOD",
    "zip": "91606",
    "county": "LOS ANGELES",
    "phone": "(323) 680-0686",
    "lat": 34.191312,
    "lng": -118.368475
  },
  {
    "id": "630025526",
    "name": "ILLUMINATING CARE HOME HEALTH, INC.",
    "npi": null,
    "hcaiId": "406190056",
    "businessName": "ILLUMINATING CARE HOME HEALTH, INC.",
    "contactEmail": "ILLUMINATINGCAREHH@GMAIL.COM",
    "categoryName": "HOME HEALTH AGENCY",
    "categoryCode": "HHA",
    "licenseStatus": "ACTIVE",
    "inService": true,
    "licenseNumber": "550008601",
    "licenseEffectiveDate": "06/23/2025",
    "licenseExpirationDate": "06/22/2026",
    "dataDate": "10/18/2025",
    "capacity": 0,
    "address": "6420 COLDWATER CANYON AVE, SUITE 204 - 205",
    "city": "NORTH HOLLYWOOD",
    "zip": "91606",
    "county": "LOS ANGELES",
    "phone": "(818) 341-1717",
    "lat": 34.187409,
    "lng": -118.4136165
  },
  {
    "id": "630015605",
    "name": "IN GOOD HANDS HOSPICE, INC.",
    "npi": "1083015200",
    "hcaiId": "406191951",
    "businessName": "IN GOOD HANDS HOSPICE, INC.",
    "contactEmail": "CARE@INGOODHANDSHOSPICE.COM",
    "categoryName": "HOSPICE",
    "categoryCode": "HOSPICE",
    "licenseStatus": "ACTIVE",
    "inService": true,
    "licenseNumber": "550003894",
    "licenseEffectiveDate": "03/08/2025",
    "licenseExpirationDate": "03/07/2027",
    "dataDate": "10/18/2025",
    "capacity": 0,
    "address": "12158 HAMLIN ST, SUITE 3",
    "city": "NORTH HOLLYWOOD",
    "zip": "91606",
    "county": "LOS ANGELES",
    "phone": "(818) 760-7164",
    "lat": 34.188381,
    "lng": -118.3984695
  },
  {
    "id": "630020714",
    "name": "INDIGO HOME HEALTH CARE, INC.",
    "npi": null,
    "hcaiId": "406193335",
    "businessName": "INDIGO HOME HEALTH CARE, INC.",
    "contactEmail": "INDIGOHOMEHEALTH@YAHOO.COM",
    "categoryName": "HOME HEALTH AGENCY",
    "categoryCode": "HHA",
    "licenseStatus": "ACTIVE",
    "inService": true,
    "licenseNumber": "550007153",
    "licenseEffectiveDate": "10/08/2025",
    "licenseExpirationDate": "10/07/2026",
    "dataDate": "10/18/2025",
    "capacity": 0,
    "address": "11755 VICTORY BLVD, SUITE 211",
    "city": "NORTH HOLLYWOOD",
    "zip": "91606",
    "county": "LOS ANGELES",
    "phone": "(818) 208-0480",
    "lat": 34.186842,
    "lng": -118.3897845
  },
  {
    "id": "630021460",
    "name": "INTEGRATED HOME HEALTH CARE, INC.",
    "npi": null,
    "hcaiId": "406195389",
    "businessName": "INTEGRATED HOME HEALTH CARE, INC.",
    "contactEmail": "INTEGRATEDHHC24@GMAIL.COM",
    "categoryName": "HOME HEALTH AGENCY",
    "categoryCode": "HHA",
    "licenseStatus": "ACTIVE",
    "inService": true,
    "licenseNumber": "550007995",
    "licenseEffectiveDate": "05/12/2025",
    "licenseExpirationDate": "05/11/2026",
    "dataDate": "10/18/2025",
    "capacity": 0,
    "address": "12444 VICTORY BLVD, SUITE 400",
    "city": "NORTH HOLLYWOOD",
    "zip": "91606",
    "county": "LOS ANGELES",
    "phone": "(818) 650-8053",
    "lat": 34.18637032,
    "lng": -118.4043517
  },
  {
    "id": "630025521",
    "name": "KAE HOME CARE INC",
    "npi": null,
    "hcaiId": null,
    "businessName": "KAE HOME CARE INC",
    "contactEmail": "KAE119958@YAHOO.COM",
    "categoryName": "HOME HEALTH AGENCY",
    "categoryCode": "HHA",
    "licenseStatus": "ACTIVE",
    "inService": true,
    "licenseNumber": "550009247",
    "licenseEffectiveDate": "01/02/2025",
    "licenseExpirationDate": "07/01/2025",
    "dataDate": "10/18/2025",
    "capacity": 0,
    "address": "12444 VICTORY BLVD, SUITE 301-T",
    "city": "NORTH HOLLYWOOD",
    "zip": "91606",
    "county": "LOS ANGELES",
    "phone": "(747) 297-2863",
    "lat": 34.186446,
    "lng": -118.40454
  },
  {
    "id": "630025571",
    "name": "KIND HOME HEALTH SERVICES",
    "npi": null,
    "hcaiId": null,
    "businessName": null,
    "contactEmail": "KINDHHS@GMAIL.COM",
    "categoryName": "HOME HEALTH AGENCY",
    "categoryCode": "HHA",
    "licenseStatus": null,
    "inService": null,
    "licenseNumber": null,
    "licenseEffectiveDate": null,
    "licenseExpirationDate": null,
    "dataDate": "10/18/2025",
    "capacity": 0,
    "address": "12444 VICTORY BLVD, SUITE 301-M2",
    "city": "NORTH HOLLYWOOD",
    "zip": "91606",
    "county": "LOS ANGELES",
    "phone": "(747) 245-4638",
    "lat": 34.186446,
    "lng": -118.40454
  },
  {
    "id": "630021108",
    "name": "KINDNESS HOSPICE CARE, INC.",
    "npi": null,
    "hcaiId": "406193568",
    "businessName": "KINDNESS HOSPICE CARE, INC.",
    "contactEmail": "KINDNESSHOSPICECARE@GMAIL.COM",
    "categoryName": "HOSPICE",
    "categoryCode": "HOSPICE",
    "licenseStatus": "ACTIVE",
    "inService": true,
    "licenseNumber": "550006597",
    "licenseEffectiveDate": "07/28/2023",
    "licenseExpirationDate": "07/27/2025",
    "dataDate": "10/18/2025",
    "capacity": 0,
    "address": "12444 VICTORY BLVD, SUITE 208",
    "city": "NORTH HOLLYWOOD",
    "zip": "91606",
    "county": "LOS ANGELES",
    "phone": "(747) 205-0546",
    "lat": 34.186446,
    "lng": -118.40454
  },
  {
    "id": "630021107",
    "name": "LA PRIME HOME HEALTH, INC.",
    "npi": null,
    "hcaiId": "406193550",
    "businessName": "LA PRIME HOME HEALTH, INC.",
    "contactEmail": "LAPRIMEHH@GMAIL.COM",
    "categoryName": "HOME HEALTH AGENCY",
    "categoryCode": "HHA",
    "licenseStatus": "ACTIVE",
    "inService": true,
    "licenseNumber": "550006476",
    "licenseEffectiveDate": "07/06/2024",
    "licenseExpirationDate": "07/05/2025",
    "dataDate": "10/18/2025",
    "capacity": 0,
    "address": "12444 VICTORY BLVD, SUITE 215",
    "city": "NORTH HOLLYWOOD",
    "zip": "91606",
    "county": "LOS ANGELES",
    "phone": "(747) 279-4367",
    "lat": 34.186446,
    "lng": -118.40454
  },
  {
    "id": "630025462",
    "name": "LEGEND HEALTH CARE",
    "npi": null,
    "hcaiId": "406190180",
    "businessName": "LEGEND HEALTH CARE",
    "contactEmail": "LEGENDHEALTHLA@GMAIL.COM",
    "categoryName": "HOME HEALTH AGENCY",
    "categoryCode": "HHA",
    "licenseStatus": "ACTIVE",
    "inService": true,
    "licenseNumber": "550008711",
    "licenseEffectiveDate": "02/26/2024",
    "licenseExpirationDate": "08/25/2024",
    "dataDate": "10/18/2025",
    "capacity": 0,
    "address": "12444 VICTORY BLVD, SUITE 301-J3",
    "city": "NORTH HOLLYWOOD",
    "zip": "91606",
    "county": "LOS ANGELES",
    "phone": "(747) 666-1889",
    "lat": 34.18636801,
    "lng": -118.404355
  },
  {
    "id": "630025685",
    "name": "LIGHTHOUSE HOME HEALTHCARE AGENCY INC",
    "npi": null,
    "hcaiId": null,
    "businessName": "LIGHTHOUSE HOME HEALTHCARE AGENCY, INC",
    "contactEmail": "LIGHTHOUSEHOMEHEALTHCARE1@GMAIL.COM",
    "categoryName": "HOME HEALTH AGENCY",
    "categoryCode": "HHA",
    "licenseStatus": "ACTIVE",
    "inService": true,
    "licenseNumber": "550009172",
    "licenseEffectiveDate": "05/17/2025",
    "licenseExpirationDate": "05/16/2026",
    "dataDate": "10/18/2025",
    "capacity": 0,
    "address": "12444 VICTORY BLVD, SUITE 214C",
    "city": "NORTH HOLLYWOOD",
    "zip": "91606",
    "county": "LOS ANGELES",
    "phone": "(747) 307-3336",
    "lat": 34.186446,
    "lng": -118.40454
  },
  {
    "id": "630025568",
    "name": "LLB HOME HEALTHCARE INC",
    "npi": null,
    "hcaiId": "406190038",
    "businessName": "LLB HOME HEALTHCARE INC",
    "contactEmail": "LLBHHCI@GMAIL.COM",
    "categoryName": "HOME HEALTH AGENCY",
    "categoryCode": "HHA",
    "licenseStatus": "ACTIVE",
    "inService": true,
    "licenseNumber": "550008648",
    "licenseEffectiveDate": "07/14/2025",
    "licenseExpirationDate": "07/13/2026",
    "dataDate": "10/18/2025",
    "capacity": 0,
    "address": "12444 VICTORY BLVD, SUITE 411-J",
    "city": "NORTH HOLLYWOOD",
    "zip": "91606",
    "county": "LOS ANGELES",
    "phone": "(747) 977-3979",
    "lat": 34.186446,
    "lng": -118.40454
  },
  {
    "id": "630025495",
    "name": "MANNA HOME HEALTH INC",
    "npi": null,
    "hcaiId": "406190182",
    "businessName": "MANNA HOME HEALTH INC",
    "contactEmail": "MANNAHHI22@GMAIL.COM",
    "categoryName": "HOME HEALTH AGENCY",
    "categoryCode": "HHA",
    "licenseStatus": "ACTIVE",
    "inService": true,
    "licenseNumber": "550008707",
    "licenseEffectiveDate": "08/19/2025",
    "licenseExpirationDate": "08/18/2026",
    "dataDate": "10/18/2025",
    "capacity": 0,
    "address": "12444 VICTORY BLVD, SUITE 411-K",
    "city": "NORTH HOLLYWOOD",
    "zip": "91606",
    "county": "LOS ANGELES",
    "phone": "(747) 977-3597",
    "lat": 34.186446,
    "lng": -118.40454
  },
  {
    "id": "630018525",
    "name": "MARATHON HOME HEALTH, INC.",
    "npi": "1457824146",
    "hcaiId": "406192021",
    "businessName": "MARATHON HOME HEALTH, INC.",
    "contactEmail": "MARATHONHOMEHEALTH@GMAIL.COM",
    "categoryName": "HOME HEALTH AGENCY",
    "categoryCode": "HHA",
    "licenseStatus": "ACTIVE",
    "inService": true,
    "licenseNumber": "550005075",
    "licenseEffectiveDate": "11/07/2024",
    "licenseExpirationDate": "11/06/2025",
    "dataDate": "10/18/2025",
    "capacity": 0,
    "address": "6426 1/2 COLDWATER CANYON AVE",
    "city": "NORTH HOLLYWOOD",
    "zip": "91606",
    "county": "LOS ANGELES",
    "phone": "(747) 251-5550",
    "lat": 34.187526,
    "lng": -118.413621
  },
  {
    "id": "630021411",
    "name": "MARMEN HOSPICE CARE",
    "npi": null,
    "hcaiId": "406193908",
    "businessName": "MARMEN HOSPICE CARE",
    "contactEmail": "MARMENHOSPICE@GMAIL.COM",
    "categoryName": "HOSPICE",
    "categoryCode": "HOSPICE",
    "licenseStatus": "ACTIVE",
    "inService": true,
    "licenseNumber": "550007268",
    "licenseEffectiveDate": "03/04/2025",
    "licenseExpirationDate": "11/16/2025",
    "dataDate": "10/18/2025",
    "capacity": 0,
    "address": "12444 VICTORY BLVD, SUITE 501B",
    "city": "NORTH HOLLYWOOD",
    "zip": "91606",
    "county": "LOS ANGELES",
    "phone": "(361) 977-7777",
    "lat": 34.18637032,
    "lng": -118.4043517
  },
  {
    "id": "630025508",
    "name": "MAX CARE HOME HEALTH INC",
    "npi": null,
    "hcaiId": "406190029",
    "businessName": "MAX CARE HOME HEALTH INC",
    "contactEmail": "MAXCAREHH22@GMAIL.COM",
    "categoryName": "HOME HEALTH AGENCY",
    "categoryCode": "HHA",
    "licenseStatus": "ACTIVE",
    "inService": true,
    "licenseNumber": "550008712",
    "licenseEffectiveDate": "07/19/2025",
    "licenseExpirationDate": "07/18/2026",
    "dataDate": "10/18/2025",
    "capacity": 0,
    "address": "6260 LAUREL CANYON BLVD, SUITE 204",
    "city": "NORTH HOLLYWOOD",
    "zip": "91606",
    "county": "LOS ANGELES",
    "phone": "(424) 777-5525",
    "lat": 34.184633,
    "lng": -118.396267
  },
  {
    "id": "630018878",
    "name": "MAX HEALTH INC.",
    "npi": null,
    "hcaiId": "406192430",
    "businessName": "MAX HEALTH INC.",
    "contactEmail": "EKAMOMICK@MAXNURSINGCARE.COM",
    "categoryName": "HOME HEALTH AGENCY",
    "categoryCode": "HHA",
    "licenseStatus": "ACTIVE",
    "inService": true,
    "licenseNumber": "550005323",
    "licenseEffectiveDate": "02/21/2023",
    "licenseExpirationDate": "02/20/2024",
    "dataDate": "10/18/2025",
    "capacity": 0,
    "address": "11631 VICTORY BLVD, SUITE 207",
    "city": "NORTH HOLLYWOOD",
    "zip": "91606",
    "county": "LOS ANGELES",
    "phone": "(310) 279-3905",
    "lat": 34.187004,
    "lng": -118.386081
  },
  {
    "id": "630019586",
    "name": "MAYFAIR HOME HEALTH SERVICES, INC.",
    "npi": null,
    "hcaiId": "406195259",
    "businessName": "MAYFAIR HOME CARE SERVICES",
    "contactEmail": "MAYFAIRHHS@YAHOO.COM",
    "categoryName": "HOME HEALTH AGENCY",
    "categoryCode": "HHA",
    "licenseStatus": "ACTIVE",
    "inService": true,
    "licenseNumber": "550007428",
    "licenseEffectiveDate": "12/09/2024",
    "licenseExpirationDate": "12/08/2025",
    "dataDate": "10/18/2025",
    "capacity": 0,
    "address": "6340 COLDWATER CANYON AVE, #208",
    "city": "NORTH HOLLYWOOD",
    "zip": "91606",
    "county": "LOS ANGELES",
    "phone": "(818) 760-6410",
    "lat": 34.18614,
    "lng": -118.413621
  },
  {
    "id": "630021067",
    "name": "MELODY HOME HEALTH CARE, INC",
    "npi": null,
    "hcaiId": "406193270",
    "businessName": "MELODY HOME HEALTH CARE, INC",
    "contactEmail": "MELODYHOMEHEALTH744@GMAIL.COM",
    "categoryName": "HOME HEALTH AGENCY",
    "categoryCode": "HHA",
    "licenseStatus": "ACTIVE",
    "inService": true,
    "licenseNumber": "550006806",
    "licenseEffectiveDate": "09/16/2025",
    "licenseExpirationDate": "09/15/2026",
    "dataDate": "10/18/2025",
    "capacity": 0,
    "address": "12444 VICTORY BLVD, SUITE 217",
    "city": "NORTH HOLLYWOOD",
    "zip": "91606",
    "county": "LOS ANGELES",
    "phone": "(747) 282-0370",
    "lat": 34.186446,
    "lng": -118.40454
  },
  {
    "id": "630015677",
    "name": "MIRACLE CARE HOSPICE, INC.",
    "npi": "1083018931",
    "hcaiId": "406198498",
    "businessName": "MIRACLE CARE HOSPICE, INC.",
    "contactEmail": "MIRACLEHOSPICE@GMAIL.COM",
    "categoryName": "HOSPICE",
    "categoryCode": "HOSPICE",
    "licenseStatus": "ACTIVE",
    "inService": true,
    "licenseNumber": "550003952",
    "licenseEffectiveDate": "08/08/2021",
    "licenseExpirationDate": "08/07/2023",
    "dataDate": "10/18/2025",
    "capacity": 0,
    "address": "12011 VICTORY BLVD, SUITE 206",
    "city": "NORTH HOLLYWOOD",
    "zip": "91606",
    "county": "LOS ANGELES",
    "phone": "(818) 762-2410",
    "lat": 34.186986,
    "lng": -118.394793
  },
  {
    "id": "630021365",
    "name": "MIRACLE HANDS HOSPICE",
    "npi": null,
    "hcaiId": "406194858",
    "businessName": "MIRACLE HANDS HOSPICE",
    "contactEmail": "MIRACLEHANDSHOSPICE@YAHOO.COM",
    "categoryName": "HOSPICE",
    "categoryCode": "HOSPICE",
    "licenseStatus": "ACTIVE",
    "inService": true,
    "licenseNumber": "550006878",
    "licenseEffectiveDate": "11/28/2023",
    "licenseExpirationDate": "09/29/2025",
    "dataDate": "10/18/2025",
    "capacity": 0,
    "address": "6440 BELLINGHAM AVE, SUITE 2",
    "city": "NORTH HOLLYWOOD",
    "zip": "91606",
    "county": "LOS ANGELES",
    "phone": "(626) 593-8131",
    "lat": 34.18774499,
    "lng": -118.398469
  },
  {
    "id": "630025557",
    "name": "MIRACLE HOME HEALTH SERVICES INC",
    "npi": null,
    "hcaiId": null,
    "businessName": "MIRACLE HOME HEALTH SERVICES INC",
    "contactEmail": "MIRACLEHOMEHEALTHSERVICES@GMAIL.COM",
    "categoryName": "HOME HEALTH AGENCY",
    "categoryCode": "HHA",
    "licenseStatus": "ACTIVE",
    "inService": true,
    "licenseNumber": "550009227",
    "licenseEffectiveDate": "11/24/2024",
    "licenseExpirationDate": "05/23/2025",
    "dataDate": "10/18/2025",
    "capacity": 0,
    "address": "12444 VICTORY BLVD, SUITE 411-M",
    "city": "NORTH HOLLYWOOD",
    "zip": "91606",
    "county": "LOS ANGELES",
    "phone": "(747) 444-4512",
    "lat": 34.186446,
    "lng": -118.40454
  },
  {
    "id": "630018695",
    "name": "MIRACLE TOUCH HOME HEALTH CARE, INC.",
    "npi": null,
    "hcaiId": "406192132",
    "businessName": "MIRACLE TOUCH HOME HEALTH CARE, INC.",
    "contactEmail": "MIRACLETOUCHHHC@GMAIL.COM",
    "categoryName": "HOME HEALTH AGENCY",
    "categoryCode": "HHA",
    "licenseStatus": "ACTIVE",
    "inService": true,
    "licenseNumber": "550005132",
    "licenseEffectiveDate": "12/11/2025",
    "licenseExpirationDate": "12/10/2026",
    "dataDate": "10/18/2025",
    "capacity": 0,
    "address": "6005 VINELAND AVE, SUITE 201",
    "city": "NORTH HOLLYWOOD",
    "zip": "91606",
    "county": "LOS ANGELES",
    "phone": "(818) 798-3229",
    "lat": 34.17991998,
    "lng": -118.370556
  },
  {
    "id": "630020478",
    "name": "NEW HOPE HOSPICE CARE",
    "npi": null,
    "hcaiId": "406190220",
    "businessName": "NEW HOPE HOSPICE CARE",
    "contactEmail": "NEWHOPEHOSPICEC@GMAIL.COM",
    "categoryName": "HOSPICE",
    "categoryCode": "HOSPICE",
    "licenseStatus": "ACTIVE",
    "inService": true,
    "licenseNumber": "550006204",
    "licenseEffectiveDate": "03/10/2025",
    "licenseExpirationDate": "03/09/2027",
    "dataDate": "10/18/2025",
    "capacity": 0,
    "address": "12444 VICTORY BLVD, SUITE 408",
    "city": "NORTH HOLLYWOOD",
    "zip": "91606",
    "county": "LOS ANGELES",
    "phone": "(747) 254-6055",
    "lat": 34.186446,
    "lng": -118.40454
  },
  {
    "id": "630022272",
    "name": "NEXTON HOSPICE INC",
    "npi": null,
    "hcaiId": null,
    "businessName": "NEXTON HOSPICE INC",
    "contactEmail": "NEXTONHOSPICE@GMAIL.COM",
    "categoryName": "HOSPICE",
    "categoryCode": "HOSPICE",
    "licenseStatus": "ACTIVE",
    "inService": true,
    "licenseNumber": "550007531",
    "licenseEffectiveDate": "12/09/2023",
    "licenseExpirationDate": "12/08/2025",
    "dataDate": "10/18/2025",
    "capacity": 0,
    "address": "12444 VICTORY BLVD, SUITE 425",
    "city": "NORTH HOLLYWOOD",
    "zip": "91606",
    "county": "LOS ANGELES",
    "phone": "(888) 853-0380",
    "lat": 34.186446,
    "lng": -118.40454
  },
  {
    "id": "630025520",
    "name": "NMD HOME HEALTH",
    "npi": null,
    "hcaiId": null,
    "businessName": "NMD HOME HEALTH",
    "contactEmail": "NMDHOMEHEALTH@GMAIL.COM",
    "categoryName": "HOME HEALTH AGENCY",
    "categoryCode": "HHA",
    "licenseStatus": "ACTIVE",
    "inService": true,
    "licenseNumber": "550008656",
    "licenseEffectiveDate": "01/13/2024",
    "licenseExpirationDate": "07/12/2024",
    "dataDate": "10/18/2025",
    "capacity": 0,
    "address": "12444 VICTORY BLVD, SUITE 301-N2",
    "city": "NORTH HOLLYWOOD",
    "zip": "91606",
    "county": "LOS ANGELES",
    "phone": "(747) 271-4393",
    "lat": 34.186446,
    "lng": -118.40454
  },
  {
    "id": "630023762",
    "name": "NOALAB CLINIC, INC.,",
    "npi": null,
    "hcaiId": "306190517",
    "businessName": "NOALAB CLINIC, INC.",
    "contactEmail": "NOALABHEALTHCARE@GMAIL.COM",
    "categoryName": "PRIMARY CARE CLINIC",
    "categoryCode": "COMTYC",
    "licenseStatus": "ACTIVE",
    "inService": true,
    "licenseNumber": "550008064",
    "licenseEffectiveDate": "12/14/2024",
    "licenseExpirationDate": "12/13/2025",
    "dataDate": "10/18/2025",
    "capacity": 0,
    "address": "6428 COLDWATER CANYON AVE",
    "city": "NORTH HOLLYWOOD",
    "zip": "91606",
    "county": "LOS ANGELES",
    "phone": "(818) 308-6440",
    "lat": 34.187553,
    "lng": -118.4136255
  },
  {
    "id": "630020825",
    "name": "NOBILITY HOME HEALTH, INC.",
    "npi": null,
    "hcaiId": "406195624",
    "businessName": "NOBILITY HOME HEALTH, INC.",
    "contactEmail": "NOBILITYHOMEHEALTH@GMAIL.COM",
    "categoryName": "HOME HEALTH AGENCY",
    "categoryCode": "HHA",
    "licenseStatus": "ACTIVE",
    "inService": true,
    "licenseNumber": "550006218",
    "licenseEffectiveDate": "04/26/2025",
    "licenseExpirationDate": "04/25/2026",
    "dataDate": "10/18/2025",
    "capacity": 0,
    "address": "12444 VICTORY BLVD, SUITE 219",
    "city": "NORTH HOLLYWOOD",
    "zip": "91606",
    "county": "LOS ANGELES",
    "phone": "(714) 310-8703",
    "lat": 34.186446,
    "lng": -118.40454
  },
  {
    "id": "630011359",
    "name": "NOHO HOME HEALTH CARE, INC.",
    "npi": "1033317771",
    "hcaiId": "406197320",
    "businessName": "NOHO HOME HEALTH CARE, INC.",
    "contactEmail": "NOHOHC@YAHOO.COM",
    "categoryName": "HOME HEALTH AGENCY",
    "categoryCode": "HHA",
    "licenseStatus": "ACTIVE",
    "inService": true,
    "licenseNumber": "550000911",
    "licenseEffectiveDate": "10/29/2025",
    "licenseExpirationDate": "10/28/2026",
    "dataDate": "10/18/2025",
    "capacity": 0,
    "address": "6422 1/2 COLDWATER CANYON AVE",
    "city": "NORTH HOLLYWOOD",
    "zip": "91606",
    "county": "LOS ANGELES",
    "phone": "(747) 203-8283",
    "lat": 34.187463,
    "lng": -118.413621
  },
  {
    "id": "630021140",
    "name": "NOHO HOSPICE CARE, INC.",
    "npi": null,
    "hcaiId": "406194862",
    "businessName": "NOHO HOSPICE CARE, INC.",
    "contactEmail": "NOHOHOSPICECARE218@GMAIL.COM",
    "categoryName": "HOSPICE",
    "categoryCode": "HOSPICE",
    "licenseStatus": "ACTIVE",
    "inService": true,
    "licenseNumber": "550006833",
    "licenseEffectiveDate": "07/28/2025",
    "licenseExpirationDate": "07/27/2027",
    "dataDate": "10/18/2025",
    "capacity": 0,
    "address": "11755 VICTORY BLVD, SUITE 218",
    "city": "NORTH HOLLYWOOD",
    "zip": "91606",
    "county": "LOS ANGELES",
    "phone": "(747) 277-8350",
    "lat": 34.186842,
    "lng": -118.3897845
  },
  {
    "id": "930001545",
    "name": "NORTH HOLLYWOOD DIALYSIS",
    "npi": "1073587986",
    "hcaiId": "306196544",
    "businessName": "DVA HEALTHCARE RENAL CARE, INC.",
    "contactEmail": "CAL_C@DAVITA.COM",
    "categoryName": "CHRONIC DIALYSIS CLINIC",
    "categoryCode": "ESRD/CDC",
    "licenseStatus": "ACTIVE",
    "inService": true,
    "licenseNumber": "930000880",
    "licenseEffectiveDate": "03/11/2025",
    "licenseExpirationDate": "03/10/2026",
    "dataDate": "10/18/2025",
    "capacity": 44,
    "address": "12126 VICTORY BLVD",
    "city": "NORTH HOLLYWOOD",
    "zip": "91606",
    "county": "LOS ANGELES",
    "phone": "(818) 980-5070",
    "lat": 34.1865,
    "lng": -118.3976505
  },
  {
    "id": "630027204",
    "name": "NORTH VALLEY HOME CARE",
    "npi": null,
    "hcaiId": null,
    "businessName": "NORTH VALLEY HOME CARE",
    "contactEmail": "NORTHVALLEYHHA@GMAIL.COM",
    "categoryName": "HOME HEALTH AGENCY",
    "categoryCode": "HHA",
    "licenseStatus": "ACTIVE",
    "inService": true,
    "licenseNumber": "550009920",
    "licenseEffectiveDate": "06/19/2025",
    "licenseExpirationDate": "12/18/2025",
    "dataDate": "10/18/2025",
    "capacity": 0,
    "address": "12444 VICTORY BLVD, 414",
    "city": "NORTH HOLLYWOOD",
    "zip": "91606",
    "county": "LOS ANGELES",
    "phone": null,
    "lat": 34.18636801,
    "lng": -118.404355
  },
  {
    "id": "630024889",
    "name": "ONCALL HOME HEALTHCARE, INC",
    "npi": null,
    "hcaiId": null,
    "businessName": "ONCALL HOME HEALTHCARE, INC",
    "contactEmail": "ONCALL2020@YAHOO.COM",
    "categoryName": "HOME HEALTH AGENCY",
    "categoryCode": "HHA",
    "licenseStatus": "ACTIVE",
    "inService": true,
    "licenseNumber": "550009153",
    "licenseEffectiveDate": "05/10/2025",
    "licenseExpirationDate": "05/09/2026",
    "dataDate": "10/18/2025",
    "capacity": 0,
    "address": "11755 VICTORY BLVD, SUITE 180",
    "city": "NORTH HOLLYWOOD",
    "zip": "91606",
    "county": "LOS ANGELES",
    "phone": "(747) 528-0447",
    "lat": 34.18692591,
    "lng": -118.3897104
  },
  {
    "id": "630020839",
    "name": "ONE UP HOME HEALTH CARE INC",
    "npi": null,
    "hcaiId": "406195783",
    "businessName": "ONE UP HOME HEALTH CARE INC",
    "contactEmail": "ONEUPHHC@GMAIL.COM",
    "categoryName": "HOME HEALTH AGENCY",
    "categoryCode": "HHA",
    "licenseStatus": "ACTIVE",
    "inService": true,
    "licenseNumber": "550007811",
    "licenseEffectiveDate": "02/01/2023",
    "licenseExpirationDate": "01/31/2024",
    "dataDate": "10/18/2025",
    "capacity": 0,
    "address": "12444 VICTORY BLVD, SUITE 405",
    "city": "NORTH HOLLYWOOD",
    "zip": "91606",
    "county": "LOS ANGELES",
    "phone": "(747) 247-8212",
    "lat": 34.186446,
    "lng": -118.40454
  },
  {
    "id": "630020872",
    "name": "ONE WORLD HEALTH CARE SERVICES INC",
    "npi": null,
    "hcaiId": "406195591",
    "businessName": "ONE WORLD HEALTH CARE SERVICES INC",
    "contactEmail": "CAROL4NURSING.EV@GMAIL.COM",
    "categoryName": "HOME HEALTH AGENCY",
    "categoryCode": "HHA",
    "licenseStatus": "ACTIVE",
    "inService": true,
    "licenseNumber": "550007423",
    "licenseEffectiveDate": "12/10/2024",
    "licenseExpirationDate": "12/09/2025",
    "dataDate": "10/18/2025",
    "capacity": 0,
    "address": "12444 VICTORY BLVD, SUITE 209",
    "city": "NORTH HOLLYWOOD",
    "zip": "91606",
    "county": "LOS ANGELES",
    "phone": "(747) 248-2684",
    "lat": 34.186446,
    "lng": -118.40454
  },
  {
    "id": "630021559",
    "name": "PARENTS HOME HEALTH CARE, INC.",
    "npi": null,
    "hcaiId": "406193467",
    "businessName": "PARENTS HOME HEALTH CARE, INC.",
    "contactEmail": "PARENTSCAREHH@YAHOO.COM",
    "categoryName": "HOME HEALTH AGENCY",
    "categoryCode": "HHA",
    "licenseStatus": "ACTIVE",
    "inService": true,
    "licenseNumber": "550006948",
    "licenseEffectiveDate": "10/07/2025",
    "licenseExpirationDate": "10/06/2026",
    "dataDate": "10/18/2025",
    "capacity": 0,
    "address": "12444 VICTORY BLVD, SUITE 505",
    "city": "NORTH HOLLYWOOD",
    "zip": "91606",
    "county": "LOS ANGELES",
    "phone": "(747) 666-0640",
    "lat": 34.18636801,
    "lng": -118.404355
  },
  {
    "id": "630020868",
    "name": "PASSIONATE CARE HOME HEALTH SERVICES, INC",
    "npi": null,
    "hcaiId": "406195579",
    "businessName": "PASSIONATE CARE HOME HEALTH SERVICES, INC",
    "contactEmail": "PASSIONATECAREHEALTHCARE@GMAIL.COM",
    "categoryName": "HOME HEALTH AGENCY",
    "categoryCode": "HHA",
    "licenseStatus": "ACTIVE",
    "inService": true,
    "licenseNumber": "550007677",
    "licenseEffectiveDate": "12/22/2024",
    "licenseExpirationDate": "12/21/2025",
    "dataDate": "10/18/2025",
    "capacity": 0,
    "address": "12444 VICTORY BLVD, SUITE 210",
    "city": "NORTH HOLLYWOOD",
    "zip": "91606",
    "county": "LOS ANGELES",
    "phone": "(747) 248-2689",
    "lat": 34.186446,
    "lng": -118.40454
  },
  {
    "id": "630025659",
    "name": "PEACEFUL CARE HOME HEALTHCARE, INC",
    "npi": null,
    "hcaiId": null,
    "businessName": "PEACEFUL CARE HOME HEALTHCARE, INC",
    "contactEmail": "PEACEFULHOMEHEALTHCARE@GMAIL.COM",
    "categoryName": "HOME HEALTH AGENCY",
    "categoryCode": "HHA",
    "licenseStatus": "ACTIVE",
    "inService": true,
    "licenseNumber": "550009145",
    "licenseEffectiveDate": "05/17/2025",
    "licenseExpirationDate": "05/16/2026",
    "dataDate": "10/18/2025",
    "capacity": 0,
    "address": "12444 VICTORY BLVD, SUITE 202C",
    "city": "NORTH HOLLYWOOD",
    "zip": "91606",
    "county": "LOS ANGELES",
    "phone": "(747) 307-3484",
    "lat": 34.186446,
    "lng": -118.40454
  },
  {
    "id": "630021692",
    "name": "PEACEFUL PATH HOME HEALTH CARE, INC.",
    "npi": null,
    "hcaiId": "406195262",
    "businessName": "PEACEFUL PATH HOME HEALTH CARE, INC.",
    "contactEmail": "INFO@PEACFULPATHHOMEHEALTH.COM",
    "categoryName": "HOME HEALTH AGENCY",
    "categoryCode": "HHA",
    "licenseStatus": "ACTIVE",
    "inService": true,
    "licenseNumber": "550007346",
    "licenseEffectiveDate": "11/30/2024",
    "licenseExpirationDate": "11/29/2025",
    "dataDate": "10/18/2025",
    "capacity": 0,
    "address": "12442 1/2 OXNARD ST",
    "city": "NORTH HOLLYWOOD",
    "zip": "91606",
    "county": "LOS ANGELES",
    "phone": "(818) 900-9039",
    "lat": 34.17933889,
    "lng": -118.4044214
  },
  {
    "id": "630025331",
    "name": "PRN CARE HOME HEALTH, INC.",
    "npi": null,
    "hcaiId": "406196511",
    "businessName": "PRN CARE HOME HEALTH, INC.",
    "contactEmail": "PRNCAREHOMEHEALTH@GMAIL.COM",
    "categoryName": "HOME HEALTH AGENCY",
    "categoryCode": "HHA",
    "licenseStatus": "ACTIVE",
    "inService": true,
    "licenseNumber": "550008509",
    "licenseEffectiveDate": "05/03/2025",
    "licenseExpirationDate": "05/02/2026",
    "dataDate": "10/18/2025",
    "capacity": 0,
    "address": "6005 VINELAND AVE, SUITE 103",
    "city": "NORTH HOLLYWOOD",
    "zip": "91606",
    "county": "LOS ANGELES",
    "phone": "(800) 910-1766",
    "lat": 34.179615,
    "lng": -118.370502
  },
  {
    "id": "630020873",
    "name": "PROGRESS HEALTH CARE INC",
    "npi": null,
    "hcaiId": "406195696",
    "businessName": "PROGRESS HEALTH CARE INC",
    "contactEmail": "PROGRESSHEALTHINC@GMAIL.COM",
    "categoryName": "HOME HEALTH AGENCY",
    "categoryCode": "HHA",
    "licenseStatus": "ACTIVE",
    "inService": true,
    "licenseNumber": "550007293",
    "licenseEffectiveDate": "02/18/2025",
    "licenseExpirationDate": "11/22/2025",
    "dataDate": "10/18/2025",
    "capacity": 0,
    "address": "12444 VICTORY BLVD, SUITE 204",
    "city": "NORTH HOLLYWOOD",
    "zip": "91606",
    "county": "LOS ANGELES",
    "phone": "(888) 575-7855",
    "lat": 34.186446,
    "lng": -118.40454
  },
  {
    "id": "630013287",
    "name": "PROMED CARE HOME HEALTH, INC.",
    "npi": "1851689541",
    "hcaiId": "406197687",
    "businessName": "PROMED CARE HOME HEALTH, INC.",
    "contactEmail": "PROMEDCAREHOME@YAHOO.COM",
    "categoryName": "HOME HEALTH AGENCY",
    "categoryCode": "HHA",
    "licenseStatus": "ACTIVE",
    "inService": true,
    "licenseNumber": "550001945",
    "licenseEffectiveDate": "05/23/2025",
    "licenseExpirationDate": "05/22/2026",
    "dataDate": "10/18/2025",
    "capacity": 0,
    "address": "6260 LAUREL CANYON BOULEVARD, SUITE 203",
    "city": "NORTH HOLLYWOOD",
    "zip": "91606",
    "county": "LOS ANGELES",
    "phone": "(818) 508-8112",
    "lat": 34.184646,
    "lng": -118.3963095
  },
  {
    "id": "630020256",
    "name": "PROSPER HEALTH SERVICES, INC.",
    "npi": null,
    "hcaiId": "406193573",
    "businessName": "PROSPER HEALTH SERVICES, INC.",
    "contactEmail": "PROSPERHEALTHSERVICES@GMAIL.COM",
    "categoryName": "HOSPICE",
    "categoryCode": "HOSPICE",
    "licenseStatus": "ACTIVE",
    "inService": true,
    "licenseNumber": "550006596",
    "licenseEffectiveDate": "07/08/2025",
    "licenseExpirationDate": "07/07/2027",
    "dataDate": "10/18/2025",
    "capacity": 0,
    "address": "6005 VINELAND AVE, SUITE 210",
    "city": "NORTH HOLLYWOOD",
    "zip": "91606",
    "county": "LOS ANGELES",
    "phone": "(747) 235-4694",
    "lat": 34.179912,
    "lng": -118.3705515
  },
  {
    "id": "630019062",
    "name": "PRUDENCE HOME HEALTH CARE INC",
    "npi": null,
    "hcaiId": "406192708",
    "businessName": "PRUDENCE HOME HEALTH CARE INC",
    "contactEmail": "PRUDENCEHHC@GMAIL.COM",
    "categoryName": "HOME HEALTH AGENCY",
    "categoryCode": "HHA",
    "licenseStatus": "ACTIVE",
    "inService": true,
    "licenseNumber": "550005500",
    "licenseEffectiveDate": "05/08/2025",
    "licenseExpirationDate": "05/07/2026",
    "dataDate": "10/18/2025",
    "capacity": 0,
    "address": "11755 VICTORY BLVD, SUITE 204",
    "city": "NORTH HOLLYWOOD",
    "zip": "91606",
    "county": "LOS ANGELES",
    "phone": "(818) 616-6710",
    "lat": 34.186926,
    "lng": -118.389699
  },
  {
    "id": "630024379",
    "name": "PUREX HOME HEALTH SERVICES INC",
    "npi": null,
    "hcaiId": "406190209",
    "businessName": "PUREX HOME HEALTH SERVICES INC",
    "contactEmail": "PUREXHHC@GMAIL.COM",
    "categoryName": "HOME HEALTH AGENCY",
    "categoryCode": "HHA",
    "licenseStatus": "ACTIVE",
    "inService": true,
    "licenseNumber": "550008331",
    "licenseEffectiveDate": "01/16/2025",
    "licenseExpirationDate": "01/15/2026",
    "dataDate": "10/18/2025",
    "capacity": 0,
    "address": "11755 VICTORY BLVD, SUITE 104",
    "city": "NORTH HOLLYWOOD",
    "zip": "91606",
    "county": "LOS ANGELES",
    "phone": "(818) 806-9060",
    "lat": 34.186842,
    "lng": -118.3897845
  },
  {
    "id": "630019204",
    "name": "R & D HOME HEALTH CARE, INC.",
    "npi": null,
    "hcaiId": "406193128",
    "businessName": "R & D HOME HEALTH CARE, INC.",
    "contactEmail": "RDHOMEHEALTH@GMAIL.COM",
    "categoryName": "HOME HEALTH AGENCY",
    "categoryCode": "HHA",
    "licenseStatus": "ACTIVE",
    "inService": true,
    "licenseNumber": "550005717",
    "licenseEffectiveDate": "10/03/2024",
    "licenseExpirationDate": "08/10/2025",
    "dataDate": "10/18/2025",
    "capacity": 0,
    "address": "12158 HAMLIN ST, SUITE 5",
    "city": "NORTH HOLLYWOOD",
    "zip": "91606",
    "county": "LOS ANGELES",
    "phone": "(213) 266-8172",
    "lat": 34.18834199,
    "lng": -118.398466
  },
  {
    "id": "630017370",
    "name": "REGIONAL HEALTHCARE, INC.",
    "npi": "1477087690",
    "hcaiId": "406191444",
    "businessName": "REGIONAL HEALTHCARE, INC.",
    "contactEmail": "REGIONALHH@GMAIL.COM",
    "categoryName": "HOME HEALTH AGENCY",
    "categoryCode": "HHA",
    "licenseStatus": "ACTIVE",
    "inService": true,
    "licenseNumber": "550004428",
    "licenseEffectiveDate": "11/08/2024",
    "licenseExpirationDate": "11/07/2025",
    "dataDate": "10/18/2025",
    "capacity": 0,
    "address": "11755 VICTORY BLVD, SUITE 106",
    "city": "NORTH HOLLYWOOD",
    "zip": "91606",
    "county": "LOS ANGELES",
    "phone": "(818) 942-7172",
    "lat": 34.186926,
    "lng": -118.389699
  },
  {
    "id": "630020785",
    "name": "RIGHT AT HOME HOSPICE",
    "npi": null,
    "hcaiId": "406190253",
    "businessName": "RIGHT AT HOME HOSPICE",
    "contactEmail": "RIGHTATHOMEHOSPICE@YAHOO.COM",
    "categoryName": "HOSPICE",
    "categoryCode": "HOSPICE",
    "licenseStatus": "ACTIVE",
    "inService": true,
    "licenseNumber": "550006551",
    "licenseEffectiveDate": "07/16/2023",
    "licenseExpirationDate": "07/15/2025",
    "dataDate": "10/18/2025",
    "capacity": 0,
    "address": "6420 COLDWATER CANYON AVE, SUITE 207",
    "city": "NORTH HOLLYWOOD",
    "zip": "91606",
    "county": "LOS ANGELES",
    "phone": "(818) 579-4748",
    "lat": 34.187409,
    "lng": -118.4136165
  },
  {
    "id": "630024236",
    "name": "SAINT VICTORIA HOME HEALTH CARE",
    "npi": null,
    "hcaiId": "406196530",
    "businessName": "SAINT VICTORIA HOME CARE",
    "contactEmail": "SAINTVICTORIAHC@GMAIL.COM",
    "categoryName": "HOME HEALTH AGENCY",
    "categoryCode": "HHA",
    "licenseStatus": "ACTIVE",
    "inService": true,
    "licenseNumber": "550008217",
    "licenseEffectiveDate": "10/20/2025",
    "licenseExpirationDate": "10/05/2026",
    "dataDate": "10/18/2025",
    "capacity": 0,
    "address": "6350 LAUREL CANYON BLVD, SUITE 202",
    "city": "NORTH HOLLYWOOD",
    "zip": "91606",
    "county": "LOS ANGELES",
    "phone": "(626) 550-0654",
    "lat": 34.186392,
    "lng": -118.3959585
  },
  {
    "id": "630018440",
    "name": "SAM HOME HEALTH, INC",
    "npi": "1336618487",
    "hcaiId": "406191743",
    "businessName": "SAM HOME HEALTH, INC",
    "contactEmail": "SAMHOMEHEALTH@YAHOO.COM",
    "categoryName": "HOME HEALTH AGENCY",
    "categoryCode": "HHA",
    "licenseStatus": "ACTIVE",
    "inService": true,
    "licenseNumber": "550004747",
    "licenseEffectiveDate": "06/06/2024",
    "licenseExpirationDate": "06/05/2025",
    "dataDate": "10/18/2025",
    "capacity": 0,
    "address": "12444 VICTORY BLVD, SUITE 302",
    "city": "NORTH HOLLYWOOD",
    "zip": "91606",
    "county": "LOS ANGELES",
    "phone": "(818) 210-0337",
    "lat": 34.18660189,
    "lng": -118.4042401
  },
  {
    "id": "630024442",
    "name": "SENIOR PLACEMENT AVENUE",
    "npi": null,
    "hcaiId": null,
    "businessName": "SENIOR PLACEMENT AVENUE",
    "contactEmail": "SENIORPLACEMENTAVENUE@GMAIL.COM",
    "categoryName": "REFERRAL AGENCY",
    "categoryCode": "REFRLAG",
    "licenseStatus": "ACTIVE",
    "inService": true,
    "licenseNumber": "550009965",
    "licenseEffectiveDate": "08/22/2025",
    "licenseExpirationDate": "08/21/2026",
    "dataDate": "10/18/2025",
    "capacity": 0,
    "address": "6260 LAUREL CANYON BLVD, UNIT 203A",
    "city": "NORTH HOLLYWOOD",
    "zip": "91606",
    "county": "LOS ANGELES",
    "phone": "(818) 422-0245",
    "lat": 34.184646,
    "lng": -118.3963095
  },
  {
    "id": "630019274",
    "name": "SERENITY NURSING SERVICES, INC.",
    "npi": "1467915470",
    "hcaiId": "406195560",
    "businessName": "SERENITY NURSING SERVICES, INC.",
    "contactEmail": "SERENITYNURSING@YAHOO.COM",
    "categoryName": "HOME HEALTH AGENCY",
    "categoryCode": "HHA",
    "licenseStatus": "ACTIVE",
    "inService": true,
    "licenseNumber": "550005586",
    "licenseEffectiveDate": "07/16/2025",
    "licenseExpirationDate": "07/15/2026",
    "dataDate": "10/18/2025",
    "capacity": 0,
    "address": "11755 VICTORY BLVD, SUITE 290",
    "city": "NORTH HOLLYWOOD",
    "zip": "91606",
    "county": "LOS ANGELES",
    "phone": "(818) 452-9441",
    "lat": 34.186842,
    "lng": -118.3897845
  },
  {
    "id": "630021371",
    "name": "SHELTERING ARMS HOSPICE CARE, INC",
    "npi": null,
    "hcaiId": "406195006",
    "businessName": "SHELTERING ARMS HOSPICE CARE, INC",
    "contactEmail": "SHELTERINGARMSHOSPICE@GMAIL.COM",
    "categoryName": "HOSPICE",
    "categoryCode": "HOSPICE",
    "licenseStatus": "ACTIVE",
    "inService": true,
    "licenseNumber": "550007315",
    "licenseEffectiveDate": "11/29/2023",
    "licenseExpirationDate": "11/28/2025",
    "dataDate": "10/18/2025",
    "capacity": 0,
    "address": "12444 VICTORY BLVD, SUITE 308",
    "city": "NORTH HOLLYWOOD",
    "zip": "91606",
    "county": "LOS ANGELES",
    "phone": "(213) 444-9092",
    "lat": 34.186446,
    "lng": -118.40454
  },
  {
    "id": "630016153",
    "name": "SKY HOME HEALTHCARE, INC.",
    "npi": "1508376443",
    "hcaiId": "406198515",
    "businessName": "SKY HOME HEALTHCARE, INC.",
    "contactEmail": "SKYHOMEHEALTHINC@GMAIL.COM",
    "categoryName": "HOME HEALTH AGENCY",
    "categoryCode": "HHA",
    "licenseStatus": "ACTIVE",
    "inService": true,
    "licenseNumber": "550003924",
    "licenseEffectiveDate": "06/06/2024",
    "licenseExpirationDate": "06/05/2025",
    "dataDate": "10/18/2025",
    "capacity": 0,
    "address": "11755 VICTORY BLVD, SUITE 270",
    "city": "NORTH HOLLYWOOD",
    "zip": "91606",
    "county": "LOS ANGELES",
    "phone": "(818) 206-4250",
    "lat": 34.186842,
    "lng": -118.3897845
  },
  {
    "id": "630021914",
    "name": "SLL HOSPICE CARE INC",
    "npi": null,
    "hcaiId": "406195007",
    "businessName": "SLL HOSPICE CARE INC",
    "contactEmail": "SLLHOSPICECARE@GMAIL.COM",
    "categoryName": "HOSPICE",
    "categoryCode": "HOSPICE",
    "licenseStatus": "ACTIVE",
    "inService": true,
    "licenseNumber": "550007220",
    "licenseEffectiveDate": "08/28/2024",
    "licenseExpirationDate": "11/16/2025",
    "dataDate": "10/18/2025",
    "capacity": 0,
    "address": "12444 VICTORY BLVD, SUITE 200",
    "city": "NORTH HOLLYWOOD",
    "zip": "91606",
    "county": "LOS ANGELES",
    "phone": "(818) 369-6329",
    "lat": 34.18636801,
    "lng": -118.404355
  },
  {
    "id": "630015833",
    "name": "SO CAL HHA",
    "npi": "1942608724",
    "hcaiId": "406198414",
    "businessName": "SO CAL HHA",
    "contactEmail": "SOCALHOMEHEALTH@GMAIL.COM",
    "categoryName": "HOME HEALTH AGENCY",
    "categoryCode": "HHA",
    "licenseStatus": "ACTIVE",
    "inService": true,
    "licenseNumber": "550003669",
    "licenseEffectiveDate": "09/16/2025",
    "licenseExpirationDate": "09/15/2026",
    "dataDate": "10/18/2025",
    "capacity": 0,
    "address": "11507 OXNARD STREET, SUITE 4",
    "city": "NORTH HOLLYWOOD",
    "zip": "91606",
    "county": "LOS ANGELES",
    "phone": "(818) 505-9500",
    "lat": 34.179615,
    "lng": -118.3826115
  },
  {
    "id": "630016333",
    "name": "SO CAL HOSPICE CARE, INC.",
    "npi": null,
    "hcaiId": "406190883",
    "businessName": "SO CAL HOSPICE CARE, INC.",
    "contactEmail": "SOCALHEALTH1@GMAIL.COM",
    "categoryName": "HOSPICE",
    "categoryCode": "HOSPICE",
    "licenseStatus": "ACTIVE",
    "inService": true,
    "licenseNumber": "550003840",
    "licenseEffectiveDate": "04/06/2025",
    "licenseExpirationDate": "04/05/2027",
    "dataDate": "10/18/2025",
    "capacity": 0,
    "address": "11507 OXNARD ST., UNIT 5",
    "city": "NORTH HOLLYWOOD",
    "zip": "91606",
    "county": "LOS ANGELES",
    "phone": "(818) 358-3342",
    "lat": 34.179597,
    "lng": -118.382562
  },
  {
    "id": "630025476",
    "name": "SOCAL HEALTH CARE SERVICES INC",
    "npi": null,
    "hcaiId": "406197043",
    "businessName": "SOCAL HEALTH CARE SERVICES INC.",
    "contactEmail": "SOCALHCSI@GMAIL.COM",
    "categoryName": "HOME HEALTH AGENCY",
    "categoryCode": "HHA",
    "licenseStatus": "ACTIVE",
    "inService": true,
    "licenseNumber": "550008703",
    "licenseEffectiveDate": "08/12/2025",
    "licenseExpirationDate": "08/11/2026",
    "dataDate": "10/18/2025",
    "capacity": 0,
    "address": "12444 VICTORY BLVD, SUITE 301-W1",
    "city": "NORTH HOLLYWOOD",
    "zip": "91606",
    "county": "LOS ANGELES",
    "phone": "(818) 922-7753",
    "lat": 34.186446,
    "lng": -118.40454
  },
  {
    "id": "630020102",
    "name": "SOCAL HOME HEALTH CARE, INC.",
    "npi": null,
    "hcaiId": "406195810",
    "businessName": "SOCAL HOME HEALTH CARE, INC.",
    "contactEmail": "SOCALHHCARE@GMAIL.COM",
    "categoryName": "HOME HEALTH AGENCY",
    "categoryCode": "HHA",
    "licenseStatus": "ACTIVE",
    "inService": true,
    "licenseNumber": "550007841",
    "licenseEffectiveDate": "01/25/2025",
    "licenseExpirationDate": "01/24/2026",
    "dataDate": "10/18/2025",
    "capacity": 0,
    "address": "12509 OXNARD ST, UNIT 215",
    "city": "NORTH HOLLYWOOD",
    "zip": "91606",
    "county": "LOS ANGELES",
    "phone": "(747) 285-2124",
    "lat": 34.179439,
    "lng": -118.405603
  },
  {
    "id": "630026433",
    "name": "SPECIAL ADULT CARE",
    "npi": null,
    "hcaiId": null,
    "businessName": "SPECIAL ADULT CARE",
    "contactEmail": "SPECIALADULTCARE@YAHOO.COM",
    "categoryName": "HOME HEALTH AGENCY",
    "categoryCode": "HHA",
    "licenseStatus": "ACTIVE",
    "inService": true,
    "licenseNumber": "550009194",
    "licenseEffectiveDate": "06/07/2025",
    "licenseExpirationDate": "06/06/2026",
    "dataDate": "10/18/2025",
    "capacity": 0,
    "address": "11755 VICTORY BLVD, SUITE 105",
    "city": "NORTH HOLLYWOOD",
    "zip": "91606",
    "county": "LOS ANGELES",
    "phone": "(818) 459-9933",
    "lat": 34.186842,
    "lng": -118.3897845
  },
  {
    "id": "630025471",
    "name": "ST ARTUR HOME HEALTH INC",
    "npi": null,
    "hcaiId": null,
    "businessName": "ST ARTUR HOME HEALTH INC",
    "contactEmail": "STARTURHH@GMAIL.COM",
    "categoryName": "HOME HEALTH AGENCY",
    "categoryCode": "HHA",
    "licenseStatus": "ACTIVE",
    "inService": true,
    "licenseNumber": "550008999",
    "licenseEffectiveDate": "03/08/2025",
    "licenseExpirationDate": "03/07/2026",
    "dataDate": "10/18/2025",
    "capacity": 0,
    "address": "12444 VICTORY BLVD, SUITE 301-02",
    "city": "NORTH HOLLYWOOD",
    "zip": "91606",
    "county": "LOS ANGELES",
    "phone": "(747) 313-6915",
    "lat": 34.186446,
    "lng": -118.40454
  },
  {
    "id": "630012247",
    "name": "SUPERIOR CARE HOME HEALTH AGENCY, INC.",
    "npi": null,
    "hcaiId": "406197398",
    "businessName": "SUPERIOR CARE HOME HEALTH AGENCY, INC.",
    "contactEmail": "SUPERIORCAREHHA@YAHOO.COM",
    "categoryName": "HOME HEALTH AGENCY",
    "categoryCode": "HHA",
    "licenseStatus": "ACTIVE",
    "inService": true,
    "licenseNumber": "550001279",
    "licenseEffectiveDate": "04/16/2024",
    "licenseExpirationDate": "04/15/2025",
    "dataDate": "10/18/2025",
    "capacity": 0,
    "address": "11755 VICTORY BLVD, UNIT 100B",
    "city": "NORTH HOLLYWOOD",
    "zip": "91606",
    "county": "LOS ANGELES",
    "phone": "(818) 506-8888",
    "lat": 34.186842,
    "lng": -118.3897845
  },
  {
    "id": "630013497",
    "name": "SUPERIOR CARE HOSPICE, INC.",
    "npi": "1427326719",
    "hcaiId": "406198377",
    "businessName": "SUPERIOR CARE HOSPICE, INC.",
    "contactEmail": "SUPERIORCAREHOSPICE@GMAIL.COM",
    "categoryName": "HOSPICE",
    "categoryCode": "HOSPICE",
    "licenseStatus": "ACTIVE",
    "inService": true,
    "licenseNumber": "550002334",
    "licenseEffectiveDate": "06/24/2023",
    "licenseExpirationDate": "06/23/2025",
    "dataDate": "10/18/2025",
    "capacity": 0,
    "address": "11755 VICTORY BLVD, SUITE 103",
    "city": "NORTH HOLLYWOOD",
    "zip": "91606",
    "county": "LOS ANGELES",
    "phone": "(818) 691-3346",
    "lat": 34.186842,
    "lng": -118.3897845
  },
  {
    "id": "630026785",
    "name": "SUPERIOR HOME HEALTH CARE",
    "npi": null,
    "hcaiId": null,
    "businessName": "SUPERIOR HOME HEALTH CARE",
    "contactEmail": "SUPERIORHOMEHC@GMAIL.COM",
    "categoryName": "HOME HEALTH AGENCY",
    "categoryCode": "HHA",
    "licenseStatus": "ACTIVE",
    "inService": true,
    "licenseNumber": "550009868",
    "licenseEffectiveDate": "06/21/2025",
    "licenseExpirationDate": "12/20/2025",
    "dataDate": "10/18/2025",
    "capacity": 0,
    "address": "12444 VICTORY BLVD, SUITE 411-P1",
    "city": "NORTH HOLLYWOOD",
    "zip": "91606",
    "county": "LOS ANGELES",
    "phone": "(747) 566-1530",
    "lat": 34.186446,
    "lng": -118.40454
  },
  {
    "id": "630011468",
    "name": "SUPREME CARE HOME HEALTH, INC.",
    "npi": "1790976389",
    "hcaiId": "406197230",
    "businessName": "SUPREME CARE HOME HEALTH, INC.",
    "contactEmail": "SUPREMECAREHH@YAHOO.COM",
    "categoryName": "HOME HEALTH AGENCY",
    "categoryCode": "HHA",
    "licenseStatus": "ACTIVE",
    "inService": true,
    "licenseNumber": "550000935",
    "licenseEffectiveDate": "03/19/2025",
    "licenseExpirationDate": "03/18/2026",
    "dataDate": "10/18/2025",
    "capacity": 0,
    "address": "10510 VICTORY BLVD, SUITE 205",
    "city": "NORTH HOLLYWOOD",
    "zip": "91606",
    "county": "LOS ANGELES",
    "phone": "(818) 763-5981",
    "lat": 34.184727,
    "lng": -118.3599585
  },
  {
    "id": "630026853",
    "name": "SWEET LIFE HOME HEALTH CARE",
    "npi": null,
    "hcaiId": null,
    "businessName": "SWEET LIFE HOME HEALTH CARE",
    "contactEmail": "SWEETLIFEHC@GMAIL.COM",
    "categoryName": "HOME HEALTH AGENCY",
    "categoryCode": "HHA",
    "licenseStatus": "ACTIVE",
    "inService": true,
    "licenseNumber": "550009869",
    "licenseEffectiveDate": "06/07/2025",
    "licenseExpirationDate": "12/06/2025",
    "dataDate": "10/18/2025",
    "capacity": 0,
    "address": "12444 VICTORY BLVD, SUITE 411-R",
    "city": "NORTH HOLLYWOOD",
    "zip": "91606",
    "county": "LOS ANGELES",
    "phone": "(747) 599-4466",
    "lat": 34.186446,
    "lng": -118.40454
  },
  {
    "id": "630013928",
    "name": "THE AMBIENT HOSPICE INC",
    "npi": "1134476237",
    "hcaiId": "406198151",
    "businessName": "THE AMBIENT HOSPICE INC",
    "contactEmail": "HOSPICEAMBIENT@GMAIL.COM",
    "categoryName": "HOSPICE",
    "categoryCode": "HOSPICE",
    "licenseStatus": "ACTIVE",
    "inService": true,
    "licenseNumber": "550002505",
    "licenseEffectiveDate": "11/25/2023",
    "licenseExpirationDate": "11/24/2025",
    "dataDate": "10/18/2025",
    "capacity": 0,
    "address": "6350 LAUREL CANYON BLVD, SUITE 330",
    "city": "NORTH HOLLYWOOD",
    "zip": "91606",
    "county": "LOS ANGELES",
    "phone": "(818) 495-0888",
    "lat": 34.186194,
    "lng": -118.396314
  },
  {
    "id": "630019921",
    "name": "TRINITY ADHC",
    "npi": null,
    "hcaiId": null,
    "businessName": "TRINITY ADHC, INC.",
    "contactEmail": "TRINITYADHC@YAHOO.COM",
    "categoryName": "ADULT DAY HEALTH CARE",
    "categoryCode": "ADHC",
    "licenseStatus": "ACTIVE",
    "inService": true,
    "licenseNumber": "550005537",
    "licenseEffectiveDate": "06/16/2025",
    "licenseExpirationDate": "06/15/2026",
    "dataDate": "10/18/2025",
    "capacity": 0,
    "address": "6200 LANKERSHIM BLVD",
    "city": "NORTH HOLLYWOOD",
    "zip": "91606",
    "county": "LOS ANGELES",
    "phone": "(818) 358-4205",
    "lat": 34.183323,
    "lng": -118.3855365
  },
  {
    "id": "630013174",
    "name": "TRIUNION HEALTHCARE",
    "npi": "1225321631",
    "hcaiId": "406197904",
    "businessName": "B & D HOSPICE SERVICES",
    "contactEmail": "CUSTOMERCARE@BDHOSPICE.COM",
    "categoryName": "HOSPICE",
    "categoryCode": "HOSPICE",
    "licenseStatus": "ACTIVE",
    "inService": true,
    "licenseNumber": "550002007",
    "licenseEffectiveDate": "06/19/2024",
    "licenseExpirationDate": "06/18/2026",
    "dataDate": "10/18/2025",
    "capacity": 0,
    "address": "6350 LAUREL CANYON BLVD, SUITE 207",
    "city": "NORTH HOLLYWOOD",
    "zip": "91606",
    "county": "LOS ANGELES",
    "phone": "(818) 230-7688",
    "lat": 34.186194,
    "lng": -118.396314
  },
  {
    "id": "630025336",
    "name": "TRUEMED HOME HEALTH, INC.",
    "npi": null,
    "hcaiId": "406197488",
    "businessName": "TRUEMED HOME HEALTH, INC.",
    "contactEmail": "TRUEMEDHH@GMAIL.COM",
    "categoryName": "HOME HEALTH AGENCY",
    "categoryCode": "HHA",
    "licenseStatus": "ACTIVE",
    "inService": true,
    "licenseNumber": "550008523",
    "licenseEffectiveDate": "05/03/2025",
    "licenseExpirationDate": "05/02/2026",
    "dataDate": "10/18/2025",
    "capacity": 0,
    "address": "6005 VINELAND AVE, SUITE 203",
    "city": "NORTH HOLLYWOOD",
    "zip": "91606",
    "county": "LOS ANGELES",
    "phone": "(818) 485-2299",
    "lat": 34.179615,
    "lng": -118.370502
  },
  {
    "id": "630020643",
    "name": "U.S. RENAL CARE NORTH HOLLYWOOD DIALYSIS",
    "npi": null,
    "hcaiId": "306190689",
    "businessName": "USRC NORTH HOLLYWOOD, LLC",
    "contactEmail": "LICENSING@USRENALCARE.COM",
    "categoryName": "CHRONIC DIALYSIS CLINIC",
    "categoryCode": "ESRD/CDC",
    "licenseStatus": "ACTIVE",
    "inService": true,
    "licenseNumber": "550007904",
    "licenseEffectiveDate": "03/15/2025",
    "licenseExpirationDate": "03/14/2026",
    "dataDate": "10/18/2025",
    "capacity": 27,
    "address": "13019 VICTORY BLVD",
    "city": "NORTH HOLLYWOOD",
    "zip": "91606",
    "county": "LOS ANGELES",
    "phone": "(214) 736-2663",
    "lat": 34.18674911,
    "lng": -118.41624
  },
  {
    "id": "630017616",
    "name": "UNIQUE HOSPICE CARE, INC.",
    "npi": "1467976647",
    "hcaiId": "406192175",
    "businessName": "UNIQUE HOSPICE CARE, INC.",
    "contactEmail": "UNIQUEHOSPICE11@GMAIL.COM",
    "categoryName": "HOSPICE",
    "categoryCode": "HOSPICE",
    "licenseStatus": "ACTIVE",
    "inService": true,
    "licenseNumber": "550005220",
    "licenseEffectiveDate": "09/25/2025",
    "licenseExpirationDate": "09/24/2027",
    "dataDate": "10/18/2025",
    "capacity": 0,
    "address": "11755 VICTORY BLVD, SUITE 280",
    "city": "NORTH HOLLYWOOD",
    "zip": "91606",
    "county": "LOS ANGELES",
    "phone": "(818) 722-3458",
    "lat": 34.186842,
    "lng": -118.3897845
  },
  {
    "id": "630025339",
    "name": "UNITY 2 HOME HEALTH, INC.",
    "npi": null,
    "hcaiId": "406196552",
    "businessName": "UNITY 2 HOME HEALTH, INC.",
    "contactEmail": "UNITY2HH@GMAIL.COM",
    "categoryName": "HOME HEALTH AGENCY",
    "categoryCode": "HHA",
    "licenseStatus": "ACTIVE",
    "inService": true,
    "licenseNumber": "550008547",
    "licenseEffectiveDate": "05/24/2025",
    "licenseExpirationDate": "05/23/2026",
    "dataDate": "10/18/2025",
    "capacity": 0,
    "address": "6240 LAUREL CANYON BLVD, SUITE 202",
    "city": "NORTH HOLLYWOOD",
    "zip": "91606",
    "county": "LOS ANGELES",
    "phone": "(818) 714-1970",
    "lat": 34.184232,
    "lng": -118.3963095
  },
  {
    "id": "630025234",
    "name": "US HOME HEALTH CARE AGENCY",
    "npi": null,
    "hcaiId": "406190311",
    "businessName": "US HOME HEALTH CARE AGENCY",
    "contactEmail": "USHOMEHEALTHCAREAGENCY@GMAIL.COM",
    "categoryName": "HOME HEALTH AGENCY",
    "categoryCode": "HHA",
    "licenseStatus": "ACTIVE",
    "inService": true,
    "licenseNumber": "550008299",
    "licenseEffectiveDate": "07/08/2025",
    "licenseExpirationDate": "12/27/2025",
    "dataDate": "10/18/2025",
    "capacity": 0,
    "address": "12444 VICTORY BLVD, SUITE 401",
    "city": "NORTH HOLLYWOOD",
    "zip": "91606",
    "county": "LOS ANGELES",
    "phone": "(818) 922-7110",
    "lat": 34.18636801,
    "lng": -118.404355
  },
  {
    "id": "630019509",
    "name": "VALIANT HOSPICE CARE, INC.",
    "npi": null,
    "hcaiId": "406193992",
    "businessName": "VALIANT HOSPICE CARE, INC.",
    "contactEmail": "VALIANTHOSPICECARE@GMAIL.COM",
    "categoryName": "HOSPICE",
    "categoryCode": "HOSPICE",
    "licenseStatus": "ACTIVE",
    "inService": true,
    "licenseNumber": "550006198",
    "licenseEffectiveDate": "03/15/2025",
    "licenseExpirationDate": "03/14/2027",
    "dataDate": "10/18/2025",
    "capacity": 0,
    "address": "11755 VICTORY BLVD, SUITE 214",
    "city": "NORTH HOLLYWOOD",
    "zip": "91606",
    "county": "LOS ANGELES",
    "phone": "(818) 557-8616",
    "lat": 34.186842,
    "lng": -118.3897845
  },
  {
    "id": "630021384",
    "name": "VALLEY CREEK HOME HEALTH",
    "npi": null,
    "hcaiId": "406193600",
    "businessName": "VALLEY CREEK HOME HEALTH",
    "contactEmail": "VALLEYCREEKHH@GMAIL.COM",
    "categoryName": "HOME HEALTH AGENCY",
    "categoryCode": "HHA",
    "licenseStatus": "ACTIVE",
    "inService": true,
    "licenseNumber": "550006850",
    "licenseEffectiveDate": "09/27/2024",
    "licenseExpirationDate": "09/26/2025",
    "dataDate": "10/18/2025",
    "capacity": 0,
    "address": "6005 VINELAND AVE, SUITE 214",
    "city": "NORTH HOLLYWOOD",
    "zip": "91606",
    "county": "LOS ANGELES",
    "phone": "(818) 650-0496",
    "lat": 34.179912,
    "lng": -118.3705515
  },
  {
    "id": "630021349",
    "name": "VALLEY CREEK HOSPICE CARE",
    "npi": null,
    "hcaiId": "406193954",
    "businessName": "VALLEY CREEK HOSPICE CARE",
    "contactEmail": "VALLEYCREEKHC@GMAIL.COM",
    "categoryName": "HOSPICE",
    "categoryCode": "HOSPICE",
    "licenseStatus": "ACTIVE",
    "inService": true,
    "licenseNumber": "550007132",
    "licenseEffectiveDate": "08/26/2025",
    "licenseExpirationDate": "08/25/2027",
    "dataDate": "10/18/2025",
    "capacity": 0,
    "address": "6005 VINELAND AVE, SUITE 215",
    "city": "NORTH HOLLYWOOD",
    "zip": "91606",
    "county": "LOS ANGELES",
    "phone": "(818) 650-0673",
    "lat": 34.179912,
    "lng": -118.3705515
  },
  {
    "id": "980002304",
    "name": "VALLEY HOME HEALTH, INC.",
    "npi": "1437135977",
    "hcaiId": "406196327",
    "businessName": "VALLEY HOME HEALTH, INC.",
    "contactEmail": "INTAKE@VALLEYHOMEHEALTH.COM",
    "categoryName": "HOME HEALTH AGENCY",
    "categoryCode": "HHA",
    "licenseStatus": "ACTIVE",
    "inService": true,
    "licenseNumber": "980001418",
    "licenseEffectiveDate": "11/22/2025",
    "licenseExpirationDate": "11/21/2026",
    "dataDate": "10/18/2025",
    "capacity": 0,
    "address": "6422 BELLINGHAM AVE, SUITE 210",
    "city": "NORTH HOLLYWOOD",
    "zip": "91606",
    "county": "LOS ANGELES",
    "phone": "(818) 509-6764",
    "lat": 34.187436,
    "lng": -118.3985955
  },
  {
    "id": "920000058",
    "name": "VALLEY VILLAGE CARE CENTER",
    "npi": "1326640707",
    "hcaiId": "206190824",
    "businessName": "VALLEY VILLAGE CARE CENTER, LLC",
    "contactEmail": "APPLE.ANG@VALLEYVCC.COM",
    "categoryName": "SKILLED NURSING FACILITY",
    "categoryCode": "SNF",
    "licenseStatus": "ACTIVE",
    "inService": true,
    "licenseNumber": "920000079",
    "licenseEffectiveDate": "11/14/2024",
    "licenseExpirationDate": "11/13/2025",
    "dataDate": "10/18/2025",
    "capacity": 99,
    "address": "13000 VICTORY BLVD",
    "city": "NORTH HOLLYWOOD",
    "zip": "91606",
    "county": "LOS ANGELES",
    "phone": "(818) 985-5990",
    "lat": 34.186509,
    "lng": -118.4161545
  },
  {
    "id": "920000076",
    "name": "VALLEY VISTA NURSING AND TRANSITIONAL CARE, LLC.",
    "npi": "1902895972",
    "hcaiId": "206190831",
    "businessName": "VALLEY VISTA NURSING AND TRANSITIONAL CARE, LLC.",
    "contactEmail": "ADMINISTRATOR@VALLEYVISTANURSING.COM",
    "categoryName": "SKILLED NURSING FACILITY",
    "categoryCode": "SNF",
    "licenseStatus": "ACTIVE",
    "inService": true,
    "licenseNumber": "920000080",
    "licenseEffectiveDate": "04/03/2025",
    "licenseExpirationDate": "04/02/2026",
    "dataDate": "10/18/2025",
    "capacity": 72,
    "address": "6120 VINELAND AVE",
    "city": "NORTH HOLLYWOOD",
    "zip": "91606",
    "county": "LOS ANGELES",
    "phone": "(818) 763-6275",
    "lat": 34.181937,
    "lng": -118.3700565
  },
  {
    "id": "630020088",
    "name": "VANA HOSPICE, INC.",
    "npi": null,
    "hcaiId": "406193643",
    "businessName": "VANA HOSPICE, INC.",
    "contactEmail": "VANAHOSPICE@GMAIL.COM",
    "categoryName": "HOSPICE",
    "categoryCode": "HOSPICE",
    "licenseStatus": "ACTIVE",
    "inService": true,
    "licenseNumber": "550006470",
    "licenseEffectiveDate": "06/10/2025",
    "licenseExpirationDate": "06/09/2027",
    "dataDate": "10/18/2025",
    "capacity": 0,
    "address": "11755 VICTORY BLVD, SUITE 210",
    "city": "NORTH HOLLYWOOD",
    "zip": "91606",
    "county": "LOS ANGELES",
    "phone": "(323) 380-8528",
    "lat": 34.186842,
    "lng": -118.3897845
  },
  {
    "id": "630016703",
    "name": "VINELAND HOME HEALTH CARE, INC.",
    "npi": "1841647328",
    "hcaiId": "406190678",
    "businessName": "VINELAND HOME HEALTH CARE, INC.",
    "contactEmail": "VINELANDHOMEHEALTH@GMAIL.COM",
    "categoryName": "HOME HEALTH AGENCY",
    "categoryCode": "HHA",
    "licenseStatus": "ACTIVE",
    "inService": true,
    "licenseNumber": "550004182",
    "licenseEffectiveDate": "03/07/2024",
    "licenseExpirationDate": "03/06/2025",
    "dataDate": "10/18/2025",
    "capacity": 0,
    "address": "6005 VINELAND AVENUE, SUITE 213",
    "city": "NORTH HOLLYWOOD",
    "zip": "91606",
    "county": "LOS ANGELES",
    "phone": "(818) 623-4945",
    "lat": 34.179912,
    "lng": -118.3705515
  },
  {
    "id": "920000073",
    "name": "VINELAND POST ACUTE",
    "npi": "1992382907",
    "hcaiId": "206190335",
    "businessName": "COLONIAL POST ACUTE LLC",
    "contactEmail": "ADMIN@VINELANDPOSTACUTE.COM",
    "categoryName": "SKILLED NURSING FACILITY",
    "categoryCode": "SNF",
    "licenseStatus": "ACTIVE",
    "inService": true,
    "licenseNumber": "920000036",
    "licenseEffectiveDate": "03/13/2025",
    "licenseExpirationDate": "03/12/2026",
    "dataDate": "10/18/2025",
    "capacity": 49,
    "address": "10830 OXNARD ST",
    "city": "NORTH HOLLYWOOD",
    "zip": "91606",
    "county": "LOS ANGELES",
    "phone": "(818) 763-8247",
    "lat": 34.179057,
    "lng": -118.367199
  },
  {
    "id": "630017543",
    "name": "WELLNESS HEALTHCARE, INC.",
    "npi": null,
    "hcaiId": "406193014",
    "businessName": "WELLNESS HEALTHCARE, INC.",
    "contactEmail": "WELLNESSHEALTHCARE11@GMAIL.COM",
    "categoryName": "HOME HEALTH AGENCY",
    "categoryCode": "HHA",
    "licenseStatus": "ACTIVE",
    "inService": true,
    "licenseNumber": "550004590",
    "licenseEffectiveDate": "02/21/2025",
    "licenseExpirationDate": "02/20/2026",
    "dataDate": "10/18/2025",
    "capacity": 0,
    "address": "12444 VICTORY BLVD, SUITE 102",
    "city": "NORTH HOLLYWOOD",
    "zip": "91606",
    "county": "LOS ANGELES",
    "phone": "(909) 532-8377",
    "lat": 34.186446,
    "lng": -118.40454
  },
  {
    "id": "630015666",
    "name": "WEST COAST HOSPICE CARE, INC.",
    "npi": null,
    "hcaiId": "406198457",
    "businessName": "WEST COAST HOSPICE CARE, INC.",
    "contactEmail": "ASYA.MINA@LIVE.COM",
    "categoryName": "HOSPICE",
    "categoryCode": "HOSPICE",
    "licenseStatus": "ACTIVE",
    "inService": true,
    "licenseNumber": "550003741",
    "licenseEffectiveDate": "10/17/2024",
    "licenseExpirationDate": "10/16/2026",
    "dataDate": "10/18/2025",
    "capacity": 0,
    "address": "6422 BELLINGHAM AVE., SUITE 202B",
    "city": "NORTH HOLLYWOOD",
    "zip": "91606",
    "county": "LOS ANGELES",
    "phone": "(818) 540-5301",
    "lat": 34.187436,
    "lng": -118.3985955
  },
  {
    "id": "630021045",
    "name": "YOUR DREAM HOSPICE CARE, INC.",
    "npi": null,
    "hcaiId": "406193515",
    "businessName": "YOUR DREAM HOSPICE CARE INC",
    "contactEmail": "YOURDREAMHOSPICE@GMAIL.COM",
    "categoryName": "HOSPICE",
    "categoryCode": "HOSPICE",
    "licenseStatus": "ACTIVE",
    "inService": true,
    "licenseNumber": "550006711",
    "licenseEffectiveDate": "08/23/2025",
    "licenseExpirationDate": "08/22/2027",
    "dataDate": "10/18/2025",
    "capacity": 0,
    "address": "12444 VICTORY BLVD, SUITE 218",
    "city": "NORTH HOLLYWOOD",
    "zip": "91606",
    "county": "LOS ANGELES",
    "phone": "(747) 660-0620",
    "lat": 34.186446,
    "lng": -118.40454
  },
  {
    "id": "630025547",
    "name": "YUKSON HOME HEALTH INC",
    "npi": null,
    "hcaiId": "406190035",
    "businessName": "YUKSON HOME HEALTH INC",
    "contactEmail": "YUKSONHHI@GMAIL.COM",
    "categoryName": "HOME HEALTH AGENCY",
    "categoryCode": "HHA",
    "licenseStatus": "ACTIVE",
    "inService": true,
    "licenseNumber": "550008658",
    "licenseEffectiveDate": "01/14/2024",
    "licenseExpirationDate": "07/13/2024",
    "dataDate": "10/18/2025",
    "capacity": 0,
    "address": "12444 VICTORY BLVD, SUITE 301-L2",
    "city": "NORTH HOLLYWOOD",
    "zip": "91606",
    "county": "LOS ANGELES",
    "phone": "(747) 877-9340",
    "lat": 34.186446,
    "lng": -118.40454
  },
  {
    "id": "630025497",
    "name": "ZEUS HEALTH CARE INC",
    "npi": null,
    "hcaiId": null,
    "businessName": "ZEUS HEALTH CARE INC",
    "contactEmail": "ZEUSHCI22@GMAIL.COM",
    "categoryName": "HOME HEALTH AGENCY",
    "categoryCode": "HHA",
    "licenseStatus": "ACTIVE",
    "inService": true,
    "licenseNumber": "550008616",
    "licenseEffectiveDate": "01/12/2024",
    "licenseExpirationDate": "07/11/2024",
    "dataDate": "10/18/2025",
    "capacity": 0,
    "address": "12444 VICTORY BLVD, SUITE 301-J2",
    "city": "NORTH HOLLYWOOD",
    "zip": "91606",
    "county": "LOS ANGELES",
    "phone": "(888) 256-6070",
    "lat": 34.186446,
    "lng": -118.40454
  }
]