[
  {
    "id": "630027688",
    "name": "AAA COMPREHENSIVE HEALTHCARE INC",
    "npi": null,
    "hcaiId": null,
    "businessName": null,
    "contactEmail": null,
    "categoryName": "PRIMARY CARE CLINIC",
    "categoryCode": "FQHC",
    "licenseStatus": null,
    "inService": null,
    "licenseNumber": null,
    "licenseEffectiveDate": null,
    "licenseExpirationDate": null,
    "dataDate": "10/18/2025",
    "capacity": 0,
    "address": "7451 LANKERSHIM BLVD, SUITE A",
    "city": "NORTH HOLLYWOOD",
    "zip": "91605",
    "county": "LOS ANGELES",
    "phone": null,
    "lat": 34.206169,
    "lng": -118.388056
  },
  {
    "id": "630012590",
    "name": "AAA COMPREHENSIVE HEALTHCARE, INC.",
    "npi": "1396067500",
    "hcaiId": "306197781",
    "businessName": "AAA COMPREHENSIVE HEALTHCARE, INC.",
    "contactEmail": "AAACHC800@GMAIL.COM",
    "categoryName": "PRIMARY CARE CLINIC",
    "categoryCode": "COMTYC",
    "licenseStatus": "ACTIVE",
    "inService": true,
    "licenseNumber": "550001275",
    "licenseEffectiveDate": "04/30/2025",
    "licenseExpirationDate": "04/29/2026",
    "dataDate": "10/18/2025",
    "capacity": 0,
    "address": "7451 LANKERSHIM BLVD",
    "city": "NORTH HOLLYWOOD",
    "zip": "91605",
    "county": "LOS ANGELES",
    "phone": "(818) 503-9800",
    "lat": 34.206219,
    "lng": -118.38798
  },
  {
    "id": "630027410",
    "name": "AAA MOBILE MEDICAL VAN",
    "npi": "1396067500",
    "hcaiId": null,
    "businessName": "AAA COMPREHENSIVE HEALTHCARE, INC.",
    "contactEmail": null,
    "categoryName": "PRIMARY CARE CLINIC",
    "categoryCode": "COMTYC",
    "licenseStatus": "ACTIVE",
    "inService": true,
    "licenseNumber": "550001275",
    "licenseEffectiveDate": "04/30/2025",
    "licenseExpirationDate": "04/29/2026",
    "dataDate": "10/18/2025",
    "capacity": 0,
    "address": "7451 LANKERSHIM BLVD",
    "city": "NORTH HOLLYWOOD",
    "zip": "91605",
    "county": "LOS ANGELES",
    "phone": null,
    "lat": 34.206169,
    "lng": -118.388056
  },
  {
    "id": "630025596",
    "name": "ACHIEVE HOME HEALTH CARE, INC",
    "npi": null,
    "hcaiId": null,
    "businessName": "ACHIEVE HOME HEALTH CARE, INC",
    "contactEmail": "ACHIEVEHOMEHC@GMAIL.COM",
    "categoryName": "HOME HEALTH AGENCY",
    "categoryCode": "HHA",
    "licenseStatus": "ACTIVE",
    "inService": true,
    "licenseNumber": "550008735",
    "licenseEffectiveDate": "10/30/2025",
    "licenseExpirationDate": "09/04/2026",
    "dataDate": "10/18/2025",
    "capacity": 0,
    "address": "7321 ATOLL AVE, SUITE 202",
    "city": "NORTH HOLLYWOOD",
    "zip": "91605",
    "county": "LOS ANGELES",
    "phone": "(747) 287-2017",
    "lat": 34.203717,
    "lng": -118.421469
  },
  {
    "id": "630021125",
    "name": "AGA ANGELS HOSPICE, INC.",
    "npi": null,
    "hcaiId": "406193626",
    "businessName": "AGA ANGELS HOSPICE, INC.",
    "contactEmail": "AGAANGELSHOSPICE@GMAIL.COM",
    "categoryName": "HOSPICE",
    "categoryCode": "HOSPICE",
    "licenseStatus": "ACTIVE",
    "inService": true,
    "licenseNumber": "550006928",
    "licenseEffectiveDate": "09/25/2023",
    "licenseExpirationDate": "09/24/2025",
    "dataDate": "10/18/2025",
    "capacity": 0,
    "address": "11791 SHERMAN WAY, UNIT A",
    "city": "NORTH HOLLYWOOD",
    "zip": "91605",
    "county": "LOS ANGELES",
    "phone": "(888) 398-3256",
    "lat": 34.201377,
    "lng": -118.3902165
  },
  {
    "id": "920000001",
    "name": "ALL SAINTS HEALTHCARE",
    "npi": "1477645927",
    "hcaiId": "206190021",
    "businessName": "DARBUN ENTERPRISES INC.",
    "contactEmail": "JPSADM@ALLSAINTS-SUBACUTE.COM",
    "categoryName": "SKILLED NURSING FACILITY",
    "categoryCode": "SNF",
    "licenseStatus": "ACTIVE",
    "inService": true,
    "licenseNumber": "920000001",
    "licenseEffectiveDate": "11/27/2024",
    "licenseExpirationDate": "11/26/2025",
    "dataDate": "10/18/2025",
    "capacity": 128,
    "address": "11810 SATICOY ST",
    "city": "NORTH HOLLYWOOD",
    "zip": "91605",
    "county": "LOS ANGELES",
    "phone": "(818) 982-4600",
    "lat": 34.207569,
    "lng": -118.3906575
  },
  {
    "id": "630028126",
    "name": "ALLEVIATE HOME HEALTH SERVICES INC",
    "npi": null,
    "hcaiId": null,
    "businessName": "ALLEVIATE HOME HEALTH SERVICES INC",
    "contactEmail": "ALLEVIATEHOMEHEALTH@GMAIL.COM",
    "categoryName": "HOME HEALTH AGENCY",
    "categoryCode": "HHA",
    "licenseStatus": "ACTIVE",
    "inService": true,
    "licenseNumber": "550009982",
    "licenseEffectiveDate": "10/08/2025",
    "licenseExpirationDate": "04/07/2026",
    "dataDate": "10/18/2025",
    "capacity": 0,
    "address": "8001 LAUREL CANYON BLVD, SUITE 209",
    "city": "NORTH HOLLYWOOD",
    "zip": "91605",
    "county": "LOS ANGELES",
    "phone": "(747) 271-7026",
    "lat": 34.21615839,
    "lng": -118.3970658
  },
  {
    "id": "630026766",
    "name": "AMERICANA HOME HEALTH CARE, INC",
    "npi": null,
    "hcaiId": null,
    "businessName": "AMERICANA HOME HEALTH CARE, INC",
    "contactEmail": "AMERICANAHOMEHEALTHCAREINC@GMAIL.COM",
    "categoryName": "HOME HEALTH AGENCY",
    "categoryCode": "HHA",
    "licenseStatus": "ACTIVE",
    "inService": true,
    "licenseNumber": "550009641",
    "licenseEffectiveDate": "08/19/2025",
    "licenseExpirationDate": "02/18/2026",
    "dataDate": "10/18/2025",
    "capacity": 0,
    "address": "7525 ETHEL AVE, UNIT H",
    "city": "NORTH HOLLYWOOD",
    "zip": "91605",
    "county": "LOS ANGELES",
    "phone": "(747) 228-9808",
    "lat": 34.208235,
    "lng": -118.4185035
  },
  {
    "id": "630026980",
    "name": "AVVE HOME HEALTH",
    "npi": null,
    "hcaiId": null,
    "businessName": "AVVE HOME HEALTH",
    "contactEmail": "AVVEHOMEHEALTH@GMAIL.COM",
    "categoryName": "HOME HEALTH AGENCY",
    "categoryCode": "HHA",
    "licenseStatus": "ACTIVE",
    "inService": true,
    "licenseNumber": "550009378",
    "licenseEffectiveDate": "09/04/2025",
    "licenseExpirationDate": "09/03/2026",
    "dataDate": "10/18/2025",
    "capacity": 0,
    "address": "13363 WEST SATICOY STREET, SUITE 202",
    "city": "NORTH HOLLYWOOD",
    "zip": "91605",
    "county": "LOS ANGELES",
    "phone": "(818) 839-9623",
    "lat": 34.20874698,
    "lng": -118.4244427
  },
  {
    "id": "630020629",
    "name": "BELLA VITA HOME HEALTH, INC.",
    "npi": null,
    "hcaiId": "406197988",
    "businessName": "BELLA VITA HOME HEALTH, INC.",
    "contactEmail": "BENTABRB@GMAIL.COM",
    "categoryName": "HOME HEALTH AGENCY",
    "categoryCode": "HHA",
    "licenseStatus": "ACTIVE",
    "inService": true,
    "licenseNumber": "550008767",
    "licenseEffectiveDate": "10/12/2024",
    "licenseExpirationDate": "10/11/2025",
    "dataDate": "10/18/2025",
    "capacity": 0,
    "address": "12125 VANOWEN ST, SUITE A",
    "city": "NORTH HOLLYWOOD",
    "zip": "91605",
    "county": "LOS ANGELES",
    "phone": "(805) 285-2940",
    "lat": 34.194204,
    "lng": -118.3974705
  },
  {
    "id": "630024697",
    "name": "BEST PLUS HOME HEALTH, INC",
    "npi": null,
    "hcaiId": "406196255",
    "businessName": "BEST PLUS HOME HEALTH, INC",
    "contactEmail": "BESTPLUSHOMEHEALTH@GMAIL.COM",
    "categoryName": "HOME HEALTH AGENCY",
    "categoryCode": "HHA",
    "licenseStatus": "ACTIVE",
    "inService": true,
    "licenseNumber": "550008196",
    "licenseEffectiveDate": "09/22/2025",
    "licenseExpirationDate": "09/21/2026",
    "dataDate": "10/18/2025",
    "capacity": 0,
    "address": "13058 SHERMAN WAY",
    "city": "NORTH HOLLYWOOD",
    "zip": "91605",
    "county": "LOS ANGELES",
    "phone": "(818) 358-3645",
    "lat": 34.201026,
    "lng": -118.417941
  },
  {
    "id": "960002401",
    "name": "CASA DEL SOL DIVISION",
    "npi": "1457489965",
    "hcaiId": null,
    "businessName": "ABILITY PATHWAYS INCORPORATED",
    "contactEmail": "MRARN@AOL.COM",
    "categoryName": "INTERMEDIATE CARE FACILITY-DD/H/N/CN/IID",
    "categoryCode": "ICFDDN",
    "licenseStatus": "ACTIVE",
    "inService": true,
    "licenseNumber": "960001093",
    "licenseEffectiveDate": "06/19/2025",
    "licenseExpirationDate": "06/18/2026",
    "dataDate": "10/18/2025",
    "capacity": 6,
    "address": "8141 TROOST AVE",
    "city": "NORTH HOLLYWOOD",
    "zip": "91605",
    "county": "LOS ANGELES",
    "phone": "(747) 223-2474",
    "lat": 34.2182489,
    "lng": -118.3863774
  },
  {
    "id": "630019902",
    "name": "COMFORT CARE HOME HEALTH SERVICES, INC.",
    "npi": null,
    "hcaiId": "406192852",
    "businessName": "COMFORT CARE HOME HEALTH SERVICES, INC.",
    "contactEmail": "CCHHSINC@GMAIL.COM",
    "categoryName": "HOME HEALTH AGENCY",
    "categoryCode": "HHA",
    "licenseStatus": "ACTIVE",
    "inService": true,
    "licenseNumber": "550005707",
    "licenseEffectiveDate": "09/04/2025",
    "licenseExpirationDate": "09/03/2026",
    "dataDate": "10/18/2025",
    "capacity": 0,
    "address": "7037 LAUREL CANYON BLVD, UNIT 104",
    "city": "NORTH HOLLYWOOD",
    "zip": "91605",
    "county": "LOS ANGELES",
    "phone": "(818) 579-4012",
    "lat": 34.198794,
    "lng": -118.39671
  },
  {
    "id": "630020024",
    "name": "COMMUNITY CARE MEDICAL CENTER, INC",
    "npi": null,
    "hcaiId": "306190727",
    "businessName": "COMMUNITY CARE MEDICAL CENTER, INC",
    "contactEmail": "CCMCMANAGEMENT@HOTMAIL.COM",
    "categoryName": "PRIMARY CARE CLINIC",
    "categoryCode": "COMTYC",
    "licenseStatus": "ACTIVE",
    "inService": true,
    "licenseNumber": "550007961",
    "licenseEffectiveDate": "02/09/2025",
    "licenseExpirationDate": "02/08/2026",
    "dataDate": "10/18/2025",
    "capacity": 0,
    "address": "13118 SHERMAN WAY",
    "city": "NORTH HOLLYWOOD",
    "zip": "91605",
    "county": "LOS ANGELES",
    "phone": "(818) 308-6318",
    "lat": 34.201008,
    "lng": -118.41885
  },
  {
    "id": "630017535",
    "name": "ELITE COMMUNITY BASED ADULT SERVICES CENTER",
    "npi": null,
    "hcaiId": null,
    "businessName": "ELITE CBAS CENTER, INC.",
    "contactEmail": "ELITECBAS@GMAIL.COM",
    "categoryName": "ADULT DAY HEALTH CARE",
    "categoryCode": "ADHC",
    "licenseStatus": "ACTIVE",
    "inService": true,
    "licenseNumber": "550004487",
    "licenseEffectiveDate": "03/20/2025",
    "licenseExpirationDate": "12/17/2025",
    "dataDate": "10/18/2025",
    "capacity": 0,
    "address": "12825 VANOWEN ST",
    "city": "NORTH HOLLYWOOD",
    "zip": "91605",
    "county": "LOS ANGELES",
    "phone": "(818) 927-4344",
    "lat": 34.194339,
    "lng": -118.412712
  },
  {
    "id": "960001898",
    "name": "EMILY CARE CENTER II",
    "npi": "1518124056",
    "hcaiId": null,
    "businessName": null,
    "contactEmail": "EMILYCARE2@ATT.NET",
    "categoryName": "INTERMEDIATE CARE FACILITY-DD/H/N/CN/IID",
    "categoryCode": "ICFDDH",
    "licenseStatus": "ACTIVE",
    "inService": true,
    "licenseNumber": "960000910",
    "licenseEffectiveDate": "06/12/2025",
    "licenseExpirationDate": "06/11/2026",
    "dataDate": "10/18/2025",
    "capacity": 6,
    "address": "11937 STRATHERN ST",
    "city": "NORTH HOLLYWOOD",
    "zip": "91605",
    "county": "LOS ANGELES",
    "phone": "(818) 504-4881",
    "lat": 34.21602,
    "lng": -118.393416
  },
  {
    "id": "630021052",
    "name": "FRESH START HOSPICE CARE, INC.",
    "npi": null,
    "hcaiId": "406193463",
    "businessName": "FRESH START HOSPICE CARE, INC.",
    "contactEmail": "FRESHSTARTHOSPICE@YAHOO.COM",
    "categoryName": "HOSPICE",
    "categoryCode": "HOSPICE",
    "licenseStatus": "ACTIVE",
    "inService": true,
    "licenseNumber": "550006693",
    "licenseEffectiveDate": "08/18/2025",
    "licenseExpirationDate": "08/17/2027",
    "dataDate": "10/18/2025",
    "capacity": 0,
    "address": "11131 VANOWEN ST, SUITE B",
    "city": "NORTH HOLLYWOOD",
    "zip": "91605",
    "county": "LOS ANGELES",
    "phone": "(818) 637-0093",
    "lat": 34.194087,
    "lng": -118.373517
  },
  {
    "id": "980002199",
    "name": "G.T.S. HOME HEALTH SERVICES, INC.",
    "npi": "1720060593",
    "hcaiId": "406196170",
    "businessName": "G.T.S. HOME HEALTH SERVICES, INC.",
    "contactEmail": "GTSHHS@YAHOO.COM",
    "categoryName": "HOME HEALTH AGENCY",
    "categoryCode": "HHA",
    "licenseStatus": "ACTIVE",
    "inService": true,
    "licenseNumber": "980001320",
    "licenseEffectiveDate": "11/05/2024",
    "licenseExpirationDate": "11/04/2025",
    "dataDate": "10/18/2025",
    "capacity": 0,
    "address": "13363 SATICOY ST, SUITE 101",
    "city": "NORTH HOLLYWOOD",
    "zip": "91605",
    "county": "LOS ANGELES",
    "phone": "(818) 505-0104",
    "lat": 34.208919,
    "lng": -118.424475
  },
  {
    "id": "630020988",
    "name": "GLENDALE HOSPICE INC",
    "npi": null,
    "hcaiId": "406196731",
    "businessName": "GLENDALE HOSPICE INC.",
    "contactEmail": "GLENDALEHOSPICEINC@GMAIL.COM",
    "categoryName": "HOSPICE",
    "categoryCode": "HOSPICE",
    "licenseStatus": "ACTIVE",
    "inService": true,
    "licenseNumber": "550006441",
    "licenseEffectiveDate": "06/23/2025",
    "licenseExpirationDate": "06/22/2027",
    "dataDate": "10/18/2025",
    "capacity": 0,
    "address": "7430 COLDWATER CANYON AVE, UNIT A",
    "city": "NORTH HOLLYWOOD",
    "zip": "91605",
    "county": "LOS ANGELES",
    "phone": "(747) 262-0222",
    "lat": 34.20562598,
    "lng": -118.41367
  },
  {
    "id": "630017105",
    "name": "GMH HOME HEALTH, INC.",
    "npi": "1205378999",
    "hcaiId": "406191000",
    "businessName": "GMH HOME HEALTH, INC.",
    "contactEmail": "GMHHOMEHEALTH@YAHOO.COM",
    "categoryName": "HOME HEALTH AGENCY",
    "categoryCode": "HHA",
    "licenseStatus": "ACTIVE",
    "inService": true,
    "licenseNumber": "550004205",
    "licenseEffectiveDate": "03/29/2025",
    "licenseExpirationDate": "03/28/2026",
    "dataDate": "10/18/2025",
    "capacity": 0,
    "address": "8001 LAUREL CANYON BLVD, SUITE 206",
    "city": "NORTH HOLLYWOOD",
    "zip": "91605",
    "county": "LOS ANGELES",
    "phone": "(818) 452-4460",
    "lat": 34.216155,
    "lng": -118.396998
  },
  {
    "id": "060001877",
    "name": "GOLDEN ACRES ADULT DAY HEALTH CARE CENTER",
    "npi": null,
    "hcaiId": null,
    "businessName": "GOLDEN ACRES ADULT DAY HEALTH CARE CENTER, INC.",
    "contactEmail": "GOLDENACRES.ADHC@GMAIL.COM",
    "categoryName": "ADULT DAY HEALTH CARE",
    "categoryCode": "ADHC",
    "licenseStatus": "ACTIVE",
    "inService": true,
    "licenseNumber": "060000694",
    "licenseEffectiveDate": "11/24/2024",
    "licenseExpirationDate": "11/23/2025",
    "dataDate": "10/18/2025",
    "capacity": 0,
    "address": "12041 STRATHERN ST",
    "city": "NORTH HOLLYWOOD",
    "zip": "91605",
    "county": "LOS ANGELES",
    "phone": "(818) 767-1361",
    "lat": 34.216038,
    "lng": -118.3955805
  },
  {
    "id": "630017070",
    "name": "HEARTFELT HOSPICE AND PALLIATIVE CARE, INC.",
    "npi": "1639527799",
    "hcaiId": "406191488",
    "businessName": "HEARTFELT HOSPICE AND PALLIATIVE CARE, INC.",
    "contactEmail": "AGA@HEARTFELTHOSPICECARE.COM",
    "categoryName": "HOSPICE",
    "categoryCode": "HOSPICE",
    "licenseStatus": "ACTIVE",
    "inService": true,
    "licenseNumber": "550004459",
    "licenseEffectiveDate": "10/18/2024",
    "licenseExpirationDate": "10/17/2026",
    "dataDate": "10/18/2025",
    "capacity": 0,
    "address": "13363 SATICOY STREET, UNIT 106B",
    "city": "NORTH HOLLYWOOD",
    "zip": "91605",
    "county": "LOS ANGELES",
    "phone": "(310) 622-2020",
    "lat": 34.208739,
    "lng": -118.42443
  },
  {
    "id": "630019871",
    "name": "HOLISTIC CARE HOSPICE AND PALLIATIVE SERVICES, INC.",
    "npi": null,
    "hcaiId": "406196062",
    "businessName": "HOLISTIC CARE HOSPICE AND PALLIATIVE SERVICES, INC.",
    "contactEmail": "HCHPSINC@GMAIL.COM",
    "categoryName": "HOSPICE",
    "categoryCode": "HOSPICE",
    "licenseStatus": "ACTIVE",
    "inService": true,
    "licenseNumber": "550005870",
    "licenseEffectiveDate": "11/20/2024",
    "licenseExpirationDate": "11/19/2026",
    "dataDate": "10/18/2025",
    "capacity": 0,
    "address": "7037 LAUREL CANYON BLVD, SUITE 102",
    "city": "NORTH HOLLYWOOD",
    "zip": "91605",
    "county": "LOS ANGELES",
    "phone": "(818) 856-8162",
    "lat": 34.198794,
    "lng": -118.39671
  },
  {
    "id": "630018153",
    "name": "INSTANT HOME CARE, INC.",
    "npi": null,
    "hcaiId": "406192135",
    "businessName": "INSTANT HOME CARE,INC.",
    "contactEmail": "INSTANTHOMECARE18@GMAIL.COM",
    "categoryName": "HOME HEALTH AGENCY",
    "categoryCode": "HHA",
    "licenseStatus": "ACTIVE",
    "inService": true,
    "licenseNumber": "550005135",
    "licenseEffectiveDate": "10/18/2023",
    "licenseExpirationDate": "10/17/2024",
    "dataDate": "10/18/2025",
    "capacity": 0,
    "address": "6829 LANKERSHIM BLVD, SUITE 205",
    "city": "NORTH HOLLYWOOD",
    "zip": "91605",
    "county": "LOS ANGELES",
    "phone": "(818) 452-0508",
    "lat": 34.194753,
    "lng": -118.3882275
  },
  {
    "id": "630020454",
    "name": "INTEGRA HOME HEALTH, INC.",
    "npi": null,
    "hcaiId": "406193804",
    "businessName": "INTEGRA HOME HEALTH, INC.",
    "contactEmail": "BORIS@INTEGRAHH.COM",
    "categoryName": "HOME HEALTH AGENCY",
    "categoryCode": "HHA",
    "licenseStatus": "ACTIVE",
    "inService": true,
    "licenseNumber": "550006504",
    "licenseEffectiveDate": "05/10/2025",
    "licenseExpirationDate": "05/09/2026",
    "dataDate": "10/18/2025",
    "capacity": 0,
    "address": "13257 SATICOY ST, SUITE A",
    "city": "NORTH HOLLYWOOD",
    "zip": "91605",
    "county": "LOS ANGELES",
    "phone": "(818) 751-2020",
    "lat": 34.208478,
    "lng": -118.421712
  },
  {
    "id": "630018610",
    "name": "JOYOUS HOME HEALTH CARE, INC.",
    "npi": null,
    "hcaiId": "406192461",
    "businessName": "JOYOUS HOME HEALTH CARE, INC.",
    "contactEmail": "JOYOUSHHCINC@GMAIL.COM",
    "categoryName": "HOME HEALTH AGENCY",
    "categoryCode": "HHA",
    "licenseStatus": "ACTIVE",
    "inService": true,
    "licenseNumber": "550005455",
    "licenseEffectiveDate": "05/01/2025",
    "licenseExpirationDate": "04/30/2026",
    "dataDate": "10/18/2025",
    "capacity": 0,
    "address": "13363 SATICOY ST, SUITE 103A",
    "city": "NORTH HOLLYWOOD",
    "zip": "91605",
    "county": "LOS ANGELES",
    "phone": "(818) 213-1377",
    "lat": 34.208739,
    "lng": -118.42443
  },
  {
    "id": "630012071",
    "name": "KIDZ KINGDOM",
    "npi": null,
    "hcaiId": null,
    "businessName": "KIDZ KINGDOM, INC.",
    "contactEmail": "KKMPDHC13022@GMAIL.COM",
    "categoryName": "PEDIATRIC DAY HEALTH & RESPITE CARE FACILITY",
    "categoryCode": "PDHRCF",
    "licenseStatus": "ACTIVE",
    "inService": true,
    "licenseNumber": "550001399",
    "licenseEffectiveDate": "11/05/2025",
    "licenseExpirationDate": "11/04/2026",
    "dataDate": "10/18/2025",
    "capacity": 25,
    "address": "13022 SHERMAN WAY",
    "city": "NORTH HOLLYWOOD",
    "zip": "91605",
    "county": "LOS ANGELES",
    "phone": "(818) 554-0927",
    "lat": 34.20112788,
    "lng": -118.4170876
  },
  {
    "id": "630026755",
    "name": "LA VALLEY HOME HEALTH CARE, INC",
    "npi": null,
    "hcaiId": null,
    "businessName": "LA VALLEY HOME HEALTH CARE, INC",
    "contactEmail": "LAVALLEYHOMEHEALTHCAREINC@GMAIL.COM",
    "categoryName": "HOME HEALTH AGENCY",
    "categoryCode": "HHA",
    "licenseStatus": "ACTIVE",
    "inService": true,
    "licenseNumber": "550009648",
    "licenseEffectiveDate": "08/19/2025",
    "licenseExpirationDate": "02/18/2026",
    "dataDate": "10/18/2025",
    "capacity": 0,
    "address": "7525 ETHEL AVE, UNIT G",
    "city": "NORTH HOLLYWOOD",
    "zip": "91605",
    "county": "LOS ANGELES",
    "phone": "(747) 228-9627",
    "lat": 34.208235,
    "lng": -118.4185035
  },
  {
    "id": "630018154",
    "name": "LANKERSHIM HOME CARE, INC.",
    "npi": null,
    "hcaiId": "406192445",
    "businessName": "LANKERSHIM HOME CARE, INC.",
    "contactEmail": "LANKERSHIMHOMECARE@GMAIL.COM",
    "categoryName": "HOME HEALTH AGENCY",
    "categoryCode": "HHA",
    "licenseStatus": "ACTIVE",
    "inService": true,
    "licenseNumber": "550005311",
    "licenseEffectiveDate": "02/28/2024",
    "licenseExpirationDate": "02/27/2025",
    "dataDate": "10/18/2025",
    "capacity": 0,
    "address": "6829 LANKERSHIM BLVD, SUITE 207",
    "city": "NORTH HOLLYWOOD",
    "zip": "91605",
    "county": "LOS ANGELES",
    "phone": "(818) 617-9656",
    "lat": 34.194753,
    "lng": -118.3882275
  },
  {
    "id": "630017069",
    "name": "LIBERAL HOME HEALTH, INC.",
    "npi": "1235587122",
    "hcaiId": "406191887",
    "businessName": "LIBERAL HOME HEALTH, INC.",
    "contactEmail": "AGA@LIBERALHOMEHEALTH.COM",
    "categoryName": "HOME HEALTH AGENCY",
    "categoryCode": "HHA",
    "licenseStatus": "ACTIVE",
    "inService": true,
    "licenseNumber": "550004873",
    "licenseEffectiveDate": "08/24/2025",
    "licenseExpirationDate": "08/23/2026",
    "dataDate": "10/18/2025",
    "capacity": 0,
    "address": "13363 SATICOY STREET, UNIT 106A",
    "city": "NORTH HOLLYWOOD",
    "zip": "91605",
    "county": "LOS ANGELES",
    "phone": "(818) 200-0187",
    "lat": 34.208739,
    "lng": -118.42443
  },
  {
    "id": "630013845",
    "name": "LOTUS HOME HEALTH CARE, INC.",
    "npi": "1679829741",
    "hcaiId": "406197999",
    "businessName": "LOTUS HOME HEALTH CARE, INC.",
    "contactEmail": "LOTUSHOMEHEALTHCARE@GMAIL.COM",
    "categoryName": "HOME HEALTH AGENCY",
    "categoryCode": "HHA",
    "licenseStatus": "ACTIVE",
    "inService": true,
    "licenseNumber": "550002358",
    "licenseEffectiveDate": "10/01/2025",
    "licenseExpirationDate": "10/16/2025",
    "dataDate": "10/18/2025",
    "capacity": 0,
    "address": "7037 LAUREL CANYON BLVD, SUITE 107",
    "city": "NORTH HOLLYWOOD",
    "zip": "91605",
    "county": "LOS ANGELES",
    "phone": "(818) 290-3200",
    "lat": 34.198704,
    "lng": -118.397268
  },
  {
    "id": "630025642",
    "name": "LUXE HOME HEALTH, INC.",
    "npi": null,
    "hcaiId": null,
    "businessName": "LUXE HOME HEALTH, INC.",
    "contactEmail": "4LUXEHH@GMAIL.COM",
    "categoryName": "HOME HEALTH AGENCY",
    "categoryCode": "HHA",
    "licenseStatus": "ACTIVE",
    "inService": true,
    "licenseNumber": "550009034",
    "licenseEffectiveDate": "02/26/2025",
    "licenseExpirationDate": "02/25/2026",
    "dataDate": "10/18/2025",
    "capacity": 0,
    "address": "11840 WYANDOTTE ST",
    "city": "NORTH HOLLYWOOD",
    "zip": "91605",
    "county": "LOS ANGELES",
    "phone": "(818) 434-3291",
    "lat": 34.202898,
    "lng": -118.391535
  },
  {
    "id": "630011358",
    "name": "MAJESTIC HOME HEALTH CARE, INC.",
    "npi": "1740481241",
    "hcaiId": "406197206",
    "businessName": "MAJESTIC HOME HEALTH CARE, INC.",
    "contactEmail": "MAJESTICHH@YAHOO.COM",
    "categoryName": "HOME HEALTH AGENCY",
    "categoryCode": "HHA",
    "licenseStatus": "ACTIVE",
    "inService": true,
    "licenseNumber": "550000900",
    "licenseEffectiveDate": "02/03/2025",
    "licenseExpirationDate": "02/02/2026",
    "dataDate": "10/18/2025",
    "capacity": 0,
    "address": "11434 VANOWEN ST",
    "city": "NORTH HOLLYWOOD",
    "zip": "91605",
    "county": "LOS ANGELES",
    "phone": "(818) 550-9511",
    "lat": 34.19379,
    "lng": -118.3803615
  },
  {
    "id": "630027175",
    "name": "MEDFAST HOME CARE",
    "npi": null,
    "hcaiId": null,
    "businessName": "MEDFAST HOME CARE",
    "contactEmail": "MEDFASTHOMECARE@GMAIL.COM",
    "categoryName": "HOME HEALTH AGENCY",
    "categoryCode": "HHA",
    "licenseStatus": "ACTIVE",
    "inService": true,
    "licenseNumber": "550009683",
    "licenseEffectiveDate": "08/28/2025",
    "licenseExpirationDate": "02/27/2026",
    "dataDate": "10/18/2025",
    "capacity": 0,
    "address": "7430 COLDWATER CANYON AVE, UNIT D",
    "city": "NORTH HOLLYWOOD",
    "zip": "91605",
    "county": "LOS ANGELES",
    "phone": "(818) 433-4282",
    "lat": 34.20562598,
    "lng": -118.41367
  },
  {
    "id": "630025598",
    "name": "MSC HOME HEALTH CARE, INC.",
    "npi": null,
    "hcaiId": "406190155",
    "businessName": "MSC HOME HEALTH CARE, INC.",
    "contactEmail": "4MSCHHC@GMAIL.COM",
    "categoryName": "HOME HEALTH AGENCY",
    "categoryCode": "HHA",
    "licenseStatus": "ACTIVE",
    "inService": true,
    "licenseNumber": "550008925",
    "licenseEffectiveDate": "05/30/2024",
    "licenseExpirationDate": "11/29/2024",
    "dataDate": "10/18/2025",
    "capacity": 0,
    "address": "7401 1/2 VARNA AVE",
    "city": "NORTH HOLLYWOOD",
    "zip": "91605",
    "county": "LOS ANGELES",
    "phone": "(818) 213-2662",
    "lat": 34.20495465,
    "lng": -118.4248069
  },
  {
    "id": "630025561",
    "name": "PASSIONATE HEALTHCARE, INC",
    "npi": null,
    "hcaiId": null,
    "businessName": "PASSIONATE HEALTHCARE, INC",
    "contactEmail": "PASSIONATEHEALTHC@GMAIL.COM",
    "categoryName": "HOME HEALTH AGENCY",
    "categoryCode": "HHA",
    "licenseStatus": "ACTIVE",
    "inService": true,
    "licenseNumber": "550008729",
    "licenseEffectiveDate": "10/28/2025",
    "licenseExpirationDate": "09/04/2026",
    "dataDate": "10/18/2025",
    "capacity": 0,
    "address": "7321 ATOLL AVE, SUITE 104",
    "city": "NORTH HOLLYWOOD",
    "zip": "91605",
    "county": "LOS ANGELES",
    "phone": "(747) 336-4418",
    "lat": 34.203717,
    "lng": -118.421469
  },
  {
    "id": "630020946",
    "name": "PLATINUM HEALTH CARE SERVICES, INC",
    "npi": null,
    "hcaiId": "406193805",
    "businessName": "PLATINUM HEALTH CARE SERVICES, INC",
    "contactEmail": "PLATINUMHH2@GMAIL.COM",
    "categoryName": "HOME HEALTH AGENCY",
    "categoryCode": "HHA",
    "licenseStatus": "ACTIVE",
    "inService": true,
    "licenseNumber": "550006535",
    "licenseEffectiveDate": "05/21/2025",
    "licenseExpirationDate": "05/20/2026",
    "dataDate": "10/18/2025",
    "capacity": 0,
    "address": "8001 LAUREL CANYON BLVD, SUITE 103",
    "city": "NORTH HOLLYWOOD",
    "zip": "91605",
    "county": "LOS ANGELES",
    "phone": "(818) 572-1480",
    "lat": 34.21615998,
    "lng": -118.397019
  },
  {
    "id": "630016543",
    "name": "PROACTIVE HOME HEALTH SERVICES, INC.",
    "npi": "1811368673",
    "hcaiId": "406190395",
    "businessName": "PROACTIVE HOME HEALTH SERVICES, INC.",
    "contactEmail": "PROACTIVEHOMEHEALTH@YAHOO.COM",
    "categoryName": "HOME HEALTH AGENCY",
    "categoryCode": "HHA",
    "licenseStatus": "ACTIVE",
    "inService": true,
    "licenseNumber": "550004120",
    "licenseEffectiveDate": "12/02/2024",
    "licenseExpirationDate": "12/01/2025",
    "dataDate": "10/18/2025",
    "capacity": 0,
    "address": "8001 LAUREL CANYON BLVD., SUITE 202",
    "city": "NORTH HOLLYWOOD, CA",
    "zip": "91605",
    "county": "LOS ANGELES",
    "phone": "(310) 889-0009",
    "lat": 34.21613,
    "lng": -118.397141
  },
  {
    "id": "630024132",
    "name": "SANO VITA HOME HEALTH CARE, INC.",
    "npi": null,
    "hcaiId": "406195898",
    "businessName": "SANO VITA HOME HEALTH CARE, INC.",
    "contactEmail": "SANOVITAHOMEHEALTHCARE@GMAIL.COM",
    "categoryName": "HOME HEALTH AGENCY",
    "categoryCode": "HHA",
    "licenseStatus": "ACTIVE",
    "inService": true,
    "licenseNumber": "550008094",
    "licenseEffectiveDate": "07/27/2025",
    "licenseExpirationDate": "07/26/2026",
    "dataDate": "10/18/2025",
    "capacity": 0,
    "address": "7430 COLDWATER CANYON AVE, UNIT C",
    "city": "NORTH HOLLYWOOD",
    "zip": "91605",
    "county": "LOS ANGELES",
    "phone": "(747) 204-0087",
    "lat": 34.20562598,
    "lng": -118.41367
  },
  {
    "id": "630018437",
    "name": "SEVEN STAR HOME HEALTH CARE, INC",
    "npi": null,
    "hcaiId": "406192153",
    "businessName": "SEVEN STAR HOME HEALTH CARE, INC",
    "contactEmail": "SEVENSTARHHC@YAHOO.COM",
    "categoryName": "HOME HEALTH AGENCY",
    "categoryCode": "HHA",
    "licenseStatus": "ACTIVE",
    "inService": true,
    "licenseNumber": "550004931",
    "licenseEffectiveDate": "08/26/2025",
    "licenseExpirationDate": "08/25/2026",
    "dataDate": "10/18/2025",
    "capacity": 0,
    "address": "8001 LAUREL CANYON BLVD, SUITE 208",
    "city": "NORTH HOLLYWOOD",
    "zip": "91605",
    "county": "LOS ANGELES",
    "phone": "(818) 626-3077",
    "lat": 34.216155,
    "lng": -118.396998
  },
  {
    "id": "060002048",
    "name": "SHIRAZ ADULT DAY HEALTH CARE CENTER",
    "npi": null,
    "hcaiId": null,
    "businessName": "SARBAB INC.",
    "contactEmail": "SHIRAZADHC@YAHOO.COM",
    "categoryName": "ADULT DAY HEALTH CARE",
    "categoryCode": "ADHC",
    "licenseStatus": "ACTIVE",
    "inService": true,
    "licenseNumber": "060000817",
    "licenseEffectiveDate": "11/16/2024",
    "licenseExpirationDate": "11/15/2025",
    "dataDate": "10/18/2025",
    "capacity": 0,
    "address": "6907 LANKERSHIM BLVD",
    "city": "NORTH HOLLYWOOD",
    "zip": "91605",
    "county": "LOS ANGELES",
    "phone": "(818) 764-3336",
    "lat": 34.196022,
    "lng": -118.3879845
  },
  {
    "id": "630018594",
    "name": "SWEET HOME HEALTH CARE SERVICES, INC.",
    "npi": null,
    "hcaiId": "406192680",
    "businessName": "SWEET HOME HEALTH CARE SERVICES, INC.",
    "contactEmail": "EDUARD@SWEETHHC.COM",
    "categoryName": "HOME HEALTH AGENCY",
    "categoryCode": "HHA",
    "licenseStatus": "ACTIVE",
    "inService": true,
    "licenseNumber": "550005521",
    "licenseEffectiveDate": "05/27/2025",
    "licenseExpirationDate": "05/26/2026",
    "dataDate": "10/18/2025",
    "capacity": 0,
    "address": "13363 SATICOY ST, SUITE 103",
    "city": "NORTH HOLLYWOOD",
    "zip": "91605",
    "county": "LOS ANGELES",
    "phone": "(818) 275-0626",
    "lat": 34.208919,
    "lng": -118.424475
  },
  {
    "id": "960001808",
    "name": "TRANSITIONS TO WELLNESS NORTH HOLLYWOOD HEALTH CENTER",
    "npi": "1629079009",
    "hcaiId": "306194641",
    "businessName": "NORTHEAST VALLEY HEALTH CORPORATION",
    "contactEmail": "KATHYPROCTOR@NEVHC.ORG",
    "categoryName": "PRIMARY CARE CLINIC",
    "categoryCode": "COMTYC",
    "licenseStatus": "ACTIVE",
    "inService": true,
    "licenseNumber": "960000947",
    "licenseEffectiveDate": "05/09/2025",
    "licenseExpirationDate": "05/08/2026",
    "dataDate": "10/18/2025",
    "capacity": 0,
    "address": "7843 LANKERSHIM BLVD",
    "city": "NORTH HOLLYWOOD",
    "zip": "91605",
    "county": "LOS ANGELES",
    "phone": "(818) 765-8656",
    "lat": 34.213356,
    "lng": -118.3880565
  },
  {
    "id": "630017617",
    "name": "UNIQUE CARE HOME HEALTH, INC.",
    "npi": "1962920736",
    "hcaiId": "406191561",
    "businessName": "UNIQUE CARE HOME HEALTH, INC.",
    "contactEmail": "UNIQUECAREHH11@GMAIL.COM",
    "categoryName": "HOME HEALTH AGENCY",
    "categoryCode": "HHA",
    "licenseStatus": "ACTIVE",
    "inService": true,
    "licenseNumber": "550004567",
    "licenseEffectiveDate": "10/28/2025",
    "licenseExpirationDate": "02/19/2026",
    "dataDate": "10/18/2025",
    "capacity": 0,
    "address": "7321 ATOLL AVE, SUITE 203",
    "city": "NORTH HOLLYWOOD",
    "zip": "91605",
    "county": "LOS ANGELES",
    "phone": "(818) 741-2922",
    "lat": 34.203717,
    "lng": -118.421469
  },
  {
    "id": "960000230",
    "name": "VALLEY COMMUNITY HEALTHCARE",
    "npi": "1588740989",
    "hcaiId": "306190564",
    "businessName": "VALLEY COMMUNITY HEALTHCARE",
    "contactEmail": "SDION@VCHCARE.ORG",
    "categoryName": "PRIMARY CARE CLINIC",
    "categoryCode": "COMTYC",
    "licenseStatus": "ACTIVE",
    "inService": true,
    "licenseNumber": "960000122",
    "licenseEffectiveDate": "11/01/2025",
    "licenseExpirationDate": "10/31/2026",
    "dataDate": "10/18/2025",
    "capacity": 0,
    "address": "6801 COLDWATER CANYON AVE",
    "city": "NORTH HOLLYWOOD",
    "zip": "91605",
    "county": "LOS ANGELES",
    "phone": "(818) 763-8836",
    "lat": 34.194438,
    "lng": -118.4139585
  },
  {
    "id": "920000057",
    "name": "VALLEY PALMS CARE CENTER",
    "npi": "1801881479",
    "hcaiId": "206190811",
    "businessName": "13400 SHERMAN WAY, LLC",
    "contactEmail": "FGORDILLO@VALLEYPALMS.COM",
    "categoryName": "SKILLED NURSING FACILITY",
    "categoryCode": "SNF",
    "licenseStatus": "ACTIVE",
    "inService": true,
    "licenseNumber": "920000077",
    "licenseEffectiveDate": "05/25/2025",
    "licenseExpirationDate": "05/24/2026",
    "dataDate": "10/18/2025",
    "capacity": 99,
    "address": "13400 SHERMAN WAY",
    "city": "NORTH HOLLYWOOD",
    "zip": "91605",
    "county": "LOS ANGELES",
    "phone": "(818) 983-0103",
    "lat": 34.201026,
    "lng": -118.424952
  },
  {
    "id": "630016207",
    "name": "VALLEY VIEW CONGREGATE LIVING, INC.",
    "npi": null,
    "hcaiId": "206190049",
    "businessName": "VALLEY VIEW CONGREGATE LIVING, INC.",
    "contactEmail": "VIC73A@YAHOO.COM",
    "categoryName": "CONGREGATE LIVING HEALTH FACILITY",
    "categoryCode": "CLHF",
    "licenseStatus": "ACTIVE",
    "inService": true,
    "licenseNumber": "550004329",
    "licenseEffectiveDate": "05/15/2025",
    "licenseExpirationDate": "05/14/2026",
    "dataDate": "10/18/2025",
    "capacity": 6,
    "address": "7800 ATOLL AVENUE",
    "city": "NORTH HOLLYWOOD",
    "zip": "91605",
    "county": "LOS ANGELES",
    "phone": "(818) 821-6664",
    "lat": 34.211925,
    "lng": -118.419012
  },
  {
    "id": "630016338",
    "name": "VIEWCREST CONGREGATE LIVING",
    "npi": null,
    "hcaiId": "206190129",
    "businessName": "VIEWCREST MEDICAL GROUP, INC.",
    "contactEmail": "VIEWCRESTCLHF@GMAIL.COM",
    "categoryName": "CONGREGATE LIVING HEALTH FACILITY",
    "categoryCode": "CLHF",
    "licenseStatus": "ACTIVE",
    "inService": true,
    "licenseNumber": "550004666",
    "licenseEffectiveDate": "03/19/2025",
    "licenseExpirationDate": "03/18/2026",
    "dataDate": "10/18/2025",
    "capacity": 6,
    "address": "7831 MELITA AVENUE",
    "city": "NORTH HOLLYWOOD",
    "zip": "91605",
    "county": "LOS ANGELES",
    "phone": "(213) 215-7503",
    "lat": 34.212609,
    "lng": -118.420614
  },
  {
    "id": "960002399",
    "name": "VISTA DEL VALLE DIVISION",
    "npi": "1447388756",
    "hcaiId": null,
    "businessName": "ABILITY PATHWAYS INCORPORATED",
    "contactEmail": "MRARN@AOL.COM",
    "categoryName": "INTERMEDIATE CARE FACILITY-DD/H/N/CN/IID",
    "categoryCode": "ICFDDN",
    "licenseStatus": "ACTIVE",
    "inService": true,
    "licenseNumber": "960001092",
    "licenseEffectiveDate": "06/19/2025",
    "licenseExpirationDate": "06/18/2026",
    "dataDate": "10/18/2025",
    "capacity": 6,
    "address": "8137 TROOST AVE",
    "city": "NORTH HOLLYWOOD",
    "zip": "91605",
    "county": "LOS ANGELES",
    "phone": "(747) 222-2505",
    "lat": 34.21817813,
    "lng": -118.386378
  },
  {
    "id": "630017508",
    "name": "VISTAMESA CONGREGATE HOME, INC.",
    "npi": null,
    "hcaiId": "206190286",
    "businessName": "VISTAMESA CONGREGATE HOME, INC.",
    "contactEmail": "MARTIRFRANCES@GMAIL.COM",
    "categoryName": "CONGREGATE LIVING HEALTH FACILITY",
    "categoryCode": "CLHF",
    "licenseStatus": "ACTIVE",
    "inService": true,
    "licenseNumber": "550005840",
    "licenseEffectiveDate": "07/02/2025",
    "licenseExpirationDate": "07/01/2026",
    "dataDate": "10/18/2025",
    "capacity": 6,
    "address": "12806 ARMINTA ST",
    "city": "NORTH HOLLYWOOD",
    "zip": "91605",
    "county": "LOS ANGELES",
    "phone": "(818) 453-4131",
    "lat": 34.212834,
    "lng": -118.4120865
  },
  {
    "id": "630016619",
    "name": "VITAL CARE, INC.",
    "npi": null,
    "hcaiId": "206190252",
    "businessName": "VITAL CARE, INC.",
    "contactEmail": "THOMASNAZARETIAN85@GMAIL.COM",
    "categoryName": "CONGREGATE LIVING HEALTH FACILITY",
    "categoryCode": "CLHF",
    "licenseStatus": "ACTIVE",
    "inService": true,
    "licenseNumber": "550005722",
    "licenseEffectiveDate": "03/10/2021",
    "licenseExpirationDate": "09/09/2021",
    "dataDate": "10/18/2025",
    "capacity": 6,
    "address": "12765 STRATHERN STREET",
    "city": "NORTH HOLLYWOOD",
    "zip": "91605",
    "county": "LOS ANGELES",
    "phone": "(818) 358-2856",
    "lat": 34.215912,
    "lng": -118.412478
  },
  {
    "id": "630024776",
    "name": "ZENLIFE HOME HEALTHCARE INC.",
    "npi": null,
    "hcaiId": null,
    "businessName": "ZENLIFE HOME HEALTHCARE INC.",
    "contactEmail": "ZENLIFEHOMEHEALTH@GMAIL.COM",
    "categoryName": "HOME HEALTH AGENCY",
    "categoryCode": "HHA",
    "licenseStatus": "ACTIVE",
    "inService": true,
    "licenseNumber": "550008526",
    "licenseEffectiveDate": "09/16/2025",
    "licenseExpirationDate": "05/04/2026",
    "dataDate": "10/18/2025",
    "capacity": 0,
    "address": "7561 LANKERSHIM BLVD, SUITE 103A",
    "city": "NORTH HOLLYWOOD",
    "zip": "91605",
    "county": "LOS ANGELES",
    "phone": "(818) 821-1120",
    "lat": 34.207983,
    "lng": -118.38798
  },
  {
    "id": "630021867",
    "name": "ZION HEALTHCARE, INC.",
    "npi": null,
    "hcaiId": "406365711",
    "businessName": "ZION HEALTHCARE, INC.",
    "contactEmail": "ZIONHEALTHCAREINC@GMAIL.COM",
    "categoryName": "HOME HEALTH AGENCY",
    "categoryCode": "HHA",
    "licenseStatus": "ACTIVE",
    "inService": true,
    "licenseNumber": "550007643",
    "licenseEffectiveDate": "10/24/2025",
    "licenseExpirationDate": "12/21/2025",
    "dataDate": "10/18/2025",
    "capacity": 0,
    "address": "7321 ATOLL AVE, SUITE 102",
    "city": "NORTH HOLLYWOOD",
    "zip": "91605",
    "county": "LOS ANGELES",
    "phone": "(747) 247-1870",
    "lat": 34.203717,
    "lng": -118.421469
  },
  {
    "id": "630015166",
    "name": "ZION NURSING SERVICES, INC.",
    "npi": null,
    "hcaiId": "406198307",
    "businessName": "ZION NURSING SERVICES, INC.",
    "contactEmail": "ZIONNURSING@YAHOO.COM",
    "categoryName": "HOME HEALTH AGENCY",
    "categoryCode": "HHA",
    "licenseStatus": "ACTIVE",
    "inService": true,
    "licenseNumber": "550003599",
    "licenseEffectiveDate": "10/24/2025",
    "licenseExpirationDate": "06/15/2026",
    "dataDate": "10/18/2025",
    "capacity": 0,
    "address": "7321 ATOLL AVE, SUITE 101",
    "city": "NORTH HOLLYWOOD",
    "zip": "91605",
    "county": "LOS ANGELES",
    "phone": "(747) 200-5676",
    "lat": 34.203717,
    "lng": -118.421469
  }
]