[
  {
    "id": "960002320",
    "name": "11TH STREET HOME",
    "npi": "1518094812",
    "hcaiId": null,
    "businessName": "RSCR CALIFORNIA, INC.",
    "contactEmail": "MINA.FAHMY@RESCARE.COM",
    "categoryName": "INTERMEDIATE CARE FACILITY-DD/H/N/CN/IID",
    "categoryCode": "ICFDDH",
    "licenseStatus": "ACTIVE",
    "inService": true,
    "licenseNumber": "960001072",
    "licenseEffectiveDate": "05/04/2025",
    "licenseExpirationDate": "05/03/2026",
    "dataDate": "10/18/2025",
    "capacity": 6,
    "address": "321 E 11TH ST",
    "city": "AZUSA",
    "zip": "91702",
    "county": "LOS ANGELES",
    "phone": "(626) 334-2724",
    "lat": 34.14105,
    "lng": -117.9041445
  },
  {
    "id": "630005061",
    "name": "AZUSA DIALYSIS CENTER",
    "npi": "1578775045",
    "hcaiId": "306196889",
    "businessName": "AZUSA DIALYSIS CENTER, LLC",
    "contactEmail": "YBARI@CDMSRENAL.COM",
    "categoryName": "CHRONIC DIALYSIS CLINIC",
    "categoryCode": "ESRD/CDC",
    "licenseStatus": "ACTIVE",
    "inService": true,
    "licenseNumber": "550000357",
    "licenseEffectiveDate": "12/11/2024",
    "licenseExpirationDate": "12/10/2025",
    "dataDate": "10/18/2025",
    "capacity": 24,
    "address": "310 N AZUSA AVE # 312",
    "city": "AZUSA",
    "zip": "91702",
    "county": "LOS ANGELES",
    "phone": "(626) 633-1500",
    "lat": 34.126659,
    "lng": -117.907209
  },
  {
    "id": "630011278",
    "name": "AZUSA SURGERY CENTER, INC.",
    "npi": "1114043858",
    "hcaiId": null,
    "businessName": null,
    "contactEmail": null,
    "categoryName": "SURGICAL CLINIC",
    "categoryCode": "ASC",
    "licenseStatus": null,
    "inService": null,
    "licenseNumber": null,
    "licenseEffectiveDate": null,
    "licenseExpirationDate": null,
    "dataDate": "10/18/2025",
    "capacity": 0,
    "address": "830 S CITRUS AVE, SUITE 101",
    "city": "AZUSA",
    "zip": "91702",
    "county": "LOS ANGELES",
    "phone": "(626) 543-1560",
    "lat": 34.10810981,
    "lng": -117.8902046
  },
  {
    "id": "960002308",
    "name": "BRIAN AVENUE HOME",
    "npi": "1003943838",
    "hcaiId": null,
    "businessName": "RSCR CALIFORNIA, INC.",
    "contactEmail": "MINA.FAHMY@RESCARE.COM",
    "categoryName": "INTERMEDIATE CARE FACILITY-DD/H/N/CN/IID",
    "categoryCode": "ICFDDH",
    "licenseStatus": "ACTIVE",
    "inService": true,
    "licenseNumber": "960001066",
    "licenseEffectiveDate": "05/06/2025",
    "licenseExpirationDate": "05/05/2026",
    "dataDate": "10/18/2025",
    "capacity": 6,
    "address": "1361 N BRIAN AVE",
    "city": "AZUSA",
    "zip": "91702",
    "county": "LOS ANGELES",
    "phone": "(626) 334-7867",
    "lat": 34.145649,
    "lng": -117.9164295
  },
  {
    "id": "630022011",
    "name": "CARE FORT HOME HEALTH, INC.",
    "npi": null,
    "hcaiId": "406195803",
    "businessName": "CARE FORT HOME HEALTH, INC.",
    "contactEmail": "CAREFORTHH@GMAIL.COM",
    "categoryName": "HOME HEALTH AGENCY",
    "categoryCode": "HHA",
    "licenseStatus": "ACTIVE",
    "inService": true,
    "licenseNumber": "550007831",
    "licenseEffectiveDate": "01/20/2025",
    "licenseExpirationDate": "01/19/2026",
    "dataDate": "10/18/2025",
    "capacity": 0,
    "address": "124 E SANTA FE AVE, UNIT 201",
    "city": "AZUSA",
    "zip": "91702",
    "county": "LOS ANGELES",
    "phone": "(626) 210-2265",
    "lat": 34.13511,
    "lng": -117.906984
  },
  {
    "id": "960002882",
    "name": "EL PROYECTO DEL BARRIO - MOBILE UNIT",
    "npi": "1346307519",
    "hcaiId": "306197121",
    "businessName": "EL PROYECTO DEL BARRIO, INC.",
    "contactEmail": "RORNELAS@ELPROYECTO.US",
    "categoryName": "PRIMARY CARE CLINIC",
    "categoryCode": "COMTYC",
    "licenseStatus": "ACTIVE",
    "inService": true,
    "licenseNumber": "960001446",
    "licenseEffectiveDate": "03/30/2025",
    "licenseExpirationDate": "03/29/2026",
    "dataDate": "10/18/2025",
    "capacity": 0,
    "address": "150 N AZUSA AVE",
    "city": "AZUSA",
    "zip": "91702",
    "county": "LOS ANGELES",
    "phone": "(818) 810-3500",
    "lat": 34.123572,
    "lng": -117.907227
  },
  {
    "id": "630004521",
    "name": "EL PROYECTO DEL BARRIO, INC. - AZUSA CLINIC",
    "npi": "1770696023",
    "hcaiId": "306196735",
    "businessName": "EL PROYECTO DEL BARRIO, INC.",
    "contactEmail": "NONE@DHS.CA.GOV",
    "categoryName": "PRIMARY CARE CLINIC",
    "categoryCode": "COMTYC",
    "licenseStatus": "ACTIVE",
    "inService": true,
    "licenseNumber": "550002824",
    "licenseEffectiveDate": "09/26/2025",
    "licenseExpirationDate": "09/25/2026",
    "dataDate": "10/18/2025",
    "capacity": 0,
    "address": "150 N AZUSA AVE",
    "city": "AZUSA",
    "zip": "91702",
    "county": "LOS ANGELES",
    "phone": "(626) 969-7885",
    "lat": 34.123572,
    "lng": -117.907227
  },
  {
    "id": "630021993",
    "name": "HOPE FORT HOSPICE CARE, INC.",
    "npi": null,
    "hcaiId": null,
    "businessName": "HOPE FORT HOSPICE CARE, INC",
    "contactEmail": "HOPEFORTHC@GMAIL.COM",
    "categoryName": "HOSPICE",
    "categoryCode": "HOSPICE",
    "licenseStatus": "ACTIVE",
    "inService": true,
    "licenseNumber": "550007623",
    "licenseEffectiveDate": "12/15/2023",
    "licenseExpirationDate": "12/14/2025",
    "dataDate": "10/18/2025",
    "capacity": 0,
    "address": "124 E SANTA FE AVE, SUITE 202",
    "city": "AZUSA",
    "zip": "91702",
    "county": "LOS ANGELES",
    "phone": "(626) 210-2260",
    "lat": 34.13511,
    "lng": -117.906984
  },
  {
    "id": "630021965",
    "name": "SUFFOLK HOME HEALTH, INC",
    "npi": null,
    "hcaiId": "406195804",
    "businessName": "SUFFOLK HOME HEALTH, INC",
    "contactEmail": "SUFFOLKHH@GMAIL.COM",
    "categoryName": "HOME HEALTH AGENCY",
    "categoryCode": "HHA",
    "licenseStatus": "ACTIVE",
    "inService": true,
    "licenseNumber": "550007832",
    "licenseEffectiveDate": "01/20/2025",
    "licenseExpirationDate": "01/19/2026",
    "dataDate": "10/18/2025",
    "capacity": 0,
    "address": "124 E SANTA FE AVE, SUITE 203",
    "city": "AZUSA",
    "zip": "91702",
    "county": "LOS ANGELES",
    "phone": "(626) 239-1815",
    "lat": 34.13511,
    "lng": -117.906984
  },
  {
    "id": "630016423",
    "name": "WELLNESS CARE RESIDENCE LLC",
    "npi": null,
    "hcaiId": "206190226",
    "businessName": "WELLNESS CARE RESIDENCE LLC",
    "contactEmail": "WELLNESSCARE.AZUSA@GMAIL.COM",
    "categoryName": "CONGREGATE LIVING HEALTH FACILITY",
    "categoryCode": "CLHF",
    "licenseStatus": "ACTIVE",
    "inService": true,
    "licenseNumber": "550005430",
    "licenseEffectiveDate": "04/30/2025",
    "licenseExpirationDate": "04/29/2026",
    "dataDate": "10/18/2025",
    "capacity": 6,
    "address": "623 N. ORANGE AVENUE",
    "city": "AZUZA",
    "zip": "91702",
    "county": "LOS ANGELES",
    "phone": "(626) 737-0818",
    "lat": 34.132527,
    "lng": -117.9129195
  }
]