[
  {
    "id": "630012862",
    "name": "ANGELS HOSPICE CORPORATION",
    "npi": "1730409806",
    "hcaiId": "406364421",
    "businessName": "ANGELS HOSPICE CORPORATION",
    "contactEmail": "ADMIN@ANGELSHOSPZ.COM",
    "categoryName": "HOSPICE",
    "categoryCode": "HOSPICE",
    "licenseStatus": "ACTIVE",
    "inService": true,
    "licenseNumber": "550001477",
    "licenseEffectiveDate": "01/02/2025",
    "licenseExpirationDate": "01/01/2027",
    "dataDate": "10/18/2025",
    "capacity": 0,
    "address": "15335 FAIRFIELD RANCH RD, SUITE 125",
    "city": "CHINO HILLS",
    "zip": "91709",
    "county": "SAN BERNARDINO",
    "phone": "(909) 393-1000",
    "lat": 33.97248265,
    "lng": -117.6913943
  },
  {
    "id": "630024731",
    "name": "CHINO HILLS ADHC",
    "npi": null,
    "hcaiId": null,
    "businessName": "CHINO HILLS ADHC INC.",
    "contactEmail": "CHINOHILLLSADHC@GMAIL.COM",
    "categoryName": "ADULT DAY HEALTH CARE",
    "categoryCode": "ADHC",
    "licenseStatus": "ACTIVE",
    "inService": true,
    "licenseNumber": "550007991",
    "licenseEffectiveDate": "05/06/2025",
    "licenseExpirationDate": "05/05/2026",
    "dataDate": "10/18/2025",
    "capacity": 0,
    "address": "4200 CHINO HILLS PKWY, SUITE 330",
    "city": "CHINO HILLS",
    "zip": "91709",
    "county": "SAN BERNARDINO",
    "phone": "(909) 264-1114",
    "lat": 33.982821,
    "lng": -117.7130295
  },
  {
    "id": "240001833",
    "name": "CHINO HILLS OUTPATIENT SURGERY CENTER",
    "npi": "1992773022",
    "hcaiId": null,
    "businessName": null,
    "contactEmail": null,
    "categoryName": "SURGICAL CLINIC",
    "categoryCode": "ASC",
    "licenseStatus": null,
    "inService": null,
    "licenseNumber": null,
    "licenseEffectiveDate": null,
    "licenseExpirationDate": null,
    "dataDate": "10/18/2025",
    "capacity": 0,
    "address": "4200 CHINO HILLS PKWY, SUITE 805",
    "city": "CHINO HILLS",
    "zip": "91709",
    "county": "SAN BERNARDINO",
    "phone": "(909) 606-0160",
    "lat": 33.982821,
    "lng": -117.7130295
  },
  {
    "id": "240001826",
    "name": "CHINO HILLS PRIMARY CARE CENTER",
    "npi": null,
    "hcaiId": "306364248",
    "businessName": "POMONA VALLEY HOSPITAL MEDICAL CENTER",
    "contactEmail": "DEBI.ANDERSON@PVHMC.ORG",
    "categoryName": "PRIMARY CARE CLINIC",
    "categoryCode": "COMTYC",
    "licenseStatus": "ACTIVE",
    "inService": true,
    "licenseNumber": "240000815",
    "licenseEffectiveDate": "12/07/2024",
    "licenseExpirationDate": "12/06/2025",
    "dataDate": "10/18/2025",
    "capacity": 0,
    "address": "2140 GRAND AVE, SUITE 125",
    "city": "CHINO HILLS",
    "zip": "91709",
    "county": "SAN BERNARDINO",
    "phone": "(909) 865-9556",
    "lat": 33.996834,
    "lng": -117.758808
  },
  {
    "id": "630011373",
    "name": "CHINO HILLS PRIMARY CARE CENTER",
    "npi": null,
    "hcaiId": "306364355",
    "businessName": "POMONA VALLEY HOSPITAL MEDICAL CENTER",
    "contactEmail": "DEBI.ANDERSON@PVHMC.ORG",
    "categoryName": "PRIMARY CARE CLINIC",
    "categoryCode": "COMTYC",
    "licenseStatus": "ACTIVE",
    "inService": true,
    "licenseNumber": "550000559",
    "licenseEffectiveDate": "11/02/2024",
    "licenseExpirationDate": "11/01/2025",
    "dataDate": "10/18/2025",
    "capacity": 0,
    "address": "3110 CHINO AVE, SUITE 150",
    "city": "CHINO HILLS",
    "zip": "91709",
    "county": "SAN BERNARDINO",
    "phone": "(909) 865-9556",
    "lat": 34.011369,
    "lng": -117.738306
  },
  {
    "id": "630021324",
    "name": "SPRING HOPE HOSPICE, INC.",
    "npi": null,
    "hcaiId": "406194804",
    "businessName": "SPRING HOPE HOSPICE, INC.",
    "contactEmail": "SPRINGHOPEHOSPICE@GMAIL.COM",
    "categoryName": "HOSPICE",
    "categoryCode": "HOSPICE",
    "licenseStatus": "ACTIVE",
    "inService": true,
    "licenseNumber": "550006820",
    "licenseEffectiveDate": "09/03/2025",
    "licenseExpirationDate": "09/02/2027",
    "dataDate": "10/18/2025",
    "capacity": 0,
    "address": "14718 PIPELINE AVE, UNIT C",
    "city": "CHINO HILLS",
    "zip": "91709",
    "county": "SAN BERNARDINO",
    "phone": "(562) 404-8883",
    "lat": 33.98571401,
    "lng": -117.716919
  },
  {
    "id": "630016185",
    "name": "TRUECARE SURGERY CENTER, LLC",
    "npi": "1972923068",
    "hcaiId": null,
    "businessName": null,
    "contactEmail": null,
    "categoryName": "SURGICAL CLINIC",
    "categoryCode": "ASC",
    "licenseStatus": null,
    "inService": null,
    "licenseNumber": null,
    "licenseEffectiveDate": null,
    "licenseExpirationDate": null,
    "dataDate": "10/18/2025",
    "capacity": 0,
    "address": "4511 CHINO HILLS PARKWAY",
    "city": "CHINO HILLS",
    "zip": "91709",
    "county": "SAN BERNARDINO",
    "phone": "(909) 590-2299",
    "lat": 33.98261705,
    "lng": -117.7061709
  }
]