[
  {
    "id": "630027337",
    "name": "1 ACT HOME HEALTH CARE, INC.",
    "npi": null,
    "hcaiId": null,
    "businessName": "1 ACT HOME HEALTH CARE, INC",
    "contactEmail": "1ACTHOMEHEALTH@GMAIL.COM",
    "categoryName": "HOME HEALTH AGENCY",
    "categoryCode": "HHA",
    "licenseStatus": "ACTIVE",
    "inService": true,
    "licenseNumber": "550010003",
    "licenseEffectiveDate": "08/13/2025",
    "licenseExpirationDate": "02/12/2026",
    "dataDate": "10/18/2025",
    "capacity": 0,
    "address": "15480 ARROW HWY, SUITE 205",
    "city": "BALDWIN PARK",
    "zip": "91706",
    "county": "LOS ANGELES",
    "phone": "(626) 364-7279",
    "lat": 34.10694269,
    "lng": -117.9432475
  },
  {
    "id": "060001950",
    "name": "A PLUS ADULT DAY HEALTH CARE",
    "npi": null,
    "hcaiId": null,
    "businessName": "A PLUS ADULT DAY HEALTH CARE, INC.",
    "contactEmail": "APLUS_ADHC@YAHOO.COM",
    "categoryName": "ADULT DAY HEALTH CARE",
    "categoryCode": "ADHC",
    "licenseStatus": "ACTIVE",
    "inService": true,
    "licenseNumber": "060000770",
    "licenseEffectiveDate": "12/05/2025",
    "licenseExpirationDate": "12/04/2026",
    "dataDate": "10/18/2025",
    "capacity": 0,
    "address": "1640 PUENTE AVE",
    "city": "BALDWIN PARK",
    "zip": "91706",
    "county": "LOS ANGELES",
    "phone": "(626) 338-6588",
    "lat": 34.064703,
    "lng": -117.966555
  },
  {
    "id": "930001765",
    "name": "ADVANCED DIALYSIS CENTER - BALDWIN PARK FACILITY",
    "npi": "1104986348",
    "hcaiId": "306196385",
    "businessName": "SHANTI PRAKASH, INC.",
    "contactEmail": "ADVANCEDIALYSIS@HOTMAIL.COM",
    "categoryName": "CHRONIC DIALYSIS CLINIC",
    "categoryCode": "ESRD/CDC",
    "licenseStatus": "ACTIVE",
    "inService": true,
    "licenseNumber": "930000989",
    "licenseEffectiveDate": "11/12/2024",
    "licenseExpirationDate": "11/11/2025",
    "dataDate": "10/18/2025",
    "capacity": 18,
    "address": "3932 DOWNING AVE",
    "city": "BALDWIN PARK",
    "zip": "91706",
    "county": "LOS ANGELES",
    "phone": "(626) 856-3333",
    "lat": 34.086447,
    "lng": -117.9557685
  },
  {
    "id": "630013751",
    "name": "BALDWIN PARK CONGREGATE HOME INC.",
    "npi": null,
    "hcaiId": "206198161",
    "businessName": "BALDWIN PARK CONGREGATE HOME INC.",
    "contactEmail": "BALDWINPARKCONGREGATEHOME@GMAIL.COM",
    "categoryName": "CONGREGATE LIVING HEALTH FACILITY",
    "categoryCode": "CLHF",
    "licenseStatus": "ACTIVE",
    "inService": true,
    "licenseNumber": "550002799",
    "licenseEffectiveDate": "08/25/2025",
    "licenseExpirationDate": "08/24/2026",
    "dataDate": "10/18/2025",
    "capacity": 12,
    "address": "3462 VINELAND AVE",
    "city": "BALDWIN PARK",
    "zip": "91706",
    "county": "LOS ANGELES",
    "phone": "(626) 960-3400",
    "lat": 34.07643155,
    "lng": -117.963741
  },
  {
    "id": "630017392",
    "name": "BALDWIN PARK DIALYSIS",
    "npi": null,
    "hcaiId": "306191350",
    "businessName": "KIOWA DIALYSIS LLC",
    "contactEmail": "CAL_C@DAVITA.COM",
    "categoryName": "CHRONIC DIALYSIS CLINIC",
    "categoryCode": "ESRD/CDC",
    "licenseStatus": "ACTIVE",
    "inService": true,
    "licenseNumber": "550005120",
    "licenseEffectiveDate": "10/04/2025",
    "licenseExpirationDate": "10/03/2026",
    "dataDate": "10/18/2025",
    "capacity": 25,
    "address": "14101 FRANCISQUITO AVE",
    "city": "BALDWIN PARK",
    "zip": "91706",
    "county": "LOS ANGELES",
    "phone": "(626) 337-1847",
    "lat": 34.064946,
    "lng": -117.968499
  },
  {
    "id": "630015770",
    "name": "CENTRAL CITY COMMUNITY HEALTH CENTER, INC.",
    "npi": "1669881926",
    "hcaiId": "306198040",
    "businessName": "CENTRAL CITY COMMUNITY HEALTH CENTER, INC.",
    "contactEmail": "KAREN.RODRIGUEZ@CENTRALCITYHEALTH.ORG",
    "categoryName": "PRIMARY CARE CLINIC",
    "categoryCode": "COMTYC",
    "licenseStatus": "ACTIVE",
    "inService": true,
    "licenseNumber": "550003012",
    "licenseEffectiveDate": "03/10/2025",
    "licenseExpirationDate": "03/09/2026",
    "dataDate": "10/18/2025",
    "capacity": 0,
    "address": "4126 N. MAINE AVENUE",
    "city": "BALDWIN PARK",
    "zip": "91706",
    "county": "LOS ANGELES",
    "phone": "(626) 563-0800",
    "lat": 34.08740246,
    "lng": -117.960365
  },
  {
    "id": "630015771",
    "name": "CENTRAL CITY COMMUNITY HEALTH CENTER, INC.",
    "npi": "1558770818",
    "hcaiId": "306198054",
    "businessName": "CENTRAL CITY COMMUNITY HEALTH CENTER, INC.",
    "contactEmail": "KAREN.RODRIGUEZ@CENTRALCITYHEALTH.ORG",
    "categoryName": "PRIMARY CARE CLINIC",
    "categoryCode": "COMTYC",
    "licenseStatus": "ACTIVE",
    "inService": true,
    "licenseNumber": "550003012",
    "licenseEffectiveDate": "03/10/2025",
    "licenseExpirationDate": "03/09/2026",
    "dataDate": "10/18/2025",
    "capacity": 0,
    "address": "4160 N. MAINE AVENUE, SUITE B1, B2, B3",
    "city": "BALDWIN PARK",
    "zip": "91706",
    "county": "LOS ANGELES",
    "phone": "(626) 384-2400",
    "lat": 34.08797135,
    "lng": -117.9603705
  },
  {
    "id": "950000047",
    "name": "COAST CARE CONVALESCENT CENTER",
    "npi": "1770564114",
    "hcaiId": "206190050",
    "businessName": "GR8 CARE, INC.",
    "contactEmail": "CYRIL.PEREZ.COASTCARECC@GMAIL.COM",
    "categoryName": "SKILLED NURSING FACILITY",
    "categoryCode": "SNF",
    "licenseStatus": "ACTIVE",
    "inService": true,
    "licenseNumber": "950000012",
    "licenseEffectiveDate": "11/09/2024",
    "licenseExpirationDate": "11/08/2025",
    "dataDate": "10/18/2025",
    "capacity": 48,
    "address": "14518 E. LOS ANGELES",
    "city": "BALDWIN PARK",
    "zip": "91706",
    "county": "LOS ANGELES",
    "phone": "(626) 337-7229",
    "lat": 34.09224385,
    "lng": -117.9587587
  },
  {
    "id": "630015381",
    "name": "EL PROYECTO DEL BARRIO, INC. BALDWIN PARK COMMUNITY CLINIC",
    "npi": "1154730828",
    "hcaiId": "306197955",
    "businessName": "EL PROYECTO DEL BARRIO, INC.",
    "contactEmail": "JCARPIO@ELPROYECTO.US",
    "categoryName": "PRIMARY CARE CLINIC",
    "categoryCode": "COMTYC",
    "licenseStatus": "ACTIVE",
    "inService": true,
    "licenseNumber": "550002824",
    "licenseEffectiveDate": "09/26/2025",
    "licenseExpirationDate": "09/25/2026",
    "dataDate": "10/18/2025",
    "capacity": 0,
    "address": "3942 MAINE AVE",
    "city": "BALDWIN PARK",
    "zip": "91706",
    "county": "LOS ANGELES",
    "phone": "(626) 678-9296",
    "lat": 34.08448503,
    "lng": -117.9617453
  },
  {
    "id": "930001760",
    "name": "FMC DIALYSIS SERVICES OF IRWINDALE",
    "npi": "1063524866",
    "hcaiId": "306196392",
    "businessName": "BIO-MEDICAL APPLICATIONS OF CALIFORNIA, INC.",
    "contactEmail": "LORRAINE.JIMENEZ@FRESENIUSMEDICALCARE.COM",
    "categoryName": "CHRONIC DIALYSIS CLINIC",
    "categoryCode": "ESRD/CDC",
    "licenseStatus": "ACTIVE",
    "inService": true,
    "licenseNumber": "930000990",
    "licenseEffectiveDate": "03/11/2025",
    "licenseExpirationDate": "03/10/2026",
    "dataDate": "10/18/2025",
    "capacity": 32,
    "address": "12711 RAMONA BLVD, SUITE 111",
    "city": "IRWINDALE",
    "zip": "91706",
    "county": "LOS ANGELES",
    "phone": "(626) 856-3944",
    "lat": 34.078842,
    "lng": -117.9950265
  },
  {
    "id": "060001939",
    "name": "FOREVER YOUNG ADULT DAY HEALTH CARE",
    "npi": null,
    "hcaiId": null,
    "businessName": "FOREVER YOUNG ADULT DAY HEALTH CARE, INC.",
    "contactEmail": "FOREVERYOUNGADHC@GMAIL.COM",
    "categoryName": "ADULT DAY HEALTH CARE",
    "categoryCode": "ADHC",
    "licenseStatus": "ACTIVE",
    "inService": true,
    "licenseNumber": "060000756",
    "licenseEffectiveDate": "06/30/2025",
    "licenseExpirationDate": "06/29/2026",
    "dataDate": "10/18/2025",
    "capacity": 0,
    "address": "4265 MAINE AVE # 73",
    "city": "BALDWIN PARK",
    "zip": "91706",
    "county": "LOS ANGELES",
    "phone": "(626) 960-2800",
    "lat": 34.08987293,
    "lng": -117.9605009
  },
  {
    "id": "950000023",
    "name": "GARDEN VIEW POST ACUTE REHABILITATION",
    "npi": "1821701442",
    "hcaiId": "206190792",
    "businessName": "CLEAR SKIES HEALTHCARE, INC.",
    "contactEmail": "RLEET@ENSIGNSERVICES.NET",
    "categoryName": "SKILLED NURSING FACILITY",
    "categoryCode": "SNF",
    "licenseStatus": "ACTIVE",
    "inService": true,
    "licenseNumber": "950000103",
    "licenseEffectiveDate": "04/10/2025",
    "licenseExpirationDate": "04/09/2026",
    "dataDate": "10/18/2025",
    "capacity": 97,
    "address": "14475 GARDEN VIEW LN",
    "city": "BALDWIN PARK",
    "zip": "91706",
    "county": "LOS ANGELES",
    "phone": "(626) 962-7095",
    "lat": 34.068753,
    "lng": -117.9600615
  },
  {
    "id": "960000945",
    "name": "GOLDEN STATE CARE CENTER",
    "npi": "1689655045",
    "hcaiId": "206190337",
    "businessName": "FOOTHILL CARE CENTER, INC.",
    "contactEmail": "GSCC.ADMINISTRATOR@GOLDENSTATECARECENTER.COM",
    "categoryName": "INTERMEDIATE CARE FACILITY-DD/H/N/CN/IID",
    "categoryCode": "ICFDD",
    "licenseStatus": "ACTIVE",
    "inService": true,
    "licenseNumber": "960000514",
    "licenseEffectiveDate": "04/17/2025",
    "licenseExpirationDate": "04/16/2026",
    "dataDate": "10/18/2025",
    "capacity": 155,
    "address": "1758 BIG DALTON AVE",
    "city": "BALDWIN PARK",
    "zip": "91706",
    "county": "LOS ANGELES",
    "phone": "(626) 962-3274",
    "lat": 34.068546,
    "lng": -117.96678
  },
  {
    "id": "630020645",
    "name": "GOLDSTONE HOSPICE, INC.",
    "npi": null,
    "hcaiId": "406196606",
    "businessName": "GOLDSTONE HOSPICE, INC.",
    "contactEmail": "GOLDSTONEHOSPICE@GMAIL.COM",
    "categoryName": "HOSPICE",
    "categoryCode": "HOSPICE",
    "licenseStatus": "ACTIVE",
    "inService": true,
    "licenseNumber": "550006296",
    "licenseEffectiveDate": "05/14/2025",
    "licenseExpirationDate": "05/13/2027",
    "dataDate": "10/18/2025",
    "capacity": 0,
    "address": "15480 ARROW HWY, UNIT 206",
    "city": "BALDWIN PARK",
    "zip": "91706",
    "county": "LOS ANGELES",
    "phone": "(818) 334-0303",
    "lat": 34.10693395,
    "lng": -117.9432473
  },
  {
    "id": "960001050",
    "name": "HOLY INFANT HOME ICF/DD-N",
    "npi": "1417928458",
    "hcaiId": null,
    "businessName": "UNITED CARE PROVIDER, INC.",
    "contactEmail": "SA817@YAHOO.COM",
    "categoryName": "INTERMEDIATE CARE FACILITY-DD/H/N/CN/IID",
    "categoryCode": "ICFDDN",
    "licenseStatus": "ACTIVE",
    "inService": true,
    "licenseNumber": "960000564",
    "licenseEffectiveDate": "06/06/2025",
    "licenseExpirationDate": "06/05/2026",
    "dataDate": "10/18/2025",
    "capacity": 6,
    "address": "4710 KENMORE AVE",
    "city": "BALDWIN PARK",
    "zip": "91706",
    "county": "LOS ANGELES",
    "phone": "(626) 806-5764",
    "lat": 34.09794632,
    "lng": -117.9746593
  },
  {
    "id": "930001543",
    "name": "KAISER FOUNDATION HOSPITAL - BALDWIN PARK",
    "npi": "1477608271",
    "hcaiId": "106196035",
    "businessName": "KAISER FOUNDATION HOSPITALS",
    "contactEmail": "LEILA.J.TOUMASIS@KP.ORG",
    "categoryName": "GENERAL ACUTE CARE HOSPITAL",
    "categoryCode": "GACH",
    "licenseStatus": "ACTIVE",
    "inService": true,
    "licenseNumber": "930000920",
    "licenseEffectiveDate": "03/01/2025",
    "licenseExpirationDate": "02/28/2026",
    "dataDate": "10/18/2025",
    "capacity": 271,
    "address": "1011 BALDWIN PARK BLVD",
    "city": "BALDWIN PARK",
    "zip": "91706",
    "county": "LOS ANGELES",
    "phone": "(626) 851-6386",
    "lat": 34.065468,
    "lng": -117.985212
  },
  {
    "id": "930000144",
    "name": "KINDRED HOSPITAL BALDWIN PARK",
    "npi": "1689984668",
    "hcaiId": "106190049",
    "businessName": "KND DEVELOPMENT 52, L.L.C.",
    "contactEmail": "KEVIN.CHAVEZ@KINDRED.COM",
    "categoryName": "GENERAL ACUTE CARE HOSPITAL",
    "categoryCode": "GACH",
    "licenseStatus": "ACTIVE",
    "inService": true,
    "licenseNumber": "930000390",
    "licenseEffectiveDate": "11/01/2024",
    "licenseExpirationDate": "10/31/2025",
    "dataDate": "10/18/2025",
    "capacity": 91,
    "address": "14148 FRANCISQUITO AVE",
    "city": "BALDWIN PARK",
    "zip": "91706",
    "county": "LOS ANGELES",
    "phone": "(626) 388-2700",
    "lat": 34.062876,
    "lng": -117.967608
  },
  {
    "id": "630020742",
    "name": "PLANNED PARENTHOOD - BALDWIN PARK",
    "npi": "1710537303",
    "hcaiId": null,
    "businessName": "PLANNED PARENTHOOD PASADENA AND SAN GABRIEL VALLEY, INC.",
    "contactEmail": "ASTARZYK@PPPSGV.ORG",
    "categoryName": "PRIMARY CARE CLINIC",
    "categoryCode": "COMTYC",
    "licenseStatus": "ACTIVE",
    "inService": true,
    "licenseNumber": "550005996",
    "licenseEffectiveDate": "02/05/2025",
    "licenseExpirationDate": "02/04/2026",
    "dataDate": "10/18/2025",
    "capacity": 0,
    "address": "4070 STERLING WAY",
    "city": "BALDWIN PARK",
    "zip": "91706",
    "county": "LOS ANGELES",
    "phone": "(626) 794-5737",
    "lat": 34.084854,
    "lng": -117.9620775
  },
  {
    "id": "630014945",
    "name": "PREMIER PHARMACY SERVICES",
    "npi": null,
    "hcaiId": "406198236",
    "businessName": "GOOD HEALTH, INC.",
    "contactEmail": "STEFONIA@PREMIERPHARMACY.COM",
    "categoryName": "HOME HEALTH AGENCY",
    "categoryCode": "HHA",
    "licenseStatus": "ACTIVE",
    "inService": true,
    "licenseNumber": "550003474",
    "licenseEffectiveDate": "03/08/2025",
    "licenseExpirationDate": "03/07/2026",
    "dataDate": "10/18/2025",
    "capacity": 0,
    "address": "410 CLOVERLEAF DR",
    "city": "BALDWIN PARK",
    "zip": "91706",
    "county": "LOS ANGELES",
    "phone": "(626) 626-9419",
    "lat": 34.062039,
    "lng": -118.001799
  },
  {
    "id": "060001847",
    "name": "RAMONA ADULT DAY HEALTH CARE CENTER",
    "npi": null,
    "hcaiId": null,
    "businessName": "FIRST VENTURE ENTERPRISE, INC.",
    "contactEmail": "GASPARIANNARA@GMAIL.COM",
    "categoryName": "ADULT DAY HEALTH CARE",
    "categoryCode": "ADHC",
    "licenseStatus": "ACTIVE",
    "inService": true,
    "licenseNumber": "060000664",
    "licenseEffectiveDate": "05/31/2025",
    "licenseExpirationDate": "05/30/2026",
    "dataDate": "10/18/2025",
    "capacity": 0,
    "address": "13310 RAMONA BLVD, UNIT K",
    "city": "BALDWIN PARK",
    "zip": "91706",
    "county": "LOS ANGELES",
    "phone": "(626) 960-9757",
    "lat": 34.08095059,
    "lng": -117.9831227
  },
  {
    "id": "950000018",
    "name": "SIERRA VIEW CARE CENTER",
    "npi": "1356506729",
    "hcaiId": "206190537",
    "businessName": "SIERRA VIEW CARE HOLDINGS, LLC",
    "contactEmail": "ADMIN@SIERRAVIEWCARECENTER.COM",
    "categoryName": "SKILLED NURSING FACILITY",
    "categoryCode": "SNF",
    "licenseStatus": "ACTIVE",
    "inService": true,
    "licenseNumber": "950000070",
    "licenseEffectiveDate": "11/30/2024",
    "licenseExpirationDate": "11/29/2025",
    "dataDate": "10/18/2025",
    "capacity": 98,
    "address": "14318 OHIO ST",
    "city": "BALDWIN PARK",
    "zip": "91706",
    "county": "LOS ANGELES",
    "phone": "(626) 960-1971",
    "lat": 34.094457,
    "lng": -117.9624735
  },
  {
    "id": "630016875",
    "name": "SOCAL GOLDEN CARE HOME HEALTH",
    "npi": "1205380573",
    "hcaiId": "406190523",
    "businessName": "SOCAL GOLDEN CARE HOME HEALTH",
    "contactEmail": "SOCALGOLDENCAREHOMEHEALTH@GMAIL.COM",
    "categoryName": "HOME HEALTH AGENCY",
    "categoryCode": "HHA",
    "licenseStatus": "ACTIVE",
    "inService": true,
    "licenseNumber": "550004140",
    "licenseEffectiveDate": "02/07/2025",
    "licenseExpirationDate": "02/06/2026",
    "dataDate": "10/18/2025",
    "capacity": 0,
    "address": "15705 ARROW HWY, SUITE 6B",
    "city": "IRWINDALE",
    "zip": "91706",
    "county": "LOS ANGELES",
    "phone": "(626) 338-7242",
    "lat": 34.107381,
    "lng": -117.9378495
  },
  {
    "id": "960001409",
    "name": "ST. LUCY'S HOME, ICF-DDN",
    "npi": "1497726434",
    "hcaiId": null,
    "businessName": "UNITED CARE PROVIDER, INC.",
    "contactEmail": "CTKADHC@YAHOO.COM",
    "categoryName": "INTERMEDIATE CARE FACILITY-DD/H/N/CN/IID",
    "categoryCode": "ICFDDN",
    "licenseStatus": "ACTIVE",
    "inService": true,
    "licenseNumber": "960000721",
    "licenseEffectiveDate": "01/22/2025",
    "licenseExpirationDate": "11/06/2025",
    "dataDate": "10/18/2025",
    "capacity": 6,
    "address": "4702 CUTLER AVE",
    "city": "BALDWIN PARK",
    "zip": "91706",
    "county": "LOS ANGELES",
    "phone": "(626) 367-5119",
    "lat": 34.097067,
    "lng": -117.9700245
  },
  {
    "id": "630023853",
    "name": "SUPRA HOME HEALTH AGENCY, INC.",
    "npi": null,
    "hcaiId": "406195390",
    "businessName": "SUPRA HOME HEALTH AGENCY,INC.",
    "contactEmail": "SUPRAHOMEHEALTHAGENCY@GMAIL.COM",
    "categoryName": "HOME HEALTH AGENCY",
    "categoryCode": "HHA",
    "licenseStatus": "ACTIVE",
    "inService": true,
    "licenseNumber": "550008020",
    "licenseEffectiveDate": "05/02/2025",
    "licenseExpirationDate": "05/01/2026",
    "dataDate": "10/18/2025",
    "capacity": 0,
    "address": "14540 RAMONA BLVD, SUITE 213",
    "city": "BALDWIN PARK",
    "zip": "91706",
    "county": "LOS ANGELES",
    "phone": "(626) 505-1036",
    "lat": 34.086654,
    "lng": -117.957969
  },
  {
    "id": "950000077",
    "name": "VICTORIA CARE CENTER",
    "npi": "1720243199",
    "hcaiId": "206190550",
    "businessName": "PUENTE PARTNERS, LLC",
    "contactEmail": "ADMIN@THEVICTORIACARECENTER.COM",
    "categoryName": "SKILLED NURSING FACILITY",
    "categoryCode": "SNF",
    "licenseStatus": "ACTIVE",
    "inService": true,
    "licenseNumber": "950000077",
    "licenseEffectiveDate": "11/30/2024",
    "licenseExpirationDate": "11/29/2025",
    "dataDate": "10/18/2025",
    "capacity": 49,
    "address": "3541 PUENTE AVE",
    "city": "BALDWIN PARK",
    "zip": "91706",
    "county": "LOS ANGELES",
    "phone": "(626) 962-1043",
    "lat": 34.077834,
    "lng": -117.9545985
  },
  {
    "id": "930000625",
    "name": "VISTA SPECIALTY HOSPITAL OF SAN GABRIEL VALLEY D/P",
    "npi": "1689984668",
    "hcaiId": null,
    "businessName": "KND DEVELOPMENT 52, L.L.C.",
    "contactEmail": null,
    "categoryName": "ACUTE PSYCHIATRIC HOSPITAL",
    "categoryCode": "APH",
    "licenseStatus": "ACTIVE",
    "inService": true,
    "licenseNumber": "930000390",
    "licenseEffectiveDate": "11/01/2024",
    "licenseExpirationDate": "10/31/2025",
    "dataDate": "10/18/2025",
    "capacity": 4,
    "address": "14148 FRANCISQUITO AVE",
    "city": "BALDWIN PARK",
    "zip": "91706",
    "county": "LOS ANGELES",
    "phone": "(626) 338-1101",
    "lat": 34.062876,
    "lng": -117.967608
  }
]