[
  {
    "id": "240001741",
    "name": "BEECHWOOD DIVISION",
    "npi": "1164558714",
    "hcaiId": null,
    "businessName": "MONTE VISTA CHILD CARE CENTER, INC.",
    "contactEmail": "DEISYMENDOZA@MONTEVISTACHILDCARECENTER.COM",
    "categoryName": "INTERMEDIATE CARE FACILITY-DD/H/N/CN/IID",
    "categoryCode": "ICFDDN",
    "licenseStatus": "ACTIVE",
    "inService": true,
    "licenseNumber": "240000757",
    "licenseEffectiveDate": "02/25/2025",
    "licenseExpirationDate": "02/24/2026",
    "dataDate": "10/18/2025",
    "capacity": 6,
    "address": "7976 BEECHWOOD DR",
    "city": "RANCHO CUCAMONGA",
    "zip": "91701",
    "county": "SAN BERNARDINO",
    "phone": "(909) 912-9314",
    "lat": 34.151742,
    "lng": -117.6317685
  },
  {
    "id": "630012226",
    "name": "DIRECT PROVIDER OF HEALTHCARE SERVICES, INC.",
    "npi": "1003056292",
    "hcaiId": "406334627",
    "businessName": "DIRECT PROVIDER OF HEALTHCARE SERVICES, INC.",
    "contactEmail": "CAPIZLASS@YAHOO.COM",
    "categoryName": "HOME HEALTH AGENCY",
    "categoryCode": "HHA",
    "licenseStatus": "ACTIVE",
    "inService": true,
    "licenseNumber": "550001423",
    "licenseEffectiveDate": "11/21/2024",
    "licenseExpirationDate": "11/20/2025",
    "dataDate": "10/18/2025",
    "capacity": 0,
    "address": "9320 BASELINE RD, SUITE B",
    "city": "RANCHO CUCAMONGA",
    "zip": "91701",
    "county": "SAN BERNARDINO",
    "phone": "(909) 483-8311",
    "lat": 34.122006,
    "lng": -117.601812
  },
  {
    "id": "240001842",
    "name": "JASPER DIVISION",
    "npi": "1912159377",
    "hcaiId": null,
    "businessName": "MONTE VISTA CHILD CARE CENTER, INC.",
    "contactEmail": "RONPHAM@MONTEVISTACHILDCARECENTER.COM",
    "categoryName": "INTERMEDIATE CARE FACILITY-DD/H/N/CN/IID",
    "categoryCode": "ICFDDH",
    "licenseStatus": "ACTIVE",
    "inService": true,
    "licenseNumber": "240000824",
    "licenseEffectiveDate": "05/08/2025",
    "licenseExpirationDate": "05/07/2026",
    "dataDate": "10/18/2025",
    "capacity": 6,
    "address": "5754 JASPER ST",
    "city": "RANCHO CUCAMONGA",
    "zip": "91701",
    "county": "SAN BERNARDINO",
    "phone": "(909) 368-3010",
    "lat": 34.150095,
    "lng": -117.6204105
  },
  {
    "id": "240001195",
    "name": "LA VINE HOUSE",
    "npi": "1841327285",
    "hcaiId": null,
    "businessName": "ROCKCREEK, INC.",
    "contactEmail": "SERENA.ROJAS@RESCARE.COM",
    "categoryName": "INTERMEDIATE CARE FACILITY-DD/H/N/CN/IID",
    "categoryCode": "ICFDDH",
    "licenseStatus": "ACTIVE",
    "inService": true,
    "licenseNumber": "240000495",
    "licenseEffectiveDate": "05/28/2025",
    "licenseExpirationDate": "05/27/2026",
    "dataDate": "10/18/2025",
    "capacity": 6,
    "address": "9939 LA VINE ST",
    "city": "RANCHO CUCAMONGA",
    "zip": "91701",
    "county": "SAN BERNARDINO",
    "phone": "(909) 980-0186",
    "lat": 34.125768,
    "lng": -117.588411
  },
  {
    "id": "240001193",
    "name": "ODESSEY HOME",
    "npi": "1952495988",
    "hcaiId": null,
    "businessName": "UNITED ACTIONS, INC.",
    "contactEmail": "UNITED.ACTIONS@AOL.COM",
    "categoryName": "INTERMEDIATE CARE FACILITY-DD/H/N/CN/IID",
    "categoryCode": "ICFDDH",
    "licenseStatus": "ACTIVE",
    "inService": true,
    "licenseNumber": "240000494",
    "licenseEffectiveDate": "05/30/2025",
    "licenseExpirationDate": "05/29/2026",
    "dataDate": "10/18/2025",
    "capacity": 6,
    "address": "7119 BERYL ST",
    "city": "RANCHO CUCAMONGA",
    "zip": "91701",
    "county": "SAN BERNARDINO",
    "phone": "(909) 944-7978",
    "lat": 34.124895,
    "lng": -117.6068925
  },
  {
    "id": "240000013",
    "name": "RANCHO MESA CARE CENTER",
    "npi": "1366558827",
    "hcaiId": "206361090",
    "businessName": "P AND M HEALTH CARE HOLDINGS, INC.",
    "contactEmail": "ADMINISTRATOR@66POSTACUTE.COM",
    "categoryName": "SKILLED NURSING FACILITY",
    "categoryCode": "SNF",
    "licenseStatus": "ACTIVE",
    "inService": true,
    "licenseNumber": "240000105",
    "licenseEffectiveDate": "03/29/2025",
    "licenseExpirationDate": "03/28/2026",
    "dataDate": "10/18/2025",
    "capacity": 59,
    "address": "9333 LA MESA DR",
    "city": "RANCHO CUCAMONGA",
    "zip": "91701",
    "county": "SAN BERNARDINO",
    "phone": "(909) 987-2501",
    "lat": 34.12337694,
    "lng": -117.6018366
  },
  {
    "id": "240001844",
    "name": "TURQUOISE DIVISION",
    "npi": "1003068479",
    "hcaiId": null,
    "businessName": "MONTE VISTA CHILD CARE CENTER, INC.",
    "contactEmail": "DEISYMENDOZA@MONTEVISTACHILDCARECENTER.COM",
    "categoryName": "INTERMEDIATE CARE FACILITY-DD/H/N/CN/IID",
    "categoryCode": "ICFDDH",
    "licenseStatus": "ACTIVE",
    "inService": true,
    "licenseNumber": "240000825",
    "licenseEffectiveDate": "05/23/2025",
    "licenseExpirationDate": "05/22/2026",
    "dataDate": "10/18/2025",
    "capacity": 6,
    "address": "5535 TURQUOISE AVE",
    "city": "RANCHO CUCAMONGA",
    "zip": "91701",
    "county": "SAN BERNARDINO",
    "phone": "(909) 912-9314",
    "lat": 34.153947,
    "lng": -117.6341535
  }
]