[
  {
    "id": "980002353",
    "name": "ARISE HOME CARE CORP",
    "npi": null,
    "hcaiId": "406197132",
    "businessName": "ARISE HOME CARE CORP",
    "contactEmail": "ARISEHHC@GMAIL.COM",
    "categoryName": "HOME HEALTH AGENCY",
    "categoryCode": "HHA",
    "licenseStatus": "ACTIVE",
    "inService": true,
    "licenseNumber": "980001463",
    "licenseEffectiveDate": "11/08/2025",
    "licenseExpirationDate": "11/07/2026",
    "dataDate": "10/18/2025",
    "capacity": 0,
    "address": "1420 N CLAREMONT BLVD, UNIT 203B",
    "city": "CLAREMONT",
    "zip": "91711",
    "county": "LOS ANGELES",
    "phone": "(909) 625-2502",
    "lat": 34.109316,
    "lng": -117.701685
  },
  {
    "id": "960001975",
    "name": "ARMSTRONG HOUSE",
    "npi": "1215064589",
    "hcaiId": null,
    "businessName": "ROCKCREEK, INC.",
    "contactEmail": "AURYANNA.ALOE@RESCARE.COM",
    "categoryName": "INTERMEDIATE CARE FACILITY-DD/H/N/CN/IID",
    "categoryCode": "ICFDDH",
    "licenseStatus": "ACTIVE",
    "inService": true,
    "licenseNumber": "960000952",
    "licenseEffectiveDate": "06/29/2025",
    "licenseExpirationDate": "06/28/2026",
    "dataDate": "10/18/2025",
    "capacity": 6,
    "address": "305 ARMSTRONG DR",
    "city": "CLAREMONT",
    "zip": "91711",
    "county": "LOS ANGELES",
    "phone": "(626) 646-8452",
    "lat": 34.129836,
    "lng": -117.7181955
  },
  {
    "id": "960002326",
    "name": "BLAISDELL HOME",
    "npi": "1184751497",
    "hcaiId": null,
    "businessName": "RSCR CALIFORNIA, INC.",
    "contactEmail": "AURYANNA.ALOE@RESCARE.COM",
    "categoryName": "INTERMEDIATE CARE FACILITY-DD/H/N/CN/IID",
    "categoryCode": "ICFDDN",
    "licenseStatus": "ACTIVE",
    "inService": true,
    "licenseNumber": "960001075",
    "licenseEffectiveDate": "05/13/2025",
    "licenseExpirationDate": "05/12/2026",
    "dataDate": "10/18/2025",
    "capacity": 6,
    "address": "581 BLAISDELL DR",
    "city": "CLAREMONT",
    "zip": "91711",
    "county": "LOS ANGELES",
    "phone": "(909) 445-0051",
    "lat": 34.110783,
    "lng": -117.7051635
  },
  {
    "id": "960001965",
    "name": "BOWLING HOUSE",
    "npi": "1588790380",
    "hcaiId": null,
    "businessName": "ROCKCREEK, INC.",
    "contactEmail": "STEPHANIE.MUNIZ@RESCARE.COM",
    "categoryName": "INTERMEDIATE CARE FACILITY-DD/H/N/CN/IID",
    "categoryCode": "ICFDDH",
    "licenseStatus": "ACTIVE",
    "inService": true,
    "licenseNumber": "960000946",
    "licenseEffectiveDate": "12/01/2024",
    "licenseExpirationDate": "11/30/2025",
    "dataDate": "10/18/2025",
    "capacity": 6,
    "address": "501 BOWLING GREEN DR",
    "city": "CLAREMONT",
    "zip": "91711",
    "county": "LOS ANGELES",
    "phone": "(626) 977-0972",
    "lat": 34.117875,
    "lng": -117.7222005
  },
  {
    "id": "630019762",
    "name": "BRIGHT ROAD RECOVERY RESIDENTIAL TREATMENT CENTER",
    "npi": null,
    "hcaiId": "206190291",
    "businessName": "MARRIAGE & FAMILY THERAPY SERVICES, INC.",
    "contactEmail": "OFFICE.MANAGER@BRIGHTROADRECOVERY.COM",
    "categoryName": "CONGREGATE LIVING HEALTH FACILITY",
    "categoryCode": "CLHF",
    "licenseStatus": "ACTIVE",
    "inService": true,
    "licenseNumber": "550005960",
    "licenseEffectiveDate": "12/23/2024",
    "licenseExpirationDate": "12/22/2025",
    "dataDate": "10/18/2025",
    "capacity": 6,
    "address": "1935 FROSTBURG CIR",
    "city": "CLAREMONT",
    "zip": "91711",
    "county": "LOS ANGELES",
    "phone": "(909) 624-7070",
    "lat": 34.118739,
    "lng": -117.7064235
  },
  {
    "id": "960001720",
    "name": "CASA MONTANA",
    "npi": "1215143060",
    "hcaiId": null,
    "businessName": "CASA MONTANA, LLC",
    "contactEmail": "USCRICH1@GMAIL.COM",
    "categoryName": "INTERMEDIATE CARE FACILITY-DD/H/N/CN/IID",
    "categoryCode": "ICFDDH",
    "licenseStatus": "ACTIVE",
    "inService": true,
    "licenseNumber": "960000857",
    "licenseEffectiveDate": "11/13/2024",
    "licenseExpirationDate": "11/12/2025",
    "dataDate": "10/18/2025",
    "capacity": 6,
    "address": "1922 N MOUNTAIN AVE",
    "city": "CLAREMONT",
    "zip": "91711",
    "county": "LOS ANGELES",
    "phone": "(626) 701-4635",
    "lat": 34.11855,
    "lng": -117.7286175
  },
  {
    "id": "950000042",
    "name": "CLAREMONT HEIGHTS POST ACUTE",
    "npi": "1447659255",
    "hcaiId": "206190373",
    "businessName": "GARDENVIEW HEALTHCARE & WELLNESS CENTRE, LP",
    "contactEmail": "ADMINISTRATOR@CVCLAREMONTHC.COM",
    "categoryName": "SKILLED NURSING FACILITY",
    "categoryCode": "SNF",
    "licenseStatus": "ACTIVE",
    "inService": true,
    "licenseNumber": "950000053",
    "licenseEffectiveDate": "11/01/2025",
    "licenseExpirationDate": "10/31/2026",
    "dataDate": "10/18/2025",
    "capacity": 99,
    "address": "590 S INDIAN HILL BLVD",
    "city": "CLAREMONT",
    "zip": "91711",
    "county": "LOS ANGELES",
    "phone": "(909) 624-4511",
    "lat": 34.085466,
    "lng": -117.718101
  },
  {
    "id": "950000053",
    "name": "CLAREMONT MANOR CARE CENTER",
    "npi": "1821174467",
    "hcaiId": "206196220",
    "businessName": "FRONT PORCH COMMUNITIES AND SERVICES",
    "contactEmail": "JGADDIS@FRONTPORCH.NET",
    "categoryName": "SKILLED NURSING FACILITY",
    "categoryCode": "SNF",
    "licenseStatus": "ACTIVE",
    "inService": true,
    "licenseNumber": "950000024",
    "licenseEffectiveDate": "07/11/2025",
    "licenseExpirationDate": "07/10/2026",
    "dataDate": "10/18/2025",
    "capacity": 59,
    "address": "621 W BONITA AVE",
    "city": "CLAREMONT",
    "zip": "91711",
    "county": "LOS ANGELES",
    "phone": "(909) 626-3490",
    "lat": 34.09654204,
    "lng": -117.723921
  },
  {
    "id": "630012012",
    "name": "FAMILY HEALTH CENTER",
    "npi": "1164668786",
    "hcaiId": "306197186",
    "businessName": "POMONA VALLEY HOSPITAL MEDICAL CENTER",
    "contactEmail": "KAREN.LEVIN@PVHMC.ORG",
    "categoryName": "PRIMARY CARE CLINIC",
    "categoryCode": "COMTYC",
    "licenseStatus": "ACTIVE",
    "inService": true,
    "licenseNumber": "550000880",
    "licenseEffectiveDate": "07/17/2025",
    "licenseExpirationDate": "02/04/2026",
    "dataDate": "10/18/2025",
    "capacity": 0,
    "address": "1601 MONTE VISTA AVE",
    "city": "CLAREMONT",
    "zip": "91711",
    "county": "LOS ANGELES",
    "phone": "(909) 865-9829",
    "lat": 34.112223,
    "lng": -117.6992055
  },
  {
    "id": "630012925",
    "name": "GMC PROFESSIONAL HOSPICE CARE INC.",
    "npi": "1881900710",
    "hcaiId": "406197573",
    "businessName": "GMC PROFESSIONAL HOSPICE CARE INC.",
    "contactEmail": "ALAN.DELEON@GMCHOSPICECAREINC.COM",
    "categoryName": "HOSPICE",
    "categoryCode": "HOSPICE",
    "licenseStatus": "ACTIVE",
    "inService": true,
    "licenseNumber": "550001627",
    "licenseEffectiveDate": "06/30/2025",
    "licenseExpirationDate": "06/29/2027",
    "dataDate": "10/18/2025",
    "capacity": 0,
    "address": "1 N INDIAN HILL BLVD, SUITE 205",
    "city": "CLAREMONT",
    "zip": "91711",
    "county": "LOS ANGELES",
    "phone": "(909) 770-4402",
    "lat": 34.09426301,
    "lng": -117.719594
  },
  {
    "id": "630024245",
    "name": "HEALTH SERVICES ALLIANCE",
    "npi": null,
    "hcaiId": null,
    "businessName": null,
    "contactEmail": null,
    "categoryName": "PRIMARY CARE CLINIC",
    "categoryCode": "FQHC",
    "licenseStatus": null,
    "inService": null,
    "licenseNumber": null,
    "licenseEffectiveDate": null,
    "licenseExpirationDate": null,
    "dataDate": "10/18/2025",
    "capacity": 0,
    "address": "220 S INDIAN HILL BLVD, SUITE F",
    "city": "CLAREMONT",
    "zip": "91711",
    "county": "LOS ANGELES",
    "phone": null,
    "lat": 34.091658,
    "lng": -117.718902
  },
  {
    "id": "630008482",
    "name": "HOLY INFANT HOME CARE",
    "npi": "1407077126",
    "hcaiId": "406196783",
    "businessName": "HOLY INFANT HOME CARE, INC.",
    "contactEmail": "HOLYINFANTHOMECARE@GMAIL.COM",
    "categoryName": "HOME HEALTH AGENCY",
    "categoryCode": "HHA",
    "licenseStatus": "ACTIVE",
    "inService": true,
    "licenseNumber": "550000215",
    "licenseEffectiveDate": "06/17/2025",
    "licenseExpirationDate": "06/16/2026",
    "dataDate": "10/18/2025",
    "capacity": 0,
    "address": "791 MARYLIND AVE",
    "city": "CLAREMONT",
    "zip": "91711",
    "county": "LOS ANGELES",
    "phone": "(909) 603-9312",
    "lat": 34.10883,
    "lng": -117.699381
  },
  {
    "id": "960002310",
    "name": "OCCIDENTAL HOME",
    "npi": "1962530220",
    "hcaiId": null,
    "businessName": "RSCR CALIFORNIA, INC.",
    "contactEmail": "STEPHANIE.MUNIZ@RESCARE.COM",
    "categoryName": "INTERMEDIATE CARE FACILITY-DD/H/N/CN/IID",
    "categoryCode": "ICFDDN",
    "licenseStatus": "ACTIVE",
    "inService": true,
    "licenseNumber": "960001067",
    "licenseEffectiveDate": "05/13/2025",
    "licenseExpirationDate": "05/12/2026",
    "dataDate": "10/18/2025",
    "capacity": 6,
    "address": "1010 OCCIDENTAL DR",
    "city": "CLAREMONT",
    "zip": "91711",
    "county": "LOS ANGELES",
    "phone": "(909) 624-4954",
    "lat": 34.119279,
    "lng": -117.733878
  },
  {
    "id": "950000084",
    "name": "PILGRIM PLACE HEALTH SERVICES CENTER",
    "npi": "1114076601",
    "hcaiId": "206190617",
    "businessName": "PILGRIM PLACE IN CLAREMONT",
    "contactEmail": "RRODAS@PILGRIMPLACE.ORG",
    "categoryName": "SKILLED NURSING FACILITY",
    "categoryCode": "SNF",
    "licenseStatus": "ACTIVE",
    "inService": true,
    "licenseNumber": "950000084",
    "licenseEffectiveDate": "11/30/2024",
    "licenseExpirationDate": "11/29/2025",
    "dataDate": "10/18/2025",
    "capacity": 62,
    "address": "721 HARRISON AVE",
    "city": "CLAREMONT",
    "zip": "91711",
    "county": "LOS ANGELES",
    "phone": "(909) 399-5500",
    "lat": 34.09865704,
    "lng": -117.7265415
  },
  {
    "id": "980002294",
    "name": "SERENITY HOSPICE CARE",
    "npi": null,
    "hcaiId": "406196740",
    "businessName": "ROSEDOVE, INC",
    "contactEmail": "SIMGILL3@HOTMAIL.COM",
    "categoryName": "HOSPICE",
    "categoryCode": "HOSPICE",
    "licenseStatus": "ACTIVE",
    "inService": true,
    "licenseNumber": "980001409",
    "licenseEffectiveDate": "03/30/2024",
    "licenseExpirationDate": "03/29/2026",
    "dataDate": "10/18/2025",
    "capacity": 0,
    "address": "1420 N CLAREMONT BLVD, SUITE 104-A",
    "city": "CLAREMONT",
    "zip": "91711",
    "county": "LOS ANGELES",
    "phone": "(909) 624-0100",
    "lat": 34.10896801,
    "lng": -117.701847
  }
]