[
  {
    "id": "630014189",
    "name": "A'S HOSPICE",
    "npi": "1982043733",
    "hcaiId": "406364588",
    "businessName": "A'S HOSPICE",
    "contactEmail": "DOCTORSHOSPICESOCAL@GMAIL.COM",
    "categoryName": "HOSPICE",
    "categoryCode": "HOSPICE",
    "licenseStatus": "ACTIVE",
    "inService": true,
    "licenseNumber": "550002541",
    "licenseEffectiveDate": "08/27/2025",
    "licenseExpirationDate": "08/26/2027",
    "dataDate": "10/18/2025",
    "capacity": 0,
    "address": "5562 PHILADELPHIA ST, SUITE 213",
    "city": "CHINO",
    "zip": "91710",
    "county": "SAN BERNARDINO",
    "phone": "(909) 465-9002",
    "lat": 34.034499,
    "lng": -117.6836985
  },
  {
    "id": "630014520",
    "name": "A-ONE HOSPICE PROVIDERS, INC.",
    "npi": "1811339138",
    "hcaiId": "406364512",
    "businessName": "A-ONE HOSPICE PROVIDERS, INC.",
    "contactEmail": "CONTACT@A-ONEHOSPICE.COM",
    "categoryName": "HOSPICE",
    "categoryCode": "HOSPICE",
    "licenseStatus": "ACTIVE",
    "inService": true,
    "licenseNumber": "550002489",
    "licenseEffectiveDate": "10/15/2023",
    "licenseExpirationDate": "10/14/2025",
    "dataDate": "10/18/2025",
    "capacity": 0,
    "address": "4110 EDISON AVE, SUITE 205",
    "city": "CHINO",
    "zip": "91710",
    "county": "SAN BERNARDINO",
    "phone": "(909) 925-7060",
    "lat": 33.997761,
    "lng": -117.7139655
  },
  {
    "id": "630016450",
    "name": "ABOVE AND BEYOND HOSPICE CARE",
    "npi": "1396118568",
    "hcaiId": "406361331",
    "businessName": "RDM FOREVER, LLC",
    "contactEmail": "OFFICE@ABOVEANDBEYONDHOSPICE.COM",
    "categoryName": "HOSPICE",
    "categoryCode": "HOSPICE",
    "licenseStatus": "ACTIVE",
    "inService": true,
    "licenseNumber": "550003607",
    "licenseEffectiveDate": "06/29/2024",
    "licenseExpirationDate": "06/28/2026",
    "dataDate": "10/18/2025",
    "capacity": 0,
    "address": "4774 RIVERSIDE DR, SUITE F",
    "city": "CHINO",
    "zip": "91710",
    "county": "SAN BERNARDINO",
    "phone": "(800) 503-2970",
    "lat": 34.019298,
    "lng": -117.700911
  },
  {
    "id": "630000021",
    "name": "ALLIED HOME HEALTH CARE CORPORATION",
    "npi": "1124227285",
    "hcaiId": "406364378",
    "businessName": "ALLIED HOME HEALTH CARE CORP.",
    "contactEmail": "TEAMALLIED@ALLIEDHC.COM",
    "categoryName": "HOME HEALTH AGENCY",
    "categoryCode": "HHA",
    "licenseStatus": "ACTIVE",
    "inService": true,
    "licenseNumber": "550000766",
    "licenseEffectiveDate": "06/29/2025",
    "licenseExpirationDate": "06/28/2026",
    "dataDate": "10/18/2025",
    "capacity": 0,
    "address": "14532 CENTRAL AVE",
    "city": "CHINO",
    "zip": "91710",
    "county": "SAN BERNARDINO",
    "phone": "(909) 627-6225",
    "lat": 33.98914502,
    "lng": -117.689626
  },
  {
    "id": "980002214",
    "name": "ALOHA HEALTHCARE",
    "npi": "1639140346",
    "hcaiId": "406196211",
    "businessName": "PROFESSIONAL NURSES GROUP, INC.",
    "contactEmail": "CSIUSA@HOTMAIL.COM",
    "categoryName": "HOME HEALTH AGENCY",
    "categoryCode": "HHA",
    "licenseStatus": "ACTIVE",
    "inService": true,
    "licenseNumber": "980001335",
    "licenseEffectiveDate": "05/23/2025",
    "licenseExpirationDate": "05/22/2026",
    "dataDate": "10/18/2025",
    "capacity": 0,
    "address": "4845 CHEYENNE WAY",
    "city": "CHINO",
    "zip": "91710",
    "county": "SAN BERNARDINO",
    "phone": "(626) 289-8999",
    "lat": 34.002797,
    "lng": -117.699157
  },
  {
    "id": "630014345",
    "name": "ALPHA CARE HOSPICE, INC",
    "npi": null,
    "hcaiId": "406364480",
    "businessName": "ALPHA CARE HOSPICE INC",
    "contactEmail": "ALPHACAREHOSPICE@GMAIL.COM",
    "categoryName": "HOSPICE",
    "categoryCode": "HOSPICE",
    "licenseStatus": "ACTIVE",
    "inService": true,
    "licenseNumber": "550002286",
    "licenseEffectiveDate": "05/29/2025",
    "licenseExpirationDate": "05/28/2027",
    "dataDate": "10/18/2025",
    "capacity": 0,
    "address": "12598 CENTRAL AVE, SUITE 215",
    "city": "CHINO",
    "zip": "91710",
    "county": "SAN BERNARDINO",
    "phone": "(909) 628-3989",
    "lat": 34.024275,
    "lng": -117.691299
  },
  {
    "id": "630012732",
    "name": "ANGELICARE HOME HEALTH, INC.",
    "npi": "1578896304",
    "hcaiId": "406364317",
    "businessName": "ANGELICARE HOME HEALTH, INC.",
    "contactEmail": "ADMIN@ANGELICAREHOMEHEALTH.COM",
    "categoryName": "HOME HEALTH AGENCY",
    "categoryCode": "HHA",
    "licenseStatus": "ACTIVE",
    "inService": true,
    "licenseNumber": "550001457",
    "licenseEffectiveDate": "12/22/2024",
    "licenseExpirationDate": "12/21/2025",
    "dataDate": "10/18/2025",
    "capacity": 0,
    "address": "12598 CENTRAL AVE, SUITE 210",
    "city": "CHINO",
    "zip": "91710",
    "county": "SAN BERNARDINO",
    "phone": "(909) 464-2273",
    "lat": 34.024275,
    "lng": -117.691299
  },
  {
    "id": "630017647",
    "name": "ANGELICARE HOSPICE",
    "npi": "1770094054",
    "hcaiId": "406362632",
    "businessName": "HOLISTIC HOSPICE CARE, INC.",
    "contactEmail": "NORA@TOTAL-CARE-SOLUTIONS.NET",
    "categoryName": "HOSPICE",
    "categoryCode": "HOSPICE",
    "licenseStatus": "ACTIVE",
    "inService": true,
    "licenseNumber": "550004528",
    "licenseEffectiveDate": "01/02/2025",
    "licenseExpirationDate": "01/01/2027",
    "dataDate": "10/18/2025",
    "capacity": 0,
    "address": "12598 CENTRAL AVE, SUITE 212",
    "city": "CHINO",
    "zip": "91710",
    "county": "SAN BERNARDINO",
    "phone": "(760) 699-0053",
    "lat": 34.02414,
    "lng": -117.6912675
  },
  {
    "id": "630011439",
    "name": "BRIO HOME HEALTH SERVICES, INC",
    "npi": "1760427439",
    "hcaiId": "406364384",
    "businessName": "BRIO HOME HEALTH SERVICES, INC.",
    "contactEmail": "SIMONEAGUSTIN@YAHOO.COM",
    "categoryName": "HOME HEALTH AGENCY",
    "categoryCode": "HHA",
    "licenseStatus": "ACTIVE",
    "inService": true,
    "licenseNumber": "550000800",
    "licenseEffectiveDate": "05/08/2025",
    "licenseExpirationDate": "05/07/2026",
    "dataDate": "10/18/2025",
    "capacity": 0,
    "address": "12590 CENTRAL AVE",
    "city": "CHINO",
    "zip": "91710",
    "county": "SAN BERNARDINO",
    "phone": "(909) 606-4415",
    "lat": 34.024614,
    "lng": -117.690788
  },
  {
    "id": "630012931",
    "name": "BRIO HOSPICE",
    "npi": null,
    "hcaiId": "406364418",
    "businessName": "BRIO ENTERPRISE INCORPORATED",
    "contactEmail": "SIMONEAGUSTIN@YAHOO.COM",
    "categoryName": "HOSPICE",
    "categoryCode": "HOSPICE",
    "licenseStatus": "ACTIVE",
    "inService": true,
    "licenseNumber": "550001530",
    "licenseEffectiveDate": "03/28/2025",
    "licenseExpirationDate": "03/27/2027",
    "dataDate": "10/18/2025",
    "capacity": 0,
    "address": "12588 CENTRAL AVE",
    "city": "CHINO",
    "zip": "91710",
    "county": "SAN BERNARDINO",
    "phone": "(909) 606-4415",
    "lat": 34.024614,
    "lng": -117.690728
  },
  {
    "id": "630012988",
    "name": "CALIFORNIA NURSING CARE SERVICES, INC.",
    "npi": "1508167396",
    "hcaiId": "406364446",
    "businessName": "CALIFORNIA NURSING CARE SERVICES, INC.",
    "contactEmail": "JCHERMOGINO@YAHOO.COM",
    "categoryName": "HOME HEALTH AGENCY",
    "categoryCode": "HHA",
    "licenseStatus": "ACTIVE",
    "inService": true,
    "licenseNumber": "550001645",
    "licenseEffectiveDate": "11/25/2024",
    "licenseExpirationDate": "11/24/2025",
    "dataDate": "10/18/2025",
    "capacity": 0,
    "address": "4110 EDISON AVE, SUITE 208B",
    "city": "CHINO",
    "zip": "91710",
    "county": "SAN BERNARDINO",
    "phone": "(909) 464-0500",
    "lat": 33.997761,
    "lng": -117.7139655
  },
  {
    "id": "240000778",
    "name": "CANYON RIDGE HOSPITAL",
    "npi": "1902825128",
    "hcaiId": "106364050",
    "businessName": "CANYON RIDGE HOSPITAL, INC.",
    "contactEmail": "STEPHANIE.BERNIER@UHSINC.COM",
    "categoryName": "ACUTE PSYCHIATRIC HOSPITAL",
    "categoryCode": "APH",
    "licenseStatus": "ACTIVE",
    "inService": true,
    "licenseNumber": "240000357",
    "licenseEffectiveDate": "11/30/2024",
    "licenseExpirationDate": "11/29/2025",
    "dataDate": "10/18/2025",
    "capacity": 157,
    "address": "5353 G ST",
    "city": "CHINO",
    "zip": "91710",
    "county": "SAN BERNARDINO",
    "phone": "(909) 590-3700",
    "lat": 34.009074,
    "lng": -117.68805
  },
  {
    "id": "630016322",
    "name": "CHINO AVENUE CONGREGATE HOME INC.",
    "npi": null,
    "hcaiId": "206364579",
    "businessName": "CHINO AVENUE CONGREGATE HOME INC.",
    "contactEmail": "CHINOAVENUE@GMAIL.COM",
    "categoryName": "CONGREGATE LIVING HEALTH FACILITY",
    "categoryCode": "CLHF",
    "licenseStatus": "ACTIVE",
    "inService": true,
    "licenseNumber": "550003465",
    "licenseEffectiveDate": "04/06/2025",
    "licenseExpirationDate": "04/05/2026",
    "dataDate": "10/18/2025",
    "capacity": 6,
    "address": "3408 CHINO AVENUE",
    "city": "CHINO",
    "zip": "91710",
    "county": "SAN BERNARDINO",
    "phone": "(909) 270-3293",
    "lat": 34.012269,
    "lng": -117.730467
  },
  {
    "id": "630016885",
    "name": "CHINO CARE ADHC",
    "npi": "1295258564",
    "hcaiId": null,
    "businessName": "CHINO CARE, INC.",
    "contactEmail": "MMAI18998@HOTMAIL.COM",
    "categoryName": "ADULT DAY HEALTH CARE",
    "categoryCode": "ADHC",
    "licenseStatus": "ACTIVE",
    "inService": true,
    "licenseNumber": "550003893",
    "licenseEffectiveDate": "05/31/2025",
    "licenseExpirationDate": "05/30/2026",
    "dataDate": "10/18/2025",
    "capacity": 0,
    "address": "5402 PHILADELPHIA STREET, SUITE C - H",
    "city": "CHINO",
    "zip": "91710",
    "county": "SAN BERNARDINO",
    "phone": "(909) 517-0087",
    "lat": 34.034292,
    "lng": -117.6869655
  },
  {
    "id": "240001260",
    "name": "CHINO DIALYSIS",
    "npi": null,
    "hcaiId": "306364124",
    "businessName": "DVA HEALTHCARE RENAL CARE, INC.",
    "contactEmail": "CAL_C@DAVITA.COM",
    "categoryName": "CHRONIC DIALYSIS CLINIC",
    "categoryCode": "ESRD/CDC",
    "licenseStatus": "ACTIVE",
    "inService": true,
    "licenseNumber": "240000523",
    "licenseEffectiveDate": "11/20/2024",
    "licenseExpirationDate": "11/19/2025",
    "dataDate": "10/18/2025",
    "capacity": 24,
    "address": "4445 RIVERSIDE DR",
    "city": "CHINO",
    "zip": "91710",
    "county": "SAN BERNARDINO",
    "phone": "(909) 464-0347",
    "lat": 34.0182,
    "lng": -117.7078815
  },
  {
    "id": "630018805",
    "name": "CHINO PREMIER SURGERY CENTER",
    "npi": "1457820466",
    "hcaiId": null,
    "businessName": null,
    "contactEmail": "GCMERRICK@GMAIL.COM",
    "categoryName": "SURGICAL CLINIC",
    "categoryCode": "ASC",
    "licenseStatus": null,
    "inService": null,
    "licenseNumber": null,
    "licenseEffectiveDate": null,
    "licenseExpirationDate": null,
    "dataDate": "10/18/2025",
    "capacity": 0,
    "address": "5562 PHILADELPHIA ST, SUITE 111",
    "city": "CHINO",
    "zip": "91710",
    "county": "SAN BERNARDINO",
    "phone": "(310) 991-1975",
    "lat": 34.034499,
    "lng": -117.6836985
  },
  {
    "id": "630028049",
    "name": "CHINO STONE & SURGERY CENTER",
    "npi": null,
    "hcaiId": null,
    "businessName": null,
    "contactEmail": "DSONG2018@GMAIL.COM",
    "categoryName": "SURGICAL CLINIC",
    "categoryCode": "ASC",
    "licenseStatus": null,
    "inService": null,
    "licenseNumber": null,
    "licenseEffectiveDate": null,
    "licenseExpirationDate": null,
    "dataDate": "10/18/2025",
    "capacity": 0,
    "address": "12611 9TH ST, SUITE D",
    "city": "CHINO",
    "zip": "91710",
    "county": "SAN BERNARDINO",
    "phone": "(909) 480-4968",
    "lat": 34.02442499,
    "lng": -117.687747
  },
  {
    "id": "630017759",
    "name": "CHINO VALLEY COMMUNITY HEALTH CENTER",
    "npi": "1801307368",
    "hcaiId": "306360456",
    "businessName": "HEALTH SERVICE ALLIANCE",
    "contactEmail": "CGRELLING@HEALTHSERVICEALLIANCE.ORG",
    "categoryName": "PRIMARY CARE CLINIC",
    "categoryCode": "COMTYC",
    "licenseStatus": "ACTIVE",
    "inService": true,
    "licenseNumber": "550004600",
    "licenseEffectiveDate": "12/20/2024",
    "licenseExpirationDate": "12/19/2025",
    "dataDate": "10/18/2025",
    "capacity": 0,
    "address": "13193 CENTRAL AVENUE, SUITE 100",
    "city": "CHINO",
    "zip": "91710",
    "county": "SAN BERNARDINO",
    "phone": "(909) 464-9675",
    "lat": 34.014024,
    "lng": -117.6888735
  },
  {
    "id": "240000003",
    "name": "CHINO VALLEY MEDICAL CENTER",
    "npi": "1962407460",
    "hcaiId": "106361144",
    "businessName": "VERITAS HEALTH SERVICES, LLC",
    "contactEmail": "GAVIADO@PRIMEHEALTHCARE.COM",
    "categoryName": "GENERAL ACUTE CARE HOSPITAL",
    "categoryCode": "GACH",
    "licenseStatus": "ACTIVE",
    "inService": true,
    "licenseNumber": "240000125",
    "licenseEffectiveDate": "04/07/2025",
    "licenseExpirationDate": "04/06/2026",
    "dataDate": "10/18/2025",
    "capacity": 112,
    "address": "5451 WALNUT AVE",
    "city": "CHINO",
    "zip": "91710",
    "county": "SAN BERNARDINO",
    "phone": "(909) 464-8697",
    "lat": 34.025508,
    "lng": -117.685647
  },
  {
    "id": "630023451",
    "name": "CHINO VASCULAR & SURGERY CENTER, INC",
    "npi": "1023651445",
    "hcaiId": null,
    "businessName": null,
    "contactEmail": "CHINOVASCULARSURGERYCENTER@GMAIL.COM",
    "categoryName": "SURGICAL CLINIC",
    "categoryCode": "ASC",
    "licenseStatus": null,
    "inService": null,
    "licenseNumber": null,
    "licenseEffectiveDate": null,
    "licenseExpirationDate": null,
    "dataDate": "10/18/2025",
    "capacity": 0,
    "address": "11760 CENTRAL AVE, SUITE 204",
    "city": "CHINO",
    "zip": "91710",
    "county": "SAN BERNARDINO",
    "phone": "(909) 464-9877",
    "lat": 34.039332,
    "lng": -117.690147
  },
  {
    "id": "240001828",
    "name": "COUNTRY MAUREEN'S HOME",
    "npi": "1669542924",
    "hcaiId": null,
    "businessName": "DE LEON COUNTRY MAUREEN'S HOME, LLC",
    "contactEmail": "CARRIECAROTHERS@GMAIL.COM",
    "categoryName": "INTERMEDIATE CARE FACILITY-DD/H/N/CN/IID",
    "categoryCode": "ICFDDN",
    "licenseStatus": "ACTIVE",
    "inService": true,
    "licenseNumber": "240000817",
    "licenseEffectiveDate": "11/14/2024",
    "licenseExpirationDate": "11/13/2025",
    "dataDate": "10/18/2025",
    "capacity": 6,
    "address": "3959 WALNUT AVE",
    "city": "CHINO",
    "zip": "91710",
    "county": "SAN BERNARDINO",
    "phone": "(909) 240-7680",
    "lat": 34.025643,
    "lng": -117.718605
  },
  {
    "id": "630021087",
    "name": "COVENTRY HOSPICE",
    "npi": "1164034101",
    "hcaiId": "406363764",
    "businessName": "COVENTRY HOSPICE",
    "contactEmail": "COVENTRYHOSPICE@GMAIL.COM",
    "categoryName": "HOSPICE",
    "categoryCode": "HOSPICE",
    "licenseStatus": "ACTIVE",
    "inService": true,
    "licenseNumber": "550006511",
    "licenseEffectiveDate": "06/29/2025",
    "licenseExpirationDate": "06/28/2027",
    "dataDate": "10/18/2025",
    "capacity": 0,
    "address": "14532 CENTRAL AVE",
    "city": "CHINO",
    "zip": "91710",
    "county": "SAN BERNARDINO",
    "phone": "(909) 830-5001",
    "lat": 33.98914502,
    "lng": -117.689626
  },
  {
    "id": "630017519",
    "name": "DOCTORS HOME HEALTH SOUTHERN CALIFORNIA, INC",
    "npi": "1205351749",
    "hcaiId": "406361783",
    "businessName": "DOCTORS HOME HEALTH SOUTHERN CALIFORNIA, INC.",
    "contactEmail": "DOCTORSHOMEHEALTHSOCAL@GMAIL.COM",
    "categoryName": "HOME HEALTH AGENCY",
    "categoryCode": "HHA",
    "licenseStatus": "ACTIVE",
    "inService": true,
    "licenseNumber": "550004589",
    "licenseEffectiveDate": "02/27/2025",
    "licenseExpirationDate": "02/26/2026",
    "dataDate": "10/18/2025",
    "capacity": 0,
    "address": "5562 PHILADELPHIA ST, SUITE 216",
    "city": "CHINO",
    "zip": "91710",
    "county": "SAN BERNARDINO",
    "phone": "(909) 479-0324",
    "lat": 34.034499,
    "lng": -117.6836985
  },
  {
    "id": "240001894",
    "name": "DOUG CARRIE'S HOME",
    "npi": "1669542924",
    "hcaiId": null,
    "businessName": "DE LEON COUNTRY MAUREEN'S HOME, LLC",
    "contactEmail": "CARRIECAROTHERS@GMAIL.COM",
    "categoryName": "INTERMEDIATE CARE FACILITY-DD/H/N/CN/IID",
    "categoryCode": "ICFDDN",
    "licenseStatus": "ACTIVE",
    "inService": true,
    "licenseNumber": "240000850",
    "licenseEffectiveDate": "04/16/2025",
    "licenseExpirationDate": "04/15/2026",
    "dataDate": "10/18/2025",
    "capacity": 6,
    "address": "3961 WALNUT AVE",
    "city": "CHINO",
    "zip": "91710",
    "county": "SAN BERNARDINO",
    "phone": "(562) 900-8789",
    "lat": 34.02603854,
    "lng": -117.7189807
  },
  {
    "id": "240001925",
    "name": "EXCELLENCE HOME HEALTH CARE AGENCY, INC.",
    "npi": "1568556801",
    "hcaiId": "406364292",
    "businessName": "EXCELLENCE HOME HEALTH CARE AGENCY, INC.",
    "contactEmail": "HOMEHEALTHOFFICE@EXCELLENCEHH.COM",
    "categoryName": "HOME HEALTH AGENCY",
    "categoryCode": "HHA",
    "licenseStatus": "ACTIVE",
    "inService": true,
    "licenseNumber": "240000872",
    "licenseEffectiveDate": "06/12/2025",
    "licenseExpirationDate": "06/11/2026",
    "dataDate": "10/18/2025",
    "capacity": 0,
    "address": "11760 CENTRAL AVE, SUITE 200",
    "city": "CHINO",
    "zip": "91710",
    "county": "SAN BERNARDINO",
    "phone": "(909) 591-1731",
    "lat": 34.039404,
    "lng": -117.6899535
  },
  {
    "id": "630014346",
    "name": "EXCELLENCE HOSPICE PROVIDERS, INC",
    "npi": null,
    "hcaiId": "406364490",
    "businessName": "EXCELLENCE HOSPICE PROVIDERS, INC",
    "contactEmail": "TADOAN71@AOL.COM",
    "categoryName": "HOSPICE",
    "categoryCode": "HOSPICE",
    "licenseStatus": "ACTIVE",
    "inService": true,
    "licenseNumber": "550002518",
    "licenseEffectiveDate": "11/13/2023",
    "licenseExpirationDate": "11/12/2025",
    "dataDate": "10/18/2025",
    "capacity": 0,
    "address": "11760 CENTRAL AVE, SUITE 201",
    "city": "CHINO",
    "zip": "91710",
    "county": "SAN BERNARDINO",
    "phone": "(909) 590-0348",
    "lat": 34.039404,
    "lng": -117.6899535
  },
  {
    "id": "240001898",
    "name": "EXCELLENT CARE HOME HEALTH SERVICES, INC.",
    "npi": "1881678217",
    "hcaiId": "406364318",
    "businessName": "EXCELLENT CARE HOME HEALTH SERVICES, INC.",
    "contactEmail": "EXCELLENTCAREHH2@GMAIL.COM",
    "categoryName": "HOME HEALTH AGENCY",
    "categoryCode": "HHA",
    "licenseStatus": "ACTIVE",
    "inService": true,
    "licenseNumber": "240000852",
    "licenseEffectiveDate": "06/12/2025",
    "licenseExpirationDate": "06/11/2026",
    "dataDate": "10/18/2025",
    "capacity": 0,
    "address": "13139 CENTRAL AVE, SUITE G",
    "city": "CHINO",
    "zip": "91710",
    "county": "SAN BERNARDINO",
    "phone": "(909) 581-3536",
    "lat": 34.01469366,
    "lng": -117.6891309
  },
  {
    "id": "630016701",
    "name": "HEART OF GOLD HOSPICE, INC.",
    "npi": null,
    "hcaiId": "406364557",
    "businessName": "HEART OF GOLD HOSPICE, INC.",
    "contactEmail": "CONTACT@HEARTOFGOLDHOSPICE.COM",
    "categoryName": "HOSPICE",
    "categoryCode": "HOSPICE",
    "licenseStatus": "ACTIVE",
    "inService": true,
    "licenseNumber": "550003658",
    "licenseEffectiveDate": "09/15/2022",
    "licenseExpirationDate": "09/14/2024",
    "dataDate": "10/18/2025",
    "capacity": 0,
    "address": "4110 EDISON AVENUE, SUITE 200A",
    "city": "CHINO",
    "zip": "91710",
    "county": "SAN BERNARDINO",
    "phone": "(909) 364-0771",
    "lat": 33.997761,
    "lng": -117.7139655
  },
  {
    "id": "630013071",
    "name": "JACARANDA HOME",
    "npi": "1487956793",
    "hcaiId": null,
    "businessName": "SALEM CHRISTIAN HOMES, INC.",
    "contactEmail": "SHEATH@SALEMCHRISTIANHOMES.ORG",
    "categoryName": "INTERMEDIATE CARE FACILITY-DD/H/N/CN/IID",
    "categoryCode": "ICFDDH",
    "licenseStatus": "ACTIVE",
    "inService": true,
    "licenseNumber": "550001752",
    "licenseEffectiveDate": "11/12/2024",
    "licenseExpirationDate": "11/11/2025",
    "dataDate": "10/18/2025",
    "capacity": 6,
    "address": "12549 JACARANDA PL",
    "city": "CHINO",
    "zip": "91710",
    "county": "SAN BERNARDINO",
    "phone": "(909) 287-4155",
    "lat": 34.025445,
    "lng": -117.682425
  },
  {
    "id": "630011523",
    "name": "L & L HOME HEALTHCARE SERVICES INC",
    "npi": "1306049218",
    "hcaiId": "406364385",
    "businessName": "L & L HOME HEALTHCARE SERVICES, INC.",
    "contactEmail": "L.L.HOMEHEALTHCARESERVICES@GMAIL.COM",
    "categoryName": "HOME HEALTH AGENCY",
    "categoryCode": "HHA",
    "licenseStatus": "ACTIVE",
    "inService": true,
    "licenseNumber": "550000794",
    "licenseEffectiveDate": "05/29/2025",
    "licenseExpirationDate": "05/28/2026",
    "dataDate": "10/18/2025",
    "capacity": 0,
    "address": "13505 YORBA AVE, UNIT X",
    "city": "CHINO",
    "zip": "91710",
    "county": "SAN BERNARDINO",
    "phone": "(909) 447-5999",
    "lat": 34.007751,
    "lng": -117.7011225
  },
  {
    "id": "630015948",
    "name": "LEGACY HOSPICE AND PALLIATIVE CARE",
    "npi": null,
    "hcaiId": "406364589",
    "businessName": "LEGACY HEALTH SERVICES, INC.",
    "contactEmail": "RIC.LEOS@GMAIL.COM",
    "categoryName": "HOSPICE",
    "categoryCode": "HOSPICE",
    "licenseStatus": "ACTIVE",
    "inService": true,
    "licenseNumber": "550003172",
    "licenseEffectiveDate": "07/14/2025",
    "licenseExpirationDate": "07/13/2027",
    "dataDate": "10/18/2025",
    "capacity": 0,
    "address": "13721 ROSWELL AVE, SUITE A",
    "city": "CHINO",
    "zip": "91710",
    "county": "SAN BERNARDINO",
    "phone": "(909) 342-7005",
    "lat": 34.00372915,
    "lng": -117.7217741
  },
  {
    "id": "630014875",
    "name": "MERIDIAN HOSPICE CARE, INC",
    "npi": "1376964791",
    "hcaiId": "406361297",
    "businessName": "MERIDIAN HOSPICE CARE INC",
    "contactEmail": "MAIN@MERIDIANHOSPICEPALMDESERT.COM",
    "categoryName": "HOSPICE",
    "categoryCode": "HOSPICE",
    "licenseStatus": "ACTIVE",
    "inService": true,
    "licenseNumber": "550002781",
    "licenseEffectiveDate": "07/08/2024",
    "licenseExpirationDate": "07/07/2026",
    "dataDate": "10/18/2025",
    "capacity": 0,
    "address": "5562 PHILADELPHIA ST, SUITE 210",
    "city": "CHINO",
    "zip": "91710",
    "county": "SAN BERNARDINO",
    "phone": "(760) 636-8780",
    "lat": 34.03457598,
    "lng": -117.68375
  },
  {
    "id": "240001301",
    "name": "OAKS DIVISION",
    "npi": "1467604827",
    "hcaiId": null,
    "businessName": "MONTE VISTA CHILD CARE CENTER, INC.",
    "contactEmail": "DEISYMENDOZA@MONTEVISTACHILDCARECENTER.COM",
    "categoryName": "INTERMEDIATE CARE FACILITY-DD/H/N/CN/IID",
    "categoryCode": "ICFDDH",
    "licenseStatus": "ACTIVE",
    "inService": true,
    "licenseNumber": "240000547",
    "licenseEffectiveDate": "04/21/2025",
    "licenseExpirationDate": "04/20/2026",
    "dataDate": "10/18/2025",
    "capacity": 6,
    "address": "13165 OAKS AVE",
    "city": "CHINO",
    "zip": "91710",
    "county": "SAN BERNARDINO",
    "phone": "(909) 912-9314",
    "lat": 34.014303,
    "lng": -117.675882
  },
  {
    "id": "630014749",
    "name": "PRIM HOSPICE CARE, INC.",
    "npi": "1487083705",
    "hcaiId": "406364515",
    "businessName": "PRIM HOSPICE CARE, INC.",
    "contactEmail": "PRIMHOSPICE@GMAIL.COM",
    "categoryName": "HOSPICE",
    "categoryCode": "HOSPICE",
    "licenseStatus": "ACTIVE",
    "inService": true,
    "licenseNumber": "550002652",
    "licenseEffectiveDate": "04/15/2024",
    "licenseExpirationDate": "04/14/2026",
    "dataDate": "10/18/2025",
    "capacity": 0,
    "address": "4413 RIVERSIDE DR, SUITE E",
    "city": "CHINO",
    "zip": "91710",
    "county": "SAN BERNARDINO",
    "phone": "(714) 395-4694",
    "lat": 34.018497,
    "lng": -117.708786
  },
  {
    "id": "630014006",
    "name": "SALEM SYCAMORE HOME",
    "npi": "1780985317",
    "hcaiId": null,
    "businessName": "SALEM CHRISTIAN HOMES, INC.",
    "contactEmail": "BFERRARIS@SALEMCHRISTIANHOMES.ORG",
    "categoryName": "INTERMEDIATE CARE FACILITY-DD/H/N/CN/IID",
    "categoryCode": "ICFDDH",
    "licenseStatus": "ACTIVE",
    "inService": true,
    "licenseNumber": "550002306",
    "licenseEffectiveDate": "06/11/2025",
    "licenseExpirationDate": "06/10/2026",
    "dataDate": "10/18/2025",
    "capacity": 6,
    "address": "12454 SYCAMORE AVE",
    "city": "CHINO",
    "zip": "91710",
    "county": "SAN BERNARDINO",
    "phone": "(909) 342-0558",
    "lat": 34.027245,
    "lng": -117.67572
  },
  {
    "id": "240001926",
    "name": "ST. MARTIN HOME HEALTHCARE",
    "npi": "1174729412",
    "hcaiId": "406364293",
    "businessName": "EMERALD CORPORATION",
    "contactEmail": "CECILLETRAN@STMARTINHH.COM",
    "categoryName": "HOME HEALTH AGENCY",
    "categoryCode": "HHA",
    "licenseStatus": "ACTIVE",
    "inService": true,
    "licenseNumber": "240000873",
    "licenseEffectiveDate": "06/01/2025",
    "licenseExpirationDate": "05/31/2026",
    "dataDate": "10/18/2025",
    "capacity": 0,
    "address": "13771 ROSWELL AVE, SUITE H",
    "city": "CHINO",
    "zip": "91710",
    "county": "SAN BERNARDINO",
    "phone": "(909) 627-0408",
    "lat": 34.00256756,
    "lng": -117.7217709
  },
  {
    "id": "630012177",
    "name": "SUNCREST HOME HEALTH SERVICES INC",
    "npi": "1861634115",
    "hcaiId": "406364404",
    "businessName": "SUNCREST HOME HEALTH SERVICES INC",
    "contactEmail": "ROSALIE@SUNCRESTHOMEHEALTH.NET",
    "categoryName": "HOME HEALTH AGENCY",
    "categoryCode": "HHA",
    "licenseStatus": "ACTIVE",
    "inService": true,
    "licenseNumber": "550001263",
    "licenseEffectiveDate": "03/03/2025",
    "licenseExpirationDate": "03/02/2026",
    "dataDate": "10/18/2025",
    "capacity": 0,
    "address": "12598 CENTRAL AVE, SUITE 201",
    "city": "CHINO",
    "zip": "91710",
    "county": "SAN BERNARDINO",
    "phone": "(909) 399-1122",
    "lat": 34.024275,
    "lng": -117.691299
  },
  {
    "id": "630017516",
    "name": "TRELLIS CHINO",
    "npi": null,
    "hcaiId": "206364539",
    "businessName": "MACADAMIA HOLDINGS, LLC",
    "contactEmail": "NOVIE.SITANGGANG@PACS.COM",
    "categoryName": "SKILLED NURSING FACILITY",
    "categoryCode": "SNF",
    "licenseStatus": "ACTIVE",
    "inService": true,
    "licenseNumber": "550004296",
    "licenseEffectiveDate": "06/27/2025",
    "licenseExpirationDate": "06/26/2026",
    "dataDate": "10/18/2025",
    "capacity": 59,
    "address": "5454 WALNUT AVE",
    "city": "CHINO",
    "zip": "91710",
    "county": "SAN BERNARDINO",
    "phone": "(909) 793-2609",
    "lat": 34.02684,
    "lng": -117.685962
  }
]