[
  {
    "id": "630014981",
    "name": "ANGEL HOSPICE CARE, INC.",
    "npi": null,
    "hcaiId": "406198452",
    "businessName": "ANGEL HOSPICE CARE, INC.",
    "contactEmail": "WECARE@ANGELHOSPICECARE.NET",
    "categoryName": "HOSPICE",
    "categoryCode": "HOSPICE",
    "licenseStatus": "ACTIVE",
    "inService": true,
    "licenseNumber": "550003156",
    "licenseEffectiveDate": "06/17/2025",
    "licenseExpirationDate": "06/16/2027",
    "dataDate": "10/18/2025",
    "capacity": 0,
    "address": "142 SHOPPERS LN",
    "city": "COVINA",
    "zip": "91723",
    "county": "LOS ANGELES",
    "phone": "(626) 727-2115",
    "lat": 34.07751842,
    "lng": -117.8891021
  },
  {
    "id": "630026461",
    "name": "BEST FRIEND HOME HEALTH CARE",
    "npi": null,
    "hcaiId": null,
    "businessName": "BEST FRIEND HOME HEALTH CARE",
    "contactEmail": "BESTFRIENDSHHC@GMAIL.COM",
    "categoryName": "HOME HEALTH AGENCY",
    "categoryCode": "HHA",
    "licenseStatus": "ACTIVE",
    "inService": true,
    "licenseNumber": "550009457",
    "licenseEffectiveDate": "10/25/2025",
    "licenseExpirationDate": "10/24/2026",
    "dataDate": "10/18/2025",
    "capacity": 0,
    "address": "750 TERRADO PLZ, SUITE 42B",
    "city": "COVINA",
    "zip": "91723",
    "county": "LOS ANGELES",
    "phone": "(818) 929-7787",
    "lat": 34.076133,
    "lng": -117.8888895
  },
  {
    "id": "630020153",
    "name": "CHOICE A HOME HEALTH SERVICES",
    "npi": null,
    "hcaiId": "406192977",
    "businessName": "CHOICE A HOME HEALTH SERVICES",
    "contactEmail": "CHOICEAHOMEHEALTH@GMAIL.COM",
    "categoryName": "HOME HEALTH AGENCY",
    "categoryCode": "HHA",
    "licenseStatus": "ACTIVE",
    "inService": true,
    "licenseNumber": "550005845",
    "licenseEffectiveDate": "11/13/2025",
    "licenseExpirationDate": "11/12/2026",
    "dataDate": "10/18/2025",
    "capacity": 0,
    "address": "281 E WORKMAN ST, SUITE 204",
    "city": "COVINA",
    "zip": "91723",
    "county": "LOS ANGELES",
    "phone": "(626) 332-1667",
    "lat": 34.07582002,
    "lng": -117.885965
  },
  {
    "id": "930000942",
    "name": "CITRUS DIALYSIS CENTER",
    "npi": "1255342861",
    "hcaiId": "306194274",
    "businessName": "CITRUS DIALYSIS CENTER, INC.",
    "contactEmail": "YBARI@CDMSRENAL.COM",
    "categoryName": "CHRONIC DIALYSIS CLINIC",
    "categoryCode": "ESRD/CDC",
    "licenseStatus": "ACTIVE",
    "inService": true,
    "licenseNumber": "930000638",
    "licenseEffectiveDate": "12/02/2024",
    "licenseExpirationDate": "12/01/2025",
    "dataDate": "10/18/2025",
    "capacity": 22,
    "address": "315 N 3RD AVE, SUITE 104",
    "city": "COVINA",
    "zip": "91723",
    "county": "LOS ANGELES",
    "phone": "(626) 331-0133",
    "lat": 34.088733,
    "lng": -117.89262
  },
  {
    "id": "950000014",
    "name": "COVINA REHABILITATION CENTER",
    "npi": "1992885958",
    "hcaiId": "206190329",
    "businessName": "COVINA CARE CENTER, INC.",
    "contactEmail": "FAC49ADMIN@LONGWOODMGMT.COM",
    "categoryName": "SKILLED NURSING FACILITY",
    "categoryCode": "SNF",
    "licenseStatus": "ACTIVE",
    "inService": true,
    "licenseNumber": "950000047",
    "licenseEffectiveDate": "05/01/2025",
    "licenseExpirationDate": "04/30/2026",
    "dataDate": "10/18/2025",
    "capacity": 99,
    "address": "261 W BADILLO ST",
    "city": "COVINA",
    "zip": "91723",
    "county": "LOS ANGELES",
    "phone": "(626) 967-3874",
    "lat": 34.086618,
    "lng": -117.8937945
  },
  {
    "id": "630012675",
    "name": "COVINA SURGERY CENTER, LLC",
    "npi": "1811133663",
    "hcaiId": null,
    "businessName": null,
    "contactEmail": null,
    "categoryName": "SURGICAL CLINIC",
    "categoryCode": "ASC",
    "licenseStatus": null,
    "inService": null,
    "licenseNumber": null,
    "licenseEffectiveDate": null,
    "licenseExpirationDate": null,
    "dataDate": "10/18/2025",
    "capacity": 0,
    "address": "246 W COLLEGE ST, SUITE 200",
    "city": "COVINA",
    "zip": "91723",
    "county": "LOS ANGELES",
    "phone": "(626) 966-2222",
    "lat": 34.087266,
    "lng": -117.893592
  },
  {
    "id": "630016829",
    "name": "DESCANSO HOME HEALTH SERVICES, INC.",
    "npi": "1437504990",
    "hcaiId": "406190671",
    "businessName": "DESCANSO HOME HEALTH SERVICES, INC.",
    "contactEmail": "ALEXANDRA@DESCANSOHHS.COM",
    "categoryName": "HOME HEALTH AGENCY",
    "categoryCode": "HHA",
    "licenseStatus": "ACTIVE",
    "inService": true,
    "licenseNumber": "550004053",
    "licenseEffectiveDate": "12/12/2025",
    "licenseExpirationDate": "12/11/2026",
    "dataDate": "10/18/2025",
    "capacity": 0,
    "address": "408 S CITRUS AVE",
    "city": "COVINA",
    "zip": "91723",
    "county": "LOS ANGELES",
    "phone": "(626) 261-4835",
    "lat": 34.08229439,
    "lng": -117.8900608
  },
  {
    "id": "630015838",
    "name": "EAST VALLEY COMMUNITY HEALTH CENTER, INC.-COVINA HEALTH CENTER",
    "npi": "1285046847",
    "hcaiId": "306198019",
    "businessName": "EAST VALLEY COMMUNITY HEALTH CENTER, INC.",
    "contactEmail": "AMYCHEA@EVCHC.ORG",
    "categoryName": "PRIMARY CARE CLINIC",
    "categoryCode": "COMTYC",
    "licenseStatus": "ACTIVE",
    "inService": true,
    "licenseNumber": "550002999",
    "licenseEffectiveDate": "03/03/2025",
    "licenseExpirationDate": "03/02/2026",
    "dataDate": "10/18/2025",
    "capacity": 0,
    "address": "276 WEST COLLEGE STREET",
    "city": "COVINA",
    "zip": "91723",
    "county": "LOS ANGELES",
    "phone": "(626) 919-4333",
    "lat": 34.087131,
    "lng": -117.894195
  },
  {
    "id": "930000070",
    "name": "EMANATE HEALTH INTER-COMMUNITY HOSPITAL",
    "npi": "1982629440",
    "hcaiId": "106190413",
    "businessName": "EMANATE HEALTH MEDICAL CENTER",
    "contactEmail": "RSHARMA@EMANATEHEALTH.ORG",
    "categoryName": "GENERAL ACUTE CARE HOSPITAL",
    "categoryCode": "GACH",
    "licenseStatus": "ACTIVE",
    "inService": true,
    "licenseNumber": "930000131",
    "licenseEffectiveDate": "11/01/2024",
    "licenseExpirationDate": "10/31/2025",
    "dataDate": "10/18/2025",
    "capacity": 138,
    "address": "210 W SAN BERNARDINO RD",
    "city": "COVINA",
    "zip": "91723",
    "county": "LOS ANGELES",
    "phone": "(626) 331-7331",
    "lat": 34.08804,
    "lng": -117.893412
  },
  {
    "id": "930000689",
    "name": "EMANATE HEALTH INTER-COMMUNITY HOSPITAL, D/P APH",
    "npi": "1982629440",
    "hcaiId": null,
    "businessName": "EMANATE HEALTH MEDICAL CENTER",
    "contactEmail": null,
    "categoryName": "ACUTE PSYCHIATRIC HOSPITAL",
    "categoryCode": "APH",
    "licenseStatus": "ACTIVE",
    "inService": true,
    "licenseNumber": "930000131",
    "licenseEffectiveDate": "11/01/2024",
    "licenseExpirationDate": "10/31/2025",
    "dataDate": "10/18/2025",
    "capacity": 30,
    "address": "210 W SAN BERNARDINO RD",
    "city": "COVINA",
    "zip": "91723",
    "county": "LOS ANGELES",
    "phone": "(626) 331-7331",
    "lat": 34.08804,
    "lng": -117.893412
  },
  {
    "id": "930001498",
    "name": "EMANATE HEALTH INTER-COMMUNITY HOSPITAL, D/P SNF",
    "npi": "1629009097",
    "hcaiId": null,
    "businessName": "EMANATE HEALTH MEDICAL CENTER",
    "contactEmail": "MALBARECE@EMANATEHEALTH.ORG",
    "categoryName": "SKILLED NURSING FACILITY",
    "categoryCode": "SNF",
    "licenseStatus": "ACTIVE",
    "inService": true,
    "licenseNumber": "930000131",
    "licenseEffectiveDate": "11/01/2024",
    "licenseExpirationDate": "10/31/2025",
    "dataDate": "10/18/2025",
    "capacity": 23,
    "address": "210 W SAN BERNARDINO RD",
    "city": "COVINA",
    "zip": "91723",
    "county": "LOS ANGELES",
    "phone": "(626) 915-6215",
    "lat": 34.08804,
    "lng": -117.893412
  },
  {
    "id": "630028010",
    "name": "ENCORE SURGERY CENTER",
    "npi": null,
    "hcaiId": null,
    "businessName": null,
    "contactEmail": "ALEX.GARCIA@ENCORESURGERYCENTER.COM",
    "categoryName": "SURGICAL CLINIC",
    "categoryCode": "ASC",
    "licenseStatus": null,
    "inService": null,
    "licenseNumber": null,
    "licenseEffectiveDate": null,
    "licenseExpirationDate": null,
    "dataDate": "10/18/2025",
    "capacity": 0,
    "address": "300 W BADILLO ST",
    "city": "COVINA",
    "zip": "91723",
    "county": "LOS ANGELES",
    "phone": "(626) 379-3181",
    "lat": 34.086013,
    "lng": -117.8947
  },
  {
    "id": "630015388",
    "name": "EOS HOSPICE & PALLIATIVE CARE INC.",
    "npi": null,
    "hcaiId": "406191324",
    "businessName": "EOS HOSPICE & PALLIATIVE CARE INC.",
    "contactEmail": "EOSHOSPICECA@GMAIL.COM",
    "categoryName": "HOSPICE",
    "categoryCode": "HOSPICE",
    "licenseStatus": "ACTIVE",
    "inService": true,
    "licenseNumber": "550003604",
    "licenseEffectiveDate": "07/27/2024",
    "licenseExpirationDate": "07/26/2026",
    "dataDate": "10/18/2025",
    "capacity": 0,
    "address": "646 SOUTH BARRANCA AVE",
    "city": "COVINA",
    "zip": "91723",
    "county": "LOS ANGELES",
    "phone": "(909) 766-8281",
    "lat": 34.07796269,
    "lng": -117.8812511
  },
  {
    "id": "980001394",
    "name": "ERA HOME HEALTH SERVICES CORPORATION",
    "npi": "1033191317",
    "hcaiId": "406194570",
    "businessName": "ERA HOME HEALTH SERVICES CORPORATION",
    "contactEmail": "ERAHOMEHEALTH@YAHOO.COM",
    "categoryName": "HOME HEALTH AGENCY",
    "categoryCode": "HHA",
    "licenseStatus": "ACTIVE",
    "inService": true,
    "licenseNumber": "980000794",
    "licenseEffectiveDate": "03/30/2025",
    "licenseExpirationDate": "03/29/2026",
    "dataDate": "10/18/2025",
    "capacity": 0,
    "address": "270 W BADILLO ST",
    "city": "COVINA",
    "zip": "91723",
    "county": "LOS ANGELES",
    "phone": "(626) 332-2581",
    "lat": 34.08622729,
    "lng": -117.8942645
  },
  {
    "id": "630026446",
    "name": "MEADOW WALK HOME HEALTH, INC.",
    "npi": null,
    "hcaiId": null,
    "businessName": "MEADOW WALK HOME HEALTH, INC",
    "contactEmail": "MEADOWHOMEHEALTH@GMAIL.COM",
    "categoryName": "HOME HEALTH AGENCY",
    "categoryCode": "HHA",
    "licenseStatus": "ACTIVE",
    "inService": true,
    "licenseNumber": "550009358",
    "licenseEffectiveDate": "09/10/2025",
    "licenseExpirationDate": "09/09/2026",
    "dataDate": "10/18/2025",
    "capacity": 0,
    "address": "750 TERRADO PLZ, SUITE 42A",
    "city": "COVINA",
    "zip": "91723",
    "county": "LOS ANGELES",
    "phone": "(818) 599-7755",
    "lat": 34.076133,
    "lng": -117.8888895
  },
  {
    "id": "930001183",
    "name": "MOHAN DIALYSIS CENTER OF COVINA",
    "npi": "1841201738",
    "hcaiId": "306194321",
    "businessName": "MOHAN DIALYSIS CENTER OF COVINA, INC.",
    "contactEmail": "JENNY@MDCGI.NET",
    "categoryName": "CHRONIC DIALYSIS CLINIC",
    "categoryCode": "ESRD/CDC",
    "licenseStatus": "ACTIVE",
    "inService": true,
    "licenseNumber": "930000662",
    "licenseEffectiveDate": "11/07/2025",
    "licenseExpirationDate": "11/06/2026",
    "dataDate": "10/18/2025",
    "capacity": 19,
    "address": "158 W COLLEGE ST",
    "city": "COVINA",
    "zip": "91723",
    "county": "LOS ANGELES",
    "phone": "(626) 859-2522",
    "lat": 34.087131,
    "lng": -117.891738
  },
  {
    "id": "630027194",
    "name": "NXT GEN HOME HEALTH",
    "npi": null,
    "hcaiId": null,
    "businessName": "NXT GEN HOME HEALTH",
    "contactEmail": null,
    "categoryName": "HOME HEALTH AGENCY",
    "categoryCode": "HHA",
    "licenseStatus": "ACTIVE",
    "inService": true,
    "licenseNumber": "550009355",
    "licenseEffectiveDate": "09/09/2025",
    "licenseExpirationDate": "09/08/2026",
    "dataDate": "10/18/2025",
    "capacity": 0,
    "address": "599 S BARRANCA AVE, SUITE 224",
    "city": "COVINA",
    "zip": "91723",
    "county": "LOS ANGELES",
    "phone": "(626) 339-4444",
    "lat": 34.07937499,
    "lng": -117.881563
  },
  {
    "id": "630013263",
    "name": "PRIORITY HOSPICE CARE, INC.",
    "npi": null,
    "hcaiId": "406197699",
    "businessName": "PRIORITY HOSPICE CARE, INC.",
    "contactEmail": "PRIORITYHOSPICECARE@GMAIL.COM",
    "categoryName": "HOSPICE",
    "categoryCode": "HOSPICE",
    "licenseStatus": "ACTIVE",
    "inService": true,
    "licenseNumber": "550001907",
    "licenseEffectiveDate": "04/03/2024",
    "licenseExpirationDate": "04/02/2026",
    "dataDate": "10/18/2025",
    "capacity": 0,
    "address": "410 W BADILLO ST, SUITE 200",
    "city": "COVINA",
    "zip": "91723",
    "county": "LOS ANGELES",
    "phone": "(626) 335-1082",
    "lat": 34.086042,
    "lng": -117.8971155
  },
  {
    "id": "630028235",
    "name": "PROSURGICAL CENTER",
    "npi": null,
    "hcaiId": null,
    "businessName": null,
    "contactEmail": "JESSICA@ADVANTAGEHEEALTHCARESYSTEM.ORG",
    "categoryName": "SURGICAL CLINIC",
    "categoryCode": "ASC",
    "licenseStatus": null,
    "inService": null,
    "licenseNumber": null,
    "licenseEffectiveDate": null,
    "licenseExpirationDate": null,
    "dataDate": "10/18/2025",
    "capacity": 0,
    "address": "246 W COLLEGE ST, SUITE 200",
    "city": "COVINA",
    "zip": "91723",
    "county": "LOS ANGELES",
    "phone": "(714) 747-1253",
    "lat": 34.08728319,
    "lng": -117.8935905
  },
  {
    "id": "630020121",
    "name": "SAINT LAURA PALLIATIVE AND HOSPICE CARE, INC.",
    "npi": null,
    "hcaiId": "406190217",
    "businessName": "SAINT LAURA PALLIATIVE AND HOSPICE CARE, INC.",
    "contactEmail": "SAINTLAURAHOSPICE@GMAIL.COM",
    "categoryName": "HOSPICE",
    "categoryCode": "HOSPICE",
    "licenseStatus": "ACTIVE",
    "inService": true,
    "licenseNumber": "550006337",
    "licenseEffectiveDate": "04/27/2025",
    "licenseExpirationDate": "04/26/2027",
    "dataDate": "10/18/2025",
    "capacity": 0,
    "address": "271 E WORKMAN ST, SUITE 200",
    "city": "COVINA",
    "zip": "91723",
    "county": "LOS ANGELES",
    "phone": "(626) 364-7534",
    "lat": 34.07535937,
    "lng": -117.8862219
  },
  {
    "id": "630012477",
    "name": "TEAM SELECT HOME CARE",
    "npi": "1730512693",
    "hcaiId": "406197452",
    "businessName": "24-SEVEN HOME HEALTH, LLC",
    "contactEmail": "MARIA.LOZANO@TSHC.COM",
    "categoryName": "HOME HEALTH AGENCY",
    "categoryCode": "HHA",
    "licenseStatus": "ACTIVE",
    "inService": true,
    "licenseNumber": "550001366",
    "licenseEffectiveDate": "11/17/2025",
    "licenseExpirationDate": "11/16/2026",
    "dataDate": "10/18/2025",
    "capacity": 0,
    "address": "648 S BARRANCA AVE",
    "city": "COVINA",
    "zip": "91723",
    "county": "LOS ANGELES",
    "phone": "(909) 593-0900",
    "lat": 34.07795032,
    "lng": -117.8812508
  },
  {
    "id": "950000013",
    "name": "THE ROWLAND",
    "npi": "1376593004",
    "hcaiId": "206190662",
    "businessName": "ROWLAND CONVALESCENT HOSPITAL INC.",
    "contactEmail": "ADMIN@ROWLANDSNF.COM",
    "categoryName": "SKILLED NURSING FACILITY",
    "categoryCode": "SNF",
    "licenseStatus": "ACTIVE",
    "inService": true,
    "licenseNumber": "950000089",
    "licenseEffectiveDate": "01/03/2025",
    "licenseExpirationDate": "01/02/2026",
    "dataDate": "10/18/2025",
    "capacity": 126,
    "address": "330 W ROWLAND ST",
    "city": "COVINA",
    "zip": "91723",
    "county": "LOS ANGELES",
    "phone": "(626) 967-2741",
    "lat": 34.078482,
    "lng": -117.8950725
  },
  {
    "id": "630014793",
    "name": "TRUSTED HEALTHCARE, INC.",
    "npi": "1033547153",
    "hcaiId": "406304537",
    "businessName": "TRUSTED HEALTHCARE, INC.",
    "contactEmail": "CARE@TRUSTEDHEALTHCARE.ORG",
    "categoryName": "HOME HEALTH AGENCY",
    "categoryCode": "HHA",
    "licenseStatus": "ACTIVE",
    "inService": true,
    "licenseNumber": "550002762",
    "licenseEffectiveDate": "07/21/2025",
    "licenseExpirationDate": "07/20/2026",
    "dataDate": "10/18/2025",
    "capacity": 0,
    "address": "310 E ROWLAND ST, SUITE B",
    "city": "COVINA",
    "zip": "91723",
    "county": "LOS ANGELES",
    "phone": "(714) 687-6973",
    "lat": 34.078716,
    "lng": -117.885519
  },
  {
    "id": "630014863",
    "name": "TRUSTED HOSPICE CARE, INC.",
    "npi": null,
    "hcaiId": "406335127",
    "businessName": "TRUSTED HOSPICE CARE, INC.",
    "contactEmail": "CARE@TRUSTEDHOSPICECARE.COM",
    "categoryName": "HOSPICE",
    "categoryCode": "HOSPICE",
    "licenseStatus": "ACTIVE",
    "inService": true,
    "licenseNumber": "550002925",
    "licenseEffectiveDate": "12/24/2024",
    "licenseExpirationDate": "12/23/2026",
    "dataDate": "10/18/2025",
    "capacity": 0,
    "address": "310 E ROWLAND ST",
    "city": "COVINA",
    "zip": "91723",
    "county": "LOS ANGELES",
    "phone": "(714) 817-6948",
    "lat": 34.078715,
    "lng": -117.885534
  },
  {
    "id": "630027193",
    "name": "XPRESS HOME HEALTH INC",
    "npi": null,
    "hcaiId": null,
    "businessName": "XPRESS HOME HEALTH INC",
    "contactEmail": "XPRESSHOMEHEALTH@GMAIL.COM",
    "categoryName": "HOME HEALTH AGENCY",
    "categoryCode": "HHA",
    "licenseStatus": "ACTIVE",
    "inService": true,
    "licenseNumber": "550009360",
    "licenseEffectiveDate": "09/11/2025",
    "licenseExpirationDate": "09/10/2026",
    "dataDate": "10/18/2025",
    "capacity": 0,
    "address": "599 S BARRANCA AVE, SUITE L 104",
    "city": "COVINA",
    "zip": "91723",
    "county": "LOS ANGELES",
    "phone": "(626) 339-9303",
    "lat": 34.07937499,
    "lng": -117.881563
  }
]