[
  {
    "id": "980002176",
    "name": "ASSISTED HEALTHCARE SERVICES",
    "npi": "1851344717",
    "hcaiId": "406196598",
    "businessName": "STAFF ASSISTANCE, INC.",
    "contactEmail": "CSMITH@ASSISTEDCARES.COM",
    "categoryName": "HOME HEALTH AGENCY",
    "categoryCode": "HHA",
    "licenseStatus": "ACTIVE",
    "inService": true,
    "licenseNumber": "980001303",
    "licenseEffectiveDate": "11/29/2025",
    "licenseExpirationDate": "11/28/2026",
    "dataDate": "10/18/2025",
    "capacity": 0,
    "address": "1126 N GRAND AVE, SUITE 201",
    "city": "COVINA",
    "zip": "91724",
    "county": "LOS ANGELES",
    "phone": "(626) 915-5595",
    "lat": 34.10008001,
    "lng": -117.871956
  },
  {
    "id": "980001860",
    "name": "ASSISTED HOME HEALTH",
    "npi": "1992752273",
    "hcaiId": "406194948",
    "businessName": "ASSISTED HOME RECOVERY, INC.",
    "contactEmail": "TAULESTIA@ASSISTEDCARES.COM",
    "categoryName": "HOME HEALTH AGENCY",
    "categoryCode": "HHA",
    "licenseStatus": "ACTIVE",
    "inService": true,
    "licenseNumber": "980001056",
    "licenseEffectiveDate": "11/01/2025",
    "licenseExpirationDate": "10/31/2026",
    "dataDate": "10/18/2025",
    "capacity": 0,
    "address": "1126 N GRAND AVE, SUITE 205",
    "city": "COVINA",
    "zip": "91724",
    "county": "LOS ANGELES",
    "phone": "(626) 974-9720",
    "lat": 34.10008001,
    "lng": -117.871956
  },
  {
    "id": "630016893",
    "name": "ASSISTED HOSPICE CARE",
    "npi": "1811444631",
    "hcaiId": "406191803",
    "businessName": "ASSISTED HOME CARE, INC.",
    "contactEmail": "TAULESTIA@ASSISTEDCARES.COM",
    "categoryName": "HOSPICE",
    "categoryCode": "HOSPICE",
    "licenseStatus": "ACTIVE",
    "inService": true,
    "licenseNumber": "550004646",
    "licenseEffectiveDate": "02/05/2025",
    "licenseExpirationDate": "02/04/2027",
    "dataDate": "10/18/2025",
    "capacity": 0,
    "address": "1126 N GRAND AVE, SUITE 208",
    "city": "COVINA",
    "zip": "91724",
    "county": "LOS ANGELES",
    "phone": "(626) 779-5159",
    "lat": 34.10008001,
    "lng": -117.871956
  },
  {
    "id": "930000122",
    "name": "AURORA CHARTER OAK",
    "npi": "1619934114",
    "hcaiId": "106190163",
    "businessName": "AURORA CHARTER OAK - LOS ANGELES, LLC",
    "contactEmail": "JOHN.MEIER@SIGNATUREHC.COM",
    "categoryName": "ACUTE PSYCHIATRIC HOSPITAL",
    "categoryCode": "APH",
    "licenseStatus": "ACTIVE",
    "inService": true,
    "licenseNumber": "930000031",
    "licenseEffectiveDate": "11/08/2024",
    "licenseExpirationDate": "11/07/2025",
    "dataDate": "10/18/2025",
    "capacity": 134,
    "address": "1161 E COVINA BLVD",
    "city": "COVINA",
    "zip": "91724",
    "county": "LOS ANGELES",
    "phone": "(626) 966-1632",
    "lat": 34.100442,
    "lng": -117.867114
  },
  {
    "id": "630027328",
    "name": "CITRUS HEIGHTS HEALTH CENTER",
    "npi": null,
    "hcaiId": null,
    "businessName": "MASONIC HOMES OF CALIFORNIA",
    "contactEmail": "ACAMERON@FREEMASON.ORG",
    "categoryName": "SKILLED NURSING FACILITY",
    "categoryCode": "SNF",
    "licenseStatus": "ACTIVE",
    "inService": true,
    "licenseNumber": "550009071",
    "licenseEffectiveDate": "04/11/2025",
    "licenseExpirationDate": "04/10/2026",
    "dataDate": "10/18/2025",
    "capacity": 32,
    "address": "161 S. REEDER AVE",
    "city": "COVINA",
    "zip": "91724",
    "county": "LOS ANGELES",
    "phone": "(626) 251-2316",
    "lat": 34.0850637,
    "lng": -117.8540933
  },
  {
    "id": "630013860",
    "name": "COMPASSIONATE HEARTS HOME HEALTH, INC.",
    "npi": "1750875738",
    "hcaiId": "406193024",
    "businessName": "COMPASSIONATE HEARTS HOME HEALTH, INC.",
    "contactEmail": "COMPASSIONATEHEARTSHHINC@GMAIL.COM",
    "categoryName": "HOME HEALTH AGENCY",
    "categoryCode": "HHA",
    "licenseStatus": "ACTIVE",
    "inService": true,
    "licenseNumber": "550002235",
    "licenseEffectiveDate": "03/05/2025",
    "licenseExpirationDate": "12/16/2025",
    "dataDate": "10/18/2025",
    "capacity": 0,
    "address": "1270 E GARVEY ST, SUITE 200",
    "city": "COVINA",
    "zip": "91724",
    "county": "LOS ANGELES",
    "phone": "(909) 506-4317",
    "lat": 34.07099824,
    "lng": -117.8637974
  },
  {
    "id": "630014365",
    "name": "COMPASSIONATE HEARTS HOSPICE, INC.",
    "npi": "1467896910",
    "hcaiId": "406198036",
    "businessName": "COMPASSIONATE HEARTS HOSPICE, INC.",
    "contactEmail": "CHHI0306@GMAIL.COM",
    "categoryName": "HOSPICE",
    "categoryCode": "HOSPICE",
    "licenseStatus": "ACTIVE",
    "inService": true,
    "licenseNumber": "550002768",
    "licenseEffectiveDate": "06/05/2025",
    "licenseExpirationDate": "07/10/2026",
    "dataDate": "10/18/2025",
    "capacity": 0,
    "address": "1270 E GARVEY ST, SUITE 210",
    "city": "COVINA",
    "zip": "91724",
    "county": "LOS ANGELES",
    "phone": "(909) 592-5777",
    "lat": 34.07099698,
    "lng": -117.8638
  },
  {
    "id": "630015125",
    "name": "CONFIDENCE & CARE HOSPICE, INC.",
    "npi": "1306256813",
    "hcaiId": "406198378",
    "businessName": "CONFIDENCE & CARE HOSPICE, INC.",
    "contactEmail": "OFFICE@CONFIDENCEANDCAREHOSPICE.ORG",
    "categoryName": "HOSPICE",
    "categoryCode": "HOSPICE",
    "licenseStatus": "ACTIVE",
    "inService": true,
    "licenseNumber": "550003286",
    "licenseEffectiveDate": "05/20/2025",
    "licenseExpirationDate": "11/11/2025",
    "dataDate": "10/18/2025",
    "capacity": 0,
    "address": "1175 E GARVEY ST, SUITE 100",
    "city": "COVINA",
    "zip": "91724",
    "county": "LOS ANGELES",
    "phone": "(888) 760-6398",
    "lat": 34.07177001,
    "lng": -117.866598
  },
  {
    "id": "980002354",
    "name": "LEGACY HEALTH CARE PROVIDERS, INC.",
    "npi": "1003970104",
    "hcaiId": "406196381",
    "businessName": "LEGACY HEALTH CARE PROVIDERS, INC.",
    "contactEmail": "LHCPROVIDERS@GMAIL.COM",
    "categoryName": "HOME HEALTH AGENCY",
    "categoryCode": "HHA",
    "licenseStatus": "ACTIVE",
    "inService": true,
    "licenseNumber": "980001464",
    "licenseEffectiveDate": "01/07/2025",
    "licenseExpirationDate": "01/06/2026",
    "dataDate": "10/18/2025",
    "capacity": 0,
    "address": "1272 CENTER COURT DR, SUITE 203",
    "city": "COVINA",
    "zip": "91724",
    "county": "LOS ANGELES",
    "phone": "(626) 858-5611",
    "lat": 34.07278294,
    "lng": -117.8637629
  },
  {
    "id": "630016962",
    "name": "PEOPLE'S COMMUNITY CLINIC",
    "npi": null,
    "hcaiId": null,
    "businessName": null,
    "contactEmail": null,
    "categoryName": "PRIMARY CARE CLINIC",
    "categoryCode": "COMTYC",
    "licenseStatus": null,
    "inService": null,
    "licenseNumber": null,
    "licenseEffectiveDate": null,
    "licenseExpirationDate": null,
    "dataDate": "10/18/2025",
    "capacity": 0,
    "address": "4626 W. GRAND AVENUE",
    "city": "COVINA",
    "zip": "91724",
    "county": "LOS ANGELES",
    "phone": null,
    "lat": 34.096446,
    "lng": -117.872244
  },
  {
    "id": "630011428",
    "name": "PRESTIGIOUS HOME HEALTH, INC.",
    "npi": "1801022140",
    "hcaiId": "406197300",
    "businessName": "PRESTIGIOUS HOME HEALTH, INC.",
    "contactEmail": "PRESTIGIOUSHHI@GMAIL.COM",
    "categoryName": "HOME HEALTH AGENCY",
    "categoryCode": "HHA",
    "licenseStatus": "ACTIVE",
    "inService": true,
    "licenseNumber": "550000918",
    "licenseEffectiveDate": "03/03/2025",
    "licenseExpirationDate": "03/02/2026",
    "dataDate": "10/18/2025",
    "capacity": 0,
    "address": "1074 PARK VIEW DR, SUITE 103",
    "city": "COVINA",
    "zip": "91724",
    "county": "LOS ANGELES",
    "phone": "(626) 722-0279",
    "lat": 34.070508,
    "lng": -117.860886
  },
  {
    "id": "980001439",
    "name": "QUALITY HOME HEALTH CARE, INC.",
    "npi": "1104885318",
    "hcaiId": "406194632",
    "businessName": "QUALITY HOME HEALTH CARE, INC.",
    "contactEmail": "CHERRIE.QHHC@GMAIL.COM",
    "categoryName": "HOME HEALTH AGENCY",
    "categoryCode": "HHA",
    "licenseStatus": "ACTIVE",
    "inService": true,
    "licenseNumber": "980000847",
    "licenseEffectiveDate": "04/12/2025",
    "licenseExpirationDate": "04/11/2026",
    "dataDate": "10/18/2025",
    "capacity": 0,
    "address": "969 S VILLAGE OAKS DR, SUITE 206",
    "city": "COVINA",
    "zip": "91724",
    "county": "LOS ANGELES",
    "phone": "(626) 966-6893",
    "lat": 34.072047,
    "lng": -117.8634195
  },
  {
    "id": "630007622",
    "name": "ROYAL HEALTH HOMECARE AGENCY, INC.",
    "npi": "1639210727",
    "hcaiId": "406196997",
    "businessName": "ROYAL HEALTH HOMECARE AGENCY, INC.",
    "contactEmail": "ROYALHHCA@YAHOO.COM",
    "categoryName": "HOME HEALTH AGENCY",
    "categoryCode": "HHA",
    "licenseStatus": "ACTIVE",
    "inService": true,
    "licenseNumber": "550000373",
    "licenseEffectiveDate": "11/08/2025",
    "licenseExpirationDate": "11/07/2026",
    "dataDate": "10/18/2025",
    "capacity": 0,
    "address": "1272 CENTER COURT DRIVE, SUITE 204/205",
    "city": "COVINA",
    "zip": "91724",
    "county": "LOS ANGELES",
    "phone": "(818) 507-5300",
    "lat": 34.07278294,
    "lng": -117.8637629
  },
  {
    "id": "630018174",
    "name": "VALLEY BEST CARE, INC.",
    "npi": null,
    "hcaiId": "406192077",
    "businessName": "VALLEY BEST CARE, INC.",
    "contactEmail": "JEANHARRISON@GMAIL.COM",
    "categoryName": "HOSPICE",
    "categoryCode": "HOSPICE",
    "licenseStatus": "ACTIVE",
    "inService": true,
    "licenseNumber": "550005110",
    "licenseEffectiveDate": "02/07/2025",
    "licenseExpirationDate": "11/19/2025",
    "dataDate": "10/18/2025",
    "capacity": 0,
    "address": "908 S VILLAGE OAKS DR, SUITE 200",
    "city": "COVINA",
    "zip": "91724",
    "county": "LOS ANGELES",
    "phone": "(626) 552-5489",
    "lat": 34.07323801,
    "lng": -117.862344
  },
  {
    "id": "980002226",
    "name": "VITAS HEALTHCARE CORPORATION OF CALIFORNIA",
    "npi": null,
    "hcaiId": "406196328",
    "businessName": "VITAS HEALTHCARE CORPORATION OF CALIFORNIA",
    "contactEmail": "CHRYSTAL.WATERS@VITAS.COM",
    "categoryName": "HOSPICE",
    "categoryCode": "HOSPICE",
    "licenseStatus": "ACTIVE",
    "inService": true,
    "licenseNumber": "980001424",
    "licenseEffectiveDate": "11/15/2024",
    "licenseExpirationDate": "11/14/2026",
    "dataDate": "10/18/2025",
    "capacity": 0,
    "address": "1343 N GRAND AVE, SUITE 100",
    "city": "COVINA",
    "zip": "91724",
    "county": "LOS ANGELES",
    "phone": "(626) 918-2273",
    "lat": 34.10422686,
    "lng": -117.8727379
  },
  {
    "id": "630017672",
    "name": "WESTLAKE VILLA HOSPICE, INC.",
    "npi": "1801309869",
    "hcaiId": "406561614",
    "businessName": "WESTLAKE VILLA HOSPICE, INC.",
    "contactEmail": "WESTLAKEVILLAHOSPICE@YAHOO.COM",
    "categoryName": "HOSPICE",
    "categoryCode": "HOSPICE",
    "licenseStatus": "ACTIVE",
    "inService": true,
    "licenseNumber": "550004635",
    "licenseEffectiveDate": "05/10/2023",
    "licenseExpirationDate": "04/22/2025",
    "dataDate": "10/18/2025",
    "capacity": 0,
    "address": "1272 CENTER COURT DR, SUITE 206",
    "city": "COVINA",
    "zip": "91724",
    "county": "LOS ANGELES",
    "phone": "(805) 267-1093",
    "lat": 34.07240401,
    "lng": -117.864218
  }
]