[
  {
    "id": "630013503",
    "name": "BALLENTINE HOME",
    "npi": "1801167630",
    "hcaiId": null,
    "businessName": "JUCEDA, LLC",
    "contactEmail": "BALLENTINE.GRPHOME@YAHOO.COM",
    "categoryName": "INTERMEDIATE CARE FACILITY-DD/H/N/CN/IID",
    "categoryCode": "ICFDDH",
    "licenseStatus": "ACTIVE",
    "inService": true,
    "licenseNumber": "550001959",
    "licenseEffectiveDate": "04/12/2025",
    "licenseExpirationDate": "04/11/2026",
    "dataDate": "10/18/2025",
    "capacity": 6,
    "address": "15906 E BALLENTINE PL",
    "city": "COVINA",
    "zip": "91722",
    "county": "LOS ANGELES",
    "phone": "(626) 814-8626",
    "lat": 34.09137,
    "lng": -117.9361755
  },
  {
    "id": "980002378",
    "name": "BRADBOURNE HEALTHCARE, INC.",
    "npi": "1003948654",
    "hcaiId": "406196412",
    "businessName": "BRADBOURNE HEALTHCARE, INC.",
    "contactEmail": "BRADBOURNE@VERIZON.NET",
    "categoryName": "HOME HEALTH AGENCY",
    "categoryCode": "HHA",
    "licenseStatus": "ACTIVE",
    "inService": true,
    "licenseNumber": "980001488",
    "licenseEffectiveDate": "11/07/2024",
    "licenseExpirationDate": "11/06/2025",
    "dataDate": "10/18/2025",
    "capacity": 0,
    "address": "1109 W SAN BERNARDINO RD, SUITE 230",
    "city": "COVINA",
    "zip": "91722",
    "county": "LOS ANGELES",
    "phone": "(626) 814-0200",
    "lat": 34.089057,
    "lng": -117.9124965
  },
  {
    "id": "960001842",
    "name": "CALERA HOME",
    "npi": "1710108436",
    "hcaiId": null,
    "businessName": "FOOTHILL CARE CENTER II, LLC",
    "contactEmail": "USCRICH1@GMAIL.COM",
    "categoryName": "INTERMEDIATE CARE FACILITY-DD/H/N/CN/IID",
    "categoryCode": "ICFDDH",
    "licenseStatus": "ACTIVE",
    "inService": true,
    "licenseNumber": "960000895",
    "licenseEffectiveDate": "02/08/2025",
    "licenseExpirationDate": "02/07/2026",
    "dataDate": "10/18/2025",
    "capacity": 6,
    "address": "5311 N CALERA AVE",
    "city": "COVINA",
    "zip": "91722",
    "county": "LOS ANGELES",
    "phone": "(626) 701-4635",
    "lat": 34.108983,
    "lng": -117.884853
  },
  {
    "id": "630022076",
    "name": "COMFORT QUEST HOSPICE, INC.",
    "npi": null,
    "hcaiId": "406190287",
    "businessName": "COMFORT QUEST HOSPICE, INC.",
    "contactEmail": "COMQUEST29@GMAIL.COM",
    "categoryName": "HOSPICE",
    "categoryCode": "HOSPICE",
    "licenseStatus": "ACTIVE",
    "inService": true,
    "licenseNumber": "550007651",
    "licenseEffectiveDate": "12/20/2023",
    "licenseExpirationDate": "12/19/2025",
    "dataDate": "10/18/2025",
    "capacity": 0,
    "address": "1109 W SAN BERNARDINO RD, SUITE 220",
    "city": "COVINA",
    "zip": "91722",
    "county": "LOS ANGELES",
    "phone": "(626) 364-7378",
    "lat": 34.08877888,
    "lng": -117.9124904
  },
  {
    "id": "630017481",
    "name": "ERA LIFE HOME HEALTH INC.",
    "npi": null,
    "hcaiId": "406301638",
    "businessName": "ERA LIFE HOME HEALTH INC.",
    "contactEmail": "JONATHAN@ERALIFECARE.COM",
    "categoryName": "HOME HEALTH AGENCY",
    "categoryCode": "HHA",
    "licenseStatus": "ACTIVE",
    "inService": true,
    "licenseNumber": "550004662",
    "licenseEffectiveDate": "05/15/2025",
    "licenseExpirationDate": "05/14/2026",
    "dataDate": "10/18/2025",
    "capacity": 0,
    "address": "1109 W SAN BERNARDINO RD, SUITE 110",
    "city": "COVINA",
    "zip": "91722",
    "county": "LOS ANGELES",
    "phone": "(800) 861-7996",
    "lat": 34.089057,
    "lng": -117.9124965
  },
  {
    "id": "950000046",
    "name": "HARVARD CREEK POST ACUTE",
    "npi": "1306476742",
    "hcaiId": "206190048",
    "businessName": "HARVARD CREEK POST ACUTE, LLC",
    "contactEmail": "CANNYCHRISTIAN@GMAIL.COM",
    "categoryName": "SKILLED NURSING FACILITY",
    "categoryCode": "SNF",
    "licenseStatus": "ACTIVE",
    "inService": true,
    "licenseNumber": "950000011",
    "licenseEffectiveDate": "01/24/2025",
    "licenseExpirationDate": "01/23/2026",
    "dataDate": "10/18/2025",
    "capacity": 59,
    "address": "519 W BADILLO ST",
    "city": "COVINA",
    "zip": "91722",
    "county": "LOS ANGELES",
    "phone": "(626) 915-5621",
    "lat": 34.086888,
    "lng": -117.899424
  },
  {
    "id": "630016033",
    "name": "MEDQUEST HOSPICE CARE",
    "npi": "1104211689",
    "hcaiId": "406190636",
    "businessName": "MEDQUEST HOSPICE CARE",
    "contactEmail": "MEDQUESTHOSPICE@OUTLOOK.COM",
    "categoryName": "HOSPICE",
    "categoryCode": "HOSPICE",
    "licenseStatus": "ACTIVE",
    "inService": true,
    "licenseNumber": "550004147",
    "licenseEffectiveDate": "02/06/2024",
    "licenseExpirationDate": "02/05/2026",
    "dataDate": "10/18/2025",
    "capacity": 0,
    "address": "740 E ARROW HWY, UNIT D",
    "city": "COVINA",
    "zip": "91722",
    "county": "LOS ANGELES",
    "phone": "(626) 816-3111",
    "lat": 34.10548523,
    "lng": -117.8762613
  },
  {
    "id": "960001790",
    "name": "OAKBANK HOME",
    "npi": "1962624288",
    "hcaiId": null,
    "businessName": "FOOTHILL CARE CENTER II, LLC",
    "contactEmail": "USCRICH1@GMAIL.COM",
    "categoryName": "INTERMEDIATE CARE FACILITY-DD/H/N/CN/IID",
    "categoryCode": "ICFDDH",
    "licenseStatus": "ACTIVE",
    "inService": true,
    "licenseNumber": "960000867",
    "licenseEffectiveDate": "06/15/2025",
    "licenseExpirationDate": "06/14/2026",
    "dataDate": "10/18/2025",
    "capacity": 6,
    "address": "5420 N OAKBANK AVE",
    "city": "COVINA",
    "zip": "91722",
    "county": "LOS ANGELES",
    "phone": "(626) 701-4635",
    "lat": 34.111116,
    "lng": -117.8834625
  },
  {
    "id": "630018939",
    "name": "OWL HEALTHCARE SERVICES, INC.",
    "npi": null,
    "hcaiId": "406192691",
    "businessName": "OWL HEALTHCARE SERVICES, INC.",
    "contactEmail": "MIKEGINDI@OWLREXALL.COM",
    "categoryName": "HOME HEALTH AGENCY",
    "categoryCode": "HHA",
    "licenseStatus": "ACTIVE",
    "inService": true,
    "licenseNumber": "550005544",
    "licenseEffectiveDate": "06/19/2025",
    "licenseExpirationDate": "06/18/2026",
    "dataDate": "10/18/2025",
    "capacity": 0,
    "address": "706 E ARROW HWY, SUITE E",
    "city": "COVINA",
    "zip": "91722",
    "county": "LOS ANGELES",
    "phone": "(626) 541-0045",
    "lat": 34.10667748,
    "lng": -117.9036772
  },
  {
    "id": "630016636",
    "name": "SUNSHINE HEALTH HOSPICE AND PALLIATIVE CARE, INC.",
    "npi": null,
    "hcaiId": "406191321",
    "businessName": "SUNSHINE HEALTH HOSPICE AND PALLIATIVE CARE, INC.",
    "contactEmail": "SUNSHINEHEALTHHOSPICE77@GMAIL.COM",
    "categoryName": "HOSPICE",
    "categoryCode": "HOSPICE",
    "licenseStatus": "ACTIVE",
    "inService": true,
    "licenseNumber": "550004293",
    "licenseEffectiveDate": "07/02/2024",
    "licenseExpirationDate": "07/01/2026",
    "dataDate": "10/18/2025",
    "capacity": 0,
    "address": "1171 W. SAN BERNARDINO ROAD, SUITE D",
    "city": "COVINA",
    "zip": "91722",
    "county": "LOS ANGELES",
    "phone": "(213) 546-0111",
    "lat": 34.088814,
    "lng": -117.9139725
  },
  {
    "id": "980001680",
    "name": "SURE CARE HEALTH CARE SERVICES",
    "npi": "1932224086",
    "hcaiId": "406194963",
    "businessName": "SURE CARE HEALTH CARE SERVICES",
    "contactEmail": "SURECAREHEALTH@AOL.COM",
    "categoryName": "HOME HEALTH AGENCY",
    "categoryCode": "HHA",
    "licenseStatus": "ACTIVE",
    "inService": true,
    "licenseNumber": "980001055",
    "licenseEffectiveDate": "06/04/2025",
    "licenseExpirationDate": "06/03/2026",
    "dataDate": "10/18/2025",
    "capacity": 0,
    "address": "1109 W SAN BERNARDINO RD, SUITE 200",
    "city": "COVINA",
    "zip": "91722",
    "county": "LOS ANGELES",
    "phone": "(626) 859-7606",
    "lat": 34.089057,
    "lng": -117.9124965
  },
  {
    "id": "980002419",
    "name": "TEA HEALTHCARE SERVICES, INC.",
    "npi": "1235194507",
    "hcaiId": "406196903",
    "businessName": "TEA HEALTHCARE SERVICES, INC.",
    "contactEmail": "TEAHEALTHCARE@YAHOO.COM",
    "categoryName": "HOME HEALTH AGENCY",
    "categoryCode": "HHA",
    "licenseStatus": "ACTIVE",
    "inService": true,
    "licenseNumber": "980001529",
    "licenseEffectiveDate": "09/19/2025",
    "licenseExpirationDate": "09/18/2026",
    "dataDate": "10/18/2025",
    "capacity": 0,
    "address": "1025 W SAN BERNARDINO RD",
    "city": "COVINA",
    "zip": "91722",
    "county": "LOS ANGELES",
    "phone": "(626) 962-7921",
    "lat": 34.089219,
    "lng": -117.910566
  }
]