[
  {
    "id": "960001351",
    "name": "CEDAR HOUSE",
    "npi": "1154466928",
    "hcaiId": null,
    "businessName": "HOPE HOUSE FOR THE MULTIPLE-HANDICAPPED, INC.",
    "contactEmail": "OVOONG@HOPEHOUSE.ORG",
    "categoryName": "INTERMEDIATE CARE FACILITY-DD/H/N/CN/IID",
    "categoryCode": "ICFDDH",
    "licenseStatus": "ACTIVE",
    "inService": true,
    "licenseNumber": "960000700",
    "licenseEffectiveDate": "06/12/2025",
    "licenseExpirationDate": "06/11/2026",
    "dataDate": "10/18/2025",
    "capacity": 6,
    "address": "4317 CEDAR AVE",
    "city": "EL MONTE",
    "zip": "91732",
    "county": "LOS ANGELES",
    "phone": "(626) 443-0566",
    "lat": 34.083756,
    "lng": -118.0237995
  },
  {
    "id": "950000103",
    "name": "EASTLAND SUBACUTE AND REHABILITATION CENTER",
    "npi": "1265804397",
    "hcaiId": "206190507",
    "businessName": "EASTLAND SUBACUTE AND REHAB LLC",
    "contactEmail": "FAC66ADMIN@LONGWOODMGMT.COM",
    "categoryName": "SKILLED NURSING FACILITY",
    "categoryCode": "SNF",
    "licenseStatus": "ACTIVE",
    "inService": true,
    "licenseNumber": "950000068",
    "licenseEffectiveDate": "10/03/2025",
    "licenseExpirationDate": "10/02/2026",
    "dataDate": "10/18/2025",
    "capacity": 139,
    "address": "3825 DURFEE AVE",
    "city": "EL MONTE",
    "zip": "91732",
    "county": "LOS ANGELES",
    "phone": "(626) 444-2535",
    "lat": 34.071066,
    "lng": -118.00845
  },
  {
    "id": "950000007",
    "name": "MADERA POST ACUTE CENTER",
    "npi": "1538872155",
    "hcaiId": "206190268",
    "businessName": "GLIMMER HEALTHCARE, INC.",
    "contactEmail": "MTGUZMAN@ENSIGNSERVICES.NET",
    "categoryName": "SKILLED NURSING FACILITY",
    "categoryCode": "SNF",
    "licenseStatus": "ACTIVE",
    "inService": true,
    "licenseNumber": "950000037",
    "licenseEffectiveDate": "07/09/2025",
    "licenseExpirationDate": "04/09/2026",
    "dataDate": "10/18/2025",
    "capacity": 148,
    "address": "11900 RAMONA BLVD",
    "city": "EL MONTE",
    "zip": "91732",
    "county": "LOS ANGELES",
    "phone": "(626) 442-5721",
    "lat": 34.074621,
    "lng": -118.015542
  },
  {
    "id": "950000249",
    "name": "MAYFLOWER CARE CENTER",
    "npi": "1861864910",
    "hcaiId": "206194092",
    "businessName": "MAYFLOWER CARE CENTER LLC",
    "contactEmail": "FAC73ADMIN@LONGWOODMGMT.COM",
    "categoryName": "SKILLED NURSING FACILITY",
    "categoryCode": "SNF",
    "licenseStatus": "ACTIVE",
    "inService": true,
    "licenseNumber": "950000119",
    "licenseEffectiveDate": "07/21/2025",
    "licenseExpirationDate": "07/20/2026",
    "dataDate": "10/18/2025",
    "capacity": 59,
    "address": "5043 PECK RD",
    "city": "EL MONTE",
    "zip": "91732",
    "county": "LOS ANGELES",
    "phone": "(626) 579-1602",
    "lat": 34.095141,
    "lng": -118.0133865
  },
  {
    "id": "950000083",
    "name": "PENN MAR HEALTHCARE CENTER",
    "npi": "1891781423",
    "hcaiId": "206190224",
    "businessName": "EL MONTE HEALTHCARE CENTER, LLC",
    "contactEmail": "ADMINISTRATOR@PENNMARHCC.COM",
    "categoryName": "SKILLED NURSING FACILITY",
    "categoryCode": "SNF",
    "licenseStatus": "ACTIVE",
    "inService": true,
    "licenseNumber": "950000029",
    "licenseEffectiveDate": "02/01/2025",
    "licenseExpirationDate": "01/31/2026",
    "dataDate": "10/18/2025",
    "capacity": 45,
    "address": "3938 COGSWELL RD",
    "city": "EL MONTE",
    "zip": "91732",
    "county": "LOS ANGELES",
    "phone": "(626) 401-1557",
    "lat": 34.074252,
    "lng": -118.0121715
  },
  {
    "id": "960001143",
    "name": "PLANNED PARENTHOOD LOS ANGELES-EL MONTE CENTER",
    "npi": null,
    "hcaiId": "306191009",
    "businessName": "PLANNED PARENTHOOD LOS ANGELES",
    "contactEmail": "BRENDA.GUERRERO@PP-LA.ORG",
    "categoryName": "PRIMARY CARE CLINIC",
    "categoryCode": "COMTYC",
    "licenseStatus": "ACTIVE",
    "inService": true,
    "licenseNumber": "960000596",
    "licenseEffectiveDate": "04/15/2025",
    "licenseExpirationDate": "04/14/2026",
    "dataDate": "10/18/2025",
    "capacity": 0,
    "address": "4786 PECK RD, SUITE B",
    "city": "EL MONTE",
    "zip": "91732",
    "county": "LOS ANGELES",
    "phone": "(213) 284-3200",
    "lat": 34.0907336,
    "lng": -118.0144502
  },
  {
    "id": "950000027",
    "name": "SANTA FE LODGE",
    "npi": "1851763908",
    "hcaiId": "206190167",
    "businessName": "SANTA FE LODGE LLC",
    "contactEmail": "FAC74ADMIN@LONGWOODMGMT.COM",
    "categoryName": "SKILLED NURSING FACILITY",
    "categoryCode": "SNF",
    "licenseStatus": "ACTIVE",
    "inService": true,
    "licenseNumber": "950000022",
    "licenseEffectiveDate": "10/03/2025",
    "licenseExpirationDate": "10/02/2026",
    "dataDate": "10/18/2025",
    "capacity": 46,
    "address": "5053 PECK RD",
    "city": "EL MONTE",
    "zip": "91732",
    "county": "LOS ANGELES",
    "phone": "(626) 448-4248",
    "lat": 34.095258,
    "lng": -118.0129905
  },
  {
    "id": "960001366",
    "name": "SCHMIDT HOUSE",
    "npi": "1154466928",
    "hcaiId": null,
    "businessName": "HOPE HOUSE FOR THE MULTIPLE-HANDICAPPED, INC.",
    "contactEmail": "OVOONG@HOPEHOUSE.ORG",
    "categoryName": "INTERMEDIATE CARE FACILITY-DD/H/N/CN/IID",
    "categoryCode": "ICFDDH",
    "licenseStatus": "ACTIVE",
    "inService": true,
    "licenseNumber": "960000699",
    "licenseEffectiveDate": "02/12/2025",
    "licenseExpirationDate": "02/11/2026",
    "dataDate": "10/18/2025",
    "capacity": 6,
    "address": "5121 BUFFINGTON RD",
    "city": "EL MONTE",
    "zip": "91732",
    "county": "LOS ANGELES",
    "phone": "(626) 443-1139",
    "lat": 34.094601,
    "lng": -118.008603
  },
  {
    "id": "630012575",
    "name": "SOUTHERN CALIFORNIA MEDICAL CENTER - EL MONTE",
    "npi": null,
    "hcaiId": "306197169",
    "businessName": "SOUTHERN CALIFORNIA MEDICAL CENTER, INC.",
    "contactEmail": "NMEJIA@SCMEDCENTER.ORG",
    "categoryName": "PRIMARY CARE CLINIC",
    "categoryCode": "COMTYC",
    "licenseStatus": "ACTIVE",
    "inService": true,
    "licenseNumber": "550001448",
    "licenseEffectiveDate": "11/01/2025",
    "licenseExpirationDate": "10/31/2026",
    "dataDate": "10/18/2025",
    "capacity": 0,
    "address": "12100 VALLEY BLVD, SUITE 109A",
    "city": "EL MONTE",
    "zip": "91732",
    "county": "LOS ANGELES",
    "phone": "(626) 575-7500",
    "lat": 34.06086,
    "lng": -118.016667
  },
  {
    "id": "630025035",
    "name": "SOUTHERN CALIFORNIA MEDICAL CENTER INC. - EL MONTE 2",
    "npi": null,
    "hcaiId": null,
    "businessName": "SOUTHERN CALIFORNIA MEDICAL CENTER, INC.",
    "contactEmail": null,
    "categoryName": "PRIMARY CARE CLINIC",
    "categoryCode": "COMTYC",
    "licenseStatus": "ACTIVE",
    "inService": true,
    "licenseNumber": "550001448",
    "licenseEffectiveDate": "11/01/2025",
    "licenseExpirationDate": "10/31/2026",
    "dataDate": "10/18/2025",
    "capacity": 0,
    "address": "12100 VALLEY BLVD, SUITE 112",
    "city": "EL MONTE",
    "zip": "91732",
    "county": "LOS ANGELES",
    "phone": null,
    "lat": 34.060968,
    "lng": -118.0166985
  },
  {
    "id": "060002098",
    "name": "STAR COMMUNITY ADULT DAY HEALTH CARE CENTER",
    "npi": null,
    "hcaiId": null,
    "businessName": "STAR COMMUNITY ADHC INC.",
    "contactEmail": "STARELMONTE@GMAIL.COM",
    "categoryName": "ADULT DAY HEALTH CARE",
    "categoryCode": "ADHC",
    "licenseStatus": "ACTIVE",
    "inService": true,
    "licenseNumber": "060000840",
    "licenseEffectiveDate": "01/05/2025",
    "licenseExpirationDate": "01/04/2026",
    "dataDate": "10/18/2025",
    "capacity": 0,
    "address": "4410 PECK RD",
    "city": "EL MONTE",
    "zip": "91732",
    "county": "LOS ANGELES",
    "phone": "(626) 450-0700",
    "lat": 34.08462,
    "lng": -118.017063
  },
  {
    "id": "950000063",
    "name": "THE GARDENS OF EL MONTE",
    "npi": "1376043372",
    "hcaiId": "206190403",
    "businessName": "THE GARDENS OF EL MONTE, LLC",
    "contactEmail": "JEFFS@ELMONTEGARDENS.COM",
    "categoryName": "SKILLED NURSING FACILITY",
    "categoryCode": "SNF",
    "licenseStatus": "ACTIVE",
    "inService": true,
    "licenseNumber": "950000058",
    "licenseEffectiveDate": "06/29/2025",
    "licenseExpirationDate": "06/28/2026",
    "dataDate": "10/18/2025",
    "capacity": 53,
    "address": "5044 BUFFINGTON RD",
    "city": "EL MONTE",
    "zip": "91732",
    "county": "LOS ANGELES",
    "phone": "(626) 443-1351",
    "lat": 34.093395,
    "lng": -118.0078875
  },
  {
    "id": "960001196",
    "name": "THE RANCHITO",
    "npi": "1154466928",
    "hcaiId": null,
    "businessName": "HOPE HOUSE FOR THE MULTIPLE-HANDICAPPED, INC.",
    "contactEmail": "OVOONG@HOPEHOUSE.ORG",
    "categoryName": "INTERMEDIATE CARE FACILITY-DD/H/N/CN/IID",
    "categoryCode": "ICFDDH",
    "licenseStatus": "ACTIVE",
    "inService": true,
    "licenseNumber": "960000621",
    "licenseEffectiveDate": "03/21/2025",
    "licenseExpirationDate": "03/20/2026",
    "dataDate": "10/18/2025",
    "capacity": 6,
    "address": "11338 RANCHITO ST",
    "city": "EL MONTE",
    "zip": "91732",
    "county": "LOS ANGELES",
    "phone": "(626) 443-0968",
    "lat": 34.089381,
    "lng": -118.0204875
  }
]