[
  {
    "id": "630020084",
    "name": "A LIFE CARE HOSPICE INC.",
    "npi": "1992325039",
    "hcaiId": "406364780",
    "businessName": "A LIFE CARE HOSPICE INC.",
    "contactEmail": "ALIFECAREHOSPICE@GMAIL.COM",
    "categoryName": "HOSPICE",
    "categoryCode": "HOSPICE",
    "licenseStatus": "ACTIVE",
    "inService": true,
    "licenseNumber": "550006194",
    "licenseEffectiveDate": "04/03/2025",
    "licenseExpirationDate": "04/02/2027",
    "dataDate": "10/18/2025",
    "capacity": 0,
    "address": "10970 ARROW RTE, SUITE 213",
    "city": "RANCHO CUCAMONGA",
    "zip": "91730",
    "county": "SAN BERNARDINO",
    "phone": "(909) 527-3335",
    "lat": 34.099434,
    "lng": -117.5646195
  },
  {
    "id": "240001922",
    "name": "A'S HOME HEALTH CARE, INC.",
    "npi": "1114948858",
    "hcaiId": "406364290",
    "businessName": "A'S HOME HEALTH CARE, INC.",
    "contactEmail": "AHHH91710@GMAIL.COM",
    "categoryName": "HOME HEALTH AGENCY",
    "categoryCode": "HHA",
    "licenseStatus": "ACTIVE",
    "inService": true,
    "licenseNumber": "240000869",
    "licenseEffectiveDate": "08/25/2025",
    "licenseExpirationDate": "08/24/2026",
    "dataDate": "10/18/2025",
    "capacity": 0,
    "address": "11030 ARROW RTE, SUITE 202",
    "city": "RANCHO CUCAMONGA",
    "zip": "91730",
    "county": "SAN BERNARDINO",
    "phone": "(909) 466-0009",
    "lat": 34.099416,
    "lng": -117.5632515
  },
  {
    "id": "630015901",
    "name": "ABBA HOSPICE CARE INC",
    "npi": null,
    "hcaiId": "406364535",
    "businessName": "ABBA HOSPICE CARE INC.",
    "contactEmail": "ABBAHOSPICECARE@GMAIL.COM",
    "categoryName": "HOSPICE",
    "categoryCode": "HOSPICE",
    "licenseStatus": "ACTIVE",
    "inService": true,
    "licenseNumber": "550003110",
    "licenseEffectiveDate": "06/02/2025",
    "licenseExpirationDate": "06/01/2027",
    "dataDate": "10/18/2025",
    "capacity": 0,
    "address": "9587 ARROW RTE, BUILDING 2,  SUITE B",
    "city": "RANCHO CUCAMONGA",
    "zip": "91730",
    "county": "SAN BERNARDINO",
    "phone": "(951) 391-6005",
    "lat": 34.09888001,
    "lng": -117.59648
  },
  {
    "id": "630017638",
    "name": "ABBOT HOMEHEALTH, INC.",
    "npi": "1932628146",
    "hcaiId": "406361678",
    "businessName": "ABBOT HOMEHEALTH, INC.",
    "contactEmail": "ALFREDO@GMAIL.COM",
    "categoryName": "HOME HEALTH AGENCY",
    "categoryCode": "HHA",
    "licenseStatus": "ACTIVE",
    "inService": true,
    "licenseNumber": "550004713",
    "licenseEffectiveDate": "03/11/2025",
    "licenseExpirationDate": "03/10/2026",
    "dataDate": "10/18/2025",
    "capacity": 0,
    "address": "11030 ARROW RTE, UNIT 203 B",
    "city": "RANCHO CUCAMONGA",
    "zip": "91730",
    "county": "SAN BERNARDINO",
    "phone": "(909) 964-8733",
    "lat": 34.099416,
    "lng": -117.5632515
  },
  {
    "id": "630018285",
    "name": "ADEPT HOSPICE CARE",
    "npi": "1013401074",
    "hcaiId": "406361692",
    "businessName": "ADEPT HOSPICE CARE",
    "contactEmail": "CECILIA.GODOY@ADEPTHOSPICE.COM",
    "categoryName": "HOSPICE",
    "categoryCode": "HOSPICE",
    "licenseStatus": "ACTIVE",
    "inService": true,
    "licenseNumber": "550004712",
    "licenseEffectiveDate": "05/01/2025",
    "licenseExpirationDate": "04/30/2027",
    "dataDate": "10/18/2025",
    "capacity": 0,
    "address": "10737 LAUREL ST, SUITE 130",
    "city": "RANCHO CUCAMONGA",
    "zip": "91730",
    "county": "SAN BERNARDINO",
    "phone": "(818) 281-5906",
    "lat": 34.10481164,
    "lng": -117.5708933
  },
  {
    "id": "240001928",
    "name": "AHF HEALTHCARE CENTER - UPLAND",
    "npi": "1447233358",
    "hcaiId": "306364298",
    "businessName": "AIDS HEALTHCARE FOUNDATION",
    "contactEmail": "PHARMACYOPERATIONS@AHFRX.ORG",
    "categoryName": "PRIMARY CARE CLINIC",
    "categoryCode": "COMTYC",
    "licenseStatus": "ACTIVE",
    "inService": true,
    "licenseNumber": "240000875",
    "licenseEffectiveDate": "11/27/2024",
    "licenseExpirationDate": "11/26/2025",
    "dataDate": "10/18/2025",
    "capacity": 0,
    "address": "8263 GROVE AVE, SUITE 201",
    "city": "RANCHO CUCAMONGA",
    "zip": "91730",
    "county": "SAN BERNARDINO",
    "phone": "(310) 999-6089",
    "lat": 34.104384,
    "lng": -117.627984
  },
  {
    "id": "630017072",
    "name": "ALAPHIA CARE HOME HEALTH SERVICES, INC.",
    "npi": "1639628183",
    "hcaiId": "406364583",
    "businessName": "ALAPHIA CARE HOME HEALTH SERVICES, INC.",
    "contactEmail": "ALAPHIACARE@GMAIL.COM",
    "categoryName": "HOME HEALTH AGENCY",
    "categoryCode": "HHA",
    "licenseStatus": "ACTIVE",
    "inService": true,
    "licenseNumber": "550003908",
    "licenseEffectiveDate": "06/13/2025",
    "licenseExpirationDate": "06/12/2026",
    "dataDate": "10/18/2025",
    "capacity": 0,
    "address": "8300 UTICA AVE, SUITE 247",
    "city": "RANCHO CUCAMONGA",
    "zip": "91730",
    "county": "SAN BERNARDINO",
    "phone": "(909) 458-0578",
    "lat": 34.10251998,
    "lng": -117.571831
  },
  {
    "id": "630014416",
    "name": "ALLSTAR HEALTH PROVIDERS, INC.",
    "npi": "1205270154",
    "hcaiId": "406364487",
    "businessName": "ALLSTAR HEALTH PROVIDERS, INC.",
    "contactEmail": "ALLSTARHEALTHPROVIDERS@GMAIL.COM",
    "categoryName": "HOME HEALTH AGENCY",
    "categoryCode": "HHA",
    "licenseStatus": "ACTIVE",
    "inService": true,
    "licenseNumber": "550002526",
    "licenseEffectiveDate": "12/10/2024",
    "licenseExpirationDate": "12/09/2025",
    "dataDate": "10/18/2025",
    "capacity": 0,
    "address": "10722 ARROW RTE, SUITE 218",
    "city": "RANCHO CUCAMONGA",
    "zip": "91730",
    "county": "SAN BERNARDINO",
    "phone": "(909) 945-9899",
    "lat": 34.09955002,
    "lng": -117.570882
  },
  {
    "id": "630027026",
    "name": "ALTA LOMA COMMUNITY HEALTH CENTER",
    "npi": "1801307368",
    "hcaiId": null,
    "businessName": "HEALTH SERVICE ALLIANCE",
    "contactEmail": null,
    "categoryName": "PRIMARY CARE CLINIC",
    "categoryCode": "COMTYC",
    "licenseStatus": "ACTIVE",
    "inService": true,
    "licenseNumber": "550004600",
    "licenseEffectiveDate": "12/20/2024",
    "licenseExpirationDate": "12/19/2025",
    "dataDate": "10/18/2025",
    "capacity": 0,
    "address": "9089 BASELINE RD, SUITE 200",
    "city": "RANCHO CUCAMONGA",
    "zip": "91730",
    "county": "SAN BERNARDINO",
    "phone": null,
    "lat": 34.121214,
    "lng": -117.607446
  },
  {
    "id": "630013333",
    "name": "APPLE HEALTHCARE, INC.",
    "npi": "1548548571",
    "hcaiId": "406364460",
    "businessName": "APPLE HEALTHCARE, INC.",
    "contactEmail": "JOCELYNCEDRO@APPLE-HEALTHCARE.COM",
    "categoryName": "HOME HEALTH AGENCY",
    "categoryCode": "HHA",
    "licenseStatus": "ACTIVE",
    "inService": true,
    "licenseNumber": "550001793",
    "licenseEffectiveDate": "12/01/2024",
    "licenseExpirationDate": "11/30/2025",
    "dataDate": "10/18/2025",
    "capacity": 0,
    "address": "10722 ARROW RTE, UNIT 814A",
    "city": "RANCHO CUCAMONGA",
    "zip": "91730",
    "county": "SAN BERNARDINO",
    "phone": "(909) 527-4690",
    "lat": 34.09983,
    "lng": -117.571329
  },
  {
    "id": "240001884",
    "name": "ARCHIBALD SURGERY CENTER LLC",
    "npi": "1982975959",
    "hcaiId": "306364263",
    "businessName": "BENEFIT SURGERY MEDICAL CENTER, INC.",
    "contactEmail": "MCHANG@MPOWERCOM.NET",
    "categoryName": "SURGICAL CLINIC",
    "categoryCode": "ASC",
    "licenseStatus": "INACTIVE - CAPEN DECISION",
    "inService": false,
    "licenseNumber": "240000845",
    "licenseEffectiveDate": "12/19/2007",
    "licenseExpirationDate": "12/18/2008",
    "dataDate": "10/18/2025",
    "capacity": 0,
    "address": "9674 ARCHIBALD AVE, SUITE 125",
    "city": "RANCHO CUCAMONGA",
    "zip": "91730",
    "county": "SAN BERNARDINO",
    "phone": "(909) 296-8930",
    "lat": 34.078032,
    "lng": -117.593991
  },
  {
    "id": "630020093",
    "name": "AVERY CARE HOSPICE, INC",
    "npi": "1548880685",
    "hcaiId": "406364677",
    "businessName": "AVERY CARE HOSPICE, INC.",
    "contactEmail": "AVERYCAREHOSPICE@GMAIL.COM",
    "categoryName": "HOSPICE",
    "categoryCode": "HOSPICE",
    "licenseStatus": "ACTIVE",
    "inService": true,
    "licenseNumber": "550005924",
    "licenseEffectiveDate": "12/05/2024",
    "licenseExpirationDate": "12/04/2026",
    "dataDate": "10/18/2025",
    "capacity": 0,
    "address": "11030 ARROW RTE, UNIT 209",
    "city": "RANCHO CUCAMONGA",
    "zip": "91730",
    "county": "SAN BERNARDINO",
    "phone": "(909) 727-3200",
    "lat": 34.099416,
    "lng": -117.5632515
  },
  {
    "id": "630016022",
    "name": "BLOSSOM CARE HOSPICE INC",
    "npi": "1518344993",
    "hcaiId": "406360867",
    "businessName": "BLOSSOM CARE HOSPICE, INC.",
    "contactEmail": "BLOSSOMCAREHOSPICE@YAHOO.COM",
    "categoryName": "HOSPICE",
    "categoryCode": "HOSPICE",
    "licenseStatus": "ACTIVE",
    "inService": true,
    "licenseNumber": "550003435",
    "licenseEffectiveDate": "01/26/2024",
    "licenseExpirationDate": "01/25/2026",
    "dataDate": "10/18/2025",
    "capacity": 0,
    "address": "11030 ARROW ROUTE, SUITE 210",
    "city": "RANCHO CUCAMONGA",
    "zip": "91730",
    "county": "SAN BERNARDINO",
    "phone": "(909) 466-7555",
    "lat": 34.099416,
    "lng": -117.5632515
  },
  {
    "id": "630012174",
    "name": "BRIGHT HAVEN HOSPICE",
    "npi": null,
    "hcaiId": "406364411",
    "businessName": "BRIGHT HAVEN HOSPICE CARE CORPORATION",
    "contactEmail": "BRIGHTHAVENHOSPICE@YAHOO.COM",
    "categoryName": "HOSPICE",
    "categoryCode": "HOSPICE",
    "licenseStatus": "ACTIVE",
    "inService": true,
    "licenseNumber": "550001395",
    "licenseEffectiveDate": "11/18/2024",
    "licenseExpirationDate": "11/17/2026",
    "dataDate": "10/18/2025",
    "capacity": 0,
    "address": "9631 BUSINESS CENTER DR, SUITE C",
    "city": "RANCHO CUCAMONGA",
    "zip": "91730",
    "county": "SAN BERNARDINO",
    "phone": "(909) 476-7896",
    "lat": 34.097787,
    "lng": -117.5949495
  },
  {
    "id": "630021005",
    "name": "BRIGHT LIGHT HOME HEALTH",
    "npi": null,
    "hcaiId": "406193152",
    "businessName": "BRIGHT LIGHT HOME HEALTH",
    "contactEmail": "ADMIN@AIMEHHS.COM",
    "categoryName": "HOME HEALTH AGENCY",
    "categoryCode": "HHA",
    "licenseStatus": "ACTIVE",
    "inService": true,
    "licenseNumber": "550006306",
    "licenseEffectiveDate": "05/10/2025",
    "licenseExpirationDate": "05/09/2026",
    "dataDate": "10/18/2025",
    "capacity": 0,
    "address": "9651 BUSINESS CENTER DR, SUITE E",
    "city": "RANCHO CUCAMONGA",
    "zip": "91730",
    "county": "SAN BERNARDINO",
    "phone": "(909) 481-8040",
    "lat": 34.09778999,
    "lng": -117.594962
  },
  {
    "id": "630013404",
    "name": "CALCARE PALLIATIVE SERVICES",
    "npi": "1518339548",
    "hcaiId": "406364442",
    "businessName": "CALCARE HOSPICE, INC.",
    "contactEmail": "MARYJEAN@CCHOMEHEALTH.COM",
    "categoryName": "HOSPICE",
    "categoryCode": "HOSPICE",
    "licenseStatus": "ACTIVE",
    "inService": true,
    "licenseNumber": "550001808",
    "licenseEffectiveDate": "07/11/2024",
    "licenseExpirationDate": "07/10/2026",
    "dataDate": "10/18/2025",
    "capacity": 0,
    "address": "9140 HAVEN AVENUE, SUITE 120",
    "city": "RANCHO CUCAMONGA",
    "zip": "91730",
    "county": "SAN BERNARDINO",
    "phone": "(909) 579-0007",
    "lat": 34.087491,
    "lng": -117.5765985
  },
  {
    "id": "630020234",
    "name": "CARING HANDS PALLIATIVE & HOSPICE INC.",
    "npi": "1326668286",
    "hcaiId": "406363655",
    "businessName": "CARING HANDS PALLIATIVE & HOSPICE INC.",
    "contactEmail": "ADMIN@AVIENNEHOSPICE.COM",
    "categoryName": "HOSPICE",
    "categoryCode": "HOSPICE",
    "licenseStatus": "ACTIVE",
    "inService": true,
    "licenseNumber": "550006282",
    "licenseEffectiveDate": "05/01/2025",
    "licenseExpirationDate": "04/30/2027",
    "dataDate": "10/18/2025",
    "capacity": 0,
    "address": "10184 6TH ST, SUITE B",
    "city": "RANCHO CUCAMONGA",
    "zip": "91730",
    "county": "SAN BERNARDINO",
    "phone": "(909) 360-8177",
    "lat": 34.0851205,
    "lng": -117.5828913
  },
  {
    "id": "630020060",
    "name": "CHERISH CARE HOSPICE INC",
    "npi": null,
    "hcaiId": "406367383",
    "businessName": "CHERISH CARE HOSPICE INC",
    "contactEmail": "CHERISHCAREHOSPICE@GMAIL.COM",
    "categoryName": "HOSPICE",
    "categoryCode": "HOSPICE",
    "licenseStatus": "ACTIVE",
    "inService": true,
    "licenseNumber": "550006380",
    "licenseEffectiveDate": "05/20/2024",
    "licenseExpirationDate": "06/02/2025",
    "dataDate": "10/18/2025",
    "capacity": 0,
    "address": "8333 FOOTHILL BLVD, SUITE 109",
    "city": "RANCHO CUCAMONGA",
    "zip": "91730",
    "county": "SAN BERNARDINO",
    "phone": "(909) 294-3422",
    "lat": 34.10441098,
    "lng": -117.623472
  },
  {
    "id": "630018014",
    "name": "COMMUNITY'S CHOICE HOSPICE",
    "npi": "1366949315",
    "hcaiId": "406361655",
    "businessName": "AMERICAN ALL CARE SERVICES, LLC",
    "contactEmail": "INFO@CCH-HEALTH.COM",
    "categoryName": "HOSPICE",
    "categoryCode": "HOSPICE",
    "licenseStatus": "ACTIVE",
    "inService": true,
    "licenseNumber": "550004672",
    "licenseEffectiveDate": "05/01/2025",
    "licenseExpirationDate": "04/30/2027",
    "dataDate": "10/18/2025",
    "capacity": 0,
    "address": "10737 LAUREL ST, SUITE 245",
    "city": "RANCHO CUCAMONGA",
    "zip": "91730",
    "county": "SAN BERNARDINO",
    "phone": "(909) 453-2790",
    "lat": 34.104771,
    "lng": -117.5708385
  },
  {
    "id": "630028009",
    "name": "DUNAMIS HOME HEALTH CARE",
    "npi": null,
    "hcaiId": null,
    "businessName": "DUNAMIS CARE INC",
    "contactEmail": null,
    "categoryName": "HOME HEALTH AGENCY",
    "categoryCode": "HHA",
    "licenseStatus": "ACTIVE",
    "inService": true,
    "licenseNumber": "550009819",
    "licenseEffectiveDate": "05/20/2025",
    "licenseExpirationDate": "11/19/2025",
    "dataDate": "10/18/2025",
    "capacity": 0,
    "address": "8350 ARCHIBALD AVE, SUITE 227",
    "city": "RANCHO CUCAMONGA",
    "zip": "91730",
    "county": "SAN BERNARDINO",
    "phone": null,
    "lat": 34.10204598,
    "lng": -117.594488
  },
  {
    "id": "630024235",
    "name": "E.T. HOME HEALTH CARE SERVICES, LLC",
    "npi": null,
    "hcaiId": "406365463",
    "businessName": "E.T. HOME HEALTH CARE SERVICES, LLC",
    "contactEmail": "ETCARESERVICES@GMAIL.COM",
    "categoryName": "HOME HEALTH AGENCY",
    "categoryCode": "HHA",
    "licenseStatus": "ACTIVE",
    "inService": true,
    "licenseNumber": "550008089",
    "licenseEffectiveDate": "07/21/2023",
    "licenseExpirationDate": "07/20/2024",
    "dataDate": "10/18/2025",
    "capacity": 0,
    "address": "8300 UTICA AVE, SUITE 157",
    "city": "RANCHO CUCAMONGA",
    "zip": "91730",
    "county": "SAN BERNARDINO",
    "phone": "(909) 920-6720",
    "lat": 34.102557,
    "lng": -117.5718465
  },
  {
    "id": "630020218",
    "name": "ELITE HOSPICE & PALLIATIVE CARE, INC.",
    "npi": "1073100244",
    "hcaiId": "406365800",
    "businessName": "ELITE HOSPICE & PALLIATIVE CARE, INC.",
    "contactEmail": "ELITEHOSPICEINC@GMAIL.COM",
    "categoryName": "HOSPICE",
    "categoryCode": "HOSPICE",
    "licenseStatus": "ACTIVE",
    "inService": true,
    "licenseNumber": "550007201",
    "licenseEffectiveDate": "11/05/2025",
    "licenseExpirationDate": "11/04/2027",
    "dataDate": "10/18/2025",
    "capacity": 0,
    "address": "8400 MAPLE PL, SUITE 109",
    "city": "RANCHO CUCAMONGA",
    "zip": "91730",
    "county": "SAN BERNARDINO",
    "phone": "(909) 481-0998",
    "lat": 34.10073,
    "lng": -117.5634495
  },
  {
    "id": "630019554",
    "name": "ETERNAL GRACE HOSPICE, INC.",
    "npi": null,
    "hcaiId": "406192920",
    "businessName": "ETERNAL GRACE HOSPICE, INC.",
    "contactEmail": "ETERNALGRACEHOSPICE@GMAIL.COM",
    "categoryName": "HOSPICE",
    "categoryCode": "HOSPICE",
    "licenseStatus": "ACTIVE",
    "inService": true,
    "licenseNumber": "550005746",
    "licenseEffectiveDate": "12/23/2024",
    "licenseExpirationDate": "09/11/2026",
    "dataDate": "10/18/2025",
    "capacity": 0,
    "address": "9613 ARROW RTE, SUITE B",
    "city": "RANCHO CUCAMONGA",
    "zip": "91730",
    "county": "SAN BERNARDINO",
    "phone": "(818) 616-6260",
    "lat": 34.09925054,
    "lng": -117.5955994
  },
  {
    "id": "630020874",
    "name": "EXTRA HAND IN-HOME CARE, LLC",
    "npi": "1861002735",
    "hcaiId": "406195809",
    "businessName": "EXTRA HAND IN-HOME CARE, LLC",
    "contactEmail": "STEPHANIE@EHIHC.COM",
    "categoryName": "HOME HEALTH AGENCY",
    "categoryCode": "HHA",
    "licenseStatus": "ACTIVE",
    "inService": true,
    "licenseNumber": "550007839",
    "licenseEffectiveDate": "02/18/2025",
    "licenseExpirationDate": "02/17/2026",
    "dataDate": "10/18/2025",
    "capacity": 0,
    "address": "8439 WHITE OAK AVE, UNIT 104A",
    "city": "RANCHO CUCAMONGA",
    "zip": "91730",
    "county": "SAN BERNARDINO",
    "phone": "(909) 360-2223",
    "lat": 34.100289,
    "lng": -117.564615
  },
  {
    "id": "630000841",
    "name": "FLOWER HOME HEALTH, INC.",
    "npi": "1164941753",
    "hcaiId": "406364325",
    "businessName": "FLOWER HOME HEALTH, INC.",
    "contactEmail": "MARY-ANNE@PHHPROVIDER.COM",
    "categoryName": "HOME HEALTH AGENCY",
    "categoryCode": "HHA",
    "licenseStatus": "ACTIVE",
    "inService": true,
    "licenseNumber": "550000194",
    "licenseEffectiveDate": "08/28/2025",
    "licenseExpirationDate": "11/17/2025",
    "dataDate": "10/18/2025",
    "capacity": 0,
    "address": "9057 ARROW RTE, SUITE 180",
    "city": "RANCHO CUCAMONGA",
    "zip": "91730",
    "county": "SAN BERNARDINO",
    "phone": "(909) 980-9518",
    "lat": 34.09838716,
    "lng": -117.6076958
  },
  {
    "id": "240001735",
    "name": "FMC DIALYSIS SERVICES RANCHO CUCAMONGA",
    "npi": "1710099510",
    "hcaiId": "306364240",
    "businessName": "BIO-MEDICAL APPLICATIONS OF CALIFORNIA, INC.",
    "contactEmail": "CLINIC2375@FMC-NA.COM",
    "categoryName": "CHRONIC DIALYSIS CLINIC",
    "categoryCode": "ESRD/CDC",
    "licenseStatus": "ACTIVE",
    "inService": true,
    "licenseNumber": "240000754",
    "licenseEffectiveDate": "12/20/2024",
    "licenseExpirationDate": "12/19/2025",
    "dataDate": "10/18/2025",
    "capacity": 26,
    "address": "10532 ACACIA ST, SUITE B2",
    "city": "RANCHO CUCAMONGA",
    "zip": "91730",
    "county": "SAN BERNARDINO",
    "phone": "(909) 987-8887",
    "lat": 34.091046,
    "lng": -117.5749965
  },
  {
    "id": "630023117",
    "name": "FORMAL HOME HEALTH INC",
    "npi": null,
    "hcaiId": "406195280",
    "businessName": "FORMAL HOME HEALTH INC",
    "contactEmail": "FORMALHOMEHEALTH@GMAIL.COM",
    "categoryName": "HOME HEALTH AGENCY",
    "categoryCode": "HHA",
    "licenseStatus": "ACTIVE",
    "inService": true,
    "licenseNumber": "550007925",
    "licenseEffectiveDate": "07/30/2025",
    "licenseExpirationDate": "03/30/2026",
    "dataDate": "10/18/2025",
    "capacity": 0,
    "address": "10970 ARROW RTE, SUITE 203",
    "city": "RANCHO CUCAMONGA",
    "zip": "91730",
    "county": "SAN BERNARDINO",
    "phone": "(626) 800-0114",
    "lat": 34.09941599,
    "lng": -117.56468
  },
  {
    "id": "630016901",
    "name": "GEO HOSPICE CARE, INC.",
    "npi": "1205381381",
    "hcaiId": "406361617",
    "businessName": "GEO HOSPICE CARE, INC.",
    "contactEmail": "GEOHOSPICEINC@GMAIL.COM",
    "categoryName": "HOSPICE",
    "categoryCode": "HOSPICE",
    "licenseStatus": "ACTIVE",
    "inService": true,
    "licenseNumber": "550003891",
    "licenseEffectiveDate": "06/17/2025",
    "licenseExpirationDate": "05/29/2027",
    "dataDate": "10/18/2025",
    "capacity": 0,
    "address": "9607 BUSINESS CENTER DR, SUITE G",
    "city": "RANCHO CUCAMONGA",
    "zip": "91730",
    "county": "SAN BERNARDINO",
    "phone": "(909) 267-6845",
    "lat": 34.097796,
    "lng": -117.595458
  },
  {
    "id": "630020196",
    "name": "GOLDEN TOUCH HOSPICE CARE, INC.",
    "npi": "1770105322",
    "hcaiId": "406364779",
    "businessName": "GOLDEN TOUCH HOSPICE CARE, INC.",
    "contactEmail": "GOLDENTOUCHHOSPICECARE@GMAIL.COM",
    "categoryName": "HOSPICE",
    "categoryCode": "HOSPICE",
    "licenseStatus": "ACTIVE",
    "inService": true,
    "licenseNumber": "550005925",
    "licenseEffectiveDate": "12/09/2024",
    "licenseExpirationDate": "12/08/2026",
    "dataDate": "10/18/2025",
    "capacity": 0,
    "address": "11030 ARROW RTE, SUITE 211",
    "city": "RANCHO CUCAMONGA",
    "zip": "91730",
    "county": "SAN BERNARDINO",
    "phone": "(909) 527-4541",
    "lat": 34.099416,
    "lng": -117.5632515
  },
  {
    "id": "630016138",
    "name": "GOOD HEART HOSPICE & PALLIATIVE CARE",
    "npi": "1902289267",
    "hcaiId": "406364601",
    "businessName": "CARE GIVERS HOSPICE, INC.",
    "contactEmail": "CAREGIVERSHOSPICE@GMAIL.COM",
    "categoryName": "HOSPICE",
    "categoryCode": "HOSPICE",
    "licenseStatus": "ACTIVE",
    "inService": true,
    "licenseNumber": "550003398",
    "licenseEffectiveDate": "01/19/2024",
    "licenseExpirationDate": "01/18/2026",
    "dataDate": "10/18/2025",
    "capacity": 0,
    "address": "8237 ROCHESTER AVE, SUITE 115",
    "city": "RANCHO CUCAMONGA",
    "zip": "91730",
    "county": "SAN BERNARDINO",
    "phone": "(909) 989-9988",
    "lat": 34.104006,
    "lng": -117.5435325
  },
  {
    "id": "630021714",
    "name": "GOOD SHEPHERD HOSPICE CARE, INC.",
    "npi": null,
    "hcaiId": null,
    "businessName": "GOOD SHEPHERD HOSPICE CARE, INC.",
    "contactEmail": "GOODSHEPHERDHOSPICECARE@GMAIL.COM",
    "categoryName": "HOSPICE",
    "categoryCode": "HOSPICE",
    "licenseStatus": "ACTIVE",
    "inService": true,
    "licenseNumber": "550007549",
    "licenseEffectiveDate": "12/03/2023",
    "licenseExpirationDate": "12/02/2025",
    "dataDate": "10/18/2025",
    "capacity": 0,
    "address": "9007 ARROW RTE, SUITE 235",
    "city": "RANCHO CUCAMONGA",
    "zip": "91730",
    "county": "SAN BERNARDINO",
    "phone": "(951) 220-6931",
    "lat": 34.09925696,
    "lng": -117.6080263
  },
  {
    "id": "630027690",
    "name": "HEALING PALMS HEALTHCARE, LLC",
    "npi": null,
    "hcaiId": null,
    "businessName": "HEALING PALMS HEALTHCARE, LLC",
    "contactEmail": "JUDE@HEALINGPALMSHEALTHCARE.COM",
    "categoryName": "HOME HEALTH AGENCY",
    "categoryCode": "HHA",
    "licenseStatus": "ACTIVE",
    "inService": true,
    "licenseNumber": "550009969",
    "licenseEffectiveDate": "09/28/2025",
    "licenseExpirationDate": "03/27/2026",
    "dataDate": "10/18/2025",
    "capacity": 0,
    "address": "11175 AZUSA CT, SUITE 110",
    "city": "RANCHO CUCAMONGA",
    "zip": "91730",
    "county": "SAN BERNARDINO",
    "phone": "(800) 988-8764",
    "lat": 34.09050301,
    "lng": -117.561713
  },
  {
    "id": "630006062",
    "name": "HOLISTIC CARE HOME HEALTH",
    "npi": "1235260225",
    "hcaiId": "406364381",
    "businessName": "BRIGHT CARE HOME HEALTH PROVIDER",
    "contactEmail": "OFFICE@HOLISTICCAREHH.ORG",
    "categoryName": "HOME HEALTH AGENCY",
    "categoryCode": "HHA",
    "licenseStatus": "ACTIVE",
    "inService": true,
    "licenseNumber": "550000863",
    "licenseEffectiveDate": "09/22/2025",
    "licenseExpirationDate": "05/03/2026",
    "dataDate": "10/18/2025",
    "capacity": 0,
    "address": "9269 UTICA AVE, SUITE 170",
    "city": "RANCHO CUCAMONGA",
    "zip": "91730",
    "county": "SAN BERNARDINO",
    "phone": "(909) 481-7000",
    "lat": 34.085259,
    "lng": -117.5709915
  },
  {
    "id": "630012686",
    "name": "HOME DIALYSIS CENTERS OF RANCHO CUCAMONGA LLC",
    "npi": "1720314982",
    "hcaiId": "306364531",
    "businessName": "HOME DIALYSIS CENTERS OF RANCHO CUCAMONGA",
    "contactEmail": "SMEHRABIAN@ROGERS.COM",
    "categoryName": "CHRONIC DIALYSIS CLINIC",
    "categoryCode": "ESRD/CDC",
    "licenseStatus": "ACTIVE",
    "inService": true,
    "licenseNumber": "550002718",
    "licenseEffectiveDate": "10/25/2025",
    "licenseExpirationDate": "10/24/2026",
    "dataDate": "10/18/2025",
    "capacity": 5,
    "address": "8239 ROCHESTER AVE, SUITE 110",
    "city": "RANCHO CUCAMONGA",
    "zip": "91730",
    "county": "SAN BERNARDINO",
    "phone": "(818) 939-2047",
    "lat": 34.10397,
    "lng": -117.543213
  },
  {
    "id": "630002881",
    "name": "HOME HEALTH CARE SOLUTIONS INC",
    "npi": "1053581892",
    "hcaiId": "406364234",
    "businessName": "HOME HEALTH CARE SOLUTIONS, INC.",
    "contactEmail": "HHCS0201@GMAIL.COM",
    "categoryName": "HOME HEALTH AGENCY",
    "categoryCode": "HHA",
    "licenseStatus": "ACTIVE",
    "inService": true,
    "licenseNumber": "550000495",
    "licenseEffectiveDate": "04/19/2025",
    "licenseExpirationDate": "04/18/2026",
    "dataDate": "10/18/2025",
    "capacity": 0,
    "address": "9007 ARROW RTE, SUITE 100",
    "city": "RANCHO CUCAMONGA",
    "zip": "91730",
    "county": "SAN BERNARDINO",
    "phone": "(909) 373-0637",
    "lat": 34.098696,
    "lng": -117.6089805
  },
  {
    "id": "630024864",
    "name": "HOME HEALTH MASTERCARE INC",
    "npi": null,
    "hcaiId": "406366661",
    "businessName": "HOME HEALTH MASTERCARE INC",
    "contactEmail": "ROUSELLEPB@GMAIL.COM",
    "categoryName": "HOME HEALTH AGENCY",
    "categoryCode": "HHA",
    "licenseStatus": "ACTIVE",
    "inService": true,
    "licenseNumber": "550008529",
    "licenseEffectiveDate": "04/28/2025",
    "licenseExpirationDate": "04/27/2026",
    "dataDate": "10/18/2025",
    "capacity": 0,
    "address": "9007 ARROW RTE, SUITE 215",
    "city": "RANCHO CUCAMONGA",
    "zip": "91730",
    "county": "SAN BERNARDINO",
    "phone": "(909) 481-7020",
    "lat": 34.098741,
    "lng": -117.6089985
  },
  {
    "id": "630021344",
    "name": "HOPE SPRINGS HOSPICE & PALLIATIVE CARE",
    "npi": null,
    "hcaiId": "406194855",
    "businessName": "LIFE TOUCH HOSPICE",
    "contactEmail": "HOPESPRINGSHOSPICE2@GMAIL.COM",
    "categoryName": "HOSPICE",
    "categoryCode": "HOSPICE",
    "licenseStatus": "ACTIVE",
    "inService": true,
    "licenseNumber": "550006819",
    "licenseEffectiveDate": "09/16/2025",
    "licenseExpirationDate": "09/15/2027",
    "dataDate": "10/18/2025",
    "capacity": 0,
    "address": "10390 COMMERCE CENTER DR, SUITE 260A",
    "city": "RANCHO CUCAMONGA",
    "zip": "91730",
    "county": "SAN BERNARDINO",
    "phone": "(800) 413-3090",
    "lat": 34.0792421,
    "lng": -117.5787302
  },
  {
    "id": "630014139",
    "name": "HOSPICE CARE PROVIDERS, INC.",
    "npi": "1013277466",
    "hcaiId": "406364464",
    "businessName": "HOSPICE CARE PROVIDERS, INC",
    "contactEmail": "HOSPICECAREPROVIDERS@YAHOO.COM",
    "categoryName": "HOSPICE",
    "categoryCode": "HOSPICE",
    "licenseStatus": "ACTIVE",
    "inService": true,
    "licenseNumber": "550002321",
    "licenseEffectiveDate": "06/26/2025",
    "licenseExpirationDate": "06/25/2027",
    "dataDate": "10/18/2025",
    "capacity": 0,
    "address": "9581 BUSINESS CENTER DR, BUILDING 12 H",
    "city": "RANCHO CUCAMONGA",
    "zip": "91730",
    "county": "SAN BERNARDINO",
    "phone": "(909) 204-6388",
    "lat": 34.097751,
    "lng": -117.595926
  },
  {
    "id": "240001913",
    "name": "INLAND HOME HEALTH PROVIDERS INC",
    "npi": "1093854176",
    "hcaiId": "406364350",
    "businessName": "INLAND HOME HEALTH PROVIDERS, INC.",
    "contactEmail": "IHHPIE@GMAIL.COM",
    "categoryName": "HOME HEALTH AGENCY",
    "categoryCode": "HHA",
    "licenseStatus": "ACTIVE",
    "inService": true,
    "licenseNumber": "240000862",
    "licenseEffectiveDate": "11/02/2025",
    "licenseExpirationDate": "11/01/2026",
    "dataDate": "10/18/2025",
    "capacity": 0,
    "address": "9221 ARCHIBALD AVE",
    "city": "RANCHO CUCAMONGA",
    "zip": "91730",
    "county": "SAN BERNARDINO",
    "phone": "(909) 948-8731",
    "lat": 34.085799,
    "lng": -117.5928255
  },
  {
    "id": "630016191",
    "name": "KARING HEARTS",
    "npi": null,
    "hcaiId": "406364602",
    "businessName": "KARING HEARTS LLC",
    "contactEmail": "KGARLAND86@YAHOO.COM",
    "categoryName": "HOME HEALTH AGENCY",
    "categoryCode": "HHA",
    "licenseStatus": "ACTIVE",
    "inService": true,
    "licenseNumber": "550003665",
    "licenseEffectiveDate": "09/13/2025",
    "licenseExpirationDate": "09/12/2026",
    "dataDate": "10/18/2025",
    "capacity": 0,
    "address": "9587 ARROW ROUTE, SUITE D",
    "city": "RANCHO CUCAMONGA",
    "zip": "91730",
    "county": "SAN BERNARDINO",
    "phone": "(951) 901-0009",
    "lat": 34.098876,
    "lng": -117.5964705
  },
  {
    "id": "630013332",
    "name": "KENO HOME HEALTH AGENCY, LLC",
    "npi": "1972893907",
    "hcaiId": "406364445",
    "businessName": "KENO HOME HEALTH AGENCY, LLC",
    "contactEmail": "ADMIN@KENOHHA.COM",
    "categoryName": "HOME HEALTH AGENCY",
    "categoryCode": "HHA",
    "licenseStatus": "ACTIVE",
    "inService": true,
    "licenseNumber": "550001832",
    "licenseEffectiveDate": "02/02/2025",
    "licenseExpirationDate": "02/01/2026",
    "dataDate": "10/18/2025",
    "capacity": 0,
    "address": "9360 SANTA ANITA AVE, SUITE 101",
    "city": "RANCHO CUCAMONGA",
    "zip": "91730",
    "county": "SAN BERNARDINO",
    "phone": "(909) 948-8562",
    "lat": 34.0839,
    "lng": -117.539865
  },
  {
    "id": "240001515",
    "name": "KINDRED HOSPITAL RANCHO",
    "npi": "1205146289",
    "hcaiId": "106364188",
    "businessName": "KND DEVELOPMENT 55, LLC",
    "contactEmail": "DOWNAPHA.BRITTON@KINDRED.COM",
    "categoryName": "GENERAL ACUTE CARE HOSPITAL",
    "categoryCode": "GACH",
    "licenseStatus": "ACTIVE",
    "inService": true,
    "licenseNumber": "240000652",
    "licenseEffectiveDate": "03/01/2025",
    "licenseExpirationDate": "02/28/2026",
    "dataDate": "10/18/2025",
    "capacity": 55,
    "address": "10841 WHITE OAK AVE",
    "city": "RANCHO CUCAMONGA",
    "zip": "91730",
    "county": "SAN BERNARDINO",
    "phone": "(909) 204-7003",
    "lat": 34.103529,
    "lng": -117.5663205
  },
  {
    "id": "630000721",
    "name": "LEGACY HOME HEALTH, INC",
    "npi": "1225563976",
    "hcaiId": "406364339",
    "businessName": "LEGACY HOME HEALTH, INC",
    "contactEmail": "LEGACY.HHEALTH@GMAIL.COM",
    "categoryName": "HOME HEALTH AGENCY",
    "categoryCode": "HHA",
    "licenseStatus": "ACTIVE",
    "inService": true,
    "licenseNumber": "550000450",
    "licenseEffectiveDate": "08/17/2025",
    "licenseExpirationDate": "08/16/2026",
    "dataDate": "10/18/2025",
    "capacity": 0,
    "address": "7365 CARNELIAN ST, SUITE 116A",
    "city": "RANCHO CUCAMONGA",
    "zip": "91730",
    "county": "SAN BERNARDINO",
    "phone": "(909) 608-7566",
    "lat": 34.120368,
    "lng": -117.6147945
  },
  {
    "id": "630013909",
    "name": "LIGHTHOUSE HOSPICE CARE INC",
    "npi": null,
    "hcaiId": "406364472",
    "businessName": "LIGHTHOUSE HOSPICE CARE, INC",
    "contactEmail": "CONTACT@LIGHTHOUSEHOSPICEINC.COM",
    "categoryName": "HOSPICE",
    "categoryCode": "HOSPICE",
    "licenseStatus": "ACTIVE",
    "inService": true,
    "licenseNumber": "550002290",
    "licenseEffectiveDate": "05/10/2025",
    "licenseExpirationDate": "05/09/2027",
    "dataDate": "10/18/2025",
    "capacity": 0,
    "address": "10535 FOOTHILL BLVD, SUITE 408",
    "city": "RANCHO CUCAMONGA",
    "zip": "91730",
    "county": "SAN BERNARDINO",
    "phone": "(909) 942-7600",
    "lat": 34.105869,
    "lng": -117.5751495
  },
  {
    "id": "240000612",
    "name": "LOGAN HOUSE",
    "npi": "1376181461",
    "hcaiId": null,
    "businessName": "JANET'S ENTERPRISE, INC.",
    "contactEmail": "JANET@JANETSENTERPRISE.COM",
    "categoryName": "INTERMEDIATE CARE FACILITY-DD/H/N/CN/IID",
    "categoryCode": "ICFDDH",
    "licenseStatus": "ACTIVE",
    "inService": true,
    "licenseNumber": "240000291",
    "licenseEffectiveDate": "11/22/2024",
    "licenseExpirationDate": "11/21/2025",
    "dataDate": "10/18/2025",
    "capacity": 6,
    "address": "7408 ONYX AVE",
    "city": "RANCHO CUCAMONGA",
    "zip": "91730",
    "county": "SAN BERNARDINO",
    "phone": "(909) 577-0110",
    "lat": 34.119396,
    "lng": -117.6007815
  },
  {
    "id": "630021675",
    "name": "LOVE & FAITH HOSPICE SERVICES, INC.",
    "npi": null,
    "hcaiId": "406365258",
    "businessName": "LOVE & FAITH HOSPICE SERVICES, INC.",
    "contactEmail": "ANGELASUASON@YAHOO.COM",
    "categoryName": "HOSPICE",
    "categoryCode": "HOSPICE",
    "licenseStatus": "ACTIVE",
    "inService": true,
    "licenseNumber": "550007432",
    "licenseEffectiveDate": "11/29/2023",
    "licenseExpirationDate": "11/28/2025",
    "dataDate": "10/18/2025",
    "capacity": 0,
    "address": "7365 CARNELIAN ST, SUITE 115",
    "city": "RANCHO CUCAMONGA",
    "zip": "91730",
    "county": "SAN BERNARDINO",
    "phone": "(909) 284-8901",
    "lat": 34.120368,
    "lng": -117.6147945
  },
  {
    "id": "630021221",
    "name": "MANOR HOME HEALTH, INC.",
    "npi": null,
    "hcaiId": "406195806",
    "businessName": "MANOR HOME HEALTH, INC.",
    "contactEmail": "MANORHOMEHEALTH@GMAIL.COM",
    "categoryName": "HOME HEALTH AGENCY",
    "categoryCode": "HHA",
    "licenseStatus": "ACTIVE",
    "inService": true,
    "licenseNumber": "550007834",
    "licenseEffectiveDate": "01/21/2025",
    "licenseExpirationDate": "01/20/2026",
    "dataDate": "10/18/2025",
    "capacity": 0,
    "address": "9007 ARROW RTE, SUITE 180-B",
    "city": "RANCHO CUCAMONGA",
    "zip": "91730",
    "county": "SAN BERNARDINO",
    "phone": "(909) 481-7717",
    "lat": 34.098741,
    "lng": -117.6089985
  },
  {
    "id": "630014190",
    "name": "MANOR HOSPICE",
    "npi": "1124365184",
    "hcaiId": "406364481",
    "businessName": "AVON HOSPICE CARE, INC.",
    "contactEmail": "LULUAQUINO22@GMAIL.COM",
    "categoryName": "HOSPICE",
    "categoryCode": "HOSPICE",
    "licenseStatus": "ACTIVE",
    "inService": true,
    "licenseNumber": "550002342",
    "licenseEffectiveDate": "07/08/2025",
    "licenseExpirationDate": "07/07/2027",
    "dataDate": "10/18/2025",
    "capacity": 0,
    "address": "9007 ARROW ROUTE, SUITE 180",
    "city": "RANCHO CUCAMONGA",
    "zip": "91730",
    "county": "SAN BERNARDINO",
    "phone": "(909) 481-7579",
    "lat": 34.098696,
    "lng": -117.6089805
  },
  {
    "id": "630026652",
    "name": "MECARE HOME HEALTH CARE AGENCY LLC",
    "npi": null,
    "hcaiId": null,
    "businessName": "MECARE HOME HEALTH CARE AGENCY LLC",
    "contactEmail": "BERTHA@MECAREHOMEHEALTH.NET",
    "categoryName": "HOME HEALTH AGENCY",
    "categoryCode": "HHA",
    "licenseStatus": "ACTIVE",
    "inService": true,
    "licenseNumber": "550009909",
    "licenseEffectiveDate": "07/31/2025",
    "licenseExpirationDate": "01/30/2026",
    "dataDate": "10/18/2025",
    "capacity": 0,
    "address": "11030 ARROW RTE, SUITE 208",
    "city": "RANCHO CUCAMONGA",
    "zip": "91730",
    "county": "SAN BERNARDINO",
    "phone": "(909) 552-5103",
    "lat": 34.099443,
    "lng": -117.563283
  },
  {
    "id": "240000676",
    "name": "MONTEREY HOUSE",
    "npi": "1366080459",
    "hcaiId": null,
    "businessName": "JANET'S ENTERPRISE, INC.",
    "contactEmail": "JANET@JANETSENTERPRISE.COM",
    "categoryName": "INTERMEDIATE CARE FACILITY-DD/H/N/CN/IID",
    "categoryCode": "ICFDDH",
    "licenseStatus": "ACTIVE",
    "inService": true,
    "licenseNumber": "240000314",
    "licenseEffectiveDate": "11/01/2023",
    "licenseExpirationDate": "10/31/2024",
    "dataDate": "10/18/2025",
    "capacity": 6,
    "address": "7380 CARTILLA AVE",
    "city": "RANCHO CUCAMONGA",
    "zip": "91730",
    "county": "SAN BERNARDINO",
    "phone": "(951) 545-4462",
    "lat": 34.120062,
    "lng": -117.5790285
  },
  {
    "id": "630020082",
    "name": "NEWPORT HOSPICE CARE",
    "npi": null,
    "hcaiId": "406366036",
    "businessName": "NEWPORT HOSPICE CARE",
    "contactEmail": "OFFICE@NEWPORTHOSPICE.COM",
    "categoryName": "HOSPICE",
    "categoryCode": "HOSPICE",
    "licenseStatus": "ACTIVE",
    "inService": true,
    "licenseNumber": "550006084",
    "licenseEffectiveDate": "02/03/2025",
    "licenseExpirationDate": "02/02/2027",
    "dataDate": "10/18/2025",
    "capacity": 0,
    "address": "9849 FOOTHILL BLVD, UNIT 9849-B",
    "city": "RANCHO CUCAMONGA",
    "zip": "91730",
    "county": "SAN BERNARDINO",
    "phone": "(909) 727-3223",
    "lat": 34.105869,
    "lng": -117.5901345
  },
  {
    "id": "630018089",
    "name": "NORRIS HOSPICE, INC.",
    "npi": "1780173112",
    "hcaiId": "406192001",
    "businessName": "NORRIS HOSPICE, INC.",
    "contactEmail": "NORRISHOSPICEINC@GMAIL.COM",
    "categoryName": "HOSPICE",
    "categoryCode": "HOSPICE",
    "licenseStatus": "ACTIVE",
    "inService": true,
    "licenseNumber": "550005063",
    "licenseEffectiveDate": "01/02/2024",
    "licenseExpirationDate": "11/05/2025",
    "dataDate": "10/18/2025",
    "capacity": 0,
    "address": "9007 ARROW RTE, SUITE 240",
    "city": "RANCHO CUCAMONGA",
    "zip": "91730",
    "county": "SAN BERNARDINO",
    "phone": "(909) 727-3106",
    "lat": 34.09832601,
    "lng": -117.607702
  },
  {
    "id": "240000675",
    "name": "NORWOOD HOUSE",
    "npi": "1417595513",
    "hcaiId": null,
    "businessName": "JANET'S ENTERPRISE, INC.",
    "contactEmail": "JANET@JANETSENTERPRISE.COM",
    "categoryName": "INTERMEDIATE CARE FACILITY-DD/H/N/CN/IID",
    "categoryCode": "ICFDDH",
    "licenseStatus": "ACTIVE",
    "inService": true,
    "licenseNumber": "240000315",
    "licenseEffectiveDate": "11/21/2023",
    "licenseExpirationDate": "11/20/2024",
    "dataDate": "10/18/2025",
    "capacity": 6,
    "address": "7817 SAUTERNE DR",
    "city": "RANCHO CUCAMONGA",
    "zip": "91730",
    "county": "SAN BERNARDINO",
    "phone": "(909) 577-0110",
    "lat": 34.112331,
    "lng": -117.6067935
  },
  {
    "id": "630021074",
    "name": "NOVA HOSPICE CARE, INC",
    "npi": null,
    "hcaiId": "406194684",
    "businessName": "NOVA HOSPICE CARE, INC",
    "contactEmail": "NOVAHOSPICECARE@GMAIL.COM",
    "categoryName": "HOSPICE",
    "categoryCode": "HOSPICE",
    "licenseStatus": "ACTIVE",
    "inService": true,
    "licenseNumber": "550006409",
    "licenseEffectiveDate": "10/24/2023",
    "licenseExpirationDate": "06/08/2025",
    "dataDate": "10/18/2025",
    "capacity": 0,
    "address": "9007 ARROW RTE, SUITE 280",
    "city": "RANCHO CUCAMONGA",
    "zip": "91730",
    "county": "SAN BERNARDINO",
    "phone": "(424) 328-5333",
    "lat": 34.09832601,
    "lng": -117.607702
  },
  {
    "id": "630015437",
    "name": "OAKVIEW HOSPICE CARE, INC.",
    "npi": "1871905869",
    "hcaiId": "406364533",
    "businessName": "OAKVIEW HOSPICE CARE, INC.",
    "contactEmail": "OAKVIEWHOSPICE@YAHOO.COM",
    "categoryName": "HOSPICE",
    "categoryCode": "HOSPICE",
    "licenseStatus": "ACTIVE",
    "inService": true,
    "licenseNumber": "550002957",
    "licenseEffectiveDate": "12/03/2024",
    "licenseExpirationDate": "12/02/2026",
    "dataDate": "10/18/2025",
    "capacity": 0,
    "address": "9087 ARROW ROUTE, SUITE 246",
    "city": "RANCHO CUCAMONGA",
    "zip": "91730",
    "county": "SAN BERNARDINO",
    "phone": "(909) 784-0620",
    "lat": 34.098759,
    "lng": -117.606933
  },
  {
    "id": "630011491",
    "name": "OUR LADY OF LOURDES HOME HEALTH INC",
    "npi": "1316958077",
    "hcaiId": "406364369",
    "businessName": "OUR LADY OF LOURDES HOME HEALTH, INC.",
    "contactEmail": "OLOLHOMEHEALTHCARE@GMAIL.COM",
    "categoryName": "HOME HEALTH AGENCY",
    "categoryCode": "HHA",
    "licenseStatus": "ACTIVE",
    "inService": true,
    "licenseNumber": "550000749",
    "licenseEffectiveDate": "05/06/2025",
    "licenseExpirationDate": "05/05/2026",
    "dataDate": "10/18/2025",
    "capacity": 0,
    "address": "8560 VINEYARD AVE, SUITE 506",
    "city": "RANCHO CUCAMONGA",
    "zip": "91730",
    "county": "SAN BERNARDINO",
    "phone": "(909) 547-4542",
    "lat": 34.098426,
    "lng": -117.6117705
  },
  {
    "id": "630025918",
    "name": "PARTNERS CA HOME HEALTH",
    "npi": null,
    "hcaiId": null,
    "businessName": "PARTNERS CA HOME HEALTH",
    "contactEmail": "PARTNERSCAHOMEHEALTH@OUTLOOK.COM",
    "categoryName": "HOME HEALTH AGENCY",
    "categoryCode": "HHA",
    "licenseStatus": "ACTIVE",
    "inService": true,
    "licenseNumber": "550009192",
    "licenseEffectiveDate": "05/23/2025",
    "licenseExpirationDate": "05/22/2026",
    "dataDate": "10/18/2025",
    "capacity": 0,
    "address": "8325 HAVEN AVE, SUITE 203",
    "city": "RANCHO CUCAMONGA",
    "zip": "91730",
    "county": "SAN BERNARDINO",
    "phone": "(626) 862-2701",
    "lat": 34.101216,
    "lng": -117.575325
  },
  {
    "id": "630021038",
    "name": "PRISTINE HOME HEALTH CARE INC.",
    "npi": null,
    "hcaiId": "406363307",
    "businessName": "PRISTINE HOME HEALTH CARE INC",
    "contactEmail": "PRISTINEHHC@YAHOO.COM",
    "categoryName": "HOME HEALTH AGENCY",
    "categoryCode": "HHA",
    "licenseStatus": "ACTIVE",
    "inService": true,
    "licenseNumber": "550007177",
    "licenseEffectiveDate": "11/12/2024",
    "licenseExpirationDate": "11/11/2025",
    "dataDate": "10/18/2025",
    "capacity": 0,
    "address": "9087 ARROW RTE, SUITE 248",
    "city": "RANCHO CUCAMONGA",
    "zip": "91730",
    "county": "SAN BERNARDINO",
    "phone": "(909) 481-3463",
    "lat": 34.098759,
    "lng": -117.606933
  },
  {
    "id": "630014796",
    "name": "PROVIDENCE HOSPICE INLAND EMPIRE",
    "npi": "1457772675",
    "hcaiId": "406364513",
    "businessName": "ST. JOSEPH HEALTH SYSTEM HOME CARE SERVICES, LLC",
    "contactEmail": "SHAYNA.STILES@PROVIDENCE.ORG",
    "categoryName": "HOSPICE",
    "categoryCode": "HOSPICE",
    "licenseStatus": "ACTIVE",
    "inService": true,
    "licenseNumber": "550002751",
    "licenseEffectiveDate": "07/01/2024",
    "licenseExpirationDate": "06/30/2026",
    "dataDate": "10/18/2025",
    "capacity": 0,
    "address": "8560 VINEYARD AVE, SUITE 516",
    "city": "RANCHO CUCAMONGA",
    "zip": "91730",
    "county": "SAN BERNARDINO",
    "phone": "(909) 728-2801",
    "lat": 34.098426,
    "lng": -117.6117705
  },
  {
    "id": "630027318",
    "name": "RANCHO CUCAMONGA COMMUNITY HEALTH CENTER",
    "npi": "1801307368",
    "hcaiId": null,
    "businessName": "HEALTH SERVICE ALLIANCE",
    "contactEmail": "CGRELLING@HEALTHSERVICEALLIANCE.ORG",
    "categoryName": "PRIMARY CARE CLINIC",
    "categoryCode": "COMTYC",
    "licenseStatus": "ACTIVE",
    "inService": true,
    "licenseNumber": "550004600",
    "licenseEffectiveDate": "12/20/2024",
    "licenseExpirationDate": "12/19/2025",
    "dataDate": "10/18/2025",
    "capacity": 0,
    "address": "10837 LAUREL ST, SUITE 204",
    "city": "RANCHO CUCAMONGA",
    "zip": "91730",
    "county": "SAN BERNARDINO",
    "phone": "(909) 281-5800",
    "lat": 34.10469999,
    "lng": -117.568778
  },
  {
    "id": "630014422",
    "name": "RANCHO CUCAMONGA HOME TRAINING",
    "npi": "1497095905",
    "hcaiId": null,
    "businessName": null,
    "contactEmail": "CYNTHIA.HUTCHISON@DAVITA.COM",
    "categoryName": "CHRONIC DIALYSIS CLINIC",
    "categoryCode": "ESRD",
    "licenseStatus": null,
    "inService": null,
    "licenseNumber": null,
    "licenseEffectiveDate": null,
    "licenseExpirationDate": null,
    "dataDate": "10/18/2025",
    "capacity": 0,
    "address": "8219 ROCHESTER AVE, SUITE 120",
    "city": "RANCHO CUCAMONGA",
    "zip": "91730",
    "county": "SAN BERNARDINO",
    "phone": "(909) 466-5489",
    "lat": 34.104231,
    "lng": -117.543213
  },
  {
    "id": "630027281",
    "name": "RANCHO DIALYSIS CENTER, INC.",
    "npi": null,
    "hcaiId": null,
    "businessName": "RANCHO DIALYSIS CENTER, INC,",
    "contactEmail": "YBARI@CDMSRENAL.COM",
    "categoryName": "CHRONIC DIALYSIS CLINIC",
    "categoryCode": "ESRD/CDC",
    "licenseStatus": "ACTIVE",
    "inService": true,
    "licenseNumber": "550009132",
    "licenseEffectiveDate": "04/29/2025",
    "licenseExpirationDate": "04/28/2026",
    "dataDate": "10/18/2025",
    "capacity": 29,
    "address": "7777 MILLIKEN AVE, SUITE 110",
    "city": "RANCHO CUCAMONGA",
    "zip": "91730",
    "county": "SAN BERNARDINO",
    "phone": "(909) 743-6618",
    "lat": 34.10862599,
    "lng": -117.555916
  },
  {
    "id": "630013403",
    "name": "REJUVENATE HOSPICE CARE, INC",
    "npi": "1790060473",
    "hcaiId": "406364441",
    "businessName": "REJUVENATE HOSPICE CARE, INC.",
    "contactEmail": "REJUVENATEHOSPICECARE@YAHOO.COM",
    "categoryName": "HOSPICE",
    "categoryCode": "HOSPICE",
    "licenseStatus": "ACTIVE",
    "inService": true,
    "licenseNumber": "550001807",
    "licenseEffectiveDate": "08/13/2024",
    "licenseExpirationDate": "01/06/2026",
    "dataDate": "10/18/2025",
    "capacity": 0,
    "address": "9087 ARROW RTE, SUITE 284",
    "city": "RANCHO CUCAMONGA",
    "zip": "91730",
    "county": "SAN BERNARDINO",
    "phone": "(909) 987-6500",
    "lat": 34.09875701,
    "lng": -117.606939
  },
  {
    "id": "630017790",
    "name": "SACRED PASSION HOSPICE CARE, INC.",
    "npi": null,
    "hcaiId": "406361747",
    "businessName": "SACRED PASSION HOSPICE CARE, INC.",
    "contactEmail": "SACREDPASSIONHOSPICE@GMAIL.COM",
    "categoryName": "HOSPICE",
    "categoryCode": "HOSPICE",
    "licenseStatus": "ACTIVE",
    "inService": true,
    "licenseNumber": "550004796",
    "licenseEffectiveDate": "06/20/2025",
    "licenseExpirationDate": "06/19/2027",
    "dataDate": "10/18/2025",
    "capacity": 0,
    "address": "9007 ARROW ROUTE, SUITE 220",
    "city": "RANCHO CUCAMONGA",
    "zip": "91730",
    "county": "SAN BERNARDINO",
    "phone": "(909) 942-1072",
    "lat": 34.098696,
    "lng": -117.6089805
  },
  {
    "id": "630021147",
    "name": "SALVATION HOSPICE, INC.",
    "npi": null,
    "hcaiId": "406360022",
    "businessName": "SALVATION HOSPICE, INC.",
    "contactEmail": "MARY-ANNE@SALVATIONHOSPICE.COM",
    "categoryName": "HOSPICE",
    "categoryCode": "HOSPICE",
    "licenseStatus": "ACTIVE",
    "inService": true,
    "licenseNumber": "550006984",
    "licenseEffectiveDate": "10/14/2025",
    "licenseExpirationDate": "10/13/2027",
    "dataDate": "10/18/2025",
    "capacity": 0,
    "address": "8560 VINEYARD AVE, SUITE 504",
    "city": "RANCHO CUCAMONGA",
    "zip": "91730",
    "county": "SAN BERNARDINO",
    "phone": "(909) 757-0969",
    "lat": 34.09843301,
    "lng": -117.61178
  },
  {
    "id": "630023130",
    "name": "SHEKINAH GLOBAL HEALTHCARE VENTURES",
    "npi": null,
    "hcaiId": "406365362",
    "businessName": "SHEKINAH GLOBAL HEALTHCARE VENTURES",
    "contactEmail": "BBABATUNDE@SHEKINAHVENTURES.COM",
    "categoryName": "HOME HEALTH AGENCY",
    "categoryCode": "HHA",
    "licenseStatus": "ACTIVE",
    "inService": true,
    "licenseNumber": "550007971",
    "licenseEffectiveDate": "05/03/2025",
    "licenseExpirationDate": "05/02/2026",
    "dataDate": "10/18/2025",
    "capacity": 0,
    "address": "9612 FOOTHILL BLVD, SUITE 110",
    "city": "RANCHO CUCAMONGA",
    "zip": "91730",
    "county": "SAN BERNARDINO",
    "phone": "(909) 231-0098",
    "lat": 34.106877,
    "lng": -117.59535
  },
  {
    "id": "630017375",
    "name": "SIMA CORPORATE GROUP",
    "npi": null,
    "hcaiId": "406361969",
    "businessName": "SIMA CORPORATE GROUP",
    "contactEmail": "SIMACORPORATEGROUP@GMAIL.COM",
    "categoryName": "HOME HEALTH AGENCY",
    "categoryCode": "HHA",
    "licenseStatus": "ACTIVE",
    "inService": true,
    "licenseNumber": "550005028",
    "licenseEffectiveDate": "10/10/2025",
    "licenseExpirationDate": "10/09/2026",
    "dataDate": "10/18/2025",
    "capacity": 0,
    "address": "10700 JERSEY BLVD, SUITE 300",
    "city": "RANCHO CUCAMONGA",
    "zip": "91730",
    "county": "SAN BERNARDINO",
    "phone": "(909) 999-7091",
    "lat": 34.09542701,
    "lng": -117.570702
  },
  {
    "id": "630019766",
    "name": "SK HOSPICE SERVICES, INC.",
    "npi": null,
    "hcaiId": "406193238",
    "businessName": "SK HOSPICE SERVICES, INC.",
    "contactEmail": "SKHOSPICESERVICES@GMAIL.COM",
    "categoryName": "HOSPICE",
    "categoryCode": "HOSPICE",
    "licenseStatus": "ACTIVE",
    "inService": true,
    "licenseNumber": "550006284",
    "licenseEffectiveDate": "01/22/2025",
    "licenseExpirationDate": "01/21/2027",
    "dataDate": "10/18/2025",
    "capacity": 0,
    "address": "9007 ARROW RTE, SUITE 260",
    "city": "RANCHO CUCAMONGA",
    "zip": "91730",
    "county": "SAN BERNARDINO",
    "phone": "(909) 774-1029",
    "lat": 34.09832601,
    "lng": -117.607702
  },
  {
    "id": "630019831",
    "name": "ST AUGUSTINE HOSPICE INC",
    "npi": "1346703915",
    "hcaiId": "406365122",
    "businessName": "ST AUGUSTINE HOSPICE INC",
    "contactEmail": "INFO.HORIZONHOSPICE@GMAIL.COM",
    "categoryName": "HOSPICE",
    "categoryCode": "HOSPICE",
    "licenseStatus": "ACTIVE",
    "inService": true,
    "licenseNumber": "550007525",
    "licenseEffectiveDate": "12/03/2023",
    "licenseExpirationDate": "12/02/2025",
    "dataDate": "10/18/2025",
    "capacity": 0,
    "address": "8200 HAVEN AVE, SUITE 2115",
    "city": "RANCHO CUCAMONGA",
    "zip": "91730",
    "county": "SAN BERNARDINO",
    "phone": "(909) 493-2265",
    "lat": 34.103295,
    "lng": -117.579402
  },
  {
    "id": "630018639",
    "name": "ST. FRANCIS HOME HEALTH AGENCY, INC.",
    "npi": null,
    "hcaiId": "406362681",
    "businessName": "ST. FRANCIS HOME HEALTH AGENCY",
    "contactEmail": "MARTIN@STFRANCISHC.COM",
    "categoryName": "HOME HEALTH AGENCY",
    "categoryCode": "HHA",
    "licenseStatus": "ACTIVE",
    "inService": true,
    "licenseNumber": "550005542",
    "licenseEffectiveDate": "07/01/2025",
    "licenseExpirationDate": "06/30/2026",
    "dataDate": "10/18/2025",
    "capacity": 0,
    "address": "10970 ARROW HWY, SUITE 205",
    "city": "RANCHO CUCAMONGA",
    "zip": "91730",
    "county": "SAN BERNARDINO",
    "phone": "(909) 989-7700",
    "lat": 34.09916949,
    "lng": -117.5650089
  },
  {
    "id": "630016036",
    "name": "ST. FRANCIS HOSPICE CARE, INC",
    "npi": null,
    "hcaiId": "406360472",
    "businessName": "ST. FRANCIS HOSPICE CARE, INC",
    "contactEmail": "MARTIN@STFRANCISHC.COM",
    "categoryName": "HOSPICE",
    "categoryCode": "HOSPICE",
    "licenseStatus": "ACTIVE",
    "inService": true,
    "licenseNumber": "550003299",
    "licenseEffectiveDate": "10/08/2023",
    "licenseExpirationDate": "10/07/2025",
    "dataDate": "10/18/2025",
    "capacity": 0,
    "address": "10970 ARROW ROUTE, SUITE 204",
    "city": "RANCHO CUCAMONGA",
    "zip": "91730",
    "county": "SAN BERNARDINO",
    "phone": "(909) 989-7700",
    "lat": 34.099434,
    "lng": -117.5646195
  },
  {
    "id": "630000601",
    "name": "STAR MED HOME HEALTH CARE",
    "npi": "1003021684",
    "hcaiId": "406364336",
    "businessName": "STAR MED HOME HEALTH CARE",
    "contactEmail": "STARMEDHOMEHEALTH@YAHOO.COM",
    "categoryName": "HOME HEALTH AGENCY",
    "categoryCode": "HHA",
    "licenseStatus": "ACTIVE",
    "inService": true,
    "licenseNumber": "550000448",
    "licenseEffectiveDate": "03/28/2025",
    "licenseExpirationDate": "03/27/2026",
    "dataDate": "10/18/2025",
    "capacity": 0,
    "address": "10535 FOOTHILL BLVD, SUITE 270",
    "city": "RANCHO CUCAMONGA",
    "zip": "91730",
    "county": "SAN BERNARDINO",
    "phone": "(909) 989-7224",
    "lat": 34.105869,
    "lng": -117.5751495
  },
  {
    "id": "240001197",
    "name": "TEAK HOUSE",
    "npi": "1811024185",
    "hcaiId": null,
    "businessName": "ROCKCREEK, INC.",
    "contactEmail": "SERENA.ROJAS@RESCARE.COM",
    "categoryName": "INTERMEDIATE CARE FACILITY-DD/H/N/CN/IID",
    "categoryCode": "ICFDDH",
    "licenseStatus": "ACTIVE",
    "inService": true,
    "licenseNumber": "240000496",
    "licenseEffectiveDate": "05/14/2025",
    "licenseExpirationDate": "05/13/2026",
    "dataDate": "10/18/2025",
    "capacity": 6,
    "address": "7312 TEAK WAY",
    "city": "RANCHO CUCAMONGA",
    "zip": "91730",
    "county": "SAN BERNARDINO",
    "phone": "(909) 466-1084",
    "lat": 34.121277,
    "lng": -117.587448
  },
  {
    "id": "630012298",
    "name": "THA HOME HEALTH CARE INC",
    "npi": "1356524425",
    "hcaiId": "406364414",
    "businessName": "THA HOME HEALTH CARE, INC.",
    "contactEmail": "ADMIN@THAHOMEHEALTH.COM",
    "categoryName": "HOME HEALTH AGENCY",
    "categoryCode": "HHA",
    "licenseStatus": "ACTIVE",
    "inService": true,
    "licenseNumber": "550001307",
    "licenseEffectiveDate": "05/25/2025",
    "licenseExpirationDate": "05/24/2026",
    "dataDate": "10/18/2025",
    "capacity": 0,
    "address": "10718 CIVIC CENTER DR, SUITE 201",
    "city": "RANCHO CUCAMONGA",
    "zip": "91730",
    "county": "SAN BERNARDINO",
    "phone": "(909) 347-7666",
    "lat": 34.10146688,
    "lng": -117.5709651
  },
  {
    "id": "630023569",
    "name": "THE S. NEWANDEE MD COMMUNITY HEALTH CENTER",
    "npi": "1801307368",
    "hcaiId": null,
    "businessName": "HEALTH SERVICE ALLIANCE",
    "contactEmail": null,
    "categoryName": "PRIMARY CARE CLINIC",
    "categoryCode": "COMTYC",
    "licenseStatus": "ACTIVE",
    "inService": true,
    "licenseNumber": "550004600",
    "licenseEffectiveDate": "12/20/2024",
    "licenseExpirationDate": "12/19/2025",
    "dataDate": "10/18/2025",
    "capacity": 0,
    "address": "9804 FOOTHILL BLVD",
    "city": "RANCHO CUCAMONGA",
    "zip": "91730",
    "county": "SAN BERNARDINO",
    "phone": null,
    "lat": 34.106922,
    "lng": -117.5911515
  },
  {
    "id": "630017536",
    "name": "TREE OF XENIA PALLIATIVE & HOSPICE CARE",
    "npi": null,
    "hcaiId": "406362532",
    "businessName": "TREE OF XENIA PALLIATIVE & HOSPICE CARE",
    "contactEmail": "3XENIAHOSPICE@GMAIL.COM",
    "categoryName": "HOSPICE",
    "categoryCode": "HOSPICE",
    "licenseStatus": "ACTIVE",
    "inService": true,
    "licenseNumber": "550005330",
    "licenseEffectiveDate": "02/10/2024",
    "licenseExpirationDate": "02/09/2026",
    "dataDate": "10/18/2025",
    "capacity": 0,
    "address": "9121 HAVEN AVE, SUITE 130",
    "city": "RANCHO CUCAMONGA",
    "zip": "91730",
    "county": "SAN BERNARDINO",
    "phone": "(909) 580-9070",
    "lat": 34.088031,
    "lng": -117.575262
  },
  {
    "id": "240001888",
    "name": "VANURA HOMEHEALTH SERVICES INC",
    "npi": "1750336525",
    "hcaiId": "406364304",
    "businessName": "VANURA HOMEHEALTH SERVICES, INC.",
    "contactEmail": "ALAN.DELEON@VANURA.COM",
    "categoryName": "HOME HEALTH AGENCY",
    "categoryCode": "HHA",
    "licenseStatus": "ACTIVE",
    "inService": true,
    "licenseNumber": "240000846",
    "licenseEffectiveDate": "01/23/2025",
    "licenseExpirationDate": "01/22/2026",
    "dataDate": "10/18/2025",
    "capacity": 0,
    "address": "8213 ROCHESTER AVE",
    "city": "RANCHO CUCAMONGA",
    "zip": "91730",
    "county": "SAN BERNARDINO",
    "phone": "(909) 989-1230",
    "lat": 34.104285,
    "lng": -117.544275
  },
  {
    "id": "630011942",
    "name": "VERDUGO HOSPICE CARE CENTER",
    "npi": null,
    "hcaiId": "406364394",
    "businessName": "ALTA VERDUGO CONSULTING INC",
    "contactEmail": null,
    "categoryName": "HOSPICE",
    "categoryCode": "HOSPICE",
    "licenseStatus": "ACTIVE",
    "inService": true,
    "licenseNumber": "980001442",
    "licenseEffectiveDate": "11/29/2024",
    "licenseExpirationDate": "11/28/2026",
    "dataDate": "10/18/2025",
    "capacity": 0,
    "address": "8316 RED OAK ST, SUITE 205",
    "city": "RANCHO CUCAMONGA",
    "zip": "91730",
    "county": "SAN BERNARDINO",
    "phone": "(909) 484-1133",
    "lat": 34.102512,
    "lng": -117.5700645
  },
  {
    "id": "630016057",
    "name": "VINEYARD HOME HEALTHCARE LLC",
    "npi": "1053708495",
    "hcaiId": "406364554",
    "businessName": "VINEYARD HOME HEALTHCARE LLC",
    "contactEmail": "VINEYARDHHA@GMAIL.COM",
    "categoryName": "HOME HEALTH AGENCY",
    "categoryCode": "HHA",
    "licenseStatus": "ACTIVE",
    "inService": true,
    "licenseNumber": "550003420",
    "licenseEffectiveDate": "02/11/2022",
    "licenseExpirationDate": "02/10/2023",
    "dataDate": "10/18/2025",
    "capacity": 0,
    "address": "9605 ARROW ROUTE, SUITE S",
    "city": "RANCHO CUCAMONGA",
    "zip": "91730",
    "county": "SAN BERNARDINO",
    "phone": "(909) 987-0300",
    "lat": 34.098408,
    "lng": -117.596088
  },
  {
    "id": "240001534",
    "name": "VISITING HOME NURSES INC.",
    "npi": "1285758573",
    "hcaiId": "406364313",
    "businessName": "VISITING HOME NURSES, INC",
    "contactEmail": "VHNI1@VERIZON.NET",
    "categoryName": "HOME HEALTH AGENCY",
    "categoryCode": "HHA",
    "licenseStatus": "ACTIVE",
    "inService": true,
    "licenseNumber": "240000662",
    "licenseEffectiveDate": "11/26/2025",
    "licenseExpirationDate": "11/25/2026",
    "dataDate": "10/18/2025",
    "capacity": 0,
    "address": "10630 TOWN CENTER DR, SUITE 120",
    "city": "RANCHO CUCAMONGA",
    "zip": "91730",
    "county": "SAN BERNARDINO",
    "phone": "(909) 484-7881",
    "lat": 34.111548,
    "lng": -117.5728275
  }
]