[
  {
    "id": "630027499",
    "name": "ALTAMED MEDICAL GROUP - EL MONTE, GARVEY",
    "npi": "1790177582",
    "hcaiId": null,
    "businessName": "ALTAMED HEALTH SERVICES CORPORATION",
    "contactEmail": null,
    "categoryName": "PRIMARY CARE CLINIC",
    "categoryCode": "COMTYC",
    "licenseStatus": "ACTIVE",
    "inService": true,
    "licenseNumber": "550003268",
    "licenseEffectiveDate": "10/29/2025",
    "licenseExpirationDate": "10/28/2026",
    "dataDate": "10/18/2025",
    "capacity": 0,
    "address": "10127 GARVEY AVE",
    "city": "EL MONTE",
    "zip": "91733",
    "county": "LOS ANGELES",
    "phone": "(626) 486-9660",
    "lat": 34.06309101,
    "lng": -118.048221
  },
  {
    "id": "630027500",
    "name": "ALTAMED MEDICAL GROUP - EL MONTE, VACCO",
    "npi": "1790177582",
    "hcaiId": null,
    "businessName": "ALTAMED HEALTH SERVICES CORPORATION",
    "contactEmail": null,
    "categoryName": "PRIMARY CARE CLINIC",
    "categoryCode": "COMTYC",
    "licenseStatus": "ACTIVE",
    "inService": true,
    "licenseNumber": "550003268",
    "licenseEffectiveDate": "10/29/2025",
    "licenseExpirationDate": "10/28/2026",
    "dataDate": "10/18/2025",
    "capacity": 0,
    "address": "10408 VACCO ST, SUITE A",
    "city": "SOUTH EL MONTE",
    "zip": "91733",
    "county": "LOS ANGELES",
    "phone": "(626) 486-9640",
    "lat": 34.04727326,
    "lng": -118.0442597
  },
  {
    "id": "630022867",
    "name": "ALTAMED MEDICAL GROUP- EL MONTE, SANTA ANITA",
    "npi": "1790177582",
    "hcaiId": null,
    "businessName": "ALTAMED HEALTH SERVICES CORPORATION",
    "contactEmail": null,
    "categoryName": "PRIMARY CARE CLINIC",
    "categoryCode": "COMTYC",
    "licenseStatus": "ACTIVE",
    "inService": true,
    "licenseNumber": "550003268",
    "licenseEffectiveDate": "10/29/2025",
    "licenseExpirationDate": "10/28/2026",
    "dataDate": "10/18/2025",
    "capacity": 0,
    "address": "3208 SANTA ANITA AVE, SUITE 200",
    "city": "SOUTH EL MONTE",
    "zip": "91733",
    "county": "LOS ANGELES",
    "phone": null,
    "lat": 34.066233,
    "lng": -118.041957
  },
  {
    "id": "630020020",
    "name": "BUDDHIST TZU CHI HEALTH CENTER, S. EL MONTE",
    "npi": "1639398704",
    "hcaiId": null,
    "businessName": "BUDDHIST TZU CHI MEDICAL  FOUNDATION",
    "contactEmail": null,
    "categoryName": "PRIMARY CARE CLINIC",
    "categoryCode": "FREEC",
    "licenseStatus": "ACTIVE",
    "inService": true,
    "licenseNumber": "960000851",
    "licenseEffectiveDate": "12/07/2024",
    "licenseExpirationDate": "12/06/2025",
    "dataDate": "10/18/2025",
    "capacity": 0,
    "address": "10414 VACCO ST",
    "city": "SOUTH EL MONTE",
    "zip": "91733",
    "county": "LOS ANGELES",
    "phone": null,
    "lat": 34.046874,
    "lng": -118.0443735
  },
  {
    "id": "630015840",
    "name": "CENTRAL CITY COMMUNITY HEALTH CENTER, INC.",
    "npi": "1972912236",
    "hcaiId": "306198039",
    "businessName": "CENTRAL CITY COMMUNITY HEALTH CENTER, INC.",
    "contactEmail": "KAREN.RODRIGUEZ@CENTRALCITYHEALTH.ORG",
    "categoryName": "PRIMARY CARE CLINIC",
    "categoryCode": "COMTYC",
    "licenseStatus": "ACTIVE",
    "inService": true,
    "licenseNumber": "550003009",
    "licenseEffectiveDate": "03/10/2025",
    "licenseExpirationDate": "03/09/2026",
    "dataDate": "10/18/2025",
    "capacity": 0,
    "address": "10050 GARVEY AVENUE, SUITE 111",
    "city": "EL MONTE",
    "zip": "91733",
    "county": "LOS ANGELES",
    "phone": "(626) 652-0790",
    "lat": 34.061742,
    "lng": -118.04958
  },
  {
    "id": "630015603",
    "name": "ESSENTIAL CARE GROUP, INC.",
    "npi": null,
    "hcaiId": "406198317",
    "businessName": "ESSENTIAL CARE GROUP, INC.",
    "contactEmail": "ESSENTIALCARE2014@YAHOO.COM",
    "categoryName": "HOSPICE",
    "categoryCode": "HOSPICE",
    "licenseStatus": "ACTIVE",
    "inService": true,
    "licenseNumber": "550003648",
    "licenseEffectiveDate": "09/08/2024",
    "licenseExpirationDate": "09/07/2026",
    "dataDate": "10/18/2025",
    "capacity": 0,
    "address": "1170 DURFEE AVE, SUITE K",
    "city": "SOUTH EL MONTE",
    "zip": "91733",
    "county": "LOS ANGELES",
    "phone": "(818) 561-4705",
    "lat": 34.035444,
    "lng": -118.041444
  },
  {
    "id": "930001515",
    "name": "FRESENIUS MEDICAL CARE EL MONTE",
    "npi": "1285040105",
    "hcaiId": "306194684",
    "businessName": "FRESENIUS MEDICAL CARE ALHAMBRA, LLC",
    "contactEmail": "CLINIC9164@FMC-NA.COM",
    "categoryName": "CHRONIC DIALYSIS CLINIC",
    "categoryCode": "ESRD/CDC",
    "licenseStatus": "ACTIVE",
    "inService": true,
    "licenseNumber": "930000865",
    "licenseEffectiveDate": "07/01/2024",
    "licenseExpirationDate": "06/30/2025",
    "dataDate": "10/18/2025",
    "capacity": 17,
    "address": "11204 RUSH ST",
    "city": "SOUTH EL MONTE",
    "zip": "91733",
    "county": "LOS ANGELES",
    "phone": "(626) 582-1121",
    "lat": 34.048008,
    "lng": -118.033119
  },
  {
    "id": "930000062",
    "name": "GREATER EL MONTE COMMUNITY HOSPITAL",
    "npi": "1346232881",
    "hcaiId": "106190352",
    "businessName": "AHMC GREATER EL MONTE COMMUNITY HOSPITAL L.P.",
    "contactEmail": "INEZ.ENGUIDANOS@AHMCHEALTH.COM",
    "categoryName": "GENERAL ACUTE CARE HOSPITAL",
    "categoryCode": "GACH",
    "licenseStatus": "ACTIVE",
    "inService": true,
    "licenseNumber": "930000063",
    "licenseEffectiveDate": "03/06/2025",
    "licenseExpirationDate": "11/30/2025",
    "dataDate": "10/18/2025",
    "capacity": 104,
    "address": "1701 SANTA ANITA AVE",
    "city": "SOUTH EL MONTE",
    "zip": "91733",
    "county": "LOS ANGELES",
    "phone": "(626) 579-7777",
    "lat": 34.047765,
    "lng": -118.0434375
  },
  {
    "id": "930001562",
    "name": "GREATER EL MONTE COMMUNITY HOSPITAL D/P SNF",
    "npi": "1346232881",
    "hcaiId": null,
    "businessName": "AHMC GREATER EL MONTE COMMUNITY HOSPITAL L.P.",
    "contactEmail": "JOSE.ORTEGA@AHMCHEALTH.COM",
    "categoryName": "SKILLED NURSING FACILITY",
    "categoryCode": "SNF",
    "licenseStatus": "ACTIVE",
    "inService": true,
    "licenseNumber": "930000063",
    "licenseEffectiveDate": "03/06/2025",
    "licenseExpirationDate": "11/30/2025",
    "dataDate": "10/18/2025",
    "capacity": 11,
    "address": "1701 SANTA ANITA AVE",
    "city": "SOUTH EL MONTE",
    "zip": "91733",
    "county": "LOS ANGELES",
    "phone": "(626) 579-7777",
    "lat": 34.047765,
    "lng": -118.0434375
  },
  {
    "id": "930000932",
    "name": "GREATER EL MONTE DIALYSIS CENTER",
    "npi": "1457310807",
    "hcaiId": "306194262",
    "businessName": "TOTAL RENAL CARE, INC.",
    "contactEmail": "CAL_C@DAVITA.COM",
    "categoryName": "CHRONIC DIALYSIS CLINIC",
    "categoryCode": "ESRD/CDC",
    "licenseStatus": "ACTIVE",
    "inService": true,
    "licenseNumber": "930000467",
    "licenseEffectiveDate": "11/15/2024",
    "licenseExpirationDate": "11/14/2025",
    "dataDate": "10/18/2025",
    "capacity": 14,
    "address": "1938 TYLER AVE, SUITE J-168",
    "city": "SOUTH EL MONTE",
    "zip": "91733",
    "county": "LOS ANGELES",
    "phone": "(626) 350-6692",
    "lat": 34.05108734,
    "lng": -118.0374546
  },
  {
    "id": "980002399",
    "name": "OUTREACH HOME HEALTH SERVICES, INC.",
    "npi": "1023105194",
    "hcaiId": "406197024",
    "businessName": "OUTREACH HOME HEALTH SERVICES, INC.",
    "contactEmail": "OUTREACH8HHS@GMAIL.COM",
    "categoryName": "HOME HEALTH AGENCY",
    "categoryCode": "HHA",
    "licenseStatus": "ACTIVE",
    "inService": true,
    "licenseNumber": "980001509",
    "licenseEffectiveDate": "04/18/2025",
    "licenseExpirationDate": "04/17/2026",
    "dataDate": "10/18/2025",
    "capacity": 0,
    "address": "1170 DURFEE AVE, SUITE J",
    "city": "SOUTH EL MONTE",
    "zip": "91733",
    "county": "LOS ANGELES",
    "phone": "(626) 618-0448",
    "lat": 34.035444,
    "lng": -118.041444
  },
  {
    "id": "630019351",
    "name": "PRIORITY CARE MEDICAL GROUP - EL MONTE",
    "npi": "1104367572",
    "hcaiId": "306190533",
    "businessName": "CENTER FOR FAMILY HEALTH & EDUCATION, INC.",
    "contactEmail": "MRAMIREZ@CFFHAE.ORG",
    "categoryName": "PRIMARY CARE CLINIC",
    "categoryCode": "COMTYC",
    "licenseStatus": "ACTIVE",
    "inService": true,
    "licenseNumber": "550005412",
    "licenseEffectiveDate": "08/12/2025",
    "licenseExpirationDate": "04/18/2026",
    "dataDate": "10/18/2025",
    "capacity": 0,
    "address": "3229 SANTA ANITA AVE, FLOOR 1",
    "city": "EL MONTE",
    "zip": "91733",
    "county": "LOS ANGELES",
    "phone": "(626) 575-4584",
    "lat": 34.066917,
    "lng": -118.0427085
  },
  {
    "id": "630021987",
    "name": "PRIORITY CARE MEDICAL GROUP-EL MONTE 2",
    "npi": "1104367572",
    "hcaiId": null,
    "businessName": "CENTER FOR FAMILY HEALTH & EDUCATION, INC.",
    "contactEmail": null,
    "categoryName": "PRIMARY CARE CLINIC",
    "categoryCode": "COMTYC",
    "licenseStatus": "ACTIVE",
    "inService": true,
    "licenseNumber": "550005412",
    "licenseEffectiveDate": "08/12/2025",
    "licenseExpirationDate": "04/18/2026",
    "dataDate": "10/18/2025",
    "capacity": 0,
    "address": "3229 SANTA ANITA AVE, FLOOR 2",
    "city": "SOUTH EL MONTE",
    "zip": "91733",
    "county": "LOS ANGELES",
    "phone": null,
    "lat": 34.066917,
    "lng": -118.0427085
  },
  {
    "id": "630018716",
    "name": "SOUL HOSPICE INC",
    "npi": "1144787763",
    "hcaiId": "406191832",
    "businessName": "SOUL HOSPICE INC",
    "contactEmail": "EMETHOSPICE@GMAIL.COM",
    "categoryName": "HOSPICE",
    "categoryCode": "HOSPICE",
    "licenseStatus": "ACTIVE",
    "inService": true,
    "licenseNumber": "550004908",
    "licenseEffectiveDate": "09/13/2025",
    "licenseExpirationDate": "09/12/2027",
    "dataDate": "10/18/2025",
    "capacity": 0,
    "address": "10926 RUSH ST, UNIT B",
    "city": "SOUTH EL MONTE",
    "zip": "91733",
    "county": "LOS ANGELES",
    "phone": "(626) 421-6101",
    "lat": 34.05122652,
    "lng": -118.0364939
  },
  {
    "id": "060002051",
    "name": "STARLITE ADULT DAY HEALTH CARE CENTER",
    "npi": null,
    "hcaiId": null,
    "businessName": "STARLITE HEALTH, LLC",
    "contactEmail": "STARLITE1688@GMAIL.COM",
    "categoryName": "ADULT DAY HEALTH CARE",
    "categoryCode": "ADHC",
    "licenseStatus": "ACTIVE",
    "inService": true,
    "licenseNumber": "060000897",
    "licenseEffectiveDate": "05/10/2025",
    "licenseExpirationDate": "05/09/2026",
    "dataDate": "10/18/2025",
    "capacity": 0,
    "address": "9825 GARVEY AVE",
    "city": "EL MONTE",
    "zip": "91733",
    "county": "LOS ANGELES",
    "phone": "(626) 350-0011",
    "lat": 34.063137,
    "lng": -118.0548
  },
  {
    "id": "950000105",
    "name": "SUNSET MANOR CONVALESCENT HOSPITAL",
    "npi": "1942306865",
    "hcaiId": "206190776",
    "businessName": "GIBRALTAR CONVALESCENT HOSPITAL INC.",
    "contactEmail": "ADMIN@SUNSETMANORCARE.COM",
    "categoryName": "SKILLED NURSING FACILITY",
    "categoryCode": "SNF",
    "licenseStatus": "ACTIVE",
    "inService": true,
    "licenseNumber": "950000099",
    "licenseEffectiveDate": "04/30/2025",
    "licenseExpirationDate": "04/29/2026",
    "dataDate": "10/18/2025",
    "capacity": 81,
    "address": "2720 NEVADA AVE",
    "city": "EL MONTE",
    "zip": "91733",
    "county": "LOS ANGELES",
    "phone": "(626) 443-9425",
    "lat": 34.061103,
    "lng": -118.03635
  },
  {
    "id": "060001867",
    "name": "UNICARE ADULT DAY HEALTH CARE",
    "npi": null,
    "hcaiId": null,
    "businessName": "UNICARE ADULT DAY HEALTH CARE, INC.",
    "contactEmail": "UNICAREADHC99@YAHOO.COM",
    "categoryName": "ADULT DAY HEALTH CARE",
    "categoryCode": "ADHC",
    "licenseStatus": "ACTIVE",
    "inService": true,
    "licenseNumber": "060000684",
    "licenseEffectiveDate": "11/19/2024",
    "licenseExpirationDate": "11/18/2025",
    "dataDate": "10/18/2025",
    "capacity": 0,
    "address": "9736 GARVEY AVE",
    "city": "EL MONTE",
    "zip": "91733",
    "county": "LOS ANGELES",
    "phone": "(626) 279-9082",
    "lat": 34.061751,
    "lng": -118.0568025
  },
  {
    "id": "950000029",
    "name": "VALLEY VIEW POST ACUTE",
    "npi": "1659934974",
    "hcaiId": "206190275",
    "businessName": "EL MONTE SNF, LLC",
    "contactEmail": "COLE.CURRIE@VALLEYVIEWPOSTACUTE.COM",
    "categoryName": "SKILLED NURSING FACILITY",
    "categoryCode": "SNF",
    "licenseStatus": "ACTIVE",
    "inService": true,
    "licenseNumber": "950000040",
    "licenseEffectiveDate": "11/12/2025",
    "licenseExpirationDate": "11/11/2026",
    "dataDate": "10/18/2025",
    "capacity": 96,
    "address": "3111 SANTA ANITA AVE",
    "city": "EL MONTE",
    "zip": "91733",
    "county": "LOS ANGELES",
    "phone": "(626) 443-0218",
    "lat": 34.06446367,
    "lng": -118.0427446
  }
]