[
  {
    "id": "630015390",
    "name": "A PLUS HOSPICE CARE, INC.",
    "npi": "1609289669",
    "hcaiId": "406198433",
    "businessName": "A PLUS HOSPICE CARE, INC.",
    "contactEmail": "APLUSHOSPICECARE@GMAIL.COM",
    "categoryName": "HOSPICE",
    "categoryCode": "HOSPICE",
    "licenseStatus": "ACTIVE",
    "inService": true,
    "licenseNumber": "550003861",
    "licenseEffectiveDate": "04/21/2025",
    "licenseExpirationDate": "04/20/2027",
    "dataDate": "10/18/2025",
    "capacity": 0,
    "address": "10501 VALLEY BLVD, SUITE 1216",
    "city": "EL MONTE",
    "zip": "91731",
    "county": "LOS ANGELES",
    "phone": "(626) 279-1168",
    "lat": 34.077168,
    "lng": -118.04346
  },
  {
    "id": "630027042",
    "name": "ALLMED OF LOS ANGELES INC",
    "npi": null,
    "hcaiId": "306190021",
    "businessName": "ALLMED OF LOS ANGELES INC",
    "contactEmail": "HARGROVEB@ALLMEDLA.ORG",
    "categoryName": "PRIMARY CARE CLINIC",
    "categoryCode": "COMTYC",
    "licenseStatus": "ACTIVE",
    "inService": true,
    "licenseNumber": "550008984",
    "licenseEffectiveDate": "01/31/2025",
    "licenseExpirationDate": "01/30/2026",
    "dataDate": "10/18/2025",
    "capacity": 0,
    "address": "11001 MAIN ST, SUITE 301E",
    "city": "EL MONTE",
    "zip": "91731",
    "county": "LOS ANGELES",
    "phone": "(626) 443-4300",
    "lat": 34.07398025,
    "lng": -118.0354117
  },
  {
    "id": "630027540",
    "name": "ALTAMED MEDICAL AND DENTAL GROUP - EL MONTE, PECK",
    "npi": null,
    "hcaiId": null,
    "businessName": "ALTAMED HEALTH SERVICES CORPORATION",
    "contactEmail": null,
    "categoryName": "PRIMARY CARE CLINIC",
    "categoryCode": "COMTYC",
    "licenseStatus": "ACTIVE",
    "inService": true,
    "licenseNumber": "550003827",
    "licenseEffectiveDate": "03/29/2025",
    "licenseExpirationDate": "03/28/2026",
    "dataDate": "10/18/2025",
    "capacity": 0,
    "address": "3703 PECK RD, SUITE A-C",
    "city": "EL MONTE",
    "zip": "91731",
    "county": "LOS ANGELES",
    "phone": null,
    "lat": 34.073366,
    "lng": -118.024022
  },
  {
    "id": "960001903",
    "name": "ALTAMED MEDICAL GROUP",
    "npi": "1982814745",
    "hcaiId": "306197101",
    "businessName": "ALTAMED HEALTH SERVICES CORPORATION",
    "contactEmail": "DIEMNGUYEN@ALTAMED.ORG",
    "categoryName": "PRIMARY CARE CLINIC",
    "categoryCode": "COMTYC",
    "licenseStatus": "ACTIVE",
    "inService": true,
    "licenseNumber": "960000913",
    "licenseEffectiveDate": "05/22/2025",
    "licenseExpirationDate": "05/21/2026",
    "dataDate": "10/18/2025",
    "capacity": 0,
    "address": "10418 VALLEY BLVD, SUITE B",
    "city": "EL MONTE",
    "zip": "91731",
    "county": "LOS ANGELES",
    "phone": "(626) 453-8466",
    "lat": 34.07643359,
    "lng": -118.0458365
  },
  {
    "id": "630017436",
    "name": "ANITA HOME HEALTH INC.",
    "npi": "1477088037",
    "hcaiId": "406193025",
    "businessName": "ANITA HOME HEALTH INC.",
    "contactEmail": "INTAKE.ANITAHOMEHEALTHINC@GMAIL.COM",
    "categoryName": "HOME HEALTH AGENCY",
    "categoryCode": "HHA",
    "licenseStatus": "ACTIVE",
    "inService": true,
    "licenseNumber": "550004417",
    "licenseEffectiveDate": "10/16/2024",
    "licenseExpirationDate": "10/15/2025",
    "dataDate": "10/18/2025",
    "capacity": 0,
    "address": "11100 VALLEY BLVD, SUITE 342",
    "city": "EL MONTE",
    "zip": "91731",
    "county": "LOS ANGELES",
    "phone": "(626) 532-8957",
    "lat": 34.073478,
    "lng": -118.034046
  },
  {
    "id": "630013614",
    "name": "ASIAN PACIFIC HEALTH CARE VENTURE, INC. - EL MONTE/ROSEMEAD HEALTH CENTER",
    "npi": "1609147743",
    "hcaiId": "306197676",
    "businessName": "ASIAN PACIFIC HEALTH CARE VENTURE, INC.",
    "contactEmail": "KSHIBATA@APHCV.ORG",
    "categoryName": "PRIMARY CARE CLINIC",
    "categoryCode": "COMTYC",
    "licenseStatus": "ACTIVE",
    "inService": true,
    "licenseNumber": "960001028",
    "licenseEffectiveDate": "11/21/2024",
    "licenseExpirationDate": "11/20/2025",
    "dataDate": "10/18/2025",
    "capacity": 0,
    "address": "9960 BALDWIN PL",
    "city": "EL MONTE",
    "zip": "91731",
    "county": "LOS ANGELES",
    "phone": "(626) 774-2988",
    "lat": 34.071138,
    "lng": -118.05138
  },
  {
    "id": "630024888",
    "name": "AVERY CARE HOME HEALTH INC",
    "npi": null,
    "hcaiId": "406196339",
    "businessName": "AVERY CARE HOME HEALTH INC.",
    "contactEmail": "AVERYCAREHHINC@GMAIL.COM",
    "categoryName": "HOME HEALTH AGENCY",
    "categoryCode": "HHA",
    "licenseStatus": "ACTIVE",
    "inService": true,
    "licenseNumber": "550008472",
    "licenseEffectiveDate": "02/03/2025",
    "licenseExpirationDate": "02/02/2026",
    "dataDate": "10/18/2025",
    "capacity": 0,
    "address": "3380 FLAIR DR, SUITE 226",
    "city": "EL MONTE",
    "zip": "91731",
    "county": "LOS ANGELES",
    "phone": "(626) 234-2238",
    "lat": 34.0695188,
    "lng": -118.071748
  },
  {
    "id": "630021442",
    "name": "AVRA HOSPICE INC.",
    "npi": null,
    "hcaiId": "406193717",
    "businessName": "AVRA HOSPICE INC.",
    "contactEmail": "AVRAHOSPICE@YAHOO.COM",
    "categoryName": "HOSPICE",
    "categoryCode": "HOSPICE",
    "licenseStatus": "ACTIVE",
    "inService": true,
    "licenseNumber": "550006674",
    "licenseEffectiveDate": "02/22/2024",
    "licenseExpirationDate": "08/12/2025",
    "dataDate": "10/18/2025",
    "capacity": 0,
    "address": "9660 FLAIR DR, SUITE 225",
    "city": "EL MONTE",
    "zip": "91731",
    "county": "LOS ANGELES",
    "phone": "(626) 538-1388",
    "lat": 34.07182302,
    "lng": -118.057947
  },
  {
    "id": "630025703",
    "name": "DIAMOND PREVENTIVE CARE, INC",
    "npi": null,
    "hcaiId": null,
    "businessName": "DIAMOND PREVENTIVE CARE, INC",
    "contactEmail": "MHAKAKZ@YAHOO.COM",
    "categoryName": "ADULT DAY HEALTH CARE",
    "categoryCode": "ADHC",
    "licenseStatus": "ACTIVE",
    "inService": true,
    "licenseNumber": "550008487",
    "licenseEffectiveDate": "04/26/2025",
    "licenseExpirationDate": "04/25/2026",
    "dataDate": "10/18/2025",
    "capacity": 0,
    "address": "3321 TYLER AVE",
    "city": "EL MONTE",
    "zip": "91731",
    "county": "LOS ANGELES",
    "phone": "(626) 522-0148",
    "lat": 34.069086,
    "lng": -118.036323
  },
  {
    "id": "960002530",
    "name": "EAST VALLEY COMMUNITY HEALTH CENTER, INC.-EL MONTE",
    "npi": null,
    "hcaiId": "306196112",
    "businessName": "EAST VALLEY COMMUNITY HEALTH CENTER, INC.",
    "contactEmail": "DWILLIAMS@OURSAVIORCENTER.ORG",
    "categoryName": "PRIMARY CARE CLINIC",
    "categoryCode": "COMTYC",
    "licenseStatus": "ACTIVE",
    "inService": true,
    "licenseNumber": "960000210",
    "licenseEffectiveDate": "11/14/2024",
    "licenseExpirationDate": "11/13/2025",
    "dataDate": "10/18/2025",
    "capacity": 0,
    "address": "4368 SANTA ANITA AVE, FLOOR 1",
    "city": "EL MONTE",
    "zip": "91731",
    "county": "LOS ANGELES",
    "phone": "(626) 579-2190",
    "lat": 34.08575422,
    "lng": -118.0293041
  },
  {
    "id": "060001860",
    "name": "EL MONTE ADULT DAY HEALTH CARE CENTER",
    "npi": null,
    "hcaiId": null,
    "businessName": "COMFORT LIFE, LLC",
    "contactEmail": "LHNIKITA@CS.COM",
    "categoryName": "ADULT DAY HEALTH CARE",
    "categoryCode": "ADHC",
    "licenseStatus": "ACTIVE",
    "inService": true,
    "licenseNumber": "060000677",
    "licenseEffectiveDate": "11/12/2025",
    "licenseExpirationDate": "11/11/2026",
    "dataDate": "10/18/2025",
    "capacity": 0,
    "address": "9537 TELSTAR AVE, SUITE 119",
    "city": "EL MONTE",
    "zip": "91731",
    "county": "LOS ANGELES",
    "phone": "(626) 401-2888",
    "lat": 34.06968,
    "lng": -118.060902
  },
  {
    "id": "950000006",
    "name": "FIDELITY HEALTH CARE",
    "npi": "1194898205",
    "hcaiId": "206190879",
    "businessName": "MID-WILSHIRE HEALTH CARE CENTER",
    "contactEmail": "ACHUA@FIDELITYHCC.COM",
    "categoryName": "SKILLED NURSING FACILITY",
    "categoryCode": "SNF",
    "licenseStatus": "ACTIVE",
    "inService": true,
    "licenseNumber": "950000107",
    "licenseEffectiveDate": "05/31/2025",
    "licenseExpirationDate": "05/30/2026",
    "dataDate": "10/18/2025",
    "capacity": 90,
    "address": "11210 LOWER AZUSA RD",
    "city": "EL MONTE",
    "zip": "91731",
    "county": "LOS ANGELES",
    "phone": "(626) 442-6863",
    "lat": 34.091235,
    "lng": -118.022706
  },
  {
    "id": "630019240",
    "name": "GAMMA HOSPICE, INC.",
    "npi": "1265089841",
    "hcaiId": "406192238",
    "businessName": "GAMMA HOSPICE, INC.",
    "contactEmail": "GAMMAHOSPICE@GMAIL.COM",
    "categoryName": "HOSPICE",
    "categoryCode": "HOSPICE",
    "licenseStatus": "ACTIVE",
    "inService": true,
    "licenseNumber": "550005262",
    "licenseEffectiveDate": "02/01/2024",
    "licenseExpirationDate": "01/28/2026",
    "dataDate": "10/18/2025",
    "capacity": 0,
    "address": "11100 VALLEY BLVD, SUITE 106",
    "city": "EL MONTE",
    "zip": "91731",
    "county": "LOS ANGELES",
    "phone": "(747) 205-0025",
    "lat": 34.07348498,
    "lng": -118.033829
  },
  {
    "id": "630024493",
    "name": "HERALD CHRISTIAN HEALTH CENTER",
    "npi": null,
    "hcaiId": "306190669",
    "businessName": "HERALD CHRISTIAN HEALTH CENTER",
    "contactEmail": "ESZETO@HCHCLA.ORG",
    "categoryName": "PRIMARY CARE CLINIC",
    "categoryCode": "COMTYC",
    "licenseStatus": "ACTIVE",
    "inService": true,
    "licenseNumber": "550008008",
    "licenseEffectiveDate": "08/12/2025",
    "licenseExpirationDate": "05/25/2026",
    "dataDate": "10/18/2025",
    "capacity": 0,
    "address": "3401 AERO JET AVE",
    "city": "EL MONTE",
    "zip": "91731",
    "county": "LOS ANGELES",
    "phone": "(626) 286-8700",
    "lat": 34.069997,
    "lng": -118.0693774
  },
  {
    "id": "630025187",
    "name": "HOLLYCARE HOME HEALTH, INC",
    "npi": null,
    "hcaiId": "406196508",
    "businessName": "HOLLYCARE HOME HEALTH, INC.",
    "contactEmail": "HOLLYCAREHH@YAHOO.COM",
    "categoryName": "HOME HEALTH AGENCY",
    "categoryCode": "HHA",
    "licenseStatus": "ACTIVE",
    "inService": true,
    "licenseNumber": "550008476",
    "licenseEffectiveDate": "04/14/2025",
    "licenseExpirationDate": "04/13/2026",
    "dataDate": "10/18/2025",
    "capacity": 0,
    "address": "11100 VALLEY BOULEVARD, SUITE 340-09",
    "city": "EL MONTE",
    "zip": "91731",
    "county": "LOS ANGELES",
    "phone": "(818) 928-2255",
    "lat": 34.07351101,
    "lng": -118.0336554
  },
  {
    "id": "980002458",
    "name": "INFINITY HOME CARE PROVIDERS, INC.",
    "npi": "1801896105",
    "hcaiId": "406196469",
    "businessName": "INFINITY HOME CARE PROVIDERS, INC.",
    "contactEmail": "INFO@INFINITYHCPROVIDERS.COM",
    "categoryName": "HOME HEALTH AGENCY",
    "categoryCode": "HHA",
    "licenseStatus": "ACTIVE",
    "inService": true,
    "licenseNumber": "980001564",
    "licenseEffectiveDate": "05/22/2025",
    "licenseExpirationDate": "05/21/2026",
    "dataDate": "10/18/2025",
    "capacity": 0,
    "address": "9350 FLAIR DR, SUITE 268",
    "city": "EL MONTE",
    "zip": "91731",
    "county": "LOS ANGELES",
    "phone": "(626) 227-0220",
    "lat": 34.071606,
    "lng": -118.0649115
  },
  {
    "id": "980001447",
    "name": "INTERMED HOME CARE SERVICES",
    "npi": "1134158868",
    "hcaiId": "406194617",
    "businessName": "INTERMED CORPORATION",
    "contactEmail": "DICKYANSON@GMAIL.COM",
    "categoryName": "HOME HEALTH AGENCY",
    "categoryCode": "HHA",
    "licenseStatus": "ACTIVE",
    "inService": true,
    "licenseNumber": "980000831",
    "licenseEffectiveDate": "11/27/2024",
    "licenseExpirationDate": "11/26/2025",
    "dataDate": "10/18/2025",
    "capacity": 0,
    "address": "9660 FLAIR DR, SUITE 338",
    "city": "EL MONTE",
    "zip": "91731",
    "county": "LOS ANGELES",
    "phone": "(626) 279-1950",
    "lat": 34.071822,
    "lng": -118.057932
  },
  {
    "id": "630026845",
    "name": "MONTE DEL SOL ADHC, LLC",
    "npi": null,
    "hcaiId": null,
    "businessName": "MONTE DEL SOL ADHC, LLC",
    "contactEmail": "MONTEDELSOLADHC@GMAIL.COM",
    "categoryName": "ADULT DAY HEALTH CARE",
    "categoryCode": "ADHC",
    "licenseStatus": "ACTIVE",
    "inService": true,
    "licenseNumber": "550008751",
    "licenseEffectiveDate": "10/02/2025",
    "licenseExpirationDate": "10/01/2026",
    "dataDate": "10/18/2025",
    "capacity": 0,
    "address": "3401 RIO HONDO AVE, SUITE 102",
    "city": "EL MONTE",
    "zip": "91731",
    "county": "LOS ANGELES",
    "phone": "(626) 775-8999",
    "lat": 34.070337,
    "lng": -118.066635
  },
  {
    "id": "950000038",
    "name": "ROSEMEAD HEALTHCARE CENTER",
    "npi": "1962195511",
    "hcaiId": "206190267",
    "businessName": "ROSEMEAD HEALTHCARE CENTER, LLC",
    "contactEmail": "ADMINISTRATOR@ROSEMEADHC.COM",
    "categoryName": "SKILLED NURSING FACILITY",
    "categoryCode": "SNF",
    "licenseStatus": "ACTIVE",
    "inService": true,
    "licenseNumber": "950000036",
    "licenseEffectiveDate": "04/30/2025",
    "licenseExpirationDate": "04/29/2026",
    "dataDate": "10/18/2025",
    "capacity": 99,
    "address": "4096 EASY ST",
    "city": "EL MONTE",
    "zip": "91731",
    "county": "LOS ANGELES",
    "phone": "(626) 442-1500",
    "lat": 34.08381,
    "lng": -118.062387
  },
  {
    "id": "630008542",
    "name": "SACRED HEART OF CALIFORNIA",
    "npi": null,
    "hcaiId": "406196795",
    "businessName": "SACRED ONE HOSPICE, INC.",
    "contactEmail": "SACREDONEHOSPICE@HHRGCONNECT.COM",
    "categoryName": "HOSPICE",
    "categoryCode": "HOSPICE",
    "licenseStatus": "ACTIVE",
    "inService": true,
    "licenseNumber": "550000246",
    "licenseEffectiveDate": "08/15/2023",
    "licenseExpirationDate": "08/14/2025",
    "dataDate": "10/18/2025",
    "capacity": 0,
    "address": "9060 TELSTAR AVE, SUITE 225",
    "city": "EL MONTE",
    "zip": "91731",
    "county": "LOS ANGELES",
    "phone": "(650) 201-6025",
    "lat": 34.06874698,
    "lng": -118.0692828
  },
  {
    "id": "060001825",
    "name": "SUNNYDAY ADULT DAY HEALTH CARE",
    "npi": null,
    "hcaiId": null,
    "businessName": "EVERMOST HEALTH MANAGEMENT, INC.",
    "contactEmail": "EVERMOSTHEALTH@GMAIL.COM",
    "categoryName": "ADULT DAY HEALTH CARE",
    "categoryCode": "ADHC",
    "licenseStatus": "ACTIVE",
    "inService": true,
    "licenseNumber": "060000642",
    "licenseEffectiveDate": "11/22/2025",
    "licenseExpirationDate": "11/21/2026",
    "dataDate": "10/18/2025",
    "capacity": 0,
    "address": "10530 LOWER AZUSA RD",
    "city": "EL MONTE",
    "zip": "91731",
    "county": "LOS ANGELES",
    "phone": "(626) 350-3886",
    "lat": 34.09219185,
    "lng": -118.0381177
  },
  {
    "id": "630024260",
    "name": "TIKERO HOME HEALTH CARE INC.",
    "npi": null,
    "hcaiId": "406195310",
    "businessName": "TIKERO HOME HEALTH CARE INC.",
    "contactEmail": "TIKEROHHC@GMAIL.COM",
    "categoryName": "HOME HEALTH AGENCY",
    "categoryCode": "HHA",
    "licenseStatus": "ACTIVE",
    "inService": true,
    "licenseNumber": "550008037",
    "licenseEffectiveDate": "06/17/2025",
    "licenseExpirationDate": "06/16/2026",
    "dataDate": "10/18/2025",
    "capacity": 0,
    "address": "10501 VALLEY BLVD, SUITE 1816",
    "city": "EL MONTE",
    "zip": "91731",
    "county": "LOS ANGELES",
    "phone": "(800) 873-1284",
    "lat": 34.077168,
    "lng": -118.04346
  },
  {
    "id": "630013123",
    "name": "TRINITYROSE HOME HEALTH CARE",
    "npi": "1316239544",
    "hcaiId": "406197678",
    "businessName": "DAMARVEL CORPORATION",
    "contactEmail": "DELIALUCASCASTRO@YAHOO.COM",
    "categoryName": "HOME HEALTH AGENCY",
    "categoryCode": "HHA",
    "licenseStatus": "ACTIVE",
    "inService": true,
    "licenseNumber": "550001911",
    "licenseEffectiveDate": "03/30/2025",
    "licenseExpirationDate": "03/29/2026",
    "dataDate": "10/18/2025",
    "capacity": 0,
    "address": "9350 FLAIR DRIVE, SUITE 108",
    "city": "EL MONTE",
    "zip": "91731",
    "county": "LOS ANGELES",
    "phone": "(626) 280-0908",
    "lat": 34.071606,
    "lng": -118.064952
  },
  {
    "id": "630021112",
    "name": "WECARE HEALTH SERVICES, INC.",
    "npi": null,
    "hcaiId": "406195853",
    "businessName": "WECARE HEALTH SERVICES, INC.",
    "contactEmail": "WECAREHSINC@GMAIL.COM",
    "categoryName": "HOME HEALTH AGENCY",
    "categoryCode": "HHA",
    "licenseStatus": "ACTIVE",
    "inService": true,
    "licenseNumber": "550007771",
    "licenseEffectiveDate": "01/06/2025",
    "licenseExpirationDate": "01/05/2026",
    "dataDate": "10/18/2025",
    "capacity": 0,
    "address": "10505 VALLEY BLVD, SUITE 312",
    "city": "EL MONTE",
    "zip": "91731",
    "county": "LOS ANGELES",
    "phone": "(626) 522-0388",
    "lat": 34.0764306,
    "lng": -118.0436298
  }
]