[
  {
    "id": "960002694",
    "name": "BAART COMMUNITY HEALTHCARE",
    "npi": null,
    "hcaiId": "306196246",
    "businessName": "BAART COMMUNITY HEALTHCARE",
    "contactEmail": "MTEJADA@BAARTPROGRAMS.COM",
    "categoryName": "PRIMARY CARE CLINIC",
    "categoryCode": "COMTYC",
    "licenseStatus": "ACTIVE",
    "inService": true,
    "licenseNumber": "960001331",
    "licenseEffectiveDate": "11/25/2025",
    "licenseExpirationDate": "11/24/2026",
    "dataDate": "10/18/2025",
    "capacity": 0,
    "address": "15229 AMAR RD",
    "city": "LA PUENTE",
    "zip": "91744",
    "county": "LOS ANGELES",
    "phone": "(626) 855-5090",
    "lat": 34.037991,
    "lng": -117.9524835
  },
  {
    "id": "630019310",
    "name": "BELLA MEDICAL GROUP",
    "npi": "1487947842",
    "hcaiId": null,
    "businessName": "COMMUNITY OUTREACH MEDICAL SERVICES",
    "contactEmail": null,
    "categoryName": "PRIMARY CARE CLINIC",
    "categoryCode": "COMTYC",
    "licenseStatus": "ACTIVE",
    "inService": true,
    "licenseNumber": "550002046",
    "licenseEffectiveDate": "08/03/2022",
    "licenseExpirationDate": "08/02/2023",
    "dataDate": "10/18/2025",
    "capacity": 0,
    "address": "1016 N HACIENDA BLVD",
    "city": "LA PUENTE",
    "zip": "91744",
    "county": "LOS ANGELES",
    "phone": null,
    "lat": 34.03760606,
    "lng": -117.9497882
  },
  {
    "id": "630026493",
    "name": "EAST VALLEY COMMUNITY CENTER, INC. - FAMILY RESOURCE CENTER",
    "npi": "1831243625",
    "hcaiId": null,
    "businessName": "EAST VALLEY COMMUNITY HEALTH CENTER, INC.",
    "contactEmail": null,
    "categoryName": "PRIMARY CARE CLINIC",
    "categoryCode": "COMTYC",
    "licenseStatus": "ACTIVE",
    "inService": true,
    "licenseNumber": "960000210",
    "licenseEffectiveDate": "11/14/2024",
    "licenseExpirationDate": "11/13/2025",
    "dataDate": "10/18/2025",
    "capacity": 0,
    "address": "17800 RENAULT ST",
    "city": "LA PUENTE",
    "zip": "91744",
    "county": "LOS ANGELES",
    "phone": null,
    "lat": 34.013943,
    "lng": -117.91368
  },
  {
    "id": "630013896",
    "name": "EAST VALLEY COMMUNITY HEALTH CENTER, INC./VILLACORTA SCHOOL CLINIC",
    "npi": "1386912202",
    "hcaiId": "306197723",
    "businessName": "EAST VALLEY COMMUNITY HEALTH CENTER, INC.",
    "contactEmail": "AGOMEZ@EVCHC.ORG",
    "categoryName": "PRIMARY CARE CLINIC",
    "categoryCode": "COMTYC",
    "licenseStatus": "ACTIVE",
    "inService": true,
    "licenseNumber": "550002062",
    "licenseEffectiveDate": "11/27/2024",
    "licenseExpirationDate": "11/26/2025",
    "dataDate": "10/18/2025",
    "capacity": 0,
    "address": "17840 VILLA CORTA ST",
    "city": "LA PUENTE",
    "zip": "91744",
    "county": "LOS ANGELES",
    "phone": "(626) 919-4333",
    "lat": 34.017651,
    "lng": -117.9112725
  },
  {
    "id": "630022209",
    "name": "FRESENIUS KIDNEY CARE SAN JOSE HILLS",
    "npi": null,
    "hcaiId": "306190677",
    "businessName": "BIO-MEDICAL APPLICATIONS OF CALIFORNIA INC.",
    "contactEmail": "OLGA.WATKINS@FRESENIUSMEDICALCARE.COM",
    "categoryName": "CHRONIC DIALYSIS CLINIC",
    "categoryCode": "ESRD/CDC",
    "licenseStatus": "ACTIVE",
    "inService": true,
    "licenseNumber": "550007934",
    "licenseEffectiveDate": "03/07/2025",
    "licenseExpirationDate": "03/06/2026",
    "dataDate": "10/18/2025",
    "capacity": 31,
    "address": "1287 N HACIENDA BLVD",
    "city": "LA PUENTE",
    "zip": "91744",
    "county": "LOS ANGELES",
    "phone": "(626) 709-4055",
    "lat": 34.04434357,
    "lng": -117.9493908
  },
  {
    "id": "630026745",
    "name": "FRIENDS OF FAMILY HEALTH CENTER",
    "npi": "1871818138",
    "hcaiId": null,
    "businessName": "FRIENDS OF FAMILY HEALTH CENTER",
    "contactEmail": null,
    "categoryName": "PRIMARY CARE CLINIC",
    "categoryCode": "COMTYC",
    "licenseStatus": "ACTIVE",
    "inService": true,
    "licenseNumber": "060000516",
    "licenseEffectiveDate": "06/16/2025",
    "licenseExpirationDate": "06/15/2026",
    "dataDate": "10/18/2025",
    "capacity": 0,
    "address": "565 S AZUSA WAY",
    "city": "LA PUENTE",
    "zip": "91744",
    "county": "LOS ANGELES",
    "phone": null,
    "lat": 34.01163836,
    "lng": -117.924166
  },
  {
    "id": "630007525",
    "name": "KAISER FOUNDAION HOSPITAL BALDWIN PARK ESRD",
    "npi": "1508911405",
    "hcaiId": null,
    "businessName": "KAISER FOUNDATION HOSPITALS",
    "contactEmail": null,
    "categoryName": "CHRONIC DIALYSIS CLINIC",
    "categoryCode": "ESRD",
    "licenseStatus": "ACTIVE",
    "inService": true,
    "licenseNumber": "930000920",
    "licenseEffectiveDate": "03/01/2025",
    "licenseExpirationDate": "02/28/2026",
    "dataDate": "10/18/2025",
    "capacity": 0,
    "address": "1813 N HACIENDA BLVD",
    "city": "LA PUENTE",
    "zip": "91744",
    "county": "LOS ANGELES",
    "phone": "(626) 851-6530",
    "lat": 34.051599,
    "lng": -117.944577
  },
  {
    "id": "060002058",
    "name": "LA PUENTE ADULT DAY HEALTH CARE",
    "npi": null,
    "hcaiId": null,
    "businessName": "DA ZHEN TRAVEL AGENCY",
    "contactEmail": "LAPUENTEADHC@GMAIL.COM",
    "categoryName": "ADULT DAY HEALTH CARE",
    "categoryCode": "ADHC",
    "licenseStatus": "ACTIVE",
    "inService": true,
    "licenseNumber": "060000836",
    "licenseEffectiveDate": "12/16/2024",
    "licenseExpirationDate": "12/15/2025",
    "dataDate": "10/18/2025",
    "capacity": 0,
    "address": "17331 E. VALLEY BLVD",
    "city": "LA PUENTE",
    "zip": "91744",
    "county": "LOS ANGELES",
    "phone": "(626) 581-1113",
    "lat": 34.011297,
    "lng": -117.926154
  },
  {
    "id": "930000909",
    "name": "LA PUENTE DIALYSIS CENTER",
    "npi": "1730190331",
    "hcaiId": "306196699",
    "businessName": "LA PUENTE DIALYSIS CENTER, INC.",
    "contactEmail": "STABASSUM@CDMSRENAL.COM",
    "categoryName": "CHRONIC DIALYSIS CLINIC",
    "categoryCode": "ESRD/CDC",
    "licenseStatus": "ACTIVE",
    "inService": true,
    "licenseNumber": "930000458",
    "licenseEffectiveDate": "04/12/2025",
    "licenseExpirationDate": "04/11/2026",
    "dataDate": "10/18/2025",
    "capacity": 24,
    "address": "14557 TEMPLE AVE",
    "city": "LA PUENTE",
    "zip": "91744",
    "county": "LOS ANGELES",
    "phone": "(626) 917-1719",
    "lat": 34.041204,
    "lng": -117.968049
  },
  {
    "id": "930001688",
    "name": "MOHAN DIALYSIS CENTER OF INDUSTRY",
    "npi": "1558522151",
    "hcaiId": "306196717",
    "businessName": "MOHAN DIALYSIS CENTER OF COVINA, INC.",
    "contactEmail": "DKAUR@MDCGI.NET",
    "categoryName": "CHRONIC DIALYSIS CLINIC",
    "categoryCode": "ESRD/CDC",
    "licenseStatus": "ACTIVE",
    "inService": true,
    "licenseNumber": "930000939",
    "licenseEffectiveDate": "01/24/2025",
    "licenseExpirationDate": "01/23/2026",
    "dataDate": "10/18/2025",
    "capacity": 33,
    "address": "15757 E VALLEY BLVD",
    "city": "CITY OF INDUSTRY",
    "zip": "91744",
    "county": "LOS ANGELES",
    "phone": "(626) 333-3801",
    "lat": 34.017966,
    "lng": -117.955467
  },
  {
    "id": "630021342",
    "name": "OPTIONS",
    "npi": null,
    "hcaiId": null,
    "businessName": "A WOMEN'S CARE CENTER",
    "contactEmail": "ASHLEY@OPTIONSLAPUENTE.ORG",
    "categoryName": "PRIMARY CARE CLINIC",
    "categoryCode": "COMTYC",
    "licenseStatus": "ACTIVE",
    "inService": true,
    "licenseNumber": "550009030",
    "licenseEffectiveDate": "09/28/2025",
    "licenseExpirationDate": "09/27/2026",
    "dataDate": "10/18/2025",
    "capacity": 0,
    "address": "1840 N HACIENDA BLVD, UNIT 13",
    "city": "LA PUENTE",
    "zip": "91744",
    "county": "LOS ANGELES",
    "phone": "(626) 671-0581",
    "lat": 34.051464,
    "lng": -117.9425655
  },
  {
    "id": "960001894",
    "name": "RCN PEDIATRIC CARE",
    "npi": "1851572572",
    "hcaiId": null,
    "businessName": "RICHRON, INC.",
    "contactEmail": "RICHRON2009@YAHOO.COM",
    "categoryName": "INTERMEDIATE CARE FACILITY-DD/H/N/CN/IID",
    "categoryCode": "ICFDDN",
    "licenseStatus": "ACTIVE",
    "inService": true,
    "licenseNumber": "960000906",
    "licenseEffectiveDate": "05/16/2025",
    "licenseExpirationDate": "05/15/2026",
    "dataDate": "10/18/2025",
    "capacity": 6,
    "address": "1520 N HACIENDA BLVD",
    "city": "LA PUENTE",
    "zip": "91744",
    "county": "LOS ANGELES",
    "phone": "(626) 483-8175",
    "lat": 34.047072,
    "lng": -117.9472005
  },
  {
    "id": "960002538",
    "name": "RCN PEDIATRIC CARE II",
    "npi": "1295916914",
    "hcaiId": null,
    "businessName": "RICHRON, INC.",
    "contactEmail": "RICHRON2009@YAHOO.COM",
    "categoryName": "INTERMEDIATE CARE FACILITY-DD/H/N/CN/IID",
    "categoryCode": "ICFDDN",
    "licenseStatus": "ACTIVE",
    "inService": true,
    "licenseNumber": "960001175",
    "licenseEffectiveDate": "05/16/2025",
    "licenseExpirationDate": "05/15/2026",
    "dataDate": "10/18/2025",
    "capacity": 6,
    "address": "15525 FELLOWSHIP ST",
    "city": "LA PUENTE",
    "zip": "91744",
    "county": "LOS ANGELES",
    "phone": "(626) 483-8175",
    "lat": 34.046469,
    "lng": -117.945666
  },
  {
    "id": "960001765",
    "name": "ST. MARY'S HOME ICF - DDN",
    "npi": "1952372997",
    "hcaiId": null,
    "businessName": "UNITED CARE PROVIDER, INC.",
    "contactEmail": "SA817@YAHOO.COM",
    "categoryName": "INTERMEDIATE CARE FACILITY-DD/H/N/CN/IID",
    "categoryCode": "ICFDDN",
    "licenseStatus": "ACTIVE",
    "inService": true,
    "licenseNumber": "960000848",
    "licenseEffectiveDate": "04/02/2025",
    "licenseExpirationDate": "04/01/2026",
    "dataDate": "10/18/2025",
    "capacity": 6,
    "address": "16765 LAWNWOOD ST",
    "city": "LA PUENTE",
    "zip": "91744",
    "county": "LOS ANGELES",
    "phone": "(626) 806-5764",
    "lat": 34.033869,
    "lng": -117.922338
  },
  {
    "id": "960001807",
    "name": "UNITED CARE HOMES-VALINDA",
    "npi": "1326192402",
    "hcaiId": null,
    "businessName": null,
    "contactEmail": "UNITEDCAREHOMES@YAHOO.COM",
    "categoryName": "INTERMEDIATE CARE FACILITY-DD/H/N/CN/IID",
    "categoryCode": "ICFDDN",
    "licenseStatus": "ACTIVE",
    "inService": true,
    "licenseNumber": "960000876",
    "licenseEffectiveDate": "11/29/2024",
    "licenseExpirationDate": "11/28/2025",
    "dataDate": "10/18/2025",
    "capacity": 6,
    "address": "15920 HAYLAND ST",
    "city": "LA PUENTE",
    "zip": "91744",
    "county": "LOS ANGELES",
    "phone": "(626) 333-4424",
    "lat": 34.039773,
    "lng": -117.9370935
  },
  {
    "id": "060001997",
    "name": "WEST COVINA ADULT DAY HEALTH CARE CENTER",
    "npi": null,
    "hcaiId": null,
    "businessName": "EXCEL HEALTHCARE, INC.",
    "contactEmail": "WESTCOADHCC@GMAIL.COM",
    "categoryName": "ADULT DAY HEALTH CARE",
    "categoryCode": "ADHC",
    "licenseStatus": "ACTIVE",
    "inService": true,
    "licenseNumber": "060000795",
    "licenseEffectiveDate": "01/30/2025",
    "licenseExpirationDate": "01/29/2026",
    "dataDate": "10/18/2025",
    "capacity": 0,
    "address": "1633 N HACIENDA BLVD",
    "city": "LA PUENTE",
    "zip": "91744",
    "county": "LOS ANGELES",
    "phone": "(626) 918-9887",
    "lat": 34.04895741,
    "lng": -117.9457685
  }
]