[
  {
    "id": "980002377",
    "name": "COMMUNITY CARE HOSPICE",
    "npi": null,
    "hcaiId": "406196998",
    "businessName": "PASSAGE ENTERPRISE, INC.",
    "contactEmail": "DEMI@COMMUNITYCAREHOSPICE.ORG",
    "categoryName": "HOSPICE",
    "categoryCode": "HOSPICE",
    "licenseStatus": "ACTIVE",
    "inService": true,
    "licenseNumber": "980001487",
    "licenseEffectiveDate": "03/14/2025",
    "licenseExpirationDate": "03/13/2027",
    "dataDate": "10/18/2025",
    "capacity": 0,
    "address": "115 E FOOTHILL BLVD, SUITE 102",
    "city": "GLENDORA",
    "zip": "91741",
    "county": "LOS ANGELES",
    "phone": "(626) 335-9759",
    "lat": 34.13625488,
    "lng": -117.8648443
  },
  {
    "id": "930000056",
    "name": "EMANATE HEALTH FOOTHILL PRESBYTERIAN HOSPITAL",
    "npi": "1992733513",
    "hcaiId": "106190298",
    "businessName": "EMANATE HEALTH FOOTHILL PRESBYTERIAN HOSPITAL",
    "contactEmail": "RSHARMA@EMANATEHEALTH.ORG",
    "categoryName": "GENERAL ACUTE CARE HOSPITAL",
    "categoryCode": "GACH",
    "licenseStatus": "ACTIVE",
    "inService": true,
    "licenseNumber": "930000052",
    "licenseEffectiveDate": "11/01/2024",
    "licenseExpirationDate": "10/31/2025",
    "dataDate": "10/18/2025",
    "capacity": 105,
    "address": "250 S GRAND AVE",
    "city": "GLENDORA",
    "zip": "91741",
    "county": "LOS ANGELES",
    "phone": "(626) 858-8536",
    "lat": 34.132887,
    "lng": -117.8712405
  },
  {
    "id": "950000256",
    "name": "GLENDORA CANYON TRANSITIONAL CARE UNIT",
    "npi": "1871670117",
    "hcaiId": "206194139",
    "businessName": "FOOTHILL NURSING COMPANY PARTNERSHIP",
    "contactEmail": "DGUNNELL@GLENDORATCU.COM",
    "categoryName": "SKILLED NURSING FACILITY",
    "categoryCode": "SNF",
    "licenseStatus": "ACTIVE",
    "inService": true,
    "licenseNumber": "950000120",
    "licenseEffectiveDate": "03/26/2025",
    "licenseExpirationDate": "03/25/2026",
    "dataDate": "10/18/2025",
    "capacity": 120,
    "address": "401 W ADA AVE",
    "city": "GLENDORA",
    "zip": "91741",
    "county": "LOS ANGELES",
    "phone": "(626) 335-9810",
    "lat": 34.132905,
    "lng": -117.8695395
  },
  {
    "id": "930000755",
    "name": "GLENDORA DERMATOLOGIC AND COSMETIC SURGERY CENTER",
    "npi": null,
    "hcaiId": null,
    "businessName": null,
    "contactEmail": "NONE@DHS.CA.GOV",
    "categoryName": "SURGICAL CLINIC",
    "categoryCode": "ASC",
    "licenseStatus": null,
    "inService": null,
    "licenseNumber": null,
    "licenseEffectiveDate": null,
    "licenseExpirationDate": null,
    "dataDate": "10/18/2025",
    "capacity": 0,
    "address": "412 W CARROLL AVE, SUITE 208",
    "city": "GLENDORA",
    "zip": "91741",
    "county": "LOS ANGELES",
    "phone": "(626) 963-6614",
    "lat": 34.133724,
    "lng": -117.8699805
  },
  {
    "id": "630010990",
    "name": "GLENDORA SURGERY CENTER",
    "npi": "1811921752",
    "hcaiId": "306197032",
    "businessName": "GLENDORA SURGERY CENTER",
    "contactEmail": "GLENDORASURGERYCENTER@GMAIL.COM",
    "categoryName": "SURGICAL CLINIC",
    "categoryCode": "ASC",
    "licenseStatus": "INACTIVE - CAPEN DECISION",
    "inService": false,
    "licenseNumber": "550000567",
    "licenseEffectiveDate": "08/15/2007",
    "licenseExpirationDate": "02/14/2008",
    "dataDate": "10/18/2025",
    "capacity": 0,
    "address": "541 S PASADENA AVE, SUITE 101",
    "city": "GLENDORA",
    "zip": "91741",
    "county": "LOS ANGELES",
    "phone": "(626) 610-1850",
    "lat": 34.129494,
    "lng": -117.8604585
  },
  {
    "id": "960002312",
    "name": "GRAND AVENUE HOME",
    "npi": "1174650394",
    "hcaiId": null,
    "businessName": "RSCR CALIFORNIA, INC.",
    "contactEmail": "DAIJA.LOPEZ@RESCARE.COM",
    "categoryName": "INTERMEDIATE CARE FACILITY-DD/H/N/CN/IID",
    "categoryCode": "ICFDDH",
    "licenseStatus": "ACTIVE",
    "inService": true,
    "licenseNumber": "960001068",
    "licenseEffectiveDate": "04/23/2025",
    "licenseExpirationDate": "04/22/2026",
    "dataDate": "10/18/2025",
    "capacity": 6,
    "address": "412 N GRAND AVE",
    "city": "GLENDORA",
    "zip": "91741",
    "county": "LOS ANGELES",
    "phone": "(626) 704-6976",
    "lat": 34.141878,
    "lng": -117.872118
  },
  {
    "id": "630011249",
    "name": "LIFELINK HEALTH PROVIDERS, INC.",
    "npi": "1790980969",
    "hcaiId": "406197136",
    "businessName": "LIFELINK HEALTH PROVIDERS, INC.",
    "contactEmail": "LIFELINK4HOME@GMAIL.COM",
    "categoryName": "HOME HEALTH AGENCY",
    "categoryCode": "HHA",
    "licenseStatus": "ACTIVE",
    "inService": true,
    "licenseNumber": "550000734",
    "licenseEffectiveDate": "03/28/2025",
    "licenseExpirationDate": "03/27/2026",
    "dataDate": "10/18/2025",
    "capacity": 0,
    "address": "211 W FOOTHILL BLVD, SUITE A",
    "city": "GLENDORA",
    "zip": "91741",
    "county": "LOS ANGELES",
    "phone": "(626) 387-9650",
    "lat": 34.136253,
    "lng": -117.867195
  },
  {
    "id": "630014501",
    "name": "LIFELINK HOSPICE & PALLIATIVE CARE, INC.",
    "npi": "1154766301",
    "hcaiId": "406198227",
    "businessName": "LIFELINK HOSPICE & PALLIATIVE CARE, INC.",
    "contactEmail": "HOSPICE@LIFELINKHP.COM",
    "categoryName": "HOSPICE",
    "categoryCode": "HOSPICE",
    "licenseStatus": "ACTIVE",
    "inService": true,
    "licenseNumber": "550002725",
    "licenseEffectiveDate": "05/27/2024",
    "licenseExpirationDate": "05/26/2026",
    "dataDate": "10/18/2025",
    "capacity": 0,
    "address": "211 W FOOTHILL BLVD, SUITE B",
    "city": "GLENDORA",
    "zip": "91741",
    "county": "LOS ANGELES",
    "phone": "(626) 335-6173",
    "lat": 34.136253,
    "lng": -117.867195
  },
  {
    "id": "980002259",
    "name": "PARTNERS HOME HEALTH CARE, INC.",
    "npi": null,
    "hcaiId": "406196263",
    "businessName": "PARTNERS HOME HEALTH CARE, INC.",
    "contactEmail": "PARTNERSHHCI@GMAIL.COM",
    "categoryName": "HOME HEALTH AGENCY",
    "categoryCode": "HHA",
    "licenseStatus": "ACTIVE",
    "inService": true,
    "licenseNumber": "980001375",
    "licenseEffectiveDate": "12/27/2024",
    "licenseExpirationDate": "12/26/2025",
    "dataDate": "10/18/2025",
    "capacity": 0,
    "address": "211 W FOOTHILL BLVD, SUITE C",
    "city": "GLENDORA",
    "zip": "91741",
    "county": "LOS ANGELES",
    "phone": "(909) 305-5977",
    "lat": 34.13624398,
    "lng": -117.867218
  },
  {
    "id": "930001642",
    "name": "RAI - FOOTHILL BLVD - GLENDORA",
    "npi": "1861567620",
    "hcaiId": "306196014",
    "businessName": "GAREY DIALYSIS CENTER PARTNERSHIP",
    "contactEmail": "CLINIC7183@FMC-NA.COM",
    "categoryName": "CHRONIC DIALYSIS CLINIC",
    "categoryCode": "ESRD/CDC",
    "licenseStatus": "ACTIVE",
    "inService": true,
    "licenseNumber": "930000909",
    "licenseEffectiveDate": "01/29/2025",
    "licenseExpirationDate": "01/28/2026",
    "dataDate": "10/18/2025",
    "capacity": 36,
    "address": "120 W FOOTHILL BLVD",
    "city": "GLENDORA",
    "zip": "91741",
    "county": "LOS ANGELES",
    "phone": "(626) 335-7551",
    "lat": 34.135191,
    "lng": -117.866439
  },
  {
    "id": "930001825",
    "name": "WOODGLEN SURGERY CENTER",
    "npi": null,
    "hcaiId": null,
    "businessName": null,
    "contactEmail": "NONE@DHS.CA.GOV",
    "categoryName": "SURGICAL CLINIC",
    "categoryCode": "ASC",
    "licenseStatus": null,
    "inService": null,
    "licenseNumber": null,
    "licenseEffectiveDate": null,
    "licenseExpirationDate": null,
    "dataDate": "10/18/2025",
    "capacity": 0,
    "address": "541 S PASADENA AVE, SUITE 101",
    "city": "GLENDORA",
    "zip": "91741",
    "county": "LOS ANGELES",
    "phone": "(626) 610-1850",
    "lat": 34.129494,
    "lng": -117.8604585
  }
]