[
  {
    "id": "630011423",
    "name": "ACCU-RITE HEALTH SERVICES, INC.",
    "npi": "1417153149",
    "hcaiId": "406197315",
    "businessName": "ACCU-RITE HEALTH SERVICES, INC.",
    "contactEmail": "ACCURITEHEALTH@YAHOO.COM",
    "categoryName": "HOME HEALTH AGENCY",
    "categoryCode": "HHA",
    "licenseStatus": "ACTIVE",
    "inService": true,
    "licenseNumber": "550000926",
    "licenseEffectiveDate": "03/17/2025",
    "licenseExpirationDate": "03/16/2026",
    "dataDate": "10/18/2025",
    "capacity": 0,
    "address": "163 W ARROW HWY",
    "city": "GLENDORA",
    "zip": "91740",
    "county": "LOS ANGELES",
    "phone": "(626) 963-8887",
    "lat": 34.10674805,
    "lng": -117.8658663
  },
  {
    "id": "980001745",
    "name": "ADVENT HOME HEALTH CARE SERVICES, INC.",
    "npi": "1386839900",
    "hcaiId": "406194877",
    "businessName": "ADVENT HOME HEALTH CARE SERVICES, INC.",
    "contactEmail": "ADVENTCARES@GMAIL.COM",
    "categoryName": "HOME HEALTH AGENCY",
    "categoryCode": "HHA",
    "licenseStatus": "ACTIVE",
    "inService": true,
    "licenseNumber": "980001019",
    "licenseEffectiveDate": "02/20/2025",
    "licenseExpirationDate": "02/19/2026",
    "dataDate": "10/18/2025",
    "capacity": 0,
    "address": "1128 E ROUTE 66",
    "city": "GLENDORA",
    "zip": "91740",
    "county": "LOS ANGELES",
    "phone": "(626) 852-1985",
    "lat": 34.12867285,
    "lng": -117.8454719
  },
  {
    "id": "630020560",
    "name": "AK HOME HEALTH CARE, INC.",
    "npi": null,
    "hcaiId": "406195428",
    "businessName": "AK HOME HEALTH CARE, INC.",
    "contactEmail": "AKHOMEHEALTHC@GMAIL.COM",
    "categoryName": "HOME HEALTH AGENCY",
    "categoryCode": "HHA",
    "licenseStatus": "ACTIVE",
    "inService": true,
    "licenseNumber": "550007873",
    "licenseEffectiveDate": "03/04/2024",
    "licenseExpirationDate": "03/03/2025",
    "dataDate": "10/18/2025",
    "capacity": 0,
    "address": "620 W ROUTE 66, SUITE 215",
    "city": "GLENDORA",
    "zip": "91740",
    "county": "LOS ANGELES",
    "phone": "(626) 665-4351",
    "lat": 34.12859693,
    "lng": -117.8755695
  },
  {
    "id": "630020568",
    "name": "ALPHA HOSPICE SERVICES, INC.",
    "npi": null,
    "hcaiId": "106190054",
    "businessName": "ALPHA HOSPICE SERVICES, INC.",
    "contactEmail": "ALPHAHOSPICESERVICES@GMAIL.COM",
    "categoryName": "HOSPICE",
    "categoryCode": "HOSPICE",
    "licenseStatus": "ACTIVE",
    "inService": true,
    "licenseNumber": "550006646",
    "licenseEffectiveDate": "10/31/2025",
    "licenseExpirationDate": "07/29/2027",
    "dataDate": "10/18/2025",
    "capacity": 0,
    "address": "620 W ROUTE 66, SUITE 207",
    "city": "GLENDORA",
    "zip": "91740",
    "county": "LOS ANGELES",
    "phone": "(818) 434-4144",
    "lat": 34.12859693,
    "lng": -117.8755695
  },
  {
    "id": "950000012",
    "name": "ARBOR GLEN CARE CENTER",
    "npi": "1497755144",
    "hcaiId": "206190674",
    "businessName": "ENSIGN SAN DIMAS LLC",
    "contactEmail": "DMORIEL@ENSIGNSERVICES.NET",
    "categoryName": "SKILLED NURSING FACILITY",
    "categoryCode": "SNF",
    "licenseStatus": "ACTIVE",
    "inService": true,
    "licenseNumber": "950000090",
    "licenseEffectiveDate": "02/03/2025",
    "licenseExpirationDate": "02/02/2026",
    "dataDate": "10/18/2025",
    "capacity": 96,
    "address": "1033 E ARROW HWY",
    "city": "GLENDORA",
    "zip": "91740",
    "county": "LOS ANGELES",
    "phone": "(562) 640-0666",
    "lat": 34.107219,
    "lng": -117.8429715
  },
  {
    "id": "630023852",
    "name": "ASTERIA HOME HEALTH CARE",
    "npi": null,
    "hcaiId": "406195368",
    "businessName": "ASTERIA HOME HEALTH CARE",
    "contactEmail": "ASTERIAHHCARE@GMAIL.COM",
    "categoryName": "HOME HEALTH AGENCY",
    "categoryCode": "HHA",
    "licenseStatus": "ACTIVE",
    "inService": true,
    "licenseNumber": "550007903",
    "licenseEffectiveDate": "03/17/2025",
    "licenseExpirationDate": "03/16/2026",
    "dataDate": "10/18/2025",
    "capacity": 0,
    "address": "502 W ROUTE 66, SUITE 22A",
    "city": "GLENDORA",
    "zip": "91740",
    "county": "LOS ANGELES",
    "phone": "(818) 624-6360",
    "lat": 34.128261,
    "lng": -117.871146
  },
  {
    "id": "630021533",
    "name": "BEST STOP HOME HEALTH INC",
    "npi": null,
    "hcaiId": "406195293",
    "businessName": "BEST STOP HOME HEALTH INC",
    "contactEmail": "ADEPTHEALTHCAREPROVIDERS@GMAIL.COM",
    "categoryName": "HOME HEALTH AGENCY",
    "categoryCode": "HHA",
    "licenseStatus": "ACTIVE",
    "inService": true,
    "licenseNumber": "550006645",
    "licenseEffectiveDate": "08/16/2023",
    "licenseExpirationDate": "08/15/2024",
    "dataDate": "10/18/2025",
    "capacity": 0,
    "address": "620 W ROUTE 66, SUITE 201",
    "city": "GLENDORA",
    "zip": "91740",
    "county": "LOS ANGELES",
    "phone": "(562) 513-3087",
    "lat": 34.12859693,
    "lng": -117.8755695
  },
  {
    "id": "630024134",
    "name": "CALI EXPRESS HOME HEALTH CARE, INC.",
    "npi": null,
    "hcaiId": "406197008",
    "businessName": "CALI EXPRESS HOME HEALTH CARE INC",
    "contactEmail": "CALIEXPRESSHH@GMAIL.COM",
    "categoryName": "HOME HEALTH AGENCY",
    "categoryCode": "HHA",
    "licenseStatus": "ACTIVE",
    "inService": true,
    "licenseNumber": "550008413",
    "licenseEffectiveDate": "01/26/2024",
    "licenseExpirationDate": "01/25/2025",
    "dataDate": "10/18/2025",
    "capacity": 0,
    "address": "502 W ROUTE 66, UNIT 18A",
    "city": "GLENDORA",
    "zip": "91740",
    "county": "LOS ANGELES",
    "phone": "(626) 531-0555",
    "lat": 34.128261,
    "lng": -117.871146
  },
  {
    "id": "630021784",
    "name": "CAMBRIA HOME HEALTH",
    "npi": null,
    "hcaiId": "406195397",
    "businessName": "CAMBRIA HOME HEALTH",
    "contactEmail": "CAMBRIAHOMEHEALTHCARE@GMAIL.COM",
    "categoryName": "HOME HEALTH AGENCY",
    "categoryCode": "HHA",
    "licenseStatus": "ACTIVE",
    "inService": true,
    "licenseNumber": "550007766",
    "licenseEffectiveDate": "01/13/2025",
    "licenseExpirationDate": "01/12/2026",
    "dataDate": "10/18/2025",
    "capacity": 0,
    "address": "1315 S GRAND AVE, SUITE 201",
    "city": "GLENDORA",
    "zip": "91740",
    "county": "LOS ANGELES",
    "phone": "(626) 387-9963",
    "lat": 34.11549613,
    "lng": -117.8727594
  },
  {
    "id": "630019959",
    "name": "CAPITAL HOME HEALTH CARE",
    "npi": null,
    "hcaiId": "406193151",
    "businessName": "CAPITAL HOME HEALTH CARE",
    "contactEmail": "CAPITALHHC2020@GMAIL.COM",
    "categoryName": "HOME HEALTH AGENCY",
    "categoryCode": "HHA",
    "licenseStatus": "ACTIVE",
    "inService": true,
    "licenseNumber": "550006163",
    "licenseEffectiveDate": "01/29/2025",
    "licenseExpirationDate": "01/28/2026",
    "dataDate": "10/18/2025",
    "capacity": 0,
    "address": "502 W ROUTE 66, SUITE 17A",
    "city": "GLENDORA",
    "zip": "91740",
    "county": "LOS ANGELES",
    "phone": "(818) 858-3991",
    "lat": 34.128261,
    "lng": -117.871146
  },
  {
    "id": "630019923",
    "name": "CAPITAL HOSPICE SERVICES",
    "npi": null,
    "hcaiId": "406193214",
    "businessName": "CAPITAL HOSPICE SERVICES",
    "contactEmail": "CAPHOSPICECARE@GMAIL.COM",
    "categoryName": "HOSPICE",
    "categoryCode": "HOSPICE",
    "licenseStatus": "ACTIVE",
    "inService": true,
    "licenseNumber": "550006303",
    "licenseEffectiveDate": "04/22/2025",
    "licenseExpirationDate": "04/21/2027",
    "dataDate": "10/18/2025",
    "capacity": 0,
    "address": "502 W ROUTE 66, SUITE 17B",
    "city": "GLENDORA",
    "zip": "91740",
    "county": "LOS ANGELES",
    "phone": "(310) 693-4073",
    "lat": 34.128261,
    "lng": -117.871146
  },
  {
    "id": "630019550",
    "name": "CARE CIRCLE, LLC",
    "npi": "1134762883",
    "hcaiId": "406192830",
    "businessName": "CARE CIRCLE, LLC",
    "contactEmail": "OFFICE.CARECIRCLE@GMAIL.COM",
    "categoryName": "HOME HEALTH AGENCY",
    "categoryCode": "HHA",
    "licenseStatus": "ACTIVE",
    "inService": true,
    "licenseNumber": "550005676",
    "licenseEffectiveDate": "08/19/2025",
    "licenseExpirationDate": "08/18/2026",
    "dataDate": "10/18/2025",
    "capacity": 0,
    "address": "1135 E ROUTE 66, SUITE 209",
    "city": "GLENDORA",
    "zip": "91740",
    "county": "LOS ANGELES",
    "phone": "(626) 521-9051",
    "lat": 34.129142,
    "lng": -117.845128
  },
  {
    "id": "980001434",
    "name": "CARE UNLIMITED HEALTH SERVICES, INC.",
    "npi": "1548296858",
    "hcaiId": "406194645",
    "businessName": "CARE UNLIMITED HEALTH SERVICES, INC.",
    "contactEmail": "CARE100@CAREUNLTD.COM",
    "categoryName": "HOME HEALTH AGENCY",
    "categoryCode": "HHA",
    "licenseStatus": "ACTIVE",
    "inService": true,
    "licenseNumber": "980000852",
    "licenseEffectiveDate": "11/09/2024",
    "licenseExpirationDate": "11/08/2025",
    "dataDate": "10/18/2025",
    "capacity": 0,
    "address": "1025 W ARROW HWY, SUITE 105",
    "city": "GLENDORA",
    "zip": "91740",
    "county": "LOS ANGELES",
    "phone": "(626) 332-3767",
    "lat": 34.10712,
    "lng": -117.8823555
  },
  {
    "id": "630014672",
    "name": "CARE UNLIMITED HOSPICE SERVICES, INC.",
    "npi": null,
    "hcaiId": "406198234",
    "businessName": "CARE UNLIMITED HOSPICE SERVICES, INC.",
    "contactEmail": "CARE100@CAREUNLTD.COM",
    "categoryName": "HOSPICE",
    "categoryCode": "HOSPICE",
    "licenseStatus": "ACTIVE",
    "inService": true,
    "licenseNumber": "550002864",
    "licenseEffectiveDate": "10/10/2024",
    "licenseExpirationDate": "10/09/2026",
    "dataDate": "10/18/2025",
    "capacity": 0,
    "address": "1025 W ARROW HWY, SUITE 104",
    "city": "GLENDORA",
    "zip": "91740",
    "county": "LOS ANGELES",
    "phone": "(626) 966-3050",
    "lat": 34.10712,
    "lng": -117.8823555
  },
  {
    "id": "630019596",
    "name": "DEVOTED HOSPICE CARE INC",
    "npi": null,
    "hcaiId": "406192996",
    "businessName": "DEVOTED HOSPICE CARE INC",
    "contactEmail": "DEVOTEDHOSPICECARE19@GMAIL.COM",
    "categoryName": "HOSPICE",
    "categoryCode": "HOSPICE",
    "licenseStatus": "ACTIVE",
    "inService": true,
    "licenseNumber": "550005872",
    "licenseEffectiveDate": "11/19/2024",
    "licenseExpirationDate": "11/18/2026",
    "dataDate": "10/18/2025",
    "capacity": 0,
    "address": "502 W ROUTE 66, SUITE 19",
    "city": "GLENDORA",
    "zip": "91740",
    "county": "LOS ANGELES",
    "phone": "(626) 422-5670",
    "lat": 34.128261,
    "lng": -117.871146
  },
  {
    "id": "630021795",
    "name": "ENCORE HOME HEALTH",
    "npi": null,
    "hcaiId": "406195412",
    "businessName": "ENCORE HOME HEALTH",
    "contactEmail": "ENCOREHOMEHEALTHCARE@GMAIL.COM",
    "categoryName": "HOME HEALTH AGENCY",
    "categoryCode": "HHA",
    "licenseStatus": "ACTIVE",
    "inService": true,
    "licenseNumber": "550007762",
    "licenseEffectiveDate": "01/13/2024",
    "licenseExpirationDate": "01/12/2025",
    "dataDate": "10/18/2025",
    "capacity": 0,
    "address": "1315 S GRAND AVE, SUITE 204",
    "city": "GLENDORA",
    "zip": "91740",
    "county": "LOS ANGELES",
    "phone": "(626) 594-0286",
    "lat": 34.11549613,
    "lng": -117.8727594
  },
  {
    "id": "630024361",
    "name": "EPIC HOME HEALTH CARE, INC.",
    "npi": null,
    "hcaiId": "406190026",
    "businessName": "EPIC HOME HEALTH CARE, INC.",
    "contactEmail": "EPICHOMEHEALTHCAREINC@GMAIL.COM",
    "categoryName": "HOME HEALTH AGENCY",
    "categoryCode": "HHA",
    "licenseStatus": "ACTIVE",
    "inService": true,
    "licenseNumber": "550008368",
    "licenseEffectiveDate": "08/20/2025",
    "licenseExpirationDate": "01/03/2026",
    "dataDate": "10/18/2025",
    "capacity": 0,
    "address": "1135 EAST ROUTE 66, SUITE 201",
    "city": "GLENDORA",
    "zip": "91740",
    "county": "LOS ANGELES",
    "phone": "(323) 784-4141",
    "lat": 34.12943771,
    "lng": -117.8455376
  },
  {
    "id": "630008301",
    "name": "FAMILY HOME HEALTH AGENCY, LLC",
    "npi": "1285728717",
    "hcaiId": "406196838",
    "businessName": "FAMILY HOME HEALTH AGENCY, LLC",
    "contactEmail": "PLASTICSX@YAHOO.COM",
    "categoryName": "HOME HEALTH AGENCY",
    "categoryCode": "HHA",
    "licenseStatus": "ACTIVE",
    "inService": true,
    "licenseNumber": "550000290",
    "licenseEffectiveDate": "02/20/2025",
    "licenseExpirationDate": "02/19/2026",
    "dataDate": "10/18/2025",
    "capacity": 0,
    "address": "1200 E ROUTE 66, SUITE 206A",
    "city": "GLENDORA",
    "zip": "91740",
    "county": "LOS ANGELES",
    "phone": "(626) 446-8500",
    "lat": 34.12836,
    "lng": -117.8422695
  },
  {
    "id": "630019184",
    "name": "FIRSTMED HOSPICE INC",
    "npi": null,
    "hcaiId": "406192952",
    "businessName": "FIRSTMED HOSPICE INC",
    "contactEmail": "FIRSTMEDHOSPICE@GMAIL.COM",
    "categoryName": "HOSPICE",
    "categoryCode": "HOSPICE",
    "licenseStatus": "ACTIVE",
    "inService": true,
    "licenseNumber": "550005818",
    "licenseEffectiveDate": "10/01/2024",
    "licenseExpirationDate": "09/30/2026",
    "dataDate": "10/18/2025",
    "capacity": 0,
    "address": "1135 E ROUTE 66, SUITE 207",
    "city": "GLENDORA",
    "zip": "91740",
    "county": "LOS ANGELES",
    "phone": "(626) 406-1053",
    "lat": 34.129233,
    "lng": -117.845082
  },
  {
    "id": "630025883",
    "name": "FULL SERVICE HOME HEALTH",
    "npi": null,
    "hcaiId": "406190284",
    "businessName": "FULL SERVICE HOME HEALTH",
    "contactEmail": "FULLSERVICEHOMEHEALTH@GMAIL.COM",
    "categoryName": "HOME HEALTH AGENCY",
    "categoryCode": "HHA",
    "licenseStatus": "ACTIVE",
    "inService": true,
    "licenseNumber": "550009054",
    "licenseEffectiveDate": "03/25/2025",
    "licenseExpirationDate": "03/24/2026",
    "dataDate": "10/18/2025",
    "capacity": 0,
    "address": "502 W ROUTE 66, SUITE 23",
    "city": "GLENDORA",
    "zip": "91740",
    "county": "LOS ANGELES",
    "phone": "(818) 619-7238",
    "lat": 34.128261,
    "lng": -117.871146
  },
  {
    "id": "630026586",
    "name": "GLACIER HOME HEALTH CARE, INC.",
    "npi": null,
    "hcaiId": null,
    "businessName": "GLACIER HOME HEALTH CARE, INC.",
    "contactEmail": "GLACIERHOMEHEALTHCARE@GMAIL.COM",
    "categoryName": "HOME HEALTH AGENCY",
    "categoryCode": "HHA",
    "licenseStatus": "ACTIVE",
    "inService": true,
    "licenseNumber": "550009151",
    "licenseEffectiveDate": "05/10/2025",
    "licenseExpirationDate": "05/09/2026",
    "dataDate": "10/18/2025",
    "capacity": 0,
    "address": "1154 E ROUTE 66",
    "city": "GLENDORA",
    "zip": "91740",
    "county": "LOS ANGELES",
    "phone": "(626) 888-4741",
    "lat": 34.12867793,
    "lng": -117.8445211
  },
  {
    "id": "950000001",
    "name": "GLADSTONE SUB-ACUTE AND REHAB CENTER",
    "npi": "1447817721",
    "hcaiId": "206190009",
    "businessName": "JAEWOOD HEALTHCARE, LLC",
    "contactEmail": "ADMINISTRATOR@GLADSTONECARE.COM",
    "categoryName": "SKILLED NURSING FACILITY",
    "categoryCode": "SNF",
    "licenseStatus": "ACTIVE",
    "inService": true,
    "licenseNumber": "950000006",
    "licenseEffectiveDate": "12/01/2024",
    "licenseExpirationDate": "11/30/2025",
    "dataDate": "10/18/2025",
    "capacity": 118,
    "address": "435 E GLADSTONE ST",
    "city": "GLENDORA",
    "zip": "91740",
    "county": "LOS ANGELES",
    "phone": "(626) 505-5204",
    "lat": 34.114464,
    "lng": -117.871515
  },
  {
    "id": "930001813",
    "name": "GLENDORA DIGESTIVE DISEASE INSTITUTE",
    "npi": "1821285073",
    "hcaiId": "306196553",
    "businessName": "COVINA ENDOSCOPY CENTER, INC.",
    "contactEmail": "NURSE@GADDI.ORG",
    "categoryName": "SURGICAL CLINIC",
    "categoryCode": "ASC",
    "licenseStatus": "INACTIVE - CAPEN DECISION",
    "inService": false,
    "licenseNumber": "930001004",
    "licenseEffectiveDate": "06/17/2007",
    "licenseExpirationDate": "06/16/2008",
    "dataDate": "10/18/2025",
    "capacity": 0,
    "address": "1794 S BARRANCA AVE",
    "city": "GLENDORA",
    "zip": "91740",
    "county": "LOS ANGELES",
    "phone": "(626) 335-1261",
    "lat": 34.106922,
    "lng": -117.8805735
  },
  {
    "id": "630015461",
    "name": "GLENDORA FOOTHILLS DIALYSIS",
    "npi": null,
    "hcaiId": "306198243",
    "businessName": "MANITO DIALYSIS LLC",
    "contactEmail": "CAL_C@DAVITA.COM",
    "categoryName": "CHRONIC DIALYSIS CLINIC",
    "categoryCode": "ESRD/CDC",
    "licenseStatus": "ACTIVE",
    "inService": true,
    "licenseNumber": "550003385",
    "licenseEffectiveDate": "12/14/2024",
    "licenseExpirationDate": "12/13/2025",
    "dataDate": "10/18/2025",
    "capacity": 24,
    "address": "750 W ROUTE 66, SUITE Q",
    "city": "GLENDORA",
    "zip": "91740",
    "county": "LOS ANGELES",
    "phone": "(626) 335-2063",
    "lat": 34.128063,
    "lng": -117.8780805
  },
  {
    "id": "950000009",
    "name": "GLENDORA GRAND, INC.",
    "npi": "1497077739",
    "hcaiId": "206190573",
    "businessName": "GLENDORA GRAND, INC.",
    "contactEmail": "KAREN.PAGELA@GLENDORAGRAND.COM",
    "categoryName": "SKILLED NURSING FACILITY",
    "categoryCode": "SNF",
    "licenseStatus": "ACTIVE",
    "inService": true,
    "licenseNumber": "950000079",
    "licenseEffectiveDate": "11/22/2024",
    "licenseExpirationDate": "11/21/2025",
    "dataDate": "10/18/2025",
    "capacity": 342,
    "address": "805 W ARROW HWY",
    "city": "GLENDORA",
    "zip": "91740",
    "county": "LOS ANGELES",
    "phone": "(626) 331-0781",
    "lat": 34.105869,
    "lng": -117.8767125
  },
  {
    "id": "930001396",
    "name": "GLENDORA HOSPITAL",
    "npi": null,
    "hcaiId": "106190328",
    "businessName": "CHLB, LLC",
    "contactEmail": "AQUINTERO@GLENDORAHOSPITAL.COM",
    "categoryName": "ACUTE PSYCHIATRIC HOSPITAL",
    "categoryCode": "APH",
    "licenseStatus": "ACTIVE",
    "inService": true,
    "licenseNumber": "930000060",
    "licenseEffectiveDate": "11/08/2025",
    "licenseExpirationDate": "11/07/2026",
    "dataDate": "10/18/2025",
    "capacity": 63,
    "address": "150 W ROUTE 66",
    "city": "GLENDORA",
    "zip": "91740",
    "county": "LOS ANGELES",
    "phone": "(626) 852-5054",
    "lat": 34.12862393,
    "lng": -117.8661314
  },
  {
    "id": "630026954",
    "name": "GM CARE HOME HEALTH, INC.",
    "npi": null,
    "hcaiId": null,
    "businessName": "GM CARE HOME HEALTH, INC.",
    "contactEmail": "GMCAREHOMEHEALTHINC@GMAIL.COM",
    "categoryName": "HOME HEALTH AGENCY",
    "categoryCode": "HHA",
    "licenseStatus": "ACTIVE",
    "inService": true,
    "licenseNumber": "550009579",
    "licenseEffectiveDate": "06/09/2025",
    "licenseExpirationDate": "12/08/2025",
    "dataDate": "10/18/2025",
    "capacity": 0,
    "address": "620 W ROUTE 66, SUITE 201",
    "city": "GLENDORA",
    "zip": "91740",
    "county": "LOS ANGELES",
    "phone": "(626) 594-0114",
    "lat": 34.12859693,
    "lng": -117.8755695
  },
  {
    "id": "630019270",
    "name": "GRACEFUL HOSPICE CARE INC",
    "npi": null,
    "hcaiId": "406192554",
    "businessName": "GRACEFUL HOSPICE CARE INC",
    "contactEmail": "ARTURAGABALYAN3@GMAIL.COM",
    "categoryName": "HOSPICE",
    "categoryCode": "HOSPICE",
    "licenseStatus": "ACTIVE",
    "inService": true,
    "licenseNumber": "550005389",
    "licenseEffectiveDate": "03/14/2024",
    "licenseExpirationDate": "03/13/2026",
    "dataDate": "10/18/2025",
    "capacity": 0,
    "address": "620 W ROUTE 66, UNIT 219",
    "city": "GLENDORA",
    "zip": "91740",
    "county": "LOS ANGELES",
    "phone": "(818) 641-4703",
    "lat": 34.12859693,
    "lng": -117.8755695
  },
  {
    "id": "630019591",
    "name": "HEART TO HEART HOSPICE CARE INC",
    "npi": null,
    "hcaiId": null,
    "businessName": "HEART TO HEART HOSPICE CARE INC",
    "contactEmail": "HOSPTOHEART@GMAIL.COM",
    "categoryName": "HOSPICE",
    "categoryCode": "HOSPICE",
    "licenseStatus": "ACTIVE",
    "inService": true,
    "licenseNumber": "550006077",
    "licenseEffectiveDate": "12/28/2024",
    "licenseExpirationDate": "12/27/2026",
    "dataDate": "10/18/2025",
    "capacity": 0,
    "address": "620 W ROUTE 66, #212",
    "city": "GLENDORA",
    "zip": "91740",
    "county": "LOS ANGELES",
    "phone": "(626) 387-4043",
    "lat": 34.12859693,
    "lng": -117.8755695
  },
  {
    "id": "630021594",
    "name": "HOSPICE OF FAITH AND SPIRIT",
    "npi": null,
    "hcaiId": "406195015",
    "businessName": "HOSPICE OF FAITH AND SPIRIT",
    "contactEmail": "FAITHSPIRITHOSPICE@GMAIL.COM",
    "categoryName": "HOSPICE",
    "categoryCode": "HOSPICE",
    "licenseStatus": "ACTIVE",
    "inService": true,
    "licenseNumber": "550007086",
    "licenseEffectiveDate": "10/01/2023",
    "licenseExpirationDate": "09/30/2025",
    "dataDate": "10/18/2025",
    "capacity": 0,
    "address": "502 W ROUTE 66, SUITE 25B",
    "city": "GLENDORA",
    "zip": "91740",
    "county": "LOS ANGELES",
    "phone": "(747) 350-8497",
    "lat": 34.128261,
    "lng": -117.871146
  },
  {
    "id": "630021511",
    "name": "IDAN HOME HEALTH, INC",
    "npi": null,
    "hcaiId": "406195530",
    "businessName": "IDAN HOME HEALTH, INC",
    "contactEmail": "IDANHOMEHEALTH@GMAIL.COM",
    "categoryName": "HOME HEALTH AGENCY",
    "categoryCode": "HHA",
    "licenseStatus": "ACTIVE",
    "inService": true,
    "licenseNumber": "550006900",
    "licenseEffectiveDate": "10/01/2025",
    "licenseExpirationDate": "09/30/2026",
    "dataDate": "10/18/2025",
    "capacity": 0,
    "address": "620 W ROUTE 66, SUITE 200",
    "city": "GLENDORA",
    "zip": "91740",
    "county": "LOS ANGELES",
    "phone": "(626) 726-2010",
    "lat": 34.12859693,
    "lng": -117.8755695
  },
  {
    "id": "950000032",
    "name": "MESA GLEN CARE CENTER",
    "npi": "1932215100",
    "hcaiId": "206190193",
    "businessName": "MESA GLEN HOLDINGS, LLC",
    "contactEmail": "ADMINISTRATOR@RT66POSTACUTE.COM",
    "categoryName": "SKILLED NURSING FACILITY",
    "categoryCode": "SNF",
    "licenseStatus": "ACTIVE",
    "inService": true,
    "licenseNumber": "950000026",
    "licenseEffectiveDate": "01/17/2025",
    "licenseExpirationDate": "01/16/2026",
    "dataDate": "10/18/2025",
    "capacity": 96,
    "address": "638 E COLORADO AVE",
    "city": "GLENDORA",
    "zip": "91740",
    "county": "LOS ANGELES",
    "phone": "(626) 963-6091",
    "lat": 34.126686,
    "lng": -117.8552115
  },
  {
    "id": "930001810",
    "name": "MOHAN DIALYSIS CENTER OF GLENDORA",
    "npi": "1285895896",
    "hcaiId": "306196584",
    "businessName": "MOHAN DIALYSIS CENTER OF COVINA, INC.",
    "contactEmail": "RUPA@MDCGI.NET",
    "categoryName": "CHRONIC DIALYSIS CLINIC",
    "categoryCode": "ESRD/CDC",
    "licenseStatus": "ACTIVE",
    "inService": true,
    "licenseNumber": "930001012",
    "licenseEffectiveDate": "11/09/2025",
    "licenseExpirationDate": "11/08/2026",
    "dataDate": "10/18/2025",
    "capacity": 22,
    "address": "638 S GLENDORA AVE",
    "city": "GLENDORA",
    "zip": "91740",
    "county": "LOS ANGELES",
    "phone": "(626) 914-5553",
    "lat": 34.127541,
    "lng": -117.863469
  },
  {
    "id": "630015664",
    "name": "NEW MADISON HOSPICE AND PALLIATIVE CARE INC",
    "npi": null,
    "hcaiId": "406198271",
    "businessName": "NEW MADISON HOSPICE AND PALLIATIVE CARE INC",
    "contactEmail": "OSCAR@NEWMADISONHOSPICE.COM",
    "categoryName": "HOSPICE",
    "categoryCode": "HOSPICE",
    "licenseStatus": "ACTIVE",
    "inService": true,
    "licenseNumber": "550003572",
    "licenseEffectiveDate": "06/07/2024",
    "licenseExpirationDate": "06/06/2026",
    "dataDate": "10/18/2025",
    "capacity": 0,
    "address": "2060 E ROUTE 66, UNIT 104",
    "city": "GLENDORA",
    "zip": "91740",
    "county": "LOS ANGELES",
    "phone": "(626) 703-4144",
    "lat": 34.127431,
    "lng": -117.824985
  },
  {
    "id": "630014508",
    "name": "PLANNED PARENTHOOD GLENDORA HEALTH CENTER",
    "npi": "1497094114",
    "hcaiId": "306197825",
    "businessName": "PLANNED PARENTHOOD PASADENA AND SAN GABRIEL VALLEY, INC.",
    "contactEmail": "HURIBE@PPPSGV.ORG",
    "categoryName": "PRIMARY CARE CLINIC",
    "categoryCode": "COMTYC",
    "licenseStatus": "ACTIVE",
    "inService": true,
    "licenseNumber": "550002371",
    "licenseEffectiveDate": "08/21/2025",
    "licenseExpirationDate": "08/20/2026",
    "dataDate": "10/18/2025",
    "capacity": 0,
    "address": "130 W ROUTE 66, SUITE 100",
    "city": "GLENDORA",
    "zip": "91740",
    "county": "LOS ANGELES",
    "phone": "(626) 794-5737",
    "lat": 34.128207,
    "lng": -117.8651565
  },
  {
    "id": "630026312",
    "name": "PRIME CHOICE HOME HEALTH",
    "npi": null,
    "hcaiId": null,
    "businessName": "PRIME CHOICE HOME HEALTH",
    "contactEmail": "PRIMECHOICEHHC@GMAIL.COM",
    "categoryName": "HOME HEALTH AGENCY",
    "categoryCode": "HHA",
    "licenseStatus": "ACTIVE",
    "inService": true,
    "licenseNumber": "550009436",
    "licenseEffectiveDate": "09/27/2025",
    "licenseExpirationDate": "09/26/2026",
    "dataDate": "10/18/2025",
    "capacity": 0,
    "address": "502 W ROUTE 66, SUITE 23A",
    "city": "GLENDORA",
    "zip": "91740",
    "county": "LOS ANGELES",
    "phone": "(818) 619-7238",
    "lat": 34.128261,
    "lng": -117.871146
  },
  {
    "id": "630017822",
    "name": "SADDLEBACK HOME HEALTH SERVICES, INC.",
    "npi": null,
    "hcaiId": "406192094",
    "businessName": "SADDLEBACK HOME HEALTH SERVICES, INC.",
    "contactEmail": "SADDLEBACKHOMEHEALTH@YAHOO.COM",
    "categoryName": "HOME HEALTH AGENCY",
    "categoryCode": "HHA",
    "licenseStatus": "ACTIVE",
    "inService": true,
    "licenseNumber": "550005163",
    "licenseEffectiveDate": "11/23/2025",
    "licenseExpirationDate": "11/22/2026",
    "dataDate": "10/18/2025",
    "capacity": 0,
    "address": "502 W ROUTE 66, SUITE 26",
    "city": "GLENDORA",
    "zip": "91740",
    "county": "LOS ANGELES",
    "phone": "(626) 628-6404",
    "lat": 34.128261,
    "lng": -117.871146
  },
  {
    "id": "630013651",
    "name": "SAN GABRIEL HOSPICE",
    "npi": null,
    "hcaiId": "406197907",
    "businessName": "NIVERA ENTERPRISES, INC.",
    "contactEmail": "ADMIN@SANGABRIELHOSPICE.COM",
    "categoryName": "HOSPICE",
    "categoryCode": "HOSPICE",
    "licenseStatus": "ACTIVE",
    "inService": true,
    "licenseNumber": "550002278",
    "licenseEffectiveDate": "05/15/2025",
    "licenseExpirationDate": "05/14/2027",
    "dataDate": "10/18/2025",
    "capacity": 0,
    "address": "1152 E ROUTE 66",
    "city": "GLENDORA",
    "zip": "91740",
    "county": "LOS ANGELES",
    "phone": "(626) 335-2171",
    "lat": 34.128612,
    "lng": -117.8445105
  },
  {
    "id": "630020646",
    "name": "SIGMA HEALTH CARE MANAGEMENT, INC.",
    "npi": null,
    "hcaiId": null,
    "businessName": "SIGMA HEALTH CARE MANAGEMENT, INC.",
    "contactEmail": "SIGMAHEALTHCAREMANAGEMENT@GMAIL.COM",
    "categoryName": "HOME HEALTH AGENCY",
    "categoryCode": "HHA",
    "licenseStatus": "ACTIVE",
    "inService": true,
    "licenseNumber": "550006560",
    "licenseEffectiveDate": "07/16/2025",
    "licenseExpirationDate": "07/15/2026",
    "dataDate": "10/18/2025",
    "capacity": 0,
    "address": "620 W ROUTE 66, UNIT 106",
    "city": "GLENDORA",
    "zip": "91740",
    "county": "LOS ANGELES",
    "phone": "(818) 624-6360",
    "lat": 34.12859693,
    "lng": -117.8755695
  },
  {
    "id": "630019838",
    "name": "SILVER STONE HOSPICE INC",
    "npi": null,
    "hcaiId": "406192898",
    "businessName": "SILVER STONE HOSPICE INC",
    "contactEmail": "SILVERSTONEHOSPICE@GMAIL.COM",
    "categoryName": "HOSPICE",
    "categoryCode": "HOSPICE",
    "licenseStatus": "ACTIVE",
    "inService": true,
    "licenseNumber": "550005742",
    "licenseEffectiveDate": "09/22/2024",
    "licenseExpirationDate": "09/21/2026",
    "dataDate": "10/18/2025",
    "capacity": 0,
    "address": "620 W ROUTE 66, SUITE 208",
    "city": "GLENDORA",
    "zip": "91740",
    "county": "LOS ANGELES",
    "phone": "(818) 334-0303",
    "lat": 34.12859693,
    "lng": -117.8755695
  },
  {
    "id": "630013811",
    "name": "ST. CARMEN HEALTH PROVIDERS, INC.",
    "npi": "1336403831",
    "hcaiId": "406198076",
    "businessName": "ST. CARMEN HEALTH PROVIDERS, INC.",
    "contactEmail": "STCARMENHEALTHPROVIDERS@GMAIL.COM",
    "categoryName": "HOSPICE",
    "categoryCode": "HOSPICE",
    "licenseStatus": "ACTIVE",
    "inService": true,
    "licenseNumber": "550002294",
    "licenseEffectiveDate": "05/31/2025",
    "licenseExpirationDate": "05/30/2027",
    "dataDate": "10/18/2025",
    "capacity": 0,
    "address": "2060 E ROUTE 66, SUITE 204",
    "city": "GLENDORA",
    "zip": "91740",
    "county": "LOS ANGELES",
    "phone": "(626) 335-2167",
    "lat": 34.127586,
    "lng": -117.8249805
  },
  {
    "id": "630018624",
    "name": "VERITAS HOME HEALTH CARE INC.",
    "npi": null,
    "hcaiId": "406193164",
    "businessName": "VERITAS HOME HEALTH CARE INC.",
    "contactEmail": "VERITASHHC@GMAIL.COM",
    "categoryName": "HOME HEALTH AGENCY",
    "categoryCode": "HHA",
    "licenseStatus": "ACTIVE",
    "inService": true,
    "licenseNumber": "550007013",
    "licenseEffectiveDate": "10/18/2023",
    "licenseExpirationDate": "10/17/2024",
    "dataDate": "10/18/2025",
    "capacity": 0,
    "address": "502 W ROUTE 66, UNIT 18B",
    "city": "GLENDORA",
    "zip": "91740",
    "county": "LOS ANGELES",
    "phone": "(442) 777-0007",
    "lat": 34.128261,
    "lng": -117.871146
  }
]