[
  {
    "id": "630028210",
    "name": "CHINATOWN SERVICE CENTER - HACIENDA HEIGHTS",
    "npi": null,
    "hcaiId": null,
    "businessName": "CHINATOWN SERVICE CENTER",
    "contactEmail": null,
    "categoryName": "PRIMARY CARE CLINIC",
    "categoryCode": "COMTYC",
    "licenseStatus": "ACTIVE",
    "inService": true,
    "licenseNumber": "960000220",
    "licenseEffectiveDate": "01/16/2025",
    "licenseExpirationDate": "01/15/2026",
    "dataDate": "10/18/2025",
    "capacity": 0,
    "address": "2110 S HACIENDA BLVD",
    "city": "HACIENDA HEIGHTS",
    "zip": "91745",
    "county": "LOS ANGELES",
    "phone": null,
    "lat": 33.99554331,
    "lng": -117.968128
  },
  {
    "id": "960001459",
    "name": "EL ENCANTO HEALTHCARE & HABILIATION CTR D/P ICFDD",
    "npi": null,
    "hcaiId": null,
    "businessName": "INDUSTRY CONVALESCENT HOSPITAL",
    "contactEmail": "KENC@EEHC.ORG",
    "categoryName": "INTERMEDIATE CARE FACILITY-DD/H/N/CN/IID",
    "categoryCode": "ICFDD",
    "licenseStatus": "ACTIVE",
    "inService": true,
    "licenseNumber": "960000747",
    "licenseEffectiveDate": "04/30/2025",
    "licenseExpirationDate": "04/29/2026",
    "dataDate": "10/18/2025",
    "capacity": 59,
    "address": "555 EL ENCANTO RD",
    "city": "CITY OF INDUSTRY",
    "zip": "91745",
    "county": "LOS ANGELES",
    "phone": "(626) 336-1274",
    "lat": 34.02065101,
    "lng": -117.9635689
  },
  {
    "id": "960001457",
    "name": "EL ENCANTO HEALTHCARE AND HABILITATION CENTER",
    "npi": "1205839081",
    "hcaiId": "206190266",
    "businessName": "INDUSTRY CONVALESCENT HOSPITAL",
    "contactEmail": "KENC@EEHC.ORG",
    "categoryName": "SKILLED NURSING FACILITY",
    "categoryCode": "SNF",
    "licenseStatus": "ACTIVE",
    "inService": true,
    "licenseNumber": "960000747",
    "licenseEffectiveDate": "04/30/2025",
    "licenseExpirationDate": "04/29/2026",
    "dataDate": "10/18/2025",
    "capacity": 185,
    "address": "555 EL ENCANTO RD",
    "city": "CITY OF INDUSTRY",
    "zip": "91745",
    "county": "LOS ANGELES",
    "phone": "(626) 336-1274",
    "lat": 34.02065101,
    "lng": -117.9635689
  },
  {
    "id": "630024678",
    "name": "GARDENS HOME HEALTH",
    "npi": null,
    "hcaiId": "406195445",
    "businessName": "LUXOR HOME HEALTH, INC.",
    "contactEmail": "GARDENSHHA@GMAIL.COM",
    "categoryName": "HOME HEALTH AGENCY",
    "categoryCode": "HHA",
    "licenseStatus": "ACTIVE",
    "inService": true,
    "licenseNumber": "550008092",
    "licenseEffectiveDate": "07/22/2025",
    "licenseExpirationDate": "07/21/2026",
    "dataDate": "10/18/2025",
    "capacity": 0,
    "address": "16404 COLIMA RD, UNIT 205",
    "city": "HACIENDA HEIGHTS",
    "zip": "91745",
    "county": "LOS ANGELES",
    "phone": "(800) 858-5809",
    "lat": 33.98562801,
    "lng": -117.953494
  },
  {
    "id": "630026653",
    "name": "HACIENDA CBAS",
    "npi": null,
    "hcaiId": null,
    "businessName": "NEW EMERALD HEALTH CENTER INC.",
    "contactEmail": "GUANS311@GMAIL.COM",
    "categoryName": "ADULT DAY HEALTH CARE",
    "categoryCode": "ADHC",
    "licenseStatus": "ACTIVE",
    "inService": true,
    "licenseNumber": "550009603",
    "licenseEffectiveDate": "04/16/2025",
    "licenseExpirationDate": "01/15/2026",
    "dataDate": "10/18/2025",
    "capacity": 0,
    "address": "17130 COLIMA RD",
    "city": "HACIENDA HEIGHTS",
    "zip": "91745",
    "county": "LOS ANGELES",
    "phone": "(626) 688-1048",
    "lat": 33.9894361,
    "lng": -117.9345899
  },
  {
    "id": "930001745",
    "name": "HACIENDA DIALYSIS CENTER",
    "npi": "1457342677",
    "hcaiId": "306196266",
    "businessName": "HACIENDA DIALYSIS CENTER, A MEDICAL CORPORATION",
    "contactEmail": "HACIENDADIALYSISCENTER@YAHOO.COM",
    "categoryName": "CHRONIC DIALYSIS CLINIC",
    "categoryCode": "ESRD/CDC",
    "licenseStatus": "ACTIVE",
    "inService": true,
    "licenseNumber": "930000972",
    "licenseEffectiveDate": "11/20/2025",
    "licenseExpirationDate": "11/19/2026",
    "dataDate": "10/18/2025",
    "capacity": 21,
    "address": "2020 S HACIENDA BLVD, SUITE G",
    "city": "HACIENDA HEIGHTS",
    "zip": "91745",
    "county": "LOS ANGELES",
    "phone": "(626) 968-9558",
    "lat": 33.996618,
    "lng": -117.9676935
  },
  {
    "id": "630017550",
    "name": "HACIENDA HEIGHTS COMMUNITY HOME",
    "npi": null,
    "hcaiId": null,
    "businessName": "BEST OPTIONS LIMITED LIABILITY CO.",
    "contactEmail": "SRVASQUEZ0209@GMAIL.COM",
    "categoryName": "INTERMEDIATE CARE FACILITY-DD/H/N/CN/IID",
    "categoryCode": "ICFDDN",
    "licenseStatus": "ACTIVE",
    "inService": true,
    "licenseNumber": "550004564",
    "licenseEffectiveDate": "02/15/2025",
    "licenseExpirationDate": "02/14/2026",
    "dataDate": "10/18/2025",
    "capacity": 6,
    "address": "2770 COLD PLAINS DR",
    "city": "HACIENDA HEIGHTS",
    "zip": "91745",
    "county": "LOS ANGELES",
    "phone": "(626) 810-5567",
    "lat": 33.986817,
    "lng": -117.971478
  },
  {
    "id": "960000947",
    "name": "HELEN EVANS HOME",
    "npi": "1063958668",
    "hcaiId": "206190283",
    "businessName": "GSM HEALTHCARE SERVICES, LLC",
    "contactEmail": "HOROZCO@HELENEVANSHOME.COM",
    "categoryName": "INTERMEDIATE CARE FACILITY-DD/H/N/CN/IID",
    "categoryCode": "ICFDD",
    "licenseStatus": "ACTIVE",
    "inService": true,
    "licenseNumber": "960000515",
    "licenseEffectiveDate": "05/16/2025",
    "licenseExpirationDate": "05/15/2026",
    "dataDate": "10/18/2025",
    "capacity": 42,
    "address": "15125 GALE AVE",
    "city": "HACIENDA HEIGHTS",
    "zip": "91745",
    "county": "LOS ANGELES",
    "phone": "(626) 330-4048",
    "lat": 34.015617,
    "lng": -117.9768195
  },
  {
    "id": "630012896",
    "name": "SUNRISE HOME HEALTH CARE PROVIDER, INC.",
    "npi": "1295041036",
    "hcaiId": "406197603",
    "businessName": "SUNRISE HOME HEALTH CARE PROVIDER, INC.",
    "contactEmail": "SUNRISEHHCP@GMAIL.COM",
    "categoryName": "HOME HEALTH AGENCY",
    "categoryCode": "HHA",
    "licenseStatus": "ACTIVE",
    "inService": true,
    "licenseNumber": "550001705",
    "licenseEffectiveDate": "11/16/2024",
    "licenseExpirationDate": "11/15/2025",
    "dataDate": "10/18/2025",
    "capacity": 0,
    "address": "2211 S. HACIENDA BLVD, SUITE 210",
    "city": "HACIENDA HEIGHTS",
    "zip": "91745",
    "county": "LOS ANGELES",
    "phone": "(626) 934-8880",
    "lat": 33.994485,
    "lng": -117.969201
  },
  {
    "id": "960002063",
    "name": "UNITED CARE HOMES - KINBRAE",
    "npi": "1841344918",
    "hcaiId": null,
    "businessName": "UNITED CARE HOMES",
    "contactEmail": "UNITEDCAREHOMES@YAHOO.COM",
    "categoryName": "INTERMEDIATE CARE FACILITY-DD/H/N/CN/IID",
    "categoryCode": "ICFDDN",
    "licenseStatus": "ACTIVE",
    "inService": true,
    "licenseNumber": "960000986",
    "licenseEffectiveDate": "11/28/2024",
    "licenseExpirationDate": "11/27/2025",
    "dataDate": "10/18/2025",
    "capacity": 6,
    "address": "1160 KINBRAE AVE",
    "city": "HACIENDA HEIGHTS",
    "zip": "91745",
    "county": "LOS ANGELES",
    "phone": "(626) 369-2970",
    "lat": 34.015338,
    "lng": -117.9814185
  },
  {
    "id": "630011902",
    "name": "WALBROOK HOUSE",
    "npi": "1013454644",
    "hcaiId": null,
    "businessName": "GSM HEALTHCARE SERVICES, LLC",
    "contactEmail": "HOROZCO@HELENEVANSHOME.COM",
    "categoryName": "INTERMEDIATE CARE FACILITY-DD/H/N/CN/IID",
    "categoryCode": "ICFDDN",
    "licenseStatus": "ACTIVE",
    "inService": true,
    "licenseNumber": "550000859",
    "licenseEffectiveDate": "02/22/2025",
    "licenseExpirationDate": "02/21/2026",
    "dataDate": "10/18/2025",
    "capacity": 6,
    "address": "15122 WALBROOK DR",
    "city": "HACIENDA HEIGHTS",
    "zip": "91745",
    "county": "LOS ANGELES",
    "phone": "(626) 333-4048",
    "lat": 34.016148,
    "lng": -117.9765675
  },
  {
    "id": "630016741",
    "name": "WESLEY HEALTH CENTERS (HACIENDA HEIGHTS)",
    "npi": null,
    "hcaiId": "306198296",
    "businessName": "JWCH INSTITUTE, INC.",
    "contactEmail": "AIRIE@JWCH.ORG",
    "categoryName": "PRIMARY CARE CLINIC",
    "categoryCode": "COMTYC",
    "licenseStatus": "ACTIVE",
    "inService": true,
    "licenseNumber": "550003660",
    "licenseEffectiveDate": "09/22/2025",
    "licenseExpirationDate": "09/21/2026",
    "dataDate": "10/18/2025",
    "capacity": 0,
    "address": "15898 E. GALE AVENUE",
    "city": "HACIENDA HEIGHTS",
    "zip": "91745",
    "county": "LOS ANGELES",
    "phone": "(323) 201-4516",
    "lat": 34.01000809,
    "lng": -117.9604568
  }
]