[
  {
    "id": "930001629",
    "name": "COLIMA ENDOSCOPY CENTER",
    "npi": "1912239062",
    "hcaiId": "306195035",
    "businessName": "SUNG J. YOO, M.D., INC.",
    "contactEmail": "COLIMAENDOCENTER@YAHOO.COM",
    "categoryName": "SURGICAL CLINIC",
    "categoryCode": "ASC",
    "licenseStatus": "INACTIVE - CAPEN DECISION",
    "inService": false,
    "licenseNumber": "930000903",
    "licenseEffectiveDate": "11/11/2007",
    "licenseExpirationDate": "11/10/2008",
    "dataDate": "10/18/2025",
    "capacity": 0,
    "address": "18897 COLIMA RD, SUITE A",
    "city": "ROWLAND HEIGHTS",
    "zip": "91748",
    "county": "LOS ANGELES",
    "phone": "(626) 913-1116",
    "lat": 33.98770252,
    "lng": -117.8910907
  },
  {
    "id": "630013565",
    "name": "CONCOURSE DIAGNOSTIC AND SURGERY CENTER, LLC",
    "npi": "1932496908",
    "hcaiId": null,
    "businessName": null,
    "contactEmail": "AKIBIC.CDSC@GMAIL.COM",
    "categoryName": "SURGICAL CLINIC",
    "categoryCode": "ASC",
    "licenseStatus": null,
    "inService": null,
    "licenseNumber": null,
    "licenseEffectiveDate": null,
    "licenseExpirationDate": null,
    "dataDate": "10/18/2025",
    "capacity": 0,
    "address": "18575 GALE AVE",
    "city": "CITY OF INDUSTRY",
    "zip": "91748",
    "county": "LOS ANGELES",
    "phone": "(626) 956-3880",
    "lat": 33.995214,
    "lng": -117.898254
  },
  {
    "id": "960002567",
    "name": "DELHAVEN COMMUNITY HOME",
    "npi": "1114108487",
    "hcaiId": null,
    "businessName": "UNITED CARE HOMES",
    "contactEmail": "UNITEDCAREHOMES@YAHOO.COM",
    "categoryName": "INTERMEDIATE CARE FACILITY-DD/H/N/CN/IID",
    "categoryCode": "ICFDDH",
    "licenseStatus": "ACTIVE",
    "inService": true,
    "licenseNumber": "960001215",
    "licenseEffectiveDate": "05/14/2025",
    "licenseExpirationDate": "05/13/2026",
    "dataDate": "10/18/2025",
    "capacity": 6,
    "address": "18284 BARROSO ST",
    "city": "ROWLAND HEIGHTS",
    "zip": "91748",
    "county": "LOS ANGELES",
    "phone": "(626) 964-5737",
    "lat": 33.974631,
    "lng": -117.907191
  },
  {
    "id": "060002049",
    "name": "EMERALD HEALTH SERVICES, INC.",
    "npi": null,
    "hcaiId": null,
    "businessName": "EMERALD HEALTH SERVICES, INC.",
    "contactEmail": "EMERALDADHC@GMAIL.COM",
    "categoryName": "ADULT DAY HEALTH CARE",
    "categoryCode": "ADHC",
    "licenseStatus": "ACTIVE",
    "inService": true,
    "licenseNumber": "060000898",
    "licenseEffectiveDate": "11/25/2024",
    "licenseExpirationDate": "11/24/2025",
    "dataDate": "10/18/2025",
    "capacity": 0,
    "address": "17520 CASTLETON ST, SUITE 103",
    "city": "CITY OF INDUSTRY",
    "zip": "91748",
    "county": "LOS ANGELES",
    "phone": "(626) 581-9959",
    "lat": 33.992748,
    "lng": -117.923022
  },
  {
    "id": "630015827",
    "name": "HERALD CHRISTIAN HEALTH CENTER",
    "npi": "1063835213",
    "hcaiId": "306198094",
    "businessName": "HERALD CHRISTIAN HEALTH CENTER",
    "contactEmail": "ESZETO@HCHCLA.ORG",
    "categoryName": "PRIMARY CARE CLINIC",
    "categoryCode": "COMTYC",
    "licenseStatus": "ACTIVE",
    "inService": true,
    "licenseNumber": "550003224",
    "licenseEffectiveDate": "09/16/2025",
    "licenseExpirationDate": "09/15/2026",
    "dataDate": "10/18/2025",
    "capacity": 0,
    "address": "1661 HANOVER ROAD, SUITE 103",
    "city": "CITY OF INDUSTRY",
    "zip": "91748",
    "county": "LOS ANGELES",
    "phone": "(626) 286-8700",
    "lat": 33.99093,
    "lng": -117.9216855
  },
  {
    "id": "060001910",
    "name": "JOYFUL ADULT DAY HEALTH CARE CENTER",
    "npi": null,
    "hcaiId": null,
    "businessName": "JOYFUL ADULT DAY HEALTH CARE CORP.",
    "contactEmail": "JOYFULADHC@HOTMAIL.COM",
    "categoryName": "ADULT DAY HEALTH CARE",
    "categoryCode": "ADHC",
    "licenseStatus": "ACTIVE",
    "inService": true,
    "licenseNumber": "060000727",
    "licenseEffectiveDate": "11/17/2024",
    "licenseExpirationDate": "11/16/2025",
    "dataDate": "10/18/2025",
    "capacity": 0,
    "address": "18951 COLIMA RD",
    "city": "ROWLAND HEIGHTS",
    "zip": "91748",
    "county": "LOS ANGELES",
    "phone": "(626) 333-2222",
    "lat": 33.988914,
    "lng": -117.89109
  },
  {
    "id": "630019038",
    "name": "LUCKY STARS ADULT DAY HEALTH CARE CENTER",
    "npi": null,
    "hcaiId": null,
    "businessName": "LUCKY STARS ADULT DAY HEALTH CARE CENTER INC.",
    "contactEmail": "PD@LUCKYSTARSADHC.COM",
    "categoryName": "ADULT DAY HEALTH CARE",
    "categoryCode": "ADHC",
    "licenseStatus": "ACTIVE",
    "inService": true,
    "licenseNumber": "550005619",
    "licenseEffectiveDate": "07/15/2025",
    "licenseExpirationDate": "07/14/2026",
    "dataDate": "10/18/2025",
    "capacity": 0,
    "address": "19715 COLIMA RD, UNIT B",
    "city": "ROWLAND HEIGHTS",
    "zip": "91748",
    "county": "LOS ANGELES",
    "phone": "(909) 655-6168",
    "lat": 33.98661,
    "lng": -117.872829
  },
  {
    "id": "630016816",
    "name": "ROWLAND HEIGHTS COMMUNITY HOME",
    "npi": "1003268178",
    "hcaiId": null,
    "businessName": "BEST OPTIONS LIMITED LIABILITY CO.",
    "contactEmail": "UNITEDCAREHOMES@YAHOO.COM",
    "categoryName": "INTERMEDIATE CARE FACILITY-DD/H/N/CN/IID",
    "categoryCode": "ICFDDH",
    "licenseStatus": "ACTIVE",
    "inService": true,
    "licenseNumber": "550004526",
    "licenseEffectiveDate": "12/11/2024",
    "licenseExpirationDate": "12/10/2025",
    "dataDate": "10/18/2025",
    "capacity": 6,
    "address": "18160 MESCAL STREET",
    "city": "ROWLAND HEIGHTS",
    "zip": "91748",
    "county": "LOS ANGELES",
    "phone": "(626) 810-5567",
    "lat": 33.976728,
    "lng": -117.9108225
  },
  {
    "id": "630016912",
    "name": "ROWLAND HEIGHTS DIALYSIS",
    "npi": null,
    "hcaiId": "306190916",
    "businessName": "CAMA DIALYSIS LLC",
    "contactEmail": "CAL_C@DAVITA.COM",
    "categoryName": "CHRONIC DIALYSIS CLINIC",
    "categoryCode": "ESRD/CDC",
    "licenseStatus": "ACTIVE",
    "inService": true,
    "licenseNumber": "550004094",
    "licenseEffectiveDate": "12/11/2024",
    "licenseExpirationDate": "12/10/2025",
    "dataDate": "10/18/2025",
    "capacity": 33,
    "address": "17875 COLIMA ROAD, UNIT A",
    "city": "CITY OF INDUSTRY",
    "zip": "91748",
    "county": "LOS ANGELES",
    "phone": "(626) 964-5849",
    "lat": 33.99012825,
    "lng": -117.9141659
  },
  {
    "id": "960001221",
    "name": "UNITED CARE HOMES, INC. - CAMWOOD",
    "npi": "1528112687",
    "hcaiId": null,
    "businessName": null,
    "contactEmail": "UNITEDCAREHOMES@YAHOO.COM",
    "categoryName": "INTERMEDIATE CARE FACILITY-DD/H/N/CN/IID",
    "categoryCode": "ICFDDN",
    "licenseStatus": "ACTIVE",
    "inService": true,
    "licenseNumber": "960000633",
    "licenseEffectiveDate": "11/10/2024",
    "licenseExpirationDate": "11/09/2025",
    "dataDate": "10/18/2025",
    "capacity": 6,
    "address": "1982 CAMWOOD AVE",
    "city": "ROWLAND HEIGHTS",
    "zip": "91748",
    "county": "LOS ANGELES",
    "phone": "(626) 810-5567",
    "lat": 33.981966,
    "lng": -117.878958
  }
]