[
  {
    "id": "630013954",
    "name": "AARON HOME",
    "npi": "1699848309",
    "hcaiId": null,
    "businessName": "ZARAHEMLA INCORPORATED",
    "contactEmail": "USCRICH1@GMAIL.COM",
    "categoryName": "INTERMEDIATE CARE FACILITY-DD/H/N/CN/IID",
    "categoryCode": "ICFDDH",
    "licenseStatus": "ACTIVE",
    "inService": true,
    "licenseNumber": "550002163",
    "licenseEffectiveDate": "09/20/2025",
    "licenseExpirationDate": "09/19/2026",
    "dataDate": "10/18/2025",
    "capacity": 6,
    "address": "2816 MARCO CT",
    "city": "LA VERNE",
    "zip": "91750",
    "county": "LOS ANGELES",
    "phone": "(626) 701-4635",
    "lat": 34.103169,
    "lng": -117.759789
  },
  {
    "id": "630011516",
    "name": "BLESSED HEALTH CARE PROVIDER, INC.",
    "npi": null,
    "hcaiId": "406197252",
    "businessName": "BLESSED HEALTH CARE PROVIDER, INC.",
    "contactEmail": "BLESSEDHEALTHCARE01@GMAIL.COM",
    "categoryName": "HOME HEALTH AGENCY",
    "categoryCode": "HHA",
    "licenseStatus": "ACTIVE",
    "inService": true,
    "licenseNumber": "550001020",
    "licenseEffectiveDate": "03/18/2025",
    "licenseExpirationDate": "03/17/2026",
    "dataDate": "10/18/2025",
    "capacity": 0,
    "address": "1768 ARROW HWY, SUITE 103",
    "city": "LA VERNE",
    "zip": "91750",
    "county": "LOS ANGELES",
    "phone": "(626) 858-2319",
    "lat": 34.099128,
    "lng": -117.777825
  },
  {
    "id": "630011998",
    "name": "CONCORDIA HEALTH CARE PROVIDER, INC.",
    "npi": "1275784696",
    "hcaiId": "406197376",
    "businessName": "CONCORDIA HEALTH CARE PROVIDER, INC.",
    "contactEmail": "CONCORDIAHHP@GMAIL.COM",
    "categoryName": "HOME HEALTH AGENCY",
    "categoryCode": "HHA",
    "licenseStatus": "ACTIVE",
    "inService": true,
    "licenseNumber": "550001249",
    "licenseEffectiveDate": "03/04/2023",
    "licenseExpirationDate": "03/03/2024",
    "dataDate": "10/18/2025",
    "capacity": 0,
    "address": "2120 FOOTHILL BLVD, SUITE 102",
    "city": "LA VERNE",
    "zip": "91750",
    "county": "LOS ANGELES",
    "phone": "(909) 392-0655",
    "lat": 34.11243,
    "lng": -117.764253
  },
  {
    "id": "980001835",
    "name": "IDEAL HOME CARE, INC.",
    "npi": null,
    "hcaiId": "406196660",
    "businessName": "IDEAL HOME CARE, INC.",
    "contactEmail": "IDEALHOMECARE@GMAIL.COM",
    "categoryName": "HOME HEALTH AGENCY",
    "categoryCode": "HHA",
    "licenseStatus": "ACTIVE",
    "inService": true,
    "licenseNumber": "980001142",
    "licenseEffectiveDate": "04/13/2025",
    "licenseExpirationDate": "04/12/2026",
    "dataDate": "10/18/2025",
    "capacity": 0,
    "address": "2117 FOOTHILL BLVD, SUITE J",
    "city": "LA VERNE",
    "zip": "91750",
    "county": "LOS ANGELES",
    "phone": "(909) 392-2005",
    "lat": 34.11289187,
    "lng": -117.7633629
  },
  {
    "id": "630019025",
    "name": "MONROE HOSPICE CARE, INC.",
    "npi": null,
    "hcaiId": "406192186",
    "businessName": "MONROE HOSPICE CARE, INC.",
    "contactEmail": "MONROEHOSPICE@GMAIL.COM",
    "categoryName": "HOSPICE",
    "categoryCode": "HOSPICE",
    "licenseStatus": "ACTIVE",
    "inService": true,
    "licenseNumber": "550005194",
    "licenseEffectiveDate": "12/17/2023",
    "licenseExpirationDate": "12/16/2025",
    "dataDate": "10/18/2025",
    "capacity": 0,
    "address": "2120 FOOTHILL BLVD, SUITE 201",
    "city": "LA VERNE",
    "zip": "91750",
    "county": "LOS ANGELES",
    "phone": "(818) 351-9075",
    "lat": 34.11243,
    "lng": -117.7641495
  },
  {
    "id": "630015094",
    "name": "NEIGHBORHOOD LIFE CARE SERVICES, LLC",
    "npi": null,
    "hcaiId": "406198320",
    "businessName": "NEIGHBORHOOD LIFE CARE SERVICES, LLC",
    "contactEmail": "RANDY@NEIGHBORHOODLCS.COM",
    "categoryName": "HOME HEALTH AGENCY",
    "categoryCode": "HHA",
    "licenseStatus": "ACTIVE",
    "inService": true,
    "licenseNumber": "550003225",
    "licenseEffectiveDate": "09/14/2025",
    "licenseExpirationDate": "09/13/2026",
    "dataDate": "10/18/2025",
    "capacity": 0,
    "address": "2025 FOOTHILL BLVD",
    "city": "LA VERNE",
    "zip": "91750",
    "county": "LOS ANGELES",
    "phone": "(909) 435-4663",
    "lat": 34.11383442,
    "lng": -117.7662759
  },
  {
    "id": "960001306",
    "name": "OASIS HOUSE",
    "npi": "1679071070",
    "hcaiId": null,
    "businessName": "ZUHA HOMES, INC.",
    "contactEmail": "ZUHAHOMESINC@GMAIL.COM",
    "categoryName": "INTERMEDIATE CARE FACILITY-DD/H/N/CN/IID",
    "categoryCode": "ICFDDN",
    "licenseStatus": "ACTIVE",
    "inService": true,
    "licenseNumber": "960000689",
    "licenseEffectiveDate": "05/02/2025",
    "licenseExpirationDate": "05/01/2026",
    "dataDate": "10/18/2025",
    "capacity": 6,
    "address": "2710 N SAN DIMAS CANYON RD",
    "city": "LA VERNE",
    "zip": "91750",
    "county": "LOS ANGELES",
    "phone": "(909) 767-8005",
    "lat": 34.10946966,
    "lng": -117.7939197
  },
  {
    "id": "960001316",
    "name": "PALM HOUSE",
    "npi": "1346399276",
    "hcaiId": null,
    "businessName": "ZUHA HOMES, INC.",
    "contactEmail": "SHAQQANI.ZUHA@OUTLOOK.COM",
    "categoryName": "INTERMEDIATE CARE FACILITY-DD/H/N/CN/IID",
    "categoryCode": "ICFDDH",
    "licenseStatus": "ACTIVE",
    "inService": true,
    "licenseNumber": "960000679",
    "licenseEffectiveDate": "11/14/2024",
    "licenseExpirationDate": "11/13/2025",
    "dataDate": "10/18/2025",
    "capacity": 6,
    "address": "540 FERNSHAW DR",
    "city": "LA VERNE",
    "zip": "91750",
    "county": "LOS ANGELES",
    "phone": "(909) 394-1385",
    "lat": 34.111944,
    "lng": -117.786942
  },
  {
    "id": "630019986",
    "name": "PRECISE HOSPICE INC.",
    "npi": null,
    "hcaiId": "406193572",
    "businessName": "PRECISE HOSPICE INC.",
    "contactEmail": "PRECISEHOSPICE@GMAIL.COM",
    "categoryName": "HOSPICE",
    "categoryCode": "HOSPICE",
    "licenseStatus": "ACTIVE",
    "inService": true,
    "licenseNumber": "550006600",
    "licenseEffectiveDate": "10/23/2024",
    "licenseExpirationDate": "07/20/2025",
    "dataDate": "10/18/2025",
    "capacity": 0,
    "address": "2120 FOOTHILL BLVD, SUITE 103",
    "city": "LA VERNE",
    "zip": "91750",
    "county": "LOS ANGELES",
    "phone": "(909) 247-1433",
    "lat": 34.11239399,
    "lng": -117.764161
  },
  {
    "id": "960001323",
    "name": "QUARTZ HOUSE",
    "npi": "1417006347",
    "hcaiId": null,
    "businessName": "ZUHA HOMES, INC.",
    "contactEmail": "ZUHAHOMESINC@GMAIL.COM",
    "categoryName": "INTERMEDIATE CARE FACILITY-DD/H/N/CN/IID",
    "categoryCode": "ICFDDH",
    "licenseStatus": "ACTIVE",
    "inService": true,
    "licenseNumber": "960000683",
    "licenseEffectiveDate": "06/20/2025",
    "licenseExpirationDate": "06/19/2026",
    "dataDate": "10/18/2025",
    "capacity": 6,
    "address": "4340 FIG CIR",
    "city": "LA VERNE",
    "zip": "91750",
    "county": "LOS ANGELES",
    "phone": "(909) 596-5661",
    "lat": 34.118676,
    "lng": -117.7573545
  },
  {
    "id": "960001977",
    "name": "REALITOS DIVISION",
    "npi": "1164558714",
    "hcaiId": null,
    "businessName": "MONTE VISTA CHILD CARE CENTER, INC.",
    "contactEmail": "RONPHAM@MONTEVISTACHILDCARECENTER.COM",
    "categoryName": "INTERMEDIATE CARE FACILITY-DD/H/N/CN/IID",
    "categoryCode": "ICFDDH",
    "licenseStatus": "ACTIVE",
    "inService": true,
    "licenseNumber": "960000953",
    "licenseEffectiveDate": "03/12/2025",
    "licenseExpirationDate": "03/11/2026",
    "dataDate": "10/18/2025",
    "capacity": 6,
    "address": "612 REALITOS DR",
    "city": "LA VERNE",
    "zip": "91750",
    "county": "LOS ANGELES",
    "phone": "(909) 368-3010",
    "lat": 34.120188,
    "lng": -117.7573815
  },
  {
    "id": "950000092",
    "name": "WOODS HEALTH SERVICES",
    "npi": "1346236106",
    "hcaiId": "206190894",
    "businessName": "BRETHREN HILLCREST HOMES",
    "contactEmail": "KKASIN@LIVINGATHILLCREST.ORG",
    "categoryName": "SKILLED NURSING FACILITY",
    "categoryCode": "SNF",
    "licenseStatus": "ACTIVE",
    "inService": true,
    "licenseNumber": "950000005",
    "licenseEffectiveDate": "11/30/2024",
    "licenseExpirationDate": "11/29/2025",
    "dataDate": "10/18/2025",
    "capacity": 59,
    "address": "2600 A ST",
    "city": "LA VERNE",
    "zip": "91750",
    "county": "LOS ANGELES",
    "phone": "(909) 392-4393",
    "lat": 34.104672,
    "lng": -117.7743825
  }
]