[
  {
    "id": "630023905",
    "name": "ALL WEATHER HOME HEALTH",
    "npi": null,
    "hcaiId": "406195388",
    "businessName": "ALL WEATHER HOME HEALTH",
    "contactEmail": "ALLWEATHERHOMEHEALTH@YAHOO.COM",
    "categoryName": "HOME HEALTH AGENCY",
    "categoryCode": "HHA",
    "licenseStatus": "ACTIVE",
    "inService": true,
    "licenseNumber": "550008005",
    "licenseEffectiveDate": "05/27/2025",
    "licenseExpirationDate": "05/26/2026",
    "dataDate": "10/18/2025",
    "capacity": 0,
    "address": "2063 S ATLANTIC BLVD, SUITE 2D",
    "city": "MONTEREY PARK",
    "zip": "91754",
    "county": "LOS ANGELES",
    "phone": "(800) 366-9161",
    "lat": 34.040304,
    "lng": -118.1425905
  },
  {
    "id": "630020751",
    "name": "ARMA HOME HEALTH, INC.",
    "npi": null,
    "hcaiId": "406195535",
    "businessName": "ARMA HOME HEALTH, INC.",
    "contactEmail": "ARMAHOMEHEALTH@GMAIL.COM",
    "categoryName": "HOME HEALTH AGENCY",
    "categoryCode": "HHA",
    "licenseStatus": "ACTIVE",
    "inService": true,
    "licenseNumber": "550006772",
    "licenseEffectiveDate": "03/18/2024",
    "licenseExpirationDate": "03/17/2025",
    "dataDate": "10/18/2025",
    "capacity": 0,
    "address": "2063 S ATLANTIC BLVD, SUITE 2G",
    "city": "MONTEREY PARK",
    "zip": "91754",
    "county": "LOS ANGELES",
    "phone": "(310) 909-7617",
    "lat": 34.040421,
    "lng": -118.1425275
  },
  {
    "id": "630013244",
    "name": "ATLANTIC SURGICAL CENTER",
    "npi": "1336466036",
    "hcaiId": null,
    "businessName": null,
    "contactEmail": "MED.MGMT01@GMAIL.COM",
    "categoryName": "SURGICAL CLINIC",
    "categoryCode": "ASC",
    "licenseStatus": null,
    "inService": null,
    "licenseNumber": null,
    "licenseEffectiveDate": null,
    "licenseExpirationDate": null,
    "dataDate": "10/18/2025",
    "capacity": 0,
    "address": "850 S ATLANTIC BLVD",
    "city": "MONTEREY PARK",
    "zip": "91754",
    "county": "LOS ANGELES",
    "phone": "(818) 813-3329",
    "lat": 34.050861,
    "lng": -118.137816
  },
  {
    "id": "630027150",
    "name": "CAREWATCH HOME INC.",
    "npi": null,
    "hcaiId": null,
    "businessName": "CAREWATCH HOME INC.",
    "contactEmail": "CAREWATCHHOME@GMAIL.COM",
    "categoryName": "HOME HEALTH AGENCY",
    "categoryCode": "HHA",
    "licenseStatus": "ACTIVE",
    "inService": true,
    "licenseNumber": "550009704",
    "licenseEffectiveDate": "09/07/2025",
    "licenseExpirationDate": "03/06/2026",
    "dataDate": "10/18/2025",
    "capacity": 0,
    "address": "925 S ATLANTIC BLVD, SUITE 202B",
    "city": "MONTEREY PARK",
    "zip": "91754",
    "county": "LOS ANGELES",
    "phone": "(626) 766-1033",
    "lat": 34.049924,
    "lng": -118.139098
  },
  {
    "id": "630026389",
    "name": "CHINATOWN SERVICE CENTER - MONTEREY PARK",
    "npi": "1427046754",
    "hcaiId": null,
    "businessName": "CHINATOWN SERVICE CENTER",
    "contactEmail": "JACHENG@CSCLA.ORG",
    "categoryName": "PRIMARY CARE CLINIC",
    "categoryCode": "COMTYC",
    "licenseStatus": "ACTIVE",
    "inService": true,
    "licenseNumber": "960000220",
    "licenseEffectiveDate": "01/16/2025",
    "licenseExpirationDate": "01/15/2026",
    "dataDate": "10/18/2025",
    "capacity": 0,
    "address": "855 S ATLANTIC BLVD",
    "city": "MONTEREY PARK",
    "zip": "91754",
    "county": "LOS ANGELES",
    "phone": "(213) 808-1709",
    "lat": 34.051401,
    "lng": -118.138122
  },
  {
    "id": "630017221",
    "name": "CSC MONTEREY PARK DENTAL",
    "npi": "1427046754",
    "hcaiId": null,
    "businessName": "CHINATOWN SERVICE CENTER",
    "contactEmail": null,
    "categoryName": "PRIMARY CARE CLINIC",
    "categoryCode": "COMTYC",
    "licenseStatus": "ACTIVE",
    "inService": true,
    "licenseNumber": "960000220",
    "licenseEffectiveDate": "01/16/2025",
    "licenseExpirationDate": "01/15/2026",
    "dataDate": "10/18/2025",
    "capacity": 0,
    "address": "850 S ATLANTIC BLVD, SUITE 303",
    "city": "MONTEREY PARK",
    "zip": "91754",
    "county": "LOS ANGELES",
    "phone": null,
    "lat": 34.050861,
    "lng": -118.137681
  },
  {
    "id": "960002885",
    "name": "GARFIELD HEALTH CENTER",
    "npi": "1760480610",
    "hcaiId": "306274059",
    "businessName": "GARFIELD HEALTH CENTER",
    "contactEmail": "GARFIELDHEALTHCENTER@GMAIL.COM",
    "categoryName": "PRIMARY CARE CLINIC",
    "categoryCode": "COMTYC",
    "licenseStatus": "ACTIVE",
    "inService": true,
    "licenseNumber": "960001453",
    "licenseEffectiveDate": "05/01/2025",
    "licenseExpirationDate": "04/30/2026",
    "dataDate": "10/18/2025",
    "capacity": 0,
    "address": "210 N GARFIELD AVE, SUITE 203",
    "city": "MONTEREY PARK",
    "zip": "91754",
    "county": "LOS ANGELES",
    "phone": "(626) 307-7397",
    "lat": 34.063938,
    "lng": -118.1225655
  },
  {
    "id": "630016341",
    "name": "GARFIELD HEALTH CENTER-ATLANTIC",
    "npi": "1548643000",
    "hcaiId": "306198195",
    "businessName": "GARFIELD HEALTH CENTER",
    "contactEmail": "GARFIELDHEALTHCENTER@GMAIL.COM",
    "categoryName": "PRIMARY CARE CLINIC",
    "categoryCode": "COMTYC",
    "licenseStatus": "ACTIVE",
    "inService": true,
    "licenseNumber": "550003381",
    "licenseEffectiveDate": "01/28/2025",
    "licenseExpirationDate": "01/27/2026",
    "dataDate": "10/18/2025",
    "capacity": 0,
    "address": "701 S. ATLANTIC BLVD., SUITE 100",
    "city": "MONTEREY PARK",
    "zip": "91754",
    "county": "LOS ANGELES",
    "phone": "(626) 300-9980",
    "lat": 34.053921,
    "lng": -118.136565
  },
  {
    "id": "630019232",
    "name": "GARFIELD HEALTH CENTER-ATLANTIC",
    "npi": null,
    "hcaiId": "306190752",
    "businessName": "GARFIELD HEALTH CENTER",
    "contactEmail": "GARFIELDHEALTHCENTER@GMAIL.COM",
    "categoryName": "PRIMARY CARE CLINIC",
    "categoryCode": "COMTYC",
    "licenseStatus": "ACTIVE",
    "inService": true,
    "licenseNumber": "550005826",
    "licenseEffectiveDate": "11/12/2024",
    "licenseExpirationDate": "11/11/2025",
    "dataDate": "10/18/2025",
    "capacity": 0,
    "address": "701 S ATLANTIC BLVD, SUITE 200",
    "city": "MONTEREY PARK",
    "zip": "91754",
    "county": "LOS ANGELES",
    "phone": "(626) 300-9079",
    "lat": 34.053921,
    "lng": -118.136565
  },
  {
    "id": "630019231",
    "name": "GARFIELD HEALTH CENTER-ATLANTIC DENTAL",
    "npi": null,
    "hcaiId": "306190518",
    "businessName": "GARFIELD HEALTH CENTER",
    "contactEmail": "GARFIELDHEALTHCENTER@GMAIL.COM",
    "categoryName": "PRIMARY CARE CLINIC",
    "categoryCode": "COMTYC",
    "licenseStatus": "ACTIVE",
    "inService": true,
    "licenseNumber": "550005337",
    "licenseEffectiveDate": "03/12/2025",
    "licenseExpirationDate": "03/11/2026",
    "dataDate": "10/18/2025",
    "capacity": 0,
    "address": "701 S ATLANTIC BLVD, SUITE 202",
    "city": "MONTEREY PARK",
    "zip": "91754",
    "county": "LOS ANGELES",
    "phone": "(626) 300-9079",
    "lat": 34.053921,
    "lng": -118.136565
  },
  {
    "id": "930000214",
    "name": "GARFIELD HEMODIALYSIS CENTER",
    "npi": "1811956279",
    "hcaiId": "306191144",
    "businessName": "TOTAL RENAL CARE, INC.",
    "contactEmail": "CAL_C@DAVITA.COM",
    "categoryName": "CHRONIC DIALYSIS CLINIC",
    "categoryCode": "ESRD/CDC",
    "licenseStatus": "ACTIVE",
    "inService": true,
    "licenseNumber": "930000243",
    "licenseEffectiveDate": "11/10/2024",
    "licenseExpirationDate": "11/09/2025",
    "dataDate": "10/18/2025",
    "capacity": 24,
    "address": "118 HILLIARD AVE",
    "city": "MONTEREY PARK",
    "zip": "91754",
    "county": "LOS ANGELES",
    "phone": "(626) 288-5796",
    "lat": 34.06727098,
    "lng": -118.1232216
  },
  {
    "id": "630012916",
    "name": "GARFIELD HOME PROGRAM",
    "npi": "1972833382",
    "hcaiId": null,
    "businessName": null,
    "contactEmail": null,
    "categoryName": "CHRONIC DIALYSIS CLINIC",
    "categoryCode": "ESRD",
    "licenseStatus": null,
    "inService": null,
    "licenseNumber": null,
    "licenseEffectiveDate": null,
    "licenseExpirationDate": null,
    "dataDate": "10/18/2025",
    "capacity": 0,
    "address": "228 N GARFIELD AVE, SUITE 301",
    "city": "MONTEREY PARK",
    "zip": "91754",
    "county": "LOS ANGELES",
    "phone": null,
    "lat": 34.064604,
    "lng": -118.122561
  },
  {
    "id": "930000058",
    "name": "GARFIELD MEDICAL CENTER",
    "npi": "1730171265",
    "hcaiId": "106190315",
    "businessName": "AHMC GARFIELD MEDICAL CENTER LP",
    "contactEmail": "HERBERT.VILLAFUERTE@AHMCHEALTH.COM",
    "categoryName": "GENERAL ACUTE CARE HOSPITAL",
    "categoryCode": "GACH",
    "licenseStatus": "ACTIVE",
    "inService": true,
    "licenseNumber": "930000057",
    "licenseEffectiveDate": "12/01/2024",
    "licenseExpirationDate": "11/30/2025",
    "dataDate": "10/18/2025",
    "capacity": 210,
    "address": "525 N GARFIELD AVE",
    "city": "MONTEREY PARK",
    "zip": "91754",
    "county": "LOS ANGELES",
    "phone": "(626) 573-2222",
    "lat": 34.067934,
    "lng": -118.1238795
  },
  {
    "id": "930000827",
    "name": "GASTROENTEROLOGY DIAGNOSTIC CENTER",
    "npi": "1013048461",
    "hcaiId": "306194175",
    "businessName": "GASTROENTEROLOGY DIAGNOSTIC CENTER MEDICAL GROUP",
    "contactEmail": "JFRNGDC@YAHOO.COM",
    "categoryName": "SURGICAL CLINIC",
    "categoryCode": "ASC",
    "licenseStatus": "INACTIVE - CAPEN DECISION",
    "inService": false,
    "licenseNumber": "930000452",
    "licenseEffectiveDate": "11/09/2007",
    "licenseExpirationDate": "11/08/2008",
    "dataDate": "10/18/2025",
    "capacity": 0,
    "address": "880 S ATLANTIC BLVD, SUITE G10",
    "city": "MONTEREY PARK",
    "zip": "91754",
    "county": "LOS ANGELES",
    "phone": "(213) 483-9080",
    "lat": 34.050267,
    "lng": -118.1380455
  },
  {
    "id": "970000169",
    "name": "HERITAGE MANOR",
    "npi": "1457457384",
    "hcaiId": "206190313",
    "businessName": "HERITAGE MANOR HEALTHCARE, LLC",
    "contactEmail": "ADMIN@HERITAGEMANORCARE.COM",
    "categoryName": "SKILLED NURSING FACILITY",
    "categoryCode": "SNF",
    "licenseStatus": "ACTIVE",
    "inService": true,
    "licenseNumber": "970000081",
    "licenseEffectiveDate": "01/11/2025",
    "licenseExpirationDate": "01/10/2026",
    "dataDate": "10/18/2025",
    "capacity": 99,
    "address": "610 N GARFIELD AVE",
    "city": "MONTEREY PARK",
    "zip": "91754",
    "county": "LOS ANGELES",
    "phone": "(626) 573-3141",
    "lat": 34.068897,
    "lng": -118.122723
  },
  {
    "id": "970000182",
    "name": "MONTEREY PARK CONVALESCENT HOSPITAL",
    "npi": "1487750303",
    "hcaiId": "206190546",
    "businessName": "MONTEREY PARK CONVALESCENT HOSPITAL, INC.",
    "contactEmail": "ADMIN@MONTEREYPARKCARE.COM",
    "categoryName": "SKILLED NURSING FACILITY",
    "categoryCode": "SNF",
    "licenseStatus": "ACTIVE",
    "inService": true,
    "licenseNumber": "970000087",
    "licenseEffectiveDate": "11/30/2024",
    "licenseExpirationDate": "11/29/2025",
    "dataDate": "10/18/2025",
    "capacity": 89,
    "address": "416 N GARFIELD AVE",
    "city": "MONTEREY PARK",
    "zip": "91754",
    "county": "LOS ANGELES",
    "phone": "(626) 280-0280",
    "lat": 34.066746,
    "lng": -118.1225565
  },
  {
    "id": "930000880",
    "name": "MONTEREY PARK DIALYSIS CENTER",
    "npi": "1891758538",
    "hcaiId": "306190708",
    "businessName": "TOTAL RENAL CARE, INC.",
    "contactEmail": "CAL_C@DAVITA.COM",
    "categoryName": "CHRONIC DIALYSIS CLINIC",
    "categoryCode": "ESRD/CDC",
    "licenseStatus": "ACTIVE",
    "inService": true,
    "licenseNumber": "930000451",
    "licenseEffectiveDate": "06/10/2025",
    "licenseExpirationDate": "06/09/2026",
    "dataDate": "10/18/2025",
    "capacity": 28,
    "address": "883 S ATLANTIC BLVD, SUITE H",
    "city": "MONTEREY PARK",
    "zip": "91754",
    "county": "LOS ANGELES",
    "phone": "(323) 780-8787",
    "lat": 34.05069211,
    "lng": -118.1382647
  },
  {
    "id": "930000108",
    "name": "MONTEREY PARK HOSPITAL",
    "npi": "1780676221",
    "hcaiId": "106190547",
    "businessName": "AHMC MONTEREY PARK HOSPITAL L.P.",
    "contactEmail": "MARK.LUEKEN@AHMCHEALTH.COM",
    "categoryName": "GENERAL ACUTE CARE HOSPITAL",
    "categoryCode": "GACH",
    "licenseStatus": "ACTIVE",
    "inService": true,
    "licenseNumber": "930000108",
    "licenseEffectiveDate": "12/01/2024",
    "licenseExpirationDate": "11/30/2025",
    "dataDate": "10/18/2025",
    "capacity": 101,
    "address": "900 S ATLANTIC BLVD",
    "city": "MONTEREY PARK",
    "zip": "91754",
    "county": "LOS ANGELES",
    "phone": "(626) 570-5721",
    "lat": 34.049565,
    "lng": -118.138518
  },
  {
    "id": "930001683",
    "name": "MONTEREY PARK OUTPATIENT SURGERY CENTER",
    "npi": "1629111430",
    "hcaiId": "306196516",
    "businessName": "MONTEREY PARK OUTPATIENT SURGERY CENTER, INC.",
    "contactEmail": "MPKSURGERYCENTER@HOTMAIL.COM",
    "categoryName": "SURGICAL CLINIC",
    "categoryCode": "ASC",
    "licenseStatus": "INACTIVE - CAPEN DECISION",
    "inService": false,
    "licenseNumber": "930000988",
    "licenseEffectiveDate": "01/21/2007",
    "licenseExpirationDate": "01/20/2008",
    "dataDate": "10/18/2025",
    "capacity": 0,
    "address": "201 W GARVEY AVE, SUITE 201",
    "city": "MONTEREY PARK",
    "zip": "91754",
    "county": "LOS ANGELES",
    "phone": "(626) 280-3393",
    "lat": 34.062885,
    "lng": -118.124604
  },
  {
    "id": "630019521",
    "name": "OGADA HOME HEALTH CARE, INC.",
    "npi": "1881239382",
    "hcaiId": "406192526",
    "businessName": "OGADA HOME HEALTH CARE, INC.",
    "contactEmail": "OGADAHOMEHEALTH@GMAIL.COM",
    "categoryName": "HOME HEALTH AGENCY",
    "categoryCode": "HHA",
    "licenseStatus": "ACTIVE",
    "inService": true,
    "licenseNumber": "550005360",
    "licenseEffectiveDate": "08/28/2025",
    "licenseExpirationDate": "03/10/2026",
    "dataDate": "10/18/2025",
    "capacity": 0,
    "address": "1901 S ATLANTIC BLVD, SUITE F",
    "city": "MONTEREY PARK",
    "zip": "91754",
    "county": "LOS ANGELES",
    "phone": "(323) 760-7195",
    "lat": 34.042095,
    "lng": -118.1419965
  },
  {
    "id": "630021843",
    "name": "OGADA HOSPICE CARE, INC.",
    "npi": null,
    "hcaiId": "406196079",
    "businessName": "OGADA HOSPICE CARE, INC.",
    "contactEmail": "OGADAHOSPICECARE@GMAIL.COM",
    "categoryName": "HOSPICE",
    "categoryCode": "HOSPICE",
    "licenseStatus": "ACTIVE",
    "inService": true,
    "licenseNumber": "550007532",
    "licenseEffectiveDate": "12/07/2023",
    "licenseExpirationDate": "12/06/2025",
    "dataDate": "10/18/2025",
    "capacity": 0,
    "address": "1901 S ATLANTIC BLVD, SUITE D",
    "city": "MONTEREY PARK",
    "zip": "91754",
    "county": "LOS ANGELES",
    "phone": "(323) 488-0022",
    "lat": 34.042041,
    "lng": -118.142028
  },
  {
    "id": "930001835",
    "name": "PLAZA SURGICAL MEDICAL CENTER",
    "npi": "1699703991",
    "hcaiId": null,
    "businessName": null,
    "contactEmail": "PLAZASURGERYCTR@HOTMAIL.COM",
    "categoryName": "SURGICAL CLINIC",
    "categoryCode": "ASC",
    "licenseStatus": null,
    "inService": null,
    "licenseNumber": null,
    "licenseEffectiveDate": null,
    "licenseExpirationDate": null,
    "dataDate": "10/18/2025",
    "capacity": 0,
    "address": "850 S ATLANTIC BLVD, SUITE 201",
    "city": "MONTEREY PARK",
    "zip": "91754",
    "county": "LOS ANGELES",
    "phone": "(626) 289-2894",
    "lat": 34.050861,
    "lng": -118.137681
  },
  {
    "id": "630018549",
    "name": "ROSE ROOM HOME HEALTH CARE, INC.",
    "npi": null,
    "hcaiId": "406192963",
    "businessName": "ROSE ROOM HOME HEALTH CARE, INC.",
    "contactEmail": "ROSEROOMHHA@GMAIL.COM",
    "categoryName": "HOME HEALTH AGENCY",
    "categoryCode": "HHA",
    "licenseStatus": "ACTIVE",
    "inService": true,
    "licenseNumber": "550005807",
    "licenseEffectiveDate": "01/10/2025",
    "licenseExpirationDate": "10/01/2025",
    "dataDate": "10/18/2025",
    "capacity": 0,
    "address": "939 S ATLANTIC BLVD, SUITE 209B",
    "city": "MONTEREY PARK",
    "zip": "91754",
    "county": "LOS ANGELES",
    "phone": "(562) 676-4218",
    "lat": 34.04972749,
    "lng": -118.1390993
  },
  {
    "id": "630012699",
    "name": "SPIRITUAL TOUCH HOSPICE, INC.",
    "npi": "1043534746",
    "hcaiId": "406197535",
    "businessName": "SPIRTUAL TOUCH HOSPICE, INC.",
    "contactEmail": "SPIRITUALTOUCHHOSPICE@YAHOO.COM",
    "categoryName": "HOSPICE",
    "categoryCode": "HOSPICE",
    "licenseStatus": "ACTIVE",
    "inService": true,
    "licenseNumber": "550001486",
    "licenseEffectiveDate": "01/10/2023",
    "licenseExpirationDate": "01/09/2025",
    "dataDate": "10/18/2025",
    "capacity": 0,
    "address": "2063 S ATLANTIC BLVD, SUITE 2A",
    "city": "MONTEREY PARK",
    "zip": "91754",
    "county": "LOS ANGELES",
    "phone": "(323) 261-0094",
    "lat": 34.040358,
    "lng": -118.14264
  },
  {
    "id": "630025425",
    "name": "ST. ZACHARIAS HOME HEALTH, INC.",
    "npi": null,
    "hcaiId": null,
    "businessName": "ST. ZACHARIAS HOME HEALTH, INC.",
    "contactEmail": "STZACHARIASHH@GMAIL.COM",
    "categoryName": "HOME HEALTH AGENCY",
    "categoryCode": "HHA",
    "licenseStatus": "ACTIVE",
    "inService": true,
    "licenseNumber": "550009083",
    "licenseEffectiveDate": "03/14/2024",
    "licenseExpirationDate": "09/13/2024",
    "dataDate": "10/18/2025",
    "capacity": 0,
    "address": "660 MONTEREY PASS RD, SUITE 238",
    "city": "MONTEREY PARK",
    "zip": "91754",
    "county": "LOS ANGELES",
    "phone": "(323) 380-3887",
    "lat": 34.053372,
    "lng": -118.150398
  },
  {
    "id": "980002373",
    "name": "SUNRISE HOME CARE SERVICES, INC.",
    "npi": null,
    "hcaiId": "406196989",
    "businessName": "SUNRISE HOME CARE SERVICES, INC.",
    "contactEmail": "NURSEMONAMOLINA@GMAIL.COM",
    "categoryName": "HOME HEALTH AGENCY",
    "categoryCode": "HHA",
    "licenseStatus": "ACTIVE",
    "inService": true,
    "licenseNumber": "980001483",
    "licenseEffectiveDate": "06/01/2025",
    "licenseExpirationDate": "05/31/2026",
    "dataDate": "10/18/2025",
    "capacity": 0,
    "address": "941 S ATLANTIC BLVD, SUITE 222",
    "city": "MONTEREY PARK",
    "zip": "91754",
    "county": "LOS ANGELES",
    "phone": "(626) 289-4200",
    "lat": 34.049304,
    "lng": -118.1394
  },
  {
    "id": "630019723",
    "name": "VIA CARE COMMUNITY HEALTH CENTER",
    "npi": "1497001226",
    "hcaiId": null,
    "businessName": "VIA CARE COMMUNITY HEALTH CENTER, INC.",
    "contactEmail": "DVILLAR@VIACARELA.ORG",
    "categoryName": "PRIMARY CARE CLINIC",
    "categoryCode": "COMTYC",
    "licenseStatus": "ACTIVE",
    "inService": true,
    "licenseNumber": "960001182",
    "licenseEffectiveDate": "11/15/2025",
    "licenseExpirationDate": "11/14/2026",
    "dataDate": "10/18/2025",
    "capacity": 0,
    "address": "1301 AVENIDA CESAR CHAVEZ, BUILDING STUDENT HEALTH CENTER F5-302",
    "city": "MONTEREY PARK",
    "zip": "91754",
    "county": "LOS ANGELES",
    "phone": "(323) 268-9191",
    "lat": 34.040565,
    "lng": -118.149813
  }
]