[
  {
    "id": "630007821",
    "name": "ACES HOME HEALTHCARE SERVICES  INC.",
    "npi": "1063744688",
    "hcaiId": "406364416",
    "businessName": "ACES HOME HEALTHCARE SERVICES, INC.",
    "contactEmail": "IJACKSON@ACES-HEALTHCARE.COM",
    "categoryName": "HOME HEALTH AGENCY",
    "categoryCode": "HHA",
    "licenseStatus": "ACTIVE",
    "inService": true,
    "licenseNumber": "550000443",
    "licenseEffectiveDate": "02/01/2025",
    "licenseExpirationDate": "01/31/2026",
    "dataDate": "10/18/2025",
    "capacity": 0,
    "address": "4959 PALO VERDE ST, SUITE 102B",
    "city": "MONTCLAIR",
    "zip": "91763",
    "county": "SAN BERNARDINO",
    "phone": "(909) 447-4444",
    "lat": 34.080903,
    "lng": -117.6967665
  },
  {
    "id": "630017367",
    "name": "ADVANCED WELLNESS HOME CARE INC.",
    "npi": "1881127215",
    "hcaiId": "406361578",
    "businessName": "ADVANCED WELLNESS HOME CARE INC.",
    "contactEmail": "ADVANCEDWELLNESS@YAHOO.COM",
    "categoryName": "HOME HEALTH AGENCY",
    "categoryCode": "HHA",
    "licenseStatus": "ACTIVE",
    "inService": true,
    "licenseNumber": "550004604",
    "licenseEffectiveDate": "03/14/2025",
    "licenseExpirationDate": "03/13/2026",
    "dataDate": "10/18/2025",
    "capacity": 0,
    "address": "4959 PALO VERDE ST, SUITE 206C-5",
    "city": "MONTCLAIR",
    "zip": "91763",
    "county": "SAN BERNARDINO",
    "phone": "(626) 524-9390",
    "lat": 34.080903,
    "lng": -117.6967665
  },
  {
    "id": "630017077",
    "name": "AEGIS HOSPICE CARE",
    "npi": null,
    "hcaiId": "406361320",
    "businessName": "AEGIS HOSPICE CARE",
    "contactEmail": "INFO@AEGISHOSPICE.CARE",
    "categoryName": "HOSPICE",
    "categoryCode": "HOSPICE",
    "licenseStatus": "ACTIVE",
    "inService": true,
    "licenseNumber": "550004291",
    "licenseEffectiveDate": "06/15/2024",
    "licenseExpirationDate": "06/14/2026",
    "dataDate": "10/18/2025",
    "capacity": 0,
    "address": "4959 PALO VERDE ST, SUITE 206C-4",
    "city": "MONTCLAIR",
    "zip": "91763",
    "county": "SAN BERNARDINO",
    "phone": "(909) 541-5193",
    "lat": 34.080822,
    "lng": -117.696955
  },
  {
    "id": "630016279",
    "name": "AFFECTIVE HOSPICE CARE, INC.",
    "npi": null,
    "hcaiId": "406360650",
    "businessName": "AFFECTIVE HOSPICE CARE, INC.",
    "contactEmail": "INFO@AFFECTIVEHOSPICECARE.COM",
    "categoryName": "HOSPICE",
    "categoryCode": "HOSPICE",
    "licenseStatus": "ACTIVE",
    "inService": true,
    "licenseNumber": "550003337",
    "licenseEffectiveDate": "12/17/2023",
    "licenseExpirationDate": "12/16/2025",
    "dataDate": "10/18/2025",
    "capacity": 0,
    "address": "5050 PALO VERDE ST, SUITE 208",
    "city": "MONTCLAIR",
    "zip": "91763",
    "county": "SAN BERNARDINO",
    "phone": "(909) 962-7488",
    "lat": 34.08173299,
    "lng": -117.695158
  },
  {
    "id": "630018857",
    "name": "AFFIRM HOSPICE CARE, INC.",
    "npi": "1891269445",
    "hcaiId": "406362655",
    "businessName": "AFFIRM HOSPICE CARE, INC.",
    "contactEmail": "AFFIRMHOSPICECARE@GMAIL.COM",
    "categoryName": "HOSPICE",
    "categoryCode": "HOSPICE",
    "licenseStatus": "ACTIVE",
    "inService": true,
    "licenseNumber": "550005048",
    "licenseEffectiveDate": "10/18/2021",
    "licenseExpirationDate": "10/17/2023",
    "dataDate": "10/18/2025",
    "capacity": 0,
    "address": "5050 PALO VERDE ST, SUITE 106",
    "city": "MONTCLAIR",
    "zip": "91763",
    "county": "SAN BERNARDINO",
    "phone": "(909) 475-0767",
    "lat": 34.081731,
    "lng": -117.6951465
  },
  {
    "id": "630016833",
    "name": "ALORIA HEALTHCARE",
    "npi": null,
    "hcaiId": "406361478",
    "businessName": "ALORIA HEALTHCARE",
    "contactEmail": "INFO@ALORIAHC.COM",
    "categoryName": "HOSPICE",
    "categoryCode": "HOSPICE",
    "licenseStatus": "ACTIVE",
    "inService": true,
    "licenseNumber": "550003659",
    "licenseEffectiveDate": "09/22/2024",
    "licenseExpirationDate": "09/21/2026",
    "dataDate": "10/18/2025",
    "capacity": 0,
    "address": "5050 PALO VERDE ST, SUITE 213",
    "city": "MONTCLAIR",
    "zip": "91763",
    "county": "SAN BERNARDINO",
    "phone": "(909) 398-0156",
    "lat": 34.08173299,
    "lng": -117.695158
  },
  {
    "id": "630015332",
    "name": "ANGEL OF JOY HOSPICE INC.",
    "npi": null,
    "hcaiId": "406364538",
    "businessName": "ANGEL OF JOY HOSPICE, INC.",
    "contactEmail": "ANGELOFJOYHOSPICEINC@GMAIL.COM",
    "categoryName": "HOSPICE",
    "categoryCode": "HOSPICE",
    "licenseStatus": "ACTIVE",
    "inService": true,
    "licenseNumber": "550002961",
    "licenseEffectiveDate": "12/30/2024",
    "licenseExpirationDate": "12/29/2026",
    "dataDate": "10/18/2025",
    "capacity": 0,
    "address": "4702 BROOKS ST",
    "city": "MONTCLAIR",
    "zip": "91763",
    "county": "SAN BERNARDINO",
    "phone": "(909) 626-3137",
    "lat": 34.06154699,
    "lng": -117.702351
  },
  {
    "id": "630000621",
    "name": "ANGELS ON EARTH HOME HEALTH, INC.",
    "npi": "1427150978",
    "hcaiId": "406364377",
    "businessName": "ANGELS ON EARTH HOME HEALTH, INC.",
    "contactEmail": "ANGELSONEARTHHH@YAHOO.COM",
    "categoryName": "HOME HEALTH AGENCY",
    "categoryCode": "HHA",
    "licenseStatus": "ACTIVE",
    "inService": true,
    "licenseNumber": "550000773",
    "licenseEffectiveDate": "08/18/2023",
    "licenseExpirationDate": "08/17/2024",
    "dataDate": "10/18/2025",
    "capacity": 0,
    "address": "4959 PALO VERDE ST, SUITE 201A",
    "city": "MONTCLAIR",
    "zip": "91763",
    "county": "SAN BERNARDINO",
    "phone": "(909) 447-4615",
    "lat": 34.080903,
    "lng": -117.6967665
  },
  {
    "id": "630013449",
    "name": "ANGELS ON EARTH HOSPICE",
    "npi": "1093082281",
    "hcaiId": "406364444",
    "businessName": "ANGELS ON EARTH HOSPICE",
    "contactEmail": "SYLVIEBOAL@REDCUBEMGMT.COM",
    "categoryName": "HOSPICE",
    "categoryCode": "HOSPICE",
    "licenseStatus": "ACTIVE",
    "inService": true,
    "licenseNumber": "550001868",
    "licenseEffectiveDate": "01/24/2025",
    "licenseExpirationDate": "02/27/2026",
    "dataDate": "10/18/2025",
    "capacity": 0,
    "address": "4959 PALO VERDE ST, SUITE 202-A",
    "city": "MONTCLAIR",
    "zip": "91763",
    "county": "SAN BERNARDINO",
    "phone": "(909) 626-8802",
    "lat": 34.080903,
    "lng": -117.6967665
  },
  {
    "id": "630025874",
    "name": "BEST SERENE HOME HEALTH INC",
    "npi": null,
    "hcaiId": "406360024",
    "businessName": "BEST SERENE HOME HEALTH INC",
    "contactEmail": "BESTSERENEHOME@GMAIL.COM",
    "categoryName": "HOME HEALTH AGENCY",
    "categoryCode": "HHA",
    "licenseStatus": "ACTIVE",
    "inService": true,
    "licenseNumber": "550009028",
    "licenseEffectiveDate": "03/14/2025",
    "licenseExpirationDate": "03/13/2026",
    "dataDate": "10/18/2025",
    "capacity": 0,
    "address": "4959 PALO VERDE ST, SUITE 206A-1",
    "city": "MONTCLAIR",
    "zip": "91763",
    "county": "SAN BERNARDINO",
    "phone": "(909) 681-6180",
    "lat": 34.080903,
    "lng": -117.6967665
  },
  {
    "id": "630014343",
    "name": "BEYOND HOSPICE CARE",
    "npi": null,
    "hcaiId": "406364477",
    "businessName": "ONORIA HOSPICE AND PALLIATIVE CARE",
    "contactEmail": "ONORIAHOSPICE@GMAIL.COM",
    "categoryName": "HOSPICE",
    "categoryCode": "HOSPICE",
    "licenseStatus": "ACTIVE",
    "inService": true,
    "licenseNumber": "550002284",
    "licenseEffectiveDate": "02/13/2025",
    "licenseExpirationDate": "02/12/2027",
    "dataDate": "10/18/2025",
    "capacity": 0,
    "address": "5050 PALO VERDE ST, SUITE 202",
    "city": "MONTCLAIR",
    "zip": "91763",
    "county": "SAN BERNARDINO",
    "phone": "(562) 383-3538",
    "lat": 34.081731,
    "lng": -117.6951465
  },
  {
    "id": "630019461",
    "name": "BRIGHTLANE HEALTHCARE, INC.",
    "npi": null,
    "hcaiId": "406363123",
    "businessName": "BRIGHTLANE HEALTHCARE, INC.",
    "contactEmail": "INFO@BRIGHTLANE.ORG",
    "categoryName": "HOME HEALTH AGENCY",
    "categoryCode": "HHA",
    "licenseStatus": "ACTIVE",
    "inService": true,
    "licenseNumber": "550006047",
    "licenseEffectiveDate": "02/20/2025",
    "licenseExpirationDate": "02/19/2026",
    "dataDate": "10/18/2025",
    "capacity": 0,
    "address": "5050 PALO VERDE ST, SUITE 212",
    "city": "MONTCLAIR",
    "zip": "91763",
    "county": "SAN BERNARDINO",
    "phone": "(909) 529-8247",
    "lat": 34.081731,
    "lng": -117.6951465
  },
  {
    "id": "630019218",
    "name": "CALPRO CARE HOME HEALTH",
    "npi": "1811542194",
    "hcaiId": "406362726",
    "businessName": "CALIFORNIA PROFESSIONAL CARE",
    "contactEmail": "HAZEL.GALVEZ@CALPROCARE.COM",
    "categoryName": "HOME HEALTH AGENCY",
    "categoryCode": "HHA",
    "licenseStatus": "ACTIVE",
    "inService": true,
    "licenseNumber": "550005563",
    "licenseEffectiveDate": "07/16/2025",
    "licenseExpirationDate": "07/15/2026",
    "dataDate": "10/18/2025",
    "capacity": 0,
    "address": "4959 PALO VERDE ST, SUITE 100A-3",
    "city": "MONTCLAIR",
    "zip": "91763",
    "county": "SAN BERNARDINO",
    "phone": "(909) 624-3339",
    "lat": 34.080903,
    "lng": -117.6967665
  },
  {
    "id": "630016519",
    "name": "CALSTRO HOSPICE INC.",
    "npi": "1245603109",
    "hcaiId": "406360951",
    "businessName": "CALSTRO HOSPICE INC.",
    "contactEmail": "STEPHANIE.GILES@CALSTROHOSPICE.COM",
    "categoryName": "HOSPICE",
    "categoryCode": "HOSPICE",
    "licenseStatus": "ACTIVE",
    "inService": true,
    "licenseNumber": "550003508",
    "licenseEffectiveDate": "05/02/2024",
    "licenseExpirationDate": "05/01/2026",
    "dataDate": "10/18/2025",
    "capacity": 0,
    "address": "4959 PALO VERDE STREET, SUITE 108B",
    "city": "MONTCLAIR",
    "zip": "91763",
    "county": "SAN BERNARDINO",
    "phone": "(909) 399-0700",
    "lat": 34.080903,
    "lng": -117.6967665
  },
  {
    "id": "630015726",
    "name": "CINTA HOSPICE CARE, INC.",
    "npi": null,
    "hcaiId": "406364527",
    "businessName": "CINTA HOSPICE CARE, INC.",
    "contactEmail": "SUPPORT@CINTACARE.ORG",
    "categoryName": "HOSPICE",
    "categoryCode": "HOSPICE",
    "licenseStatus": "ACTIVE",
    "inService": true,
    "licenseNumber": "550002978",
    "licenseEffectiveDate": "02/09/2025",
    "licenseExpirationDate": "02/08/2027",
    "dataDate": "10/18/2025",
    "capacity": 0,
    "address": "5050 PALO VERDE, SUITE 101",
    "city": "MONTCLAIR",
    "zip": "91763",
    "county": "SAN BERNARDINO",
    "phone": "(909) 625-5518",
    "lat": 34.081731,
    "lng": -117.6951465
  },
  {
    "id": "630016967",
    "name": "CITADEL HOSPICE INC.",
    "npi": "1205383932",
    "hcaiId": "406361286",
    "businessName": "CITADEL HOSPICE INC.",
    "contactEmail": "CITADELHOSPICE@GMAIL.COM",
    "categoryName": "HOSPICE",
    "categoryCode": "HOSPICE",
    "licenseStatus": "ACTIVE",
    "inService": true,
    "licenseNumber": "550004278",
    "licenseEffectiveDate": "05/06/2024",
    "licenseExpirationDate": "03/22/2026",
    "dataDate": "10/18/2025",
    "capacity": 0,
    "address": "5050 PALO VERDE ST, SUITE 122",
    "city": "MONTCLAIR",
    "zip": "91763",
    "county": "SAN BERNARDINO",
    "phone": "(909) 677-8502",
    "lat": 34.081731,
    "lng": -117.6951465
  },
  {
    "id": "630014237",
    "name": "CITI CARE CORPORATION",
    "npi": "1104260512",
    "hcaiId": "406364594",
    "businessName": "CITI CARE CORPORATION",
    "contactEmail": "ADMIN@CITICAREHOSPICE.COM",
    "categoryName": "HOSPICE",
    "categoryCode": "HOSPICE",
    "licenseStatus": "ACTIVE",
    "inService": true,
    "licenseNumber": "550003218",
    "licenseEffectiveDate": "08/27/2023",
    "licenseExpirationDate": "08/26/2025",
    "dataDate": "10/18/2025",
    "capacity": 0,
    "address": "5050 PALO VERDE ST, SUITE 204",
    "city": "MONTCLAIR",
    "zip": "91763",
    "county": "SAN BERNARDINO",
    "phone": "(909) 399-5004",
    "lat": 34.081731,
    "lng": -117.6951465
  },
  {
    "id": "240000993",
    "name": "COLUMBINE HOUSE",
    "npi": "1649422080",
    "hcaiId": null,
    "businessName": "MONTE VISTA CHILD CARE CENTER, INC.",
    "contactEmail": "DEISYMENDOZA@MONTEVISTACHILDCARECENTER.COM",
    "categoryName": "INTERMEDIATE CARE FACILITY-DD/H/N/CN/IID",
    "categoryCode": "ICFDDN",
    "licenseStatus": "ACTIVE",
    "inService": true,
    "licenseNumber": "240000422",
    "licenseEffectiveDate": "04/03/2025",
    "licenseExpirationDate": "04/02/2026",
    "dataDate": "10/18/2025",
    "capacity": 6,
    "address": "9420 COLUMBINE AVE",
    "city": "MONTCLAIR",
    "zip": "91763",
    "county": "SAN BERNARDINO",
    "phone": "(909) 827-0654",
    "lat": 34.08291,
    "lng": -117.6867945
  },
  {
    "id": "240000287",
    "name": "COMMUNITY EXTENDED CARE HOSPITAL OF MONTCLAIR",
    "npi": "1851388458",
    "hcaiId": "206361350",
    "businessName": "COMMUNITY CONVALESCENT CENTER OF MONTCLAIR, INC.",
    "contactEmail": "RODOLFOC@COMMUNITYECH.COM",
    "categoryName": "SKILLED NURSING FACILITY",
    "categoryCode": "SNF",
    "licenseStatus": "ACTIVE",
    "inService": true,
    "licenseNumber": "240000243",
    "licenseEffectiveDate": "11/01/2025",
    "licenseExpirationDate": "10/31/2026",
    "dataDate": "10/18/2025",
    "capacity": 140,
    "address": "9620 FREMONT AVE",
    "city": "MONTCLAIR",
    "zip": "91763",
    "county": "SAN BERNARDINO",
    "phone": "(562) 930-0777",
    "lat": 34.079076,
    "lng": -117.694512
  },
  {
    "id": "630018619",
    "name": "DIGNITY ADULT DAY HEALTH CARE CENTER",
    "npi": null,
    "hcaiId": null,
    "businessName": "DIGNITY ADULT DAY HEALTH CARE CENTER",
    "contactEmail": "ADMIN@DIGNITYADHCC.COM",
    "categoryName": "ADULT DAY HEALTH CARE",
    "categoryCode": "ADHC",
    "licenseStatus": "ACTIVE",
    "inService": true,
    "licenseNumber": "550004859",
    "licenseEffectiveDate": "08/06/2025",
    "licenseExpirationDate": "08/05/2026",
    "dataDate": "10/18/2025",
    "capacity": 0,
    "address": "4110 HOLT BLVD",
    "city": "MONTCLAIR",
    "zip": "91763",
    "county": "SAN BERNARDINO",
    "phone": "(909) 447-1313",
    "lat": 34.063569,
    "lng": -117.715473
  },
  {
    "id": "630017523",
    "name": "DIVINE ANGELS HOSPICE",
    "npi": "1992232953",
    "hcaiId": "406362629",
    "businessName": "DIVINE ANGELS HOSPICE",
    "contactEmail": "DIVINEANGELSHOSPICE@GMAIL.COM",
    "categoryName": "HOSPICE",
    "categoryCode": "HOSPICE",
    "licenseStatus": "ACTIVE",
    "inService": true,
    "licenseNumber": "550004557",
    "licenseEffectiveDate": "01/24/2025",
    "licenseExpirationDate": "01/23/2027",
    "dataDate": "10/18/2025",
    "capacity": 0,
    "address": "4712 BROOKS ST",
    "city": "MONTCLAIR",
    "zip": "91763",
    "county": "SAN BERNARDINO",
    "phone": "(909) 399-3323",
    "lat": 34.06154699,
    "lng": -117.7022001
  },
  {
    "id": "630020362",
    "name": "FAITH, HOPE & LOVE HOSPICE CARE, INC",
    "npi": "1518599299",
    "hcaiId": "406364773",
    "businessName": "FAITH, HOPE & LOVE HOSPICE CARE, INC.",
    "contactEmail": "FAITHHOPEANDLOVEHC@GMAIL.COM",
    "categoryName": "HOSPICE",
    "categoryCode": "HOSPICE",
    "licenseStatus": "ACTIVE",
    "inService": true,
    "licenseNumber": "550005913",
    "licenseEffectiveDate": "12/11/2024",
    "licenseExpirationDate": "12/10/2026",
    "dataDate": "10/18/2025",
    "capacity": 0,
    "address": "4959 PALO VERDE ST, SUITE 201B-1",
    "city": "MONTCLAIR",
    "zip": "91763",
    "county": "SAN BERNARDINO",
    "phone": "(442) 888-5505",
    "lat": 34.080903,
    "lng": -117.6967665
  },
  {
    "id": "630017081",
    "name": "FAUNA HOUSE",
    "npi": "1164964383",
    "hcaiId": null,
    "businessName": "JANET'S ENTERPRISE, INC.",
    "contactEmail": "JANET@JANETSENTERPRISE.COM",
    "categoryName": "INTERMEDIATE CARE FACILITY-DD/H/N/CN/IID",
    "categoryCode": "ICFDDH",
    "licenseStatus": "ACTIVE",
    "inService": true,
    "licenseNumber": "550004078",
    "licenseEffectiveDate": "05/27/2025",
    "licenseExpirationDate": "11/29/2025",
    "dataDate": "10/18/2025",
    "capacity": 8,
    "address": "4440 FAUNA ST.",
    "city": "MONTCLAIR",
    "zip": "91763",
    "county": "SAN BERNARDINO",
    "phone": "(951) 545-4462",
    "lat": 34.069824,
    "lng": -117.7084125
  },
  {
    "id": "630020436",
    "name": "HOSPICE OF OMEGA, INC",
    "npi": null,
    "hcaiId": "406364794",
    "businessName": "HOSPICE OF OMEGA, INC.",
    "contactEmail": "HOSPICEOFOMEGA@GMAIL.COM",
    "categoryName": "HOSPICE",
    "categoryCode": "HOSPICE",
    "licenseStatus": "ACTIVE",
    "inService": true,
    "licenseNumber": "550006341",
    "licenseEffectiveDate": "04/29/2025",
    "licenseExpirationDate": "04/28/2027",
    "dataDate": "10/18/2025",
    "capacity": 0,
    "address": "4700 BROOKS ST",
    "city": "MONTCLAIR",
    "zip": "91763",
    "county": "SAN BERNARDINO",
    "phone": "(909) 271-7643",
    "lat": 34.06154699,
    "lng": -117.7023812
  },
  {
    "id": "630003801",
    "name": "INLAND VALLEY HOME HEALTH AGENCY",
    "npi": "1033301270",
    "hcaiId": "406364356",
    "businessName": "VISION 6 CORPORATION",
    "contactEmail": "JUSTIN@INLANDVALLEYHOMEHEALTH.COM",
    "categoryName": "HOME HEALTH AGENCY",
    "categoryCode": "HHA",
    "licenseStatus": "ACTIVE",
    "inService": true,
    "licenseNumber": "550000537",
    "licenseEffectiveDate": "12/18/2024",
    "licenseExpirationDate": "12/17/2025",
    "dataDate": "10/18/2025",
    "capacity": 0,
    "address": "5050 PALO VERDE ST, SUITE 209",
    "city": "MONTCLAIR",
    "zip": "91763",
    "county": "SAN BERNARDINO",
    "phone": "(909) 626-8221",
    "lat": 34.081731,
    "lng": -117.6951465
  },
  {
    "id": "630019789",
    "name": "JEM CARE HOSPICE",
    "npi": "1760022016",
    "hcaiId": "406366082",
    "businessName": "JEM CARE HOSPICE",
    "contactEmail": "JEMCAREHOSPICE@GMAIL.COM",
    "categoryName": "HOSPICE",
    "categoryCode": "HOSPICE",
    "licenseStatus": "ACTIVE",
    "inService": true,
    "licenseNumber": "550005940",
    "licenseEffectiveDate": "12/18/2022",
    "licenseExpirationDate": "12/17/2024",
    "dataDate": "10/18/2025",
    "capacity": 0,
    "address": "4959 PALO VERDE ST, UNIT 206A-3",
    "city": "MONTCLAIR",
    "zip": "91763",
    "county": "SAN BERNARDINO",
    "phone": "(909) 236-5579",
    "lat": 34.080903,
    "lng": -117.6967665
  },
  {
    "id": "630017857",
    "name": "KATTLEYA HOSPICE AND PALLIATIVE CARE, INC.",
    "npi": null,
    "hcaiId": "406361929",
    "businessName": "KATTLEYA HOSPICE AND PALLIATIVE CARE, INC.",
    "contactEmail": "CESAR@KATTLEYAHOSPICECAREUS.COM",
    "categoryName": "HOSPICE",
    "categoryCode": "HOSPICE",
    "licenseStatus": "ACTIVE",
    "inService": true,
    "licenseNumber": "550004950",
    "licenseEffectiveDate": "07/25/2025",
    "licenseExpirationDate": "07/24/2027",
    "dataDate": "10/18/2025",
    "capacity": 0,
    "address": "4959 PALO VERDE ST, SUITE 106-B",
    "city": "MONTCLAIR",
    "zip": "91763",
    "county": "SAN BERNARDINO",
    "phone": "(909) 528-1110",
    "lat": 34.080903,
    "lng": -117.6967665
  },
  {
    "id": "630020193",
    "name": "LADY OF JOY HOSPICE, INC.",
    "npi": null,
    "hcaiId": "406364665",
    "businessName": "LADY OF JOY HOSPICE, INC.",
    "contactEmail": "LOJHOSPICE@GMAIL.COM",
    "categoryName": "HOSPICE",
    "categoryCode": "HOSPICE",
    "licenseStatus": "ACTIVE",
    "inService": true,
    "licenseNumber": "550005978",
    "licenseEffectiveDate": "11/05/2024",
    "licenseExpirationDate": "11/04/2026",
    "dataDate": "10/18/2025",
    "capacity": 0,
    "address": "4959 PALO VERDE ST, SUITE 204A AND 205A",
    "city": "MONTCLAIR",
    "zip": "91763",
    "county": "SAN BERNARDINO",
    "phone": "(909) 222-6960",
    "lat": 34.080903,
    "lng": -117.6967665
  },
  {
    "id": "630020605",
    "name": "LIVING ANGELS HOSPICE CARE",
    "npi": "1376160358",
    "hcaiId": "406364664",
    "businessName": "LIVING ANGELS HOSPICE CARE",
    "contactEmail": "HERMIE.LIVINGANGELS@GMAIL.COM",
    "categoryName": "HOSPICE",
    "categoryCode": "HOSPICE",
    "licenseStatus": "ACTIVE",
    "inService": true,
    "licenseNumber": "550006127",
    "licenseEffectiveDate": "03/01/2025",
    "licenseExpirationDate": "02/28/2027",
    "dataDate": "10/18/2025",
    "capacity": 0,
    "address": "4959 PALO VERDE ST, SUITE 208C-1",
    "city": "MONTCLAIR",
    "zip": "91763",
    "county": "SAN BERNARDINO",
    "phone": "(909) 675-7055",
    "lat": 34.080903,
    "lng": -117.6967665
  },
  {
    "id": "630022147",
    "name": "LONG LIFE HOSPICE INC.",
    "npi": null,
    "hcaiId": "406193865",
    "businessName": "LONG LIFE HOSPICE INC.",
    "contactEmail": "LONGLIFEHOSPICEINC@GMAIL.COM",
    "categoryName": "HOSPICE",
    "categoryCode": "HOSPICE",
    "licenseStatus": "ACTIVE",
    "inService": true,
    "licenseNumber": "550007296",
    "licenseEffectiveDate": "09/24/2024",
    "licenseExpirationDate": "11/22/2025",
    "dataDate": "10/18/2025",
    "capacity": 0,
    "address": "4959 PALO VERDE ST, SUITE 206A-4",
    "city": "MONTCLAIR",
    "zip": "91763",
    "county": "SAN BERNARDINO",
    "phone": "(909) 681-6180",
    "lat": 34.080807,
    "lng": -117.696615
  },
  {
    "id": "630026832",
    "name": "MANNA ADHC CBAS",
    "npi": null,
    "hcaiId": null,
    "businessName": "MANNA HEALTHCARE INC",
    "contactEmail": "MANNACBAS@GMAIL.COM",
    "categoryName": "ADULT DAY HEALTH CARE",
    "categoryCode": "ADHC",
    "licenseStatus": "ACTIVE",
    "inService": true,
    "licenseNumber": "550008576",
    "licenseEffectiveDate": "06/25/2025",
    "licenseExpirationDate": "05/14/2026",
    "dataDate": "10/18/2025",
    "capacity": 0,
    "address": "10144 CENTRAL AVE",
    "city": "MONTCLAIR",
    "zip": "91763",
    "county": "SAN BERNARDINO",
    "phone": "(909) 520-4755",
    "lat": 34.06961144,
    "lng": -117.6896869
  },
  {
    "id": "630018326",
    "name": "MARY OF JOY HOSPICE, INC.",
    "npi": null,
    "hcaiId": "406361807",
    "businessName": "MARY OF JOY HOSPICE, INC.",
    "contactEmail": "MOJHOSPICE@GMAIL.COM",
    "categoryName": "HOSPICE",
    "categoryCode": "HOSPICE",
    "licenseStatus": "ACTIVE",
    "inService": true,
    "licenseNumber": "550004763",
    "licenseEffectiveDate": "06/20/2025",
    "licenseExpirationDate": "06/19/2027",
    "dataDate": "10/18/2025",
    "capacity": 0,
    "address": "4706 BROOKS ST",
    "city": "MONTCLAIR",
    "zip": "91763",
    "county": "SAN BERNARDINO",
    "phone": "(909) 447-4440",
    "lat": 34.06154699,
    "lng": -117.7022906
  },
  {
    "id": "630000821",
    "name": "METRO CARE HOME HEALTH SERVICES INC.",
    "npi": "1073712097",
    "hcaiId": "406364320",
    "businessName": "METRO CARE HOME HEALTH SERVICES, INC",
    "contactEmail": "MCAREHH@GMAIL.COM",
    "categoryName": "HOME HEALTH AGENCY",
    "categoryCode": "HHA",
    "licenseStatus": "ACTIVE",
    "inService": true,
    "licenseNumber": "550000203",
    "licenseEffectiveDate": "04/14/2025",
    "licenseExpirationDate": "04/13/2026",
    "dataDate": "10/18/2025",
    "capacity": 0,
    "address": "4959 PALO VERDE STREET, SUITE 104A",
    "city": "MONTCLAIR",
    "zip": "91763",
    "county": "SAN BERNARDINO",
    "phone": "(909) 447-1000",
    "lat": 34.080903,
    "lng": -117.6967665
  },
  {
    "id": "630019639",
    "name": "MONTCLAIR COMMUNITY HEALTH CENTER",
    "npi": null,
    "hcaiId": null,
    "businessName": "HEALTH SERVICE ALLIANCE",
    "contactEmail": null,
    "categoryName": "PRIMARY CARE CLINIC",
    "categoryCode": "COMTYC",
    "licenseStatus": "ACTIVE",
    "inService": true,
    "licenseNumber": "550004600",
    "licenseEffectiveDate": "12/20/2024",
    "licenseExpirationDate": "12/19/2025",
    "dataDate": "10/18/2025",
    "capacity": 0,
    "address": "5050 SAN BERNARDINO ST",
    "city": "MONTCLAIR",
    "zip": "91763",
    "county": "SAN BERNARDINO",
    "phone": "(909) 281-5800",
    "lat": 34.078221,
    "lng": -117.6945075
  },
  {
    "id": "240001579",
    "name": "MONTCLAIR DIALYSIS CENTER",
    "npi": "1992768329",
    "hcaiId": "306364521",
    "businessName": "TOTAL RENAL CARE, INC.",
    "contactEmail": "CAL_C@DAVITA.COM",
    "categoryName": "CHRONIC DIALYSIS CLINIC",
    "categoryCode": "ESRD/CDC",
    "licenseStatus": "ACTIVE",
    "inService": true,
    "licenseNumber": "240000695",
    "licenseEffectiveDate": "02/17/2025",
    "licenseExpirationDate": "02/16/2026",
    "dataDate": "10/18/2025",
    "capacity": 28,
    "address": "9142 MONTE VISTA AVE",
    "city": "MONTCLAIR",
    "zip": "91763",
    "county": "SAN BERNARDINO",
    "phone": "(909) 626-6505",
    "lat": 34.08853402,
    "lng": -117.698464
  },
  {
    "id": "630020481",
    "name": "MONTCLAIR HORIZON HOSPICE INC",
    "npi": "1134687833",
    "hcaiId": "406363633",
    "businessName": "MONTCLAIR HORIZON HOSPICE INC",
    "contactEmail": "HORIZONHOSPICE2019@YAHOO.COM",
    "categoryName": "HOSPICE",
    "categoryCode": "HOSPICE",
    "licenseStatus": "ACTIVE",
    "inService": true,
    "licenseNumber": "550006488",
    "licenseEffectiveDate": "06/14/2025",
    "licenseExpirationDate": "06/13/2027",
    "dataDate": "10/18/2025",
    "capacity": 0,
    "address": "4708 BROOKS ST",
    "city": "MONTCLAIR",
    "zip": "91763",
    "county": "SAN BERNARDINO",
    "phone": "(818) 267-8599",
    "lat": 34.06154699,
    "lng": -117.7022604
  },
  {
    "id": "240000009",
    "name": "MONTCLAIR HOSPITAL MEDICAL CENTER",
    "npi": "1992721161",
    "hcaiId": "106361166",
    "businessName": "PRIME HEALTHCARE SERVICES - MONTCLAIR, LLC",
    "contactEmail": "GAVIADO@PRIMEHEALTHCARE.COM",
    "categoryName": "GENERAL ACUTE CARE HOSPITAL",
    "categoryCode": "GACH",
    "licenseStatus": "ACTIVE",
    "inService": true,
    "licenseNumber": "240000141",
    "licenseEffectiveDate": "11/06/2024",
    "licenseExpirationDate": "11/05/2025",
    "dataDate": "10/18/2025",
    "capacity": 106,
    "address": "5000 SAN BERNARDINO ST",
    "city": "MONTCLAIR",
    "zip": "91763",
    "county": "SAN BERNARDINO",
    "phone": "(909) 625-5411",
    "lat": 34.078707,
    "lng": -117.6957945
  },
  {
    "id": "240000085",
    "name": "MONTCLAIR MANOR CARE CENTER",
    "npi": "1689661357",
    "hcaiId": "206361265",
    "businessName": "MONTCLAIR MANOR CARE CENTER, LLC",
    "contactEmail": "ADMIN@MONTCLAIRMANOR.COM",
    "categoryName": "SKILLED NURSING FACILITY",
    "categoryCode": "SNF",
    "licenseStatus": "ACTIVE",
    "inService": true,
    "licenseNumber": "240000175",
    "licenseEffectiveDate": "04/25/2025",
    "licenseExpirationDate": "04/24/2026",
    "dataDate": "10/18/2025",
    "capacity": 59,
    "address": "5119 BANDERA ST",
    "city": "MONTCLAIR",
    "zip": "91763",
    "county": "SAN BERNARDINO",
    "phone": "(909) 626-1294",
    "lat": 34.064469,
    "lng": -117.6938145
  },
  {
    "id": "630014429",
    "name": "MONZONES HOSPICE CARE, LLC",
    "npi": "1255761508",
    "hcaiId": "406361300",
    "businessName": "MONZONES HOSPICE CARE, LLC",
    "contactEmail": "MONZONESHOSPICE@GMAIL.COM",
    "categoryName": "HOSPICE",
    "categoryCode": "HOSPICE",
    "licenseStatus": "ACTIVE",
    "inService": true,
    "licenseNumber": "550002604",
    "licenseEffectiveDate": "02/12/2022",
    "licenseExpirationDate": "02/11/2024",
    "dataDate": "10/18/2025",
    "capacity": 0,
    "address": "4959 PALO VERDE ST, SUITE 200A",
    "city": "MONTCLAIR",
    "zip": "91763",
    "county": "SAN BERNARDINO",
    "phone": "(909) 624-5146",
    "lat": 34.080903,
    "lng": -117.6967665
  },
  {
    "id": "630026800",
    "name": "NEW WAY OF LIVING HOME HEALTH, INC.",
    "npi": null,
    "hcaiId": null,
    "businessName": "NEW WAY OF LIVING HOME HEALTH, INC.",
    "contactEmail": "NEWWAYLIVINGHOMEHEALTH@GMAIL.COM",
    "categoryName": "HOME HEALTH AGENCY",
    "categoryCode": "HHA",
    "licenseStatus": "ACTIVE",
    "inService": true,
    "licenseNumber": "550009755",
    "licenseEffectiveDate": "08/24/2025",
    "licenseExpirationDate": "02/23/2026",
    "dataDate": "10/18/2025",
    "capacity": 0,
    "address": "4959 PALO VERDE ST, SUITE 200C-4",
    "city": "MONTCLAIR",
    "zip": "91763",
    "county": "SAN BERNARDINO",
    "phone": "(909) 906-3960",
    "lat": 34.080903,
    "lng": -117.6967665
  },
  {
    "id": "630013792",
    "name": "ONORIA HEALTH CARE PROVIDER INC. HOME HEALTH AND HOSPICE",
    "npi": "1972864981",
    "hcaiId": "406364474",
    "businessName": "ONORIA HEALTH CARE PROVIDER INC. HOME HEALTH & HOSPICE SERVICES",
    "contactEmail": "INFO@ONORIA.ORG",
    "categoryName": "HOME HEALTH AGENCY",
    "categoryCode": "HHA",
    "licenseStatus": "ACTIVE",
    "inService": true,
    "licenseNumber": "550002117",
    "licenseEffectiveDate": "10/12/2025",
    "licenseExpirationDate": "10/11/2026",
    "dataDate": "10/18/2025",
    "capacity": 0,
    "address": "5050 PALO VERDE ST, SUITE 119",
    "city": "MONTCLAIR",
    "zip": "91763",
    "county": "SAN BERNARDINO",
    "phone": "(909) 626-2859",
    "lat": 34.081731,
    "lng": -117.6951465
  },
  {
    "id": "630015433",
    "name": "OXFORD HOSPICE CARE, INC.",
    "npi": null,
    "hcaiId": "406364574",
    "businessName": "OXFORD HOSPICE CARE, INC.",
    "contactEmail": "OXFORDHOSPICECARE@YAHOO.COM",
    "categoryName": "HOSPICE",
    "categoryCode": "HOSPICE",
    "licenseStatus": "ACTIVE",
    "inService": true,
    "licenseNumber": "550002964",
    "licenseEffectiveDate": "12/01/2024",
    "licenseExpirationDate": "11/30/2026",
    "dataDate": "10/18/2025",
    "capacity": 0,
    "address": "4650 ARROW HIGHWAY, SUITE F3",
    "city": "MONTCLAIR",
    "zip": "91763",
    "county": "SAN BERNARDINO",
    "phone": "(909) 474-7105",
    "lat": 34.093233,
    "lng": -117.703683
  },
  {
    "id": "630019927",
    "name": "PARKTREE COMMUNITY HEALTH CENTER",
    "npi": "1154788560",
    "hcaiId": null,
    "businessName": "POMONA COMMUNITY HEALTH CENTER",
    "contactEmail": "ELLEN.SILVER@PARKTREECHC.ORG",
    "categoryName": "PRIMARY CARE CLINIC",
    "categoryCode": "COMTYC",
    "licenseStatus": "ACTIVE",
    "inService": true,
    "licenseNumber": "240000826",
    "licenseEffectiveDate": "08/16/2025",
    "licenseExpirationDate": "08/15/2026",
    "dataDate": "10/18/2025",
    "capacity": 0,
    "address": "5625 KINGSLEY ST, ROOM P18",
    "city": "MONTCLAIR",
    "zip": "91763",
    "county": "SAN BERNARDINO",
    "phone": "(909) 630-7927",
    "lat": 34.06667698,
    "lng": -117.6824013
  },
  {
    "id": "630019936",
    "name": "PARKTREE COMMUNITY HEALTH CENTER",
    "npi": "1154788560",
    "hcaiId": null,
    "businessName": "POMONA COMMUNITY HEALTH CENTER",
    "contactEmail": "ELLEN.SILVER@PARKTREECHC.ORG",
    "categoryName": "PRIMARY CARE CLINIC",
    "categoryCode": "COMTYC",
    "licenseStatus": "ACTIVE",
    "inService": true,
    "licenseNumber": "240000826",
    "licenseEffectiveDate": "08/16/2025",
    "licenseExpirationDate": "08/15/2026",
    "dataDate": "10/18/2025",
    "capacity": 0,
    "address": "4900 ORCHARD ST, ROOM F1",
    "city": "MONTCLAIR",
    "zip": "91763",
    "county": "SAN BERNARDINO",
    "phone": "(909) 630-7927",
    "lat": 34.07044226,
    "lng": -117.6982322
  },
  {
    "id": "630019937",
    "name": "PARKTREE COMMUNITY HEALTH CENTER",
    "npi": "1154788560",
    "hcaiId": null,
    "businessName": "POMONA COMMUNITY HEALTH CENTER",
    "contactEmail": "ELLEN.SILVER@PARKTREECHC.ORG",
    "categoryName": "PRIMARY CARE CLINIC",
    "categoryCode": "COMTYC",
    "licenseStatus": "ACTIVE",
    "inService": true,
    "licenseNumber": "240000826",
    "licenseEffectiveDate": "08/16/2025",
    "licenseExpirationDate": "08/15/2026",
    "dataDate": "10/18/2025",
    "capacity": 0,
    "address": "4650 HOWARD ST, ROOM 18",
    "city": "MONTCLAIR",
    "zip": "91763",
    "county": "SAN BERNARDINO",
    "phone": "(909) 630-7927",
    "lat": 34.05222297,
    "lng": -117.7036425
  },
  {
    "id": "630020641",
    "name": "PINNACLE CARE HOSPICE, INC.",
    "npi": null,
    "hcaiId": "406193635",
    "businessName": "PINNACLE CARE HOSPICE, INC",
    "contactEmail": "PINNACLECAREHOSPICE@GMAIL.COM",
    "categoryName": "HOSPICE",
    "categoryCode": "HOSPICE",
    "licenseStatus": "ACTIVE",
    "inService": true,
    "licenseNumber": "550006469",
    "licenseEffectiveDate": "06/16/2025",
    "licenseExpirationDate": "06/15/2027",
    "dataDate": "10/18/2025",
    "capacity": 0,
    "address": "4959 PALO VERDE ST, SUITE 101B",
    "city": "MONTCLAIR",
    "zip": "91763",
    "county": "SAN BERNARDINO",
    "phone": "(818) 839-8797",
    "lat": 34.080807,
    "lng": -117.696615
  },
  {
    "id": "240001763",
    "name": "PRIORITY ONE HOME HEALTH SERVICES INC",
    "npi": "1083609853",
    "hcaiId": "406364245",
    "businessName": "PRIORITY ONE HOME HEALTH SERVICES, INC.",
    "contactEmail": "POHHSI@GMAIL.COM",
    "categoryName": "HOME HEALTH AGENCY",
    "categoryCode": "HHA",
    "licenseStatus": "ACTIVE",
    "inService": true,
    "licenseNumber": "240000768",
    "licenseEffectiveDate": "11/01/2025",
    "licenseExpirationDate": "10/31/2026",
    "dataDate": "10/18/2025",
    "capacity": 0,
    "address": "4959 PALO VERDE ST, SUITE 108C",
    "city": "MONTCLAIR",
    "zip": "91763",
    "county": "SAN BERNARDINO",
    "phone": "(909) 625-6377",
    "lat": 34.080903,
    "lng": -117.6967665
  },
  {
    "id": "630013908",
    "name": "PRIORITY ONE HOSPICE",
    "npi": null,
    "hcaiId": "406364473",
    "businessName": "PRIORITY ONE HOSPICE, INC",
    "contactEmail": "PRIORITY1HOSPICE@GMAIL.COM",
    "categoryName": "HOSPICE",
    "categoryCode": "HOSPICE",
    "licenseStatus": "ACTIVE",
    "inService": true,
    "licenseNumber": "550002176",
    "licenseEffectiveDate": "11/13/2024",
    "licenseExpirationDate": "11/12/2026",
    "dataDate": "10/18/2025",
    "capacity": 0,
    "address": "4959 PALO VERDE ST, SUITE 107C",
    "city": "MONTCLAIR",
    "zip": "91763",
    "county": "SAN BERNARDINO",
    "phone": "(909) 625-6377",
    "lat": 34.080903,
    "lng": -117.6967665
  },
  {
    "id": "630021689",
    "name": "REJOICE HOSPICE CARE, INC.",
    "npi": "1669069779",
    "hcaiId": null,
    "businessName": "REJOICE HOSPICE CARE, INC.",
    "contactEmail": "REJOICEHOSPICECAREINC@GMAIL.COM",
    "categoryName": "HOSPICE",
    "categoryCode": "HOSPICE",
    "licenseStatus": "ACTIVE",
    "inService": true,
    "licenseNumber": "550007542",
    "licenseEffectiveDate": "12/09/2023",
    "licenseExpirationDate": "12/08/2025",
    "dataDate": "10/18/2025",
    "capacity": 0,
    "address": "4959 PALO VERDE ST, SUITE 201B-2",
    "city": "MONTCLAIR",
    "zip": "91763",
    "county": "SAN BERNARDINO",
    "phone": "(951) 310-3338",
    "lat": 34.080903,
    "lng": -117.6967665
  },
  {
    "id": "630011978",
    "name": "RELIANT HOME HEALTHCARE SERVICES INC",
    "npi": "1700049111",
    "hcaiId": "406364398",
    "businessName": "RELIANT HOME HEALTHCARE SERVICES INC",
    "contactEmail": "RELIANTHHS@YAHOO.COM",
    "categoryName": "HOME HEALTH AGENCY",
    "categoryCode": "HHA",
    "licenseStatus": "ACTIVE",
    "inService": true,
    "licenseNumber": "550001136",
    "licenseEffectiveDate": "11/30/2024",
    "licenseExpirationDate": "11/29/2025",
    "dataDate": "10/18/2025",
    "capacity": 0,
    "address": "8880 BENSON AVE, UNIT 118",
    "city": "MONTCLAIR",
    "zip": "91763",
    "county": "SAN BERNARDINO",
    "phone": "(951) 818-9898",
    "lat": 34.093179,
    "lng": -117.6814395
  },
  {
    "id": "630014962",
    "name": "RELIANT HOSPICE INC.",
    "npi": "1447673009",
    "hcaiId": "406364511",
    "businessName": "RELIANT HOSPICE INC.",
    "contactEmail": "RELIANTHOSPICE@YAHOO.COM",
    "categoryName": "HOSPICE",
    "categoryCode": "HOSPICE",
    "licenseStatus": "ACTIVE",
    "inService": true,
    "licenseNumber": "550002750",
    "licenseEffectiveDate": "06/26/2024",
    "licenseExpirationDate": "06/25/2026",
    "dataDate": "10/18/2025",
    "capacity": 0,
    "address": "8880 BENSON AVE, SUITE 104",
    "city": "MONTCLAIR",
    "zip": "91763",
    "county": "SAN BERNARDINO",
    "phone": "(909) 982-3400",
    "lat": 34.093179,
    "lng": -117.6814395
  },
  {
    "id": "240001904",
    "name": "STAR HOME HEALTH SERVICES, INC",
    "npi": "1790782696",
    "hcaiId": "406364275",
    "businessName": "STAR HOME HEALTH SERVICES, INC.",
    "contactEmail": "STARHOMEHEALTHSERVICES@GMAIL.COM",
    "categoryName": "HOME HEALTH AGENCY",
    "categoryCode": "HHA",
    "licenseStatus": "ACTIVE",
    "inService": true,
    "licenseNumber": "240000856",
    "licenseEffectiveDate": "02/10/2025",
    "licenseExpirationDate": "11/05/2025",
    "dataDate": "10/18/2025",
    "capacity": 0,
    "address": "8880 BENSON AVE, SUITE 108",
    "city": "MONTCLAIR",
    "zip": "91763",
    "county": "SAN BERNARDINO",
    "phone": "(909) 920-0675",
    "lat": 34.0931724,
    "lng": -117.6814621
  },
  {
    "id": "630015436",
    "name": "STARLIGHT HOSPICE, INC.",
    "npi": "1659780716",
    "hcaiId": "406364537",
    "businessName": "STARLIGHT HOSPICE, INC.",
    "contactEmail": "BREEANASIORDIA@GMAIL.COM",
    "categoryName": "HOSPICE",
    "categoryCode": "HOSPICE",
    "licenseStatus": "ACTIVE",
    "inService": true,
    "licenseNumber": "550002977",
    "licenseEffectiveDate": "01/26/2025",
    "licenseExpirationDate": "01/25/2027",
    "dataDate": "10/18/2025",
    "capacity": 0,
    "address": "4959 PALO VERDE ST, SUITE 102B",
    "city": "MONTCLAIR",
    "zip": "91763",
    "county": "SAN BERNARDINO",
    "phone": "(909) 788-3043",
    "lat": 34.080903,
    "lng": -117.6967665
  },
  {
    "id": "630000661",
    "name": "TRIUNE HOME HEALTH PROVIDER INC",
    "npi": "1629267406",
    "hcaiId": "406364364",
    "businessName": "TRIUNE HOME HEALTH PROVIDER, INC.",
    "contactEmail": "ADMIN@TRIUNEHOMEHEALTH.COM",
    "categoryName": "HOME HEALTH AGENCY",
    "categoryCode": "HHA",
    "licenseStatus": "ACTIVE",
    "inService": true,
    "licenseNumber": "550000507",
    "licenseEffectiveDate": "11/26/2024",
    "licenseExpirationDate": "11/25/2025",
    "dataDate": "10/18/2025",
    "capacity": 0,
    "address": "4959 PALO VERDE ST, SUITE 206C-6",
    "city": "MONTCLAIR",
    "zip": "91763",
    "county": "SAN BERNARDINO",
    "phone": "(909) 447-1988",
    "lat": 34.080807,
    "lng": -117.696615
  }
]