[
  {
    "id": "930000676",
    "name": "AMERICAN RECOVERY CENTER",
    "npi": null,
    "hcaiId": "106194010",
    "businessName": "BEHAVIORAL HEALTH SERVICES, INC.",
    "contactEmail": "CARAGON@BHS-INC.ORG",
    "categoryName": "CHEMICAL DEPENDENCY RECOVERY HOSPITAL",
    "categoryCode": "CDRH",
    "licenseStatus": "ACTIVE",
    "inService": true,
    "licenseNumber": "930000412",
    "licenseEffectiveDate": "11/01/2025",
    "licenseExpirationDate": "10/31/2026",
    "dataDate": "10/18/2025",
    "capacity": 40,
    "address": "2180 VALLEY BLVD",
    "city": "POMONA",
    "zip": "91768",
    "county": "LOS ANGELES",
    "phone": "(909) 865-2336",
    "lat": 34.060734,
    "lng": -117.7901865
  },
  {
    "id": "630026111",
    "name": "BHS MOBILE HEALTH CENTER",
    "npi": "1548659105",
    "hcaiId": null,
    "businessName": "BEHAVIORAL HEALTH SERVICES, INC.",
    "contactEmail": null,
    "categoryName": "PRIMARY CARE CLINIC",
    "categoryCode": "COMTYC",
    "licenseStatus": "ACTIVE",
    "inService": true,
    "licenseNumber": "550003493",
    "licenseEffectiveDate": "04/11/2025",
    "licenseExpirationDate": "04/10/2026",
    "dataDate": "10/18/2025",
    "capacity": 0,
    "address": "2180 VALLEY BLVD",
    "city": "POMONA",
    "zip": "91768",
    "county": "LOS ANGELES",
    "phone": null,
    "lat": 34.060734,
    "lng": -117.7901865
  },
  {
    "id": "950000040",
    "name": "COUNTRY OAKS CARE CENTER",
    "npi": "1992960363",
    "hcaiId": "206190627",
    "businessName": "COUNTRY OAKS PARTNERS, LLC",
    "contactEmail": "ADMIN@COUNTRYOAKSCENTER.COM",
    "categoryName": "SKILLED NURSING FACILITY",
    "categoryCode": "SNF",
    "licenseStatus": "ACTIVE",
    "inService": true,
    "licenseNumber": "950000086",
    "licenseEffectiveDate": "11/05/2024",
    "licenseExpirationDate": "11/04/2025",
    "dataDate": "10/18/2025",
    "capacity": 81,
    "address": "215 W PEARL ST",
    "city": "POMONA",
    "zip": "91768",
    "county": "LOS ANGELES",
    "phone": "(909) 622-1067",
    "lat": 34.064892,
    "lng": -117.752796
  },
  {
    "id": "960002322",
    "name": "DOUGLASS HOME",
    "npi": "1902839962",
    "hcaiId": null,
    "businessName": "RSCR CALIFORNIA, INC.",
    "contactEmail": "DAIJA.LOPEZ@RESCARE.COM",
    "categoryName": "INTERMEDIATE CARE FACILITY-DD/H/N/CN/IID",
    "categoryCode": "ICFDDN",
    "licenseStatus": "ACTIVE",
    "inService": true,
    "licenseNumber": "960001073",
    "licenseEffectiveDate": "05/04/2025",
    "licenseExpirationDate": "05/03/2026",
    "dataDate": "10/18/2025",
    "capacity": 6,
    "address": "1408 DOUGLASS DR",
    "city": "POMONA",
    "zip": "91768",
    "county": "LOS ANGELES",
    "phone": "(909) 397-5824",
    "lat": 34.073136,
    "lng": -117.775548
  },
  {
    "id": "950000079",
    "name": "INLAND VALLEY CARE AND REHABILITATION CENTER",
    "npi": "1841232279",
    "hcaiId": "206190173",
    "businessName": "INLAND VALLEY PARTNERS, LLC",
    "contactEmail": "ADMINISTRATOR@POMONAVALLEYRC.COM",
    "categoryName": "SKILLED NURSING FACILITY",
    "categoryCode": "SNF",
    "licenseStatus": "ACTIVE",
    "inService": true,
    "licenseNumber": "950000023",
    "licenseEffectiveDate": "11/01/2025",
    "licenseExpirationDate": "10/31/2026",
    "dataDate": "10/18/2025",
    "capacity": 241,
    "address": "250 W ARTESIA ST",
    "city": "POMONA",
    "zip": "91768",
    "county": "LOS ANGELES",
    "phone": "(909) 623-7100",
    "lat": 34.076997,
    "lng": -117.754659
  },
  {
    "id": "950000068",
    "name": "LAUREL PARK BEHAVIORAL HEALTH CENTER",
    "npi": "1639126782",
    "hcaiId": "206190467",
    "businessName": "SUNBRIDGE BRASWELL ENTERPRISES, LLC",
    "contactEmail": "ADMINISTRATOR@LAURELPARKBHC.COM",
    "categoryName": "SKILLED NURSING FACILITY",
    "categoryCode": "SNF",
    "licenseStatus": "ACTIVE",
    "inService": true,
    "licenseNumber": "950000064",
    "licenseEffectiveDate": "06/29/2025",
    "licenseExpirationDate": "06/28/2026",
    "dataDate": "10/18/2025",
    "capacity": 43,
    "address": "1425 LAUREL AVE",
    "city": "POMONA",
    "zip": "91768",
    "county": "LOS ANGELES",
    "phone": "(909) 622-1069",
    "lat": 34.065036,
    "lng": -117.7735905
  },
  {
    "id": "980001352",
    "name": "MAXIM HEALTHCARE SERVICES, INC.",
    "npi": "1700969078",
    "hcaiId": "406194554",
    "businessName": "MAXIM HEALTHCARE SERVICES, INC.",
    "contactEmail": "LICENSING@MAXHEALTH.COM",
    "categoryName": "HOME HEALTH AGENCY",
    "categoryCode": "HHA",
    "licenseStatus": "ACTIVE",
    "inService": true,
    "licenseNumber": "980000756",
    "licenseEffectiveDate": "03/24/2025",
    "licenseExpirationDate": "03/23/2026",
    "dataDate": "10/18/2025",
    "capacity": 0,
    "address": "801 CORPORATE CENTER DR., SUITE 210",
    "city": "POMONA",
    "zip": "91768",
    "county": "LOS ANGELES",
    "phone": "(626) 962-6453",
    "lat": 34.064784,
    "lng": -117.801702
  },
  {
    "id": "950000081",
    "name": "PARK AVENUE HEALTHCARE & WELLNESS CENTER",
    "npi": "1811168727",
    "hcaiId": "206190427",
    "businessName": "POMONA HEALTHCARE & WELLNESS CENTER, LLC",
    "contactEmail": "ADMINISTRATOR@POMONAHC.COM",
    "categoryName": "SKILLED NURSING FACILITY",
    "categoryCode": "SNF",
    "licenseStatus": "ACTIVE",
    "inService": true,
    "licenseNumber": "950000113",
    "licenseEffectiveDate": "11/29/2024",
    "licenseExpirationDate": "11/28/2025",
    "dataDate": "10/18/2025",
    "capacity": 231,
    "address": "1550 N PARK AVE",
    "city": "POMONA",
    "zip": "91768",
    "county": "LOS ANGELES",
    "phone": "(909) 964-2757",
    "lat": 34.074117,
    "lng": -117.754218
  },
  {
    "id": "950000041",
    "name": "POMONA VISTA CARE CENTER",
    "npi": "1639334006",
    "hcaiId": "206190626",
    "businessName": "MJB PARTNERS, LLC",
    "contactEmail": "PAYROLL@POMONAVISTACARECENTER.COM",
    "categoryName": "SKILLED NURSING FACILITY",
    "categoryCode": "SNF",
    "licenseStatus": "ACTIVE",
    "inService": true,
    "licenseNumber": "950000085",
    "licenseEffectiveDate": "11/30/2024",
    "licenseExpirationDate": "11/29/2025",
    "dataDate": "10/18/2025",
    "capacity": 59,
    "address": "651 N MAIN ST",
    "city": "POMONA",
    "zip": "91768",
    "county": "LOS ANGELES",
    "phone": "(909) 623-2481",
    "lat": 34.063965,
    "lng": -117.752553
  },
  {
    "id": "630011583",
    "name": "PRESTIGIOUS HEALTH SERVICES INC.",
    "npi": "1952628653",
    "hcaiId": "406197341",
    "businessName": "PRESTIGIOUS HEALTH SERVICES INC.",
    "contactEmail": "MJDENT@PRESTIGIOUSHOSPICE.NET",
    "categoryName": "HOSPICE",
    "categoryCode": "HOSPICE",
    "licenseStatus": "ACTIVE",
    "inService": true,
    "licenseNumber": "550001132",
    "licenseEffectiveDate": "09/15/2025",
    "licenseExpirationDate": "04/29/2026",
    "dataDate": "10/18/2025",
    "capacity": 0,
    "address": "3191 W. TEMPLE AVENUE, SUITE 265",
    "city": "POMONA",
    "zip": "91768",
    "county": "LOS ANGELES",
    "phone": "(626) 331-7300",
    "lat": 34.04556663,
    "lng": -117.804679
  },
  {
    "id": "980002256",
    "name": "PROLIFE HOME HEALTH CORPORATION",
    "npi": "1710996798",
    "hcaiId": "406196814",
    "businessName": "CAPRI HOME HEALTH AGENCY, INC.",
    "contactEmail": "PROLIFEHOMEHEALTH@YAHOO.COM",
    "categoryName": "HOME HEALTH AGENCY",
    "categoryCode": "HHA",
    "licenseStatus": "ACTIVE",
    "inService": true,
    "licenseNumber": "980001372",
    "licenseEffectiveDate": "11/23/2025",
    "licenseExpirationDate": "11/22/2026",
    "dataDate": "10/18/2025",
    "capacity": 0,
    "address": "3425 POMONA BLVD., UNIT D",
    "city": "POMONA",
    "zip": "91768",
    "county": "LOS ANGELES",
    "phone": "(626) 810-0207",
    "lat": 34.04711686,
    "lng": -117.8110394
  },
  {
    "id": "980001770",
    "name": "PROVIDENCE HOME HEALTH INLAND EMPIRE",
    "npi": "1447615414",
    "hcaiId": "406194946",
    "businessName": "ST. JOSEPH HEALTH SYSTEM HOME CARE SERVICES, LLC",
    "contactEmail": null,
    "categoryName": "HOME HEALTH AGENCY",
    "categoryCode": "HHA",
    "licenseStatus": "ACTIVE",
    "inService": true,
    "licenseNumber": "980001046",
    "licenseEffectiveDate": "05/04/2025",
    "licenseExpirationDate": "05/03/2026",
    "dataDate": "10/18/2025",
    "capacity": 0,
    "address": "3201 W TEMPLE AVE, SUITE 200",
    "city": "POMONA",
    "zip": "91768",
    "county": "LOS ANGELES",
    "phone": "(909) 895-8841",
    "lat": 34.046019,
    "lng": -117.805473
  },
  {
    "id": "630019988",
    "name": "SOUTHERN CALIFORNIA MEDICAL CENTER - POMONA",
    "npi": null,
    "hcaiId": null,
    "businessName": "SOUTHERN CALIFORNIA MEDICAL CENTER, INC.",
    "contactEmail": null,
    "categoryName": "PRIMARY CARE CLINIC",
    "categoryCode": "COMTYC",
    "licenseStatus": "ACTIVE",
    "inService": true,
    "licenseNumber": "550001363",
    "licenseEffectiveDate": "11/20/2025",
    "licenseExpirationDate": "11/19/2026",
    "dataDate": "10/18/2025",
    "capacity": 0,
    "address": "502 W HOLT AVE",
    "city": "POMONA",
    "zip": "91768",
    "county": "LOS ANGELES",
    "phone": "(909) 620-8500",
    "lat": 34.061994,
    "lng": -117.7570845
  },
  {
    "id": "060002108",
    "name": "WELL AND FIT ADULT DAY HEALTH CARE CENTER",
    "npi": null,
    "hcaiId": null,
    "businessName": "WELL AND FIT ADULT DAY HEALTH CARE CENTER, INC.",
    "contactEmail": "WELLANDFIT.ADMIN@GMAIL.COM",
    "categoryName": "ADULT DAY HEALTH CARE",
    "categoryCode": "ADHC",
    "licenseStatus": "ACTIVE",
    "inService": true,
    "licenseNumber": "060000858",
    "licenseEffectiveDate": "03/21/2025",
    "licenseExpirationDate": "03/20/2026",
    "dataDate": "10/18/2025",
    "capacity": 0,
    "address": "105 MERCURY CIR",
    "city": "POMONA",
    "zip": "91768",
    "county": "LOS ANGELES",
    "phone": "(909) 860-0061",
    "lat": 34.056513,
    "lng": -117.8029485
  }
]