[
  {
    "id": "630018113",
    "name": "ALLEGIANT HEALTHCARE, INC",
    "npi": null,
    "hcaiId": "406191776",
    "businessName": "ALLEGIANT HEALTHCARE INC",
    "contactEmail": "DHURTADO@ALLEGIANTHEALTHCA.COM",
    "categoryName": "HOME HEALTH AGENCY",
    "categoryCode": "HHA",
    "licenseStatus": "ACTIVE",
    "inService": true,
    "licenseNumber": "550004876",
    "licenseEffectiveDate": "08/17/2025",
    "licenseExpirationDate": "08/16/2026",
    "dataDate": "10/18/2025",
    "capacity": 0,
    "address": "363 S PARK AVE, SUITE 101",
    "city": "POMONA",
    "zip": "91766",
    "county": "LOS ANGELES",
    "phone": "(909) 323-4023",
    "lat": 34.056171,
    "lng": -117.7546995
  },
  {
    "id": "950000033",
    "name": "CHINO VALLEY HEALTH CARE CENTER",
    "npi": "1558441022",
    "hcaiId": "206190790",
    "businessName": "CHINO VALLEY REHABILITATION CENTER LLC",
    "contactEmail": "FAC38ADMIN@LONGWOODMGMT.COM",
    "categoryName": "SKILLED NURSING FACILITY",
    "categoryCode": "SNF",
    "licenseStatus": "ACTIVE",
    "inService": true,
    "licenseNumber": "950000102",
    "licenseEffectiveDate": "11/03/2025",
    "licenseExpirationDate": "11/02/2026",
    "dataDate": "10/18/2025",
    "capacity": 102,
    "address": "2351 S TOWNE AVE",
    "city": "POMONA",
    "zip": "91766",
    "county": "LOS ANGELES",
    "phone": "(909) 628-1245",
    "lat": 34.028523,
    "lng": -117.740736
  },
  {
    "id": "960001810",
    "name": "DIAMOND RANCH",
    "npi": "1790831766",
    "hcaiId": null,
    "businessName": "COMMUNITY EDUCATION ASSOCIATES, INC.",
    "contactEmail": "CDIAMONDRANCH@GMAIL.COM",
    "categoryName": "INTERMEDIATE CARE FACILITY-DD/H/N/CN/IID",
    "categoryCode": "ICFDDH",
    "licenseStatus": "ACTIVE",
    "inService": true,
    "licenseNumber": "960000879",
    "licenseEffectiveDate": "05/09/2025",
    "licenseExpirationDate": "05/08/2026",
    "dataDate": "10/18/2025",
    "capacity": 6,
    "address": "1115 TORINO PL",
    "city": "POMONA",
    "zip": "91766",
    "county": "LOS ANGELES",
    "phone": "(909) 461-6527",
    "lat": 34.046766,
    "lng": -117.781929
  },
  {
    "id": "630020451",
    "name": "EAST VALLEY COMMUNITY CENTER, INC- POMONA SHELTER",
    "npi": "1649324443",
    "hcaiId": null,
    "businessName": "EAST VALLEY COMMUNITY HEALTH CENTER, INC.",
    "contactEmail": null,
    "categoryName": "PRIMARY CARE CLINIC",
    "categoryCode": "COMTYC",
    "licenseStatus": "ACTIVE",
    "inService": true,
    "licenseNumber": "960000806",
    "licenseEffectiveDate": "11/10/2024",
    "licenseExpirationDate": "11/09/2025",
    "dataDate": "10/18/2025",
    "capacity": 0,
    "address": "1400 E MISSION BLVD, BUILDING A, SUITE 2",
    "city": "POMONA",
    "zip": "91766",
    "county": "LOS ANGELES",
    "phone": null,
    "lat": 34.054857,
    "lng": -117.7281135
  },
  {
    "id": "960001514",
    "name": "EAST VALLEY COMMUNITY HEALTH CENTER INC",
    "npi": "1649324443",
    "hcaiId": "306197914",
    "businessName": "EAST VALLEY COMMUNITY HEALTH CENTER, INC.",
    "contactEmail": "VMACIAS@EVCHC.ORG",
    "categoryName": "PRIMARY CARE CLINIC",
    "categoryCode": "COMTYC",
    "licenseStatus": "ACTIVE",
    "inService": true,
    "licenseNumber": "960000806",
    "licenseEffectiveDate": "11/10/2024",
    "licenseExpirationDate": "11/09/2025",
    "dataDate": "10/18/2025",
    "capacity": 0,
    "address": "1555 S GAREY AVE",
    "city": "POMONA",
    "zip": "91766",
    "county": "LOS ANGELES",
    "phone": "(626) 919-4333",
    "lat": 34.043112,
    "lng": -117.750348
  },
  {
    "id": "960002818",
    "name": "EMERALD VILLAGE",
    "npi": "1003962770",
    "hcaiId": null,
    "businessName": "COMMUNITY EDUCATION ASSOCIATES, INC.",
    "contactEmail": "CDIAMONDRANCH@GMAIL.COM",
    "categoryName": "INTERMEDIATE CARE FACILITY-DD/H/N/CN/IID",
    "categoryCode": "ICFDDH",
    "licenseStatus": "ACTIVE",
    "inService": true,
    "licenseNumber": "960001403",
    "licenseEffectiveDate": "02/25/2025",
    "licenseExpirationDate": "02/24/2026",
    "dataDate": "10/18/2025",
    "capacity": 5,
    "address": "1762 STORRS PL",
    "city": "POMONA",
    "zip": "91766",
    "county": "LOS ANGELES",
    "phone": "(562) 225-8441",
    "lat": 34.045992,
    "lng": -117.7802055
  },
  {
    "id": "960002705",
    "name": "JADE RANCH",
    "npi": "1235285990",
    "hcaiId": null,
    "businessName": "COMMUNITY EDUCATION ASSOCIATES, INC.",
    "contactEmail": "CDIAMONDRANCH@GMAIL.COM",
    "categoryName": "INTERMEDIATE CARE FACILITY-DD/H/N/CN/IID",
    "categoryCode": "ICFDDH",
    "licenseStatus": "ACTIVE",
    "inService": true,
    "licenseNumber": "960001339",
    "licenseEffectiveDate": "11/19/2025",
    "licenseExpirationDate": "11/18/2026",
    "dataDate": "10/18/2025",
    "capacity": 5,
    "address": "1171 MAPLE VIEW DR",
    "city": "POMONA",
    "zip": "91766",
    "county": "LOS ANGELES",
    "phone": "(562) 225-8441",
    "lat": 34.045722,
    "lng": -117.7763355
  },
  {
    "id": "950000036",
    "name": "OLIVE VISTA BEHAVIORAL HEALTH CENTER",
    "npi": null,
    "hcaiId": "206190576",
    "businessName": "SUNBRIDGE BRASWELL ENTERPRISES, LLC",
    "contactEmail": "ADMINISTRATOR@OLIVEVISTABHC.COM",
    "categoryName": "SKILLED NURSING FACILITY",
    "categoryCode": "SNF",
    "licenseStatus": "ACTIVE",
    "inService": true,
    "licenseNumber": "950000080",
    "licenseEffectiveDate": "11/30/2024",
    "licenseExpirationDate": "11/29/2025",
    "dataDate": "10/18/2025",
    "capacity": 120,
    "address": "2335 S TOWNE AVE",
    "city": "POMONA",
    "zip": "91766",
    "county": "LOS ANGELES",
    "phone": "(909) 628-6024",
    "lat": 34.02890766,
    "lng": -117.7404433
  },
  {
    "id": "960002139",
    "name": "PARKTREE COMMUNITY HEALTH CENTER",
    "npi": "1538486741",
    "hcaiId": "306195000",
    "businessName": "POMONA COMMUNITY HEALTH CENTER",
    "contactEmail": "ELVIA.SANCHEZ@PARKTREECHC.ORG",
    "categoryName": "PRIMARY CARE CLINIC",
    "categoryCode": "COMTYC",
    "licenseStatus": "ACTIVE",
    "inService": true,
    "licenseNumber": "550001975",
    "licenseEffectiveDate": "06/27/2025",
    "licenseExpirationDate": "06/26/2026",
    "dataDate": "10/18/2025",
    "capacity": 0,
    "address": "750 S PARK AVE # 101",
    "city": "POMONA",
    "zip": "91766",
    "county": "LOS ANGELES",
    "phone": "(909) 630-7196",
    "lat": 34.052823,
    "lng": -117.7539705
  },
  {
    "id": "630014831",
    "name": "POMONA VALLEY DIALYSIS",
    "npi": "1043631427",
    "hcaiId": "306197958",
    "businessName": "KAMIAH DIALYSIS LLC",
    "contactEmail": "CAL_C@DAVITA.COM",
    "categoryName": "CHRONIC DIALYSIS CLINIC",
    "categoryCode": "ESRD/CDC",
    "licenseStatus": "ACTIVE",
    "inService": true,
    "licenseNumber": "550002734",
    "licenseEffectiveDate": "06/27/2025",
    "licenseExpirationDate": "06/26/2026",
    "dataDate": "10/18/2025",
    "capacity": 32,
    "address": "2703 S TOWNE AVE",
    "city": "POMONA",
    "zip": "91766",
    "county": "LOS ANGELES",
    "phone": "(909) 590-4930",
    "lat": 34.02376956,
    "lng": -117.7403342
  },
  {
    "id": "630019131",
    "name": "PRO ANGELS, INC",
    "npi": null,
    "hcaiId": "406192196",
    "businessName": "PRO ANGELS, INC",
    "contactEmail": "PROANGELSINC@GMAIL.COM",
    "categoryName": "HOSPICE",
    "categoryCode": "HOSPICE",
    "licenseStatus": "ACTIVE",
    "inService": true,
    "licenseNumber": "550005213",
    "licenseEffectiveDate": "05/07/2025",
    "licenseExpirationDate": "12/18/2025",
    "dataDate": "10/18/2025",
    "capacity": 0,
    "address": "401 S MAIN ST, SUITE 103",
    "city": "POMONA",
    "zip": "91766",
    "county": "LOS ANGELES",
    "phone": "(909) 707-6158",
    "lat": 34.05571698,
    "lng": -117.75249
  },
  {
    "id": "630018165",
    "name": "REGENE HOME",
    "npi": "1336669803",
    "hcaiId": null,
    "businessName": "K & J 1602 MANAGEMENT INCORPORATE",
    "contactEmail": "VALCMC@OUTLOOK.COM",
    "categoryName": "INTERMEDIATE CARE FACILITY-DD/H/N/CN/IID",
    "categoryCode": "ICFDDH",
    "licenseStatus": "ACTIVE",
    "inService": true,
    "licenseNumber": "550007966",
    "licenseEffectiveDate": "04/19/2025",
    "licenseExpirationDate": "04/18/2026",
    "dataDate": "10/18/2025",
    "capacity": 6,
    "address": "1602 REGENE ST",
    "city": "POMONA",
    "zip": "91766",
    "county": "LOS ANGELES",
    "phone": "(626) 422-1831",
    "lat": 34.0425,
    "lng": -117.7416585
  },
  {
    "id": "630016315",
    "name": "SAN ANTONIO COMMUNITY HEALTH CENTER",
    "npi": null,
    "hcaiId": "306190575",
    "businessName": "GLOBAL HEALTH EDUCATION & INFORMATION SERVICES, INC.",
    "contactEmail": "SONIAR@SANANTONIOCHC.ORG",
    "categoryName": "PRIMARY CARE CLINIC",
    "categoryCode": "COMTYC",
    "licenseStatus": "ACTIVE",
    "inService": true,
    "licenseNumber": "550005704",
    "licenseEffectiveDate": "09/03/2023",
    "licenseExpirationDate": "09/02/2024",
    "dataDate": "10/18/2025",
    "capacity": 0,
    "address": "2284-2286 S. GAREY AVENUE",
    "city": "POMONA",
    "zip": "91766",
    "county": "LOS ANGELES",
    "phone": "(909) 464-2817",
    "lat": 34.0300484,
    "lng": -117.7490208
  },
  {
    "id": "630019186",
    "name": "ST. JOHN COMMUNITY HEALTH CENTER",
    "npi": "1962069393",
    "hcaiId": "306190601",
    "businessName": "ST. JOHN COMMUNITY HEALTH CENTER",
    "contactEmail": "STJOHNMEDICAL@YAHOO.COM",
    "categoryName": "PRIMARY CARE CLINIC",
    "categoryCode": "COMTYC",
    "licenseStatus": "ACTIVE",
    "inService": true,
    "licenseNumber": "550005874",
    "licenseEffectiveDate": "11/10/2022",
    "licenseExpirationDate": "11/09/2023",
    "dataDate": "10/18/2025",
    "capacity": 0,
    "address": "2112 S GAREY AVE, SUITE C",
    "city": "POMONA",
    "zip": "91766",
    "county": "LOS ANGELES",
    "phone": "(909) 464-0520",
    "lat": 34.032528,
    "lng": -117.748665
  }
]