[
  {
    "id": "630014193",
    "name": "24/7 CARE AT HOME-HOSPICE",
    "npi": null,
    "hcaiId": "406364548",
    "businessName": "24/7 HOSPICE",
    "contactEmail": "INFO@247HOSPICE.COM",
    "categoryName": "HOSPICE",
    "categoryCode": "HOSPICE",
    "licenseStatus": "ACTIVE",
    "inService": true,
    "licenseNumber": "550002474",
    "licenseEffectiveDate": "05/28/2024",
    "licenseExpirationDate": "10/22/2025",
    "dataDate": "10/18/2025",
    "capacity": 0,
    "address": "337 N VINEYARD AVE, SUITE 338",
    "city": "ONTARIO",
    "zip": "91764",
    "county": "SAN BERNARDINO",
    "phone": "(951) 667-8888",
    "lat": 34.066728,
    "lng": -117.6116203
  },
  {
    "id": "630011815",
    "name": "ALPHA HOME HEALTH",
    "npi": "1366777567",
    "hcaiId": "406364407",
    "businessName": "ALPHA HOME HEALTH",
    "contactEmail": "INFO@ALPHAHOMEHEALTH.ORG",
    "categoryName": "HOME HEALTH AGENCY",
    "categoryCode": "HHA",
    "licenseStatus": "ACTIVE",
    "inService": true,
    "licenseNumber": "550001117",
    "licenseEffectiveDate": "09/02/2025",
    "licenseExpirationDate": "09/01/2026",
    "dataDate": "10/18/2025",
    "capacity": 0,
    "address": "3333 E CONCOURS, SUITE 7100",
    "city": "ONTARIO",
    "zip": "91764",
    "county": "SAN BERNARDINO",
    "phone": "(909) 466-8200",
    "lat": 34.07562,
    "lng": -117.5788845
  },
  {
    "id": "630014480",
    "name": "ALTA LOMA HOSPICE, INC.",
    "npi": "1922447978",
    "hcaiId": "406198030",
    "businessName": "METRO HOSPICE WEST VALLEY, INC.",
    "contactEmail": "ALTALOMAHOSPICE@GMAIL.COM",
    "categoryName": "HOSPICE",
    "categoryCode": "HOSPICE",
    "licenseStatus": "ACTIVE",
    "inService": true,
    "licenseNumber": "550002769",
    "licenseEffectiveDate": "07/11/2024",
    "licenseExpirationDate": "07/10/2026",
    "dataDate": "10/18/2025",
    "capacity": 0,
    "address": "337 N VINEYARD AV, SUITE 316-317",
    "city": "ONTARIO",
    "zip": "91764",
    "county": "SAN BERNARDINO",
    "phone": "(909) 315-3550",
    "lat": 34.06672309,
    "lng": -117.6116082
  },
  {
    "id": "630017393",
    "name": "AVID HOME HEALTH, INC.",
    "npi": null,
    "hcaiId": "406361416",
    "businessName": "AVID HOME HEALTH, INC.",
    "contactEmail": "AVIDHHA@GMAIL.COM",
    "categoryName": "HOME HEALTH AGENCY",
    "categoryCode": "HHA",
    "licenseStatus": "ACTIVE",
    "inService": true,
    "licenseNumber": "550004483",
    "licenseEffectiveDate": "11/01/2024",
    "licenseExpirationDate": "10/31/2025",
    "dataDate": "10/18/2025",
    "capacity": 0,
    "address": "609 N LEMON ST, SUITE 11",
    "city": "ONTARIO",
    "zip": "91764",
    "county": "SAN BERNARDINO",
    "phone": "(909) 391-9006",
    "lat": 34.06977,
    "lng": -117.6499665
  },
  {
    "id": "630017600",
    "name": "AZURE HOME HEALTH, INC.",
    "npi": "1942729322",
    "hcaiId": "406361770",
    "businessName": "AZURE HOME HEALTH, INC.",
    "contactEmail": "DEMETRI1994@YAHOO.COM",
    "categoryName": "HOME HEALTH AGENCY",
    "categoryCode": "HHA",
    "licenseStatus": "ACTIVE",
    "inService": true,
    "licenseNumber": "550004613",
    "licenseEffectiveDate": "02/22/2025",
    "licenseExpirationDate": "02/21/2026",
    "dataDate": "10/18/2025",
    "capacity": 0,
    "address": "2910 E INLAND EMPIRE BLVD, SUITE 101",
    "city": "ONTARIO",
    "zip": "91764",
    "county": "SAN BERNARDINO",
    "phone": "(909) 717-9856",
    "lat": 34.068384,
    "lng": -117.587628
  },
  {
    "id": "630018149",
    "name": "BRIDGE HOME HEALTH",
    "npi": "1275023491",
    "hcaiId": "406361672",
    "businessName": "BRIDGE HOME HEALTH SERVICES INLAND EMPIRE, LLC",
    "contactEmail": "GBOGDAN@BRIDGEHH.COM",
    "categoryName": "HOME HEALTH AGENCY",
    "categoryCode": "HHA",
    "licenseStatus": "ACTIVE",
    "inService": true,
    "licenseNumber": "550004682",
    "licenseEffectiveDate": "03/28/2025",
    "licenseExpirationDate": "03/27/2026",
    "dataDate": "10/18/2025",
    "capacity": 0,
    "address": "2930 E INLAND EMPIRE BLVD, SUITE 120",
    "city": "ONTARIO",
    "zip": "91764",
    "county": "SAN BERNARDINO",
    "phone": "(951) 270-0400",
    "lat": 34.06875516,
    "lng": -117.5894892
  },
  {
    "id": "630015858",
    "name": "CARING ANGELS HOSPICE",
    "npi": "1487051348",
    "hcaiId": "406334739",
    "businessName": "AGAPE GROUP, INC",
    "contactEmail": "CARINGANGELSHOSPICE@GMAIL.COM",
    "categoryName": "HOSPICE",
    "categoryCode": "HOSPICE",
    "licenseStatus": "ACTIVE",
    "inService": true,
    "licenseNumber": "550003497",
    "licenseEffectiveDate": "04/27/2024",
    "licenseExpirationDate": "04/26/2026",
    "dataDate": "10/18/2025",
    "capacity": 0,
    "address": "2930 INLAND EMPIRE BLVD, SUITE 115",
    "city": "ONTARIO",
    "zip": "91764",
    "county": "SAN BERNARDINO",
    "phone": "(951) 279-4500",
    "lat": 34.0686415,
    "lng": -117.5894791
  },
  {
    "id": "630027116",
    "name": "CRUZ HOME HEALTH CARE LLC",
    "npi": null,
    "hcaiId": null,
    "businessName": "CRUZ HOME HEALTH CARE LLC",
    "contactEmail": "ICRUZ321NP@GMAIL.COM",
    "categoryName": "HOME HEALTH AGENCY",
    "categoryCode": "HHA",
    "licenseStatus": "ACTIVE",
    "inService": true,
    "licenseNumber": "550009759",
    "licenseEffectiveDate": "10/07/2025",
    "licenseExpirationDate": "04/06/2026",
    "dataDate": "10/18/2025",
    "capacity": 0,
    "address": "3400 INLAND EMPIRE BLVD, SUITE 99",
    "city": "ONTARIO",
    "zip": "91764",
    "county": "SAN BERNARDINO",
    "phone": "(951) 446-0910",
    "lat": 34.07145594,
    "lng": -117.5781865
  },
  {
    "id": "630011245",
    "name": "DIALYSIS CENTER OF ONTARIO",
    "npi": "1356549455",
    "hcaiId": "306364375",
    "businessName": "DIALYSIS CENTER OF ONTARIO, LLC",
    "contactEmail": "FATIMA.KHAN@USRENALCARE.COM",
    "categoryName": "CHRONIC DIALYSIS CLINIC",
    "categoryCode": "ESRD/CDC",
    "licenseStatus": "ACTIVE",
    "inService": true,
    "licenseNumber": "550000815",
    "licenseEffectiveDate": "11/30/2024",
    "licenseExpirationDate": "11/29/2025",
    "dataDate": "10/18/2025",
    "capacity": 18,
    "address": "2850 INLAND EMPIRE BLVD, SUITE C",
    "city": "ONTARIO",
    "zip": "91764",
    "county": "SAN BERNARDINO",
    "phone": "(909) 476-2638",
    "lat": 34.069221,
    "lng": -117.591201
  },
  {
    "id": "630012734",
    "name": "GUARDIAN ANGEL HOME CARE AND HOSPICE OF ONTARIO LLC",
    "npi": "1780907881",
    "hcaiId": "406364423",
    "businessName": "GUARDIAN ANGEL HOME CARE AND HOSPICE OF ONTARIO LLC",
    "contactEmail": "K.ANDERSON@GAHC94.COM",
    "categoryName": "HOME HEALTH AGENCY",
    "categoryCode": "HHA",
    "licenseStatus": "ACTIVE",
    "inService": true,
    "licenseNumber": "550001511",
    "licenseEffectiveDate": "01/06/2025",
    "licenseExpirationDate": "01/05/2026",
    "dataDate": "10/18/2025",
    "capacity": 0,
    "address": "2910 INLAND EMPIRE BLVD, SUITE 100",
    "city": "ONTARIO",
    "zip": "91764",
    "county": "SAN BERNARDINO",
    "phone": "(909) 983-0120",
    "lat": 34.068384,
    "lng": -117.587628
  },
  {
    "id": "630015658",
    "name": "GUARDIAN ANGEL HOSPICE CARE",
    "npi": null,
    "hcaiId": "406364547",
    "businessName": "GUARDIAN ANGEL HOME CARE INC.",
    "contactEmail": "ADMIN@GAHC94.COM",
    "categoryName": "HOSPICE",
    "categoryCode": "HOSPICE",
    "licenseStatus": "ACTIVE",
    "inService": true,
    "licenseNumber": "550003144",
    "licenseEffectiveDate": "06/15/2025",
    "licenseExpirationDate": "06/14/2027",
    "dataDate": "10/18/2025",
    "capacity": 0,
    "address": "653 EAST E STREET, SUITE 106",
    "city": "ONTARIO",
    "zip": "91764",
    "county": "SAN BERNARDINO",
    "phone": "(909) 395-5544",
    "lat": 34.068483,
    "lng": -117.642051
  },
  {
    "id": "630013935",
    "name": "I CARE HOSPICE & PALLIATIVE PROVIDERS, INC.",
    "npi": null,
    "hcaiId": "406197888",
    "businessName": "I CARE HOSPICE, INC.",
    "contactEmail": "CORINNE.ADMIN@ICAREHOSPICE.COM",
    "categoryName": "HOSPICE",
    "categoryCode": "HOSPICE",
    "licenseStatus": "ACTIVE",
    "inService": true,
    "licenseNumber": "550002391",
    "licenseEffectiveDate": "10/19/2023",
    "licenseExpirationDate": "08/14/2025",
    "dataDate": "10/18/2025",
    "capacity": 0,
    "address": "3633 E INLAND EMPIRE BLVD, SUITE 895",
    "city": "ONTARIO",
    "zip": "91764",
    "county": "SAN BERNARDINO",
    "phone": "(818) 238-9188",
    "lat": 34.06994325,
    "lng": -117.570493
  },
  {
    "id": "240000040",
    "name": "KINDRED HOSPITAL ONTARIO",
    "npi": "1043395742",
    "hcaiId": "106361274",
    "businessName": "THC - ORANGE COUNTY, LLC",
    "contactEmail": "JULIE.MYERS@KINDRED.COM",
    "categoryName": "GENERAL ACUTE CARE HOSPITAL",
    "categoryCode": "GACH",
    "licenseStatus": "ACTIVE",
    "inService": true,
    "licenseNumber": "240000561",
    "licenseEffectiveDate": "11/20/2024",
    "licenseExpirationDate": "11/19/2025",
    "dataDate": "10/18/2025",
    "capacity": 91,
    "address": "550 N MONTEREY AVE",
    "city": "ONTARIO",
    "zip": "91764",
    "county": "SAN BERNARDINO",
    "phone": "(909) 391-0333",
    "lat": 34.06905825,
    "lng": -117.6436833
  },
  {
    "id": "240000094",
    "name": "LAS COLINAS POST ACUTE",
    "npi": "1063810349",
    "hcaiId": "206361299",
    "businessName": "ONTARIOIDENCE OPCO, LLC",
    "contactEmail": "TREVOR.LORDS@TRELLISCHINO.COM",
    "categoryName": "SKILLED NURSING FACILITY",
    "categoryCode": "SNF",
    "licenseStatus": "ACTIVE",
    "inService": true,
    "licenseNumber": "240000187",
    "licenseEffectiveDate": "06/17/2025",
    "licenseExpirationDate": "06/16/2026",
    "dataDate": "10/18/2025",
    "capacity": 216,
    "address": "800 E 5TH ST",
    "city": "ONTARIO",
    "zip": "91764",
    "county": "SAN BERNARDINO",
    "phone": "(909) 984-8629",
    "lat": 34.080813,
    "lng": -117.6383835
  },
  {
    "id": "630013110",
    "name": "MID VALLEY SURGERY CENTER",
    "npi": "1992022297",
    "hcaiId": null,
    "businessName": null,
    "contactEmail": null,
    "categoryName": "SURGICAL CLINIC",
    "categoryCode": "ASC",
    "licenseStatus": null,
    "inService": null,
    "licenseNumber": null,
    "licenseEffectiveDate": null,
    "licenseExpirationDate": null,
    "dataDate": "10/18/2025",
    "capacity": 0,
    "address": "4682 ONTARIO MILLS PKWY",
    "city": "ONTARIO",
    "zip": "91764",
    "county": "SAN BERNARDINO",
    "phone": "(909) 204-3540",
    "lat": 34.069347,
    "lng": -117.549027
  },
  {
    "id": "630015962",
    "name": "MISSION HOME HEALTH OF ONTARIO, LLC.",
    "npi": null,
    "hcaiId": "406364571",
    "businessName": "MISSION HOME HEALTH OF ONTARIO, LLC.",
    "contactEmail": "GPINERO@MISSIONHH.COM",
    "categoryName": "HOME HEALTH AGENCY",
    "categoryCode": "HHA",
    "licenseStatus": "ACTIVE",
    "inService": true,
    "licenseNumber": "550003767",
    "licenseEffectiveDate": "05/30/2025",
    "licenseExpirationDate": "05/29/2026",
    "dataDate": "10/18/2025",
    "capacity": 0,
    "address": "901 VIA PIEMONTE, SUITE 100",
    "city": "ONTARIO",
    "zip": "91764",
    "county": "SAN BERNARDINO",
    "phone": "(909) 980-3010",
    "lat": 34.074234,
    "lng": -117.5660325
  },
  {
    "id": "240000018",
    "name": "ONTARIO GROVE HEALTHCARE & WELLNESS CENTRE, LP",
    "npi": "1437559606",
    "hcaiId": "206361112",
    "businessName": "ONTARIO GROVE HEALTHCARE & WELLNESS CENTRE, LP",
    "contactEmail": "ADMINISTRATOR@HCBELLAVISTA.COM",
    "categoryName": "SKILLED NURSING FACILITY",
    "categoryCode": "SNF",
    "licenseStatus": "ACTIVE",
    "inService": true,
    "licenseNumber": "240000113",
    "licenseEffectiveDate": "10/02/2025",
    "licenseExpirationDate": "10/01/2026",
    "dataDate": "10/18/2025",
    "capacity": 59,
    "address": "933 E DEODAR ST",
    "city": "ONTARIO",
    "zip": "91764",
    "county": "SAN BERNARDINO",
    "phone": "(909) 985-2731",
    "lat": 34.086726,
    "lng": -117.635427
  },
  {
    "id": "630011392",
    "name": "OPTIMA CARE HOME HEALTH SERVICES INC",
    "npi": "1851628846",
    "hcaiId": "406364383",
    "businessName": "OPTIMA CARE HOME HEALTH SERVICES, INC.",
    "contactEmail": "ALAN.DELEON@OPTIMACAREHHS.COM",
    "categoryName": "HOME HEALTH AGENCY",
    "categoryCode": "HHA",
    "licenseStatus": "ACTIVE",
    "inService": true,
    "licenseNumber": "550000785",
    "licenseEffectiveDate": "10/28/2025",
    "licenseExpirationDate": "05/27/2026",
    "dataDate": "10/18/2025",
    "capacity": 0,
    "address": "3633 INLAND EMPIRE BLVD, SUITE 550",
    "city": "ONTARIO",
    "zip": "91764",
    "county": "SAN BERNARDINO",
    "phone": "(866) 626-8020",
    "lat": 34.06953209,
    "lng": -117.5710347
  },
  {
    "id": "630019928",
    "name": "PARKTREE COMMUNITY HEALTH CENTER",
    "npi": "1154788560",
    "hcaiId": null,
    "businessName": "POMONA COMMUNITY HEALTH CENTER",
    "contactEmail": "ELLEN.SILVER@PARKTREECHC.ORG",
    "categoryName": "PRIMARY CARE CLINIC",
    "categoryCode": "COMTYC",
    "licenseStatus": "ACTIVE",
    "inService": true,
    "licenseNumber": "240000826",
    "licenseEffectiveDate": "08/16/2025",
    "licenseExpirationDate": "08/15/2026",
    "dataDate": "10/18/2025",
    "capacity": 0,
    "address": "1700 E 7TH ST, ROOM P4",
    "city": "ONTARIO",
    "zip": "91764",
    "county": "SAN BERNARDINO",
    "phone": "(909) 630-7927",
    "lat": 34.08841197,
    "lng": -117.6163413
  },
  {
    "id": "630019935",
    "name": "PARKTREE COMMUNITY HEALTH CENTER",
    "npi": "1154788560",
    "hcaiId": null,
    "businessName": "POMONA COMMUNITY HEALTH CENTER",
    "contactEmail": "ELLEN.SILVER@PARKTREECHC.ORG",
    "categoryName": "PRIMARY CARE CLINIC",
    "categoryCode": "COMTYC",
    "licenseStatus": "ACTIVE",
    "inService": true,
    "licenseNumber": "240000826",
    "licenseEffectiveDate": "08/16/2025",
    "licenseExpirationDate": "08/15/2026",
    "dataDate": "10/18/2025",
    "capacity": 0,
    "address": "1605 E D ST, ROOM 16",
    "city": "ONTARIO",
    "zip": "91764",
    "county": "SAN BERNARDINO",
    "phone": "(909) 630-7927",
    "lat": 34.067943,
    "lng": -117.6198075
  },
  {
    "id": "630015612",
    "name": "PRESIDENTIAL CARE HOME HEALTH",
    "npi": "1134528342",
    "hcaiId": "406364553",
    "businessName": "IMHOTEP INC.",
    "contactEmail": "PRESIDENTIALCAREHOMEHEALTH@GMAIL.COM",
    "categoryName": "HOME HEALTH AGENCY",
    "categoryCode": "HHA",
    "licenseStatus": "ACTIVE",
    "inService": true,
    "licenseNumber": "550003146",
    "licenseEffectiveDate": "05/26/2025",
    "licenseExpirationDate": "05/25/2026",
    "dataDate": "10/18/2025",
    "capacity": 0,
    "address": "337 N. VINEYARD AVE, SUITE 341",
    "city": "ONTARIO",
    "zip": "91764",
    "county": "SAN BERNARDINO",
    "phone": "(909) 945-7087",
    "lat": 34.066854,
    "lng": -117.611532
  },
  {
    "id": "980001134",
    "name": "VNACARE",
    "npi": "1114919099",
    "hcaiId": "406362148",
    "businessName": "VNACARE",
    "contactEmail": "REGULATORY@VNASOCAL.ORG",
    "categoryName": "HOSPICE",
    "categoryCode": "HOSPICE",
    "licenseStatus": "ACTIVE",
    "inService": true,
    "licenseNumber": "550002655",
    "licenseEffectiveDate": "04/22/2024",
    "licenseExpirationDate": "04/21/2026",
    "dataDate": "10/18/2025",
    "capacity": 0,
    "address": "2151 E CONVENTION CENTER WAY, SUITE 100",
    "city": "ONTARIO",
    "zip": "91764",
    "county": "SAN BERNARDINO",
    "phone": "(909) 624-3574",
    "lat": 34.065666,
    "lng": -117.6037155
  }
]