[
  {
    "id": "980002473",
    "name": "CALCARE HOME HEALTH INC",
    "npi": "1710090402",
    "hcaiId": "406196629",
    "businessName": "CALCARE HOME HEALTH, INC.",
    "contactEmail": "MARYJEAN@CCHOMEHEALTH.COM",
    "categoryName": "HOME HEALTH AGENCY",
    "categoryCode": "HHA",
    "licenseStatus": "ACTIVE",
    "inService": true,
    "licenseNumber": "980001578",
    "licenseEffectiveDate": "10/30/2025",
    "licenseExpirationDate": "10/29/2026",
    "dataDate": "10/18/2025",
    "capacity": 0,
    "address": "520 E FOOTHILL BLVD, SUITE D",
    "city": "POMONA",
    "zip": "91767",
    "county": "LOS ANGELES",
    "phone": "(909) 622-6300",
    "lat": 34.106832,
    "lng": -117.73989
  },
  {
    "id": "930000020",
    "name": "CASA COLINA HOSPITAL",
    "npi": "1952777245",
    "hcaiId": "106190137",
    "businessName": "CASA COLINA HOSPITAL AND CENTERS FOR HEALTHCARE",
    "contactEmail": "DSCHULTZ@CASACOLINA.ORG",
    "categoryName": "GENERAL ACUTE CARE HOSPITAL",
    "categoryCode": "GACH",
    "licenseStatus": "ACTIVE",
    "inService": true,
    "licenseNumber": "930000026",
    "licenseEffectiveDate": "11/01/2025",
    "licenseExpirationDate": "10/31/2026",
    "dataDate": "10/18/2025",
    "capacity": 99,
    "address": "255 E BONITA AVE",
    "city": "POMONA",
    "zip": "91767",
    "county": "LOS ANGELES",
    "phone": "(909) 596-7733",
    "lat": 34.09630029,
    "lng": -117.7456368
  },
  {
    "id": "630004421",
    "name": "CASA COLINA SURGERY CENTER",
    "npi": "1518972322",
    "hcaiId": "306196679",
    "businessName": null,
    "contactEmail": "DECIUTIISJAMES@YAHOO.COM",
    "categoryName": "SURGICAL CLINIC",
    "categoryCode": "ASC",
    "licenseStatus": null,
    "inService": null,
    "licenseNumber": null,
    "licenseEffectiveDate": null,
    "licenseExpirationDate": null,
    "dataDate": "10/18/2025",
    "capacity": 0,
    "address": "255 E BONITA AVE, BLDG 3",
    "city": "POMONA",
    "zip": "91767",
    "county": "LOS ANGELES",
    "phone": "(909) 593-3550",
    "lat": 34.09630029,
    "lng": -117.7456368
  },
  {
    "id": "950000002",
    "name": "CLAREMONT CARE CENTER",
    "npi": "1336148840",
    "hcaiId": "206190140",
    "businessName": "CLAREMONT FOOTHILLS HEALTH ASSOCIATES LLC",
    "contactEmail": "RENEWALS@ENSIGNSERVICES.NET",
    "categoryName": "SKILLED NURSING FACILITY",
    "categoryCode": "SNF",
    "licenseStatus": "ACTIVE",
    "inService": true,
    "licenseNumber": "950000021",
    "licenseEffectiveDate": "11/01/2025",
    "licenseExpirationDate": "10/31/2026",
    "dataDate": "10/18/2025",
    "capacity": 99,
    "address": "219 E FOOTHILL BLVD",
    "city": "POMONA",
    "zip": "91767",
    "county": "LOS ANGELES",
    "phone": "(909) 593-1391",
    "lat": 34.107777,
    "lng": -117.745839
  },
  {
    "id": "630026286",
    "name": "EAST VALLEY COMMUNITY CENTER, INC. - PALOMARES SBC",
    "npi": "1649324443",
    "hcaiId": null,
    "businessName": "EAST VALLEY COMMUNITY HEALTH CENTER, INC.",
    "contactEmail": "AMYCHEA@EVCHC.ORG",
    "categoryName": "PRIMARY CARE CLINIC",
    "categoryCode": "COMTYC",
    "licenseStatus": "ACTIVE",
    "inService": true,
    "licenseNumber": "960000806",
    "licenseEffectiveDate": "11/10/2024",
    "licenseExpirationDate": "11/09/2025",
    "dataDate": "10/18/2025",
    "capacity": 0,
    "address": "2211 N ORANGE GROVE AVE",
    "city": "POMONA",
    "zip": "91767",
    "county": "LOS ANGELES",
    "phone": "(626) 919-4333",
    "lat": 34.083684,
    "lng": -117.7464285
  },
  {
    "id": "960002662",
    "name": "FAMILY HEALTH CENTER",
    "npi": null,
    "hcaiId": "306196123",
    "businessName": "POMONA VALLEY HOSPITAL MEDICAL CENTER",
    "contactEmail": "DARLENE.MCPHERSON@PVHMC.ORG",
    "categoryName": "PRIMARY CARE CLINIC",
    "categoryCode": "COMTYC",
    "licenseStatus": "ACTIVE",
    "inService": true,
    "licenseNumber": "960001312",
    "licenseEffectiveDate": "11/11/2024",
    "licenseExpirationDate": "11/10/2025",
    "dataDate": "10/18/2025",
    "capacity": 0,
    "address": "1760-70 N. ORANGE GROVE AVE. STE #101",
    "city": "POMONA",
    "zip": "91767",
    "county": "LOS ANGELES",
    "phone": "(909) 469-9494",
    "lat": 34.07589,
    "lng": -117.749133
  },
  {
    "id": "630025609",
    "name": "FIRST CLASS HOME HEALTH CARE, INC.",
    "npi": null,
    "hcaiId": "406190282",
    "businessName": "FIRST CLASS HOME HEALTH CARE, INC.",
    "contactEmail": "4FIRSTCLASSHHC@GMAIL.COM",
    "categoryName": "HOME HEALTH AGENCY",
    "categoryCode": "HHA",
    "licenseStatus": "ACTIVE",
    "inService": true,
    "licenseNumber": "550009042",
    "licenseEffectiveDate": "03/18/2025",
    "licenseExpirationDate": "03/17/2026",
    "dataDate": "10/18/2025",
    "capacity": 0,
    "address": "1532 SAN BERNARDINO AVE, SUITE B6",
    "city": "POMONA",
    "zip": "91767",
    "county": "LOS ANGELES",
    "phone": "(818) 877-8818",
    "lat": 34.075233,
    "lng": -117.72009
  },
  {
    "id": "930000440",
    "name": "GAREY DIALYSIS CENTER",
    "npi": "1689748790",
    "hcaiId": "306196786",
    "businessName": "GAREY DIALYSIS CENTER PARTNERSHIP",
    "contactEmail": "CLINIC7182@FMC-NA.COM",
    "categoryName": "CHRONIC DIALYSIS CLINIC",
    "categoryCode": "ESRD/CDC",
    "licenseStatus": "ACTIVE",
    "inService": true,
    "licenseNumber": "930000400",
    "licenseEffectiveDate": "12/23/2024",
    "licenseExpirationDate": "12/22/2025",
    "dataDate": "10/18/2025",
    "capacity": 30,
    "address": "150 E ARROW HWY",
    "city": "POMONA",
    "zip": "91767",
    "county": "LOS ANGELES",
    "phone": "(909) 593-5863",
    "lat": 34.08986136,
    "lng": -117.7480421
  },
  {
    "id": "630023123",
    "name": "GENTLE HEART DAYCARE CENTER",
    "npi": null,
    "hcaiId": null,
    "businessName": "GENTLE HEART DAYCARE CENTER",
    "contactEmail": "GENTLEHEARTDAYCARECENTER@GMAIL.COM",
    "categoryName": "ADULT DAY HEALTH CARE",
    "categoryCode": "ADHC",
    "licenseStatus": "ACTIVE",
    "inService": true,
    "licenseNumber": "550009459",
    "licenseEffectiveDate": "03/13/2025",
    "licenseExpirationDate": "09/24/2025",
    "dataDate": "10/18/2025",
    "capacity": 0,
    "address": "1275 E HOLT AVE",
    "city": "POMONA",
    "zip": "91767",
    "county": "LOS ANGELES",
    "phone": "(909) 326-1126",
    "lat": 34.0633848,
    "lng": -117.7272192
  },
  {
    "id": "950000066",
    "name": "LANDMARK MEDICAL CENTER",
    "npi": "1073722005",
    "hcaiId": "206190457",
    "businessName": "LANDMARK MEDICAL SERVICES, INC.",
    "contactEmail": "ROSEMARYCK@AOL.COM",
    "categoryName": "SKILLED NURSING FACILITY",
    "categoryCode": "SNF",
    "licenseStatus": "ACTIVE",
    "inService": true,
    "licenseNumber": "950000062",
    "licenseEffectiveDate": "06/13/2025",
    "licenseExpirationDate": "06/12/2026",
    "dataDate": "10/18/2025",
    "capacity": 95,
    "address": "2030 N GAREY AVE",
    "city": "POMONA",
    "zip": "91767",
    "county": "LOS ANGELES",
    "phone": "(909) 593-2585",
    "lat": 34.083369,
    "lng": -117.752031
  },
  {
    "id": "960001789",
    "name": "MARKWAY HOUSE",
    "npi": "1144356098",
    "hcaiId": null,
    "businessName": "RSCR CALIFORNIA, INC.",
    "contactEmail": "STEPHANIE.MUNIZ@RESCARE.COM",
    "categoryName": "INTERMEDIATE CARE FACILITY-DD/H/N/CN/IID",
    "categoryCode": "ICFDDH",
    "licenseStatus": "ACTIVE",
    "inService": true,
    "licenseNumber": "960000866",
    "licenseEffectiveDate": "03/12/2025",
    "licenseExpirationDate": "03/11/2026",
    "dataDate": "10/18/2025",
    "capacity": 6,
    "address": "336 MARKWAY LN",
    "city": "POMONA",
    "zip": "91767",
    "county": "LOS ANGELES",
    "phone": "(909) 593-2858",
    "lat": 34.105347,
    "lng": -117.753129
  },
  {
    "id": "630012963",
    "name": "MISSION CITY COMMUNITY NETWORK, INC.",
    "npi": null,
    "hcaiId": null,
    "businessName": null,
    "contactEmail": null,
    "categoryName": "PRIMARY CARE CLINIC",
    "categoryCode": "FQHC",
    "licenseStatus": null,
    "inService": null,
    "licenseNumber": null,
    "licenseEffectiveDate": null,
    "licenseExpirationDate": null,
    "dataDate": "10/18/2025",
    "capacity": 0,
    "address": "845 E ARROW HWY",
    "city": "POMONA",
    "zip": "91767",
    "county": "LOS ANGELES",
    "phone": null,
    "lat": 34.091352,
    "lng": -117.734733
  },
  {
    "id": "630013426",
    "name": "MISSION CITY COMMUNITY NETWORK, INC. - ORANGE GROVE",
    "npi": "1609151273",
    "hcaiId": "306197646",
    "businessName": "MISSION CITY COMMUNITY NETWORK, INC.",
    "contactEmail": "NIKG@MCCN.ORG",
    "categoryName": "PRIMARY CARE CLINIC",
    "categoryCode": "COMTYC",
    "licenseStatus": "ACTIVE",
    "inService": true,
    "licenseNumber": "550001802",
    "licenseEffectiveDate": "01/06/2025",
    "licenseExpirationDate": "01/05/2026",
    "dataDate": "10/18/2025",
    "capacity": 0,
    "address": "1818 N ORANGE GROVE AVE",
    "city": "POMONA",
    "zip": "91767",
    "county": "LOS ANGELES",
    "phone": "(909) 525-9111",
    "lat": 34.076709,
    "lng": -117.748278
  },
  {
    "id": "630013428",
    "name": "MISSION CITY COMMUNITY NETWORK, INC. - POMONA MOBILE CLINIC",
    "npi": "1497063192",
    "hcaiId": "306198033",
    "businessName": "MISSION CITY COMMUNITY NETWORK, INC.",
    "contactEmail": "NIKG@MCCN.ORG",
    "categoryName": "PRIMARY CARE CLINIC",
    "categoryCode": "COMTYC",
    "licenseStatus": "ACTIVE",
    "inService": true,
    "licenseNumber": "550001802",
    "licenseEffectiveDate": "01/06/2025",
    "licenseExpirationDate": "01/05/2026",
    "dataDate": "10/18/2025",
    "capacity": 0,
    "address": "1818 N. ORANGE GROVE AVENUE, SUITE 205",
    "city": "POMONA",
    "zip": "91767",
    "county": "LOS ANGELES",
    "phone": "(818) 895-3100",
    "lat": 34.076709,
    "lng": -117.748278
  },
  {
    "id": "950000078",
    "name": "MOUNT SAN ANTONIO GARDENS",
    "npi": null,
    "hcaiId": "206190553",
    "businessName": "CONGREGATIONAL HOMES, INC.",
    "contactEmail": "ROLCUARESMA@VERIZON.NET",
    "categoryName": "SKILLED NURSING FACILITY",
    "categoryCode": "SNF",
    "licenseStatus": "ACTIVE",
    "inService": true,
    "licenseNumber": "950000078",
    "licenseEffectiveDate": "12/01/2024",
    "licenseExpirationDate": "11/30/2025",
    "dataDate": "10/18/2025",
    "capacity": 48,
    "address": "900 E HARRISON AVE",
    "city": "POMONA",
    "zip": "91767",
    "county": "LOS ANGELES",
    "phone": "(909) 624-5061",
    "lat": 34.097364,
    "lng": -117.7343055
  },
  {
    "id": "960002533",
    "name": "MT. SAN ANTONIO GARDENS",
    "npi": null,
    "hcaiId": null,
    "businessName": null,
    "contactEmail": "PWILLIAMS@THE-GARDENS.ORG",
    "categoryName": "REHABILITATION CLINIC",
    "categoryCode": "OPT/SP",
    "licenseStatus": null,
    "inService": null,
    "licenseNumber": null,
    "licenseEffectiveDate": null,
    "licenseExpirationDate": null,
    "dataDate": "10/18/2025",
    "capacity": 0,
    "address": "900 E HARRISON AVE, SUITE 103",
    "city": "POMONA",
    "zip": "91767",
    "county": "LOS ANGELES",
    "phone": "(909) 624-5061",
    "lat": 34.097364,
    "lng": -117.7343055
  },
  {
    "id": "630013284",
    "name": "PARKTREE COMMUNITY HEALTH CENTER",
    "npi": "1417211426",
    "hcaiId": "306197671",
    "businessName": "POMONA COMMUNITY HEALTH CENTER",
    "contactEmail": "INFO@PARKTREECHC.ORG",
    "categoryName": "PRIMARY CARE CLINIC",
    "categoryCode": "COMTYC",
    "licenseStatus": "ACTIVE",
    "inService": true,
    "licenseNumber": "550001975",
    "licenseEffectiveDate": "06/27/2025",
    "licenseExpirationDate": "06/26/2026",
    "dataDate": "10/18/2025",
    "capacity": 0,
    "address": "1450 E HOLT AVE",
    "city": "POMONA",
    "zip": "91767",
    "county": "LOS ANGELES",
    "phone": "(909) 630-7939",
    "lat": 34.061904,
    "lng": -117.721503
  },
  {
    "id": "960000549",
    "name": "PLANNED PARENTHOOD LOS ANGELES POMONA CENTER",
    "npi": null,
    "hcaiId": "306190905",
    "businessName": "PLANNED PARENTHOOD LOS ANGELES",
    "contactEmail": "BRENDA.GUERRERO@PP-LA.ORG",
    "categoryName": "PRIMARY CARE CLINIC",
    "categoryCode": "COMTYC",
    "licenseStatus": "ACTIVE",
    "inService": true,
    "licenseNumber": "960000286",
    "licenseEffectiveDate": "03/08/2025",
    "licenseExpirationDate": "03/07/2026",
    "dataDate": "10/18/2025",
    "capacity": 0,
    "address": "1550 N GAREY AVE",
    "city": "POMONA",
    "zip": "91767",
    "county": "LOS ANGELES",
    "phone": "(213) 284-3200",
    "lat": 34.073586,
    "lng": -117.7518285
  },
  {
    "id": "060002234",
    "name": "POMONA ADULT DAY HEALTH CARE CENTER",
    "npi": null,
    "hcaiId": null,
    "businessName": "GENE CARE, INC.",
    "contactEmail": "JP@POMONA-CBAS.COM",
    "categoryName": "ADULT DAY HEALTH CARE",
    "categoryCode": "ADHC",
    "licenseStatus": "ACTIVE",
    "inService": true,
    "licenseNumber": "060000928",
    "licenseEffectiveDate": "06/09/2025",
    "licenseExpirationDate": "06/08/2026",
    "dataDate": "10/18/2025",
    "capacity": 0,
    "address": "324 PALOMA DR",
    "city": "POMONA",
    "zip": "91767",
    "county": "LOS ANGELES",
    "phone": "(909) 623-7000",
    "lat": 34.061148,
    "lng": -117.739035
  },
  {
    "id": "630015959",
    "name": "POMONA CLHF",
    "npi": null,
    "hcaiId": "206198527",
    "businessName": "TRANSITION CARE INC.",
    "contactEmail": "GANDRES2@AOL.COM",
    "categoryName": "CONGREGATE LIVING HEALTH FACILITY",
    "categoryCode": "CLHF",
    "licenseStatus": "ACTIVE",
    "inService": true,
    "licenseNumber": "550003890",
    "licenseEffectiveDate": "05/18/2025",
    "licenseExpirationDate": "05/17/2026",
    "dataDate": "10/18/2025",
    "capacity": 6,
    "address": "1912 N. SAN ANTONIO",
    "city": "POMONA",
    "zip": "91767",
    "county": "LOS ANGELES",
    "phone": "(714) 519-8997",
    "lat": 34.078464,
    "lng": -117.7363935
  },
  {
    "id": "630018097",
    "name": "POMONA DEL SOL ADHC",
    "npi": null,
    "hcaiId": null,
    "businessName": "POMONA DEL SOL ADHC, LLC",
    "contactEmail": "LIU.BOYU@HOTMAIL.COM",
    "categoryName": "ADULT DAY HEALTH CARE",
    "categoryCode": "ADHC",
    "licenseStatus": "ACTIVE",
    "inService": true,
    "licenseNumber": "550005027",
    "licenseEffectiveDate": "10/29/2025",
    "licenseExpirationDate": "10/28/2026",
    "dataDate": "10/18/2025",
    "capacity": 0,
    "address": "3240 N GAREY AVE",
    "city": "POMONA",
    "zip": "91767",
    "county": "LOS ANGELES",
    "phone": "(877) 201-7377",
    "lat": 34.106517,
    "lng": -117.746847
  },
  {
    "id": "930000211",
    "name": "POMONA DIALYSIS",
    "npi": "1609840347",
    "hcaiId": "306197100",
    "businessName": "DVA HEALTHCARE RENAL CARE, INC.",
    "contactEmail": "CAL_C@DAVITA.COM",
    "categoryName": "CHRONIC DIALYSIS CLINIC",
    "categoryCode": "ESRD/CDC",
    "licenseStatus": "ACTIVE",
    "inService": true,
    "licenseNumber": "930000286",
    "licenseEffectiveDate": "11/12/2024",
    "licenseExpirationDate": "11/11/2025",
    "dataDate": "10/18/2025",
    "capacity": 34,
    "address": "2111 N GAREY AVE",
    "city": "POMONA",
    "zip": "91767",
    "county": "LOS ANGELES",
    "phone": "(909) 596-9997",
    "lat": 34.08585746,
    "lng": -117.7514179
  },
  {
    "id": "630017089",
    "name": "POMONA DIALYSIS CENTER, INC.",
    "npi": null,
    "hcaiId": "306190912",
    "businessName": "POMONA DIALYSIS CENTER, INC.",
    "contactEmail": "STABASSUM@CDMSRENAL.COM",
    "categoryName": "CHRONIC DIALYSIS CLINIC",
    "categoryCode": "ESRD/CDC",
    "licenseStatus": "ACTIVE",
    "inService": true,
    "licenseNumber": "550004095",
    "licenseEffectiveDate": "12/21/2024",
    "licenseExpirationDate": "12/20/2025",
    "dataDate": "10/18/2025",
    "capacity": 25,
    "address": "255 E. BONITA AVENUE, BUILDING 1, SUITE 200A",
    "city": "POMONA",
    "zip": "91767",
    "county": "LOS ANGELES",
    "phone": "(909) 784-2949",
    "lat": 34.09630029,
    "lng": -117.7456368
  },
  {
    "id": "930000123",
    "name": "POMONA VALLEY HOSPITAL MEDICAL CENTER",
    "npi": "1407813660",
    "hcaiId": "106190630",
    "businessName": "POMONA VALLEY HOSPITAL MEDICAL CENTER",
    "contactEmail": "MICHAEL.VESTINO@PVHMC.ORG",
    "categoryName": "GENERAL ACUTE CARE HOSPITAL",
    "categoryCode": "GACH",
    "licenseStatus": "ACTIVE",
    "inService": true,
    "licenseNumber": "930000128",
    "licenseEffectiveDate": "11/01/2025",
    "licenseExpirationDate": "10/31/2026",
    "dataDate": "10/18/2025",
    "capacity": 427,
    "address": "1798 N. GAREY AVE",
    "city": "POMONA",
    "zip": "91767",
    "county": "LOS ANGELES",
    "phone": "(909) 865-9584",
    "lat": 34.077096,
    "lng": -117.750627
  },
  {
    "id": "630014300",
    "name": "SAN BERNARDINO HOUSE",
    "npi": "1609104769",
    "hcaiId": null,
    "businessName": "ALPHA RESIDENTIAL, INC.",
    "contactEmail": "JANETLEWIS5964@GMAIL.COM",
    "categoryName": "INTERMEDIATE CARE FACILITY-DD/H/N/CN/IID",
    "categoryCode": "ICFDDH",
    "licenseStatus": "ACTIVE",
    "inService": true,
    "licenseNumber": "550002479",
    "licenseEffectiveDate": "06/01/2025",
    "licenseExpirationDate": "05/31/2026",
    "dataDate": "10/18/2025",
    "capacity": 6,
    "address": "692 SAN BERNARDINO AVE",
    "city": "POMONA",
    "zip": "91767",
    "county": "LOS ANGELES",
    "phone": "(951) 858-8637",
    "lat": 34.075557,
    "lng": -117.7389495
  },
  {
    "id": "630011744",
    "name": "SCOVILLE VILLA",
    "npi": "1164682829",
    "hcaiId": null,
    "businessName": "SEVBENOA, INC.",
    "contactEmail": "SCOVILLEVILLA@GMAIL.COM",
    "categoryName": "INTERMEDIATE CARE FACILITY-DD/H/N/CN/IID",
    "categoryCode": "ICFDDH",
    "licenseStatus": "ACTIVE",
    "inService": true,
    "licenseNumber": "550000858",
    "licenseEffectiveDate": "12/18/2024",
    "licenseExpirationDate": "12/17/2025",
    "dataDate": "10/18/2025",
    "capacity": 6,
    "address": "1244 SCOVILLE AVE",
    "city": "POMONA",
    "zip": "91767",
    "county": "LOS ANGELES",
    "phone": "(909) 624-9107",
    "lat": 34.078752,
    "lng": -117.7259265
  },
  {
    "id": "630018404",
    "name": "SYMPATHY HOME HEALTH CARE INC.",
    "npi": null,
    "hcaiId": "406192011",
    "businessName": "SYMPATHY HOME HEALTH CARE INC.",
    "contactEmail": "SYMPATHYHHC@GMAIL.COM",
    "categoryName": "HOME HEALTH AGENCY",
    "categoryCode": "HHA",
    "licenseStatus": "ACTIVE",
    "inService": true,
    "licenseNumber": "550004909",
    "licenseEffectiveDate": "09/13/2024",
    "licenseExpirationDate": "09/12/2025",
    "dataDate": "10/18/2025",
    "capacity": 0,
    "address": "1818 N ORANGE GROVE AVE, SUITE 202",
    "city": "POMONA",
    "zip": "91767",
    "county": "LOS ANGELES",
    "phone": "(951) 946-8150",
    "lat": 34.076709,
    "lng": -117.748278
  },
  {
    "id": "630026319",
    "name": "TRI-STATE COMMUNITY HEALTHCARE CENTER - POMONA",
    "npi": null,
    "hcaiId": null,
    "businessName": "TRI - STATE COMMUNITY HEALTHCARE CENTER",
    "contactEmail": "ARAM.MANOUKIAN@TRISTATECLINICS.ORG",
    "categoryName": "PRIMARY CARE CLINIC",
    "categoryCode": "COMTYC",
    "licenseStatus": "ACTIVE",
    "inService": true,
    "licenseNumber": "550004322",
    "licenseEffectiveDate": "08/09/2025",
    "licenseExpirationDate": "08/08/2026",
    "dataDate": "10/18/2025",
    "capacity": 0,
    "address": "1532 SAN BERNARDINO AVE, SUITE B-7",
    "city": "POMONA",
    "zip": "91767",
    "county": "LOS ANGELES",
    "phone": "(626) 827-6239",
    "lat": 34.075233,
    "lng": -117.72009
  },
  {
    "id": "630014996",
    "name": "UNICARE COMMUNITY HEALTH CENTER, INC.",
    "npi": null,
    "hcaiId": "306198005",
    "businessName": "UNICARE COMMUNITY HEALTH CENTER, INC.",
    "contactEmail": "K.VO@UNICARECHC.ORG",
    "categoryName": "PRIMARY CARE CLINIC",
    "categoryCode": "COMTYC",
    "licenseStatus": "ACTIVE",
    "inService": true,
    "licenseNumber": "550006138",
    "licenseEffectiveDate": "02/05/2025",
    "licenseExpirationDate": "02/04/2026",
    "dataDate": "10/18/2025",
    "capacity": 0,
    "address": "1501 E HOLT AVE, SUITE A",
    "city": "POMONA",
    "zip": "91767",
    "county": "LOS ANGELES",
    "phone": "(909) 623-3600",
    "lat": 34.063542,
    "lng": -117.720486
  },
  {
    "id": "630027609",
    "name": "WHOLE PERSON CARE CLINIC",
    "npi": "1922790906",
    "hcaiId": null,
    "businessName": "WHOLE PERSON CARE CLINIC",
    "contactEmail": "NSARTE@WPCC.ORG",
    "categoryName": "PRIMARY CARE CLINIC",
    "categoryCode": "COMTYC",
    "licenseStatus": "ACTIVE",
    "inService": true,
    "licenseNumber": "550009286",
    "licenseEffectiveDate": "01/10/2025",
    "licenseExpirationDate": "07/09/2025",
    "dataDate": "10/18/2025",
    "capacity": 0,
    "address": "1410 N GAREY AVE",
    "city": "POMONA",
    "zip": "91767",
    "county": "LOS ANGELES",
    "phone": "(323) 746-3637",
    "lat": 34.07204401,
    "lng": -117.75179
  }
]