[
  {
    "id": "630012958",
    "name": "ACCENTCARE HOSPICE & PALLIATIVE CARE OF CALIFORNIA - SAN BERNARDINO",
    "npi": "1336408848",
    "hcaiId": "406364424",
    "businessName": "SEASONS HOSPICE & PALLIATIVE CARE OF CALIFORNIA - SAN BERNARDINO, LLC",
    "contactEmail": "SHERRYHOMAN@ACCENTCARE.COM",
    "categoryName": "HOSPICE",
    "categoryCode": "HOSPICE",
    "licenseStatus": "ACTIVE",
    "inService": true,
    "licenseNumber": "550001512",
    "licenseEffectiveDate": "12/18/2024",
    "licenseExpirationDate": "12/17/2026",
    "dataDate": "10/18/2025",
    "capacity": 0,
    "address": "3110 E GUASTI RD, SUITE 315",
    "city": "ONTARIO",
    "zip": "91761",
    "county": "SAN BERNARDINO",
    "phone": "(909) 981-1136",
    "lat": 34.065702,
    "lng": -117.583857
  },
  {
    "id": "630014591",
    "name": "ARCHIBALD HOUSE",
    "npi": "1639412166",
    "hcaiId": null,
    "businessName": "ARCHIBALD GROUP INC.",
    "contactEmail": "AMBIRSAR@GMAIL.COM",
    "categoryName": "INTERMEDIATE CARE FACILITY-DD/H/N/CN/IID",
    "categoryCode": "ICFDDH",
    "licenseStatus": "ACTIVE",
    "inService": true,
    "licenseNumber": "550002739",
    "licenseEffectiveDate": "06/10/2025",
    "licenseExpirationDate": "06/09/2026",
    "dataDate": "10/18/2025",
    "capacity": 6,
    "address": "2731 E ARABIAN PL",
    "city": "ONTARIO",
    "zip": "91761",
    "county": "SAN BERNARDINO",
    "phone": "(909) 815-7412",
    "lat": 34.010019,
    "lng": -117.5929155
  },
  {
    "id": "630014351",
    "name": "ASCENDIO HEALTH SYSTEMS, INC",
    "npi": null,
    "hcaiId": "406364587",
    "businessName": "ASCENDIO HEALTH SYSTEMS",
    "contactEmail": "ASCENDIOHEALTH@GMAIL.COM",
    "categoryName": "HOSPICE",
    "categoryCode": "HOSPICE",
    "licenseStatus": "ACTIVE",
    "inService": true,
    "licenseNumber": "550002428",
    "licenseEffectiveDate": "09/23/2025",
    "licenseExpirationDate": "09/22/2027",
    "dataDate": "10/18/2025",
    "capacity": 0,
    "address": "1035 S MILLIKEN AVE, SUITE I",
    "city": "ONTARIO",
    "zip": "91761",
    "county": "SAN BERNARDINO",
    "phone": "(310) 435-1351",
    "lat": 34.05355017,
    "lng": -117.558096
  },
  {
    "id": "630012523",
    "name": "BEST HOME HEALTH CARE INC",
    "npi": "1689904443",
    "hcaiId": "406364413",
    "businessName": "BEST HOME HEALTH CARE, INC.",
    "contactEmail": "SMULUGETA@BESTHHC.COM",
    "categoryName": "HOME HEALTH AGENCY",
    "categoryCode": "HHA",
    "licenseStatus": "ACTIVE",
    "inService": true,
    "licenseNumber": "550001389",
    "licenseEffectiveDate": "11/25/2025",
    "licenseExpirationDate": "11/24/2026",
    "dataDate": "10/18/2025",
    "capacity": 0,
    "address": "1175 S GROVE AVE, SUITE 102",
    "city": "ONTARIO",
    "zip": "91761",
    "county": "SAN BERNARDINO",
    "phone": "(909) 923-9303",
    "lat": 34.050546,
    "lng": -117.6279795
  },
  {
    "id": "240001718",
    "name": "CORAM CVS/SPECIALTY INFUSION SERVICES",
    "npi": null,
    "hcaiId": "406364250",
    "businessName": "CORAM HEALTHCARE CORPORATION OF SOUTHERN CA",
    "contactEmail": "MCLICENSING@CVSCAREMARK.COM",
    "categoryName": "HOME HEALTH AGENCY",
    "categoryCode": "HHA",
    "licenseStatus": "ACTIVE",
    "inService": true,
    "licenseNumber": "240000748",
    "licenseEffectiveDate": "11/28/2025",
    "licenseExpirationDate": "11/27/2026",
    "dataDate": "10/18/2025",
    "capacity": 0,
    "address": "4355 E LOWELL ST, SUITE C",
    "city": "ONTARIO",
    "zip": "91761",
    "county": "SAN BERNARDINO",
    "phone": "(909) 605-0010",
    "lat": 34.051911,
    "lng": -117.5570288
  },
  {
    "id": "630015372",
    "name": "KAISER FOUNDATION HOSPITAL, ONTARIO",
    "npi": "1396027181",
    "hcaiId": null,
    "businessName": null,
    "contactEmail": null,
    "categoryName": "CHRONIC DIALYSIS CLINIC",
    "categoryCode": "ESRD",
    "licenseStatus": null,
    "inService": null,
    "licenseNumber": null,
    "licenseEffectiveDate": null,
    "licenseExpirationDate": null,
    "dataDate": "10/18/2025",
    "capacity": 0,
    "address": "2295 S VINEYARD AVE",
    "city": "ONTARIO",
    "zip": "91761",
    "county": "SAN BERNARDINO",
    "phone": null,
    "lat": 34.032033,
    "lng": -117.608796
  },
  {
    "id": "630013398",
    "name": "KAISER FOUNDATION HOSPITAL- ONTARIO",
    "npi": null,
    "hcaiId": "106364265",
    "businessName": "KAISER FOUNDATION HOSPITALS",
    "contactEmail": null,
    "categoryName": "GENERAL ACUTE CARE HOSPITAL",
    "categoryCode": "GACH",
    "licenseStatus": "ACTIVE",
    "inService": true,
    "licenseNumber": "240000159",
    "licenseEffectiveDate": "04/01/2025",
    "licenseExpirationDate": "03/31/2026",
    "dataDate": "10/18/2025",
    "capacity": 214,
    "address": "2295 S VINEYARD AVE",
    "city": "ONTARIO",
    "zip": "91761",
    "county": "SAN BERNARDINO",
    "phone": null,
    "lat": 34.032033,
    "lng": -117.608796
  },
  {
    "id": "240001936",
    "name": "KAISER ONTARIO VINEYARD ASC",
    "npi": null,
    "hcaiId": null,
    "businessName": null,
    "contactEmail": null,
    "categoryName": "SURGICAL CLINIC",
    "categoryCode": "ASC",
    "licenseStatus": null,
    "inService": null,
    "licenseNumber": null,
    "licenseEffectiveDate": null,
    "licenseExpirationDate": null,
    "dataDate": "10/18/2025",
    "capacity": 0,
    "address": "2295 S VINEYARD AVE",
    "city": "ONTARIO",
    "zip": "91761",
    "county": "SAN BERNARDINO",
    "phone": "(909) 724-7070",
    "lat": 34.032033,
    "lng": -117.608796
  },
  {
    "id": "630016038",
    "name": "NURSES CARE HOSPICE, INC.",
    "npi": null,
    "hcaiId": "406360995",
    "businessName": "NURSES CARE HOSPICE INC.",
    "contactEmail": "NURSESCAREHOSPICE@YAHOO.COM",
    "categoryName": "HOSPICE",
    "categoryCode": "HOSPICE",
    "licenseStatus": "ACTIVE",
    "inService": true,
    "licenseNumber": "550003547",
    "licenseEffectiveDate": "06/15/2024",
    "licenseExpirationDate": "06/14/2026",
    "dataDate": "10/18/2025",
    "capacity": 0,
    "address": "909 S. CUCAMONGA AVENUE, SUITE 115B",
    "city": "ONTARIO",
    "zip": "91761",
    "county": "SAN BERNARDINO",
    "phone": "(909) 256-0462",
    "lat": 34.054362,
    "lng": -117.6307785
  },
  {
    "id": "630017682",
    "name": "ONTARIO HEALTH CENTER",
    "npi": null,
    "hcaiId": null,
    "businessName": null,
    "contactEmail": null,
    "categoryName": "PRIMARY CARE CLINIC",
    "categoryCode": "FQHC",
    "licenseStatus": null,
    "inService": null,
    "licenseNumber": null,
    "licenseEffectiveDate": null,
    "licenseExpirationDate": null,
    "dataDate": "10/18/2025",
    "capacity": 0,
    "address": "150 E HOLT BLVD",
    "city": "ONTARIO",
    "zip": "91761",
    "county": "SAN BERNARDINO",
    "phone": null,
    "lat": 34.062984,
    "lng": -117.649899
  },
  {
    "id": "630016197",
    "name": "ONTARIO MILLS DIALYSIS",
    "npi": "1437538618",
    "hcaiId": "306364567",
    "businessName": "TRAILSTONE DIALYSIS LLC",
    "contactEmail": "CAL_C@DAVITA.COM",
    "categoryName": "CHRONIC DIALYSIS CLINIC",
    "categoryCode": "ESRD/CDC",
    "licenseStatus": "ACTIVE",
    "inService": true,
    "licenseNumber": "550003544",
    "licenseEffectiveDate": "11/18/2024",
    "licenseExpirationDate": "11/17/2025",
    "dataDate": "10/18/2025",
    "capacity": 25,
    "address": "2403 S VINEYARD AVE, SUITE D",
    "city": "ONTARIO",
    "zip": "91761",
    "county": "SAN BERNARDINO",
    "phone": "(909) 923-3850",
    "lat": 34.02934703,
    "lng": -117.6109436
  },
  {
    "id": "630016900",
    "name": "PACIFIC VALLEY HOSPICE CARE, INC.",
    "npi": "1578018669",
    "hcaiId": "406361576",
    "businessName": "PACIFIC VALLEY HOSPICE CARE, INC.",
    "contactEmail": "PACIFICVALLEYHOSPICEINC@GMAIL.COM",
    "categoryName": "HOSPICE",
    "categoryCode": "HOSPICE",
    "licenseStatus": "ACTIVE",
    "inService": true,
    "licenseNumber": "550003875",
    "licenseEffectiveDate": "05/17/2023",
    "licenseExpirationDate": "03/20/2025",
    "dataDate": "10/18/2025",
    "capacity": 0,
    "address": "4295 E JURUPA ST, SUITE 201",
    "city": "ONTARIO",
    "zip": "91761",
    "county": "SAN BERNARDINO",
    "phone": "(909) 321-0264",
    "lat": 34.0488898,
    "lng": -117.5587533
  },
  {
    "id": "240001847",
    "name": "PARKTREE COMMUNITY HEALTH CENTER",
    "npi": "1154788560",
    "hcaiId": "306364520",
    "businessName": "POMONA COMMUNITY HEALTH CENTER",
    "contactEmail": "DAVID.KADAR@PARKTREECHC.ORG",
    "categoryName": "PRIMARY CARE CLINIC",
    "categoryCode": "COMTYC",
    "licenseStatus": "ACTIVE",
    "inService": true,
    "licenseNumber": "240000826",
    "licenseEffectiveDate": "08/16/2025",
    "licenseExpirationDate": "08/15/2026",
    "dataDate": "10/18/2025",
    "capacity": 0,
    "address": "1556 S. SULTANA AVE.",
    "city": "ONTARIO",
    "zip": "91761",
    "county": "SAN BERNARDINO",
    "phone": "(909) 630-7939",
    "lat": 34.0454268,
    "lng": -117.6460277
  },
  {
    "id": "630018287",
    "name": "PARKTREE COMMUNITY HEALTH CENTER",
    "npi": null,
    "hcaiId": "306360548",
    "businessName": "POMONA COMMUNITY HEALTH CENTER",
    "contactEmail": "DAVID.KADAR@PARKTREECHC.ORG",
    "categoryName": "PRIMARY CARE CLINIC",
    "categoryCode": "COMTYC",
    "licenseStatus": "ACTIVE",
    "inService": true,
    "licenseNumber": "550004701",
    "licenseEffectiveDate": "05/30/2025",
    "licenseExpirationDate": "05/29/2026",
    "dataDate": "10/18/2025",
    "capacity": 0,
    "address": "2680 E RIVERSIDE DR",
    "city": "ONTARIO",
    "zip": "91761",
    "county": "SAN BERNARDINO",
    "phone": "(909) 630-7939",
    "lat": 34.018749,
    "lng": -117.5944815
  },
  {
    "id": "630019933",
    "name": "PARKTREE COMMUNITY HEALTH CENTER",
    "npi": "1154788560",
    "hcaiId": null,
    "businessName": "POMONA COMMUNITY HEALTH CENTER",
    "contactEmail": "ELLEN.SILVER@PARKTREECHC.ORG",
    "categoryName": "PRIMARY CARE CLINIC",
    "categoryCode": "COMTYC",
    "licenseStatus": "ACTIVE",
    "inService": true,
    "licenseNumber": "240000826",
    "licenseEffectiveDate": "08/16/2025",
    "licenseExpirationDate": "08/15/2026",
    "dataDate": "10/18/2025",
    "capacity": 0,
    "address": "1845 S SULTANA AVE, ROOM P2",
    "city": "ONTARIO",
    "zip": "91761",
    "county": "SAN BERNARDINO",
    "phone": "(909) 630-7927",
    "lat": 34.03992378,
    "lng": -117.6459029
  },
  {
    "id": "630000461",
    "name": "PRIME HOME HEALTH",
    "npi": "1144838012",
    "hcaiId": "406364322",
    "businessName": "ALLCARE HEALTH SERVICES LLC",
    "contactEmail": "SUPPORT@PRIMEPROVIDERS.COM",
    "categoryName": "HOME HEALTH AGENCY",
    "categoryCode": "HHA",
    "licenseStatus": "ACTIVE",
    "inService": true,
    "licenseNumber": "550000223",
    "licenseEffectiveDate": "06/15/2025",
    "licenseExpirationDate": "06/14/2026",
    "dataDate": "10/18/2025",
    "capacity": 0,
    "address": "360 S MILLIKEN AVE, SUITE F&G",
    "city": "ONTARIO",
    "zip": "91761",
    "county": "SAN BERNARDINO",
    "phone": "(818) 377-6202",
    "lat": 34.059663,
    "lng": -117.559116
  },
  {
    "id": "240001421",
    "name": "QUALITY HOME HEALTH AGENCY",
    "npi": "1194882035",
    "hcaiId": "406364166",
    "businessName": "ENMED, LLC DBA QUALITY HOME HEALTH AGENCY",
    "contactEmail": "QHHA@AOL.COM",
    "categoryName": "HOME HEALTH AGENCY",
    "categoryCode": "HHA",
    "licenseStatus": "ACTIVE",
    "inService": true,
    "licenseNumber": "240000607",
    "licenseEffectiveDate": "12/21/2024",
    "licenseExpirationDate": "12/20/2025",
    "dataDate": "10/18/2025",
    "capacity": 0,
    "address": "4375 E LOWELL ST, SUITE I",
    "city": "ONTARIO",
    "zip": "91761",
    "county": "SAN BERNARDINO",
    "phone": "(909) 390-3293",
    "lat": 34.05190888,
    "lng": -117.5566763
  },
  {
    "id": "630018416",
    "name": "SYMPHONY HOSPICE, INC.",
    "npi": "1598249567",
    "hcaiId": "406191800",
    "businessName": "SYMPHONY HOSPICE, INC",
    "contactEmail": "COMPLIANCE@SYMPHONYHOSPICE.COM",
    "categoryName": "HOSPICE",
    "categoryCode": "HOSPICE",
    "licenseStatus": "ACTIVE",
    "inService": true,
    "licenseNumber": "550004769",
    "licenseEffectiveDate": "07/15/2025",
    "licenseExpirationDate": "06/09/2027",
    "dataDate": "10/18/2025",
    "capacity": 0,
    "address": "3237 E GUASTI RD, SUITE 250",
    "city": "ONTARIO",
    "zip": "91761",
    "county": "SAN BERNARDINO",
    "phone": "(818) 478-8210",
    "lat": 34.06584568,
    "lng": -117.5808518
  },
  {
    "id": "630018343",
    "name": "TENDER HEART HOSPICE, INC.",
    "npi": null,
    "hcaiId": "406362793",
    "businessName": "TENDER HEART HOSPICE, INC",
    "contactEmail": "TENDERHOSPICE@GMAIL.COM",
    "categoryName": "HOSPICE",
    "categoryCode": "HOSPICE",
    "licenseStatus": "ACTIVE",
    "inService": true,
    "licenseNumber": "550005645",
    "licenseEffectiveDate": "08/07/2022",
    "licenseExpirationDate": "08/06/2024",
    "dataDate": "10/18/2025",
    "capacity": 0,
    "address": "4355 E LOWELL ST, SUITE H",
    "city": "ONTARIO",
    "zip": "91761",
    "county": "SAN BERNARDINO",
    "phone": "(909) 490-0075",
    "lat": 34.051911,
    "lng": -117.5570288
  },
  {
    "id": "630018891",
    "name": "UNICARE COMMUNITY HEALTH CENTER, INC.",
    "npi": "1215494257",
    "hcaiId": "306360652",
    "businessName": "UNICARE COMMUNITY HEALTH CENTER, INC.",
    "contactEmail": "K.VO@UNICARECHC.ORG",
    "categoryName": "PRIMARY CARE CLINIC",
    "categoryCode": "COMTYC",
    "licenseStatus": "ACTIVE",
    "inService": true,
    "licenseNumber": "550006138",
    "licenseEffectiveDate": "02/05/2025",
    "licenseExpirationDate": "02/04/2026",
    "dataDate": "10/18/2025",
    "capacity": 0,
    "address": "1151 E WALNUT ST",
    "city": "ONTARIO",
    "zip": "91761",
    "county": "SAN BERNARDINO",
    "phone": "(909) 467-1425",
    "lat": 34.027074,
    "lng": -117.629964
  },
  {
    "id": "630017993",
    "name": "UNITY HOSPICE CARE, INC.",
    "npi": "1013426139",
    "hcaiId": "406361758",
    "businessName": "UNITY HOSPICE CARE, INC.",
    "contactEmail": "UNITYHOSPICECAREINC@GMAIL.COM",
    "categoryName": "HOSPICE",
    "categoryCode": "HOSPICE",
    "licenseStatus": "ACTIVE",
    "inService": true,
    "licenseNumber": "550004739",
    "licenseEffectiveDate": "05/31/2025",
    "licenseExpirationDate": "05/30/2027",
    "dataDate": "10/18/2025",
    "capacity": 0,
    "address": "1119 S MILLIKEN AVE, SUITE B",
    "city": "ONTARIO",
    "zip": "91761",
    "county": "SAN BERNARDINO",
    "phone": "(909) 443-7500",
    "lat": 34.05239486,
    "lng": -117.5576948
  }
]