[
  {
    "id": "630017641",
    "name": "ABBA HOSPICE INC.",
    "npi": "1376055673",
    "hcaiId": "406195554",
    "businessName": "ABBA HOSPICE INC.",
    "contactEmail": "ABBAHOSPICEINC@GMAIL.COM",
    "categoryName": "HOSPICE",
    "categoryCode": "HOSPICE",
    "licenseStatus": "ACTIVE",
    "inService": true,
    "licenseNumber": "550004732",
    "licenseEffectiveDate": "05/20/2025",
    "licenseExpirationDate": "05/19/2027",
    "dataDate": "10/18/2025",
    "capacity": 0,
    "address": "20955 PATHFINDER RD, SUITE 332",
    "city": "DIAMOND BAR",
    "zip": "91765",
    "county": "LOS ANGELES",
    "phone": "(909) 468-2033",
    "lat": 33.984603,
    "lng": -117.8472825
  },
  {
    "id": "980002404",
    "name": "ADVENT HEALTHCARE SERVICES, INC.",
    "npi": "1558473272",
    "hcaiId": "406196949",
    "businessName": "ADVENT HEALTHCARE SERVICES, INC.",
    "contactEmail": "ADVENTHEALTHCAREINC@GMAIL.COM",
    "categoryName": "HOME HEALTH AGENCY",
    "categoryCode": "HHA",
    "licenseStatus": "ACTIVE",
    "inService": true,
    "licenseNumber": "980001514",
    "licenseEffectiveDate": "08/20/2025",
    "licenseExpirationDate": "08/19/2026",
    "dataDate": "10/18/2025",
    "capacity": 0,
    "address": "3333 S. BREA CANYON RD, SUITE 123",
    "city": "DIAMOND BAR",
    "zip": "91765",
    "county": "LOS ANGELES",
    "phone": "(909) 839-2511",
    "lat": 33.967026,
    "lng": -117.8487315
  },
  {
    "id": "630016704",
    "name": "ADVENT HOSPICE & PALLIATIVE CARE, INC.",
    "npi": null,
    "hcaiId": "406191839",
    "businessName": "ADVENT HOSPICE & PALLIATIVE CARE, INC.",
    "contactEmail": "ADVENTHOSPICE@GMAIL.COM",
    "categoryName": "HOSPICE",
    "categoryCode": "HOSPICE",
    "licenseStatus": "ACTIVE",
    "inService": true,
    "licenseNumber": "550004702",
    "licenseEffectiveDate": "05/08/2025",
    "licenseExpirationDate": "05/07/2027",
    "dataDate": "10/18/2025",
    "capacity": 0,
    "address": "3333 S. BREA CANYON ROAD, SUITE 122",
    "city": "DIAMOND BAR",
    "zip": "91765",
    "county": "LOS ANGELES",
    "phone": "(909) 839-2511",
    "lat": 33.967026,
    "lng": -117.8487315
  },
  {
    "id": "630019799",
    "name": "ANGELES DEL SOL CBAS",
    "npi": null,
    "hcaiId": null,
    "businessName": "ANGELES DEL SOL CBAS, LLC",
    "contactEmail": "LIU.BOYU@HOTMAIL.COM",
    "categoryName": "ADULT DAY HEALTH CARE",
    "categoryCode": "ADHC",
    "licenseStatus": "ACTIVE",
    "inService": true,
    "licenseNumber": "550005606",
    "licenseEffectiveDate": "07/21/2025",
    "licenseExpirationDate": "07/20/2026",
    "dataDate": "10/18/2025",
    "capacity": 0,
    "address": "820 N DIAMOND BAR BLVD",
    "city": "DIAMOND BAR",
    "zip": "91765",
    "county": "LOS ANGELES",
    "phone": "(626) 322-2777",
    "lat": 34.03460093,
    "lng": -117.8069165
  },
  {
    "id": "630014292",
    "name": "COLD SPRINGS HOME",
    "npi": "1992143275",
    "hcaiId": null,
    "businessName": "RSCR CALIFORNIA, INC.",
    "contactEmail": "DAIJA.LOPEZ@RESCARE.COM",
    "categoryName": "INTERMEDIATE CARE FACILITY-DD/H/N/CN/IID",
    "categoryCode": "ICFDDN",
    "licenseStatus": "ACTIVE",
    "inService": true,
    "licenseNumber": "550002494",
    "licenseEffectiveDate": "11/19/2025",
    "licenseExpirationDate": "11/18/2026",
    "dataDate": "10/18/2025",
    "capacity": 6,
    "address": "21334 COLD SPRING LN",
    "city": "DIAMOND BAR",
    "zip": "91765",
    "county": "LOS ANGELES",
    "phone": "(909) 596-5360",
    "lat": 33.973308,
    "lng": -117.840366
  },
  {
    "id": "630011795",
    "name": "DIAMOND HOME HEALTH SERVICES, INC.",
    "npi": "1093972887",
    "hcaiId": "406197395",
    "businessName": "DIAMOND HOME HEALTH SERVICES, INC.",
    "contactEmail": "SANDYPAN1011@HOTMAIL.COM",
    "categoryName": "HOME HEALTH AGENCY",
    "categoryCode": "HHA",
    "licenseStatus": "ACTIVE",
    "inService": true,
    "licenseNumber": "550001245",
    "licenseEffectiveDate": "02/03/2025",
    "licenseExpirationDate": "02/02/2026",
    "dataDate": "10/18/2025",
    "capacity": 0,
    "address": "1200 S DIAMOND BAR BLVD, SUITE 213",
    "city": "DIAMOND BAR",
    "zip": "91765",
    "county": "LOS ANGELES",
    "phone": "(909) 860-2100",
    "lat": 34.000434,
    "lng": -117.810837
  },
  {
    "id": "630017860",
    "name": "EDEN HOME CARE, INC.",
    "npi": null,
    "hcaiId": "406191862",
    "businessName": "EDEN HOME CARE, INC.",
    "contactEmail": "EDENHOMECAREINC@GMAIL.COM",
    "categoryName": "HOME HEALTH AGENCY",
    "categoryCode": "HHA",
    "licenseStatus": "ACTIVE",
    "inService": true,
    "licenseNumber": "550005008",
    "licenseEffectiveDate": "10/10/2024",
    "licenseExpirationDate": "10/09/2025",
    "dataDate": "10/18/2025",
    "capacity": 0,
    "address": "3333 S BREA CANYON RD, SUITE 107",
    "city": "DIAMOND BAR",
    "zip": "91765",
    "county": "LOS ANGELES",
    "phone": "(213) 596-9119",
    "lat": 33.967026,
    "lng": -117.8487315
  },
  {
    "id": "630013783",
    "name": "EDEN HOSPICE CARE, INC",
    "npi": null,
    "hcaiId": "406197849",
    "businessName": "EDEN HOSPICE CARE, INC",
    "contactEmail": "EDENHOSPICECARE@GMAIL.COM",
    "categoryName": "HOSPICE",
    "categoryCode": "HOSPICE",
    "licenseStatus": "ACTIVE",
    "inService": true,
    "licenseNumber": "550002458",
    "licenseEffectiveDate": "10/07/2025",
    "licenseExpirationDate": "10/06/2027",
    "dataDate": "10/18/2025",
    "capacity": 0,
    "address": "3333 S BREA CANYON RD, SUITE 107",
    "city": "DIAMOND BAR",
    "zip": "91765",
    "county": "LOS ANGELES",
    "phone": "(213) 596-9119",
    "lat": 33.967026,
    "lng": -117.8487315
  },
  {
    "id": "630020227",
    "name": "HOSPICE OF SOUTHERN CALIFORNIA",
    "npi": "1538783709",
    "hcaiId": "406190245",
    "businessName": "HOSPICE OF SOUTHERN CALIFORNIA",
    "contactEmail": "HOSPICEOFSOUTHERNCALI@GMAIL.COM",
    "categoryName": "HOSPICE",
    "categoryCode": "HOSPICE",
    "licenseStatus": "ACTIVE",
    "inService": true,
    "licenseNumber": "550005941",
    "licenseEffectiveDate": "09/25/2025",
    "licenseExpirationDate": "12/21/2026",
    "dataDate": "10/18/2025",
    "capacity": 0,
    "address": "750 NORTH DIAMOND BAR BOULEVARD, SUITE 202",
    "city": "DIAMOND BAR",
    "zip": "91765",
    "county": "LOS ANGELES",
    "phone": "(909) 612-0085",
    "lat": 34.03300303,
    "lng": -117.8071026
  },
  {
    "id": "960001416",
    "name": "INDEPENDENT OPTIONS, BRONZE KNOLL HOUSE",
    "npi": "1851463483",
    "hcaiId": null,
    "businessName": "INDEPENDENT OPTIONS, INC.",
    "contactEmail": "YGARCIA@INDEPENDENTOPTIONS.ORG",
    "categoryName": "INTERMEDIATE CARE FACILITY-DD/H/N/CN/IID",
    "categoryCode": "ICFDDH",
    "licenseStatus": "ACTIVE",
    "inService": true,
    "licenseNumber": "960000725",
    "licenseEffectiveDate": "11/15/2024",
    "licenseExpirationDate": "11/14/2025",
    "dataDate": "10/18/2025",
    "capacity": 6,
    "address": "1625 BRONZE KNOLL RD",
    "city": "DIAMOND BAR",
    "zip": "91765",
    "county": "LOS ANGELES",
    "phone": "(951) 529-7617",
    "lat": 33.992685,
    "lng": -117.808821
  },
  {
    "id": "960001228",
    "name": "INDEPENDENT OPTIONS, INC., KIOWA CREST HOUSE",
    "npi": "1851463483",
    "hcaiId": null,
    "businessName": "INDEPENDENT OPTIONS, INC.",
    "contactEmail": "YGARCIA@INDEPENDENTOPTIONS.ORG",
    "categoryName": "INTERMEDIATE CARE FACILITY-DD/H/N/CN/IID",
    "categoryCode": "ICFDDH",
    "licenseStatus": "ACTIVE",
    "inService": true,
    "licenseNumber": "960000636",
    "licenseEffectiveDate": "11/15/2024",
    "licenseExpirationDate": "11/14/2025",
    "dataDate": "10/18/2025",
    "capacity": 6,
    "address": "1501 KIOWA CREST DR",
    "city": "DIAMOND BAR",
    "zip": "91765",
    "county": "LOS ANGELES",
    "phone": "(951) 529-7617",
    "lat": 33.993837,
    "lng": -117.832518
  },
  {
    "id": "960001280",
    "name": "INDEPENDENT OPTIONS, INC./KIOWA CREST II",
    "npi": "1851463483",
    "hcaiId": null,
    "businessName": "INDEPENDENT OPTIONS, INC.",
    "contactEmail": "IO@INDEPENDENTOPTIONS.ORG",
    "categoryName": "INTERMEDIATE CARE FACILITY-DD/H/N/CN/IID",
    "categoryCode": "ICFDDH",
    "licenseStatus": "ACTIVE",
    "inService": true,
    "licenseNumber": "960000665",
    "licenseEffectiveDate": "11/07/2025",
    "licenseExpirationDate": "11/06/2026",
    "dataDate": "10/18/2025",
    "capacity": 6,
    "address": "1591 KIOWA CREST DR",
    "city": "DIAMOND BAR",
    "zip": "91765",
    "county": "LOS ANGELES",
    "phone": "(951) 529-7197",
    "lat": 33.991731,
    "lng": -117.829728
  },
  {
    "id": "630027147",
    "name": "INFINITE BLESSINGS CARE HOME, INC.",
    "npi": "1831870393",
    "hcaiId": null,
    "businessName": "INFINITE BLESSINGS CARE HOME, INC.",
    "contactEmail": "INFINITEBLESSINGSCAREHOME88@GMAIL.COM",
    "categoryName": "INTERMEDIATE CARE FACILITY-DD/H/N/CN/IID",
    "categoryCode": "ICFDDH",
    "licenseStatus": "ACTIVE",
    "inService": true,
    "licenseNumber": "550008901",
    "licenseEffectiveDate": "12/28/2024",
    "licenseExpirationDate": "12/27/2025",
    "dataDate": "10/18/2025",
    "capacity": 6,
    "address": "23711 PROSPECT VALLEY DR",
    "city": "DIAMOND BAR",
    "zip": "91765",
    "county": "LOS ANGELES",
    "phone": "(909) 895-7262",
    "lat": 34.02428602,
    "lng": -117.805327
  },
  {
    "id": "630026409",
    "name": "INLAND VALLEY HOME HEALTH CARE",
    "npi": null,
    "hcaiId": null,
    "businessName": "SUSTAINABLE HEALTH INITIATIVE INC",
    "contactEmail": "AKHAN@INLANDVALLEYHHC.COM",
    "categoryName": "HOME HEALTH AGENCY",
    "categoryCode": "HHA",
    "licenseStatus": "ACTIVE",
    "inService": true,
    "licenseNumber": "550009114",
    "licenseEffectiveDate": "05/08/2025",
    "licenseExpirationDate": "05/07/2026",
    "dataDate": "10/18/2025",
    "capacity": 0,
    "address": "404 S PROSPECTORS RD, SUITE A",
    "city": "DIAMOND BAR",
    "zip": "91765",
    "county": "LOS ANGELES",
    "phone": "(909) 225-2721",
    "lat": 34.0175851,
    "lng": -117.8122853
  },
  {
    "id": "960000929",
    "name": "JULIAN HOUSE",
    "npi": "1851463483",
    "hcaiId": null,
    "businessName": "INDEPENDENT OPTIONS, INC.",
    "contactEmail": "RILAO@INDEPENDENTOPTIONS.ORG",
    "categoryName": "INTERMEDIATE CARE FACILITY-DD/H/N/CN/IID",
    "categoryCode": "ICFDDH",
    "licenseStatus": "ACTIVE",
    "inService": true,
    "licenseNumber": "960000506",
    "licenseEffectiveDate": "01/03/2025",
    "licenseExpirationDate": "01/02/2026",
    "dataDate": "10/18/2025",
    "capacity": 6,
    "address": "500 JULIAN CT",
    "city": "DIAMOND BAR",
    "zip": "91765",
    "county": "LOS ANGELES",
    "phone": "(951) 205-5702",
    "lat": 34.026777,
    "lng": -117.786951
  },
  {
    "id": "630011030",
    "name": "LARK SPRING TERRACE, INC.",
    "npi": "1164669446",
    "hcaiId": null,
    "businessName": "LARK SPRING TERRACE, INC.",
    "contactEmail": "OPHEL211@GMAIL.COM",
    "categoryName": "INTERMEDIATE CARE FACILITY-DD/H/N/CN/IID",
    "categoryCode": "ICFDDH",
    "licenseStatus": "ACTIVE",
    "inService": true,
    "licenseNumber": "550000596",
    "licenseEffectiveDate": "11/21/2025",
    "licenseExpirationDate": "11/20/2026",
    "dataDate": "10/18/2025",
    "capacity": 6,
    "address": "22504 LARK SPRING TER",
    "city": "DIAMOND BAR",
    "zip": "91765",
    "county": "LOS ANGELES",
    "phone": null,
    "lat": 33.988464,
    "lng": -117.8227665
  },
  {
    "id": "980001665",
    "name": "LOTUS HEALTHCARE PARTNERS, INC.",
    "npi": "1174522700",
    "hcaiId": "406194951",
    "businessName": "LOTUS HEALTHCARE PARTNERS, INC.",
    "contactEmail": "LOTUSHEALTHCAREPARTNERS2@GMAIL.COM",
    "categoryName": "HOME HEALTH AGENCY",
    "categoryCode": "HHA",
    "licenseStatus": "ACTIVE",
    "inService": true,
    "licenseNumber": "980000959",
    "licenseEffectiveDate": "02/06/2025",
    "licenseExpirationDate": "02/05/2026",
    "dataDate": "10/18/2025",
    "capacity": 0,
    "address": "414 S PROSPECTORS RD, SUITE G",
    "city": "DIAMOND BAR",
    "zip": "91765",
    "county": "LOS ANGELES",
    "phone": "(909) 396-7440",
    "lat": 34.017759,
    "lng": -117.812106
  },
  {
    "id": "960000927",
    "name": "PALOMINO HOUSE",
    "npi": "1851463483",
    "hcaiId": null,
    "businessName": "INDEPENDENT OPTIONS, INC.",
    "contactEmail": "RILAO@INDEPENDENTOPTIONS.ORG",
    "categoryName": "INTERMEDIATE CARE FACILITY-DD/H/N/CN/IID",
    "categoryCode": "ICFDDH",
    "licenseStatus": "ACTIVE",
    "inService": true,
    "licenseNumber": "960000505",
    "licenseEffectiveDate": "01/03/2025",
    "licenseExpirationDate": "01/02/2026",
    "dataDate": "10/18/2025",
    "capacity": 6,
    "address": "23938 PALOMINO DR",
    "city": "DIAMOND BAR",
    "zip": "91765",
    "county": "LOS ANGELES",
    "phone": "(909) 860-0486",
    "lat": 34.025589,
    "lng": -117.801999
  },
  {
    "id": "630013977",
    "name": "PINNACLE HOSPICE INC",
    "npi": null,
    "hcaiId": "406198141",
    "businessName": "PINNACLE HOSPICE INC",
    "contactEmail": "PINNACLEHOSPICE556@GMAIL.COM",
    "categoryName": "HOSPICE",
    "categoryCode": "HOSPICE",
    "licenseStatus": "ACTIVE",
    "inService": true,
    "licenseNumber": "550002470",
    "licenseEffectiveDate": "10/09/2023",
    "licenseExpirationDate": "10/08/2025",
    "dataDate": "10/18/2025",
    "capacity": 0,
    "address": "556 N DIAMOND BAR BLVD, SUITE 104",
    "city": "DIAMOND BAR",
    "zip": "91765",
    "county": "LOS ANGELES",
    "phone": "(909) 895-7377",
    "lat": 34.029936,
    "lng": -117.8086455
  },
  {
    "id": "630010995",
    "name": "QUALITY HOSPICE CARE, INC",
    "npi": "1538218078",
    "hcaiId": "406196910",
    "businessName": "QUALITY HOSPICE CARE, INC.",
    "contactEmail": "QUALITYHOSPICEINC@GMAIL.COM",
    "categoryName": "HOSPICE",
    "categoryCode": "HOSPICE",
    "licenseStatus": "ACTIVE",
    "inService": true,
    "licenseNumber": "550000395",
    "licenseEffectiveDate": "04/23/2025",
    "licenseExpirationDate": "04/16/2026",
    "dataDate": "10/18/2025",
    "capacity": 0,
    "address": "3333 S BREA CANYON RD, SUITE 217",
    "city": "DIAMOND BAR",
    "zip": "91765",
    "county": "LOS ANGELES",
    "phone": "(626) 667-8609",
    "lat": 33.967031,
    "lng": -117.848742
  },
  {
    "id": "630016880",
    "name": "SANTE HOME HEALTH, INC.",
    "npi": "1487100103",
    "hcaiId": "406191333",
    "businessName": "SANTE HOME HEALTH, INC.",
    "contactEmail": "ANA@SANTEHHI.COM",
    "categoryName": "HOME HEALTH AGENCY",
    "categoryCode": "HHA",
    "licenseStatus": "ACTIVE",
    "inService": true,
    "licenseNumber": "550004314",
    "licenseEffectiveDate": "05/19/2025",
    "licenseExpirationDate": "05/18/2026",
    "dataDate": "10/18/2025",
    "capacity": 0,
    "address": "21660 COPLEY DR, SUITE 185",
    "city": "DIAMOND BAR",
    "zip": "91765",
    "county": "LOS ANGELES",
    "phone": "(888) 678-3040",
    "lat": 33.99782201,
    "lng": -117.833679
  },
  {
    "id": "630011797",
    "name": "ST. LUKE'S HOSPICE, INC.",
    "npi": null,
    "hcaiId": "406197369",
    "businessName": "ST. LUKE'S HOSPICE, INC.",
    "contactEmail": "STLUKESHOSPICEINC@GMAIL.COM",
    "categoryName": "HOSPICE",
    "categoryCode": "HOSPICE",
    "licenseStatus": "ACTIVE",
    "inService": true,
    "licenseNumber": "550001219",
    "licenseEffectiveDate": "03/01/2024",
    "licenseExpirationDate": "02/28/2026",
    "dataDate": "10/18/2025",
    "capacity": 0,
    "address": "3333 S BREA CANYON RD, SUITE 221",
    "city": "DIAMOND BAR",
    "zip": "91765",
    "county": "LOS ANGELES",
    "phone": "(909) 444-1100",
    "lat": 33.967026,
    "lng": -117.8487315
  },
  {
    "id": "630016162",
    "name": "VIDA HOSPICE SERVICES, INC.",
    "npi": "1750773248",
    "hcaiId": "406190672",
    "businessName": "VIDA HOSPICE SERVICES, INC.",
    "contactEmail": "VIDAHOSPICESERVICES@PROTONMAIL.COM",
    "categoryName": "HOSPICE",
    "categoryCode": "HOSPICE",
    "licenseStatus": "ACTIVE",
    "inService": true,
    "licenseNumber": "550004048",
    "licenseEffectiveDate": "01/22/2024",
    "licenseExpirationDate": "09/14/2025",
    "dataDate": "10/18/2025",
    "capacity": 0,
    "address": "21671 GATEWAY CENTER DR, SUITE 104",
    "city": "DIAMOND BAR",
    "zip": "91765",
    "county": "LOS ANGELES",
    "phone": "(909) 236-7485",
    "lat": 34.00047802,
    "lng": -117.834814
  },
  {
    "id": "980001011",
    "name": "VNA OF GREATER LOS ANGELES, INC.",
    "npi": "1255407292",
    "hcaiId": "406196816",
    "businessName": "VNA OF GREATER LOS ANGELES, INC.",
    "contactEmail": "RWALIA@VNAHHS.COM",
    "categoryName": "HOME HEALTH AGENCY",
    "categoryCode": "HHA",
    "licenseStatus": "ACTIVE",
    "inService": true,
    "licenseNumber": "980000527",
    "licenseEffectiveDate": "04/29/2025",
    "licenseExpirationDate": "11/18/2025",
    "dataDate": "10/18/2025",
    "capacity": 0,
    "address": "402 S PROSPECTORS RD, SUITE G-100",
    "city": "DIAMOND BAR",
    "zip": "91765",
    "county": "LOS ANGELES",
    "phone": "(626) 568-2588",
    "lat": 34.01838634,
    "lng": -117.813331
  },
  {
    "id": "980001129",
    "name": "VNA OF GREATER LOS ANGELES, INC.",
    "npi": null,
    "hcaiId": null,
    "businessName": "VNA OF GREATER LOS ANGELES, INC.",
    "contactEmail": "RWALIA@VNAHHS.COM",
    "categoryName": "HOSPICE",
    "categoryCode": "HOSPICE",
    "licenseStatus": "ACTIVE",
    "inService": true,
    "licenseNumber": "980000527",
    "licenseEffectiveDate": "04/29/2025",
    "licenseExpirationDate": "11/18/2025",
    "dataDate": "10/18/2025",
    "capacity": 0,
    "address": "402 S PROSPECTORS RD, SUITE G-200",
    "city": "DIAMOND BAR",
    "zip": "91765",
    "county": "LOS ANGELES",
    "phone": "(626) 844-7692",
    "lat": 34.066521,
    "lng": -118.3802265
  }
]