[
  {
    "id": "630013759",
    "name": "ANGELUS HOME HEALTH",
    "npi": "1104184761",
    "hcaiId": "406364469",
    "businessName": "ANGELUS HOME HEALTH",
    "contactEmail": "ANGELUSHOMEHEALTH@HOTMAIL.COM",
    "categoryName": "HOME HEALTH AGENCY",
    "categoryCode": "HHA",
    "licenseStatus": "ACTIVE",
    "inService": true,
    "licenseNumber": "550002037",
    "licenseEffectiveDate": "02/21/2025",
    "licenseExpirationDate": "02/20/2026",
    "dataDate": "10/18/2025",
    "capacity": 0,
    "address": "211 S LAUREL AVE",
    "city": "ONTARIO",
    "zip": "91762",
    "county": "SAN BERNARDINO",
    "phone": "(909) 999-0587",
    "lat": 34.06221,
    "lng": -117.652176
  },
  {
    "id": "630014950",
    "name": "BEACON HOSPICE CARE",
    "npi": "1245674217",
    "hcaiId": "406364582",
    "businessName": "BEACON HOSPICE CARE",
    "contactEmail": "BEACONHOSPICECARE@GMAIL.COM",
    "categoryName": "HOSPICE",
    "categoryCode": "HOSPICE",
    "licenseStatus": "ACTIVE",
    "inService": true,
    "licenseNumber": "550002712",
    "licenseEffectiveDate": "05/12/2024",
    "licenseExpirationDate": "05/11/2026",
    "dataDate": "10/18/2025",
    "capacity": 0,
    "address": "221 W F ST",
    "city": "ONTARIO",
    "zip": "91762",
    "county": "SAN BERNARDINO",
    "phone": "(909) 608-7555",
    "lat": 34.069194,
    "lng": -117.653238
  },
  {
    "id": "240001836",
    "name": "BONNIE BRAE HOME",
    "npi": "1114183589",
    "hcaiId": null,
    "businessName": "SALEM CHRISTIAN HOMES, INC.",
    "contactEmail": "SHEATH@SALEMCHRISTIANHOMES.ORG",
    "categoryName": "INTERMEDIATE CARE FACILITY-DD/H/N/CN/IID",
    "categoryCode": "ICFDDH",
    "licenseStatus": "ACTIVE",
    "inService": true,
    "licenseNumber": "240000821",
    "licenseEffectiveDate": "04/26/2025",
    "licenseExpirationDate": "04/25/2026",
    "dataDate": "10/18/2025",
    "capacity": 6,
    "address": "226 W BONNIE BRAE CT",
    "city": "ONTARIO",
    "zip": "91762",
    "county": "SAN BERNARDINO",
    "phone": "(909) 287-4155",
    "lat": 34.083135,
    "lng": -117.6532875
  },
  {
    "id": "240001889",
    "name": "BOULDER HOME",
    "npi": "1073771226",
    "hcaiId": null,
    "businessName": "SALEM CHRISTIAN HOMES, INC.",
    "contactEmail": "KTRUJILLO@SALEMCHRISTIANHOMES.ORG",
    "categoryName": "INTERMEDIATE CARE FACILITY-DD/H/N/CN/IID",
    "categoryCode": "ICFDDH",
    "licenseStatus": "ACTIVE",
    "inService": true,
    "licenseNumber": "240000847",
    "licenseEffectiveDate": "03/24/2025",
    "licenseExpirationDate": "03/23/2026",
    "dataDate": "10/18/2025",
    "capacity": 6,
    "address": "840 W 6TH ST",
    "city": "ONTARIO",
    "zip": "91762",
    "county": "SAN BERNARDINO",
    "phone": "(909) 720-9222",
    "lat": 34.085331,
    "lng": -117.664515
  },
  {
    "id": "630015530",
    "name": "BRISTOL HOSPICE - INLAND VALLEY, L.L.C.",
    "npi": "1013318112",
    "hcaiId": "406364524",
    "businessName": "BRISTOL HOSPICE - INLAND VALLEY, L.L.C.",
    "contactEmail": "REGULATORY@BRISTOLHOSPICE.COM",
    "categoryName": "HOSPICE",
    "categoryCode": "HOSPICE",
    "licenseStatus": "ACTIVE",
    "inService": true,
    "licenseNumber": "550003038",
    "licenseEffectiveDate": "10/23/2025",
    "licenseExpirationDate": "03/31/2027",
    "dataDate": "10/18/2025",
    "capacity": 0,
    "address": "1520 N MOUNTAIN AVE, BUILDING E, SUITE 206",
    "city": "ONTARIO",
    "zip": "91762",
    "county": "SAN BERNARDINO",
    "phone": "(945) 546-2614",
    "lat": 34.085925,
    "lng": -117.669564
  },
  {
    "id": "630000901",
    "name": "CARDINAL HOME HEALTH CARE",
    "npi": "1518042407",
    "hcaiId": "406364351",
    "businessName": "NEW LIFE VENTURE CORPORATION",
    "contactEmail": "ARMANDALMARIO@CARDINALHHC.COM",
    "categoryName": "HOME HEALTH AGENCY",
    "categoryCode": "HHA",
    "licenseStatus": "ACTIVE",
    "inService": true,
    "licenseNumber": "550000533",
    "licenseEffectiveDate": "11/29/2024",
    "licenseExpirationDate": "11/28/2025",
    "dataDate": "10/18/2025",
    "capacity": 0,
    "address": "226 W E ST",
    "city": "ONTARIO",
    "zip": "91762",
    "county": "SAN BERNARDINO",
    "phone": "(909) 395-8333",
    "lat": 34.068429,
    "lng": -117.653418
  },
  {
    "id": "630020628",
    "name": "CARDINAL HOSPICE AND PALLIATIVE CARE",
    "npi": "1972129641",
    "hcaiId": "406363860",
    "businessName": "CARDINAL HOSPICE AND PALLIATIVE CARE",
    "contactEmail": "CARDINALHOSPICECARE@GMAIL.COM",
    "categoryName": "HOSPICE",
    "categoryCode": "HOSPICE",
    "licenseStatus": "ACTIVE",
    "inService": true,
    "licenseNumber": "550006412",
    "licenseEffectiveDate": "06/07/2025",
    "licenseExpirationDate": "06/06/2027",
    "dataDate": "10/18/2025",
    "capacity": 0,
    "address": "500 N PALM AVE",
    "city": "ONTARIO",
    "zip": "91762",
    "county": "SAN BERNARDINO",
    "phone": "(909) 395-9676",
    "lat": 34.06827001,
    "lng": -117.6535221
  },
  {
    "id": "630018325",
    "name": "DIGNITY HOSPICE",
    "npi": "1821570060",
    "hcaiId": "406361806",
    "businessName": "DIGNITY HOSPICE",
    "contactEmail": "DIGNITYHOSPICE@HOTMAIL.COM",
    "categoryName": "HOSPICE",
    "categoryCode": "HOSPICE",
    "licenseStatus": "ACTIVE",
    "inService": true,
    "licenseNumber": "550004764",
    "licenseEffectiveDate": "05/29/2025",
    "licenseExpirationDate": "05/28/2027",
    "dataDate": "10/18/2025",
    "capacity": 0,
    "address": "215 S LAUREL AVE",
    "city": "ONTARIO",
    "zip": "91762",
    "county": "SAN BERNARDINO",
    "phone": "(909) 999-7919",
    "lat": 34.06251043,
    "lng": -117.6523193
  },
  {
    "id": "630025039",
    "name": "FRIENDS OF FAMILY HEALTH CENTER",
    "npi": "1871818138",
    "hcaiId": null,
    "businessName": "FRIENDS OF FAMILY HEALTH CENTER",
    "contactEmail": null,
    "categoryName": "PRIMARY CARE CLINIC",
    "categoryCode": "COMTYC",
    "licenseStatus": "ACTIVE",
    "inService": true,
    "licenseNumber": "060000516",
    "licenseEffectiveDate": "06/16/2025",
    "licenseExpirationDate": "06/15/2026",
    "dataDate": "10/18/2025",
    "capacity": 0,
    "address": "1129 W 4TH ST",
    "city": "ONTARIO",
    "zip": "91762",
    "county": "SAN BERNARDINO",
    "phone": null,
    "lat": 34.077375,
    "lng": -117.6714315
  },
  {
    "id": "240001851",
    "name": "HARVARD DIVISION",
    "npi": "1164606380",
    "hcaiId": null,
    "businessName": "ABILITY PATHWAYS INCORPORATED",
    "contactEmail": "DANABARNETT66_OQY@INDEEDMAIL.COM",
    "categoryName": "INTERMEDIATE CARE FACILITY-DD/H/N/CN/IID",
    "categoryCode": "ICFDDN",
    "licenseStatus": "ACTIVE",
    "inService": true,
    "licenseNumber": "240000828",
    "licenseEffectiveDate": "06/01/2025",
    "licenseExpirationDate": "05/31/2026",
    "dataDate": "10/18/2025",
    "capacity": 6,
    "address": "1318 W HARVARD PL",
    "city": "ONTARIO",
    "zip": "91762",
    "county": "SAN BERNARDINO",
    "phone": "(909) 741-6877",
    "lat": 34.07904,
    "lng": -117.675369
  },
  {
    "id": "240000071",
    "name": "INLAND CHRISTIAN HOME",
    "npi": "1093711681",
    "hcaiId": "206360042",
    "businessName": "INLAND CHRISTIAN HOME INC.",
    "contactEmail": "DAVIDS@ICHOME.ORG",
    "categoryName": "SKILLED NURSING FACILITY",
    "categoryCode": "SNF",
    "licenseStatus": "ACTIVE",
    "inService": true,
    "licenseNumber": "240000016",
    "licenseEffectiveDate": "02/16/2025",
    "licenseExpirationDate": "02/15/2026",
    "dataDate": "10/18/2025",
    "capacity": 59,
    "address": "1950 S MOUNTAIN AVE",
    "city": "ONTARIO",
    "zip": "91762",
    "county": "SAN BERNARDINO",
    "phone": "(909) 983-0084",
    "lat": 34.037073,
    "lng": -117.6710985
  },
  {
    "id": "630003741",
    "name": "ISHER CARE HOME",
    "npi": "1023153780",
    "hcaiId": null,
    "businessName": "ISHER GROUP HOMES, INC.",
    "contactEmail": "AMBIRSAR@GMAIL.COM",
    "categoryName": "INTERMEDIATE CARE FACILITY-DD/H/N/CN/IID",
    "categoryCode": "ICFDDH",
    "licenseStatus": "ACTIVE",
    "inService": true,
    "licenseNumber": "550000140",
    "licenseEffectiveDate": "11/25/2025",
    "licenseExpirationDate": "11/24/2026",
    "dataDate": "10/18/2025",
    "capacity": 6,
    "address": "860 W MAPLE ST",
    "city": "ONTARIO",
    "zip": "91762",
    "county": "SAN BERNARDINO",
    "phone": "(951) 707-5584",
    "lat": 34.043301,
    "lng": -117.665559
  },
  {
    "id": "240001749",
    "name": "LADENEY HOME",
    "npi": "1346408598",
    "hcaiId": null,
    "businessName": "SALEM CHRISTIAN HOMES, INC.",
    "contactEmail": "BFERRARIS@SALEMCHRISTIANHOME.ORG",
    "categoryName": "INTERMEDIATE CARE FACILITY-DD/H/N/CN/IID",
    "categoryCode": "ICFDDH",
    "licenseStatus": "ACTIVE",
    "inService": true,
    "licenseNumber": "240000761",
    "licenseEffectiveDate": "06/14/2025",
    "licenseExpirationDate": "06/13/2026",
    "dataDate": "10/18/2025",
    "capacity": 6,
    "address": "858 W LA DENEY DR",
    "city": "ONTARIO",
    "zip": "91762",
    "county": "SAN BERNARDINO",
    "phone": "(909) 342-0558",
    "lat": 34.084503,
    "lng": -117.6649515
  },
  {
    "id": "240001712",
    "name": "MANZANITA HOME",
    "npi": "1982862132",
    "hcaiId": null,
    "businessName": "SALEM CHRISTIAN HOMES, INC.",
    "contactEmail": "KTRUJILLO@SALEMCHRISTIANHOMES.ORG",
    "categoryName": "INTERMEDIATE CARE FACILITY-DD/H/N/CN/IID",
    "categoryCode": "ICFDDH",
    "licenseStatus": "ACTIVE",
    "inService": true,
    "licenseNumber": "240000745",
    "licenseEffectiveDate": "12/30/2024",
    "licenseExpirationDate": "12/29/2025",
    "dataDate": "10/18/2025",
    "capacity": 6,
    "address": "708 MANZANITA CT",
    "city": "ONTARIO",
    "zip": "91762",
    "county": "SAN BERNARDINO",
    "phone": "(909) 720-9222",
    "lat": 34.039026,
    "lng": -117.661518
  },
  {
    "id": "060002017",
    "name": "MISSION ADULT DAY HEALTH CARE CENTER",
    "npi": null,
    "hcaiId": null,
    "businessName": "TRAVELWORLD US, INCORPORATED",
    "contactEmail": "MISSIONADHC@GMAIL.COM",
    "categoryName": "ADULT DAY HEALTH CARE",
    "categoryCode": "ADHC",
    "licenseStatus": "ACTIVE",
    "inService": true,
    "licenseNumber": "060000900",
    "licenseEffectiveDate": "11/24/2024",
    "licenseExpirationDate": "11/23/2025",
    "dataDate": "10/18/2025",
    "capacity": 0,
    "address": "214 WEST E ST",
    "city": "ONTARIO",
    "zip": "91762",
    "county": "SAN BERNARDINO",
    "phone": "(909) 984-4051",
    "lat": 34.068555,
    "lng": -117.652941
  },
  {
    "id": "240000253",
    "name": "ONTARIO ADVANCED SURGERY CENTER",
    "npi": "1710945787",
    "hcaiId": "306364019",
    "businessName": "UPLAND OUTPATIENT SURGICAL CENTER, LTD.",
    "contactEmail": "MICHELLE.ALUSTIZA@SCASURGERY.COM",
    "categoryName": "SURGICAL CLINIC",
    "categoryCode": "ASC",
    "licenseStatus": "INACTIVE - CAPEN DECISION",
    "inService": false,
    "licenseNumber": "240000740",
    "licenseEffectiveDate": "06/09/2007",
    "licenseExpirationDate": "06/08/2008",
    "dataDate": "10/18/2025",
    "capacity": 0,
    "address": "1211 W 6TH ST",
    "city": "ONTARIO",
    "zip": "91762",
    "county": "SAN BERNARDINO",
    "phone": "(909) 981-8755",
    "lat": 34.084476,
    "lng": -117.6728985
  },
  {
    "id": "630011735",
    "name": "ONTARIO DIALYSIS CENTER INC",
    "npi": "1770520488",
    "hcaiId": "306364367",
    "businessName": "ONTARIO DIALYSIS CENTER, INC.",
    "contactEmail": "ONTARIODIALYSIS@YAHOO.COM",
    "categoryName": "CHRONIC DIALYSIS CLINIC",
    "categoryCode": "ESRD/CDC",
    "licenseStatus": "ACTIVE",
    "inService": true,
    "licenseNumber": "550000687",
    "licenseEffectiveDate": "11/02/2025",
    "licenseExpirationDate": "11/01/2026",
    "dataDate": "10/18/2025",
    "capacity": 32,
    "address": "1001 W 6TH ST",
    "city": "ONTARIO",
    "zip": "91762",
    "county": "SAN BERNARDINO",
    "phone": "(909) 984-0320",
    "lat": 34.084872,
    "lng": -117.6682815
  },
  {
    "id": "240000090",
    "name": "ONTARIO HEALTHCARE CENTER",
    "npi": "1780900068",
    "hcaiId": "206361276",
    "businessName": "KF ONTARIO HEALTHCARE, LLC",
    "contactEmail": "SCARDENAS@ONTARIOHC.COM",
    "categoryName": "SKILLED NURSING FACILITY",
    "categoryCode": "SNF",
    "licenseStatus": "ACTIVE",
    "inService": true,
    "licenseNumber": "240000181",
    "licenseEffectiveDate": "11/17/2024",
    "licenseExpirationDate": "11/16/2025",
    "dataDate": "10/18/2025",
    "capacity": 59,
    "address": "1661 S EUCLID AVE",
    "city": "ONTARIO",
    "zip": "91762",
    "county": "SAN BERNARDINO",
    "phone": "(909) 984-6713",
    "lat": 34.043058,
    "lng": -117.6497685
  },
  {
    "id": "630016545",
    "name": "ONTARIO HOLT DIALYSIS CENTER, INC",
    "npi": "1659770394",
    "hcaiId": "306364576",
    "businessName": "ONTARIO HOLT DIALYSIS CENTER, INC",
    "contactEmail": "STABASSUM@CDMSRENAL.COM",
    "categoryName": "CHRONIC DIALYSIS CLINIC",
    "categoryCode": "ESRD/CDC",
    "licenseStatus": "ACTIVE",
    "inService": true,
    "licenseNumber": "550003543",
    "licenseEffectiveDate": "05/10/2025",
    "licenseExpirationDate": "05/09/2026",
    "dataDate": "10/18/2025",
    "capacity": 26,
    "address": "1310 W. HOLT BLVD.",
    "city": "ONTARIO",
    "zip": "91762",
    "county": "SAN BERNARDINO",
    "phone": "(909) 986-0230",
    "lat": 34.06335901,
    "lng": -117.6751209
  },
  {
    "id": "630019929",
    "name": "PARKTREE COMMUNITY HEALTH CENTER",
    "npi": "1154788560",
    "hcaiId": null,
    "businessName": "POMONA COMMUNITY HEALTH CENTER",
    "contactEmail": "ELLEN.SILVER@PARKTREECHC.ORG",
    "categoryName": "PRIMARY CARE CLINIC",
    "categoryCode": "COMTYC",
    "licenseStatus": "ACTIVE",
    "inService": true,
    "licenseNumber": "240000826",
    "licenseEffectiveDate": "08/16/2025",
    "licenseExpirationDate": "08/15/2026",
    "dataDate": "10/18/2025",
    "capacity": 0,
    "address": "1390 W FRANCIS ST, ROOM H8",
    "city": "ONTARIO",
    "zip": "91762",
    "county": "SAN BERNARDINO",
    "phone": "(909) 630-7927",
    "lat": 34.040985,
    "lng": -117.6762493
  },
  {
    "id": "630019930",
    "name": "PARKTREE COMMUNITY HEALTH CENTER",
    "npi": "1154788560",
    "hcaiId": null,
    "businessName": "POMONA COMMUNITY HEALTH CENTER",
    "contactEmail": "ELLEN.SILVER@PARKTREECHC.ORG",
    "categoryName": "PRIMARY CARE CLINIC",
    "categoryCode": "COMTYC",
    "licenseStatus": "ACTIVE",
    "inService": true,
    "licenseNumber": "240000826",
    "licenseEffectiveDate": "08/16/2025",
    "licenseExpirationDate": "08/15/2026",
    "dataDate": "10/18/2025",
    "capacity": 0,
    "address": "1020 N VINE AVE, ROOM 33",
    "city": "ONTARIO",
    "zip": "91762",
    "county": "SAN BERNARDINO",
    "phone": "(909) 630-7927",
    "lat": 34.077411,
    "lng": -117.655326
  },
  {
    "id": "630019931",
    "name": "PARKTREE COMMUNITY HEALTH CENTER",
    "npi": "1154788560",
    "hcaiId": null,
    "businessName": "POMONA COMMUNITY HEALTH CENTER",
    "contactEmail": "ELLEN.SILVER@PARKTREECHC.ORG",
    "categoryName": "PRIMARY CARE CLINIC",
    "categoryCode": "COMTYC",
    "licenseStatus": "ACTIVE",
    "inService": true,
    "licenseNumber": "240000826",
    "licenseEffectiveDate": "08/16/2025",
    "licenseExpirationDate": "08/15/2026",
    "dataDate": "10/18/2025",
    "capacity": 0,
    "address": "5555 HOWARD ST",
    "city": "ONTARIO",
    "zip": "91762",
    "county": "SAN BERNARDINO",
    "phone": "(909) 630-7927",
    "lat": 34.052178,
    "lng": -117.6842531
  },
  {
    "id": "630019934",
    "name": "PARKTREE COMMUNITY HEALTH CENTER",
    "npi": "1154788560",
    "hcaiId": null,
    "businessName": "POMONA COMMUNITY HEALTH CENTER",
    "contactEmail": "ELLEN.SILVER@PARKTREECHC.ORG",
    "categoryName": "PRIMARY CARE CLINIC",
    "categoryCode": "COMTYC",
    "licenseStatus": "ACTIVE",
    "inService": true,
    "licenseNumber": "240000826",
    "licenseEffectiveDate": "08/16/2025",
    "licenseExpirationDate": "08/15/2026",
    "dataDate": "10/18/2025",
    "capacity": 0,
    "address": "1221 S OAKS AVE, ROOM 9B",
    "city": "ONTARIO",
    "zip": "91762",
    "county": "SAN BERNARDINO",
    "phone": "(909) 630-7927",
    "lat": 34.05007712,
    "lng": -117.6762925
  },
  {
    "id": "240001111",
    "name": "ROSEWOOD HOUSE",
    "npi": "1528194487",
    "hcaiId": null,
    "businessName": "RSCR INLAND, INC.",
    "contactEmail": "SERENA.ROJAS@RESCARE.COM",
    "categoryName": "INTERMEDIATE CARE FACILITY-DD/H/N/CN/IID",
    "categoryCode": "ICFDDN",
    "licenseStatus": "ACTIVE",
    "inService": true,
    "licenseNumber": "240000475",
    "licenseEffectiveDate": "03/15/2025",
    "licenseExpirationDate": "03/14/2026",
    "dataDate": "10/18/2025",
    "capacity": 6,
    "address": "720 W ROSEWOOD CT",
    "city": "ONTARIO",
    "zip": "91762",
    "county": "SAN BERNARDINO",
    "phone": "(909) 986-6861",
    "lat": 34.07724,
    "lng": -117.6613965
  },
  {
    "id": "630014997",
    "name": "UNICARE COMMUNITY HEALTH CENTER, INC.",
    "npi": "1710309513",
    "hcaiId": "306364530",
    "businessName": "UNICARE COMMUNITY HEALTH CENTER, INC.",
    "contactEmail": "K.VO@UNICARECHC.ORG",
    "categoryName": "PRIMARY CARE CLINIC",
    "categoryCode": "COMTYC",
    "licenseStatus": "ACTIVE",
    "inService": true,
    "licenseNumber": "550006138",
    "licenseEffectiveDate": "02/05/2025",
    "licenseExpirationDate": "02/04/2026",
    "dataDate": "10/18/2025",
    "capacity": 0,
    "address": "437 N EUCLID AVE",
    "city": "ONTARIO",
    "zip": "91762",
    "county": "SAN BERNARDINO",
    "phone": "(909) 988-2555",
    "lat": 34.068051,
    "lng": -117.6515505
  },
  {
    "id": "630019740",
    "name": "UNICARE COMMUNITY HEALTH CENTER, INC.",
    "npi": "1043777089",
    "hcaiId": null,
    "businessName": "UNICARE COMMUNITY HEALTH CENTER, INC.",
    "contactEmail": null,
    "categoryName": "PRIMARY CARE CLINIC",
    "categoryCode": "FQHC/COMTYC",
    "licenseStatus": "ACTIVE",
    "inService": true,
    "licenseNumber": "550006138",
    "licenseEffectiveDate": "02/05/2025",
    "licenseExpirationDate": "02/04/2026",
    "dataDate": "10/18/2025",
    "capacity": 0,
    "address": "123 W E ST",
    "city": "ONTARIO",
    "zip": "91762",
    "county": "SAN BERNARDINO",
    "phone": "(909) 988-2555",
    "lat": 34.068051,
    "lng": -117.6520905
  }
]