[
  {
    "id": "980002233",
    "name": "ACCURATE HOME HEALTH CARE, INC.",
    "npi": "1295700474",
    "hcaiId": "406196650",
    "businessName": "ACCURATE HOME HEALTH CARE, INC.",
    "contactEmail": "ACCURATEHHCI@AOL.COM",
    "categoryName": "HOME HEALTH AGENCY",
    "categoryCode": "HHA",
    "licenseStatus": "ACTIVE",
    "inService": true,
    "licenseNumber": "980001351",
    "licenseEffectiveDate": "05/01/2025",
    "licenseExpirationDate": "04/30/2026",
    "dataDate": "10/18/2025",
    "capacity": 0,
    "address": "3505 HART AVE, SUITE 102",
    "city": "ROSEMEAD",
    "zip": "91770",
    "county": "LOS ANGELES",
    "phone": "(626) 307-5006",
    "lat": 34.072938,
    "lng": -118.0692495
  },
  {
    "id": "630013856",
    "name": "ACCURATE HOSPICE INC.",
    "npi": "1851647382",
    "hcaiId": "406197808",
    "businessName": "ACCURATE HOSPICE INC.",
    "contactEmail": "ACCURATE2HOSPICE@YAHOO.COM",
    "categoryName": "HOSPICE",
    "categoryCode": "HOSPICE",
    "licenseStatus": "ACTIVE",
    "inService": true,
    "licenseNumber": "550002227",
    "licenseEffectiveDate": "02/25/2025",
    "licenseExpirationDate": "02/24/2027",
    "dataDate": "10/18/2025",
    "capacity": 0,
    "address": "3925 ROSEMEAD BLVD, SUITE 201",
    "city": "ROSEMEAD",
    "zip": "91770",
    "county": "LOS ANGELES",
    "phone": "(626) 280-8400",
    "lat": 34.07931,
    "lng": -118.0734885
  },
  {
    "id": "980002284",
    "name": "ALL CARE HOME HEALTH OF SAN GABRIEL",
    "npi": "1700059631",
    "hcaiId": "406196806",
    "businessName": "ALL CARE HOME HEALTH OF SAN GABRIEL",
    "contactEmail": "ALLCAREHOMEHEALTH@PROVIDER.COM",
    "categoryName": "HOME HEALTH AGENCY",
    "categoryCode": "HHA",
    "licenseStatus": "ACTIVE",
    "inService": true,
    "licenseNumber": "980001398",
    "licenseEffectiveDate": "04/08/2025",
    "licenseExpirationDate": "04/07/2026",
    "dataDate": "10/18/2025",
    "capacity": 0,
    "address": "3505 HART AVE, SUITE 203",
    "city": "ROSEMEAD",
    "zip": "91770",
    "county": "LOS ANGELES",
    "phone": "(626) 571-0387",
    "lat": 34.072938,
    "lng": -118.0692495
  },
  {
    "id": "930000021",
    "name": "BHC ALHAMBRA HOSPITAL",
    "npi": "1194758623",
    "hcaiId": "106190020",
    "businessName": "BHC ALHAMBRA HOSPITAL, INC.",
    "contactEmail": "PEGGY.MINNICK@UHSINC.COM",
    "categoryName": "ACUTE PSYCHIATRIC HOSPITAL",
    "categoryCode": "APH",
    "licenseStatus": "ACTIVE",
    "inService": true,
    "licenseNumber": "930000006",
    "licenseEffectiveDate": "02/21/2025",
    "licenseExpirationDate": "02/20/2026",
    "dataDate": "10/18/2025",
    "capacity": 97,
    "address": "4619 ROSEMEAD BLVD",
    "city": "ROSEMEAD",
    "zip": "91770",
    "county": "LOS ANGELES",
    "phone": "(626) 286-1191",
    "lat": 34.08876,
    "lng": -118.073889
  },
  {
    "id": "630008141",
    "name": "BRIGHT CARE HOME HEALTH, INC.",
    "npi": "1801927884",
    "hcaiId": "406196898",
    "businessName": "BRIGHT CARE HOME HEALTH, INC.",
    "contactEmail": "HHBRIGHTCARE@GMAIL.COM",
    "categoryName": "HOME HEALTH AGENCY",
    "categoryCode": "HHA",
    "licenseStatus": "ACTIVE",
    "inService": true,
    "licenseNumber": "550000377",
    "licenseEffectiveDate": "12/12/2025",
    "licenseExpirationDate": "12/11/2026",
    "dataDate": "10/18/2025",
    "capacity": 0,
    "address": "3925 ROSEMEAD BLVD, SUITE 205A",
    "city": "ROSEMEAD",
    "zip": "91770",
    "county": "LOS ANGELES",
    "phone": "(626) 285-9698",
    "lat": 34.07931,
    "lng": -118.0734885
  },
  {
    "id": "630027560",
    "name": "BRIGHT MIND COMMUNITY SERVICES, INC.",
    "npi": null,
    "hcaiId": null,
    "businessName": null,
    "contactEmail": "BMINDCS@GMAIL.COM",
    "categoryName": "PSYCHOLOGY CLINIC",
    "categoryCode": "CMHC",
    "licenseStatus": null,
    "inService": null,
    "licenseNumber": null,
    "licenseEffectiveDate": null,
    "licenseExpirationDate": null,
    "dataDate": "10/18/2025",
    "capacity": 0,
    "address": "1318 SAN GABRIEL BLVD",
    "city": "ROSEMEAD",
    "zip": "91770",
    "county": "LOS ANGELES",
    "phone": "(626) 427-1432",
    "lat": 34.04431275,
    "lng": -118.0897199
  },
  {
    "id": "950000056",
    "name": "DEL MAR CONVALESCENT HOSPITAL",
    "npi": "1972609808",
    "hcaiId": "206190233",
    "businessName": "GIBRALTAR CONVALESCENT HOSPITAL INC.",
    "contactEmail": "ADMIN@DELMARHOSPITAL.COM",
    "categoryName": "SKILLED NURSING FACILITY",
    "categoryCode": "SNF",
    "licenseStatus": "ACTIVE",
    "inService": true,
    "licenseNumber": "950000030",
    "licenseEffectiveDate": "01/13/2025",
    "licenseExpirationDate": "01/12/2026",
    "dataDate": "10/18/2025",
    "capacity": 59,
    "address": "3136 DEL MAR AVE",
    "city": "ROSEMEAD",
    "zip": "91770",
    "county": "LOS ANGELES",
    "phone": "(626) 288-8353",
    "lat": 34.065432,
    "lng": -118.0990125
  },
  {
    "id": "630020880",
    "name": "FAST CARE HOSPICE, INC",
    "npi": null,
    "hcaiId": "406193520",
    "businessName": "FAST CARE HOSPICE, INC",
    "contactEmail": "FASTCAREHOSPICE@GMAIL.COM",
    "categoryName": "HOSPICE",
    "categoryCode": "HOSPICE",
    "licenseStatus": "ACTIVE",
    "inService": true,
    "licenseNumber": "550006426",
    "licenseEffectiveDate": "06/04/2025",
    "licenseExpirationDate": "06/03/2027",
    "dataDate": "10/18/2025",
    "capacity": 0,
    "address": "7940 E GARVEY AVE, SUITE 206A",
    "city": "ROSEMEAD",
    "zip": "91770",
    "county": "LOS ANGELES",
    "phone": "(626) 382-2277",
    "lat": 34.062264,
    "lng": -118.095426
  },
  {
    "id": "630024471",
    "name": "GARFIELD HEALTH CENTER - ROSEMEAD",
    "npi": null,
    "hcaiId": "306190629",
    "businessName": "GARFIELD HEALTH CENTER",
    "contactEmail": "GARFIELDHEALTHCENTER@GMAIL.COM",
    "categoryName": "PRIMARY CARE CLINIC",
    "categoryCode": "COMTYC",
    "licenseStatus": "ACTIVE",
    "inService": true,
    "licenseNumber": "550006936",
    "licenseEffectiveDate": "10/25/2025",
    "licenseExpirationDate": "10/24/2026",
    "dataDate": "10/18/2025",
    "capacity": 0,
    "address": "7740 GARVEY AVE, SUITE B100-B102",
    "city": "ROSEMEAD",
    "zip": "91770",
    "county": "LOS ANGELES",
    "phone": "(626) 300-9939",
    "lat": 34.062138,
    "lng": -118.100556
  },
  {
    "id": "950000058",
    "name": "GREEN ACRES HEALTHCARE CENTER",
    "npi": "1669552022",
    "hcaiId": "206190353",
    "businessName": "GREEN ACRES LODGE LLC",
    "contactEmail": "FAC23ADMIN@LONGWOODMGMT.COM",
    "categoryName": "SKILLED NURSING FACILITY",
    "categoryCode": "SNF",
    "licenseStatus": "ACTIVE",
    "inService": true,
    "licenseNumber": "950000052",
    "licenseEffectiveDate": "01/28/2025",
    "licenseExpirationDate": "01/27/2026",
    "dataDate": "10/18/2025",
    "capacity": 85,
    "address": "8101 HILL DR",
    "city": "ROSEMEAD",
    "zip": "91770",
    "county": "LOS ANGELES",
    "phone": "(626) 280-2293",
    "lat": 34.045758,
    "lng": -118.092276
  },
  {
    "id": "630016439",
    "name": "HERALD CHRISTIAN HEALTH CENTER",
    "npi": "1386000248",
    "hcaiId": "306198203",
    "businessName": "HERALD CHRISTIAN HEALTH CENTER",
    "contactEmail": "ESZETO@HCHCLA.ORG",
    "categoryName": "PRIMARY CARE CLINIC",
    "categoryCode": "COMTYC",
    "licenseStatus": "ACTIVE",
    "inService": true,
    "licenseNumber": "550003386",
    "licenseEffectiveDate": "02/12/2025",
    "licenseExpirationDate": "02/11/2026",
    "dataDate": "10/18/2025",
    "capacity": 0,
    "address": "8841 GARVEY AVENUE",
    "city": "ROSEMEAD",
    "zip": "91770",
    "county": "LOS ANGELES",
    "phone": "(626) 286-8700",
    "lat": 34.062993,
    "lng": -118.075851
  },
  {
    "id": "630026574",
    "name": "HERALD CHRISTIAN HEALTH CENTER",
    "npi": "1386000248",
    "hcaiId": null,
    "businessName": "HERALD CHRISTIAN HEALTH CENTER",
    "contactEmail": null,
    "categoryName": "PRIMARY CARE CLINIC",
    "categoryCode": "COMTYC",
    "licenseStatus": "ACTIVE",
    "inService": true,
    "licenseNumber": "550003386",
    "licenseEffectiveDate": "02/12/2025",
    "licenseExpirationDate": "02/11/2026",
    "dataDate": "10/18/2025",
    "capacity": 0,
    "address": "7423 NEWMARK AVE",
    "city": "ROSEMEAD",
    "zip": "91770",
    "county": "LOS ANGELES",
    "phone": null,
    "lat": 34.060464,
    "lng": -118.107153
  },
  {
    "id": "930000161",
    "name": "L.A. DOWNTOWN MEDICAL CENTER - INGLESIDE CAMPUS D/P APH",
    "npi": "1780183335",
    "hcaiId": "106190410",
    "businessName": "L.A. DOWNTOWN MEDICAL CENTER, LLC",
    "contactEmail": null,
    "categoryName": "ACUTE PSYCHIATRIC HOSPITAL",
    "categoryCode": "APH",
    "licenseStatus": "ACTIVE",
    "inService": true,
    "licenseNumber": "930000137",
    "licenseEffectiveDate": "09/18/2025",
    "licenseExpirationDate": "11/17/2025",
    "dataDate": "10/18/2025",
    "capacity": 118,
    "address": "7500 HELLMAN AVE",
    "city": "ROSEMEAD",
    "zip": "91770",
    "county": "LOS ANGELES",
    "phone": "(626) 288-1160",
    "lat": 34.069338,
    "lng": -118.1057175
  },
  {
    "id": "950000050",
    "name": "MISSION CARE CENTER",
    "npi": "1184610768",
    "hcaiId": "206190122",
    "businessName": "RAMON HEALTHCARE ASSOCIATES LLC",
    "contactEmail": "JPARADA@ENSIGNSERVICES.NET",
    "categoryName": "SKILLED NURSING FACILITY",
    "categoryCode": "SNF",
    "licenseStatus": "ACTIVE",
    "inService": true,
    "licenseNumber": "950000019",
    "licenseEffectiveDate": "05/01/2025",
    "licenseExpirationDate": "04/30/2026",
    "dataDate": "10/18/2025",
    "capacity": 59,
    "address": "4800 DELTA AVE",
    "city": "ROSEMEAD",
    "zip": "91770",
    "county": "LOS ANGELES",
    "phone": "(626) 607-2400",
    "lat": 34.09060496,
    "lng": -118.086484
  },
  {
    "id": "950000076",
    "name": "MONTEREY HEALTHCARE & WELLNESS CENTRE, LP",
    "npi": "1558797910",
    "hcaiId": "206190548",
    "businessName": "MONTEREY HEALTHCARE & WELLNESS CENTRE, LP",
    "contactEmail": "ADMINISTRATOR@MONTEREYHC.COM",
    "categoryName": "SKILLED NURSING FACILITY",
    "categoryCode": "SNF",
    "licenseStatus": "ACTIVE",
    "inService": true,
    "licenseNumber": "950000076",
    "licenseEffectiveDate": "12/30/2024",
    "licenseExpirationDate": "12/29/2025",
    "dataDate": "10/18/2025",
    "capacity": 96,
    "address": "1267 SAN GABRIEL BLVD.",
    "city": "ROSEMEAD",
    "zip": "91770",
    "county": "LOS ANGELES",
    "phone": "(626) 280-3220",
    "lat": 34.042932,
    "lng": -118.0885815
  },
  {
    "id": "630025459",
    "name": "NATURAL HOME HEALTH SERVICES",
    "npi": null,
    "hcaiId": null,
    "businessName": "NATURAL HOME HEALTH SERVICES",
    "contactEmail": "NATURALHHS@GMAIL.COM",
    "categoryName": "HOME HEALTH AGENCY",
    "categoryCode": "HHA",
    "licenseStatus": "ACTIVE",
    "inService": true,
    "licenseNumber": "550008928",
    "licenseEffectiveDate": "01/22/2024",
    "licenseExpirationDate": "07/21/2024",
    "dataDate": "10/18/2025",
    "capacity": 0,
    "address": "7940 GARVEY AVE, SUITE 105B",
    "city": "ROSEMEAD",
    "zip": "91770",
    "county": "LOS ANGELES",
    "phone": "(626) 550-0688",
    "lat": 34.062264,
    "lng": -118.095426
  },
  {
    "id": "630027067",
    "name": "PRECISION HEALTH CENTER-GARVEY",
    "npi": null,
    "hcaiId": null,
    "businessName": null,
    "contactEmail": null,
    "categoryName": "PRIMARY CARE CLINIC",
    "categoryCode": "COMTYC",
    "licenseStatus": null,
    "inService": null,
    "licenseNumber": null,
    "licenseEffectiveDate": null,
    "licenseExpirationDate": null,
    "dataDate": "10/18/2025",
    "capacity": 0,
    "address": "9014 GARVEY AVE, SUITE I",
    "city": "ROSEMEAD",
    "zip": "91770",
    "county": "LOS ANGELES",
    "phone": null,
    "lat": 34.0625927,
    "lng": -118.0725219
  },
  {
    "id": "630025456",
    "name": "QUALITY CARE HOME HEALTH, INC.",
    "npi": null,
    "hcaiId": "406190140",
    "businessName": "QUALITY CARE HOME HEALTH, INC.",
    "contactEmail": "4QUALITYCAREHH@GMAIL.COM",
    "categoryName": "HOME HEALTH AGENCY",
    "categoryCode": "HHA",
    "licenseStatus": "ACTIVE",
    "inService": true,
    "licenseNumber": "550008921",
    "licenseEffectiveDate": "01/22/2025",
    "licenseExpirationDate": "01/21/2026",
    "dataDate": "10/18/2025",
    "capacity": 0,
    "address": "7940 GARVEY AVE, #105A",
    "city": "ROSEMEAD",
    "zip": "91770",
    "county": "LOS ANGELES",
    "phone": "(626) 800-0130",
    "lat": 34.062264,
    "lng": -118.095426
  },
  {
    "id": "930001587",
    "name": "ROSEMEAD DIALYSIS CENTER",
    "npi": "1891786018",
    "hcaiId": "306194976",
    "businessName": "PROFESSIONAL UNITED DIALYSIS CENTER, INC.",
    "contactEmail": "ROSEMEADDIALYSIS@YAHOO.COM",
    "categoryName": "CHRONIC DIALYSIS CLINIC",
    "categoryCode": "ESRD/CDC",
    "licenseStatus": "ACTIVE",
    "inService": true,
    "licenseNumber": "930000892",
    "licenseEffectiveDate": "11/20/2024",
    "licenseExpirationDate": "11/19/2025",
    "dataDate": "10/18/2025",
    "capacity": 18,
    "address": "7403 HELLMAN AVE",
    "city": "ROSEMEAD",
    "zip": "91770",
    "county": "LOS ANGELES",
    "phone": "(626) 280-6262",
    "lat": 34.070076,
    "lng": -118.107801
  },
  {
    "id": "950000003",
    "name": "SAN GABRIEL CONVALESCENT CENTER",
    "npi": "1215011556",
    "hcaiId": "206190677",
    "businessName": "SAN GABRIEL CONVALESCENT CENTER LLC",
    "contactEmail": "FAC24ADMIN2@LONGWOODMGMT.COM",
    "categoryName": "SKILLED NURSING FACILITY",
    "categoryCode": "SNF",
    "licenseStatus": "ACTIVE",
    "inService": true,
    "licenseNumber": "950000091",
    "licenseEffectiveDate": "02/02/2025",
    "licenseExpirationDate": "02/01/2026",
    "dataDate": "10/18/2025",
    "capacity": 129,
    "address": "8035 HILL DR",
    "city": "ROSEMEAD",
    "zip": "91770",
    "county": "LOS ANGELES",
    "phone": "(626) 280-4820",
    "lat": 34.045884,
    "lng": -118.092978
  },
  {
    "id": "630026157",
    "name": "SC ADULT DAY HEALTH CARE CENTER",
    "npi": null,
    "hcaiId": null,
    "businessName": "SC EVERGREEN HEALTH MANAGEMENT INC",
    "contactEmail": "SCDAYCENTER1@GMAIL.COM",
    "categoryName": "ADULT DAY HEALTH CARE",
    "categoryCode": "ADHC",
    "licenseStatus": "ACTIVE",
    "inService": true,
    "licenseNumber": "550008174",
    "licenseEffectiveDate": "09/22/2025",
    "licenseExpirationDate": "09/21/2026",
    "dataDate": "10/18/2025",
    "capacity": 0,
    "address": "8408 GARVEY AVE, SUITE 101",
    "city": "ROSEMEAD",
    "zip": "91770",
    "county": "LOS ANGELES",
    "phone": "(626) 872-0199",
    "lat": 34.062327,
    "lng": -118.0859625
  },
  {
    "id": "060001937",
    "name": "SUNNY CAL ADULT DAY HEALTH CARE CENTER",
    "npi": null,
    "hcaiId": null,
    "businessName": "SUNNY CAL ADULT DAY HEALTH CARE INCORPORATED",
    "contactEmail": "SUNNYCAL.SOPHIE@GMAIL.COM",
    "categoryName": "ADULT DAY HEALTH CARE",
    "categoryCode": "ADHC",
    "licenseStatus": "ACTIVE",
    "inService": true,
    "licenseNumber": "060000754",
    "licenseEffectiveDate": "12/06/2024",
    "licenseExpirationDate": "12/05/2025",
    "dataDate": "10/18/2025",
    "capacity": 0,
    "address": "8450 VALLEY BLVD, SUITE 122B",
    "city": "ROSEMEAD",
    "zip": "91770",
    "county": "LOS ANGELES",
    "phone": "(626) 307-7772",
    "lat": 34.079778,
    "lng": -118.084824
  },
  {
    "id": "630010994",
    "name": "U.S. RENAL CARE METROPOLITAN DIALYSIS",
    "npi": "1104984830",
    "hcaiId": "306197011",
    "businessName": "METROPOLITAN DIALYSIS CENTER, LLC",
    "contactEmail": "LICENSING@USRENALCARE.COM",
    "categoryName": "CHRONIC DIALYSIS CLINIC",
    "categoryCode": "ESRD/CDC",
    "licenseStatus": "ACTIVE",
    "inService": true,
    "licenseNumber": "550000557",
    "licenseEffectiveDate": "11/16/2024",
    "licenseExpirationDate": "11/15/2025",
    "dataDate": "10/18/2025",
    "capacity": 18,
    "address": "3100 DEL MAR AVE",
    "city": "ROSEMEAD",
    "zip": "91770",
    "county": "LOS ANGELES",
    "phone": "(626) 288-7860",
    "lat": 34.064532,
    "lng": -118.0991565
  }
]