[
  {
    "id": "630026545",
    "name": "ARMONY HOME HEALTH CARE INC",
    "npi": null,
    "hcaiId": null,
    "businessName": "ARMONY HOME HEALTH CARE INC",
    "contactEmail": "ARMONYHH@YAHOO.COM",
    "categoryName": "HOME HEALTH AGENCY",
    "categoryCode": "HHA",
    "licenseStatus": "ACTIVE",
    "inService": true,
    "licenseNumber": "550009237",
    "licenseEffectiveDate": "07/03/2025",
    "licenseExpirationDate": "07/02/2026",
    "dataDate": "10/18/2025",
    "capacity": 0,
    "address": "429 W LAS TUNAS DR",
    "city": "SAN GABRIEL",
    "zip": "91776",
    "county": "LOS ANGELES",
    "phone": "(626) 240-2400",
    "lat": 34.10252705,
    "lng": -118.105539
  },
  {
    "id": "950000030",
    "name": "BROADWAY HEALTHCARE CENTER",
    "npi": "1477547024",
    "hcaiId": "206190109",
    "businessName": "AG SAN GABRIEL, LLC",
    "contactEmail": "RITHY.THONG@BROADWAYHCC.COM",
    "categoryName": "SKILLED NURSING FACILITY",
    "categoryCode": "SNF",
    "licenseStatus": "ACTIVE",
    "inService": true,
    "licenseNumber": "950000016",
    "licenseEffectiveDate": "11/01/2025",
    "licenseExpirationDate": "10/31/2026",
    "dataDate": "10/18/2025",
    "capacity": 59,
    "address": "112 E BROADWAY",
    "city": "SAN GABRIEL",
    "zip": "91776",
    "county": "LOS ANGELES",
    "phone": "(626) 285-2165",
    "lat": 34.098579,
    "lng": -118.098756
  },
  {
    "id": "630017396",
    "name": "CHINATOWN SERVICE CENTER FAMILY HEALTH CLINIC - SAN GABRIEL",
    "npi": "1427046754",
    "hcaiId": null,
    "businessName": "CHINATOWN SERVICE CENTER",
    "contactEmail": null,
    "categoryName": "PRIMARY CARE CLINIC",
    "categoryCode": "COMTYC",
    "licenseStatus": "ACTIVE",
    "inService": true,
    "licenseNumber": "960000220",
    "licenseEffectiveDate": "01/16/2025",
    "licenseExpirationDate": "01/15/2026",
    "dataDate": "10/18/2025",
    "capacity": 0,
    "address": "555 W LAS TUNAS DR",
    "city": "SAN GABRIEL",
    "zip": "91776",
    "county": "LOS ANGELES",
    "phone": "(213) 808-1747",
    "lat": 34.10250905,
    "lng": -118.1080948
  },
  {
    "id": "630026593",
    "name": "CRESTNIK HOME HEALTH INC",
    "npi": null,
    "hcaiId": null,
    "businessName": "CRESTNIK HOME HEALTH INC",
    "contactEmail": "CRESTNIK.HHA@GMAIL.COM",
    "categoryName": "HOME HEALTH AGENCY",
    "categoryCode": "HHA",
    "licenseStatus": "ACTIVE",
    "inService": true,
    "licenseNumber": "550009612",
    "licenseEffectiveDate": "07/18/2025",
    "licenseExpirationDate": "01/17/2026",
    "dataDate": "10/18/2025",
    "capacity": 0,
    "address": "642 DEWEY AVE, SUITE B",
    "city": "SAN GABRIEL",
    "zip": "91776",
    "county": "LOS ANGELES",
    "phone": "(818) 482-8216",
    "lat": 34.07711703,
    "lng": -118.0916787
  },
  {
    "id": "060002035",
    "name": "EVERGREEN ADULT DAY HEALTH CARE CENTER",
    "npi": null,
    "hcaiId": null,
    "businessName": "SINITIK ADULT HEALTH CARE INC.",
    "contactEmail": "EVERGREENADHC@YAHOO.COM",
    "categoryName": "ADULT DAY HEALTH CARE",
    "categoryCode": "ADHC",
    "licenseStatus": "ACTIVE",
    "inService": true,
    "licenseNumber": "060000808",
    "licenseEffectiveDate": "11/18/2024",
    "licenseExpirationDate": "11/17/2025",
    "dataDate": "10/18/2025",
    "capacity": 0,
    "address": "606 W LAS TUNAS DR",
    "city": "SAN GABRIEL",
    "zip": "91776",
    "county": "LOS ANGELES",
    "phone": "(626) 282-7397",
    "lat": 34.102116,
    "lng": -118.1087955
  },
  {
    "id": "630011002",
    "name": "GREEN PINE HOME HEALTHCARE SERVICES, INC.",
    "npi": "1780696518",
    "hcaiId": "406196937",
    "businessName": "GREEN PINE HOME HEALTHCARE SERVICES, INC.",
    "contactEmail": "KWONG.TERI@GMAIL.COM",
    "categoryName": "HOME HEALTH AGENCY",
    "categoryCode": "HHA",
    "licenseStatus": "ACTIVE",
    "inService": true,
    "licenseNumber": "550000415",
    "licenseEffectiveDate": "01/13/2025",
    "licenseExpirationDate": "01/12/2026",
    "dataDate": "10/18/2025",
    "capacity": 0,
    "address": "1740 NEW AVE, SUITE 101",
    "city": "SAN GABRIEL",
    "zip": "91776",
    "county": "LOS ANGELES",
    "phone": "(626) 573-3332",
    "lat": 34.07699085,
    "lng": -118.108228
  },
  {
    "id": "630020220",
    "name": "HEART OF ANGEL HOSPICE & PALLIATIVE, INC.",
    "npi": null,
    "hcaiId": "406192959",
    "businessName": "HEART OF ANGEL HOSPICE & PALLIATIVE, INC.",
    "contactEmail": "HEARTOFANGELHOSPICE@GMAIL.COM",
    "categoryName": "HOSPICE",
    "categoryCode": "HOSPICE",
    "licenseStatus": "ACTIVE",
    "inService": true,
    "licenseNumber": "550005824",
    "licenseEffectiveDate": "10/31/2024",
    "licenseExpirationDate": "10/30/2026",
    "dataDate": "10/18/2025",
    "capacity": 0,
    "address": "405 S SAN GABRIEL BLVD, SUITE A",
    "city": "SAN GABRIEL",
    "zip": "91776",
    "county": "LOS ANGELES",
    "phone": "(818) 806-0234",
    "lat": 34.09760701,
    "lng": -118.091416
  },
  {
    "id": "630010885",
    "name": "HERALD CHRISTIAN HEALTH CENTER",
    "npi": "1033390273",
    "hcaiId": "306197039",
    "businessName": "HERALD CHRISTIAN HEALTH CENTER",
    "contactEmail": "ESZETO@HCHCLA.ORG",
    "categoryName": "PRIMARY CARE CLINIC",
    "categoryCode": "COMTYC",
    "licenseStatus": "ACTIVE",
    "inService": true,
    "licenseNumber": "550003386",
    "licenseEffectiveDate": "02/12/2025",
    "licenseExpirationDate": "02/11/2026",
    "dataDate": "10/18/2025",
    "capacity": 0,
    "address": "923 S SAN GABRIEL BLVD",
    "city": "SAN GABRIEL",
    "zip": "91776",
    "county": "LOS ANGELES",
    "phone": "(626) 286-8700",
    "lat": 34.09074808,
    "lng": -118.0909204
  },
  {
    "id": "630014903",
    "name": "HOSPICE BEST CARE, INC.",
    "npi": null,
    "hcaiId": "406190796",
    "businessName": "HOSPICE BEST CARE, INC.",
    "contactEmail": "HOSPICEBESTCARE1@GMAIL.COM",
    "categoryName": "HOSPICE",
    "categoryCode": "HOSPICE",
    "licenseStatus": "ACTIVE",
    "inService": true,
    "licenseNumber": "550003467",
    "licenseEffectiveDate": "04/12/2024",
    "licenseExpirationDate": "04/11/2026",
    "dataDate": "10/18/2025",
    "capacity": 0,
    "address": "417 S SAN GABRIEL BLVD, UNIT D",
    "city": "SAN GABRIEL",
    "zip": "91776",
    "county": "LOS ANGELES",
    "phone": "(323) 309-3696",
    "lat": 34.09718063,
    "lng": -118.0910005
  },
  {
    "id": "630016782",
    "name": "IDEAL PALLIATIVE AND HOSPICE CARE, INC.",
    "npi": null,
    "hcaiId": "406190909",
    "businessName": "IDEAL PALLIATIVE AND HOSPICE CARE, INC.",
    "contactEmail": "IDEALPALLIATIVEHOSPICECARE@GMAIL.COM",
    "categoryName": "HOSPICE",
    "categoryCode": "HOSPICE",
    "licenseStatus": "ACTIVE",
    "inService": true,
    "licenseNumber": "550004284",
    "licenseEffectiveDate": "10/23/2024",
    "licenseExpirationDate": "06/25/2026",
    "dataDate": "10/18/2025",
    "capacity": 0,
    "address": "123 S MISSION DR, UNIT F",
    "city": "SAN GABRIEL",
    "zip": "91776",
    "county": "LOS ANGELES",
    "phone": "(626) 310-0990",
    "lat": 34.10147798,
    "lng": -118.110936
  },
  {
    "id": "950000031",
    "name": "LIVE OAK REHABILITATION CENTER",
    "npi": "1194805630",
    "hcaiId": "206190194",
    "businessName": "SGV HEALTHCARE, INC.",
    "contactEmail": "FAC33ADMIN@LONGWOODMGMT.COM",
    "categoryName": "SKILLED NURSING FACILITY",
    "categoryCode": "SNF",
    "licenseStatus": "ACTIVE",
    "inService": true,
    "licenseNumber": "950000027",
    "licenseEffectiveDate": "06/01/2025",
    "licenseExpirationDate": "05/31/2026",
    "dataDate": "10/18/2025",
    "capacity": 99,
    "address": "537 W LIVE OAK ST",
    "city": "SAN GABRIEL",
    "zip": "91776",
    "county": "LOS ANGELES",
    "phone": "(626) 289-3763",
    "lat": 34.100631,
    "lng": -118.1075985
  },
  {
    "id": "060001872",
    "name": "NEW VALLEY ADULT DAY HEALTH CARE CENTER",
    "npi": null,
    "hcaiId": null,
    "businessName": "ADD SMILE HEALTH SERVICES, INC.",
    "contactEmail": "VALLEYADHC@YAHOO.COM",
    "categoryName": "ADULT DAY HEALTH CARE",
    "categoryCode": "ADHC",
    "licenseStatus": "ACTIVE",
    "inService": true,
    "licenseNumber": "060000689",
    "licenseEffectiveDate": "06/11/2025",
    "licenseExpirationDate": "06/10/2026",
    "dataDate": "10/18/2025",
    "capacity": 0,
    "address": "1710 S DEL MAR AVE # 111-117",
    "city": "SAN GABRIEL",
    "zip": "91776",
    "county": "LOS ANGELES",
    "phone": "(626) 280-6660",
    "lat": 34.078212,
    "lng": -118.0991835
  },
  {
    "id": "630007564",
    "name": "PACIFIC HOME HEALTH CARE, INC.",
    "npi": null,
    "hcaiId": "406196881",
    "businessName": "PACIFIC HOME HEALTH CARE, INC.",
    "contactEmail": "PACIFICHHC88@YAHOO.COM",
    "categoryName": "HOME HEALTH AGENCY",
    "categoryCode": "HHA",
    "licenseStatus": "ACTIVE",
    "inService": true,
    "licenseNumber": "550000171",
    "licenseEffectiveDate": "04/02/2025",
    "licenseExpirationDate": "04/01/2026",
    "dataDate": "10/18/2025",
    "capacity": 0,
    "address": "110 W LAS TUNAS DR, SUITE F",
    "city": "SAN GABRIEL",
    "zip": "91776",
    "county": "LOS ANGELES",
    "phone": "(626) 291-5388",
    "lat": 34.10269207,
    "lng": -118.1003678
  },
  {
    "id": "630016594",
    "name": "PANDA HOME HEALTHCARE, INC.",
    "npi": "1558729053",
    "hcaiId": "406198529",
    "businessName": "PANDA HOME HEALTHCARE, INC.",
    "contactEmail": "PANDAHOMEHEALTHCARE@GMAIL.COM",
    "categoryName": "HOME HEALTH AGENCY",
    "categoryCode": "HHA",
    "licenseStatus": "ACTIVE",
    "inService": true,
    "licenseNumber": "550004041",
    "licenseEffectiveDate": "11/30/2024",
    "licenseExpirationDate": "11/29/2025",
    "dataDate": "10/18/2025",
    "capacity": 0,
    "address": "410 S SAN GABRIEL BLVD, SUITE A",
    "city": "SAN GABRIEL",
    "zip": "91776",
    "county": "LOS ANGELES",
    "phone": "(626) 486-9232",
    "lat": 34.09754201,
    "lng": -118.09039
  },
  {
    "id": "630018925",
    "name": "QUALITY DIALYSIS CENTER LAS TUNAS",
    "npi": null,
    "hcaiId": "306190522",
    "businessName": "QUALITY DIALYSIS CENTER LAS TUNAS, LLC",
    "contactEmail": "PRIYA626@GMAIL.COM",
    "categoryName": "CHRONIC DIALYSIS CLINIC",
    "categoryCode": "ESRD/CDC",
    "licenseStatus": "ACTIVE",
    "inService": true,
    "licenseNumber": "550005453",
    "licenseEffectiveDate": "04/17/2025",
    "licenseExpirationDate": "04/16/2026",
    "dataDate": "10/18/2025",
    "capacity": 34,
    "address": "237 E LAS TUNAS DR",
    "city": "SAN GABRIEL",
    "zip": "91776",
    "county": "LOS ANGELES",
    "phone": "(626) 281-1903",
    "lat": 34.10317683,
    "lng": -118.0969647
  },
  {
    "id": "630012500",
    "name": "QUALITY DIALYSIS CENTER OF SAN GABRIEL",
    "npi": "1841524360",
    "hcaiId": "306196918",
    "businessName": "SAN GABRIEL NEPHROLOGY SERVICES, LLC",
    "contactEmail": "PRIYA626@GMAIL.COM",
    "categoryName": "CHRONIC DIALYSIS CLINIC",
    "categoryCode": "ESRD/CDC",
    "licenseStatus": "ACTIVE",
    "inService": true,
    "licenseNumber": "550001264",
    "licenseEffectiveDate": "04/28/2025",
    "licenseExpirationDate": "04/27/2026",
    "dataDate": "10/18/2025",
    "capacity": 39,
    "address": "801 S SAN GABRIEL BLVD",
    "city": "SAN GABRIEL",
    "zip": "91776",
    "county": "LOS ANGELES",
    "phone": "(626) 833-7653",
    "lat": 34.092837,
    "lng": -118.09116
  },
  {
    "id": "950000019",
    "name": "ROYAL VISTA CARE CENTER",
    "npi": "1659458271",
    "hcaiId": "206190540",
    "businessName": "ROYAL VISTA CARE CENTER LLC",
    "contactEmail": "AILEEN.TALAROC@ROYALVISTACARE.COM",
    "categoryName": "SKILLED NURSING FACILITY",
    "categoryCode": "SNF",
    "licenseStatus": "ACTIVE",
    "inService": true,
    "licenseNumber": "950000072",
    "licenseEffectiveDate": "07/03/2025",
    "licenseExpirationDate": "07/02/2026",
    "dataDate": "10/18/2025",
    "capacity": 99,
    "address": "909 W SANTA ANITA ST",
    "city": "SAN GABRIEL",
    "zip": "91776",
    "county": "LOS ANGELES",
    "phone": "(626) 289-5365",
    "lat": 34.09510358,
    "lng": -118.1120489
  },
  {
    "id": "930000041",
    "name": "SAN GABRIEL VALLEY MEDICAL CENTER",
    "npi": "1275720377",
    "hcaiId": "106190200",
    "businessName": "AHMC SAN GABRIEL VALLEY MEDICAL CENTER LP",
    "contactEmail": "EILYN.CABALLERO@AHMCHEALTH.COM",
    "categoryName": "GENERAL ACUTE CARE HOSPITAL",
    "categoryCode": "GACH",
    "licenseStatus": "ACTIVE",
    "inService": true,
    "licenseNumber": "930000041",
    "licenseEffectiveDate": "09/12/2025",
    "licenseExpirationDate": "12/21/2025",
    "dataDate": "10/18/2025",
    "capacity": 175,
    "address": "438 W LAS TUNAS DR",
    "city": "SAN GABRIEL",
    "zip": "91776",
    "county": "LOS ANGELES",
    "phone": "(626) 300-7888",
    "lat": 34.100802,
    "lng": -118.1058795
  },
  {
    "id": "930000782",
    "name": "SAN GABRIEL VALLEY MEDICAL CENTER D/P APH",
    "npi": "1275720377",
    "hcaiId": null,
    "businessName": "AHMC SAN GABRIEL VALLEY MEDICAL CENTER LP",
    "contactEmail": null,
    "categoryName": "ACUTE PSYCHIATRIC HOSPITAL",
    "categoryCode": "APH",
    "licenseStatus": "ACTIVE",
    "inService": true,
    "licenseNumber": "930000041",
    "licenseEffectiveDate": "09/12/2025",
    "licenseExpirationDate": "12/21/2025",
    "dataDate": "10/18/2025",
    "capacity": 42,
    "address": "438 W LAS TUNAS DR",
    "city": "SAN GABRIEL",
    "zip": "91776",
    "county": "LOS ANGELES",
    "phone": "(626) 289-5454",
    "lat": 34.100802,
    "lng": -118.1058795
  },
  {
    "id": "930000564",
    "name": "SAN GABRIEL VALLEY MEDICAL CENTER D/P SNF",
    "npi": "1710174818",
    "hcaiId": null,
    "businessName": "AHMC SAN GABRIEL VALLEY MEDICAL CENTER LP",
    "contactEmail": "JON.AQUINO@AHMCHEALTH.COM",
    "categoryName": "SKILLED NURSING FACILITY",
    "categoryCode": "SNF",
    "licenseStatus": "ACTIVE",
    "inService": true,
    "licenseNumber": "930000041",
    "licenseEffectiveDate": "09/12/2025",
    "licenseExpirationDate": "12/21/2025",
    "dataDate": "10/18/2025",
    "capacity": 44,
    "address": "438 W LAS TUNAS DR",
    "city": "SAN GABRIEL",
    "zip": "91776",
    "county": "LOS ANGELES",
    "phone": "(626) 289-5454",
    "lat": 34.100802,
    "lng": -118.1058795
  },
  {
    "id": "060001784",
    "name": "SANTA CLARITA ADHC",
    "npi": null,
    "hcaiId": null,
    "businessName": "WYNK'S CORPORATION",
    "contactEmail": "PD.WYNKSCORP@GMAIL.COM",
    "categoryName": "ADULT DAY HEALTH CARE",
    "categoryCode": "ADHC",
    "licenseStatus": "ACTIVE",
    "inService": true,
    "licenseNumber": "060000601",
    "licenseEffectiveDate": "04/01/2025",
    "licenseExpirationDate": "03/31/2026",
    "dataDate": "10/18/2025",
    "capacity": 0,
    "address": "1806 S. SAN GABRIEL BLVD",
    "city": "SAN GABRIEL",
    "zip": "91776",
    "county": "LOS ANGELES",
    "phone": "(626) 573-8441",
    "lat": 34.077096,
    "lng": -118.0903005
  },
  {
    "id": "630020665",
    "name": "SNL HOSPICE, INC.",
    "npi": null,
    "hcaiId": "406195320",
    "businessName": "SNL HOSPICE, INC.",
    "contactEmail": "INFO@ROSECITYHOSPICE.COM",
    "categoryName": "HOSPICE",
    "categoryCode": "HOSPICE",
    "licenseStatus": "ACTIVE",
    "inService": true,
    "licenseNumber": "550006413",
    "licenseEffectiveDate": "06/08/2025",
    "licenseExpirationDate": "06/07/2027",
    "dataDate": "10/18/2025",
    "capacity": 0,
    "address": "180 E VALLEY BLVD, SUITE 206",
    "city": "SAN GABRIEL",
    "zip": "91776",
    "county": "LOS ANGELES",
    "phone": "(888) 552-1808",
    "lat": 34.07943169,
    "lng": -118.0978941
  },
  {
    "id": "980001660",
    "name": "TENDER CARE HOME HEALTH",
    "npi": "1861491417",
    "hcaiId": "406194906",
    "businessName": "TENDER CARE HOME HEALTH",
    "contactEmail": "TENDERCHHS@SBCGLOBAL.NET",
    "categoryName": "HOME HEALTH AGENCY",
    "categoryCode": "HHA",
    "licenseStatus": "ACTIVE",
    "inService": true,
    "licenseNumber": "980000954",
    "licenseEffectiveDate": "03/28/2025",
    "licenseExpirationDate": "03/27/2026",
    "dataDate": "10/18/2025",
    "capacity": 0,
    "address": "317 W LAS TUNAS DR, SUITE 208",
    "city": "SAN GABRIEL",
    "zip": "91776",
    "county": "LOS ANGELES",
    "phone": "(626) 943-8988",
    "lat": 34.102764,
    "lng": -118.103355
  },
  {
    "id": "630021458",
    "name": "TL HEALTH CARE FOUNDATION",
    "npi": null,
    "hcaiId": "306190765",
    "businessName": "TL HEALTH CARE FOUNDATION",
    "contactEmail": "TLHEALTHCARE88@GMAIL.COM",
    "categoryName": "PRIMARY CARE CLINIC",
    "categoryCode": "FQHC/COMTYC",
    "licenseStatus": "ACTIVE",
    "inService": true,
    "licenseNumber": "550008000",
    "licenseEffectiveDate": "04/05/2025",
    "licenseExpirationDate": "04/04/2026",
    "dataDate": "10/18/2025",
    "capacity": 0,
    "address": "1418 S SAN GABRIEL BLVD, #B",
    "city": "SAN GABRIEL",
    "zip": "91776",
    "county": "LOS ANGELES",
    "phone": "(626) 614-7469",
    "lat": 34.082551,
    "lng": -118.090746
  },
  {
    "id": "630020809",
    "name": "WISE HOME HEALTH INC",
    "npi": null,
    "hcaiId": "406195020",
    "businessName": "WISE HOME HEALTH INC",
    "contactEmail": "WISEHHINC@GMAIL.COM",
    "categoryName": "HOME HEALTH AGENCY",
    "categoryCode": "HHA",
    "licenseStatus": "ACTIVE",
    "inService": true,
    "licenseNumber": "550006404",
    "licenseEffectiveDate": "06/10/2025",
    "licenseExpirationDate": "06/09/2026",
    "dataDate": "10/18/2025",
    "capacity": 0,
    "address": "417 S SAN GABRIEL BLVD, SUITE F",
    "city": "SAN GABRIEL",
    "zip": "91776",
    "county": "LOS ANGELES",
    "phone": "(626) 999-5328",
    "lat": 34.09718063,
    "lng": -118.0910005
  },
  {
    "id": "630018189",
    "name": "WYNK'S CLINIC",
    "npi": null,
    "hcaiId": "306190744",
    "businessName": "WYNK'S CORPORATION",
    "contactEmail": "MMAI18998@HOTMAIL.COM",
    "categoryName": "PRIMARY CARE CLINIC",
    "categoryCode": "COMTYC",
    "licenseStatus": "ACTIVE",
    "inService": true,
    "licenseNumber": "550008270",
    "licenseEffectiveDate": "12/12/2024",
    "licenseExpirationDate": "12/11/2025",
    "dataDate": "10/18/2025",
    "capacity": 0,
    "address": "1788 S SAN GABRIEL BLVD, SUITE 101",
    "city": "SAN GABRIEL",
    "zip": "91776",
    "county": "LOS ANGELES",
    "phone": "(626) 347-1182",
    "lat": 34.077438,
    "lng": -118.090395
  }
]