[
  {
    "id": "630018913",
    "name": "ABUNDANT GRACE HOME HEALTH SERVICES, INC.",
    "npi": null,
    "hcaiId": "406192485",
    "businessName": "ABUNDANT GRACE HOME HEALTH SERVICES, INC.",
    "contactEmail": "AGHHINFO@GMAIL.COM",
    "categoryName": "HOME HEALTH AGENCY",
    "categoryCode": "HHA",
    "licenseStatus": "ACTIVE",
    "inService": true,
    "licenseNumber": "550005462",
    "licenseEffectiveDate": "05/12/2025",
    "licenseExpirationDate": "05/11/2026",
    "dataDate": "10/18/2025",
    "capacity": 0,
    "address": "510 E FOOTHILL BLVD, SUITE 102",
    "city": "SAN DIMAS",
    "zip": "91773",
    "county": "LOS ANGELES",
    "phone": "(909) 394-1832",
    "lat": 34.122771,
    "lng": -117.7980255
  },
  {
    "id": "630024021",
    "name": "AZUR HOME HEALTH CARE",
    "npi": null,
    "hcaiId": "406195421",
    "businessName": "AZUR HOME HEALTH CARE",
    "contactEmail": "AZURHHCARE@GMAIL.COM",
    "categoryName": "HOME HEALTH AGENCY",
    "categoryCode": "HHA",
    "licenseStatus": "ACTIVE",
    "inService": true,
    "licenseNumber": "550008039",
    "licenseEffectiveDate": "06/06/2025",
    "licenseExpirationDate": "06/05/2026",
    "dataDate": "10/18/2025",
    "capacity": 0,
    "address": "451 W BONITA AVE, SUITE 15",
    "city": "SAN DIMAS",
    "zip": "91773",
    "county": "LOS ANGELES",
    "phone": "(818) 624-6360",
    "lat": 34.107147,
    "lng": -117.8155035
  },
  {
    "id": "950000277",
    "name": "BAYSHIRE SAN DIMAS POST-ACUTE",
    "npi": "1932984788",
    "hcaiId": "206196063",
    "businessName": "SKILLED SAN DIMAS LLC",
    "contactEmail": "LISA@BAYSHIRE.COM",
    "categoryName": "SKILLED NURSING FACILITY",
    "categoryCode": "SNF",
    "licenseStatus": "ACTIVE",
    "inService": true,
    "licenseNumber": "950000124",
    "licenseEffectiveDate": "02/05/2025",
    "licenseExpirationDate": "02/04/2026",
    "dataDate": "10/18/2025",
    "capacity": 45,
    "address": "1740 S SAN DIMAS AVE",
    "city": "SAN DIMAS",
    "zip": "91773",
    "county": "LOS ANGELES",
    "phone": "(909) 394-0304",
    "lat": 34.07877,
    "lng": -117.81684
  },
  {
    "id": "950000052",
    "name": "CASA BONITA CONVALESCENT HOSPITAL",
    "npi": "1730269234",
    "hcaiId": "206190700",
    "businessName": "CASA BONITA CONVALESCENT HOSPITAL LLC",
    "contactEmail": "FAC29ADMIN@LONGWOODMGMT.COM",
    "categoryName": "SKILLED NURSING FACILITY",
    "categoryCode": "SNF",
    "licenseStatus": "ACTIVE",
    "inService": true,
    "licenseNumber": "950000095",
    "licenseEffectiveDate": "11/10/2024",
    "licenseExpirationDate": "11/09/2025",
    "dataDate": "10/18/2025",
    "capacity": 106,
    "address": "535 E BONITA AVE",
    "city": "SAN DIMAS",
    "zip": "91773",
    "county": "LOS ANGELES",
    "phone": "(909) 599-1248",
    "lat": 34.107588,
    "lng": -117.797202
  },
  {
    "id": "630015757",
    "name": "CHOICES CENTER FOR LIFE",
    "npi": null,
    "hcaiId": "306198327",
    "businessName": "A WOMEN'S PREGNANCY CENTER",
    "contactEmail": "CHOICESUNITH@GMAIL.COM",
    "categoryName": "PRIMARY CARE CLINIC",
    "categoryCode": "FREEC",
    "licenseStatus": "ACTIVE",
    "inService": true,
    "licenseNumber": "550003521",
    "licenseEffectiveDate": "05/20/2025",
    "licenseExpirationDate": "05/16/2026",
    "dataDate": "10/18/2025",
    "capacity": 0,
    "address": "358 E BONITA AVE, SUITE A",
    "city": "SAN DIMAS",
    "zip": "91773",
    "county": "LOS ANGELES",
    "phone": "(909) 644-7885",
    "lat": 34.10621422,
    "lng": -117.8007481
  },
  {
    "id": "630020127",
    "name": "CLINICIANS HOME HEALTH PROVIDERS, INC.",
    "npi": null,
    "hcaiId": "406193205",
    "businessName": "CLINICIANS HOME HEALTH PROVIDERS, INC.",
    "contactEmail": "CLINICIANSPROVIDERS@GMAIL.COM",
    "categoryName": "HOME HEALTH AGENCY",
    "categoryCode": "HHA",
    "licenseStatus": "ACTIVE",
    "inService": true,
    "licenseNumber": "550006576",
    "licenseEffectiveDate": "07/03/2025",
    "licenseExpirationDate": "07/02/2026",
    "dataDate": "10/18/2025",
    "capacity": 0,
    "address": "237 W. BONITA AVENUE, SUITE B",
    "city": "SAN DIMAS",
    "zip": "91773",
    "county": "LOS ANGELES",
    "phone": "(909) 542-9090",
    "lat": 34.106913,
    "lng": -117.810873
  },
  {
    "id": "980001581",
    "name": "GLOBAL HOME HEALTHCARE SERVICE, INCORPORATED",
    "npi": "1437378114",
    "hcaiId": "406194856",
    "businessName": "GLOBAL HOME HEALTHCARE SERVICE, INCORPORATED",
    "contactEmail": "INFO@GLOBALHOMEHEALTHCARESERVICE.COM",
    "categoryName": "HOME HEALTH AGENCY",
    "categoryCode": "HHA",
    "licenseStatus": "ACTIVE",
    "inService": true,
    "licenseNumber": "980000933",
    "licenseEffectiveDate": "11/17/2024",
    "licenseExpirationDate": "11/16/2025",
    "dataDate": "10/18/2025",
    "capacity": 0,
    "address": "221 N SAN DIMAS AVE, SUITE B",
    "city": "SAN DIMAS",
    "zip": "91773",
    "county": "LOS ANGELES",
    "phone": "(626) 335-9971",
    "lat": 34.109532,
    "lng": -117.8073495
  },
  {
    "id": "630014991",
    "name": "GLOBAL HOME HOSPICE SERVICE, INCORPORATED",
    "npi": "1265858625",
    "hcaiId": "406198318",
    "businessName": "GLOBAL HOME HOSPICE SERVICE, INCORPORATED",
    "contactEmail": "DRDARLA@GLOBALHHS.COM",
    "categoryName": "HOSPICE",
    "categoryCode": "HOSPICE",
    "licenseStatus": "ACTIVE",
    "inService": true,
    "licenseNumber": "550003646",
    "licenseEffectiveDate": "08/11/2024",
    "licenseExpirationDate": "08/10/2026",
    "dataDate": "10/18/2025",
    "capacity": 0,
    "address": "221 N SAN DIMAS AVE, SUITE A",
    "city": "SAN DIMAS",
    "zip": "91773",
    "county": "LOS ANGELES",
    "phone": "(626) 699-2426",
    "lat": 34.109532,
    "lng": -117.8073495
  },
  {
    "id": "630012657",
    "name": "GOLDEN YEARS HOME HEALTH, INC.",
    "npi": null,
    "hcaiId": "406197515",
    "businessName": "GOLDEN YEARS HOME HEALTH, INC.",
    "contactEmail": "VERONICA@GOLDENYEARSHOMEHEALTH.COM",
    "categoryName": "HOME HEALTH AGENCY",
    "categoryCode": "HHA",
    "licenseStatus": "ACTIVE",
    "inService": true,
    "licenseNumber": "550001480",
    "licenseEffectiveDate": "11/01/2025",
    "licenseExpirationDate": "10/31/2026",
    "dataDate": "10/18/2025",
    "capacity": 0,
    "address": "550 W CIENEGA AVE, SUITE H",
    "city": "SAN DIMAS",
    "zip": "91773",
    "county": "LOS ANGELES",
    "phone": "(626) 445-2392",
    "lat": 34.10299164,
    "lng": -117.8175879
  },
  {
    "id": "630025021",
    "name": "HOME HEALTH BEST CARE SERVICES, INC. DBA LIFELINK@HOME",
    "npi": null,
    "hcaiId": null,
    "businessName": "HOME HEALTH BEST CARE SERVICES, INC.",
    "contactEmail": "HOMEHEALTHBESTCARE@GMAIL.COM",
    "categoryName": "HOME HEALTH AGENCY",
    "categoryCode": "HHA",
    "licenseStatus": "ACTIVE",
    "inService": true,
    "licenseNumber": "550008382",
    "licenseEffectiveDate": "08/01/2024",
    "licenseExpirationDate": "07/31/2025",
    "dataDate": "10/18/2025",
    "capacity": 0,
    "address": "554 E FOOTHILL BLVD, SUITE 107",
    "city": "SAN DIMAS",
    "zip": "91773",
    "county": "LOS ANGELES",
    "phone": "(626) 863-3687",
    "lat": 34.122483,
    "lng": -117.7966035
  },
  {
    "id": "630007521",
    "name": "LIFECARE HOME HEALTH SERVICES, INC.",
    "npi": "1225047418",
    "hcaiId": "406196841",
    "businessName": "LIFECARE HOME HEALTH SERVICES, INC.",
    "contactEmail": "LIFECAREHHS@AOL.COM",
    "categoryName": "HOME HEALTH AGENCY",
    "categoryCode": "HHA",
    "licenseStatus": "ACTIVE",
    "inService": true,
    "licenseNumber": "550000286",
    "licenseEffectiveDate": "11/25/2024",
    "licenseExpirationDate": "11/24/2025",
    "dataDate": "10/18/2025",
    "capacity": 0,
    "address": "540 E FOOTHILL BLVD, SUITE 200",
    "city": "SAN DIMAS",
    "zip": "91773",
    "county": "LOS ANGELES",
    "phone": "(909) 592-4400",
    "lat": 34.122717,
    "lng": -117.7973955
  },
  {
    "id": "630017573",
    "name": "NEURORESTORATIVE CALIFORNIA",
    "npi": null,
    "hcaiId": "206190069",
    "businessName": "CAREMERIDIAN, LLC",
    "contactEmail": "ELIZABETH.TALAVERA@SEVITAHEALTH.COM",
    "categoryName": "CONGREGATE LIVING HEALTH FACILITY",
    "categoryCode": "CLHF",
    "licenseStatus": "ACTIVE",
    "inService": true,
    "licenseNumber": "550004409",
    "licenseEffectiveDate": "10/17/2025",
    "licenseExpirationDate": "10/16/2026",
    "dataDate": "10/18/2025",
    "capacity": 15,
    "address": "1136 PUENTE STREET",
    "city": "SAN DIMAS",
    "zip": "91773",
    "county": "LOS ANGELES",
    "phone": "(909) 305-1994",
    "lat": 34.07502773,
    "lng": -117.829679
  },
  {
    "id": "630015921",
    "name": "NEW PROVIDENCE CARE",
    "npi": "1639571599",
    "hcaiId": null,
    "businessName": "NEW PROVIDENCE CARE, INC.",
    "contactEmail": "NPC-SANDIMAS@NEWPROVIDENCECARE.COM",
    "categoryName": "INTERMEDIATE CARE FACILITY-DD/H/N/CN/IID",
    "categoryCode": "ICFDDN",
    "licenseStatus": "ACTIVE",
    "inService": true,
    "licenseNumber": "550004229",
    "licenseEffectiveDate": "03/06/2025",
    "licenseExpirationDate": "03/05/2026",
    "dataDate": "10/18/2025",
    "capacity": 6,
    "address": "1342 PASEO ENCINAS",
    "city": "SAN DIMAS",
    "zip": "91773",
    "county": "LOS ANGELES",
    "phone": "(909) 541-5378",
    "lat": 34.078113,
    "lng": -117.833958
  },
  {
    "id": "630012776",
    "name": "POMONA VALLEY HOME CARE, INC.",
    "npi": null,
    "hcaiId": "406197531",
    "businessName": "POMONA VALLEY HOME CARE, INC.",
    "contactEmail": "IZAHOOR@PVHCONLINE.COM",
    "categoryName": "HOME HEALTH AGENCY",
    "categoryCode": "HHA",
    "licenseStatus": "ACTIVE",
    "inService": true,
    "licenseNumber": "550001576",
    "licenseEffectiveDate": "04/26/2025",
    "licenseExpirationDate": "04/25/2026",
    "dataDate": "10/18/2025",
    "capacity": 0,
    "address": "1109 VIA VERDE",
    "city": "SAN DIMAS",
    "zip": "91773",
    "county": "LOS ANGELES",
    "phone": "(909) 394-9400",
    "lat": 34.07432106,
    "lng": -117.8288496
  },
  {
    "id": "930000125",
    "name": "SAN DIMAS COMMUNITY HOSPITAL",
    "npi": null,
    "hcaiId": "106190673",
    "businessName": "PRIME HEALTHCARE SERVICES-SAN DIMAS, LLC",
    "contactEmail": "PSCARBORO@PRIMEHEALTHCARE.COM",
    "categoryName": "GENERAL ACUTE CARE HOSPITAL",
    "categoryCode": "GACH",
    "licenseStatus": "ACTIVE",
    "inService": true,
    "licenseNumber": "930000139",
    "licenseEffectiveDate": "11/01/2025",
    "licenseExpirationDate": "10/31/2026",
    "dataDate": "10/18/2025",
    "capacity": 101,
    "address": "1350 W COVINA BLVD",
    "city": "SAN DIMAS",
    "zip": "91773",
    "county": "LOS ANGELES",
    "phone": "(909) 305-5616",
    "lat": 34.09905648,
    "lng": -117.834353
  },
  {
    "id": "630010421",
    "name": "SAN DIMAS DIALYSIS CENTER, INC.",
    "npi": "1447285275",
    "hcaiId": "306196758",
    "businessName": "SAN DIMAS DIALYSIS CENTER, A MEDICAL CORPORATION",
    "contactEmail": "STABASSUM@CDMSRENAL.COM",
    "categoryName": "CHRONIC DIALYSIS CLINIC",
    "categoryCode": "ESRD/CDC",
    "licenseStatus": "ACTIVE",
    "inService": true,
    "licenseNumber": "550000175",
    "licenseEffectiveDate": "04/04/2025",
    "licenseExpirationDate": "04/03/2026",
    "dataDate": "10/18/2025",
    "capacity": 33,
    "address": "1335 CYPRESS ST, SUITE 102",
    "city": "SAN DIMAS",
    "zip": "91773",
    "county": "LOS ANGELES",
    "phone": "(909) 542-2900",
    "lat": 34.096419,
    "lng": -117.834129
  },
  {
    "id": "630027344",
    "name": "SOUTHERN CALIFORNIA MEDICAL CENTER - MOBILE UNIT 1",
    "npi": null,
    "hcaiId": null,
    "businessName": "SOUTHERN CALIFORNIA MEDICAL CENTER, INC.",
    "contactEmail": null,
    "categoryName": "PRIMARY CARE CLINIC",
    "categoryCode": "COMTYC",
    "licenseStatus": "ACTIVE",
    "inService": true,
    "licenseNumber": "550001363",
    "licenseEffectiveDate": "11/20/2025",
    "licenseExpirationDate": "11/19/2026",
    "dataDate": "10/18/2025",
    "capacity": 0,
    "address": "314 W ARROW HWY",
    "city": "SAN DIMAS",
    "zip": "91773",
    "county": "LOS ANGELES",
    "phone": null,
    "lat": 34.102667,
    "lng": -117.811776
  },
  {
    "id": "630024669",
    "name": "SOUTHERN CALIFORNIA MEDICAL CENTER - SAN DIMAS",
    "npi": null,
    "hcaiId": null,
    "businessName": "SOUTHERN CALIFORNIA MEDICAL CENTER, INC.",
    "contactEmail": null,
    "categoryName": "PRIMARY CARE CLINIC",
    "categoryCode": "COMTYC",
    "licenseStatus": "ACTIVE",
    "inService": true,
    "licenseNumber": "550001363",
    "licenseEffectiveDate": "11/20/2025",
    "licenseExpirationDate": "11/19/2026",
    "dataDate": "10/18/2025",
    "capacity": 0,
    "address": "314 W ARROW HWY",
    "city": "SAN DIMAS",
    "zip": "91773",
    "county": "LOS ANGELES",
    "phone": null,
    "lat": 34.102692,
    "lng": -117.811836
  },
  {
    "id": "630020770",
    "name": "STATIM CARE HOSPICE, INC",
    "npi": null,
    "hcaiId": "406196624",
    "businessName": "STATIM CARE HOSPICE, INC.",
    "contactEmail": "STATIMHOSPICE@GMAIL.COM",
    "categoryName": "HOSPICE",
    "categoryCode": "HOSPICE",
    "licenseStatus": "ACTIVE",
    "inService": true,
    "licenseNumber": "550006287",
    "licenseEffectiveDate": "09/02/2025",
    "licenseExpirationDate": "05/13/2027",
    "dataDate": "10/18/2025",
    "capacity": 0,
    "address": "500 W BONITA AVE, SUITE 28",
    "city": "SAN DIMAS",
    "zip": "91773",
    "county": "LOS ANGELES",
    "phone": "(818) 570-1670",
    "lat": 34.10640361,
    "lng": -117.8161061
  },
  {
    "id": "630027359",
    "name": "VIBRANT LIFE HOME HEALTH, INC.",
    "npi": null,
    "hcaiId": null,
    "businessName": "VIBRANT LIFE HOME HEALTH, INC.",
    "contactEmail": "VIBRANTLIFEHH@GMAIL.COM",
    "categoryName": "HOME HEALTH AGENCY",
    "categoryCode": "HHA",
    "licenseStatus": "ACTIVE",
    "inService": true,
    "licenseNumber": "550009687",
    "licenseEffectiveDate": "08/15/2025",
    "licenseExpirationDate": "02/14/2026",
    "dataDate": "10/18/2025",
    "capacity": 0,
    "address": "237 W BONITA AVE, SUITE C",
    "city": "SAN DIMAS",
    "zip": "91773",
    "county": "LOS ANGELES",
    "phone": "(909) 541-5550",
    "lat": 34.10692501,
    "lng": -117.81089
  },
  {
    "id": "630013272",
    "name": "VICTORIA ONE HOSPICE, INC.",
    "npi": null,
    "hcaiId": "406197706",
    "businessName": "VICTORIA ONE HOSPICE, INC.",
    "contactEmail": "VICTORIA1HOSPICE@AOL.COM",
    "categoryName": "HOSPICE",
    "categoryCode": "HOSPICE",
    "licenseStatus": "ACTIVE",
    "inService": true,
    "licenseNumber": "550001995",
    "licenseEffectiveDate": "06/18/2022",
    "licenseExpirationDate": "06/17/2024",
    "dataDate": "10/18/2025",
    "capacity": 0,
    "address": "510 E. FOOTHILL BOULEVARD, SUITE 106",
    "city": "SAN DIMAS",
    "zip": "91773",
    "county": "LOS ANGELES",
    "phone": "(909) 599-0055",
    "lat": 34.122771,
    "lng": -117.7980255
  }
]