[
  {
    "id": "950000100",
    "name": "IVY CREEK HEALTHCARE & WELLNESS CENTRE",
    "npi": "1063773075",
    "hcaiId": "206190014",
    "businessName": "SAN GABRIEL HEALTHCARE & WELLNESS CENTRE, LP",
    "contactEmail": "ADMINISTRATOR@IVYCREEKHC.COM",
    "categoryName": "SKILLED NURSING FACILITY",
    "categoryCode": "SNF",
    "licenseStatus": "ACTIVE",
    "inService": true,
    "licenseNumber": "950000007",
    "licenseEffectiveDate": "10/01/2025",
    "licenseExpirationDate": "09/30/2026",
    "dataDate": "10/18/2025",
    "capacity": 98,
    "address": "115 BRIDGE ST",
    "city": "SAN GABRIEL",
    "zip": "91775",
    "county": "LOS ANGELES",
    "phone": "(626) 289-4439",
    "lat": 34.102989,
    "lng": -118.1130525
  },
  {
    "id": "630026381",
    "name": "LA HEART CARE HOME HEALTH, INC.",
    "npi": null,
    "hcaiId": null,
    "businessName": "LA HEART CARE HOME HEALTH, INC.",
    "contactEmail": "LAHEARTCAREHOMEHEALTH@GMAIL.COM",
    "categoryName": "HOME HEALTH AGENCY",
    "categoryCode": "HHA",
    "licenseStatus": "ACTIVE",
    "inService": true,
    "licenseNumber": "550009173",
    "licenseEffectiveDate": "06/03/2025",
    "licenseExpirationDate": "06/02/2026",
    "dataDate": "10/18/2025",
    "capacity": 0,
    "address": "7220 ROSEMEAD BLVD, SUITE 212",
    "city": "SAN GABRIEL",
    "zip": "91775",
    "county": "LOS ANGELES",
    "phone": "(626) 545-2288",
    "lat": 34.128342,
    "lng": -118.0728675
  },
  {
    "id": "950000057",
    "name": "PINE GROVE HEALTHCARE & WELLNESS CENTRE, LP",
    "npi": "1477814820",
    "hcaiId": "206190293",
    "businessName": "PINE GROVE HEALTHCARE & WELLNESS CENTRE, LP",
    "contactEmail": "ADMINISTRATOR@PINEGROVEHC.COM",
    "categoryName": "SKILLED NURSING FACILITY",
    "categoryCode": "SNF",
    "licenseStatus": "ACTIVE",
    "inService": true,
    "licenseNumber": "950000045",
    "licenseEffectiveDate": "09/13/2025",
    "licenseExpirationDate": "09/12/2026",
    "dataDate": "10/18/2025",
    "capacity": 75,
    "address": "126 N SAN GABRIEL BLVD",
    "city": "SAN GABRIEL",
    "zip": "91775",
    "county": "LOS ANGELES",
    "phone": "(626) 285-3131",
    "lat": 34.104519,
    "lng": -118.0906425
  },
  {
    "id": "950000026",
    "name": "SAN MARINO HEALTHCARE CENTER",
    "npi": "1891410833",
    "hcaiId": "206190679",
    "businessName": "SVPA LLC",
    "contactEmail": "ADMINISTRATOR@SANGABRIELPA.COM",
    "categoryName": "SKILLED NURSING FACILITY",
    "categoryCode": "SNF",
    "licenseStatus": "ACTIVE",
    "inService": true,
    "licenseNumber": "950000092",
    "licenseEffectiveDate": "06/29/2025",
    "licenseExpirationDate": "06/28/2026",
    "dataDate": "10/18/2025",
    "capacity": 59,
    "address": "6812 N OAK AVE",
    "city": "SAN GABRIEL",
    "zip": "91775",
    "county": "LOS ANGELES",
    "phone": "(626) 446-5263",
    "lat": 34.122834,
    "lng": -118.0676295
  }
]