[
  {
    "id": "630014694",
    "name": "8TH STREET HOUSE",
    "npi": "1588013528",
    "hcaiId": null,
    "businessName": "JANET'S ENTERPRISE, INC.",
    "contactEmail": "JANET@JANETSENTERPRISE.COM",
    "categoryName": "INTERMEDIATE CARE FACILITY-DD/H/N/CN/IID",
    "categoryCode": "ICFDDN",
    "licenseStatus": "ACTIVE",
    "inService": true,
    "licenseNumber": "550002708",
    "licenseEffectiveDate": "07/07/2025",
    "licenseExpirationDate": "04/21/2026",
    "dataDate": "10/18/2025",
    "capacity": 8,
    "address": "804 W 8TH ST",
    "city": "UPLAND",
    "zip": "91786",
    "county": "SAN BERNARDINO",
    "phone": "(951) 545-4462",
    "lat": 34.092207,
    "lng": -117.661095
  },
  {
    "id": "240001923",
    "name": "A AND E HOME HEALTH SERVICES INC",
    "npi": "1699809020",
    "hcaiId": "406364294",
    "businessName": "A AND E HOME HEALTH SERVICES, INC.",
    "contactEmail": "AEHHS@YAHOO.COM",
    "categoryName": "HOME HEALTH AGENCY",
    "categoryCode": "HHA",
    "licenseStatus": "ACTIVE",
    "inService": true,
    "licenseNumber": "240000870",
    "licenseEffectiveDate": "03/07/2025",
    "licenseExpirationDate": "03/06/2026",
    "dataDate": "10/18/2025",
    "capacity": 0,
    "address": "2377 W FOOTHILL BLVD, SUITE 14",
    "city": "UPLAND",
    "zip": "91786",
    "county": "SAN BERNARDINO",
    "phone": "(909) 946-2232",
    "lat": 34.10692061,
    "lng": -117.6975674
  },
  {
    "id": "630015793",
    "name": "ACHIEVA HOSPICE, INC",
    "npi": "1700280328",
    "hcaiId": "406364599",
    "businessName": "ACHIEVA HOSPICE, INC.",
    "contactEmail": "ACHIEVAHOSPICE@GMAIL.COM",
    "categoryName": "HOSPICE",
    "categoryCode": "HOSPICE",
    "licenseStatus": "ACTIVE",
    "inService": true,
    "licenseNumber": "550003320",
    "licenseEffectiveDate": "12/03/2023",
    "licenseExpirationDate": "12/02/2025",
    "dataDate": "10/18/2025",
    "capacity": 0,
    "address": "818 N. MOUNTAIN AVENUE, SUITE 104",
    "city": "UPLAND",
    "zip": "91786",
    "county": "SAN BERNARDINO",
    "phone": "(909) 981-3000",
    "lat": 34.104591,
    "lng": -117.668277
  },
  {
    "id": "240001521",
    "name": "ADEPT HOME HEALTH SERVICES INC",
    "npi": "1073630596",
    "hcaiId": "406364189",
    "businessName": "ADEPT HOME HEALTH SERVICES, INC.",
    "contactEmail": "ADEPTHOMEHEALTH@MAIL.COM",
    "categoryName": "HOME HEALTH AGENCY",
    "categoryCode": "HHA",
    "licenseStatus": "ACTIVE",
    "inService": true,
    "licenseNumber": "240000655",
    "licenseEffectiveDate": "06/29/2025",
    "licenseExpirationDate": "06/28/2026",
    "dataDate": "10/18/2025",
    "capacity": 0,
    "address": "818 N MOUNTAIN AVE, SUITE 120",
    "city": "UPLAND",
    "zip": "91786",
    "county": "SAN BERNARDINO",
    "phone": "(909) 608-0006",
    "lat": 34.104591,
    "lng": -117.668277
  },
  {
    "id": "630014621",
    "name": "ADVANTAGE HOSPICE PROVIDERS, INC.",
    "npi": "1699109306",
    "hcaiId": "406364550",
    "businessName": "ADVANTAGE HOSPICE PROVIDERS, INC.",
    "contactEmail": "ADVANTAGEHOSPICEP@GMAIL.COM",
    "categoryName": "HOSPICE",
    "categoryCode": "HOSPICE",
    "licenseStatus": "ACTIVE",
    "inService": true,
    "licenseNumber": "550002548",
    "licenseEffectiveDate": "12/11/2023",
    "licenseExpirationDate": "12/10/2025",
    "dataDate": "10/18/2025",
    "capacity": 0,
    "address": "1934 W 9TH ST, UNIT B",
    "city": "UPLAND",
    "zip": "91786",
    "county": "SAN BERNARDINO",
    "phone": "(909) 296-7903",
    "lat": 34.09515,
    "lng": -117.6880995
  },
  {
    "id": "240001376",
    "name": "AGAPE HOME CARE",
    "npi": "1689651176",
    "hcaiId": "406364155",
    "businessName": "AGAPE HOME CARE, INC.",
    "contactEmail": "GLUCAS111@ME.COM",
    "categoryName": "HOME HEALTH AGENCY",
    "categoryCode": "HHA",
    "licenseStatus": "ACTIVE",
    "inService": true,
    "licenseNumber": "240000582",
    "licenseEffectiveDate": "04/02/2025",
    "licenseExpirationDate": "04/01/2026",
    "dataDate": "10/18/2025",
    "capacity": 0,
    "address": "99 N SAN ANTONIO AVE, SUITE 360",
    "city": "UPLAND",
    "zip": "91786",
    "county": "SAN BERNARDINO",
    "phone": "(909) 949-7666",
    "lat": 34.095078,
    "lng": -117.6613425
  },
  {
    "id": "630021542",
    "name": "ALEXIUS HOSPICE CARE,INC.",
    "npi": null,
    "hcaiId": "406363427",
    "businessName": "ALEXIUS HOSPICE CARE,INC.",
    "contactEmail": "ALEXIUSHOSPICE@GMAIL.COM",
    "categoryName": "HOSPICE",
    "categoryCode": "HOSPICE",
    "licenseStatus": "ACTIVE",
    "inService": true,
    "licenseNumber": "550006813",
    "licenseEffectiveDate": "09/21/2023",
    "licenseExpirationDate": "09/20/2025",
    "dataDate": "10/18/2025",
    "capacity": 0,
    "address": "167 N 3RD AVE, SUITE Q",
    "city": "UPLAND",
    "zip": "91786",
    "county": "SAN BERNARDINO",
    "phone": "(909) 562-1270",
    "lat": 34.0956,
    "lng": -117.6474825
  },
  {
    "id": "630021337",
    "name": "ANCHOR HOSPICE, INC",
    "npi": null,
    "hcaiId": "406364931",
    "businessName": "ANCHOR HOSPICE, INC",
    "contactEmail": "INFO.ANCHORHOSPICE@GMAIL.COM",
    "categoryName": "HOSPICE",
    "categoryCode": "HOSPICE",
    "licenseStatus": "ACTIVE",
    "inService": true,
    "licenseNumber": "550007073",
    "licenseEffectiveDate": "10/09/2025",
    "licenseExpirationDate": "10/08/2027",
    "dataDate": "10/18/2025",
    "capacity": 0,
    "address": "400 N MOUNTAIN AVE, SUITE 123E",
    "city": "UPLAND",
    "zip": "91786",
    "county": "SAN BERNARDINO",
    "phone": "(909) 294-3825",
    "lat": 34.098336,
    "lng": -117.668376
  },
  {
    "id": "630021761",
    "name": "APF HOME HEALTH INC.",
    "npi": null,
    "hcaiId": "406365249",
    "businessName": "APF HOME HEALTH, INC.",
    "contactEmail": "JPAHUMADA@OUTLOOK.COM",
    "categoryName": "HOME HEALTH AGENCY",
    "categoryCode": "HHA",
    "licenseStatus": "ACTIVE",
    "inService": true,
    "licenseNumber": "550007431",
    "licenseEffectiveDate": "12/06/2024",
    "licenseExpirationDate": "12/05/2025",
    "dataDate": "10/18/2025",
    "capacity": 0,
    "address": "818 N MOUNTAIN AVE, SUITE 106",
    "city": "UPLAND",
    "zip": "91786",
    "county": "SAN BERNARDINO",
    "phone": "(909) 931-3942",
    "lat": 34.104591,
    "lng": -117.668277
  },
  {
    "id": "630022151",
    "name": "APF HOSPICE, INC.",
    "npi": null,
    "hcaiId": "406365732",
    "businessName": "APF HOSPICE, INC.",
    "contactEmail": "APFHOSPICE@OUTLOOK.COM",
    "categoryName": "HOSPICE",
    "categoryCode": "HOSPICE",
    "licenseStatus": "ACTIVE",
    "inService": true,
    "licenseNumber": "550007704",
    "licenseEffectiveDate": "12/27/2023",
    "licenseExpirationDate": "12/26/2025",
    "dataDate": "10/18/2025",
    "capacity": 0,
    "address": "818 N MOUNTAIN AVE, SUITE 105",
    "city": "UPLAND",
    "zip": "91786",
    "county": "SAN BERNARDINO",
    "phone": "(909) 931-1112",
    "lat": 34.104591,
    "lng": -117.668277
  },
  {
    "id": "630020694",
    "name": "APPLING HOSPICE CARE",
    "npi": null,
    "hcaiId": "406360023",
    "businessName": "APPLING HOSPICE CARE",
    "contactEmail": "SAFEHAVENHOSPICEINC@GMAIL.COM",
    "categoryName": "HOSPICE",
    "categoryCode": "HOSPICE",
    "licenseStatus": "ACTIVE",
    "inService": true,
    "licenseNumber": "550006081",
    "licenseEffectiveDate": "02/27/2025",
    "licenseExpirationDate": "02/26/2027",
    "dataDate": "10/18/2025",
    "capacity": 0,
    "address": "400 N MOUNTAIN AVE, SUITE 123F",
    "city": "UPLAND",
    "zip": "91786",
    "county": "SAN BERNARDINO",
    "phone": "(909) 532-5154",
    "lat": 34.098336,
    "lng": -117.668376
  },
  {
    "id": "630026438",
    "name": "ARK HOME HEALTH, INC.",
    "npi": null,
    "hcaiId": null,
    "businessName": "ARK HOME HEALTH, INC.",
    "contactEmail": "ARKHOMEHEALTH@GMAIL.COM",
    "categoryName": "HOME HEALTH AGENCY",
    "categoryCode": "HHA",
    "licenseStatus": "ACTIVE",
    "inService": true,
    "licenseNumber": "550009214",
    "licenseEffectiveDate": "10/09/2025",
    "licenseExpirationDate": "10/08/2026",
    "dataDate": "10/18/2025",
    "capacity": 0,
    "address": "222 N MOUNTAIN AVE, SUITE 211",
    "city": "UPLAND",
    "zip": "91786",
    "county": "SAN BERNARDINO",
    "phone": "(909) 775-0285",
    "lat": 34.09652714,
    "lng": -117.6700331
  },
  {
    "id": "630014387",
    "name": "ASPIRE HEALTHCARE SERVICES",
    "npi": "1780024851",
    "hcaiId": "406364483",
    "businessName": "ASPIRE HEALTHCARE SERVICES",
    "contactEmail": "ASPIREHEALTHCARESERVICES@GMAIL.COM",
    "categoryName": "HOME HEALTH AGENCY",
    "categoryCode": "HHA",
    "licenseStatus": "ACTIVE",
    "inService": true,
    "licenseNumber": "550002587",
    "licenseEffectiveDate": "01/27/2025",
    "licenseExpirationDate": "01/26/2026",
    "dataDate": "10/18/2025",
    "capacity": 0,
    "address": "222 N MOUNTAIN AVENUE, SUITE 201A",
    "city": "UPLAND",
    "zip": "91786",
    "county": "SAN BERNARDINO",
    "phone": "(909) 982-2465",
    "lat": 34.09652714,
    "lng": -117.6700331
  },
  {
    "id": "630019719",
    "name": "AVILA HOSPICE, INC.",
    "npi": "1437798543",
    "hcaiId": "406362780",
    "businessName": "AVILA HOSPICE, INC.",
    "contactEmail": "AVILAHOSPICE@GMAIL.COM",
    "categoryName": "HOSPICE",
    "categoryCode": "HOSPICE",
    "licenseStatus": "ACTIVE",
    "inService": true,
    "licenseNumber": "550005610",
    "licenseEffectiveDate": "07/25/2024",
    "licenseExpirationDate": "07/24/2026",
    "dataDate": "10/18/2025",
    "capacity": 0,
    "address": "167 N 3RD AVE, SUITE O",
    "city": "UPLAND",
    "zip": "91786",
    "county": "SAN BERNARDINO",
    "phone": "(909) 931-3118",
    "lat": 34.095618,
    "lng": -117.6474915
  },
  {
    "id": "630015488",
    "name": "BLENDSHIP, INC.",
    "npi": "1144649609",
    "hcaiId": "406364546",
    "businessName": "BLENDSHIP, INC.",
    "contactEmail": "BLENDSHIPHOSPICE@YAHOO.COM",
    "categoryName": "HOSPICE",
    "categoryCode": "HOSPICE",
    "licenseStatus": "ACTIVE",
    "inService": true,
    "licenseNumber": "550002952",
    "licenseEffectiveDate": "12/01/2024",
    "licenseExpirationDate": "11/30/2026",
    "dataDate": "10/18/2025",
    "capacity": 0,
    "address": "222 N MOUNTAIN AVE, SUITE 209",
    "city": "UPLAND",
    "zip": "91786",
    "county": "SAN BERNARDINO",
    "phone": "(909) 920-9400",
    "lat": 34.09640199,
    "lng": -117.669592
  },
  {
    "id": "980002317",
    "name": "BLUE DIAMOND HOME HEALTH PROVIDER",
    "npi": "1669815064",
    "hcaiId": "406197088",
    "businessName": "MEDCARE PLUS HOME HEALTH PROVIDERS, INC.",
    "contactEmail": "BLUEDIAMOND_HOMEHEALTH@YAHOO.COM",
    "categoryName": "HOME HEALTH AGENCY",
    "categoryCode": "HHA",
    "licenseStatus": "ACTIVE",
    "inService": true,
    "licenseNumber": "980001429",
    "licenseEffectiveDate": "08/20/2025",
    "licenseExpirationDate": "08/19/2026",
    "dataDate": "10/18/2025",
    "capacity": 0,
    "address": "870 N MOUNTAIN AVE, SUITE 123",
    "city": "UPLAND",
    "zip": "91786",
    "county": "SAN BERNARDINO",
    "phone": "(626) 594-4990",
    "lat": 34.10479735,
    "lng": -117.6701484
  },
  {
    "id": "630017274",
    "name": "BUTTERFLY HOSPICE",
    "npi": "1982142170",
    "hcaiId": "406361472",
    "businessName": "EMERALD GARDENS HOSPICE, INC.",
    "contactEmail": "M.DELAROCA@BUTTERFLYHOSPICECARE.COM",
    "categoryName": "HOSPICE",
    "categoryCode": "HOSPICE",
    "licenseStatus": "ACTIVE",
    "inService": true,
    "licenseNumber": "550004452",
    "licenseEffectiveDate": "11/21/2024",
    "licenseExpirationDate": "11/20/2026",
    "dataDate": "10/18/2025",
    "capacity": 0,
    "address": "600 N. MOUNTAIN AVE., UNIT C206",
    "city": "UPLAND",
    "zip": "91786",
    "county": "SAN BERNARDINO",
    "phone": "(909) 313-2522",
    "lat": 34.101045,
    "lng": -117.669087
  },
  {
    "id": "630019708",
    "name": "CALCARE HOSPICE, LLC",
    "npi": "1336788058",
    "hcaiId": "406362837",
    "businessName": "CALCARE HOSPICE, LLC",
    "contactEmail": null,
    "categoryName": "HOSPICE",
    "categoryCode": "HOSPICE",
    "licenseStatus": "ACTIVE",
    "inService": true,
    "licenseNumber": "550005650",
    "licenseEffectiveDate": "08/14/2024",
    "licenseExpirationDate": "08/13/2026",
    "dataDate": "10/18/2025",
    "capacity": 0,
    "address": "222 N MOUNTAIN AVE, SUITE 214-B",
    "city": "UPLAND",
    "zip": "91786",
    "county": "SAN BERNARDINO",
    "phone": "(909) 931-0644",
    "lat": 34.09652714,
    "lng": -117.6700331
  },
  {
    "id": "240001684",
    "name": "CASA #1",
    "npi": "1366578668",
    "hcaiId": null,
    "businessName": "CASA HEALTH CARE, INC.",
    "contactEmail": "CASAHEALTHCAREINC@GMAIL.COM",
    "categoryName": "INTERMEDIATE CARE FACILITY-DD/H/N/CN/IID",
    "categoryCode": "ICFDDN",
    "licenseStatus": "ACTIVE",
    "inService": true,
    "licenseNumber": "240000730",
    "licenseEffectiveDate": "11/22/2024",
    "licenseExpirationDate": "11/21/2025",
    "dataDate": "10/18/2025",
    "capacity": 6,
    "address": "1372 N 2ND AVE",
    "city": "UPLAND",
    "zip": "91786",
    "county": "SAN BERNARDINO",
    "phone": "(909) 946-7242",
    "lat": 34.113213,
    "lng": -117.6482475
  },
  {
    "id": "240001753",
    "name": "CASA #2",
    "npi": "1366578668",
    "hcaiId": null,
    "businessName": "CASA HEALTH CARE, INC.",
    "contactEmail": "CASAHEALTHCAREINC@GMAIL.COM",
    "categoryName": "INTERMEDIATE CARE FACILITY-DD/H/N/CN/IID",
    "categoryCode": "ICFDDN",
    "licenseStatus": "ACTIVE",
    "inService": true,
    "licenseNumber": "240000763",
    "licenseEffectiveDate": "11/08/2024",
    "licenseExpirationDate": "11/07/2025",
    "dataDate": "10/18/2025",
    "capacity": 6,
    "address": "1397 N 1ST AVE",
    "city": "UPLAND",
    "zip": "91786",
    "county": "SAN BERNARDINO",
    "phone": "(909) 931-2756",
    "lat": 34.114068,
    "lng": -117.6500925
  },
  {
    "id": "240001868",
    "name": "CASA #3",
    "npi": "1366578668",
    "hcaiId": null,
    "businessName": "CASA HEALTH CARE, INC.",
    "contactEmail": "CASAHEALTHCAREINC@GMAIL.COM",
    "categoryName": "INTERMEDIATE CARE FACILITY-DD/H/N/CN/IID",
    "categoryCode": "ICFDDN",
    "licenseStatus": "ACTIVE",
    "inService": true,
    "licenseNumber": "240000837",
    "licenseEffectiveDate": "11/08/2024",
    "licenseExpirationDate": "11/07/2025",
    "dataDate": "10/18/2025",
    "capacity": 6,
    "address": "1456 N 2ND AVE",
    "city": "UPLAND",
    "zip": "91786",
    "county": "SAN BERNARDINO",
    "phone": "(909) 985-6043",
    "lat": 34.116201,
    "lng": -117.6482565
  },
  {
    "id": "630010939",
    "name": "CELEBRITY HOME HEALTH",
    "npi": "1265654362",
    "hcaiId": "406366788",
    "businessName": "CELEBRITY HOMEHEALTH INC.",
    "contactEmail": "ILANA@CELEBRITYHOMEHEALTH.COM",
    "categoryName": "HOME HEALTH AGENCY",
    "categoryCode": "HHA",
    "licenseStatus": "ACTIVE",
    "inService": true,
    "licenseNumber": "550000588",
    "licenseEffectiveDate": "11/29/2024",
    "licenseExpirationDate": "11/28/2025",
    "dataDate": "10/18/2025",
    "capacity": 0,
    "address": "942 W FOOTHILL BLVD, SUITE B",
    "city": "UPLAND",
    "zip": "91786",
    "county": "SAN BERNARDINO",
    "phone": "(909) 931-3888",
    "lat": 34.106328,
    "lng": -117.6644205
  },
  {
    "id": "060001735",
    "name": "CENTRAL CITY COMMUNITY HEALTH CENTER CBAS",
    "npi": null,
    "hcaiId": null,
    "businessName": "HEALTH GUARD INLAND, LLC",
    "contactEmail": "KAREN.RODRIGUEZ@CENTRALCITYHEALTH.ORG",
    "categoryName": "ADULT DAY HEALTH CARE",
    "categoryCode": "ADHC",
    "licenseStatus": "ACTIVE",
    "inService": true,
    "licenseNumber": "060000554",
    "licenseEffectiveDate": "12/29/2024",
    "licenseExpirationDate": "12/28/2025",
    "dataDate": "10/18/2025",
    "capacity": 0,
    "address": "268 MCARTHUR WAY",
    "city": "UPLAND",
    "zip": "91786",
    "county": "SAN BERNARDINO",
    "phone": "(909) 920-1165",
    "lat": 34.097031,
    "lng": -117.678888
  },
  {
    "id": "630027694",
    "name": "CENTRAL CITY COMMUNITY HEALTH CENTER, INC. - UPLAND",
    "npi": "1033488416",
    "hcaiId": null,
    "businessName": "CENTRAL CITY COMMUNITY HEALTH CENTER, INC.",
    "contactEmail": null,
    "categoryName": "PRIMARY CARE CLINIC",
    "categoryCode": "COMTYC",
    "licenseStatus": "ACTIVE",
    "inService": true,
    "licenseNumber": "550001963",
    "licenseEffectiveDate": "06/15/2025",
    "licenseExpirationDate": "06/14/2026",
    "dataDate": "10/18/2025",
    "capacity": 0,
    "address": "268 MCARTHUR WAY, SUITE A",
    "city": "UPLAND",
    "zip": "91786",
    "county": "SAN BERNARDINO",
    "phone": null,
    "lat": 34.097029,
    "lng": -117.678881
  },
  {
    "id": "630019132",
    "name": "CENTRAL HOSPICE CARE, INC.",
    "npi": "1417500133",
    "hcaiId": "406362715",
    "businessName": "CENTRAL HOSPICE CARE, INC",
    "contactEmail": "CENTRALHOSPICECARE@GMAIL.COM",
    "categoryName": "HOSPICE",
    "categoryCode": "HOSPICE",
    "licenseStatus": "ACTIVE",
    "inService": true,
    "licenseNumber": "550005553",
    "licenseEffectiveDate": "07/02/2024",
    "licenseExpirationDate": "07/01/2026",
    "dataDate": "10/18/2025",
    "capacity": 0,
    "address": "600 N MOUNTAIN AVE, SUITE B106",
    "city": "UPLAND",
    "zip": "91786",
    "county": "SAN BERNARDINO",
    "phone": "(909) 206-1212",
    "lat": 34.101045,
    "lng": -117.669087
  },
  {
    "id": "630020444",
    "name": "CENTRAL NEIGHBORHOOD HEALTH FOUNDATION - UPLAND",
    "npi": "1841437241",
    "hcaiId": null,
    "businessName": "H STREET CLINIC, INC.",
    "contactEmail": null,
    "categoryName": "PRIMARY CARE CLINIC",
    "categoryCode": "FQHC",
    "licenseStatus": "ACTIVE",
    "inService": true,
    "licenseNumber": "550000837",
    "licenseEffectiveDate": "12/09/2024",
    "licenseExpirationDate": "12/08/2025",
    "dataDate": "10/18/2025",
    "capacity": 0,
    "address": "360 E 7TH ST, SUITE B",
    "city": "UPLAND",
    "zip": "91786",
    "county": "SAN BERNARDINO",
    "phone": null,
    "lat": 34.088589,
    "lng": -117.646506
  },
  {
    "id": "630019434",
    "name": "COMF1RST HOSPICE INC",
    "npi": null,
    "hcaiId": "406362997",
    "businessName": "COMF1RST HOSPICE INC",
    "contactEmail": "DOLCE.COMF1RSTHOSPICE@GMAIL.COM",
    "categoryName": "HOSPICE",
    "categoryCode": "HOSPICE",
    "licenseStatus": "ACTIVE",
    "inService": true,
    "licenseNumber": "550005873",
    "licenseEffectiveDate": "11/25/2020",
    "licenseExpirationDate": "11/24/2022",
    "dataDate": "10/18/2025",
    "capacity": 0,
    "address": "400 N MOUNTAIN AVE, SUITE 235",
    "city": "UPLAND",
    "zip": "91786",
    "county": "SAN BERNARDINO",
    "phone": "(909) 532-5132",
    "lat": 34.098498,
    "lng": -117.668313
  },
  {
    "id": "630011857",
    "name": "CONNIE MAE DIVISION",
    "npi": "1871741082",
    "hcaiId": null,
    "businessName": "ABILITY PATHWAYS INCORPORATED",
    "contactEmail": "MRARN@AOL.COM",
    "categoryName": "INTERMEDIATE CARE FACILITY-DD/H/N/CN/IID",
    "categoryCode": "ICFDDN",
    "licenseStatus": "ACTIVE",
    "inService": true,
    "licenseNumber": "550001097",
    "licenseEffectiveDate": "06/22/2025",
    "licenseExpirationDate": "06/21/2026",
    "dataDate": "10/18/2025",
    "capacity": 6,
    "address": "1890 W ARROW RTE",
    "city": "UPLAND",
    "zip": "91786",
    "county": "SAN BERNARDINO",
    "phone": "(909) 982-1755",
    "lat": 34.099362,
    "lng": -117.687375
  },
  {
    "id": "630022384",
    "name": "CYPRESS HOSPICE",
    "npi": "1730764531",
    "hcaiId": "406365088",
    "businessName": "MELODY CARE HOSPICE",
    "contactEmail": "MELODYCAREHOSPICE@GMAIL.COM",
    "categoryName": "HOSPICE",
    "categoryCode": "HOSPICE",
    "licenseStatus": "ACTIVE",
    "inService": true,
    "licenseNumber": "550007530",
    "licenseEffectiveDate": "08/19/2024",
    "licenseExpirationDate": "12/20/2025",
    "dataDate": "10/18/2025",
    "capacity": 0,
    "address": "876 N MOUNTAIN AVE, SUITE 102",
    "city": "UPLAND",
    "zip": "91786",
    "county": "SAN BERNARDINO",
    "phone": "(909) 931-9277",
    "lat": 34.10509575,
    "lng": -117.6700537
  },
  {
    "id": "630027054",
    "name": "DIVINE HANDS HOME HEALTH, INC.",
    "npi": null,
    "hcaiId": null,
    "businessName": "DIVINE HANDS HOME HEALTH, INC",
    "contactEmail": "DIVINEHANDSHH@GMAIL.COM",
    "categoryName": "HOME HEALTH AGENCY",
    "categoryCode": "HHA",
    "licenseStatus": "ACTIVE",
    "inService": true,
    "licenseNumber": "550009888",
    "licenseEffectiveDate": "03/31/2025",
    "licenseExpirationDate": "09/30/2025",
    "dataDate": "10/18/2025",
    "capacity": 0,
    "address": "325 N 2ND AVE, SUITE B",
    "city": "UPLAND",
    "zip": "91786",
    "county": "SAN BERNARDINO",
    "phone": "(760) 298-1530",
    "lat": 34.09763601,
    "lng": -117.648789
  },
  {
    "id": "630017777",
    "name": "DOVER HOME HEALTH CARE INC",
    "npi": "1891212270",
    "hcaiId": "406362668",
    "businessName": "DOVER HOME HEALTH CARE, INC.",
    "contactEmail": "BRITTANY@ARTOFCARE.COM",
    "categoryName": "HOME HEALTH AGENCY",
    "categoryCode": "HHA",
    "licenseStatus": "ACTIVE",
    "inService": true,
    "licenseNumber": "550005632",
    "licenseEffectiveDate": "08/01/2024",
    "licenseExpirationDate": "07/31/2025",
    "dataDate": "10/18/2025",
    "capacity": 0,
    "address": "167 N 3RD AVE, SUITE C",
    "city": "UPLAND",
    "zip": "91786",
    "county": "SAN BERNARDINO",
    "phone": "(855) 777-9899",
    "lat": 34.095618,
    "lng": -117.6474915
  },
  {
    "id": "630016719",
    "name": "ERIN HOUSE",
    "npi": "1538514807",
    "hcaiId": null,
    "businessName": "MONTE VISTA CHILD CARE CENTER, INC.",
    "contactEmail": "MONTEVISTACHILDCARECENTER@GMAIL.COM",
    "categoryName": "INTERMEDIATE CARE FACILITY-DD/H/N/CN/IID",
    "categoryCode": "ICFDDN",
    "licenseStatus": "ACTIVE",
    "inService": true,
    "licenseNumber": "550003933",
    "licenseEffectiveDate": "07/03/2025",
    "licenseExpirationDate": "07/02/2026",
    "dataDate": "10/18/2025",
    "capacity": 6,
    "address": "1303 N ERIN AVE",
    "city": "UPLAND",
    "zip": "91786",
    "county": "SAN BERNARDINO",
    "phone": "(909) 899-5046",
    "lat": 34.110801,
    "lng": -117.6685875
  },
  {
    "id": "240001549",
    "name": "ETHICAL HOME HEALTH CARE INC",
    "npi": "1093798977",
    "hcaiId": "406364346",
    "businessName": "ETHICAL HOME HEALTH CARE, INC.",
    "contactEmail": "DARCY@ETHICALHHC.COM",
    "categoryName": "HOME HEALTH AGENCY",
    "categoryCode": "HHA",
    "licenseStatus": "ACTIVE",
    "inService": true,
    "licenseNumber": "240000670",
    "licenseEffectiveDate": "06/19/2025",
    "licenseExpirationDate": "06/18/2026",
    "dataDate": "10/18/2025",
    "capacity": 0,
    "address": "550 N EUCLID AVE",
    "city": "UPLAND",
    "zip": "91786",
    "county": "SAN BERNARDINO",
    "phone": "(909) 946-9000",
    "lat": 34.100334,
    "lng": -117.650673
  },
  {
    "id": "240001924",
    "name": "EXCEL CARE HOME HEALTH SERVICES INC",
    "npi": "1881747970",
    "hcaiId": "406364296",
    "businessName": "EXCEL CARE HOME HEALTH SERVICES, INC.",
    "contactEmail": "DOVEDEJESUS@EXCELCAREHOMEHEALTH.COM",
    "categoryName": "HOME HEALTH AGENCY",
    "categoryCode": "HHA",
    "licenseStatus": "ACTIVE",
    "inService": true,
    "licenseNumber": "240000871",
    "licenseEffectiveDate": "12/01/2024",
    "licenseExpirationDate": "11/30/2025",
    "dataDate": "10/18/2025",
    "capacity": 0,
    "address": "222 N MOUNTAIN AVE, SUITE 104",
    "city": "UPLAND",
    "zip": "91786",
    "county": "SAN BERNARDINO",
    "phone": "(909) 579-6688",
    "lat": 34.09652714,
    "lng": -117.6700331
  },
  {
    "id": "630022439",
    "name": "EXCEPTIONAL HOSPICE CARE",
    "npi": null,
    "hcaiId": "406368043",
    "businessName": "EXCEPTIONAL HOSPICE CARE",
    "contactEmail": "EXCEPTIONALHOSPICECARE@GMAIL.COM",
    "categoryName": "HOSPICE",
    "categoryCode": "HOSPICE",
    "licenseStatus": "ACTIVE",
    "inService": true,
    "licenseNumber": "550007647",
    "licenseEffectiveDate": "12/22/2023",
    "licenseExpirationDate": "12/21/2025",
    "dataDate": "10/18/2025",
    "capacity": 0,
    "address": "818 N MOUNTAIN AVE, SUITE 103",
    "city": "UPLAND",
    "zip": "91786",
    "county": "SAN BERNARDINO",
    "phone": "(909) 256-4564",
    "lat": 34.104591,
    "lng": -117.668277
  },
  {
    "id": "630014418",
    "name": "FAMILY HERITAGE HOME HEALTH",
    "npi": "1780027342",
    "hcaiId": "406364496",
    "businessName": "COMMUNITY HERITAGE CORPORATION",
    "contactEmail": "FAMILYHERITAGEHH@YAHOO.COM",
    "categoryName": "HOME HEALTH AGENCY",
    "categoryCode": "HHA",
    "licenseStatus": "ACTIVE",
    "inService": true,
    "licenseNumber": "550002737",
    "licenseEffectiveDate": "02/19/2025",
    "licenseExpirationDate": "02/18/2026",
    "dataDate": "10/18/2025",
    "capacity": 0,
    "address": "1126 W FOOTHILL BLVD, SUITE 225",
    "city": "UPLAND",
    "zip": "91786",
    "county": "SAN BERNARDINO",
    "phone": "(909) 920-6885",
    "lat": 34.10669995,
    "lng": -117.6680895
  },
  {
    "id": "630014639",
    "name": "FARMER HOME",
    "npi": "1205138518",
    "hcaiId": null,
    "businessName": "SALEM CHRISTIAN HOMES, INC.",
    "contactEmail": "SHEATH@SALEMCHRISTIANHOMES.ORG",
    "categoryName": "INTERMEDIATE CARE FACILITY-DD/H/N/CN/IID",
    "categoryCode": "ICFDDH",
    "licenseStatus": "ACTIVE",
    "inService": true,
    "licenseNumber": "550002844",
    "licenseEffectiveDate": "09/11/2025",
    "licenseExpirationDate": "09/10/2026",
    "dataDate": "10/18/2025",
    "capacity": 6,
    "address": "1177 W ASTER ST",
    "city": "UPLAND",
    "zip": "91786",
    "county": "SAN BERNARDINO",
    "phone": "(909) 287-4155",
    "lat": 34.121223,
    "lng": -117.669645
  },
  {
    "id": "240001155",
    "name": "FIFTEENTH STREET HOUSE",
    "npi": "1558497404",
    "hcaiId": null,
    "businessName": "RSCR INLAND, INC.",
    "contactEmail": "SERENA.ROJAS@RESCARE.COM",
    "categoryName": "INTERMEDIATE CARE FACILITY-DD/H/N/CN/IID",
    "categoryCode": "ICFDDH",
    "licenseStatus": "ACTIVE",
    "inService": true,
    "licenseNumber": "240000477",
    "licenseEffectiveDate": "05/14/2025",
    "licenseExpirationDate": "05/13/2026",
    "dataDate": "10/18/2025",
    "capacity": 6,
    "address": "1447 E 15TH ST",
    "city": "UPLAND",
    "zip": "91786",
    "county": "SAN BERNARDINO",
    "phone": "(909) 985-4285",
    "lat": 34.118163,
    "lng": -117.629955
  },
  {
    "id": "240001060",
    "name": "FOOTHILL AMBULATORY SURGERY CENTER",
    "npi": "1477502979",
    "hcaiId": "306364104",
    "businessName": "M.M. KANOK, M.D., A MEDICAL CORPOATION",
    "contactEmail": "NPOOPAT@GMAIL.COM",
    "categoryName": "SURGICAL CLINIC",
    "categoryCode": "ASC",
    "licenseStatus": "INACTIVE - CAPEN DECISION",
    "inService": false,
    "licenseNumber": "240000458",
    "licenseEffectiveDate": "01/21/2010",
    "licenseExpirationDate": "01/20/2011",
    "dataDate": "10/18/2025",
    "capacity": 0,
    "address": "1030 E FOOTHILL BLVD, SUITE 101B",
    "city": "UPLAND",
    "zip": "91786",
    "county": "SAN BERNARDINO",
    "phone": "(909) 981-5859",
    "lat": 34.106589,
    "lng": -117.6376545
  },
  {
    "id": "630020637",
    "name": "FOOTHILL HOSPICE",
    "npi": null,
    "hcaiId": null,
    "businessName": "FOOTHILL HOSPICE",
    "contactEmail": "MOHAMMED@UHNHEALTH.COM",
    "categoryName": "HOSPICE",
    "categoryCode": "HOSPICE",
    "licenseStatus": "ACTIVE",
    "inService": true,
    "licenseNumber": "550007550",
    "licenseEffectiveDate": "12/14/2023",
    "licenseExpirationDate": "12/13/2025",
    "dataDate": "10/18/2025",
    "capacity": 0,
    "address": "123 E 9TH ST, SUITE 102-A",
    "city": "UPLAND",
    "zip": "91786",
    "county": "SAN BERNARDINO",
    "phone": "(909) 303-9241",
    "lat": 34.096356,
    "lng": -117.6492915
  },
  {
    "id": "630015896",
    "name": "GABRIELLE HOSPICE AND PALLIATIVE",
    "npi": null,
    "hcaiId": "406364597",
    "businessName": "HOSPICE CARE AT HOME, INC.",
    "contactEmail": "4HOSPICECARE@GMAIL.COM",
    "categoryName": "HOSPICE",
    "categoryCode": "HOSPICE",
    "licenseStatus": "ACTIVE",
    "inService": false,
    "licenseNumber": "550003274",
    "licenseEffectiveDate": "10/21/2023",
    "licenseExpirationDate": "10/20/2025",
    "dataDate": "10/18/2025",
    "capacity": 0,
    "address": "400 N MOUNTAIN AVE, SUITE 123D",
    "city": "UPLAND",
    "zip": "91786",
    "county": "SAN BERNARDINO",
    "phone": "(909) 303-9366",
    "lat": 34.098498,
    "lng": -117.668313
  },
  {
    "id": "630016363",
    "name": "GEANA HOSPICE CARE, INC.",
    "npi": "1013388750",
    "hcaiId": "406360679",
    "businessName": "GEANA HOSPICE CARE, INC.",
    "contactEmail": "GEANAHOSPICE@YAHOO.COM",
    "categoryName": "HOSPICE",
    "categoryCode": "HOSPICE",
    "licenseStatus": "ACTIVE",
    "inService": true,
    "licenseNumber": "550003339",
    "licenseEffectiveDate": "12/30/2023",
    "licenseExpirationDate": "12/29/2025",
    "dataDate": "10/18/2025",
    "capacity": 0,
    "address": "820 N. MOUNTAIN AVENUE, SUITE 107",
    "city": "UPLAND",
    "zip": "91786",
    "county": "SAN BERNARDINO",
    "phone": "(909) 367-2077",
    "lat": 34.1040633,
    "lng": -117.6701469
  },
  {
    "id": "630025133",
    "name": "GENTLE AND PROFESSIONAL HOME HEALTH INC.",
    "npi": null,
    "hcaiId": "406366224",
    "businessName": "GENTLE AND PROFESSIONAL HOME HEALTH INC.",
    "contactEmail": "GENTLE.PROFESSIONAL.HH@GMAIL.COM",
    "categoryName": "HOME HEALTH AGENCY",
    "categoryCode": "HHA",
    "licenseStatus": "ACTIVE",
    "inService": true,
    "licenseNumber": "550008390",
    "licenseEffectiveDate": "02/07/2025",
    "licenseExpirationDate": "02/06/2026",
    "dataDate": "10/18/2025",
    "capacity": 0,
    "address": "869 E FOOTHILL BLVD, SUITE L SUITE 3",
    "city": "UPLAND",
    "zip": "91786",
    "county": "SAN BERNARDINO",
    "phone": "(747) 528-7225",
    "lat": 34.10829,
    "lng": -117.639351
  },
  {
    "id": "240001834",
    "name": "GENUS HOME CARE, INC",
    "npi": "1508941923",
    "hcaiId": "406364251",
    "businessName": "GENUS HOME CARE, INC.",
    "contactEmail": "JHAYWOOD@GENUSHOMECARE.COM",
    "categoryName": "HOME HEALTH AGENCY",
    "categoryCode": "HHA",
    "licenseStatus": "ACTIVE",
    "inService": true,
    "licenseNumber": "240000820",
    "licenseEffectiveDate": "03/08/2025",
    "licenseExpirationDate": "03/07/2026",
    "dataDate": "10/18/2025",
    "capacity": 0,
    "address": "1476 W 9TH ST, SUITE B1",
    "city": "UPLAND",
    "zip": "91786",
    "county": "SAN BERNARDINO",
    "phone": "(909) 981-1821",
    "lat": 34.094574,
    "lng": -117.677349
  },
  {
    "id": "630013416",
    "name": "GHC HOSPICE, INC.",
    "npi": null,
    "hcaiId": "406364440",
    "businessName": "GHC HOSPICE, INC",
    "contactEmail": "JHAYWOOD@GENUSHOMECARE.COM",
    "categoryName": "HOSPICE",
    "categoryCode": "HOSPICE",
    "licenseStatus": "ACTIVE",
    "inService": true,
    "licenseNumber": "550001816",
    "licenseEffectiveDate": "12/19/2023",
    "licenseExpirationDate": "12/18/2025",
    "dataDate": "10/18/2025",
    "capacity": 0,
    "address": "906 W 9TH ST",
    "city": "UPLAND",
    "zip": "91786",
    "county": "SAN BERNARDINO",
    "phone": "(951) 545-4462",
    "lat": 34.095726,
    "lng": -117.6632955
  },
  {
    "id": "240001856",
    "name": "GIBBS DIVISION",
    "npi": "1417085499",
    "hcaiId": null,
    "businessName": "ABILITY PATHWAYS INCORPORATED",
    "contactEmail": "MRARN@AOL.COM",
    "categoryName": "INTERMEDIATE CARE FACILITY-DD/H/N/CN/IID",
    "categoryCode": "ICFDDN",
    "licenseStatus": "ACTIVE",
    "inService": true,
    "licenseNumber": "240000832",
    "licenseEffectiveDate": "11/13/2024",
    "licenseExpirationDate": "11/12/2025",
    "dataDate": "10/18/2025",
    "capacity": 6,
    "address": "1463 N ALBRIGHT AVE",
    "city": "UPLAND",
    "zip": "91786",
    "county": "SAN BERNARDINO",
    "phone": "(909) 240-7680",
    "lat": 34.116498,
    "lng": -117.662301
  },
  {
    "id": "630015458",
    "name": "GOLDBERG HOSPICE CARE, INC.",
    "npi": null,
    "hcaiId": "406364532",
    "businessName": "DFT HEALTHCARE GROUP, INC.",
    "contactEmail": "GOLDBERG@DFTHEALTHCARE.COM",
    "categoryName": "HOSPICE",
    "categoryCode": "HOSPICE",
    "licenseStatus": "ACTIVE",
    "inService": true,
    "licenseNumber": "550002959",
    "licenseEffectiveDate": "10/17/2022",
    "licenseExpirationDate": "10/16/2024",
    "dataDate": "10/18/2025",
    "capacity": 0,
    "address": "820 N MOUNTAIN AVE, SUITE 208",
    "city": "UPLAND",
    "zip": "91786",
    "county": "SAN BERNARDINO",
    "phone": "(909) 887-9588",
    "lat": 34.1040633,
    "lng": -117.6701469
  },
  {
    "id": "630015011",
    "name": "GOLDEN ANGEL HOSPICE INC.",
    "npi": null,
    "hcaiId": "406364506",
    "businessName": "GOLDEN ANGEL HOSPICE, INC.",
    "contactEmail": "INFO@GOLDENANGELHOSPICE.COM",
    "categoryName": "HOSPICE",
    "categoryCode": "HOSPICE",
    "licenseStatus": "ACTIVE",
    "inService": true,
    "licenseNumber": "550002816",
    "licenseEffectiveDate": "08/13/2024",
    "licenseExpirationDate": "08/12/2026",
    "dataDate": "10/18/2025",
    "capacity": 0,
    "address": "280 N BENSON AVE, SUITE 11",
    "city": "UPLAND",
    "zip": "91786",
    "county": "SAN BERNARDINO",
    "phone": "(909) 982-2233",
    "lat": 34.097121,
    "lng": -117.6804765
  },
  {
    "id": "240001477",
    "name": "GOOD HOPE HOME HEALTH",
    "npi": "1285618736",
    "hcaiId": "406364331",
    "businessName": "GOOD HOPE HOME HEALTH CARE, INC.",
    "contactEmail": "COMFORTALI@AOL.COM",
    "categoryName": "HOME HEALTH AGENCY",
    "categoryCode": "HHA",
    "licenseStatus": "ACTIVE",
    "inService": true,
    "licenseNumber": "240000641",
    "licenseEffectiveDate": "04/21/2025",
    "licenseExpirationDate": "04/20/2026",
    "dataDate": "10/18/2025",
    "capacity": 0,
    "address": "484 E FOOTHILL BLVD",
    "city": "UPLAND",
    "zip": "91786",
    "county": "SAN BERNARDINO",
    "phone": "(909) 920-6700",
    "lat": 34.106661,
    "lng": -117.644247
  },
  {
    "id": "240001266",
    "name": "GROVE DIVISION",
    "npi": "1588816946",
    "hcaiId": null,
    "businessName": "MONTE VISTA CHILD CARE CENTER, INC.",
    "contactEmail": "MONTEVISTACHILDCARECENTER@GMAIL.COM",
    "categoryName": "INTERMEDIATE CARE FACILITY-DD/H/N/CN/IID",
    "categoryCode": "ICFDDH",
    "licenseStatus": "ACTIVE",
    "inService": true,
    "licenseNumber": "240000529",
    "licenseEffectiveDate": "11/22/2025",
    "licenseExpirationDate": "11/21/2026",
    "dataDate": "10/18/2025",
    "capacity": 6,
    "address": "1422 GROVE AVE",
    "city": "UPLAND",
    "zip": "91786",
    "county": "SAN BERNARDINO",
    "phone": "(909) 912-9314",
    "lat": 34.115229,
    "lng": -117.628992
  },
  {
    "id": "630014873",
    "name": "HELPING HANDS HOSPICE CARE, INC.",
    "npi": "1891131819",
    "hcaiId": "406361301",
    "businessName": "HELPING HANDS HOSPICE CARE, INC.",
    "contactEmail": "HELPINGHANDSHOSPICEINC@YAHOO.COM",
    "categoryName": "HOSPICE",
    "categoryCode": "HOSPICE",
    "licenseStatus": "ACTIVE",
    "inService": true,
    "licenseNumber": "550002650",
    "licenseEffectiveDate": "04/01/2022",
    "licenseExpirationDate": "03/31/2024",
    "dataDate": "10/18/2025",
    "capacity": 0,
    "address": "600 N MOUNTAIN AVE, SUITE D105",
    "city": "UPLAND",
    "zip": "91786",
    "county": "SAN BERNARDINO",
    "phone": "(888) 869-0412",
    "lat": 34.101045,
    "lng": -117.669087
  },
  {
    "id": "240001081",
    "name": "HERITAGE PARK NURSING CENTER",
    "npi": "1770768509",
    "hcaiId": "206364097",
    "businessName": "GHC OF UPLAND, SNF, LLC",
    "contactEmail": "MIKEAGUIRRE@LIFEGEN.NET",
    "categoryName": "SKILLED NURSING FACILITY",
    "categoryCode": "SNF",
    "licenseStatus": "ACTIVE",
    "inService": true,
    "licenseNumber": "240000465",
    "licenseEffectiveDate": "06/13/2025",
    "licenseExpirationDate": "06/12/2026",
    "dataDate": "10/18/2025",
    "capacity": 70,
    "address": "275 GARNET WAY",
    "city": "UPLAND",
    "zip": "91786",
    "county": "SAN BERNARDINO",
    "phone": "(909) 949-4887",
    "lat": 34.097346,
    "lng": -117.6555195
  },
  {
    "id": "630025955",
    "name": "HOMEBRIDGE HOME HEALTH INC",
    "npi": null,
    "hcaiId": null,
    "businessName": "HOMEBRIDGE HOME HEALTH INC.",
    "contactEmail": "HOMEBRIDGEHHI@GMAIL.COM",
    "categoryName": "HOME HEALTH AGENCY",
    "categoryCode": "HHA",
    "licenseStatus": "ACTIVE",
    "inService": true,
    "licenseNumber": "550009017",
    "licenseEffectiveDate": "03/14/2025",
    "licenseExpirationDate": "03/13/2026",
    "dataDate": "10/18/2025",
    "capacity": 0,
    "address": "600 N MOUNTAIN AVE, SUITE C205D",
    "city": "UPLAND",
    "zip": "91786",
    "county": "SAN BERNARDINO",
    "phone": "(909) 532-8755",
    "lat": 34.101045,
    "lng": -117.669087
  },
  {
    "id": "630022607",
    "name": "I ENRICHMENT HOME HEALTH CARE",
    "npi": null,
    "hcaiId": "406366262",
    "businessName": "I ENRICHMENT HOME HEALTH CARE",
    "contactEmail": "AAG@IENRICHMENTHHC.ORG",
    "categoryName": "HOME HEALTH AGENCY",
    "categoryCode": "HHA",
    "licenseStatus": "ACTIVE",
    "inService": true,
    "licenseNumber": "550008444",
    "licenseEffectiveDate": "03/04/2024",
    "licenseExpirationDate": "03/03/2025",
    "dataDate": "10/18/2025",
    "capacity": 0,
    "address": "222 N MOUNTAIN AVE, SUITE 211-B",
    "city": "UPLAND",
    "zip": "91786",
    "county": "SAN BERNARDINO",
    "phone": "(909) 687-0604",
    "lat": 34.09652714,
    "lng": -117.6700331
  },
  {
    "id": "630021230",
    "name": "IE COMMUNITY HOSPICE, INC",
    "npi": "1144828500",
    "hcaiId": "406363699",
    "businessName": "IE COMMUNITY HOSPICE, INC",
    "contactEmail": "INFO@IECOMMUNITYHOSPICE.COM",
    "categoryName": "HOSPICE",
    "categoryCode": "HOSPICE",
    "licenseStatus": "ACTIVE",
    "inService": true,
    "licenseNumber": "550006863",
    "licenseEffectiveDate": "09/09/2025",
    "licenseExpirationDate": "09/08/2027",
    "dataDate": "10/18/2025",
    "capacity": 0,
    "address": "600 N MOUNTAIN AVE, SUITE D105",
    "city": "UPLAND",
    "zip": "91786",
    "county": "SAN BERNARDINO",
    "phone": "(909) 321-2255",
    "lat": 34.101045,
    "lng": -117.669087
  },
  {
    "id": "240001687",
    "name": "INDEPENDENT OPTIONS INC/THIRD AVENUE HOUSE",
    "npi": "1851463483",
    "hcaiId": null,
    "businessName": "INDEPENDENT OPTIONS, INC.",
    "contactEmail": null,
    "categoryName": "INTERMEDIATE CARE FACILITY-DD/H/N/CN/IID",
    "categoryCode": "ICFDDH",
    "licenseStatus": "ACTIVE",
    "inService": true,
    "licenseNumber": "240000732",
    "licenseEffectiveDate": "01/12/2025",
    "licenseExpirationDate": "01/11/2026",
    "dataDate": "10/18/2025",
    "capacity": 6,
    "address": "1289 N 3RD AVE",
    "city": "UPLAND",
    "zip": "91786",
    "county": "SAN BERNARDINO",
    "phone": "(951) 833-8876",
    "lat": 34.110468,
    "lng": -117.646587
  },
  {
    "id": "630013481",
    "name": "INLAND WELLNESS HEALTH CARE, INC.",
    "npi": "1821372202",
    "hcaiId": "406364453",
    "businessName": "INLAND WELLNESS HEALTH CARE, INC.",
    "contactEmail": "INLANDWELLNESSHEALTHCARE@YAHOO.COM",
    "categoryName": "HOME HEALTH AGENCY",
    "categoryCode": "HHA",
    "licenseStatus": "ACTIVE",
    "inService": true,
    "licenseNumber": "550002028",
    "licenseEffectiveDate": "10/10/2025",
    "licenseExpirationDate": "10/09/2026",
    "dataDate": "10/18/2025",
    "capacity": 0,
    "address": "869 E. FOOTHILL BLVD, SUITE I-B",
    "city": "UPLAND",
    "zip": "91786",
    "county": "SAN BERNARDINO",
    "phone": "(909) 579-0077",
    "lat": 34.10829,
    "lng": -117.639351
  },
  {
    "id": "630015630",
    "name": "IVY HOSPICE CARE, INC",
    "npi": null,
    "hcaiId": "406364526",
    "businessName": "IVY HOSPICE CARE, INC.",
    "contactEmail": "INFO@IVYHOSPICECARE.COM",
    "categoryName": "HOSPICE",
    "categoryCode": "HOSPICE",
    "licenseStatus": "ACTIVE",
    "inService": true,
    "licenseNumber": "550003016",
    "licenseEffectiveDate": "02/19/2025",
    "licenseExpirationDate": "02/18/2027",
    "dataDate": "10/18/2025",
    "capacity": 0,
    "address": "545 N MOUNTAIN AVE, SUITE 101",
    "city": "UPLAND",
    "zip": "91786",
    "county": "SAN BERNARDINO",
    "phone": "(909) 931-5090",
    "lat": 34.10062999,
    "lng": -117.672166
  },
  {
    "id": "240001853",
    "name": "JAMECO HOME HEALTH AGENCY, INC.",
    "npi": "1477558633",
    "hcaiId": "406364255",
    "businessName": "JAMECO HOME HEALTH AGENCY, INC.",
    "contactEmail": "INTAKE@JAMECOHHA.COM",
    "categoryName": "HOME HEALTH AGENCY",
    "categoryCode": "HHA",
    "licenseStatus": "ACTIVE",
    "inService": true,
    "licenseNumber": "240000830",
    "licenseEffectiveDate": "10/23/2025",
    "licenseExpirationDate": "10/22/2026",
    "dataDate": "10/18/2025",
    "capacity": 0,
    "address": "2377 W FOOTHILL BLVD, SUITE 16",
    "city": "UPLAND",
    "zip": "91786",
    "county": "SAN BERNARDINO",
    "phone": "(909) 447-4705",
    "lat": 34.10692061,
    "lng": -117.6975674
  },
  {
    "id": "630017299",
    "name": "JOURNEY HOSPICE CARE INC.",
    "npi": "1255862389",
    "hcaiId": "406361529",
    "businessName": "JOURNEY HOSPICE CARE INC.",
    "contactEmail": "SYLVIEBOAL@REDCUBEMGMT.COM",
    "categoryName": "HOSPICE",
    "categoryCode": "HOSPICE",
    "licenseStatus": "ACTIVE",
    "inService": true,
    "licenseNumber": "550004470",
    "licenseEffectiveDate": "12/03/2024",
    "licenseExpirationDate": "12/02/2026",
    "dataDate": "10/18/2025",
    "capacity": 0,
    "address": "600 N MOUNTAIN AVE, SUITE C203",
    "city": "UPLAND",
    "zip": "91786",
    "county": "SAN BERNARDINO",
    "phone": "(909) 252-7073",
    "lat": 34.101045,
    "lng": -117.669087
  },
  {
    "id": "630020032",
    "name": "LAUREL HOUSE ICF",
    "npi": null,
    "hcaiId": null,
    "businessName": "LAUREL HOUSE ICF",
    "contactEmail": "JHAYWOOD@GENUSHOMECARE.COM",
    "categoryName": "INTERMEDIATE CARE FACILITY-DD/H/N/CN/IID",
    "categoryCode": "ICFDDN",
    "licenseStatus": "ACTIVE",
    "inService": true,
    "licenseNumber": "550008284",
    "licenseEffectiveDate": "09/22/2025",
    "licenseExpirationDate": "09/21/2026",
    "dataDate": "10/18/2025",
    "capacity": 8,
    "address": "226 N LAUREL AVE",
    "city": "UPLAND",
    "zip": "91786",
    "county": "SAN BERNARDINO",
    "phone": "(951) 545-4467",
    "lat": 34.096689,
    "lng": -117.6523155
  },
  {
    "id": "630025281",
    "name": "LIFE CIRCLE HOME HEALTH CARE INC.",
    "npi": null,
    "hcaiId": "406367548",
    "businessName": "LIFE CIRCLE HOME HEALTH CARE INC.",
    "contactEmail": "LIFECIRCLEHOMEHEALTH@GMAIL.COM",
    "categoryName": "HOME HEALTH AGENCY",
    "categoryCode": "HHA",
    "licenseStatus": "ACTIVE",
    "inService": true,
    "licenseNumber": "550008738",
    "licenseEffectiveDate": "08/29/2025",
    "licenseExpirationDate": "08/28/2026",
    "dataDate": "10/18/2025",
    "capacity": 0,
    "address": "555 N BENSON AVE, UNIT E",
    "city": "UPLAND",
    "zip": "91786",
    "county": "SAN BERNARDINO",
    "phone": "(909) 694-6696",
    "lat": 34.100991,
    "lng": -117.681408
  },
  {
    "id": "240001394",
    "name": "LOMA SOLA DIVISION",
    "npi": "1164606380",
    "hcaiId": null,
    "businessName": "ABILITY PATHWAYS INCORPORATED",
    "contactEmail": "MRARN@AOL.COM",
    "categoryName": "INTERMEDIATE CARE FACILITY-DD/H/N/CN/IID",
    "categoryCode": "ICFDDN",
    "licenseStatus": "ACTIVE",
    "inService": true,
    "licenseNumber": "240000592",
    "licenseEffectiveDate": "06/01/2025",
    "licenseExpirationDate": "05/31/2026",
    "dataDate": "10/18/2025",
    "capacity": 6,
    "address": "1291 LOMA SOLA AVE",
    "city": "UPLAND",
    "zip": "91786",
    "county": "SAN BERNARDINO",
    "phone": "(909) 931-7534",
    "lat": 34.110495,
    "lng": -117.628272
  },
  {
    "id": "630027667",
    "name": "MAB HOME HEALTH",
    "npi": null,
    "hcaiId": null,
    "businessName": "MAB HOME HEALTH",
    "contactEmail": "MABHOMEHEALTH@GMAIL.COM",
    "categoryName": "HOME HEALTH AGENCY",
    "categoryCode": "HHA",
    "licenseStatus": "ACTIVE",
    "inService": true,
    "licenseNumber": "550009558",
    "licenseEffectiveDate": "06/13/2025",
    "licenseExpirationDate": "12/12/2025",
    "dataDate": "10/18/2025",
    "capacity": 0,
    "address": "869 E FOOTHILL BLVD, UNIT K, SUITE A",
    "city": "UPLAND",
    "zip": "91786",
    "county": "SAN BERNARDINO",
    "phone": "(909) 979-1086",
    "lat": 34.108304,
    "lng": -117.639364
  },
  {
    "id": "630021336",
    "name": "MATRIX CARE HOSPICE",
    "npi": "1316554512",
    "hcaiId": "406363676",
    "businessName": "CONNECTA HEALTHCARE SERVICES INC",
    "contactEmail": "INFO@MATRIXCAREHOSPICE.COM",
    "categoryName": "HOSPICE",
    "categoryCode": "HOSPICE",
    "licenseStatus": "ACTIVE",
    "inService": true,
    "licenseNumber": "550006921",
    "licenseEffectiveDate": "09/28/2025",
    "licenseExpirationDate": "09/27/2027",
    "dataDate": "10/18/2025",
    "capacity": 0,
    "address": "222 N MOUNTAIN AVE, SUITE 204",
    "city": "UPLAND",
    "zip": "91786",
    "county": "SAN BERNARDINO",
    "phone": "(909) 256-3700",
    "lat": 34.09652714,
    "lng": -117.6700331
  },
  {
    "id": "630012534",
    "name": "MEDPLUS HOSPICE SERVICES",
    "npi": "1841425170",
    "hcaiId": "406304524",
    "businessName": "MEDPLUS HOSPICE SERVICES",
    "contactEmail": "MEDPLUSHOSPICE@GMAIL.COM",
    "categoryName": "HOSPICE",
    "categoryCode": "HOSPICE",
    "licenseStatus": "ACTIVE",
    "inService": true,
    "licenseNumber": "550001361",
    "licenseEffectiveDate": "11/17/2024",
    "licenseExpirationDate": "11/16/2026",
    "dataDate": "10/18/2025",
    "capacity": 0,
    "address": "555 N BENSON AVE, UNIT D",
    "city": "UPLAND",
    "zip": "91786",
    "county": "SAN BERNARDINO",
    "phone": "(909) 946-2255",
    "lat": 34.100991,
    "lng": -117.681408
  },
  {
    "id": "240001937",
    "name": "MERIT SURGERY CENTER, INC.",
    "npi": "1114103587",
    "hcaiId": null,
    "businessName": null,
    "contactEmail": "HEIDARIALI@HOTMAIL.COM",
    "categoryName": "SURGICAL CLINIC",
    "categoryCode": "ASC",
    "licenseStatus": null,
    "inService": null,
    "licenseNumber": null,
    "licenseEffectiveDate": null,
    "licenseExpirationDate": null,
    "dataDate": "10/18/2025",
    "capacity": 0,
    "address": "843 E FOOTHILL BLVD",
    "city": "UPLAND",
    "zip": "91786",
    "county": "SAN BERNARDINO",
    "phone": "(909) 294-8885",
    "lat": 34.107507,
    "lng": -117.639558
  },
  {
    "id": "630016216",
    "name": "MONARCA HOSPICE",
    "npi": "1699214742",
    "hcaiId": "406360996",
    "businessName": "PMS MEDICAL SERVICES, INC.",
    "contactEmail": "MONARCAHOSPICE@GMAIL.COM",
    "categoryName": "HOSPICE",
    "categoryCode": "HOSPICE",
    "licenseStatus": "ACTIVE",
    "inService": true,
    "licenseNumber": "550003419",
    "licenseEffectiveDate": "02/17/2024",
    "licenseExpirationDate": "02/16/2026",
    "dataDate": "10/18/2025",
    "capacity": 0,
    "address": "545 N. MOUNTAIN AVENUE, SUITE 108",
    "city": "UPLAND",
    "zip": "91786",
    "county": "SAN BERNARDINO",
    "phone": "(909) 608-7093",
    "lat": 34.100676,
    "lng": -117.672138
  },
  {
    "id": "630011739",
    "name": "NOVA HOME HEALTH INC",
    "npi": "1881873123",
    "hcaiId": "406364380",
    "businessName": "NOVA HOME HEALTH, INC.",
    "contactEmail": "ECHAN1975@GMAIL.COM",
    "categoryName": "HOME HEALTH AGENCY",
    "categoryCode": "HHA",
    "licenseStatus": "ACTIVE",
    "inService": true,
    "licenseNumber": "550000807",
    "licenseEffectiveDate": "04/09/2025",
    "licenseExpirationDate": "04/08/2026",
    "dataDate": "10/18/2025",
    "capacity": 0,
    "address": "1551 W 13TH ST, SUITE 103",
    "city": "UPLAND",
    "zip": "91786",
    "county": "SAN BERNARDINO",
    "phone": "(626) 297-5280",
    "lat": 34.111449,
    "lng": -117.6797115
  },
  {
    "id": "630013116",
    "name": "NOVA HOME HOSPICE INC",
    "npi": "1447682430",
    "hcaiId": "406364437",
    "businessName": "NOVA HOME HOSPICE INC",
    "contactEmail": "NOVAHOMEHOSPICE@GMAIL.COM",
    "categoryName": "HOSPICE",
    "categoryCode": "HOSPICE",
    "licenseStatus": "ACTIVE",
    "inService": true,
    "licenseNumber": "550001679",
    "licenseEffectiveDate": "01/14/2024",
    "licenseExpirationDate": "01/13/2026",
    "dataDate": "10/18/2025",
    "capacity": 0,
    "address": "1551 W 13TH ST, SUITE 104",
    "city": "UPLAND",
    "zip": "91786",
    "county": "SAN BERNARDINO",
    "phone": "(909) 946-1213",
    "lat": 34.111449,
    "lng": -117.6797115
  },
  {
    "id": "630028048",
    "name": "ONE HEALTH CENTER",
    "npi": null,
    "hcaiId": null,
    "businessName": "ONE HEALTH CENTER, INC",
    "contactEmail": null,
    "categoryName": "PRIMARY CARE CLINIC",
    "categoryCode": "COMTYC",
    "licenseStatus": "ACTIVE",
    "inService": true,
    "licenseNumber": "550009912",
    "licenseEffectiveDate": "07/29/2025",
    "licenseExpirationDate": "01/28/2026",
    "dataDate": "10/18/2025",
    "capacity": 0,
    "address": "199 N 2ND AVE",
    "city": "UPLAND",
    "zip": "91786",
    "county": "SAN BERNARDINO",
    "phone": "(909) 294-3915",
    "lat": 34.095937,
    "lng": -117.64878
  },
  {
    "id": "240000417",
    "name": "PACIFIC EYE INSTITUTE",
    "npi": "1962422709",
    "hcaiId": "306364125",
    "businessName": null,
    "contactEmail": "DENISE@PACIFICEYECA.COM",
    "categoryName": "SURGICAL CLINIC",
    "categoryCode": "ASC/SURGC",
    "licenseStatus": "INACTIVE - CAPEN DECISION",
    "inService": false,
    "licenseNumber": "240000525",
    "licenseEffectiveDate": "11/04/2016",
    "licenseExpirationDate": "11/03/2017",
    "dataDate": "10/18/2025",
    "capacity": 0,
    "address": "555 N 13TH AVE",
    "city": "UPLAND",
    "zip": "91786",
    "county": "SAN BERNARDINO",
    "phone": "(909) 982-8846",
    "lat": 34.100379,
    "lng": -117.633843
  },
  {
    "id": "240000698",
    "name": "PLANNED PARENTHOOD-ORANGE/SAN BERNARDINO COUNTIES",
    "npi": null,
    "hcaiId": "306364037",
    "businessName": "PLANNED PARENTHOOD/ORANGE AND SAN BERNARDINO COUNTIES, INC.",
    "contactEmail": "SAMANTHA.ORTEGA@PPOSBC.ORG",
    "categoryName": "PRIMARY CARE CLINIC",
    "categoryCode": "COMTYC",
    "licenseStatus": "ACTIVE",
    "inService": true,
    "licenseNumber": "240000321",
    "licenseEffectiveDate": "04/30/2025",
    "licenseExpirationDate": "04/29/2026",
    "dataDate": "10/18/2025",
    "capacity": 0,
    "address": "918 W FOOTHILL BLVD, SUITE A",
    "city": "UPLAND",
    "zip": "91786",
    "county": "SAN BERNARDINO",
    "phone": "(909) 890-5511",
    "lat": 34.106328,
    "lng": -117.663777
  },
  {
    "id": "240001681",
    "name": "POLLOCK PHYSICAL THERAPY AND SPORTS CLINIC",
    "npi": null,
    "hcaiId": null,
    "businessName": null,
    "contactEmail": null,
    "categoryName": "REHABILITATION CLINIC",
    "categoryCode": "REHABC",
    "licenseStatus": null,
    "inService": null,
    "licenseNumber": null,
    "licenseEffectiveDate": null,
    "licenseExpirationDate": null,
    "dataDate": "10/18/2025",
    "capacity": 0,
    "address": "400 N MOUNTAIN AVE, SUITE 310B",
    "city": "UPLAND",
    "zip": "91786",
    "county": "SAN BERNARDINO",
    "phone": "(909) 381-3311",
    "lat": 34.098336,
    "lng": -117.668376
  },
  {
    "id": "630022402",
    "name": "PRIMERICARE HOSPICE LLC",
    "npi": "1134719867",
    "hcaiId": "406365167",
    "businessName": "PRIMERICARE HOSPICE LLC",
    "contactEmail": "ADMIN@PRIMERICAREHOSPICE.COM",
    "categoryName": "HOSPICE",
    "categoryCode": "HOSPICE",
    "licenseStatus": "ACTIVE",
    "inService": true,
    "licenseNumber": "550007583",
    "licenseEffectiveDate": "12/18/2023",
    "licenseExpirationDate": "12/17/2025",
    "dataDate": "10/18/2025",
    "capacity": 0,
    "address": "222 N MOUNTAIN AVE, SUITE 214-A",
    "city": "UPLAND",
    "zip": "91786",
    "county": "SAN BERNARDINO",
    "phone": "(909) 931-0858",
    "lat": 34.09652714,
    "lng": -117.6700331
  },
  {
    "id": "630020310",
    "name": "PRISTINE HOSPICE, INC.",
    "npi": null,
    "hcaiId": "406363233",
    "businessName": "PRISTINE HOSPICE, INC.",
    "contactEmail": "PRISTINEHOSPICINC@GMAIL.COM",
    "categoryName": "HOSPICE",
    "categoryCode": "HOSPICE",
    "licenseStatus": "ACTIVE",
    "inService": true,
    "licenseNumber": "550006237",
    "licenseEffectiveDate": "04/24/2023",
    "licenseExpirationDate": "04/23/2025",
    "dataDate": "10/18/2025",
    "capacity": 0,
    "address": "400 N MOUNTAIN AVE, SUITE 123B",
    "city": "UPLAND",
    "zip": "91786",
    "county": "SAN BERNARDINO",
    "phone": "(909) 297-1165",
    "lat": 34.098336,
    "lng": -117.668376
  },
  {
    "id": "630026953",
    "name": "PROFESSIONAL HELP HOME HEALTH",
    "npi": null,
    "hcaiId": null,
    "businessName": "PROFESSIONAL HELP HOME HEALTH",
    "contactEmail": "PROFESSIONALHELP.HH@GMAIL.COM",
    "categoryName": "HOME HEALTH AGENCY",
    "categoryCode": "HHA",
    "licenseStatus": "ACTIVE",
    "inService": true,
    "licenseNumber": "550009479",
    "licenseEffectiveDate": "09/27/2025",
    "licenseExpirationDate": "09/26/2026",
    "dataDate": "10/18/2025",
    "capacity": 0,
    "address": "869 E FOOTHILL BLVD, SUITE K UNIT B",
    "city": "UPLAND",
    "zip": "91786",
    "county": "SAN BERNARDINO",
    "phone": "(310) 363-0632",
    "lat": 34.10829,
    "lng": -117.639351
  },
  {
    "id": "630017152",
    "name": "PROVIDENCE HOSPICE INC.",
    "npi": "1225586951",
    "hcaiId": "406361596",
    "businessName": "PROVIDENCE HOSPICE INC.",
    "contactEmail": "PROVIDENCEHOSPICEINC@GMAIL.COM",
    "categoryName": "HOSPICE",
    "categoryCode": "HOSPICE",
    "licenseStatus": "ACTIVE",
    "inService": true,
    "licenseNumber": "550004477",
    "licenseEffectiveDate": "11/19/2024",
    "licenseExpirationDate": "11/18/2026",
    "dataDate": "10/18/2025",
    "capacity": 0,
    "address": "440 N MOUNTAIN AVE, SUITE 201G",
    "city": "UPLAND",
    "zip": "91786",
    "county": "SAN BERNARDINO",
    "phone": "(909) 326-6010",
    "lat": 34.098966,
    "lng": -117.668313
  },
  {
    "id": "630000041",
    "name": "QUALITY FIRST HOME HEALTH CARE",
    "npi": "1609064039",
    "hcaiId": "406364337",
    "businessName": "SAINT JOSEPH SUNDAY CORPORATION",
    "contactEmail": "QUALITYFIRSTHOMEHEALTHCARE@GMAIL.COM",
    "categoryName": "HOME HEALTH AGENCY",
    "categoryCode": "HHA",
    "licenseStatus": "ACTIVE",
    "inService": true,
    "licenseNumber": "550000449",
    "licenseEffectiveDate": "06/03/2025",
    "licenseExpirationDate": "06/02/2026",
    "dataDate": "10/18/2025",
    "capacity": 0,
    "address": "600 N MOUNTAIN AVE, SUITE B205",
    "city": "UPLAND",
    "zip": "91786",
    "county": "SAN BERNARDINO",
    "phone": "(909) 920-9360",
    "lat": 34.101045,
    "lng": -117.669087
  },
  {
    "id": "240001927",
    "name": "RC HOME HEALTHCARE, INC.",
    "npi": "1215079835",
    "hcaiId": "406364295",
    "businessName": "RC HOME HEALTHCARE, INC.",
    "contactEmail": "RCHOMEHEALTH@GMAIL.COM",
    "categoryName": "HOME HEALTH AGENCY",
    "categoryCode": "HHA",
    "licenseStatus": "ACTIVE",
    "inService": true,
    "licenseNumber": "240000874",
    "licenseEffectiveDate": "12/28/2024",
    "licenseExpirationDate": "12/27/2025",
    "dataDate": "10/18/2025",
    "capacity": 0,
    "address": "1934 W 9TH ST, UNIT A",
    "city": "UPLAND",
    "zip": "91786",
    "county": "SAN BERNARDINO",
    "phone": "(909) 373-1626",
    "lat": 34.095067,
    "lng": -117.688107
  },
  {
    "id": "630020984",
    "name": "RECONNECT HOSPICE, INC",
    "npi": "1407474679",
    "hcaiId": "406363337",
    "businessName": "RECONNECT HOSPICE, INC",
    "contactEmail": "RECONNECTHOSPICE@GMAIL.COM",
    "categoryName": "HOSPICE",
    "categoryCode": "HOSPICE",
    "licenseStatus": "ACTIVE",
    "inService": true,
    "licenseNumber": "550006958",
    "licenseEffectiveDate": "10/12/2023",
    "licenseExpirationDate": "10/11/2025",
    "dataDate": "10/18/2025",
    "capacity": 0,
    "address": "600 N MOUNTAIN AVE, SUITE B203",
    "city": "UPLAND",
    "zip": "91786",
    "county": "SAN BERNARDINO",
    "phone": "(818) 640-6497",
    "lat": 34.101045,
    "lng": -117.669087
  },
  {
    "id": "630012703",
    "name": "REMEDY HEALTH CARE SERVICES INC",
    "npi": "1134455868",
    "hcaiId": "406364427",
    "businessName": "REMEDY HEALTH CARE SERVICES, INC.",
    "contactEmail": "REMEDYHEALTHCARE1@GMAIL.COM",
    "categoryName": "HOME HEALTH AGENCY",
    "categoryCode": "HHA",
    "licenseStatus": "ACTIVE",
    "inService": true,
    "licenseNumber": "550001528",
    "licenseEffectiveDate": "03/17/2025",
    "licenseExpirationDate": "03/16/2026",
    "dataDate": "10/18/2025",
    "capacity": 0,
    "address": "818 N MOUNTAIN AVE, SUITE 118",
    "city": "UPLAND",
    "zip": "91786",
    "county": "SAN BERNARDINO",
    "phone": "(909) 736-0052",
    "lat": 34.104591,
    "lng": -117.668277
  },
  {
    "id": "240001777",
    "name": "SAN ANTONIO AMBULATORY SURGICAL CENTER INC",
    "npi": "1063422962",
    "hcaiId": "306364247",
    "businessName": "SAN ANTONIO AMBULATORY SURGICAL CENTER INC.",
    "contactEmail": "KAREN@SANANTONIOASC.COM",
    "categoryName": "SURGICAL CLINIC",
    "categoryCode": "ASC",
    "licenseStatus": "INACTIVE - CAPEN DECISION",
    "inService": false,
    "licenseNumber": "240000773",
    "licenseEffectiveDate": "11/21/2008",
    "licenseExpirationDate": "11/20/2009",
    "dataDate": "10/18/2025",
    "capacity": 0,
    "address": "901 SAN BERNARDINO ROAD #201",
    "city": "UPLAND",
    "zip": "91786",
    "county": "SAN BERNARDINO",
    "phone": "(909) 579-1500",
    "lat": 34.10013265,
    "lng": -117.6391287
  },
  {
    "id": "240000053",
    "name": "SAN ANTONIO REGIONAL HOSPITAL",
    "npi": "1780681189",
    "hcaiId": "106361318",
    "businessName": "SAN ANTONIO REGIONAL HOSPITAL INC.",
    "contactEmail": "GDHILLON@SARH.ORG",
    "categoryName": "GENERAL ACUTE CARE HOSPITAL",
    "categoryCode": "GACH",
    "licenseStatus": "ACTIVE",
    "inService": true,
    "licenseNumber": "240000196",
    "licenseEffectiveDate": "03/31/2025",
    "licenseExpirationDate": "03/30/2026",
    "dataDate": "10/18/2025",
    "capacity": 363,
    "address": "999 SAN BERNARDINO ROAD",
    "city": "UPLAND",
    "zip": "91786",
    "county": "SAN BERNARDINO",
    "phone": "(909) 985-4810",
    "lat": 34.102485,
    "lng": -117.638109
  },
  {
    "id": "630017622",
    "name": "SAN BERNARDINO HOME HEALTH, INC.",
    "npi": null,
    "hcaiId": "406361744",
    "businessName": "SAN BERNARDINO HOME HEALTH, INC.",
    "contactEmail": "ASGCORP@YAHOO.COM",
    "categoryName": "HOME HEALTH AGENCY",
    "categoryCode": "HHA",
    "licenseStatus": "ACTIVE",
    "inService": true,
    "licenseNumber": "550004738",
    "licenseEffectiveDate": "05/14/2025",
    "licenseExpirationDate": "05/13/2026",
    "dataDate": "10/18/2025",
    "capacity": 0,
    "address": "600 N MOUNTAIN AVE, UNIT C202",
    "city": "UPLAND",
    "zip": "91786",
    "county": "SAN BERNARDINO",
    "phone": "(310) 989-1941",
    "lat": 34.101045,
    "lng": -117.669087
  },
  {
    "id": "630012945",
    "name": "SENSICARE HOME HEALTH, INC.",
    "npi": "1154630556",
    "hcaiId": "406364419",
    "businessName": "SENSICARE HOME HEALTH, INC.",
    "contactEmail": "SENSICAREHOMEHEALTH@GMAIL.COM",
    "categoryName": "HOME HEALTH AGENCY",
    "categoryCode": "HHA",
    "licenseStatus": "ACTIVE",
    "inService": true,
    "licenseNumber": "550001534",
    "licenseEffectiveDate": "03/11/2025",
    "licenseExpirationDate": "03/10/2026",
    "dataDate": "10/18/2025",
    "capacity": 0,
    "address": "99 N SAN ANTONIO AVE, SUITE 140",
    "city": "UPLAND",
    "zip": "91786",
    "county": "SAN BERNARDINO",
    "phone": "(909) 949-8833",
    "lat": 34.095078,
    "lng": -117.6613425
  },
  {
    "id": "630019419",
    "name": "SILVEROAK HOSPICE AND PALLIATIVE CARE INC.",
    "npi": null,
    "hcaiId": "406363001",
    "businessName": "SILVEROAK HOSPICE AND PALLIATIVE CARE INC.",
    "contactEmail": "SILVEROAKHOSPICE@GMAIL.COM",
    "categoryName": "HOSPICE",
    "categoryCode": "HOSPICE",
    "licenseStatus": "ACTIVE",
    "inService": true,
    "licenseNumber": "550005892",
    "licenseEffectiveDate": "07/28/2025",
    "licenseExpirationDate": "11/02/2026",
    "dataDate": "10/18/2025",
    "capacity": 0,
    "address": "545 N MOUNTAIN AVE, SUITE 206",
    "city": "UPLAND",
    "zip": "91786",
    "county": "SAN BERNARDINO",
    "phone": "(909) 233-4120",
    "lat": 34.10077701,
    "lng": -117.671966
  },
  {
    "id": "630018950",
    "name": "ST GRACE HOSPICE HOUSE",
    "npi": "1598809634",
    "hcaiId": null,
    "businessName": "ST GRACE HOSPICE HOUSE, INC.",
    "contactEmail": "JHAYWOOD@GENUSHOMECARE.COM",
    "categoryName": "HOSPICE FACILITY",
    "categoryCode": "HOFA",
    "licenseStatus": "ACTIVE",
    "inService": true,
    "licenseNumber": "550006382",
    "licenseEffectiveDate": "05/13/2025",
    "licenseExpirationDate": "05/12/2026",
    "dataDate": "10/18/2025",
    "capacity": 6,
    "address": "1351 N 5TH AVE",
    "city": "UPLAND",
    "zip": "91786",
    "county": "SAN BERNARDINO",
    "phone": "(951) 545-4462",
    "lat": 34.112556,
    "lng": -117.644292
  },
  {
    "id": "630011325",
    "name": "ST. GRACE HOSPICE INC",
    "npi": null,
    "hcaiId": "406364352",
    "businessName": "ST. GRACE HOSPICE INC.",
    "contactEmail": "JHAYWOOD@STGRACEMANOR.ORG",
    "categoryName": "HOSPICE",
    "categoryCode": "HOSPICE",
    "licenseStatus": "ACTIVE",
    "inService": true,
    "licenseNumber": "550000548",
    "licenseEffectiveDate": "11/12/2023",
    "licenseExpirationDate": "11/11/2025",
    "dataDate": "10/18/2025",
    "capacity": 0,
    "address": "904 W 9TH ST",
    "city": "UPLAND",
    "zip": "91786",
    "county": "SAN BERNARDINO",
    "phone": "(909) 723-1175",
    "lat": 34.09597196,
    "lng": -117.6632283
  },
  {
    "id": "630020721",
    "name": "SUMMER BREEZE HEALTHCARE",
    "npi": "1649880964",
    "hcaiId": "406374761",
    "businessName": "SUMMER BREEZE HEALTHCARE",
    "contactEmail": "INFO@SUMMERBREEZEHEALTHCARE.COM",
    "categoryName": "HOSPICE",
    "categoryCode": "HOSPICE",
    "licenseStatus": "ACTIVE",
    "inService": true,
    "licenseNumber": "550007703",
    "licenseEffectiveDate": "10/23/2024",
    "licenseExpirationDate": "12/20/2025",
    "dataDate": "10/18/2025",
    "capacity": 0,
    "address": "820 N MOUNTAIN AVE, SUITE 110",
    "city": "UPLAND",
    "zip": "91786",
    "county": "SAN BERNARDINO",
    "phone": "(909) 541-5618",
    "lat": 34.10372999,
    "lng": -117.66845
  },
  {
    "id": "630020791",
    "name": "SUPERIOR HOME HEALTH CARE SERVICES, INC.",
    "npi": null,
    "hcaiId": null,
    "businessName": "SUPERIOR HEALTH CARE PROVIDERS, INC.",
    "contactEmail": "IJSAGUDA@SUPERIOR-HEALTHCARE.COM",
    "categoryName": "HOME HEALTH AGENCY",
    "categoryCode": "HHA",
    "licenseStatus": "ACTIVE",
    "inService": true,
    "licenseNumber": "550007439",
    "licenseEffectiveDate": "12/13/2024",
    "licenseExpirationDate": "12/12/2025",
    "dataDate": "10/18/2025",
    "capacity": 0,
    "address": "555 N BENSON AVE, SUITE B",
    "city": "UPLAND",
    "zip": "91786",
    "county": "SAN BERNARDINO",
    "phone": "(909) 946-1086",
    "lat": 34.100991,
    "lng": -117.681408
  },
  {
    "id": "630018612",
    "name": "SUPPORTIVE HOME HEALTH, INC.",
    "npi": null,
    "hcaiId": "406362974",
    "businessName": "SUPPORTIVE HOME HEALTH, INC.",
    "contactEmail": "SUPHOMEHEALTH@GMAIL.COM",
    "categoryName": "HOME HEALTH AGENCY",
    "categoryCode": "HHA",
    "licenseStatus": "ACTIVE",
    "inService": true,
    "licenseNumber": "550005844",
    "licenseEffectiveDate": "10/29/2024",
    "licenseExpirationDate": "10/28/2025",
    "dataDate": "10/18/2025",
    "capacity": 0,
    "address": "1202 MONTE VISTA AVE, SUITE 5",
    "city": "UPLAND",
    "zip": "91786",
    "county": "SAN BERNARDINO",
    "phone": "(844) 958-1585",
    "lat": 34.10834805,
    "lng": -117.6982526
  },
  {
    "id": "630013309",
    "name": "SUPPORTIVE HOSPICE CARE, INC.",
    "npi": "1518246719",
    "hcaiId": "406364501",
    "businessName": "A TO Z HOSPICE CARE, INC",
    "contactEmail": "LIORMATIAN@GMAIL.COM",
    "categoryName": "HOSPICE",
    "categoryCode": "HOSPICE",
    "licenseStatus": "ACTIVE",
    "inService": true,
    "licenseNumber": "550001743",
    "licenseEffectiveDate": "03/04/2025",
    "licenseExpirationDate": "03/03/2027",
    "dataDate": "10/18/2025",
    "capacity": 0,
    "address": "1202 MONTE VISTA AVE, SUITE 4",
    "city": "UPLAND",
    "zip": "91786",
    "county": "SAN BERNARDINO",
    "phone": "(909) 982-0847",
    "lat": 34.10834805,
    "lng": -117.6982526
  },
  {
    "id": "630015407",
    "name": "UNICARE HOSPICE PROVIDER INC",
    "npi": "1881001741",
    "hcaiId": "406365629",
    "businessName": "UNICARE HOSPICE PROVIDER, INC.",
    "contactEmail": "INFO@UNICAREHPI.COM",
    "categoryName": "HOSPICE",
    "categoryCode": "HOSPICE",
    "licenseStatus": "ACTIVE",
    "inService": true,
    "licenseNumber": "550003244",
    "licenseEffectiveDate": "09/23/2023",
    "licenseExpirationDate": "09/22/2025",
    "dataDate": "10/18/2025",
    "capacity": 0,
    "address": "870 N MOUNTAIN AVE, SUITE 208",
    "city": "UPLAND",
    "zip": "91786",
    "county": "SAN BERNARDINO",
    "phone": "(909) 285-1248",
    "lat": 34.10479746,
    "lng": -117.6701602
  },
  {
    "id": "630015947",
    "name": "UPLAND COLONIES DIALYSIS",
    "npi": null,
    "hcaiId": "306364592",
    "businessName": "DAWSON DIALYSIS, LLC",
    "contactEmail": "CAL_C@DAVITA.COM",
    "categoryName": "CHRONIC DIALYSIS CLINIC",
    "categoryCode": "ESRD/CDC",
    "licenseStatus": "ACTIVE",
    "inService": true,
    "licenseNumber": "550003254",
    "licenseEffectiveDate": "09/01/2025",
    "licenseExpirationDate": "08/31/2026",
    "dataDate": "10/18/2025",
    "capacity": 25,
    "address": "587 N MOUNTAIN AVE",
    "city": "UPLAND",
    "zip": "91786",
    "county": "SAN BERNARDINO",
    "phone": "(909) 931-4515",
    "lat": 34.10115432,
    "lng": -117.6702379
  },
  {
    "id": "240000170",
    "name": "UPLAND DIALYSIS",
    "npi": "1629043583",
    "hcaiId": "306360029",
    "businessName": "DVA HEALTHCARE RENAL CARE, INC.",
    "contactEmail": "CAL_C@DAVITA.COM",
    "categoryName": "CHRONIC DIALYSIS CLINIC",
    "categoryCode": "ESRD/CDC",
    "licenseStatus": "ACTIVE",
    "inService": true,
    "licenseNumber": "240000013",
    "licenseEffectiveDate": "11/21/2024",
    "licenseExpirationDate": "11/20/2025",
    "dataDate": "10/18/2025",
    "capacity": 24,
    "address": "600 N 13TH AVE",
    "city": "UPLAND",
    "zip": "91786",
    "county": "SAN BERNARDINO",
    "phone": "(909) 946-3802",
    "lat": 34.10118,
    "lng": -117.633258
  },
  {
    "id": "240000289",
    "name": "UPLAND REHABILITATION AND CARE CENTER",
    "npi": "1649351735",
    "hcaiId": "206361365",
    "businessName": "UPLAND COMMUNITY CARE, INC.",
    "contactEmail": "RENEWALS@ENSIGNSERVICES.NET",
    "categoryName": "SKILLED NURSING FACILITY",
    "categoryCode": "SNF",
    "licenseStatus": "ACTIVE",
    "inService": true,
    "licenseNumber": "240000215",
    "licenseEffectiveDate": "05/01/2025",
    "licenseExpirationDate": "04/30/2026",
    "dataDate": "10/18/2025",
    "capacity": 206,
    "address": "1221 E ARROW HWY",
    "city": "UPLAND",
    "zip": "91786",
    "county": "SAN BERNARDINO",
    "phone": "(909) 949-4975",
    "lat": 34.100505,
    "lng": -117.6350265
  },
  {
    "id": "630025749",
    "name": "UPLAND VASCULAR CENTER LLC",
    "npi": null,
    "hcaiId": null,
    "businessName": null,
    "contactEmail": null,
    "categoryName": "SURGICAL CLINIC",
    "categoryCode": "ASC",
    "licenseStatus": null,
    "inService": null,
    "licenseNumber": null,
    "licenseEffectiveDate": null,
    "licenseExpirationDate": null,
    "dataDate": "10/18/2025",
    "capacity": 0,
    "address": "1317 W FOOTHILL BLVD, SUITE 110",
    "city": "UPLAND",
    "zip": "91786",
    "county": "SAN BERNARDINO",
    "phone": null,
    "lat": 34.107507,
    "lng": -117.6735915
  },
  {
    "id": "240000145",
    "name": "VILLA MESA CARE CENTER",
    "npi": "1588770929",
    "hcaiId": "206361333",
    "businessName": "SELA HEALTHCARE, INC.",
    "contactEmail": "ADMINISTRATOR@SANANTONIOPA.COM",
    "categoryName": "SKILLED NURSING FACILITY",
    "categoryCode": "SNF",
    "licenseStatus": "ACTIVE",
    "inService": true,
    "licenseNumber": "240000203",
    "licenseEffectiveDate": "11/12/2024",
    "licenseExpirationDate": "11/11/2025",
    "dataDate": "10/18/2025",
    "capacity": 99,
    "address": "867 E 11TH ST",
    "city": "UPLAND",
    "zip": "91786",
    "county": "SAN BERNARDINO",
    "phone": "(909) 985-1981",
    "lat": 34.104447,
    "lng": -117.639468
  },
  {
    "id": "630017754",
    "name": "WETHERBY HOSPICE CARE, INC.",
    "npi": "1376060764",
    "hcaiId": "406362637",
    "businessName": "WETHERBY HOSPICE CARE, INC.",
    "contactEmail": "WETHERBYHOSPICEINC@GMAIL.COM",
    "categoryName": "HOSPICE",
    "categoryCode": "HOSPICE",
    "licenseStatus": "ACTIVE",
    "inService": true,
    "licenseNumber": "550004825",
    "licenseEffectiveDate": "04/02/2025",
    "licenseExpirationDate": "04/01/2027",
    "dataDate": "10/18/2025",
    "capacity": 0,
    "address": "167 N 3RD AVE SUITE E",
    "city": "UPLAND",
    "zip": "91786",
    "county": "SAN BERNARDINO",
    "phone": "(909) 999-6186",
    "lat": 34.0956,
    "lng": -117.6474825
  }
]