[
  {
    "id": "630013467",
    "name": "A & C HEALTHCARE, INC.",
    "npi": "1386911337",
    "hcaiId": "406197764",
    "businessName": "A&C HEALTHCARE, INC.",
    "contactEmail": "ACHOMEHEALTH@ACHEALTHCAREINC.ORG",
    "categoryName": "HOME HEALTH AGENCY",
    "categoryCode": "HHA",
    "licenseStatus": "ACTIVE",
    "inService": true,
    "licenseNumber": "550002034",
    "licenseEffectiveDate": "08/27/2025",
    "licenseExpirationDate": "08/26/2026",
    "dataDate": "10/18/2025",
    "capacity": 0,
    "address": "20465 VALLEY BLVD",
    "city": "WALNUT",
    "zip": "91789",
    "county": "LOS ANGELES",
    "phone": "(909) 598-3725",
    "lat": 34.0110357,
    "lng": -117.8571214
  },
  {
    "id": "630016572",
    "name": "A CARE HOME HEALTH, INC.",
    "npi": "1770953895",
    "hcaiId": "406191442",
    "businessName": "A CARE HOME HEALTH, INC.",
    "contactEmail": "CATHY.BERROYA@ACAREHOMEHEALTH.COM",
    "categoryName": "HOME HEALTH AGENCY",
    "categoryCode": "HHA",
    "licenseStatus": "ACTIVE",
    "inService": true,
    "licenseNumber": "550004395",
    "licenseEffectiveDate": "10/06/2025",
    "licenseExpirationDate": "10/05/2026",
    "dataDate": "10/18/2025",
    "capacity": 0,
    "address": "709 BREA CANYON RD, SUITE 3",
    "city": "WALNUT",
    "zip": "91789",
    "county": "LOS ANGELES",
    "phone": "(909) 274-7544",
    "lat": 34.00521644,
    "lng": -117.8465884
  },
  {
    "id": "630011038",
    "name": "ABLE HANDS HOME HEALTH CARE",
    "npi": "1780703785",
    "hcaiId": "406197139",
    "businessName": "ABLE HANDS, INC.",
    "contactEmail": "ABLEHANDSHOMEHEALTHCARE@GMAIL.COM",
    "categoryName": "HOME HEALTH AGENCY",
    "categoryCode": "HHA",
    "licenseStatus": "ACTIVE",
    "inService": true,
    "licenseNumber": "550000287",
    "licenseEffectiveDate": "10/22/2025",
    "licenseExpirationDate": "10/21/2026",
    "dataDate": "10/18/2025",
    "capacity": 0,
    "address": "18780 AMAR RD, SUITE 207",
    "city": "WALNUT",
    "zip": "91789",
    "county": "LOS ANGELES",
    "phone": "(626) 965-2233",
    "lat": 34.027731,
    "lng": -117.8923815
  },
  {
    "id": "630008121",
    "name": "ACCESS HOME HEALTH CARE, INC",
    "npi": "1609048917",
    "hcaiId": "406196826",
    "businessName": "ACCESS HOME HEALTH CARE, INC.",
    "contactEmail": "ACCESSHHCI@GMAIL.COM",
    "categoryName": "HOME HEALTH AGENCY",
    "categoryCode": "HHA",
    "licenseStatus": "ACTIVE",
    "inService": true,
    "licenseNumber": "550000280",
    "licenseEffectiveDate": "11/23/2025",
    "licenseExpirationDate": "11/22/2026",
    "dataDate": "10/18/2025",
    "capacity": 0,
    "address": "18780 AMAR RD, SUITE 201",
    "city": "WALNUT",
    "zip": "91789",
    "county": "LOS ANGELES",
    "phone": "(626) 965-2084",
    "lat": 34.027731,
    "lng": -117.8923815
  },
  {
    "id": "630018084",
    "name": "CALIFORNIA COMFORT CARE, LLC",
    "npi": null,
    "hcaiId": "406191962",
    "businessName": "CALIFORNIA COMFORT CARE, LLC",
    "contactEmail": "CALIFORNIACOMFORTCARE@GMAIL.COM",
    "categoryName": "HOSPICE",
    "categoryCode": "HOSPICE",
    "licenseStatus": "ACTIVE",
    "inService": true,
    "licenseNumber": "550005057",
    "licenseEffectiveDate": "11/08/2023",
    "licenseExpirationDate": "11/07/2025",
    "dataDate": "10/18/2025",
    "capacity": 0,
    "address": "18800 AMAR RD, SUITE B16",
    "city": "WALNUT",
    "zip": "91789",
    "county": "LOS ANGELES",
    "phone": "(626) 332-0311",
    "lat": 34.027956,
    "lng": -117.8907345
  },
  {
    "id": "060001914",
    "name": "CHRIST THE KING ADULT DAY HEALTH CARE CENTER",
    "npi": null,
    "hcaiId": null,
    "businessName": "FIVE ACES HEALTH CARE CORPORATION",
    "contactEmail": "CTKADHC@YAHOO.COM",
    "categoryName": "ADULT DAY HEALTH CARE",
    "categoryCode": "ADHC",
    "licenseStatus": "ACTIVE",
    "inService": true,
    "licenseNumber": "060000731",
    "licenseEffectiveDate": "11/05/2024",
    "licenseExpirationDate": "11/04/2025",
    "dataDate": "10/18/2025",
    "capacity": 0,
    "address": "18800 AMAR RD, SUITE D4-08",
    "city": "WALNUT",
    "zip": "91789",
    "county": "LOS ANGELES",
    "phone": "(626) 673-4601",
    "lat": 34.027956,
    "lng": -117.8907345
  },
  {
    "id": "630016236",
    "name": "ELYSIUM HOSPICE CARE, INC.",
    "npi": "1396113726",
    "hcaiId": "406192099",
    "businessName": "ELYSIUM HOSPICE CARE, INC.",
    "contactEmail": "CATHY.BERROYA@ELYSIUMHCI.COM",
    "categoryName": "HOSPICE",
    "categoryCode": "HOSPICE",
    "licenseStatus": "ACTIVE",
    "inService": true,
    "licenseNumber": "550003459",
    "licenseEffectiveDate": "01/07/2025",
    "licenseExpirationDate": "04/07/2026",
    "dataDate": "10/18/2025",
    "capacity": 0,
    "address": "18780 AMAR RD, SUITE 103",
    "city": "WALNUT",
    "zip": "91789",
    "county": "LOS ANGELES",
    "phone": "(909) 444-6647",
    "lat": 34.02774494,
    "lng": -117.8923772
  },
  {
    "id": "630014931",
    "name": "MONARCH HOSPICE CARE, INC.",
    "npi": "1205258126",
    "hcaiId": "406198464",
    "businessName": "MONARCH HOSPICE CARE, INC.",
    "contactEmail": "SAMANTHA@MONARCHHCARE.COM",
    "categoryName": "HOSPICE",
    "categoryCode": "HOSPICE",
    "licenseStatus": "ACTIVE",
    "inService": true,
    "licenseNumber": "550003200",
    "licenseEffectiveDate": "07/24/2025",
    "licenseExpirationDate": "07/23/2027",
    "dataDate": "10/18/2025",
    "capacity": 0,
    "address": "19608 CAMINO DE ROSA, SUITE 201",
    "city": "WALNUT",
    "zip": "91789",
    "county": "LOS ANGELES",
    "phone": "(909) 869-7871",
    "lat": 34.003494,
    "lng": -117.8732655
  },
  {
    "id": "980002345",
    "name": "MULTI-SKILLED HOME CARE SERVICES, INC.",
    "npi": "1609863547",
    "hcaiId": "406196743",
    "businessName": "MULTI-SKILLED HOME CARE SERVICES, INC.",
    "contactEmail": "MSHOMECARE07@GMAIL.COM",
    "categoryName": "HOME HEALTH AGENCY",
    "categoryCode": "HHA",
    "licenseStatus": "ACTIVE",
    "inService": true,
    "licenseNumber": "980001455",
    "licenseEffectiveDate": "10/02/2025",
    "licenseExpirationDate": "10/01/2026",
    "dataDate": "10/18/2025",
    "capacity": 0,
    "address": "19608 CAMINO DE ROSA",
    "city": "WALNUT",
    "zip": "91789",
    "county": "LOS ANGELES",
    "phone": "(909) 595-0200",
    "lat": 34.003494,
    "lng": -117.8732655
  },
  {
    "id": "980002274",
    "name": "PRECIOUS HOME HEALTH SERVICES INC.",
    "npi": "1215936166",
    "hcaiId": "406196308",
    "businessName": "PRECIOUS HOME HEALTH SERVICES INC.",
    "contactEmail": "EDDYG.PRECIOUSHH@GMAIL.COM",
    "categoryName": "HOME HEALTH AGENCY",
    "categoryCode": "HHA",
    "licenseStatus": "ACTIVE",
    "inService": true,
    "licenseNumber": "980001389",
    "licenseEffectiveDate": "12/09/2024",
    "licenseExpirationDate": "12/08/2025",
    "dataDate": "10/18/2025",
    "capacity": 0,
    "address": "18780 AMAR RD, SUITE 104",
    "city": "WALNUT",
    "zip": "91789",
    "county": "LOS ANGELES",
    "phone": "(626) 581-4174",
    "lat": 34.027731,
    "lng": -117.8923815
  },
  {
    "id": "060002260",
    "name": "SPRING ADULT DAY HEALTH CARE",
    "npi": null,
    "hcaiId": null,
    "businessName": "SPRING ADULT DAY HEATLH CARE, INC.",
    "contactEmail": "SPRINGADHC@GMAIL.COM",
    "categoryName": "ADULT DAY HEALTH CARE",
    "categoryCode": "ADHC",
    "licenseStatus": "ACTIVE",
    "inService": true,
    "licenseNumber": "060000934",
    "licenseEffectiveDate": "01/02/2025",
    "licenseExpirationDate": "11/23/2025",
    "dataDate": "10/18/2025",
    "capacity": 0,
    "address": "19648 CAMINO DE ROSA",
    "city": "WALNUT",
    "zip": "91789",
    "county": "LOS ANGELES",
    "phone": "(626) 965-7833",
    "lat": 34.003415,
    "lng": -117.872816
  },
  {
    "id": "630013876",
    "name": "ST. MARY'S HOSPICE, INC.",
    "npi": "1447517073",
    "hcaiId": "406198142",
    "businessName": "ST. MARY'S HOSPICE, INC.",
    "contactEmail": "PHILLIP@STMARYSHC.COM",
    "categoryName": "HOSPICE",
    "categoryCode": "HOSPICE",
    "licenseStatus": "ACTIVE",
    "inService": true,
    "licenseNumber": "550002390",
    "licenseEffectiveDate": "07/25/2024",
    "licenseExpirationDate": "08/18/2025",
    "dataDate": "10/18/2025",
    "capacity": 0,
    "address": "809 S LEMON AVE",
    "city": "DIAMOND BAR",
    "zip": "91789",
    "county": "LOS ANGELES",
    "phone": "(626) 858-6100",
    "lat": 34.00298,
    "lng": -117.8554202
  },
  {
    "id": "630011598",
    "name": "ST. PHILOMENA CARE HOMES - I",
    "npi": "1821275637",
    "hcaiId": null,
    "businessName": "HOLY FAMILY CHILDREN'S CARE, INC.",
    "contactEmail": "HOLYFAMILYINC@GMAIL.COM",
    "categoryName": "INTERMEDIATE CARE FACILITY-DD/H/N/CN/IID",
    "categoryCode": "ICFDDH",
    "licenseStatus": "ACTIVE",
    "inService": true,
    "licenseNumber": "550000750",
    "licenseEffectiveDate": "06/25/2025",
    "licenseExpirationDate": "06/24/2026",
    "dataDate": "10/18/2025",
    "capacity": 6,
    "address": "340 CALLE CABALLEROS",
    "city": "WALNUT",
    "zip": "91789",
    "county": "LOS ANGELES",
    "phone": "(909) 598-2200",
    "lat": 34.016184,
    "lng": -117.8747415
  }
]