[
  {
    "id": "630027633",
    "name": "HEALWISE CARE CENTER, UPLAND",
    "npi": null,
    "hcaiId": null,
    "businessName": "HEALWISE HEALTHCARE LLC",
    "contactEmail": "DAVID@HEALWISEHC.COM",
    "categoryName": "CONGREGATE LIVING HEALTH FACILITY",
    "categoryCode": "CLHF",
    "licenseStatus": "ACTIVE",
    "inService": true,
    "licenseNumber": "550009751",
    "licenseEffectiveDate": "10/01/2025",
    "licenseExpirationDate": "03/31/2026",
    "dataDate": "10/18/2025",
    "capacity": 6,
    "address": "1235 DOGWOOD ST",
    "city": "UPLAND",
    "zip": "91784",
    "county": "SAN BERNARDINO",
    "phone": "(626) 215-3583",
    "lat": 34.14558,
    "lng": -117.671371
  },
  {
    "id": "240001682",
    "name": "MESA TERRACE DIVISION",
    "npi": "1043348238",
    "hcaiId": null,
    "businessName": "ABILITY PATHWAYS INCORPORATED",
    "contactEmail": "MRARN@AOL.COM",
    "categoryName": "INTERMEDIATE CARE FACILITY-DD/H/N/CN/IID",
    "categoryCode": "ICFDDN",
    "licenseStatus": "ACTIVE",
    "inService": true,
    "licenseNumber": "240000729",
    "licenseEffectiveDate": "06/01/2025",
    "licenseExpirationDate": "05/31/2026",
    "dataDate": "10/18/2025",
    "capacity": 6,
    "address": "2489 MESA TERRACE",
    "city": "UPLAND",
    "zip": "91784",
    "county": "SAN BERNARDINO",
    "phone": "(909) 985-2144",
    "lat": 34.154685,
    "lng": -117.6688125
  },
  {
    "id": "240001673",
    "name": "SHEPHERD DIVISION",
    "npi": "1033247010",
    "hcaiId": null,
    "businessName": "ABILITY PATHWAYS INCORPORATED",
    "contactEmail": "MRARN@AOL.COM",
    "categoryName": "INTERMEDIATE CARE FACILITY-DD/H/N/CN/IID",
    "categoryCode": "ICFDDN",
    "licenseStatus": "ACTIVE",
    "inService": true,
    "licenseNumber": "240000723",
    "licenseEffectiveDate": "06/21/2025",
    "licenseExpirationDate": "06/20/2026",
    "dataDate": "10/18/2025",
    "capacity": 6,
    "address": "862 W 23RD ST",
    "city": "UPLAND",
    "zip": "91784",
    "county": "SAN BERNARDINO",
    "phone": "(909) 920-5954",
    "lat": 34.146648,
    "lng": -117.662526
  },
  {
    "id": "240001573",
    "name": "YORKTOWN DIVISION",
    "npi": "1912035312",
    "hcaiId": null,
    "businessName": "ABILITY PATHWAYS INCORPORATED",
    "contactEmail": "MRARN@AOL.COM",
    "categoryName": "INTERMEDIATE CARE FACILITY-DD/H/N/CN/IID",
    "categoryCode": "ICFDDN",
    "licenseStatus": "ACTIVE",
    "inService": true,
    "licenseNumber": "240000685",
    "licenseEffectiveDate": "06/01/2025",
    "licenseExpirationDate": "05/31/2026",
    "dataDate": "10/18/2025",
    "capacity": 6,
    "address": "315 YORKTOWN CT",
    "city": "UPLAND",
    "zip": "91784",
    "county": "SAN BERNARDINO",
    "phone": "(909) 949-8595",
    "lat": 34.129575,
    "lng": -117.64719
  }
]