[
  {
    "id": "980001442",
    "name": "ACCENTCARE HOME HEALTH OF CALIFORNIA, INC.",
    "npi": "1379729483",
    "hcaiId": "406194626",
    "businessName": "ACCENTCARE HOME HEALTH OF CALIFORNIA, INC.",
    "contactEmail": "STEPHANIEBAILEY@ACCENCARE.COM",
    "categoryName": "HOME HEALTH AGENCY",
    "categoryCode": "HHA",
    "licenseStatus": "ACTIVE",
    "inService": true,
    "licenseNumber": "980000845",
    "licenseEffectiveDate": "12/01/2024",
    "licenseExpirationDate": "11/30/2025",
    "dataDate": "10/18/2025",
    "capacity": 0,
    "address": "2934 E GARVEY AVE S, SUITE 210",
    "city": "WEST COVINA",
    "zip": "91791",
    "county": "LOS ANGELES",
    "phone": "(626) 966-2545",
    "lat": 34.071336,
    "lng": -117.884106
  },
  {
    "id": "630014650",
    "name": "ACCORD HOSPICE AND PALLIATIVE CARE, INC.",
    "npi": "1043642952",
    "hcaiId": "406198436",
    "businessName": "ACCORD HOSPICE AND PALLIATIVE CARE, INC.",
    "contactEmail": "ACCORDHPC@GMAIL.COM",
    "categoryName": "HOSPICE",
    "categoryCode": "HOSPICE",
    "licenseStatus": "ACTIVE",
    "inService": true,
    "licenseNumber": "550002966",
    "licenseEffectiveDate": "12/31/2024",
    "licenseExpirationDate": "12/30/2026",
    "dataDate": "10/18/2025",
    "capacity": 0,
    "address": "2934 E GARVEY AVE S, SUITE 212",
    "city": "WEST COVINA",
    "zip": "91791",
    "county": "LOS ANGELES",
    "phone": "(626) 339-3060",
    "lat": 34.071336,
    "lng": -117.884106
  },
  {
    "id": "630011515",
    "name": "ALLIANT HOME HEALTHCARE SERVICES",
    "npi": "1447438734",
    "hcaiId": "406197268",
    "businessName": "ALLIANT HEALTH SYSTEMS, INC.",
    "contactEmail": "ALLIANTSYSTEMS@YAHOO.COM",
    "categoryName": "HOME HEALTH AGENCY",
    "categoryCode": "HHA",
    "licenseStatus": "ACTIVE",
    "inService": true,
    "licenseNumber": "550001059",
    "licenseEffectiveDate": "03/20/2025",
    "licenseExpirationDate": "03/19/2026",
    "dataDate": "10/18/2025",
    "capacity": 0,
    "address": "2149 E GARVEY AVE N, SUITE A4",
    "city": "WEST COVINA",
    "zip": "91791",
    "county": "LOS ANGELES",
    "phone": "(626) 332-0600",
    "lat": 34.072911,
    "lng": -117.8995455
  },
  {
    "id": "980002191",
    "name": "AMERICAN EMPIRE HOME HEALTH CARE SERVICES, INC.",
    "npi": "1366486581",
    "hcaiId": "406196162",
    "businessName": "AMERICAN EMPIRE HOME HEALTH CARE SERVICES, INC.",
    "contactEmail": "AMERICAN_EMPIREHH@YAHOO.COM",
    "categoryName": "HOME HEALTH AGENCY",
    "categoryCode": "HHA",
    "licenseStatus": "ACTIVE",
    "inService": true,
    "licenseNumber": "980001315",
    "licenseEffectiveDate": "11/08/2024",
    "licenseExpirationDate": "11/07/2025",
    "dataDate": "10/18/2025",
    "capacity": 0,
    "address": "2934 E GARVEY AVE S, SUITE 214",
    "city": "WEST COVINA",
    "zip": "91791",
    "county": "LOS ANGELES",
    "phone": "(626) 732-6542",
    "lat": 34.071336,
    "lng": -117.884106
  },
  {
    "id": "630025936",
    "name": "AXXIS HOME HEALTH, INC",
    "npi": null,
    "hcaiId": null,
    "businessName": "AXXIS HOME HEALTH, INC",
    "contactEmail": "AXXISHHINC@GMAIL.COM",
    "categoryName": "HOME HEALTH AGENCY",
    "categoryCode": "HHA",
    "licenseStatus": "ACTIVE",
    "inService": true,
    "licenseNumber": "550009418",
    "licenseEffectiveDate": "04/03/2025",
    "licenseExpirationDate": "10/02/2025",
    "dataDate": "10/18/2025",
    "capacity": 0,
    "address": "100 N BARRANCA ST, SUITE 820-I",
    "city": "WEST COVINA",
    "zip": "91791",
    "county": "LOS ANGELES",
    "phone": "(909) 297-1173",
    "lat": 34.073109,
    "lng": -117.8807265
  },
  {
    "id": "630019555",
    "name": "BRIDGEWAY HOSPICE INC",
    "npi": "1124581798",
    "hcaiId": "406362973",
    "businessName": "BRIDGEWAY HOSPICE INC",
    "contactEmail": "BRIDGEWAYHOSPICEINC@GMAIL.COM",
    "categoryName": "HOSPICE",
    "categoryCode": "HOSPICE",
    "licenseStatus": "ACTIVE",
    "inService": true,
    "licenseNumber": "550005843",
    "licenseEffectiveDate": "09/12/2024",
    "licenseExpirationDate": "09/11/2026",
    "dataDate": "10/18/2025",
    "capacity": 0,
    "address": "100 N BARRANCA ST, SUITE 470",
    "city": "WEST COVINA",
    "zip": "91791",
    "county": "LOS ANGELES",
    "phone": "(909) 297-5406",
    "lat": 34.073109,
    "lng": -117.8807265
  },
  {
    "id": "980002242",
    "name": "CALIFORNIA HOSPICE AND NURSING SERVICES",
    "npi": null,
    "hcaiId": "406196279",
    "businessName": "CALIFORNIA HOSPICE AND NURSING SERVICES, INC.",
    "contactEmail": "CALIHOSPICE2024@GMAIL.COM",
    "categoryName": "HOSPICE",
    "categoryCode": "HOSPICE",
    "licenseStatus": "ACTIVE",
    "inService": true,
    "licenseNumber": "980001360",
    "licenseEffectiveDate": "06/08/2025",
    "licenseExpirationDate": "06/07/2027",
    "dataDate": "10/18/2025",
    "capacity": 0,
    "address": "3218 E HOLT AVE, SUITE 203",
    "city": "WEST COVINA",
    "zip": "91791",
    "county": "LOS ANGELES",
    "phone": "(323) 594-8060",
    "lat": 34.071399,
    "lng": -117.8765235
  },
  {
    "id": "630025417",
    "name": "CHAMPION CARE HOME HEALTH, INC.",
    "npi": null,
    "hcaiId": "406196891",
    "businessName": "CHAMPION CARE HOME HEALTH, INC.",
    "contactEmail": "CHAMPIONCAREHH@GMAIL.COM",
    "categoryName": "HOME HEALTH AGENCY",
    "categoryCode": "HHA",
    "licenseStatus": "ACTIVE",
    "inService": true,
    "licenseNumber": "550008642",
    "licenseEffectiveDate": "07/05/2025",
    "licenseExpirationDate": "07/04/2026",
    "dataDate": "10/18/2025",
    "capacity": 0,
    "address": "855 N LARK ELLEN AVE, SUITE B1",
    "city": "WEST COVINA",
    "zip": "91791",
    "county": "LOS ANGELES",
    "phone": "(626) 268-1522",
    "lat": 34.087671,
    "lng": -117.91701
  },
  {
    "id": "630025391",
    "name": "CONNECTED HOME HEALTH, INC.",
    "npi": null,
    "hcaiId": "406190066",
    "businessName": "CONNECTED HOME HEALTH, INC.",
    "contactEmail": "4CONNECTEDHOMEHEALTH@GMAIL.COM",
    "categoryName": "HOME HEALTH AGENCY",
    "categoryCode": "HHA",
    "licenseStatus": "ACTIVE",
    "inService": true,
    "licenseNumber": "550008651",
    "licenseEffectiveDate": "07/05/2025",
    "licenseExpirationDate": "07/04/2026",
    "dataDate": "10/18/2025",
    "capacity": 0,
    "address": "855 N LARK ELLEN AVE, SUITE B3",
    "city": "WEST COVINA",
    "zip": "91791",
    "county": "LOS ANGELES",
    "phone": "(818) 232-5760",
    "lat": 34.087671,
    "lng": -117.91701
  },
  {
    "id": "980002128",
    "name": "DSP HOME HEALTH, INC.",
    "npi": "1275679946",
    "hcaiId": "406196048",
    "businessName": "DSP HOME HEALTH, INC.",
    "contactEmail": "DSPHOMEHEALTH@YAHOO.COM",
    "categoryName": "HOME HEALTH AGENCY",
    "categoryCode": "HHA",
    "licenseStatus": "ACTIVE",
    "inService": true,
    "licenseNumber": "980001271",
    "licenseEffectiveDate": "03/14/2025",
    "licenseExpirationDate": "03/13/2026",
    "dataDate": "10/18/2025",
    "capacity": 0,
    "address": "1815 E WORKMAN AVE, SUITE D",
    "city": "WEST COVINA",
    "zip": "91791",
    "county": "LOS ANGELES",
    "phone": "(626) 331-2265",
    "lat": 34.075782,
    "lng": -117.906759
  },
  {
    "id": "630025441",
    "name": "HUMMINGBIRD HOME HEALTH, INC.",
    "npi": null,
    "hcaiId": "406190053",
    "businessName": "HUMMINGBIRD HOME HEALTH, INC.",
    "contactEmail": "4HUMMINGBIRDHH@GMAIL.COM",
    "categoryName": "HOME HEALTH AGENCY",
    "categoryCode": "HHA",
    "licenseStatus": "ACTIVE",
    "inService": true,
    "licenseNumber": "550008631",
    "licenseEffectiveDate": "07/05/2025",
    "licenseExpirationDate": "07/04/2026",
    "dataDate": "10/18/2025",
    "capacity": 0,
    "address": "855 N LARK ELLEN AVE, SUITE O",
    "city": "WEST COVINA",
    "zip": "91791",
    "county": "LOS ANGELES",
    "phone": "(818) 514-5125",
    "lat": 34.087671,
    "lng": -117.91701
  },
  {
    "id": "630025487",
    "name": "HYACINTH HOME HEALTH, INC.",
    "npi": null,
    "hcaiId": "406190063",
    "businessName": "HYACINTH HOME HEALTH, INC.",
    "contactEmail": "HYACINTHHHI@GMAIL.COM",
    "categoryName": "HOME HEALTH AGENCY",
    "categoryCode": "HHA",
    "licenseStatus": "ACTIVE",
    "inService": true,
    "licenseNumber": "550008640",
    "licenseEffectiveDate": "07/10/2025",
    "licenseExpirationDate": "07/09/2026",
    "dataDate": "10/18/2025",
    "capacity": 0,
    "address": "855 N LARK ELLEN AVE, SUITE S",
    "city": "WEST COVINA",
    "zip": "91791",
    "county": "LOS ANGELES",
    "phone": "(800) 416-9329",
    "lat": 34.087671,
    "lng": -117.91701
  },
  {
    "id": "630025646",
    "name": "KAMI HOME HEALTH, INC.",
    "npi": null,
    "hcaiId": null,
    "businessName": "KAMI HOME HEALTH, INC.",
    "contactEmail": "KAMIHOMEHEALTH@GMAIL.COM",
    "categoryName": "HOME HEALTH AGENCY",
    "categoryCode": "HHA",
    "licenseStatus": "ACTIVE",
    "inService": true,
    "licenseNumber": "550009415",
    "licenseEffectiveDate": "09/30/2025",
    "licenseExpirationDate": "09/29/2026",
    "dataDate": "10/18/2025",
    "capacity": 0,
    "address": "855 N LARK ELLEN AVE, SUITE Q",
    "city": "WEST COVINA",
    "zip": "91791",
    "county": "LOS ANGELES",
    "phone": "(626) 479-1470",
    "lat": 34.087671,
    "lng": -117.91701
  },
  {
    "id": "930000042",
    "name": "KINDRED HOSPITAL - SAN GABRIEL VALLEY",
    "npi": null,
    "hcaiId": "106190458",
    "businessName": "THC - ORANGE COUNTY, LLC",
    "contactEmail": "NORMAN.ANDREWS@KINDREDHEALTHCARE.COM",
    "categoryName": "GENERAL ACUTE CARE HOSPITAL",
    "categoryCode": "GACH",
    "licenseStatus": "ACTIVE",
    "inService": true,
    "licenseNumber": "060000407",
    "licenseEffectiveDate": "09/01/2025",
    "licenseExpirationDate": "03/02/2026",
    "dataDate": "10/18/2025",
    "capacity": 76,
    "address": "845 N LARK ELLEN AVE",
    "city": "WEST COVINA",
    "zip": "91791",
    "county": "LOS ANGELES",
    "phone": "(626) 339-5451",
    "lat": 34.087068,
    "lng": -117.917244
  },
  {
    "id": "060002040",
    "name": "MIKKON ADHCC",
    "npi": null,
    "hcaiId": null,
    "businessName": "MIKKON CORP.",
    "contactEmail": "MIKKONADHC0801@GMAIL.COM",
    "categoryName": "ADULT DAY HEALTH CARE",
    "categoryCode": "ADHC",
    "licenseStatus": "ACTIVE",
    "inService": true,
    "licenseNumber": "060000823",
    "licenseEffectiveDate": "11/14/2025",
    "licenseExpirationDate": "11/13/2026",
    "dataDate": "10/18/2025",
    "capacity": 0,
    "address": "2211-2213 E. GARVEY AVE. N, #A1-A2VE",
    "city": "WEST COVINA",
    "zip": "91791",
    "county": "LOS ANGELES",
    "phone": "(626) 967-0812",
    "lat": 34.073055,
    "lng": -117.89703
  },
  {
    "id": "630025277",
    "name": "NEW GENERATION HEALTHCARE, INC.",
    "npi": null,
    "hcaiId": null,
    "businessName": "NEW GENERATION HEALTHCARE, INC.",
    "contactEmail": "4NEWGENERATIONHEALTHCAREINC@GMAIL.COM",
    "categoryName": "HOME HEALTH AGENCY",
    "categoryCode": "HHA",
    "licenseStatus": "ACTIVE",
    "inService": true,
    "licenseNumber": "550008636",
    "licenseEffectiveDate": "07/05/2025",
    "licenseExpirationDate": "07/04/2026",
    "dataDate": "10/18/2025",
    "capacity": 0,
    "address": "855 N LARK ELLEN AVE, SUITE B2",
    "city": "WEST COVINA",
    "zip": "91791",
    "county": "LOS ANGELES",
    "phone": "(626) 268-1377",
    "lat": 34.087671,
    "lng": -117.91701
  },
  {
    "id": "630024426",
    "name": "OASIS CONGREGATE LIVING, LLC",
    "npi": null,
    "hcaiId": "206190025",
    "businessName": "OASIS CONGREGATE LIVING, LLC",
    "contactEmail": "OASISCONGREGATELIVING@GMAIL.COM",
    "categoryName": "CONGREGATE LIVING HEALTH FACILITY",
    "categoryCode": "CLHF",
    "licenseStatus": "ACTIVE",
    "inService": true,
    "licenseNumber": "550008355",
    "licenseEffectiveDate": "03/18/2025",
    "licenseExpirationDate": "01/26/2026",
    "dataDate": "10/18/2025",
    "capacity": 12,
    "address": "1816 E MERCED AVE",
    "city": "WEST COVINA",
    "zip": "91791",
    "county": "LOS ANGELES",
    "phone": "(909) 525-6757",
    "lat": 34.053444,
    "lng": -117.907155
  },
  {
    "id": "980002278",
    "name": "PROFESSIONAL HOME HEALTH SERVICES, INC.",
    "npi": "1073605366",
    "hcaiId": "406196323",
    "businessName": "PROFESSIONAL HOME HEALTH SERVICES, INC.",
    "contactEmail": "PHHSI2@YAHOO.COM",
    "categoryName": "HOME HEALTH AGENCY",
    "categoryCode": "HHA",
    "licenseStatus": "ACTIVE",
    "inService": true,
    "licenseNumber": "980001393",
    "licenseEffectiveDate": "06/28/2025",
    "licenseExpirationDate": "06/27/2026",
    "dataDate": "10/18/2025",
    "capacity": 0,
    "address": "2155 E GARVEY AVE N, SUITE B-12",
    "city": "WEST COVINA",
    "zip": "91791",
    "county": "LOS ANGELES",
    "phone": "(626) 732-4541",
    "lat": 34.07266241,
    "lng": -117.8996673
  },
  {
    "id": "980001865",
    "name": "QUALITY CARE HOME HEALTH SPECIALISTS, INC.",
    "npi": "1821070269",
    "hcaiId": "406196571",
    "businessName": "QUALITY CARE HOME HEALTH SPECIALIST, INC.",
    "contactEmail": "QCHHSI127@YAHOO.COM",
    "categoryName": "HOME HEALTH AGENCY",
    "categoryCode": "HHA",
    "licenseStatus": "ACTIVE",
    "inService": true,
    "licenseNumber": "980001107",
    "licenseEffectiveDate": "02/19/2025",
    "licenseExpirationDate": "02/18/2026",
    "dataDate": "10/18/2025",
    "capacity": 0,
    "address": "1414 S AZUSA AVE, UNIT B-26",
    "city": "WEST COVINA",
    "zip": "91791",
    "county": "LOS ANGELES",
    "phone": "(626) 917-6068",
    "lat": 34.048377,
    "lng": -117.906327
  },
  {
    "id": "630014062",
    "name": "QUALITY CARE HOSPICE, INC.",
    "npi": null,
    "hcaiId": "406198262",
    "businessName": "QUALITY CARE HOSPICE, INC.",
    "contactEmail": "QCHOSPICE127@GMAIL.COM",
    "categoryName": "HOSPICE",
    "categoryCode": "HOSPICE",
    "licenseStatus": "ACTIVE",
    "inService": true,
    "licenseNumber": "550002560",
    "licenseEffectiveDate": "12/27/2023",
    "licenseExpirationDate": "12/26/2025",
    "dataDate": "10/18/2025",
    "capacity": 0,
    "address": "1414 S AZUSA AVE, SUITE B-25",
    "city": "WEST COVINA",
    "zip": "91791",
    "county": "LOS ANGELES",
    "phone": "(626) 918-8845",
    "lat": 34.048377,
    "lng": -117.906327
  },
  {
    "id": "630015583",
    "name": "SECOND WIND HOME HEALTH INC",
    "npi": null,
    "hcaiId": "406198446",
    "businessName": "SECOND WIND HOME HEALTH INC",
    "contactEmail": "SECONDWINDHH@GMAIL.COM",
    "categoryName": "HOME HEALTH AGENCY",
    "categoryCode": "HHA",
    "licenseStatus": "ACTIVE",
    "inService": true,
    "licenseNumber": "550003698",
    "licenseEffectiveDate": "04/07/2025",
    "licenseExpirationDate": "10/27/2025",
    "dataDate": "10/18/2025",
    "capacity": 0,
    "address": "100 N BARRANCA ST, SUITE 910",
    "city": "WEST COVINA",
    "zip": "91791",
    "county": "LOS ANGELES",
    "phone": "(626) 872-0262",
    "lat": 34.07302012,
    "lng": -117.8807163
  },
  {
    "id": "630027360",
    "name": "SORA HOME HEALTH INC.",
    "npi": null,
    "hcaiId": null,
    "businessName": "SORA HOME HEALTH, INC",
    "contactEmail": "SORAHOMEHEALTH@GMAIL.COM",
    "categoryName": "HOME HEALTH AGENCY",
    "categoryCode": "HHA",
    "licenseStatus": "ACTIVE",
    "inService": true,
    "licenseNumber": "550009223",
    "licenseEffectiveDate": "05/31/2025",
    "licenseExpirationDate": "05/30/2026",
    "dataDate": "10/18/2025",
    "capacity": 0,
    "address": "855 N LARK ELLEN AVE, SUITE G",
    "city": "WEST COVINA",
    "zip": "91791",
    "county": "LOS ANGELES",
    "phone": "(626) 479-1480",
    "lat": 34.08770702,
    "lng": -117.917
  },
  {
    "id": "630013658",
    "name": "TRANQUIL OAKS HOSPICE CARE",
    "npi": "1518237619",
    "hcaiId": "406197807",
    "businessName": "ETERNAL HOSPICE CARE INC.",
    "contactEmail": "INFO@TRANQUILOAKSHOSPICE.COM",
    "categoryName": "HOSPICE",
    "categoryCode": "HOSPICE",
    "licenseStatus": "ACTIVE",
    "inService": true,
    "licenseNumber": "550002220",
    "licenseEffectiveDate": "02/27/2025",
    "licenseExpirationDate": "02/26/2027",
    "dataDate": "10/18/2025",
    "capacity": 0,
    "address": "2155 E GARVEY AVE N, SUITE B-10",
    "city": "WEST COVINA",
    "zip": "91791",
    "county": "LOS ANGELES",
    "phone": "(626) 727-6314",
    "lat": 34.07266241,
    "lng": -117.8996673
  },
  {
    "id": "630016035",
    "name": "VITAL HOSPICE CARE INC.",
    "npi": "1720466204",
    "hcaiId": "406191009",
    "businessName": "VITAL HOSPICE CARE INC.",
    "contactEmail": "VITALHOSPICE@GMAIL.COM",
    "categoryName": "HOSPICE",
    "categoryCode": "HOSPICE",
    "licenseStatus": "ACTIVE",
    "inService": true,
    "licenseNumber": "550003582",
    "licenseEffectiveDate": "06/17/2022",
    "licenseExpirationDate": "06/16/2024",
    "dataDate": "10/18/2025",
    "capacity": 0,
    "address": "3218 E HOLT AVE, SUITE 201",
    "city": "WEST COVINA",
    "zip": "91791",
    "county": "LOS ANGELES",
    "phone": "(818) 423-2230",
    "lat": 34.071399,
    "lng": -117.8765235
  }
]