[
  {
    "id": "630021247",
    "name": "ADMIRABLE HOME HEALTH SERVICES, INC.",
    "npi": null,
    "hcaiId": "406195877",
    "businessName": "ADMIRABLE HOME HEALTH SERVICES, INC.",
    "contactEmail": "ADMIRABLEHOMEHEALTH@GMAIL.COM",
    "categoryName": "HOME HEALTH AGENCY",
    "categoryCode": "HHA",
    "licenseStatus": "ACTIVE",
    "inService": true,
    "licenseNumber": "550008045",
    "licenseEffectiveDate": "06/11/2025",
    "licenseExpirationDate": "06/10/2026",
    "dataDate": "10/18/2025",
    "capacity": 0,
    "address": "1535 W MERCED AVE, SUITE 304",
    "city": "WEST COVINA",
    "zip": "91790",
    "county": "LOS ANGELES",
    "phone": "(626) 829-1818",
    "lat": 34.063398,
    "lng": -117.9477855
  },
  {
    "id": "630026865",
    "name": "ALISAL CARE HOME",
    "npi": "1336696046",
    "hcaiId": null,
    "businessName": "MJ ASSET SERVICES LLC",
    "contactEmail": "ALISALCAREHOME@GMAIL.COM",
    "categoryName": "INTERMEDIATE CARE FACILITY-DD/H/N/CN/IID",
    "categoryCode": "ICFDDH",
    "licenseStatus": "ACTIVE",
    "inService": true,
    "licenseNumber": "550009424",
    "licenseEffectiveDate": "09/12/2025",
    "licenseExpirationDate": "09/11/2026",
    "dataDate": "10/18/2025",
    "capacity": 6,
    "address": "1716 W ALISAL ST",
    "city": "WEST COVINA",
    "zip": "91790",
    "county": "LOS ANGELES",
    "phone": "(626) 715-5653",
    "lat": 34.083585,
    "lng": -117.941508
  },
  {
    "id": "630013412",
    "name": "ALTAMED MEDICAL & DENTAL GROUP - WEST COVINA",
    "npi": "1730481318",
    "hcaiId": "306197629",
    "businessName": "ALTAMED HEALTH SERVICES CORPORATION",
    "contactEmail": "TAJACKSON@ALTAMED.ORG",
    "categoryName": "PRIMARY CARE CLINIC",
    "categoryCode": "COMTYC",
    "licenseStatus": "ACTIVE",
    "inService": true,
    "licenseNumber": "550001795",
    "licenseEffectiveDate": "12/14/2024",
    "licenseExpirationDate": "12/13/2025",
    "dataDate": "10/18/2025",
    "capacity": 0,
    "address": "1300 S SUNSET AVE",
    "city": "WEST COVINA",
    "zip": "91790",
    "county": "LOS ANGELES",
    "phone": "(626) 214-7404",
    "lat": 34.059753,
    "lng": -117.946926
  },
  {
    "id": "630013352",
    "name": "AVEANNA HEALTHCARE",
    "npi": "1104058122",
    "hcaiId": "406197748",
    "businessName": "PREMIER HEALTHCARE SERVICES, LLC",
    "contactEmail": "CREDENTIALING@AVEANNA.COM",
    "categoryName": "HOME HEALTH AGENCY",
    "categoryCode": "HHA",
    "licenseStatus": "ACTIVE",
    "inService": true,
    "licenseNumber": "550002065",
    "licenseEffectiveDate": "09/26/2025",
    "licenseExpirationDate": "09/25/2026",
    "dataDate": "10/18/2025",
    "capacity": 0,
    "address": "1730 W CAMERON AVE, SUITE 120",
    "city": "WEST COVINA",
    "zip": "91790",
    "county": "LOS ANGELES",
    "phone": "(626) 337-3444",
    "lat": 34.069743,
    "lng": -117.9447255
  },
  {
    "id": "950000054",
    "name": "BEACON HEALTHCARE CENTER",
    "npi": "1245897446",
    "hcaiId": "206190189",
    "businessName": "WEST COVINA CARE, INC.",
    "contactEmail": "LLEWIS@BEACONHEALTHCARECENTER.COM",
    "categoryName": "SKILLED NURSING FACILITY",
    "categoryCode": "SNF",
    "licenseStatus": "ACTIVE",
    "inService": true,
    "licenseNumber": "950000025",
    "licenseEffectiveDate": "05/20/2025",
    "licenseExpirationDate": "05/19/2026",
    "dataDate": "10/18/2025",
    "capacity": 54,
    "address": "919 N SUNSET AVE",
    "city": "WEST COVINA",
    "zip": "91790",
    "county": "LOS ANGELES",
    "phone": "(626) 962-4489",
    "lat": 34.087581,
    "lng": -117.93474
  },
  {
    "id": "980000955",
    "name": "BETTER HEALTH HOME CARE",
    "npi": "1194762179",
    "hcaiId": "406196722",
    "businessName": "BETTER HEALTH HOME CARE INC.",
    "contactEmail": "BHHC85@AOL.COM",
    "categoryName": "HOME HEALTH AGENCY",
    "categoryCode": "HHA",
    "licenseStatus": "ACTIVE",
    "inService": true,
    "licenseNumber": "980000473",
    "licenseEffectiveDate": "12/29/2024",
    "licenseExpirationDate": "12/28/2025",
    "dataDate": "10/18/2025",
    "capacity": 0,
    "address": "1535 W. MERCED AVENUE, SUITE 204",
    "city": "WEST COVINA",
    "zip": "91790",
    "county": "LOS ANGELES",
    "phone": "(626) 581-3182",
    "lat": 34.0634062,
    "lng": -117.9500172
  },
  {
    "id": "630015955",
    "name": "BLUE SPIRIT HOSPICE INC",
    "npi": "1649688821",
    "hcaiId": "406198513",
    "businessName": "BLUE SPIRIT HOSPICE, INC.",
    "contactEmail": "BLUESPIRITHOSPICE@GMAIL.COM",
    "categoryName": "HOSPICE",
    "categoryCode": "HOSPICE",
    "licenseStatus": "ACTIVE",
    "inService": true,
    "licenseNumber": "550003975",
    "licenseEffectiveDate": "10/09/2023",
    "licenseExpirationDate": "10/08/2025",
    "dataDate": "10/18/2025",
    "capacity": 0,
    "address": "1433 W MERCED AVE, UNIT 220",
    "city": "WEST COVINA",
    "zip": "91790",
    "county": "LOS ANGELES",
    "phone": "(626) 430-6802",
    "lat": 34.062543,
    "lng": -117.946926
  },
  {
    "id": "630017892",
    "name": "CAMERON ADULT DAY HEALTH CARE CENTER",
    "npi": null,
    "hcaiId": null,
    "businessName": "WEST COVINA ADULT DAY SERVICES, INC.",
    "contactEmail": "WESTCOVINAADULTDAYSERVICES@GMAIL.COM",
    "categoryName": "ADULT DAY HEALTH CARE",
    "categoryCode": "ADHC",
    "licenseStatus": "ACTIVE",
    "inService": true,
    "licenseNumber": "550005406",
    "licenseEffectiveDate": "03/10/2025",
    "licenseExpirationDate": "03/09/2026",
    "dataDate": "10/18/2025",
    "capacity": 0,
    "address": "1501 W CAMERON AVE, SUITE 100",
    "city": "WEST COVINA",
    "zip": "91790",
    "county": "LOS ANGELES",
    "phone": "(626) 338-3770",
    "lat": 34.068843,
    "lng": -117.9412605
  },
  {
    "id": "630017172",
    "name": "CANDLELIGHT HOME MERCED",
    "npi": "1336696046",
    "hcaiId": null,
    "businessName": "MJ ASSET SERVICES LLC",
    "contactEmail": "CANDLELIGHTMERCED@GMAIL.COM",
    "categoryName": "INTERMEDIATE CARE FACILITY-DD/H/N/CN/IID",
    "categoryCode": "ICFDDH",
    "licenseStatus": "ACTIVE",
    "inService": true,
    "licenseNumber": "550004625",
    "licenseEffectiveDate": "04/16/2025",
    "licenseExpirationDate": "04/15/2026",
    "dataDate": "10/18/2025",
    "capacity": 6,
    "address": "1315 W MERCED AVE",
    "city": "WEST COVINA",
    "zip": "91790",
    "county": "LOS ANGELES",
    "phone": "(626) 699-1976",
    "lat": 34.06095,
    "lng": -117.9451125
  },
  {
    "id": "630021307",
    "name": "CARING HANDS HOSPICE CARE, INC.",
    "npi": null,
    "hcaiId": "406193858",
    "businessName": "CARING HANDS HOSPICE CARE, INC.",
    "contactEmail": "CARINGHANDSHOSPICE2019@GMAIL.COM",
    "categoryName": "HOSPICE",
    "categoryCode": "HOSPICE",
    "licenseStatus": "ACTIVE",
    "inService": true,
    "licenseNumber": "550007359",
    "licenseEffectiveDate": "11/20/2023",
    "licenseExpirationDate": "11/19/2025",
    "dataDate": "10/18/2025",
    "capacity": 0,
    "address": "818 W CAMERON AVE",
    "city": "WEST COVINA",
    "zip": "91790",
    "county": "LOS ANGELES",
    "phone": "(626) 383-0241",
    "lat": 34.061778,
    "lng": -117.9324945
  },
  {
    "id": "950000088",
    "name": "CLARA BALDWIN STOCKER HOME FOR WOMEN",
    "npi": null,
    "hcaiId": "206190765",
    "businessName": "CLARA BALDWIN STOCKER HOME FOR WOMEN",
    "contactEmail": "LMATARAZZO@CLARABALDWINSTOCKER.COM",
    "categoryName": "SKILLED NURSING FACILITY",
    "categoryCode": "SNF",
    "licenseStatus": "ACTIVE",
    "inService": true,
    "licenseNumber": "950000004",
    "licenseEffectiveDate": "12/01/2024",
    "licenseExpirationDate": "11/30/2025",
    "dataDate": "10/18/2025",
    "capacity": 48,
    "address": "527 S VALINDA AVE",
    "city": "WEST COVINA",
    "zip": "91790",
    "county": "LOS ANGELES",
    "phone": null,
    "lat": 34.065216,
    "lng": -117.9263565
  },
  {
    "id": "630027751",
    "name": "COMMUNITY HAVEN CORPORATION",
    "npi": null,
    "hcaiId": null,
    "businessName": "COMMUNITY HAVEN CORPORATION",
    "contactEmail": "COMMUNITYHAVENFACILITY@GMAIL.COM",
    "categoryName": "CONGREGATE LIVING HEALTH FACILITY",
    "categoryCode": "CLHF",
    "licenseStatus": "ACTIVE",
    "inService": true,
    "licenseNumber": "550009930",
    "licenseEffectiveDate": "07/24/2025",
    "licenseExpirationDate": "01/23/2026",
    "dataDate": "10/18/2025",
    "capacity": 6,
    "address": "818 E MERCED AVE",
    "city": "WEST COVINA",
    "zip": "91790",
    "county": "LOS ANGELES",
    "phone": "(626) 290-4772",
    "lat": 34.05376798,
    "lng": -117.929093
  },
  {
    "id": "630020670",
    "name": "COVINA CLHF CORPORATION",
    "npi": null,
    "hcaiId": "206190029",
    "businessName": "COVINA CLHF CORPORATION",
    "contactEmail": "COVINACLHF@GMAIL.COM",
    "categoryName": "CONGREGATE LIVING HEALTH FACILITY",
    "categoryCode": "CLHF",
    "licenseStatus": "ACTIVE",
    "inService": true,
    "licenseNumber": "550009019",
    "licenseEffectiveDate": "02/27/2025",
    "licenseExpirationDate": "02/26/2026",
    "dataDate": "10/18/2025",
    "capacity": 6,
    "address": "1411 S SANDIA AVE",
    "city": "WEST COVINA",
    "zip": "91790",
    "county": "LOS ANGELES",
    "phone": "(626) 977-3345",
    "lat": 34.062531,
    "lng": -117.954582
  },
  {
    "id": "930000208",
    "name": "COVINA DIALYSIS CENTER",
    "npi": "1639130206",
    "hcaiId": "306191166",
    "businessName": "TOTAL RENAL CARE, INC.",
    "contactEmail": "CAL_C@DAVITA.COM",
    "categoryName": "CHRONIC DIALYSIS CLINIC",
    "categoryCode": "ESRD/CDC",
    "licenseStatus": "ACTIVE",
    "inService": true,
    "licenseNumber": "930000248",
    "licenseEffectiveDate": "01/11/2025",
    "licenseExpirationDate": "01/10/2026",
    "dataDate": "10/18/2025",
    "capacity": 17,
    "address": "1547 W GARVEY AVE N",
    "city": "WEST COVINA",
    "zip": "91790",
    "county": "LOS ANGELES",
    "phone": "(626) 960-9405",
    "lat": 34.07280002,
    "lng": -117.9396981
  },
  {
    "id": "630018465",
    "name": "D' ALEXANDRIA HOSPICE, INC.",
    "npi": "1699246470",
    "hcaiId": "406195628",
    "businessName": "D'ALEXANDRIA HOSPICE, INC.",
    "contactEmail": "DALEXANDRIAHOSPICE@YAHOO.COM",
    "categoryName": "HOSPICE",
    "categoryCode": "HOSPICE",
    "licenseStatus": "ACTIVE",
    "inService": true,
    "licenseNumber": "550004945",
    "licenseEffectiveDate": "09/11/2023",
    "licenseExpirationDate": "09/10/2025",
    "dataDate": "10/18/2025",
    "capacity": 0,
    "address": "1535 W MERCED AVE, SUITE 300",
    "city": "WEST COVINA",
    "zip": "91790",
    "county": "LOS ANGELES",
    "phone": "(909) 475-0808",
    "lat": 34.063389,
    "lng": -117.947772
  },
  {
    "id": "960002015",
    "name": "DURNESS HOME",
    "npi": "1679794309",
    "hcaiId": null,
    "businessName": "FOOTHILL CARE CENTER II, LLC",
    "contactEmail": "USCRICH1@GMAIL.COM",
    "categoryName": "INTERMEDIATE CARE FACILITY-DD/H/N/CN/IID",
    "categoryCode": "ICFDDH",
    "licenseStatus": "ACTIVE",
    "inService": true,
    "licenseNumber": "960000968",
    "licenseEffectiveDate": "11/03/2024",
    "licenseExpirationDate": "11/02/2025",
    "dataDate": "10/18/2025",
    "capacity": 6,
    "address": "1304 W DURNESS ST",
    "city": "WEST COVINA",
    "zip": "91790",
    "county": "LOS ANGELES",
    "phone": "(626) 701-4635",
    "lat": 34.057809,
    "lng": -117.947916
  },
  {
    "id": "960000162",
    "name": "EAST VALLEY COMMUNITY HEALTH CENTER",
    "npi": "1831243625",
    "hcaiId": "306191053",
    "businessName": "EAST VALLEY COMMUNITY HEALTH CENTER, INC.",
    "contactEmail": "VMACIAS@EVCHC.ORG",
    "categoryName": "PRIMARY CARE CLINIC",
    "categoryCode": "COMTYC",
    "licenseStatus": "ACTIVE",
    "inService": true,
    "licenseNumber": "960000210",
    "licenseEffectiveDate": "11/14/2024",
    "licenseExpirationDate": "11/13/2025",
    "dataDate": "10/18/2025",
    "capacity": 0,
    "address": "420 S GLENDORA AVE",
    "city": "WEST COVINA",
    "zip": "91790",
    "county": "LOS ANGELES",
    "phone": "(626) 919-4333",
    "lat": 34.06739159,
    "lng": -117.9252749
  },
  {
    "id": "630028429",
    "name": "EAST VALLEY COMMUNITY HEALTH CENTER, LNC. - PEH FIELD SERVICES",
    "npi": null,
    "hcaiId": null,
    "businessName": "EAST VALLEY COMMUNITY HEALTH CENTER, INC.",
    "contactEmail": "ELARSEN@EVCHC.ORG",
    "categoryName": "PRIMARY CARE CLINIC",
    "categoryCode": "COMTYC",
    "licenseStatus": "ACTIVE",
    "inService": true,
    "licenseNumber": "960000210",
    "licenseEffectiveDate": "11/14/2024",
    "licenseExpirationDate": "11/13/2025",
    "dataDate": "10/18/2025",
    "capacity": 0,
    "address": "420 GLENDORA AVENUE",
    "city": "WEST COVINA",
    "zip": "91790",
    "county": "LOS ANGELES",
    "phone": "(626) 919-4333",
    "lat": 34.06729977,
    "lng": -117.9249748
  },
  {
    "id": "930000132",
    "name": "EMANATE HEALTH QUEEN OF THE VALLEY HOSPITAL",
    "npi": "1982629440",
    "hcaiId": "106190636",
    "businessName": "EMANATE HEALTH MEDICAL CENTER",
    "contactEmail": "RCURRY@EMANATEHEALTH.ORG",
    "categoryName": "GENERAL ACUTE CARE HOSPITAL",
    "categoryCode": "GACH",
    "licenseStatus": "ACTIVE",
    "inService": true,
    "licenseNumber": "930000131",
    "licenseEffectiveDate": "11/01/2024",
    "licenseExpirationDate": "10/31/2025",
    "dataDate": "10/18/2025",
    "capacity": 325,
    "address": "1115 S SUNSET AVE",
    "city": "WEST COVINA",
    "zip": "91790",
    "county": "LOS ANGELES",
    "phone": "(626) 962-4011",
    "lat": 34.064316,
    "lng": -117.946188
  },
  {
    "id": "930001678",
    "name": "FMC DIALYSIS SERVICES OF WEST COVINA",
    "npi": "1154433951",
    "hcaiId": "306196095",
    "businessName": "BIO-MEDICAL APPLICATIONS OF CALIFORNIA, INC.",
    "contactEmail": "EDGAR.VERGARA@FRESENIUSMEDICALCARE.COM",
    "categoryName": "CHRONIC DIALYSIS CLINIC",
    "categoryCode": "ESRD/CDC",
    "licenseStatus": "ACTIVE",
    "inService": true,
    "licenseNumber": "930000930",
    "licenseEffectiveDate": "05/22/2025",
    "licenseExpirationDate": "05/21/2026",
    "dataDate": "10/18/2025",
    "capacity": 22,
    "address": "1540 WEST COVINA PKWY, SUITE 101",
    "city": "WEST COVINA",
    "zip": "91790",
    "county": "LOS ANGELES",
    "phone": "(626) 337-8007",
    "lat": 34.070085,
    "lng": -117.9405
  },
  {
    "id": "630014713",
    "name": "GOLDEN MEADOWS HOSPICE LLC.",
    "npi": "1982033353",
    "hcaiId": "406190666",
    "businessName": "GOLDEN MEADOWS HOSPICE LLC.",
    "contactEmail": "GMHOSPICE@GMAIL.COM",
    "categoryName": "HOSPICE",
    "categoryCode": "HOSPICE",
    "licenseStatus": "ACTIVE",
    "inService": true,
    "licenseNumber": "550003233",
    "licenseEffectiveDate": "09/14/2021",
    "licenseExpirationDate": "09/13/2023",
    "dataDate": "10/18/2025",
    "capacity": 0,
    "address": "640 S SUNSET AVE, SUITE 201",
    "city": "WEST COVINA",
    "zip": "91790",
    "county": "LOS ANGELES",
    "phone": "(626) 338-8835",
    "lat": 34.06977116,
    "lng": -117.9371499
  },
  {
    "id": "630022085",
    "name": "HARBOR HOME HEALTH, INC.",
    "npi": null,
    "hcaiId": "406193166",
    "businessName": "HARBOR HOME HEALTH, INC.",
    "contactEmail": "HARBORHOMEHEALTHINC@GMAIL.COM",
    "categoryName": "HOME HEALTH AGENCY",
    "categoryCode": "HHA",
    "licenseStatus": "ACTIVE",
    "inService": true,
    "licenseNumber": "550006986",
    "licenseEffectiveDate": "10/06/2025",
    "licenseExpirationDate": "10/05/2026",
    "dataDate": "10/18/2025",
    "capacity": 0,
    "address": "640 S SUNSET AVE, SUITE 205",
    "city": "WEST COVINA",
    "zip": "91790",
    "county": "LOS ANGELES",
    "phone": "(626) 608-1800",
    "lat": 34.06977116,
    "lng": -117.9371499
  },
  {
    "id": "630024306",
    "name": "INTEGRITY CONTINUOUS HOMECARE",
    "npi": null,
    "hcaiId": null,
    "businessName": "LANELLE HEALTH PRO CARE, INC.",
    "contactEmail": "INFO@INTEGRITYCHC.COM",
    "categoryName": "HOME HEALTH AGENCY",
    "categoryCode": "HHA",
    "licenseStatus": "ACTIVE",
    "inService": true,
    "licenseNumber": "550009026",
    "licenseEffectiveDate": "01/19/2025",
    "licenseExpirationDate": "01/18/2026",
    "dataDate": "10/18/2025",
    "capacity": 0,
    "address": "818 W CAMERON AVE, FLOOR 1ST",
    "city": "WEST COVINA",
    "zip": "91790",
    "county": "LOS ANGELES",
    "phone": "(800) 475-5014",
    "lat": 34.061778,
    "lng": -117.9324945
  },
  {
    "id": "630012374",
    "name": "KAISER PERMANENTE - BALDWIN PARK HHA BRANCH",
    "npi": null,
    "hcaiId": "406197405",
    "businessName": "KAISER FOUNDATION HOSPITALS",
    "contactEmail": "JACQUELINEPBLOCK@KP.ORG",
    "categoryName": "HOME HEALTH AGENCY",
    "categoryCode": "HHA",
    "licenseStatus": "ACTIVE",
    "inService": true,
    "licenseNumber": "980000534",
    "licenseEffectiveDate": "11/24/2025",
    "licenseExpirationDate": "11/23/2026",
    "dataDate": "10/18/2025",
    "capacity": 0,
    "address": "1502 W WEST COVINA PKWY",
    "city": "WEST COVINA",
    "zip": "91790",
    "county": "LOS ANGELES",
    "phone": "(562) 622-4244",
    "lat": 34.069482,
    "lng": -117.9397305
  },
  {
    "id": "630012417",
    "name": "KAISER PERMANENTE - BALDWIN PARK HOSPICE -BRANCH",
    "npi": null,
    "hcaiId": "406197402",
    "businessName": "KAISER FOUNDATION HOSPITALS",
    "contactEmail": null,
    "categoryName": "HOSPICE",
    "categoryCode": "HOSPICE",
    "licenseStatus": "ACTIVE",
    "inService": true,
    "licenseNumber": "980000509",
    "licenseEffectiveDate": "06/27/2025",
    "licenseExpirationDate": "06/26/2027",
    "dataDate": "10/18/2025",
    "capacity": 0,
    "address": "1502 W WEST COVINA PKWY",
    "city": "WEST COVINA",
    "zip": "91790",
    "county": "LOS ANGELES",
    "phone": "(562) 622-4244",
    "lat": 34.069482,
    "lng": -117.9397305
  },
  {
    "id": "630021382",
    "name": "LAKESIDE HOME HEALTH, INC.",
    "npi": null,
    "hcaiId": "406193167",
    "businessName": "LAKESIDE HOME HEALTH, INC.",
    "contactEmail": null,
    "categoryName": "HOME HEALTH AGENCY",
    "categoryCode": "HHA",
    "licenseStatus": "ACTIVE",
    "inService": true,
    "licenseNumber": "550006981",
    "licenseEffectiveDate": "10/18/2025",
    "licenseExpirationDate": "10/17/2026",
    "dataDate": "10/18/2025",
    "capacity": 0,
    "address": "501 S VINCENT AVE, SUITE 200A",
    "city": "WEST COVINA",
    "zip": "91790",
    "county": "LOS ANGELES",
    "phone": "(909) 570-7787",
    "lat": 34.06640898,
    "lng": -117.92831
  },
  {
    "id": "630021603",
    "name": "LAZARO HOSPICE, INC.",
    "npi": null,
    "hcaiId": "406193320",
    "businessName": "LAZARO HOSPICE, INC.",
    "contactEmail": "LAZAROHOSP@GMAIL.COM",
    "categoryName": "HOSPICE",
    "categoryCode": "HOSPICE",
    "licenseStatus": "ACTIVE",
    "inService": true,
    "licenseNumber": "550007162",
    "licenseEffectiveDate": "11/10/2023",
    "licenseExpirationDate": "11/09/2025",
    "dataDate": "10/18/2025",
    "capacity": 0,
    "address": "1619 W GARVEY AVE N, SUITE 206",
    "city": "WEST COVINA",
    "zip": "91790",
    "county": "LOS ANGELES",
    "phone": "(626) 400-4850",
    "lat": 34.072992,
    "lng": -117.9404775
  },
  {
    "id": "630018022",
    "name": "LIGHTHOUSE HOSPICE & PALLIATIVE CARE SERVICES",
    "npi": "1578066890",
    "hcaiId": "406191750",
    "businessName": "NEXUS LEGACY, INC.",
    "contactEmail": "NEXUSLEGACYINC@GMAIL.COM",
    "categoryName": "HOSPICE",
    "categoryCode": "HOSPICE",
    "licenseStatus": "ACTIVE",
    "inService": true,
    "licenseNumber": "550004728",
    "licenseEffectiveDate": "05/15/2025",
    "licenseExpirationDate": "05/14/2027",
    "dataDate": "10/18/2025",
    "capacity": 0,
    "address": "640 S SUNSET AVE, SUITE 202",
    "city": "WEST COVINA",
    "zip": "91790",
    "county": "LOS ANGELES",
    "phone": "(626) 480-8000",
    "lat": 34.06977116,
    "lng": -117.9371499
  },
  {
    "id": "630021593",
    "name": "LIMAR HOSPICE INC",
    "npi": null,
    "hcaiId": "406194880",
    "businessName": "LIMAR HOSPICE INC",
    "contactEmail": "LIMARHOSPICE@GMAIL.COM",
    "categoryName": "HOSPICE",
    "categoryCode": "HOSPICE",
    "licenseStatus": "ACTIVE",
    "inService": true,
    "licenseNumber": "550007078",
    "licenseEffectiveDate": "10/26/2023",
    "licenseExpirationDate": "10/25/2025",
    "dataDate": "10/18/2025",
    "capacity": 0,
    "address": "1619 W GARVEY AVE N, SUITE 207",
    "city": "WEST COVINA",
    "zip": "91790",
    "county": "LOS ANGELES",
    "phone": "(818) 334-0303",
    "lat": 34.072992,
    "lng": -117.9404775
  },
  {
    "id": "630019884",
    "name": "MADISON HOSPICE, INC.",
    "npi": "1639725021",
    "hcaiId": "406194489",
    "businessName": "MADISON HOSPICE, INC.",
    "contactEmail": "MADISONHOSPICE@YAHOO.COM",
    "categoryName": "HOSPICE",
    "categoryCode": "HOSPICE",
    "licenseStatus": "ACTIVE",
    "inService": true,
    "licenseNumber": "550005878",
    "licenseEffectiveDate": "07/15/2025",
    "licenseExpirationDate": "09/07/2026",
    "dataDate": "10/18/2025",
    "capacity": 0,
    "address": "1619 W GARVEY AVE N, SUITE 107",
    "city": "WEST COVINA",
    "zip": "91790",
    "county": "LOS ANGELES",
    "phone": "(818) 435-7800",
    "lat": 34.07295202,
    "lng": -117.940512
  },
  {
    "id": "630028263",
    "name": "MENDME, INC",
    "npi": null,
    "hcaiId": null,
    "businessName": null,
    "contactEmail": null,
    "categoryName": "SURGICAL CLINIC",
    "categoryCode": "ASC",
    "licenseStatus": null,
    "inService": null,
    "licenseNumber": null,
    "licenseEffectiveDate": null,
    "licenseExpirationDate": null,
    "dataDate": "10/18/2025",
    "capacity": 0,
    "address": "1135 S SUNSET AVE, SUITE 210",
    "city": "WEST COVINA",
    "zip": "91790",
    "county": "LOS ANGELES",
    "phone": null,
    "lat": 34.06275502,
    "lng": -117.94628
  },
  {
    "id": "960002276",
    "name": "MORRIS HOME",
    "npi": "1871715193",
    "hcaiId": null,
    "businessName": "FOOTHILL CARE CENTER II, LLC",
    "contactEmail": "USCRICH1@GMAIL.COM",
    "categoryName": "INTERMEDIATE CARE FACILITY-DD/H/N/CN/IID",
    "categoryCode": "ICFDDH",
    "licenseStatus": "ACTIVE",
    "inService": true,
    "licenseNumber": "960001058",
    "licenseEffectiveDate": "11/09/2024",
    "licenseExpirationDate": "11/08/2025",
    "dataDate": "10/18/2025",
    "capacity": 6,
    "address": "332 N MORRIS AVE",
    "city": "WEST COVINA",
    "zip": "91790",
    "county": "LOS ANGELES",
    "phone": "(626) 701-4635",
    "lat": 34.07787,
    "lng": -117.945252
  },
  {
    "id": "630014723",
    "name": "PHYSICIAN'S CHOICE HOSPICE LLC",
    "npi": "1750771523",
    "hcaiId": "406198424",
    "businessName": "PHYSICIAN'S CHOICE HOSPICE LLC",
    "contactEmail": "PCHOSPICELLC@GMAIL.COM",
    "categoryName": "HOSPICE",
    "categoryCode": "HOSPICE",
    "licenseStatus": "ACTIVE",
    "inService": true,
    "licenseNumber": "550003087",
    "licenseEffectiveDate": "05/01/2025",
    "licenseExpirationDate": "04/30/2027",
    "dataDate": "10/18/2025",
    "capacity": 0,
    "address": "1535 W MERCED AVE, SUITE 200",
    "city": "WEST COVINA",
    "zip": "91790",
    "county": "LOS ANGELES",
    "phone": "(626) 986-4247",
    "lat": 34.063398,
    "lng": -117.9477855
  },
  {
    "id": "930001723",
    "name": "QUEEN'S DIALYSIS UNIT, INC.",
    "npi": "1710998380",
    "hcaiId": "306196207",
    "businessName": "QUEEN'S DIALYSIS UNIT, INC.",
    "contactEmail": "STABASSUM@CDMSRENAL.COM",
    "categoryName": "CHRONIC DIALYSIS CLINIC",
    "categoryCode": "ESRD/CDC",
    "licenseStatus": "ACTIVE",
    "inService": true,
    "licenseNumber": "930000960",
    "licenseEffectiveDate": "04/02/2025",
    "licenseExpirationDate": "04/01/2026",
    "dataDate": "10/18/2025",
    "capacity": 22,
    "address": "1135 S SUNSET AVE, SUITE 103",
    "city": "WEST COVINA",
    "zip": "91790",
    "county": "LOS ANGELES",
    "phone": "(626) 337-4245",
    "lat": 34.062264,
    "lng": -117.9457875
  },
  {
    "id": "960002211",
    "name": "R & C QUALITY CARE",
    "npi": "1023299740",
    "hcaiId": null,
    "businessName": "RICHRON, INC.",
    "contactEmail": "RICHRON2009@YAHOO.COM",
    "categoryName": "INTERMEDIATE CARE FACILITY-DD/H/N/CN/IID",
    "categoryCode": "ICFDDN",
    "licenseStatus": "ACTIVE",
    "inService": true,
    "licenseNumber": "960001037",
    "licenseEffectiveDate": "05/16/2025",
    "licenseExpirationDate": "05/15/2026",
    "dataDate": "10/18/2025",
    "capacity": 6,
    "address": "1040 S BUBBLING WELL RD",
    "city": "WEST COVINA",
    "zip": "91790",
    "county": "LOS ANGELES",
    "phone": "(626) 918-8269",
    "lat": 34.056261,
    "lng": -117.9349245
  },
  {
    "id": "930000381",
    "name": "SAN GABRIEL VALLEY SURGICAL CENTER",
    "npi": "1558401299",
    "hcaiId": "306194152",
    "businessName": "SAN GABRIEL VALLEY SURGICAL CENTER, L.P.",
    "contactEmail": "JMIILLER@UNITEDSURGICAL.COM",
    "categoryName": "SURGICAL CLINIC",
    "categoryCode": "ASC",
    "licenseStatus": "INACTIVE - CAPEN DECISION",
    "inService": false,
    "licenseNumber": "930000450",
    "licenseEffectiveDate": "03/17/2008",
    "licenseExpirationDate": "03/16/2009",
    "dataDate": "10/18/2025",
    "capacity": 0,
    "address": "1250 S SUNSET AVE, SUITE 100",
    "city": "WEST COVINA",
    "zip": "91790",
    "county": "LOS ANGELES",
    "phone": "(626) 960-6623",
    "lat": 34.06059,
    "lng": -117.945711
  },
  {
    "id": "930001741",
    "name": "SUNSET SURGICAL CENTER",
    "npi": "1093891004",
    "hcaiId": null,
    "businessName": null,
    "contactEmail": "NONE@DHS.CA.GOV",
    "categoryName": "SURGICAL CLINIC",
    "categoryCode": "ASC",
    "licenseStatus": null,
    "inService": null,
    "licenseNumber": null,
    "licenseEffectiveDate": null,
    "licenseExpirationDate": null,
    "dataDate": "10/18/2025",
    "capacity": 0,
    "address": "222 N SUNSET AVE, SUITE B",
    "city": "WEST COVINA",
    "zip": "91790",
    "county": "LOS ANGELES",
    "phone": "(626) 338-4545",
    "lat": 34.073919,
    "lng": -117.935163
  },
  {
    "id": "630021607",
    "name": "UMA HOME HEALTH, INC.",
    "npi": null,
    "hcaiId": "406193831",
    "businessName": "UMA HOME HEALTH, INC.",
    "contactEmail": "UMAHOMEHEALTHCARE@GMAIL.COM",
    "categoryName": "HOME HEALTH AGENCY",
    "categoryCode": "HHA",
    "licenseStatus": "ACTIVE",
    "inService": true,
    "licenseNumber": "550007191",
    "licenseEffectiveDate": "10/26/2024",
    "licenseExpirationDate": "10/25/2025",
    "dataDate": "10/18/2025",
    "capacity": 0,
    "address": "1619 W GARVEY AVE N, SUITE 102A",
    "city": "WEST COVINA",
    "zip": "91790",
    "county": "LOS ANGELES",
    "phone": "(818) 254-6150",
    "lat": 34.072992,
    "lng": -117.9404775
  },
  {
    "id": "630021897",
    "name": "UNITED ANGELS HOSPICE INC.",
    "npi": null,
    "hcaiId": "406198168",
    "businessName": "UNITED ANGELS HOSPICE INC.",
    "contactEmail": "UNITEDANGELSHOSPICE@YAHOO.COM",
    "categoryName": "HOSPICE",
    "categoryCode": "HOSPICE",
    "licenseStatus": "ACTIVE",
    "inService": true,
    "licenseNumber": "550007547",
    "licenseEffectiveDate": "01/19/2024",
    "licenseExpirationDate": "12/13/2025",
    "dataDate": "10/18/2025",
    "capacity": 0,
    "address": "1619 W GARVEY AVE N, SUITE 203",
    "city": "WEST COVINA",
    "zip": "91790",
    "county": "LOS ANGELES",
    "phone": "(626) 538-1577",
    "lat": 34.07294829,
    "lng": -117.9405158
  },
  {
    "id": "630024891",
    "name": "VIRGO HOME HEALTH, INC.",
    "npi": null,
    "hcaiId": "406195710",
    "businessName": "VIRGO HOME HEALTH, INC.",
    "contactEmail": "VIRGOHOMEHEALTH@YAHOO.COM",
    "categoryName": "HOME HEALTH AGENCY",
    "categoryCode": "HHA",
    "licenseStatus": "ACTIVE",
    "inService": true,
    "licenseNumber": "550008225",
    "licenseEffectiveDate": "10/27/2024",
    "licenseExpirationDate": "10/26/2025",
    "dataDate": "10/18/2025",
    "capacity": 0,
    "address": "1619 W GARVEY AVE N, SUITE 104",
    "city": "WEST COVINA",
    "zip": "91790",
    "county": "LOS ANGELES",
    "phone": "(626) 603-1105",
    "lat": 34.072992,
    "lng": -117.9404775
  },
  {
    "id": "630024885",
    "name": "VIVANTI HOME HEALTH INC.",
    "npi": null,
    "hcaiId": "406197777",
    "businessName": "VIVANTI HOME HEALTH INC.",
    "contactEmail": "VIVANTIHOMEHEALTH@YAHOO.COM",
    "categoryName": "HOME HEALTH AGENCY",
    "categoryCode": "HHA",
    "licenseStatus": "ACTIVE",
    "inService": true,
    "licenseNumber": "550008240",
    "licenseEffectiveDate": "11/29/2024",
    "licenseExpirationDate": "11/28/2025",
    "dataDate": "10/18/2025",
    "capacity": 0,
    "address": "1619 W GARVEY AVE N, SUITE 104A",
    "city": "WEST COVINA",
    "zip": "91790",
    "county": "LOS ANGELES",
    "phone": "(626) 900-7315",
    "lat": 34.072992,
    "lng": -117.9404775
  },
  {
    "id": "950000049",
    "name": "WEST COVINA HEALTHCARE CENTER",
    "npi": "1326032814",
    "hcaiId": "206190085",
    "businessName": "AG WEST COVINA, LLC",
    "contactEmail": "EILEEN.BALTAZAR@WESTCOVINAHCC.COM",
    "categoryName": "SKILLED NURSING FACILITY",
    "categoryCode": "SNF",
    "licenseStatus": "ACTIVE",
    "inService": true,
    "licenseNumber": "950000014",
    "licenseEffectiveDate": "11/01/2025",
    "licenseExpirationDate": "10/31/2026",
    "dataDate": "10/18/2025",
    "capacity": 97,
    "address": "850 S SUNKIST AVE",
    "city": "WEST COVINA",
    "zip": "91790",
    "county": "LOS ANGELES",
    "phone": "(626) 962-3368",
    "lat": 34.070679,
    "lng": -117.94842
  },
  {
    "id": "930000188",
    "name": "WEST COVINA MEDICAL CENTER",
    "npi": "1780183335",
    "hcaiId": "106190857",
    "businessName": "L.A. DOWNTOWN MEDICAL CENTER, LLC",
    "contactEmail": "ADMINISTRATION@WESTCOVINAMC.COM",
    "categoryName": "GENERAL ACUTE CARE HOSPITAL",
    "categoryCode": "GACH",
    "licenseStatus": "ACTIVE",
    "inService": true,
    "licenseNumber": "930000137",
    "licenseEffectiveDate": "09/18/2025",
    "licenseExpirationDate": "11/17/2025",
    "dataDate": "10/18/2025",
    "capacity": 13,
    "address": "725 S ORANGE AVE",
    "city": "WEST COVINA",
    "zip": "91790",
    "county": "LOS ANGELES",
    "phone": "(626) 338-8481",
    "lat": 34.071354,
    "lng": -117.944757
  },
  {
    "id": "930001561",
    "name": "WEST COVINA MEDICAL CENTER D/P SNF",
    "npi": "1255723490",
    "hcaiId": null,
    "businessName": "L.A. DOWNTOWN MEDICAL CENTER, LLC",
    "contactEmail": "ADMINISTRATION@WESTCOVINAMC.COM",
    "categoryName": "SKILLED NURSING FACILITY",
    "categoryCode": "SNF",
    "licenseStatus": "ACTIVE",
    "inService": true,
    "licenseNumber": "930000137",
    "licenseEffectiveDate": "09/18/2025",
    "licenseExpirationDate": "11/17/2025",
    "dataDate": "10/18/2025",
    "capacity": 33,
    "address": "725 S ORANGE AVE",
    "city": "WEST COVINA",
    "zip": "91790",
    "county": "LOS ANGELES",
    "phone": "(626) 338-8481",
    "lat": 34.071354,
    "lng": -117.944757
  },
  {
    "id": "950000044",
    "name": "WEST HAVEN HEALTHCARE",
    "npi": "1912134263",
    "hcaiId": "206190027",
    "businessName": "1495 CAMERON AVENUE, LLC",
    "contactEmail": "ADMINISTRATOR@WESTHAVENHC.COM",
    "categoryName": "SKILLED NURSING FACILITY",
    "categoryCode": "SNF",
    "licenseStatus": "ACTIVE",
    "inService": true,
    "licenseNumber": "950000009",
    "licenseEffectiveDate": "02/18/2025",
    "licenseExpirationDate": "02/17/2026",
    "dataDate": "10/18/2025",
    "capacity": 99,
    "address": "1495 W CAMERON AVE",
    "city": "WEST COVINA",
    "zip": "91790",
    "county": "LOS ANGELES",
    "phone": "(213) 326-5006",
    "lat": 34.068114,
    "lng": -117.9405405
  },
  {
    "id": "630014490",
    "name": "WHITE WINGS HOSPICE INC.",
    "npi": "1427497981",
    "hcaiId": "406198032",
    "businessName": "WHITE WINGS HOSPICE INC.",
    "contactEmail": "WHITEWINGSHOSPICE@GMAIL.COM",
    "categoryName": "HOSPICE",
    "categoryCode": "HOSPICE",
    "licenseStatus": "ACTIVE",
    "inService": true,
    "licenseNumber": "550002772",
    "licenseEffectiveDate": "03/04/2025",
    "licenseExpirationDate": "07/10/2026",
    "dataDate": "10/18/2025",
    "capacity": 0,
    "address": "1050 LAKES DR, SUITE 225, UNIT 269",
    "city": "WEST COVINA",
    "zip": "91790",
    "county": "LOS ANGELES",
    "phone": "(626) 623-6125",
    "lat": 34.07148758,
    "lng": -117.9229081
  }
]