[
  {
    "id": "630027902",
    "name": "ALTAMED MEDICAL GROUP - WEST COVINA, AMAR",
    "npi": null,
    "hcaiId": null,
    "businessName": "ALTAMED HEALTH SERVICES CORPORATION",
    "contactEmail": "ALKIM@ALTAMED.ORG",
    "categoryName": "PRIMARY CARE CLINIC",
    "categoryCode": "COMTYC",
    "licenseStatus": "ACTIVE",
    "inService": true,
    "licenseNumber": "550009926",
    "licenseEffectiveDate": "08/20/2025",
    "licenseExpirationDate": "08/19/2026",
    "dataDate": "10/18/2025",
    "capacity": 0,
    "address": "1536 E AMAR RD",
    "city": "WEST COVINA",
    "zip": "91792",
    "county": "LOS ANGELES",
    "phone": "(213) 671-7648",
    "lat": 34.03012379,
    "lng": -117.9124252
  },
  {
    "id": "630012962",
    "name": "ETERNALLY YOURS HOSPICE, INC.",
    "npi": null,
    "hcaiId": "406197504",
    "businessName": "ETERNALLY YOURS HOSPICE, INC.",
    "contactEmail": "ETERNALLYYOURSHOSPICEINC@YAHOO.COM",
    "categoryName": "HOSPICE",
    "categoryCode": "HOSPICE",
    "licenseStatus": "ACTIVE",
    "inService": true,
    "licenseNumber": "550001587",
    "licenseEffectiveDate": "05/12/2025",
    "licenseExpirationDate": "05/11/2027",
    "dataDate": "10/18/2025",
    "capacity": 0,
    "address": "2550 E AMAR RD, UNIT A-1G",
    "city": "WEST COVINA",
    "zip": "91792",
    "county": "LOS ANGELES",
    "phone": "(626) 965-4200",
    "lat": 34.026822,
    "lng": -117.8962425
  },
  {
    "id": "960002689",
    "name": "G & E CARE HOME",
    "npi": "1396824132",
    "hcaiId": null,
    "businessName": "SAN GABRIEL VALLEY CHILDREN'S CARE, INC.",
    "contactEmail": "SGVCCINC@GMAIL.COM",
    "categoryName": "INTERMEDIATE CARE FACILITY-DD/H/N/CN/IID",
    "categoryCode": "ICFDDN",
    "licenseStatus": "ACTIVE",
    "inService": true,
    "licenseNumber": "960001329",
    "licenseEffectiveDate": "06/20/2025",
    "licenseExpirationDate": "06/19/2026",
    "dataDate": "10/18/2025",
    "capacity": 6,
    "address": "19244 E ELBERLAND ST",
    "city": "WEST COVINA",
    "zip": "91792",
    "county": "LOS ANGELES",
    "phone": "(626) 964-4004",
    "lat": 34.008993,
    "lng": -117.8805555
  },
  {
    "id": "960002280",
    "name": "GERELYN CARE HOME",
    "npi": "1679757595",
    "hcaiId": null,
    "businessName": "SAN GABRIEL VALLEY CHILDREN'S CARE, INC.",
    "contactEmail": "SGVCCINC@GMAIL.COM",
    "categoryName": "INTERMEDIATE CARE FACILITY-DD/H/N/CN/IID",
    "categoryCode": "ICFDDN",
    "licenseStatus": "ACTIVE",
    "inService": true,
    "licenseNumber": "960001060",
    "licenseEffectiveDate": "11/21/2024",
    "licenseExpirationDate": "11/20/2025",
    "dataDate": "10/18/2025",
    "capacity": 6,
    "address": "617 S SENTOUS AVE",
    "city": "WEST COVINA",
    "zip": "91792",
    "county": "LOS ANGELES",
    "phone": "(626) 839-5777",
    "lat": 34.004241,
    "lng": -117.8810145
  },
  {
    "id": "960002840",
    "name": "HARVEST MOON ICF/DDN",
    "npi": "1295937415",
    "hcaiId": null,
    "businessName": null,
    "contactEmail": "YOLIECRUME@GMAIL.COM",
    "categoryName": "INTERMEDIATE CARE FACILITY-DD/H/N/CN/IID",
    "categoryCode": "ICFDDN",
    "licenseStatus": "ACTIVE",
    "inService": true,
    "licenseNumber": "960001418",
    "licenseEffectiveDate": "02/08/2025",
    "licenseExpirationDate": "02/07/2026",
    "dataDate": "10/18/2025",
    "capacity": 6,
    "address": "1017 E HARVEST MOON ST",
    "city": "WEST COVINA",
    "zip": "91792",
    "county": "LOS ANGELES",
    "phone": "(626) 961-0076",
    "lat": 34.043139,
    "lng": -117.924804
  },
  {
    "id": "980002361",
    "name": "HIGHMARK HOME HEALTH, INC.",
    "npi": "1982663407",
    "hcaiId": "406196473",
    "businessName": "HIGHMARK HOME HEALTH, INC.",
    "contactEmail": "HIGHMARK_INC@YAHOO.COM",
    "categoryName": "HOME HEALTH AGENCY",
    "categoryCode": "HHA",
    "licenseStatus": "ACTIVE",
    "inService": true,
    "licenseNumber": "980001471",
    "licenseEffectiveDate": "04/28/2025",
    "licenseExpirationDate": "04/27/2026",
    "dataDate": "10/18/2025",
    "capacity": 0,
    "address": "2707 E VALLEY BLVD, SUITE 209",
    "city": "WEST COVINA",
    "zip": "91792",
    "county": "LOS ANGELES",
    "phone": "(626) 810-1957",
    "lat": 34.00312746,
    "lng": -117.8876002
  },
  {
    "id": "960001255",
    "name": "JO-MI INTERMEDIATE CARE FAC/DEVELOPMENTALLY-NRSG",
    "npi": "1316085947",
    "hcaiId": null,
    "businessName": null,
    "contactEmail": "C.CUEVAS.1849@OUTLOOK.COM",
    "categoryName": "INTERMEDIATE CARE FACILITY-DD/H/N/CN/IID",
    "categoryCode": "ICFDDN",
    "licenseStatus": "ACTIVE",
    "inService": true,
    "licenseNumber": "960000650",
    "licenseEffectiveDate": "05/29/2025",
    "licenseExpirationDate": "05/28/2026",
    "dataDate": "10/18/2025",
    "capacity": 6,
    "address": "2128 SHIRLEE ST",
    "city": "WEST COVINA",
    "zip": "91792",
    "county": "LOS ANGELES",
    "phone": "(626) 854-0670",
    "lat": 34.015275,
    "lng": -117.8987805
  },
  {
    "id": "630006141",
    "name": "OUR LADY OF MERCY HOME",
    "npi": "1154590495",
    "hcaiId": null,
    "businessName": "MOTHER OF MERCY HOMES, INC.",
    "contactEmail": "OURLADYOFMERCYHOMES@GMAIL.COM",
    "categoryName": "INTERMEDIATE CARE FACILITY-DD/H/N/CN/IID",
    "categoryCode": "ICFDDH",
    "licenseStatus": "ACTIVE",
    "inService": true,
    "licenseNumber": "550000212",
    "licenseEffectiveDate": "11/15/2025",
    "licenseExpirationDate": "11/14/2026",
    "dataDate": "10/18/2025",
    "capacity": 6,
    "address": "3409 E HILLTONIA DR",
    "city": "WEST COVINA",
    "zip": "91792",
    "county": "LOS ANGELES",
    "phone": "(909) 578-5453",
    "lat": 34.015392,
    "lng": -117.871992
  },
  {
    "id": "630012569",
    "name": "OUR LADY OF MERCY HOME II",
    "npi": "1801173026",
    "hcaiId": null,
    "businessName": "MOTHER OF MERCY HOMES, INC.",
    "contactEmail": "OURLADYOFMERCYHOMES@GMAIL.COM",
    "categoryName": "INTERMEDIATE CARE FACILITY-DD/H/N/CN/IID",
    "categoryCode": "ICFDDH",
    "licenseStatus": "ACTIVE",
    "inService": true,
    "licenseNumber": "550001364",
    "licenseEffectiveDate": "11/15/2025",
    "licenseExpirationDate": "11/14/2026",
    "dataDate": "10/18/2025",
    "capacity": 6,
    "address": "3845 S MORGANFIELD AVE",
    "city": "WEST COVINA",
    "zip": "91792",
    "county": "LOS ANGELES",
    "phone": "(909) 570-5453",
    "lat": 34.007265,
    "lng": -117.877104
  },
  {
    "id": "630028018",
    "name": "SAINT PAUL CONGREGATE LIVING",
    "npi": null,
    "hcaiId": null,
    "businessName": "SAINT PAUL CONGREGATE LIVING, LLC",
    "contactEmail": "ADMIN@SAINTPAULCL.COM",
    "categoryName": "CONGREGATE LIVING HEALTH FACILITY",
    "categoryCode": "CLHF",
    "licenseStatus": "ACTIVE",
    "inService": true,
    "licenseNumber": "550009947",
    "licenseEffectiveDate": "08/20/2025",
    "licenseExpirationDate": "02/19/2026",
    "dataDate": "10/18/2025",
    "capacity": 6,
    "address": "2721 TORY ST",
    "city": "WEST COVINA",
    "zip": "91792",
    "county": "LOS ANGELES",
    "phone": "(323) 445-7202",
    "lat": 34.0238378,
    "lng": -117.9113158
  }
]