[
  {
    "id": "060001883",
    "name": "ABC THERAPY CENTER",
    "npi": null,
    "hcaiId": null,
    "businessName": "SAN GABRIEL ADHC ASSOCIATES, LLC",
    "contactEmail": "ABCTHERAPYCENTER@GMAIL.COM",
    "categoryName": "ADULT DAY HEALTH CARE",
    "categoryCode": "ADHC",
    "licenseStatus": "ACTIVE",
    "inService": true,
    "licenseNumber": "060000700",
    "licenseEffectiveDate": "01/17/2025",
    "licenseExpirationDate": "01/16/2026",
    "dataDate": "10/18/2025",
    "capacity": 0,
    "address": "1645 W VALLEY BLVD",
    "city": "ALHAMBRA",
    "zip": "91803",
    "county": "LOS ANGELES",
    "phone": "(626) 570-0778",
    "lat": 34.077897,
    "lng": -118.1410965
  },
  {
    "id": "980001876",
    "name": "ADVANCE HOME HEALTH SERVICES, INC.",
    "npi": null,
    "hcaiId": "406195074",
    "businessName": "ADVANCE HOME HEALTH SERVICES, INC.",
    "contactEmail": "ADVANCE1997@YAHOO.COM",
    "categoryName": "HOME HEALTH AGENCY",
    "categoryCode": "HHA",
    "licenseStatus": "ACTIVE",
    "inService": true,
    "licenseNumber": "980001067",
    "licenseEffectiveDate": "05/14/2025",
    "licenseExpirationDate": "05/13/2026",
    "dataDate": "10/18/2025",
    "capacity": 0,
    "address": "801 W VALLEY BLVD, SUITE 105",
    "city": "ALHAMBRA",
    "zip": "91803",
    "county": "LOS ANGELES",
    "phone": "(626) 282-0765",
    "lat": 34.078347,
    "lng": -118.132002
  },
  {
    "id": "980001093",
    "name": "BETHANY HOME HEALTH CARE",
    "npi": "1801076625",
    "hcaiId": "406194215",
    "businessName": "L & M HOME HEALTH CORPORATION",
    "contactEmail": "JUMC@BETHANYHHC.COM",
    "categoryName": "HOME HEALTH AGENCY",
    "categoryCode": "HHA",
    "licenseStatus": "ACTIVE",
    "inService": true,
    "licenseNumber": "980000607",
    "licenseEffectiveDate": "08/21/2025",
    "licenseExpirationDate": "08/20/2026",
    "dataDate": "10/18/2025",
    "capacity": 0,
    "address": "1101 W VALLEY BLVD, SUITE 207",
    "city": "ALHAMBRA",
    "zip": "91803",
    "county": "LOS ANGELES",
    "phone": "(626) 683-9778",
    "lat": 34.078239,
    "lng": -118.134954
  },
  {
    "id": "930000679",
    "name": "FRESENIUS MEDICAL CARE ALHAMBRA",
    "npi": "1821404740",
    "hcaiId": "306196684",
    "businessName": "FRESENIUS MEDICAL CARE ALHAMBRA, LLC",
    "contactEmail": "XINZHUAN.ZHOU@FMC-NA.COM",
    "categoryName": "CHRONIC DIALYSIS CLINIC",
    "categoryCode": "ESRD/CDC",
    "licenseStatus": "ACTIVE",
    "inService": true,
    "licenseNumber": "930000403",
    "licenseEffectiveDate": "07/01/2024",
    "licenseExpirationDate": "06/30/2025",
    "dataDate": "10/18/2025",
    "capacity": 21,
    "address": "2300 W VALLEY BLVD",
    "city": "ALHAMBRA",
    "zip": "91803",
    "county": "LOS ANGELES",
    "phone": "(626) 458-4726",
    "lat": 34.076673,
    "lng": -118.1490075
  },
  {
    "id": "060001941",
    "name": "M & T ADULT DAY HEALTH CARE CENTER",
    "npi": null,
    "hcaiId": null,
    "businessName": "M & T ADULT DAY HEALTH CARE CENTER, INC.",
    "contactEmail": "MTADHC@YAHOO.COM",
    "categoryName": "ADULT DAY HEALTH CARE",
    "categoryCode": "ADHC",
    "licenseStatus": "ACTIVE",
    "inService": true,
    "licenseNumber": "060000758",
    "licenseEffectiveDate": "11/06/2025",
    "licenseExpirationDate": "11/05/2026",
    "dataDate": "10/18/2025",
    "capacity": 0,
    "address": "820 W VALLEY BLVD",
    "city": "ALHAMBRA",
    "zip": "91803",
    "county": "LOS ANGELES",
    "phone": "(626) 943-0070",
    "lat": 34.077735,
    "lng": -118.132101
  },
  {
    "id": "630011341",
    "name": "PACIFIC RIM HOME HEALTH, INC.",
    "npi": "1396865234",
    "hcaiId": "406197190",
    "businessName": "PACIFIC RIM HOME HEALTH, INC.",
    "contactEmail": "MARROD@PACRIM.HEALTH",
    "categoryName": "HOME HEALTH AGENCY",
    "categoryCode": "HHA",
    "licenseStatus": "ACTIVE",
    "inService": true,
    "licenseNumber": "550000870",
    "licenseEffectiveDate": "05/10/2025",
    "licenseExpirationDate": "05/09/2026",
    "dataDate": "10/18/2025",
    "capacity": 0,
    "address": "2225 W COMMONWEALTH AVE, SUITE 202",
    "city": "ALHAMBRA",
    "zip": "91803",
    "county": "LOS ANGELES",
    "phone": "(626) 741-5264",
    "lat": 34.088436,
    "lng": -118.150524
  },
  {
    "id": "950000104",
    "name": "ROYAL GARDENS HEALTHCARE",
    "npi": "1710344361",
    "hcaiId": "206190809",
    "businessName": "ROYAL GARDENS HEALTHCARE, LLC",
    "contactEmail": "KSMITH@BEECANHEALTH.COM",
    "categoryName": "SKILLED NURSING FACILITY",
    "categoryCode": "SNF",
    "licenseStatus": "ACTIVE",
    "inService": true,
    "licenseNumber": "950000104",
    "licenseEffectiveDate": "12/22/2024",
    "licenseExpirationDate": "12/21/2025",
    "dataDate": "10/18/2025",
    "capacity": 43,
    "address": "2339 W VALLEY BLVD",
    "city": "ALHAMBRA",
    "zip": "91803",
    "county": "LOS ANGELES",
    "phone": "(626) 289-7809",
    "lat": 34.07733,
    "lng": -118.1494575
  },
  {
    "id": "930001520",
    "name": "SAN GABRIEL DIALYSIS CENTER",
    "npi": "1457463259",
    "hcaiId": "306194706",
    "businessName": "BIO-MEDICAL APPLICATIONS OF CALIFORNIA, INC.",
    "contactEmail": "ANA.CAMACHO@FRESENIUSMEDICALCARE.COM",
    "categoryName": "CHRONIC DIALYSIS CLINIC",
    "categoryCode": "ESRD/CDC",
    "licenseStatus": "ACTIVE",
    "inService": true,
    "licenseNumber": "930000869",
    "licenseEffectiveDate": "06/23/2025",
    "licenseExpirationDate": "06/22/2026",
    "dataDate": "10/18/2025",
    "capacity": 38,
    "address": "1801 W VALLEY BLVD, SUITE 102",
    "city": "ALHAMBRA",
    "zip": "91803",
    "county": "LOS ANGELES",
    "phone": "(626) 233-4919",
    "lat": 34.077762,
    "lng": -118.1433285
  },
  {
    "id": "630019306",
    "name": "SANTA ROSA HOSPICE",
    "npi": null,
    "hcaiId": "406192559",
    "businessName": "PRESPECTIVE HOSPICE, INC.",
    "contactEmail": "BETTY.CAMERAS@SANTAROSAHOSPICE.COM",
    "categoryName": "HOSPICE",
    "categoryCode": "HOSPICE",
    "licenseStatus": "ACTIVE",
    "inService": true,
    "licenseNumber": "550005390",
    "licenseEffectiveDate": "03/17/2025",
    "licenseExpirationDate": "03/13/2026",
    "dataDate": "10/18/2025",
    "capacity": 0,
    "address": "2200 S FREMONT AVE, UNIT 201",
    "city": "ALHAMBRA",
    "zip": "91803",
    "county": "LOS ANGELES",
    "phone": "(562) 202-3608",
    "lat": 34.06752176,
    "lng": -118.1490372
  },
  {
    "id": "630017789",
    "name": "SOULFUL TOUCH HOSPICE CARE, INC.",
    "npi": null,
    "hcaiId": "406192941",
    "businessName": "SOULFUL TOUCH HOSPICE CARE, INC.",
    "contactEmail": "HENRY@SOULFULTOUCHHOSPICE.COM",
    "categoryName": "HOSPICE",
    "categoryCode": "HOSPICE",
    "licenseStatus": "ACTIVE",
    "inService": true,
    "licenseNumber": "550005799",
    "licenseEffectiveDate": "10/13/2022",
    "licenseExpirationDate": "10/12/2024",
    "dataDate": "10/18/2025",
    "capacity": 0,
    "address": "1801 W VALLEY BLVD, SUITE 201",
    "city": "ALHAMBRA",
    "zip": "91803",
    "county": "LOS ANGELES",
    "phone": "(626) 898-9848",
    "lat": 34.077762,
    "lng": -118.1433285
  },
  {
    "id": "950000061",
    "name": "SUNNY VILLAGE CARE CENTER",
    "npi": "1730483058",
    "hcaiId": "206190386",
    "businessName": "TAG-2 MEDICAL INVESTMENT GROUP, LLC",
    "contactEmail": "EUGENE.TITO@SUNNYVILLAGECC.COM",
    "categoryName": "SKILLED NURSING FACILITY",
    "categoryCode": "SNF",
    "licenseStatus": "ACTIVE",
    "inService": true,
    "licenseNumber": "950000055",
    "licenseEffectiveDate": "03/25/2025",
    "licenseExpirationDate": "11/14/2025",
    "dataDate": "10/18/2025",
    "capacity": 99,
    "address": "1428 S MARENGO AVE",
    "city": "ALHAMBRA",
    "zip": "91803",
    "county": "LOS ANGELES",
    "phone": "(626) 979-5229",
    "lat": 34.07634,
    "lng": -118.1412945
  },
  {
    "id": "980002331",
    "name": "UNISON HEALTH SERVICES, INC.",
    "npi": "1194812255",
    "hcaiId": "406197093",
    "businessName": "UNISON HEALTH SERVICES, INC.",
    "contactEmail": "INTAKE@UNISONHOMEHEALTH.COM",
    "categoryName": "HOME HEALTH AGENCY",
    "categoryCode": "HHA",
    "licenseStatus": "ACTIVE",
    "inService": true,
    "licenseNumber": "980001441",
    "licenseEffectiveDate": "12/23/2024",
    "licenseExpirationDate": "12/22/2025",
    "dataDate": "10/18/2025",
    "capacity": 0,
    "address": "2200 S FREMONT AVE, UNIT 202",
    "city": "ALHAMBRA",
    "zip": "91803",
    "county": "LOS ANGELES",
    "phone": "(626) 280-5575",
    "lat": 34.06751401,
    "lng": -118.149029
  }
]