[
  {
    "id": "930001801",
    "name": "ADVANCED DIAGNOSTIC & SURGICAL CENTER",
    "npi": "1952355851",
    "hcaiId": "306196505",
    "businessName": "ADVANCED DIAGNOSTIC & SURGICAL CENTER, INC.",
    "contactEmail": "POLLYLEELAM@HOTMAIL.COM",
    "categoryName": "SURGICAL CLINIC",
    "categoryCode": "ASC",
    "licenseStatus": "INACTIVE - CAPEN DECISION",
    "inService": false,
    "licenseNumber": "930000997",
    "licenseEffectiveDate": "11/05/2007",
    "licenseExpirationDate": "11/04/2008",
    "dataDate": "10/18/2025",
    "capacity": 0,
    "address": "1668 S GARFIELD AVE, SUITE 100",
    "city": "ALHAMBRA",
    "zip": "91801",
    "county": "LOS ANGELES",
    "phone": "(626) 308-9000",
    "lat": 34.075539,
    "lng": -118.122687
  },
  {
    "id": "950000101",
    "name": "ALHAMBRA HEALTHCARE & WELLNESS CENTRE, LP",
    "npi": "1629339809",
    "hcaiId": "206190018",
    "businessName": "ALHAMBRA HEALTHCARE & WELLNESS CENTRE, LP",
    "contactEmail": "ADMINISTRATOR@ALHAMBRAHC.COM",
    "categoryName": "SKILLED NURSING FACILITY",
    "categoryCode": "SNF",
    "licenseStatus": "ACTIVE",
    "inService": true,
    "licenseNumber": "950000008",
    "licenseEffectiveDate": "09/24/2025",
    "licenseExpirationDate": "09/23/2026",
    "dataDate": "10/18/2025",
    "capacity": 97,
    "address": "415 S GARFIELD AVE",
    "city": "ALHAMBRA",
    "zip": "91801",
    "county": "LOS ANGELES",
    "phone": "(626) 282-3151",
    "lat": 34.09075182,
    "lng": -118.1238572
  },
  {
    "id": "930000005",
    "name": "ALHAMBRA HOSPITAL MEDICAL CENTER",
    "npi": "1588793574",
    "hcaiId": "106190017",
    "businessName": "ALHAMBRA HOSPITAL MEDICAL CENTER, L.P.",
    "contactEmail": "INFO@ALHAMBRAHOSPITAL.COM",
    "categoryName": "GENERAL ACUTE CARE HOSPITAL",
    "categoryCode": "GACH",
    "licenseStatus": "ACTIVE",
    "inService": true,
    "licenseNumber": "930000005",
    "licenseEffectiveDate": "11/28/2024",
    "licenseExpirationDate": "11/27/2025",
    "dataDate": "10/18/2025",
    "capacity": 118,
    "address": "100 S RAYMOND AVE",
    "city": "ALHAMBRA",
    "zip": "91801",
    "county": "LOS ANGELES",
    "phone": "(626) 458-4770",
    "lat": 34.090488,
    "lng": -118.144098
  },
  {
    "id": "930000793",
    "name": "ALHAMBRA HOSPITAL MEDICAL CENTER D/P SNF",
    "npi": "1134263254",
    "hcaiId": null,
    "businessName": "ALHAMBRA HOSPITAL MEDICAL CENTER, L.P.",
    "contactEmail": "ILAI@ALHAMBRAHOSPITAL.COM",
    "categoryName": "SKILLED NURSING FACILITY",
    "categoryCode": "SNF",
    "licenseStatus": "ACTIVE",
    "inService": true,
    "licenseNumber": "930000005",
    "licenseEffectiveDate": "11/28/2024",
    "licenseExpirationDate": "11/27/2025",
    "dataDate": "10/18/2025",
    "capacity": 26,
    "address": "100 S RAYMOND AVE",
    "city": "ALHAMBRA",
    "zip": "91801",
    "county": "LOS ANGELES",
    "phone": "(626) 570-1606",
    "lat": 34.090488,
    "lng": -118.144098
  },
  {
    "id": "630020672",
    "name": "ALHAMBRA KIDNEY CARE",
    "npi": null,
    "hcaiId": "306198403",
    "businessName": "TOTAL RENAL CARE, INC.",
    "contactEmail": "CAL_C@DAVITA.COM",
    "categoryName": "CHRONIC DIALYSIS CLINIC",
    "categoryCode": "ESRD/CDC",
    "licenseStatus": "ACTIVE",
    "inService": true,
    "licenseNumber": "550007157",
    "licenseEffectiveDate": "11/04/2025",
    "licenseExpirationDate": "11/03/2026",
    "dataDate": "10/18/2025",
    "capacity": 27,
    "address": "1237 E MAIN ST",
    "city": "ALHAMBRA",
    "zip": "91801",
    "county": "LOS ANGELES",
    "phone": "(626) 741-0707",
    "lat": 34.101648,
    "lng": -118.11411
  },
  {
    "id": "980002371",
    "name": "ALLEGIANCE HOME HEALTH, INC.",
    "npi": "1922022532",
    "hcaiId": "406196798",
    "businessName": "ALLEGIANCE HOME HEALTH, INC.",
    "contactEmail": "ALLEGIANCEHOMEHEALTHUSA@GMAIL.COM",
    "categoryName": "HOME HEALTH AGENCY",
    "categoryCode": "HHA",
    "licenseStatus": "ACTIVE",
    "inService": true,
    "licenseNumber": "980001481",
    "licenseEffectiveDate": "05/08/2025",
    "licenseExpirationDate": "05/07/2026",
    "dataDate": "10/18/2025",
    "capacity": 0,
    "address": "801 S GARFIELD AVE, SUITE 238",
    "city": "ALHAMBRA",
    "zip": "91801",
    "county": "LOS ANGELES",
    "phone": "(626) 281-8600",
    "lat": 34.087059,
    "lng": -118.123407
  },
  {
    "id": "630013872",
    "name": "ALLIED HOSPICE",
    "npi": "1326414996",
    "hcaiId": "406198111",
    "businessName": "ALLIED PACIFIC HOSPICE LLC",
    "contactEmail": "ALLIEDPACIFICHOSPICE@GMAIL.COM",
    "categoryName": "HOSPICE",
    "categoryCode": "HOSPICE",
    "licenseStatus": "ACTIVE",
    "inService": true,
    "licenseNumber": "550002442",
    "licenseEffectiveDate": "01/25/2024",
    "licenseExpirationDate": "01/24/2026",
    "dataDate": "10/18/2025",
    "capacity": 0,
    "address": "1680 S GARFIELD AVE, SUITE 205",
    "city": "ALHAMBRA",
    "zip": "91801",
    "county": "LOS ANGELES",
    "phone": "(626) 280-8875",
    "lat": 34.075062,
    "lng": -118.122624
  },
  {
    "id": "950000039",
    "name": "ATHERTON",
    "npi": "1528049954",
    "hcaiId": "206190858",
    "businessName": "ATHERTON BAPTIST HOMES",
    "contactEmail": "JMEDINA@ABH.ORG",
    "categoryName": "SKILLED NURSING FACILITY",
    "categoryCode": "SNF",
    "licenseStatus": "ACTIVE",
    "inService": true,
    "licenseNumber": "950000105",
    "licenseEffectiveDate": "11/07/2025",
    "licenseExpirationDate": "11/06/2026",
    "dataDate": "10/18/2025",
    "capacity": 70,
    "address": "214 S ATLANTIC BLVD",
    "city": "ALHAMBRA",
    "zip": "91801",
    "county": "LOS ANGELES",
    "phone": "(626) 289-4178",
    "lat": 34.088634,
    "lng": -118.1337165
  },
  {
    "id": "960002737",
    "name": "BUDDHIST TZU CHI FREE CLINIC (MOBILE CLINIC)",
    "npi": null,
    "hcaiId": "306196288",
    "businessName": "BUDDHIST TZU CHI MEDICAL  FOUNDATION",
    "contactEmail": "MOBILECLINIC@TZUCHIMEDICAL.US",
    "categoryName": "PRIMARY CARE CLINIC",
    "categoryCode": "FREEC",
    "licenseStatus": "ACTIVE",
    "inService": true,
    "licenseNumber": "960001356",
    "licenseEffectiveDate": "03/27/2025",
    "licenseExpirationDate": "03/26/2026",
    "dataDate": "10/18/2025",
    "capacity": 0,
    "address": "1000 S GARFIELD AVE",
    "city": "ALHAMBRA",
    "zip": "91801",
    "county": "LOS ANGELES",
    "phone": "(559) 291-8800",
    "lat": 34.084512,
    "lng": -118.1226375
  },
  {
    "id": "960001672",
    "name": "BUDDHIST TZU CHI HEALTH CENTER",
    "npi": "1639398704",
    "hcaiId": "306194481",
    "businessName": "BUDDHIST TZU CHI MEDICAL  FOUNDATION",
    "contactEmail": "ALBERT.HUANG@TZUCHIMEDICAL.US",
    "categoryName": "PRIMARY CARE CLINIC",
    "categoryCode": "FREEC",
    "licenseStatus": "ACTIVE",
    "inService": true,
    "licenseNumber": "960000851",
    "licenseEffectiveDate": "12/07/2024",
    "licenseExpirationDate": "12/06/2025",
    "dataDate": "10/18/2025",
    "capacity": 0,
    "address": "1000 S GARFIELD AVE",
    "city": "ALHAMBRA",
    "zip": "91801",
    "county": "LOS ANGELES",
    "phone": "(626) 866-9879",
    "lat": 34.084512,
    "lng": -118.1226375
  },
  {
    "id": "630019727",
    "name": "CALSTRO HOSPICE LOS ANGELES",
    "npi": null,
    "hcaiId": "406192925",
    "businessName": "CREATIVE HOSPICE CARE INC",
    "contactEmail": "ALEX.CASTRO@CALSTROHOSPICE.COM",
    "categoryName": "HOSPICE",
    "categoryCode": "HOSPICE",
    "licenseStatus": "ACTIVE",
    "inService": true,
    "licenseNumber": "550005763",
    "licenseEffectiveDate": "09/03/2024",
    "licenseExpirationDate": "09/02/2026",
    "dataDate": "10/18/2025",
    "capacity": 0,
    "address": "430 S GARFIELD AVE, SUITE 300",
    "city": "ALHAMBRA",
    "zip": "91801",
    "county": "LOS ANGELES",
    "phone": "(213) 758-8880",
    "lat": 34.090335,
    "lng": -118.123065
  },
  {
    "id": "980002255",
    "name": "CARE BEST HOME HEALTH, INC.",
    "npi": "1942207758",
    "hcaiId": "406196713",
    "businessName": "CARE BEST HOME HEALTH, INC.",
    "contactEmail": "EXECUTIVECB@GMAIL.COM",
    "categoryName": "HOME HEALTH AGENCY",
    "categoryCode": "HHA",
    "licenseStatus": "ACTIVE",
    "inService": true,
    "licenseNumber": "980001371",
    "licenseEffectiveDate": "04/03/2025",
    "licenseExpirationDate": "04/02/2026",
    "dataDate": "10/18/2025",
    "capacity": 0,
    "address": "200 S GARFIELD AVE, SUITE 205",
    "city": "ALHAMBRA",
    "zip": "91801",
    "county": "LOS ANGELES",
    "phone": "(626) 282-2611",
    "lat": 34.093089,
    "lng": -118.124973
  },
  {
    "id": "630026390",
    "name": "CHINATOWN SERVICE CENTER",
    "npi": "1427046754",
    "hcaiId": null,
    "businessName": "CHINATOWN SERVICE CENTER",
    "contactEmail": "JACHENG@CSCLA.ORG",
    "categoryName": "PRIMARY CARE CLINIC",
    "categoryCode": "COMTYC",
    "licenseStatus": "ACTIVE",
    "inService": true,
    "licenseNumber": "960000220",
    "licenseEffectiveDate": "01/16/2025",
    "licenseExpirationDate": "01/15/2026",
    "dataDate": "10/18/2025",
    "capacity": 0,
    "address": "320 S GARFIELD AVE, SUITE 202",
    "city": "ALHAMBRA",
    "zip": "91801",
    "county": "LOS ANGELES",
    "phone": "(213) 808-1709",
    "lat": 34.091937,
    "lng": -118.12428
  },
  {
    "id": "630021296",
    "name": "CHINATOWN SERVICE CENTER - ALHAMBRA",
    "npi": "1427046754",
    "hcaiId": null,
    "businessName": "CHINATOWN SERVICE CENTER",
    "contactEmail": null,
    "categoryName": "PRIMARY CARE CLINIC",
    "categoryCode": "COMTYC",
    "licenseStatus": "ACTIVE",
    "inService": true,
    "licenseNumber": "960000220",
    "licenseEffectiveDate": "01/16/2025",
    "licenseExpirationDate": "01/15/2026",
    "dataDate": "10/18/2025",
    "capacity": 0,
    "address": "320 S GARFIELD AVE, SUITE 106",
    "city": "ALHAMBRA",
    "zip": "91801",
    "county": "LOS ANGELES",
    "phone": null,
    "lat": 34.091937,
    "lng": -118.12428
  },
  {
    "id": "630025764",
    "name": "CONCOURSE DIAGNOSTIC AND SURGERY CENTER (ALHAMBRA BRANCH)",
    "npi": null,
    "hcaiId": null,
    "businessName": null,
    "contactEmail": "CDSCSURGICAL@GMAIL.COM",
    "categoryName": "SURGICAL CLINIC",
    "categoryCode": "ASC",
    "licenseStatus": null,
    "inService": null,
    "licenseNumber": null,
    "licenseEffectiveDate": null,
    "licenseExpirationDate": null,
    "dataDate": "10/18/2025",
    "capacity": 0,
    "address": "707 S GARFIELD AVE, SUITE 101",
    "city": "ALHAMBRA",
    "zip": "91801",
    "county": "LOS ANGELES",
    "phone": "(626) 872-0347",
    "lat": 34.088697,
    "lng": -118.1234835
  },
  {
    "id": "630012981",
    "name": "CSC COMMUNITY HEALTH CENTER - SAN GABRIEL VALLEY",
    "npi": "1134482326",
    "hcaiId": "306197166",
    "businessName": "CHINATOWN SERVICE CENTER",
    "contactEmail": "JSKHOO@CSCLA.ORG",
    "categoryName": "PRIMARY CARE CLINIC",
    "categoryCode": "COMTYC",
    "licenseStatus": "ACTIVE",
    "inService": true,
    "licenseNumber": "960000220",
    "licenseEffectiveDate": "01/16/2025",
    "licenseExpirationDate": "01/15/2026",
    "dataDate": "10/18/2025",
    "capacity": 0,
    "address": "320 S GARFIELD AVE, SUITE 118",
    "city": "ALHAMBRA",
    "zip": "91801",
    "county": "LOS ANGELES",
    "phone": "(213) 808-1701",
    "lat": 34.091937,
    "lng": -118.12428
  },
  {
    "id": "630017220",
    "name": "CSC COMMUNITY HEALTH CENTER - SAN GABRIEL VALLEY DENTAL",
    "npi": "1427046754",
    "hcaiId": null,
    "businessName": "CHINATOWN SERVICE CENTER",
    "contactEmail": null,
    "categoryName": "PRIMARY CARE CLINIC",
    "categoryCode": "COMTYC",
    "licenseStatus": "ACTIVE",
    "inService": true,
    "licenseNumber": "960000220",
    "licenseEffectiveDate": "01/16/2025",
    "licenseExpirationDate": "01/15/2026",
    "dataDate": "10/18/2025",
    "capacity": 0,
    "address": "320 S GARFIELD AVE, SUITE 126",
    "city": "ALHAMBRA",
    "zip": "91801",
    "county": "LOS ANGELES",
    "phone": null,
    "lat": 34.091937,
    "lng": -118.12428
  },
  {
    "id": "630023754",
    "name": "JEWEL CITY HOME HEALTH INC",
    "npi": null,
    "hcaiId": "406195863",
    "businessName": "JEWEL CITY HOME HEALTH, INC.",
    "contactEmail": "JEWELCITYHH@GMAIL.COM",
    "categoryName": "HOME HEALTH AGENCY",
    "categoryCode": "HHA",
    "licenseStatus": "ACTIVE",
    "inService": true,
    "licenseNumber": "550008018",
    "licenseEffectiveDate": "06/02/2025",
    "licenseExpirationDate": "06/01/2026",
    "dataDate": "10/18/2025",
    "capacity": 0,
    "address": "1641 W MAIN ST, SUITE 302",
    "city": "ALHAMBRA",
    "zip": "91801",
    "county": "LOS ANGELES",
    "phone": "(626) 537-1127",
    "lat": 34.09182,
    "lng": -118.141389
  },
  {
    "id": "630012272",
    "name": "PLANNED PARENTHOOD ALHAMBRA HEALTH CENTER",
    "npi": "1861636177",
    "hcaiId": "306197328",
    "businessName": "PLANNED PARENTHOOD PASADENA AND SAN GABRIEL VALLEY, INC.",
    "contactEmail": "CPOGUE@PPPSVG.ORG",
    "categoryName": "PRIMARY CARE CLINIC",
    "categoryCode": "COMTYC",
    "licenseStatus": "ACTIVE",
    "inService": true,
    "licenseNumber": "550001114",
    "licenseEffectiveDate": "11/13/2025",
    "licenseExpirationDate": "11/12/2026",
    "dataDate": "10/18/2025",
    "capacity": 0,
    "address": "330 S. GARFIELD AVENUE, SUITE 300",
    "city": "ALHAMBRA",
    "zip": "91801",
    "county": "LOS ANGELES",
    "phone": "(626) 794-5737",
    "lat": 34.091496,
    "lng": -118.124019
  },
  {
    "id": "630017773",
    "name": "ROYAL REGENCY HOME HEALTH, INC.",
    "npi": null,
    "hcaiId": "406192356",
    "businessName": "ROYAL REGENCY HOME HEALTH, INC.",
    "contactEmail": "ZHANG8653@HOTMAIL.COM",
    "categoryName": "HOME HEALTH AGENCY",
    "categoryCode": "HHA",
    "licenseStatus": "ACTIVE",
    "inService": true,
    "licenseNumber": "550005204",
    "licenseEffectiveDate": "10/29/2025",
    "licenseExpirationDate": "12/18/2025",
    "dataDate": "10/18/2025",
    "capacity": 0,
    "address": "1641 W MAIN ST, SUITE 216",
    "city": "ALHAMBRA",
    "zip": "91801",
    "county": "LOS ANGELES",
    "phone": "(818) 660-0260",
    "lat": 34.092018,
    "lng": -118.141389
  },
  {
    "id": "980001789",
    "name": "VIP HOME HEALTH CARE AGENCY",
    "npi": "1952378812",
    "hcaiId": "406194923",
    "businessName": "ANBE BERHANE & ELSA RUSSOM",
    "contactEmail": "VIPHHA@PACBELL.NET",
    "categoryName": "HOME HEALTH AGENCY",
    "categoryCode": "HHA",
    "licenseStatus": "ACTIVE",
    "inService": true,
    "licenseNumber": "980001072",
    "licenseEffectiveDate": "01/10/2025",
    "licenseExpirationDate": "01/09/2026",
    "dataDate": "10/18/2025",
    "capacity": 0,
    "address": "1224 S GARFIELD AVE, SUITE 204",
    "city": "ALHAMBRA",
    "zip": "91801",
    "county": "LOS ANGELES",
    "phone": "(626) 293-1339",
    "lat": 34.079769,
    "lng": -118.122759
  }
]