[
  {
    "id": "630017391",
    "name": "ARIA HOSPICE LLC - BRANCH",
    "npi": "1689009128",
    "hcaiId": null,
    "businessName": "ARIA HOSPICE, LLC",
    "contactEmail": "TERESASTARRS@HOTMAIL.COM",
    "categoryName": "HOSPICE",
    "categoryCode": "HOSPICE",
    "licenseStatus": "ACTIVE",
    "inService": true,
    "licenseNumber": "550002567",
    "licenseEffectiveDate": "01/23/2024",
    "licenseExpirationDate": "01/22/2026",
    "dataDate": "10/18/2025",
    "capacity": 0,
    "address": "1411 ROCK TER, SUITE B",
    "city": "ALPINE",
    "zip": "91901",
    "county": "SAN DIEGO",
    "phone": "(619) 540-7477",
    "lat": 32.83423099,
    "lng": -116.753595
  },
  {
    "id": "630017783",
    "name": "LA PAZ HOSPICE INC",
    "npi": null,
    "hcaiId": "406371925",
    "businessName": "LA PAZ HOSPICE INC",
    "contactEmail": "TERESA@ARIAHOSPICE.COM",
    "categoryName": "HOSPICE",
    "categoryCode": "HOSPICE",
    "licenseStatus": "ACTIVE",
    "inService": true,
    "licenseNumber": "550004941",
    "licenseEffectiveDate": "08/27/2025",
    "licenseExpirationDate": "08/26/2027",
    "dataDate": "10/18/2025",
    "capacity": 0,
    "address": "1411 ROCK TER, SUITE B2",
    "city": "ALPINE",
    "zip": "91901",
    "county": "SAN DIEGO",
    "phone": "(480) 215-6706",
    "lat": 32.83423099,
    "lng": -116.753595
  },
  {
    "id": "090001602",
    "name": "SAN YSIDRO HEALTH ALPINE FAMILY MEDICINE",
    "npi": null,
    "hcaiId": "306374351",
    "businessName": "CENTRO DE SALUD DE LA COMUNIDAD DE SAN YSIDRO, INC.",
    "contactEmail": "TIM.MIOTTO@SYHEALTH.ORG",
    "categoryName": "PRIMARY CARE CLINIC",
    "categoryCode": "COMTYC",
    "licenseStatus": "ACTIVE",
    "inService": true,
    "licenseNumber": "550002514",
    "licenseEffectiveDate": "01/20/2025",
    "licenseExpirationDate": "01/19/2026",
    "dataDate": "10/18/2025",
    "capacity": 0,
    "address": "1620 ALPINE BLVD, SUITE 107-109,110,111,114,116-119,123,211,227",
    "city": "ALPINE",
    "zip": "91901",
    "county": "SAN DIEGO",
    "phone": "(619) 662-4100",
    "lat": 32.838273,
    "lng": -116.779923
  },
  {
    "id": "080000632",
    "name": "SOUTHERN INDIAN HEALTH COUNCIL, INC.-EXEMPT RHC",
    "npi": null,
    "hcaiId": null,
    "businessName": null,
    "contactEmail": null,
    "categoryName": "PRIMARY CARE CLINIC",
    "categoryCode": "RHC",
    "licenseStatus": null,
    "inService": null,
    "licenseNumber": null,
    "licenseEffectiveDate": null,
    "licenseExpirationDate": null,
    "dataDate": "10/18/2025",
    "capacity": 0,
    "address": "4058 WILLOWS RD",
    "city": "ALPINE",
    "zip": "91901",
    "county": "SAN DIEGO",
    "phone": "(619) 445-1188",
    "lat": 32.836338,
    "lng": -116.725725
  },
  {
    "id": "080001686",
    "name": "THERAPY SPECIALISTS EXT.",
    "npi": null,
    "hcaiId": null,
    "businessName": null,
    "contactEmail": null,
    "categoryName": "OTHER",
    "categoryCode": "UNLICEN",
    "licenseStatus": null,
    "inService": null,
    "licenseNumber": null,
    "licenseEffectiveDate": null,
    "licenseExpirationDate": null,
    "dataDate": "10/18/2025",
    "capacity": 0,
    "address": "2120 ALPINE BLVD",
    "city": "ALPINE",
    "zip": "91901",
    "county": "SAN DIEGO",
    "phone": "(000) 000-0000",
    "lat": 32.836968,
    "lng": -116.768826
  }
]