[
  {
    "id": "630027587",
    "name": "CARING ANGELS HOME HEALTH CARE LLC",
    "npi": null,
    "hcaiId": null,
    "businessName": "CARING ANGELS HOME HEALTH CARE, LLC",
    "contactEmail": "MANAGEMENT@CARINGANGELSSD.COM",
    "categoryName": "HOME HEALTH AGENCY",
    "categoryCode": "HHA",
    "licenseStatus": "ACTIVE",
    "inService": true,
    "licenseNumber": "550009886",
    "licenseEffectiveDate": "06/23/2025",
    "licenseExpirationDate": "12/22/2025",
    "dataDate": "10/18/2025",
    "capacity": 0,
    "address": "2560 CATAMARAN WAY, SUITE 8",
    "city": "CHULA VISTA",
    "zip": "91914",
    "county": "SAN DIEGO",
    "phone": "(626) 665-4105",
    "lat": 32.65543498,
    "lng": -116.957953
  },
  {
    "id": "630014887",
    "name": "FRESENIUS MEDICAL CARE EAST LAKES",
    "npi": "1679814768",
    "hcaiId": "306374506",
    "businessName": "FRESENIUS MEDICAL CARE EAST LAKES LLC",
    "contactEmail": "CLINIC8647@FRESENIUSMEDICALCARE.COM",
    "categoryName": "CHRONIC DIALYSIS CLINIC",
    "categoryCode": "ESRD/CDC",
    "licenseStatus": "ACTIVE",
    "inService": true,
    "licenseNumber": "550002635",
    "licenseEffectiveDate": "02/19/2025",
    "licenseExpirationDate": "02/18/2026",
    "dataDate": "10/18/2025",
    "capacity": 25,
    "address": "2391 BOSWELL RD",
    "city": "CHULA VISTA",
    "zip": "91914",
    "county": "SAN DIEGO",
    "phone": "(619) 397-0939",
    "lat": 32.656059,
    "lng": -116.9625195
  },
  {
    "id": "630027794",
    "name": "HEALTH FIX HOME HEALTH",
    "npi": null,
    "hcaiId": null,
    "businessName": "HEALTH FIX HOME HEALTH",
    "contactEmail": "INFO@HOMEFIXHOMEHEALTH.COM",
    "categoryName": "HOME HEALTH AGENCY",
    "categoryCode": "HHA",
    "licenseStatus": "ACTIVE",
    "inService": true,
    "licenseNumber": "550009815",
    "licenseEffectiveDate": "10/26/2025",
    "licenseExpirationDate": "04/25/2026",
    "dataDate": "10/18/2025",
    "capacity": 0,
    "address": "2400 FENTON ST, SUITE 211",
    "city": "CHULA VISTA",
    "zip": "91914",
    "county": "SAN DIEGO",
    "phone": "(619) 400-3146",
    "lat": 32.65206299,
    "lng": -116.960746
  },
  {
    "id": "630010916",
    "name": "OTAY LAKES SURGERY CENTER, LLC",
    "npi": "1376595421",
    "hcaiId": "306374383",
    "businessName": "OTAY LAKES SURGERY CENTER, LLC",
    "contactEmail": "SPENA@OTAYLAKESSURGERY.COM",
    "categoryName": "SURGICAL CLINIC",
    "categoryCode": "ASC",
    "licenseStatus": "INACTIVE - CAPEN DECISION",
    "inService": false,
    "licenseNumber": "550000297",
    "licenseEffectiveDate": "10/30/2007",
    "licenseExpirationDate": "11/29/2008",
    "dataDate": "10/18/2025",
    "capacity": 0,
    "address": "955 LANE AVE, SUITE 100",
    "city": "CHULA VISTA",
    "zip": "91914",
    "county": "SAN DIEGO",
    "phone": "(619) 754-2260",
    "lat": 32.651298,
    "lng": -116.9611875
  },
  {
    "id": "630025889",
    "name": "SANDERLING DIALYSIS OF CHULA VISTA",
    "npi": null,
    "hcaiId": "306370754",
    "businessName": "SRS-SAN DIEGO LLC",
    "contactEmail": "JST@SANDERLINGLLC.COM",
    "categoryName": "CHRONIC DIALYSIS CLINIC",
    "categoryCode": "ESRD/CDC",
    "licenseStatus": "ACTIVE",
    "inService": true,
    "licenseNumber": "550008292",
    "licenseEffectiveDate": "10/06/2025",
    "licenseExpirationDate": "10/05/2026",
    "dataDate": "10/18/2025",
    "capacity": 17,
    "address": "963 LANE AVE",
    "city": "CHULA VISTA",
    "zip": "91914",
    "county": "SAN DIEGO",
    "phone": "(615) 467-0140",
    "lat": 32.65056,
    "lng": -116.9611335
  }
]