[
  {
    "id": "630027913",
    "name": "3H HEALTH CARE SERVICES INC.",
    "npi": null,
    "hcaiId": null,
    "businessName": "3H HEALTH CARE SERVICES INC.",
    "contactEmail": "3HHEALTHCARESERVICES@GMAIL.COM",
    "categoryName": "HOME HEALTH AGENCY",
    "categoryCode": "HHA",
    "licenseStatus": "ACTIVE",
    "inService": true,
    "licenseNumber": "550009876",
    "licenseEffectiveDate": "07/01/2025",
    "licenseExpirationDate": "12/31/2025",
    "dataDate": "10/18/2025",
    "capacity": 0,
    "address": "333 H ST, SUITE 5000 OFFICE 535",
    "city": "CHULA VISTA",
    "zip": "91910",
    "county": "SAN DIEGO",
    "phone": "(619) 653-3742",
    "lat": 32.63438601,
    "lng": -117.078475
  },
  {
    "id": "630014003",
    "name": "ALFA SURGERY CENTER, LLC",
    "npi": "1659657856",
    "hcaiId": null,
    "businessName": null,
    "contactEmail": "ALAYO.ERICK@GMAIL.COM",
    "categoryName": "SURGICAL CLINIC",
    "categoryCode": "ASC",
    "licenseStatus": null,
    "inService": null,
    "licenseNumber": null,
    "licenseEffectiveDate": null,
    "licenseExpirationDate": null,
    "dataDate": "10/18/2025",
    "capacity": 0,
    "address": "400 E ST",
    "city": "CHULA VISTA",
    "zip": "91910",
    "county": "SAN DIEGO",
    "phone": "(619) 621-2622",
    "lat": 32.643288,
    "lng": -117.0854595
  },
  {
    "id": "630012748",
    "name": "BALBOA SOUTH BAY HOME THERAPIES",
    "npi": "1588988646",
    "hcaiId": null,
    "businessName": null,
    "contactEmail": null,
    "categoryName": "CHRONIC DIALYSIS CLINIC",
    "categoryCode": "ESRD",
    "licenseStatus": null,
    "inService": null,
    "licenseNumber": null,
    "licenseEffectiveDate": null,
    "licenseExpirationDate": null,
    "dataDate": "10/18/2025",
    "capacity": 0,
    "address": "340 4TH AVE, SUITE 18",
    "city": "CHULA VISTA",
    "zip": "91910",
    "county": "SAN DIEGO",
    "phone": "(619) 420-1798",
    "lat": 32.63831226,
    "lng": -117.083344
  },
  {
    "id": "630013686",
    "name": "BONITA HOMECARE, INC.",
    "npi": "1508139189",
    "hcaiId": "406374492",
    "businessName": "BONITA HOMECARE, INC.",
    "contactEmail": "GASHAW@BONITAHOMECARE.COM",
    "categoryName": "HOME HEALTH AGENCY",
    "categoryCode": "HHA",
    "licenseStatus": "ACTIVE",
    "inService": true,
    "licenseNumber": "550002280",
    "licenseEffectiveDate": "09/29/2025",
    "licenseExpirationDate": "09/28/2026",
    "dataDate": "10/18/2025",
    "capacity": 0,
    "address": "319 F ST, SUITE 205",
    "city": "CHULA VISTA",
    "zip": "91910",
    "county": "SAN DIEGO",
    "phone": "(619) 746-6978",
    "lat": 32.641272,
    "lng": -117.0808695
  },
  {
    "id": "630010893",
    "name": "BUEN TIEMPO DRIVE",
    "npi": "1982839320",
    "hcaiId": null,
    "businessName": "RSCR CALIFORNIA, INC.",
    "contactEmail": "JOSEPH.TONTODONATO@RESCARE.COM",
    "categoryName": "INTERMEDIATE CARE FACILITY-DD/H/N/CN/IID",
    "categoryCode": "ICFDDN",
    "licenseStatus": "ACTIVE",
    "inService": true,
    "licenseNumber": "550000768",
    "licenseEffectiveDate": "12/21/2024",
    "licenseExpirationDate": "12/20/2025",
    "dataDate": "10/18/2025",
    "capacity": 6,
    "address": "846 BUEN TIEMPO DR",
    "city": "CHULA VISTA",
    "zip": "91910",
    "county": "SAN DIEGO",
    "phone": "(619) 656-8956",
    "lat": 32.632533,
    "lng": -117.0355095
  },
  {
    "id": "630016670",
    "name": "CHULA VISTA FAMILY COUNSELING CENTER",
    "npi": "1023462066",
    "hcaiId": "306374556",
    "businessName": "FAMILY HEALTH CENTERS OF SAN DIEGO, INC.",
    "contactEmail": null,
    "categoryName": "PRIMARY CARE CLINIC",
    "categoryCode": "COMTYC",
    "licenseStatus": "ACTIVE",
    "inService": true,
    "licenseNumber": "550002061",
    "licenseEffectiveDate": "11/21/2025",
    "licenseExpirationDate": "11/20/2026",
    "dataDate": "10/18/2025",
    "capacity": 0,
    "address": "248 LANDIS AVENUE",
    "city": "CHULA VISTA",
    "zip": "91910",
    "county": "SAN DIEGO",
    "phone": null,
    "lat": 32.642919,
    "lng": -117.082008
  },
  {
    "id": "630012058",
    "name": "CHULA VISTA FAMILY HEALTH CENTER",
    "npi": "1346480837",
    "hcaiId": "306374421",
    "businessName": "FAMILY HEALTH CENTERS OF SAN DIEGO, INC.",
    "contactEmail": "LICENSING@FHCSD.ORG",
    "categoryName": "PRIMARY CARE CLINIC",
    "categoryCode": "COMTYC",
    "licenseStatus": "ACTIVE",
    "inService": true,
    "licenseNumber": "550002061",
    "licenseEffectiveDate": "11/21/2025",
    "licenseExpirationDate": "11/20/2026",
    "dataDate": "10/18/2025",
    "capacity": 0,
    "address": "251 LANDIS AVE",
    "city": "CHULA VISTA",
    "zip": "91910",
    "county": "SAN DIEGO",
    "phone": "(619) 515-2568",
    "lat": 32.642595,
    "lng": -117.0812385
  },
  {
    "id": "090000729",
    "name": "CORTE MARIA HOUSE",
    "npi": "1578745303",
    "hcaiId": null,
    "businessName": "THE ARC OF SAN DIEGO",
    "contactEmail": "KCLARK@ARC-SD.COM",
    "categoryName": "INTERMEDIATE CARE FACILITY-DD/H/N/CN/IID",
    "categoryCode": "ICFDDH",
    "licenseStatus": "ACTIVE",
    "inService": true,
    "licenseNumber": "090000327",
    "licenseEffectiveDate": "11/28/2024",
    "licenseExpirationDate": "11/27/2025",
    "dataDate": "10/18/2025",
    "capacity": 6,
    "address": "368 CORTE MARIA AVE",
    "city": "CHULA VISTA",
    "zip": "91910",
    "county": "SAN DIEGO",
    "phone": "(585) 410-5513",
    "lat": 32.64156,
    "lng": -117.069516
  },
  {
    "id": "090000769",
    "name": "ENDOSCOPY CENTER OF CHULA VISTA",
    "npi": "1093802225",
    "hcaiId": "306374181",
    "businessName": null,
    "contactEmail": "ROBTPENNER@AOL.COM",
    "categoryName": "SURGICAL CLINIC",
    "categoryCode": "ASC",
    "licenseStatus": "INACTIVE - CAPEN DECISION",
    "inService": false,
    "licenseNumber": "090000342",
    "licenseEffectiveDate": "11/27/2007",
    "licenseExpirationDate": "11/26/2008",
    "dataDate": "10/18/2025",
    "capacity": 0,
    "address": "681 3RD AVE, SUITE B",
    "city": "CHULA VISTA",
    "zip": "91910",
    "county": "SAN DIEGO",
    "phone": "(619) 425-2150",
    "lat": 32.628501,
    "lng": -117.074367
  },
  {
    "id": "080001615",
    "name": "FRESENIUS MEDICAL CARE MARINA BAY",
    "npi": "1801021399",
    "hcaiId": "306374121",
    "businessName": "FRESENIUS MEDICAL CARE BALBOA, LLC",
    "contactEmail": "LAARNI.PEREZ@FRESENIUSMEDICALCARE.COM",
    "categoryName": "CHRONIC DIALYSIS CLINIC",
    "categoryCode": "ESRD/CDC",
    "licenseStatus": "ACTIVE",
    "inService": true,
    "licenseNumber": "080000703",
    "licenseEffectiveDate": "11/01/2025",
    "licenseExpirationDate": "10/31/2026",
    "dataDate": "10/18/2025",
    "capacity": 31,
    "address": "630 BAY BLVD, SUITE 101",
    "city": "CHULA VISTA",
    "zip": "91910",
    "county": "SAN DIEGO",
    "phone": "(619) 420-6725",
    "lat": 32.624334,
    "lng": -117.095328
  },
  {
    "id": "630027023",
    "name": "LANDIS AVENUE DENTAL SERVICES",
    "npi": null,
    "hcaiId": null,
    "businessName": "FAMILY HEALTH CENTERS OF SAN DIEGO, INC.",
    "contactEmail": null,
    "categoryName": "PRIMARY CARE CLINIC",
    "categoryCode": "COMTYC",
    "licenseStatus": "ACTIVE",
    "inService": true,
    "licenseNumber": "550003553",
    "licenseEffectiveDate": "06/21/2025",
    "licenseExpirationDate": "06/20/2026",
    "dataDate": "10/18/2025",
    "capacity": 0,
    "address": "264 LANDIS AVE, SUITE 200",
    "city": "CHULA VISTA",
    "zip": "91910",
    "county": "SAN DIEGO",
    "phone": null,
    "lat": 32.642253,
    "lng": -117.0817065
  },
  {
    "id": "630024078",
    "name": "LANDIS AVENUE FAMILY COUNSELING CENTER",
    "npi": "1013952597",
    "hcaiId": null,
    "businessName": "FAMILY HEALTH CENTERS OF SAN DIEGO, INC.",
    "contactEmail": null,
    "categoryName": "PRIMARY CARE CLINIC",
    "categoryCode": "COMTYC",
    "licenseStatus": "ACTIVE",
    "inService": true,
    "licenseNumber": "550000024",
    "licenseEffectiveDate": "05/09/2025",
    "licenseExpirationDate": "05/08/2026",
    "dataDate": "10/18/2025",
    "capacity": 0,
    "address": "264 LANDIS AVE, SUITE 100",
    "city": "CHULA VISTA",
    "zip": "91910",
    "county": "SAN DIEGO",
    "phone": null,
    "lat": 32.642253,
    "lng": -117.0817065
  },
  {
    "id": "630012767",
    "name": "MODERN HOME HEALTH CARE, INC.",
    "npi": "1235459843",
    "hcaiId": "406374442",
    "businessName": "MODERN HOME HEALTH CARE, INC.",
    "contactEmail": "ADMIN@MODERNHHI.COM",
    "categoryName": "HOME HEALTH AGENCY",
    "categoryCode": "HHA",
    "licenseStatus": "ACTIVE",
    "inService": true,
    "licenseNumber": "550001416",
    "licenseEffectiveDate": "11/16/2025",
    "licenseExpirationDate": "11/15/2026",
    "dataDate": "10/18/2025",
    "capacity": 0,
    "address": "3130 BONITA RD, SUITE 103",
    "city": "CHULA VISTA",
    "zip": "91910",
    "county": "SAN DIEGO",
    "phone": "(619) 476-6619",
    "lat": 32.647455,
    "lng": -117.056763
  },
  {
    "id": "060002076",
    "name": "OPEN ARMS ADULT DAY HEALTHCARE",
    "npi": null,
    "hcaiId": null,
    "businessName": "WECARE HEALTHCARE GROUP LLC",
    "contactEmail": "OPENARMSADHC@GMAIL.COM",
    "categoryName": "ADULT DAY HEALTH CARE",
    "categoryCode": "ADHC",
    "licenseStatus": "ACTIVE",
    "inService": true,
    "licenseNumber": "060000842",
    "licenseEffectiveDate": "11/02/2025",
    "licenseExpirationDate": "11/01/2026",
    "dataDate": "10/18/2025",
    "capacity": 0,
    "address": "301 E J ST",
    "city": "CHULA VISTA",
    "zip": "91910",
    "county": "SAN DIEGO",
    "phone": "(805) 728-5492",
    "lat": 32.63401008,
    "lng": -117.0516002
  },
  {
    "id": "630014506",
    "name": "SAN YSIDRO HEALTH CHULA VISTA",
    "npi": "1326486861",
    "hcaiId": "306374498",
    "businessName": "CENTRO DE SALUD DE LA COMUNIDAD DE SAN YSIDRO, INC.",
    "contactEmail": "SHAMETT@SYHEALTH.ORG",
    "categoryName": "PRIMARY CARE CLINIC",
    "categoryCode": "COMTYC",
    "licenseStatus": "ACTIVE",
    "inService": true,
    "licenseNumber": "550002394",
    "licenseEffectiveDate": "09/12/2025",
    "licenseExpirationDate": "09/11/2026",
    "dataDate": "10/18/2025",
    "capacity": 0,
    "address": "678 THIRD AVE",
    "city": "CHULA VISTA",
    "zip": "91910",
    "county": "SAN DIEGO",
    "phone": "(619) 662-4100",
    "lat": 32.628591,
    "lng": -117.075339
  },
  {
    "id": "630025999",
    "name": "SAN YSIDRO HEALTH SOUTH BAY\tPEDIATRICS",
    "npi": "1326486861",
    "hcaiId": null,
    "businessName": "CENTRO DE SALUD DE LA COMUNIDAD DE SAN YSIDRO, INC.",
    "contactEmail": "TWHITAKER@SYHEALTH.ORG",
    "categoryName": "PRIMARY CARE CLINIC",
    "categoryCode": "COMTYC",
    "licenseStatus": "ACTIVE",
    "inService": true,
    "licenseNumber": "550002394",
    "licenseEffectiveDate": "09/12/2025",
    "licenseExpirationDate": "09/11/2026",
    "dataDate": "10/18/2025",
    "capacity": 0,
    "address": "280 E ST",
    "city": "CHULA VISTA",
    "zip": "91910",
    "county": "SAN DIEGO",
    "phone": "(619) 662-4100",
    "lat": 32.644746,
    "lng": -117.0804465
  },
  {
    "id": "630026978",
    "name": "SAN YSIDRO HEALTH SOUTH BAY LATINO RESEARCH CENTER",
    "npi": null,
    "hcaiId": null,
    "businessName": "CENTRO DE SALUD DE LA COMUNIDAD DE SAN YSIDRO, INC.",
    "contactEmail": null,
    "categoryName": "PRIMARY CARE CLINIC",
    "categoryCode": "COMTYC",
    "licenseStatus": "ACTIVE",
    "inService": true,
    "licenseNumber": "090000136",
    "licenseEffectiveDate": "01/02/2025",
    "licenseExpirationDate": "01/01/2026",
    "dataDate": "10/18/2025",
    "capacity": 0,
    "address": "780 BAY BLVD, SUITE 200",
    "city": "CHULA VISTA",
    "zip": "91910",
    "county": "SAN DIEGO",
    "phone": null,
    "lat": 32.61847999,
    "lng": -117.0923458
  },
  {
    "id": "630022007",
    "name": "SAN YSIDRO HEALTH TIERRA DEL REY",
    "npi": "1821275132",
    "hcaiId": null,
    "businessName": "CENTRO DE SALUD DE LA COMUNIDAD DE SAN YSIDRO, INC.",
    "contactEmail": "APRIL.NOBLE@SYHEALTH.ORG",
    "categoryName": "PRIMARY CARE CLINIC",
    "categoryCode": "COMTYC",
    "licenseStatus": "ACTIVE",
    "inService": true,
    "licenseNumber": "090000622",
    "licenseEffectiveDate": "11/25/2025",
    "licenseExpirationDate": "11/24/2026",
    "dataDate": "10/18/2025",
    "capacity": 0,
    "address": "1061 TIERRA DEL REY, SUITE 303,304, 305",
    "city": "CHULA VISTA",
    "zip": "91910",
    "county": "SAN DIEGO",
    "phone": "(619) 662-4100",
    "lat": 32.638374,
    "lng": -117.0155655
  },
  {
    "id": "630021273",
    "name": "SAN YSIDRO HEALTH URGENT CARE",
    "npi": null,
    "hcaiId": "306370619",
    "businessName": "CENTRO DE SALUD DE LA COMUNIDAD DE SAN YSIDRO, INC.",
    "contactEmail": "SHAMETT@SYHEALTH.ORG",
    "categoryName": "PRIMARY CARE CLINIC",
    "categoryCode": "COMTYC",
    "licenseStatus": "ACTIVE",
    "inService": true,
    "licenseNumber": "550006060",
    "licenseEffectiveDate": "12/14/2024",
    "licenseExpirationDate": "12/13/2025",
    "dataDate": "10/18/2025",
    "capacity": 0,
    "address": "333 H ST, SUITE 2080",
    "city": "CHULA VISTA",
    "zip": "91910",
    "county": "SAN DIEGO",
    "phone": "(619) 662-4100",
    "lat": 32.6340677,
    "lng": -117.0786441
  },
  {
    "id": "090000016",
    "name": "SCRIPPS MERCY HOSPITAL CHULA VISTA",
    "npi": "1659359446",
    "hcaiId": "106370658",
    "businessName": "SCRIPPS HEALTH",
    "contactEmail": null,
    "categoryName": "GENERAL ACUTE CARE HOSPITAL",
    "categoryCode": "GACH",
    "licenseStatus": "ACTIVE",
    "inService": true,
    "licenseNumber": "090000074",
    "licenseEffectiveDate": "05/11/2025",
    "licenseExpirationDate": "05/10/2026",
    "dataDate": "10/18/2025",
    "capacity": 173,
    "address": "435 H ST",
    "city": "CHULA VISTA",
    "zip": "91910",
    "county": "SAN DIEGO",
    "phone": "(619) 691-7240",
    "lat": 32.633577,
    "lng": -117.083196
  },
  {
    "id": "090000107",
    "name": "SOUTH BAY POST ACUTE CARE",
    "npi": "1376946277",
    "hcaiId": "206370904",
    "businessName": "BAYSIDE HEALTHCARE, INC.",
    "contactEmail": "LISASIMMONS@ENSIGNSERVICES.NET",
    "categoryName": "SKILLED NURSING FACILITY",
    "categoryCode": "SNF",
    "licenseStatus": "ACTIVE",
    "inService": true,
    "licenseNumber": "090000120",
    "licenseEffectiveDate": "09/02/2025",
    "licenseExpirationDate": "09/01/2026",
    "dataDate": "10/18/2025",
    "capacity": 99,
    "address": "553 F ST",
    "city": "CHULA VISTA",
    "zip": "91910",
    "county": "SAN DIEGO",
    "phone": "(619) 426-8611",
    "lat": 32.63877,
    "lng": -117.0910215
  },
  {
    "id": "090000139",
    "name": "SWEDELIUS GROUP HOME",
    "npi": "1114109949",
    "hcaiId": null,
    "businessName": "THE ARC OF SAN DIEGO",
    "contactEmail": "KCLARK@ARC-SD.COM",
    "categoryName": "INTERMEDIATE CARE FACILITY-DD/H/N/CN/IID",
    "categoryCode": "ICFDDH",
    "licenseStatus": "ACTIVE",
    "inService": true,
    "licenseNumber": "090000190",
    "licenseEffectiveDate": "02/03/2025",
    "licenseExpirationDate": "02/02/2026",
    "dataDate": "10/18/2025",
    "capacity": 6,
    "address": "329A D ST",
    "city": "CHULA VISTA",
    "zip": "91910",
    "county": "SAN DIEGO",
    "phone": "(585) 410-5513",
    "lat": 32.64787269,
    "lng": -117.0839351
  },
  {
    "id": "630020516",
    "name": "SWEETWATER FAMILY COUNSELING CENTER",
    "npi": null,
    "hcaiId": null,
    "businessName": "FAMILY HEALTH CENTERS OF SAN DIEGO, INC.",
    "contactEmail": null,
    "categoryName": "PRIMARY CARE CLINIC",
    "categoryCode": "COMTYC",
    "licenseStatus": "ACTIVE",
    "inService": true,
    "licenseNumber": "550000024",
    "licenseEffectiveDate": "05/09/2025",
    "licenseExpirationDate": "05/08/2026",
    "dataDate": "10/18/2025",
    "capacity": 0,
    "address": "333 H ST, SUITE 2010",
    "city": "CHULA VISTA",
    "zip": "91910",
    "county": "SAN DIEGO",
    "phone": null,
    "lat": 32.6340677,
    "lng": -117.0786441
  },
  {
    "id": "080001007",
    "name": "THERAPY SPECIALISTS",
    "npi": null,
    "hcaiId": null,
    "businessName": null,
    "contactEmail": null,
    "categoryName": "REHABILITATION CLINIC",
    "categoryCode": "OPT/SP",
    "licenseStatus": null,
    "inService": null,
    "licenseNumber": null,
    "licenseEffectiveDate": null,
    "licenseExpirationDate": null,
    "dataDate": "10/18/2025",
    "capacity": 0,
    "address": "344 F ST, SUITE 100 & 101",
    "city": "CHULA VISTA",
    "zip": "91910",
    "county": "SAN DIEGO",
    "phone": "(619) 498-8450",
    "lat": 32.64048,
    "lng": -117.081661
  },
  {
    "id": "080001680",
    "name": "THERAPY SPECIALISTS EXT.",
    "npi": null,
    "hcaiId": null,
    "businessName": null,
    "contactEmail": null,
    "categoryName": "REHABILITATION CLINIC",
    "categoryCode": "OPT/SP",
    "licenseStatus": null,
    "inService": null,
    "licenseNumber": null,
    "licenseEffectiveDate": null,
    "licenseExpirationDate": null,
    "dataDate": "10/18/2025",
    "capacity": 0,
    "address": "533 F ST",
    "city": "CHULA VISTA",
    "zip": "91910",
    "county": "SAN DIEGO",
    "phone": "(000) 000-0000",
    "lat": 32.638833,
    "lng": -117.0895455
  }
]