[
  {
    "id": "630018193",
    "name": "AEGIS HEALTH LLC",
    "npi": null,
    "hcaiId": "406371970",
    "businessName": "AEGIS HEALTH LLC",
    "contactEmail": "VLIM@AEGISHEALTHSANDIEGO.COM",
    "categoryName": "HOME HEALTH AGENCY",
    "categoryCode": "HHA",
    "licenseStatus": "ACTIVE",
    "inService": true,
    "licenseNumber": "550004996",
    "licenseEffectiveDate": "09/07/2025",
    "licenseExpirationDate": "09/06/2026",
    "dataDate": "10/18/2025",
    "capacity": 0,
    "address": "355 K ST, SUITE L",
    "city": "CHULA VISTA",
    "zip": "91911",
    "county": "SAN DIEGO",
    "phone": "(877) 342-3447",
    "lat": 32.62359301,
    "lng": -117.075726
  },
  {
    "id": "630021690",
    "name": "CIVITA HOME HEALTH",
    "npi": null,
    "hcaiId": "406195774",
    "businessName": "INFLUENTIAL HOME HEALTH, INC.",
    "contactEmail": "INFLUENTIALHOMEHEALTH@USA.COM",
    "categoryName": "HOME HEALTH AGENCY",
    "categoryCode": "HHA",
    "licenseStatus": "ACTIVE",
    "inService": true,
    "licenseNumber": "550007800",
    "licenseEffectiveDate": "08/06/2025",
    "licenseExpirationDate": "01/18/2026",
    "dataDate": "10/18/2025",
    "capacity": 0,
    "address": "3513 MAIN STREET, SUITE 101-102",
    "city": "CHULA VISTA",
    "zip": "91911",
    "county": "SAN DIEGO",
    "phone": "(818) 302-1349",
    "lat": 32.59432043,
    "lng": -117.0576721
  },
  {
    "id": "630010892",
    "name": "FAIRWAY COURT",
    "npi": "1922233469",
    "hcaiId": null,
    "businessName": "RSCR CALIFORNIA, INC.",
    "contactEmail": "JOSEPH.TONTODONATO@RESCARE.COM",
    "categoryName": "INTERMEDIATE CARE FACILITY-DD/H/N/CN/IID",
    "categoryCode": "ICFDDN",
    "licenseStatus": "ACTIVE",
    "inService": true,
    "licenseNumber": "550000744",
    "licenseEffectiveDate": "12/21/2024",
    "licenseExpirationDate": "12/20/2025",
    "dataDate": "10/18/2025",
    "capacity": 6,
    "address": "833 FAIRWAY CT",
    "city": "CHULA VISTA",
    "zip": "91911",
    "county": "SAN DIEGO",
    "phone": "(619) 691-0479",
    "lat": 32.62509,
    "lng": -117.0654165
  },
  {
    "id": "060001757",
    "name": "GEORGE GLENNER ALZHEIMER'S FAMILY CTRS-CHULA VISTA",
    "npi": null,
    "hcaiId": null,
    "businessName": "GEORGE G. GLENNER ALZHEIMER'S FAMILY CENTERS, INC.",
    "contactEmail": "STARDE@GLENNER.ORG",
    "categoryName": "ADULT DAY HEALTH CARE",
    "categoryCode": "ADHC",
    "licenseStatus": "ACTIVE",
    "inService": true,
    "licenseNumber": "060000575",
    "licenseEffectiveDate": "04/21/2025",
    "licenseExpirationDate": "04/20/2026",
    "dataDate": "10/18/2025",
    "capacity": 0,
    "address": "2765 MAIN ST, SUITE A",
    "city": "CHULA VISTA",
    "zip": "91911",
    "county": "SAN DIEGO",
    "phone": "(619) 543-4700",
    "lat": 32.594256,
    "lng": -117.0735435
  },
  {
    "id": "630010896",
    "name": "OCALA COURT",
    "npi": "1205061645",
    "hcaiId": null,
    "businessName": "RSCR CALIFORNIA, INC.",
    "contactEmail": null,
    "categoryName": "INTERMEDIATE CARE FACILITY-DD/H/N/CN/IID",
    "categoryCode": "ICFDDN",
    "licenseStatus": "ACTIVE",
    "inService": true,
    "licenseNumber": "550000767",
    "licenseEffectiveDate": "12/01/2024",
    "licenseExpirationDate": "11/30/2025",
    "dataDate": "10/18/2025",
    "capacity": 6,
    "address": "1412 OCALA CT",
    "city": "CHULA VISTA",
    "zip": "91911",
    "county": "SAN DIEGO",
    "phone": "(619) 421-5132",
    "lat": 32.610465,
    "lng": -117.0358785
  },
  {
    "id": "090001561",
    "name": "PARADISE VALLEY HOSP D/P APH BAYVIEW BEHAVIORAL HEALTH",
    "npi": "1356410351",
    "hcaiId": "106370775",
    "businessName": "PRIME HEALTHCARE PARADISE VALLEY, LLC",
    "contactEmail": null,
    "categoryName": "ACUTE PSYCHIATRIC HOSPITAL",
    "categoryCode": "APH",
    "licenseStatus": "ACTIVE",
    "inService": true,
    "licenseNumber": "090000086",
    "licenseEffectiveDate": "05/01/2025",
    "licenseExpirationDate": "04/30/2026",
    "dataDate": "10/18/2025",
    "capacity": 64,
    "address": "330 MOSS ST",
    "city": "CHULA VISTA",
    "zip": "91911",
    "county": "SAN DIEGO",
    "phone": "(619) 426-6310",
    "lat": 32.617539,
    "lng": -117.071334
  },
  {
    "id": "630016429",
    "name": "PARADISE VALLEY HOSP D/P APH BAYVIEW BEHAVIORAL HEALTH",
    "npi": "1356410351",
    "hcaiId": null,
    "businessName": "PRIME HEALTHCARE PARADISE VALLEY, LLC",
    "contactEmail": null,
    "categoryName": "OTHER",
    "categoryCode": "PPSPSCH",
    "licenseStatus": "ACTIVE",
    "inService": true,
    "licenseNumber": "090000086",
    "licenseEffectiveDate": "05/01/2025",
    "licenseExpirationDate": "04/30/2026",
    "dataDate": "10/18/2025",
    "capacity": 0,
    "address": "330 MOSS ST",
    "city": "CHULA VISTA",
    "zip": "91911",
    "county": "SAN DIEGO",
    "phone": null,
    "lat": 32.617539,
    "lng": -117.071334
  },
  {
    "id": "090001041",
    "name": "PLANNED PARENTHOOD - CHULA VISTA CENTER",
    "npi": "1255366241",
    "hcaiId": "306374118",
    "businessName": "PLANNED PARENTHOOD OF THE PACIFIC SOUTHWEST",
    "contactEmail": "LMANN1@PLANNED.ORG",
    "categoryName": "PRIMARY CARE CLINIC",
    "categoryCode": "COMTYC",
    "licenseStatus": "ACTIVE",
    "inService": true,
    "licenseNumber": "090000427",
    "licenseEffectiveDate": "02/26/2025",
    "licenseExpirationDate": "02/25/2026",
    "dataDate": "10/18/2025",
    "capacity": 0,
    "address": "1295 BROADWAY",
    "city": "CHULA VISTA",
    "zip": "91911",
    "county": "SAN DIEGO",
    "phone": "(619) 881-4500",
    "lat": 32.603958,
    "lng": -117.0777195
  },
  {
    "id": "630022124",
    "name": "REAL CHOICES CHULA VISTA",
    "npi": null,
    "hcaiId": "306370701",
    "businessName": "SILENT VOICES, INC.",
    "contactEmail": "KHYLER@SILENTVOICES.ORG",
    "categoryName": "PRIMARY CARE CLINIC",
    "categoryCode": "FREEC",
    "licenseStatus": "ACTIVE",
    "inService": true,
    "licenseNumber": "550006792",
    "licenseEffectiveDate": "09/14/2025",
    "licenseExpirationDate": "09/13/2026",
    "dataDate": "10/18/2025",
    "capacity": 0,
    "address": "355 K ST, SUITE H",
    "city": "CHULA VISTA",
    "zip": "91911",
    "county": "SAN DIEGO",
    "phone": "(619) 422-0757",
    "lat": 32.623641,
    "lng": -117.075753
  },
  {
    "id": "630014390",
    "name": "RICE FAMILY HEALTH CENTER",
    "npi": "1083959464",
    "hcaiId": "306374493",
    "businessName": "FAMILY HEALTH CENTERS OF SAN DIEGO, INC.",
    "contactEmail": "LICENSING@FHCSD.ORG",
    "categoryName": "PRIMARY CARE CLINIC",
    "categoryCode": "COMTYC",
    "licenseStatus": "ACTIVE",
    "inService": true,
    "licenseNumber": "550002061",
    "licenseEffectiveDate": "11/21/2025",
    "licenseExpirationDate": "11/20/2026",
    "dataDate": "10/18/2025",
    "capacity": 0,
    "address": "352 L ST",
    "city": "CHULA VISTA",
    "zip": "91911",
    "county": "SAN DIEGO",
    "phone": "(619) 515-2568",
    "lat": 32.619366,
    "lng": -117.073674
  },
  {
    "id": "630018116",
    "name": "SAN YSIDRO HEALTH ADULT DAY HEALTH CARE - CHULA VISTA",
    "npi": null,
    "hcaiId": null,
    "businessName": "CENTRO DE SALUD DE LA COMUNIDAD DE SAN YSIDRO, INC.",
    "contactEmail": "SHAMETT@SYHEALTH.ORG",
    "categoryName": "ADULT DAY HEALTH CARE",
    "categoryCode": "ADHC",
    "licenseStatus": "ACTIVE",
    "inService": true,
    "licenseNumber": "550005481",
    "licenseEffectiveDate": "05/27/2025",
    "licenseExpirationDate": "05/26/2026",
    "dataDate": "10/18/2025",
    "capacity": 0,
    "address": "880 3RD AVE, SUITE A",
    "city": "CHULA VISTA",
    "zip": "91911",
    "county": "SAN DIEGO",
    "phone": "(619) 662-4100",
    "lat": 32.621328,
    "lng": -117.072882
  },
  {
    "id": "090000252",
    "name": "SAN YSIDRO HEALTH OTAY",
    "npi": "1922051812",
    "hcaiId": "306371226",
    "businessName": "CENTRO DE SALUD DE LA COMUNIDAD DE SAN YSIDRO, INC.",
    "contactEmail": "SHAMETT@SYHEALTH.ORG",
    "categoryName": "PRIMARY CARE CLINIC",
    "categoryCode": "COMTYC",
    "licenseStatus": "ACTIVE",
    "inService": true,
    "licenseNumber": "090000136",
    "licenseEffectiveDate": "01/02/2025",
    "licenseExpirationDate": "01/01/2026",
    "dataDate": "10/18/2025",
    "capacity": 0,
    "address": "1637 3RD AVE, SUITE B, C, F, H & I",
    "city": "CHULA VISTA",
    "zip": "91911",
    "county": "SAN DIEGO",
    "phone": "(619) 425-1780",
    "lat": 32.59656,
    "lng": -117.0643275
  },
  {
    "id": "630019681",
    "name": "SAN YSIDRO HEALTH SAN DIEGO PACE / SENIOR HEALTH SERVICES CHULA VISTA",
    "npi": null,
    "hcaiId": null,
    "businessName": "CENTRO DE SALUD DE LA COMUNIDAD DE SAN YSIDRO, INC.",
    "contactEmail": "TWHITAKER@SYHEALTH.ORG",
    "categoryName": "PRIMARY CARE CLINIC",
    "categoryCode": "COMTYC",
    "licenseStatus": "ACTIVE",
    "inService": true,
    "licenseNumber": "550002823",
    "licenseEffectiveDate": "09/29/2025",
    "licenseExpirationDate": "09/28/2026",
    "dataDate": "10/18/2025",
    "capacity": 0,
    "address": "880 3RD AVE, SUITE A",
    "city": "CHULA VISTA",
    "zip": "91911",
    "county": "SAN DIEGO",
    "phone": "(619) 662-4100",
    "lat": 32.621328,
    "lng": -117.072882
  },
  {
    "id": "630022251",
    "name": "SAN YSIDRO HEALTH SPORTS MEDICINE",
    "npi": "1326486861",
    "hcaiId": null,
    "businessName": "CENTRO DE SALUD DE LA COMUNIDAD DE SAN YSIDRO, INC.",
    "contactEmail": "SHAMETT@SYHEALTH.ORG",
    "categoryName": "PRIMARY CARE CLINIC",
    "categoryCode": "COMTYC",
    "licenseStatus": "ACTIVE",
    "inService": true,
    "licenseNumber": "550002394",
    "licenseEffectiveDate": "09/12/2025",
    "licenseExpirationDate": "09/11/2026",
    "dataDate": "10/18/2025",
    "capacity": 0,
    "address": "670 L ST, SUITE G",
    "city": "CHULA VISTA",
    "zip": "91911",
    "county": "SAN DIEGO",
    "phone": "(619) 662-4141",
    "lat": 32.615721,
    "lng": -117.087426
  },
  {
    "id": "630017951",
    "name": "SAN YSIDRO HEALTH WELLNESS CLINIC",
    "npi": null,
    "hcaiId": null,
    "businessName": "CENTRO DE SALUD DE LA COMUNIDAD DE SAN YSIDRO, INC.",
    "contactEmail": null,
    "categoryName": "PRIMARY CARE CLINIC",
    "categoryCode": "COMTYC",
    "licenseStatus": "ACTIVE",
    "inService": true,
    "licenseNumber": "090000136",
    "licenseEffectiveDate": "01/02/2025",
    "licenseExpirationDate": "01/01/2026",
    "dataDate": "10/18/2025",
    "capacity": 0,
    "address": "855 3RD AVE, SUITE 2200",
    "city": "CHULA VISTA",
    "zip": "91911",
    "county": "SAN DIEGO",
    "phone": null,
    "lat": 32.622102,
    "lng": -117.0718875
  },
  {
    "id": "090000021",
    "name": "SHARP CHULA VISTA MEDICAL CENTER",
    "npi": "1396728630",
    "hcaiId": "106370875",
    "businessName": "SHARP CHULA VISTA MEDICAL CENTER",
    "contactEmail": "SCOTT.EVANS@SHARP.COM",
    "categoryName": "GENERAL ACUTE CARE HOSPITAL",
    "categoryCode": "GACH",
    "licenseStatus": "ACTIVE",
    "inService": true,
    "licenseNumber": "090000008",
    "licenseEffectiveDate": "03/26/2025",
    "licenseExpirationDate": "03/25/2026",
    "dataDate": "10/18/2025",
    "capacity": 349,
    "address": "751 MEDICAL CENTER CT",
    "city": "CHULA VISTA",
    "zip": "91911",
    "county": "SAN DIEGO",
    "phone": "(619) 502-3670",
    "lat": 32.618934,
    "lng": -117.023508
  },
  {
    "id": "090000416",
    "name": "SHARP CHULA VISTA MEDICAL CENTER D/P SNF",
    "npi": "1538142369",
    "hcaiId": null,
    "businessName": "SHARP CHULA VISTA MEDICAL CENTER",
    "contactEmail": null,
    "categoryName": "SKILLED NURSING FACILITY",
    "categoryCode": "SNF",
    "licenseStatus": "ACTIVE",
    "inService": true,
    "licenseNumber": "090000008",
    "licenseEffectiveDate": "03/26/2025",
    "licenseExpirationDate": "03/25/2026",
    "dataDate": "10/18/2025",
    "capacity": 100,
    "address": "751 MEDICAL CENTER CT",
    "city": "CHULA VISTA",
    "zip": "91911",
    "county": "SAN DIEGO",
    "phone": "(619) 502-3540",
    "lat": 32.618934,
    "lng": -117.023508
  },
  {
    "id": "630017861",
    "name": "SURGERY CENTER OF CALIFORNIA",
    "npi": "1568814010",
    "hcaiId": null,
    "businessName": null,
    "contactEmail": null,
    "categoryName": "SURGICAL CLINIC",
    "categoryCode": "ASC",
    "licenseStatus": null,
    "inService": null,
    "licenseNumber": null,
    "licenseEffectiveDate": null,
    "licenseExpirationDate": null,
    "dataDate": "10/18/2025",
    "capacity": 0,
    "address": "835 3RD AVE, SUITE C",
    "city": "CHULA VISTA",
    "zip": "91911",
    "county": "SAN DIEGO",
    "phone": "(619) 425-4209",
    "lat": 32.623155,
    "lng": -117.071667
  },
  {
    "id": "630010891",
    "name": "TOBIAS DRIVE",
    "npi": "1922277698",
    "hcaiId": null,
    "businessName": "RSCR CALIFORNIA, INC.",
    "contactEmail": "JOSEPH.TONTODONATO@RESCARE.COM",
    "categoryName": "INTERMEDIATE CARE FACILITY-DD/H/N/CN/IID",
    "categoryCode": "ICFDDN",
    "licenseStatus": "ACTIVE",
    "inService": true,
    "licenseNumber": "550000608",
    "licenseEffectiveDate": "01/13/2025",
    "licenseExpirationDate": "01/12/2026",
    "dataDate": "10/18/2025",
    "capacity": 6,
    "address": "1382 TOBIAS DR",
    "city": "CHULA VISTA",
    "zip": "91911",
    "county": "SAN DIEGO",
    "phone": "(619) 409-6928",
    "lat": 32.606874,
    "lng": -117.055359
  },
  {
    "id": "080001620",
    "name": "U S RENAL CARE CHULA VISTA BROADWAY DIALYSIS",
    "npi": "1275809840",
    "hcaiId": "306374245",
    "businessName": "DIALYSIS NEWCO, LLC.",
    "contactEmail": "LICENSING@USRENALCARE.COM",
    "categoryName": "CHRONIC DIALYSIS CLINIC",
    "categoryCode": "ESRD/CDC",
    "licenseStatus": "ACTIVE",
    "inService": true,
    "licenseNumber": "080000708",
    "licenseEffectiveDate": "01/08/2025",
    "licenseExpirationDate": "01/07/2026",
    "dataDate": "10/18/2025",
    "capacity": 32,
    "address": "1181 BROADWAY, SUITE 5",
    "city": "CHULA VISTA",
    "zip": "91911",
    "county": "SAN DIEGO",
    "phone": "(619) 585-0016",
    "lat": 32.607531,
    "lng": -117.079803
  },
  {
    "id": "170001870",
    "name": "VETERANS HOME OF CALIFORNIA - CHULA VISTA",
    "npi": "1790771194",
    "hcaiId": "206374298",
    "businessName": "CALIFORNIA DEPARTMENT OF VETERANS AFFAIRS",
    "contactEmail": "JIM.MILLER@CALVET.CA.GOV",
    "categoryName": "SKILLED NURSING FACILITY",
    "categoryCode": "SNF",
    "licenseStatus": "ACTIVE",
    "inService": true,
    "licenseNumber": "170000836",
    "licenseEffectiveDate": "02/28/2025",
    "licenseExpirationDate": "02/27/2026",
    "dataDate": "10/18/2025",
    "capacity": 180,
    "address": "700 E NAPLES CT",
    "city": "CHULA VISTA",
    "zip": "91911",
    "county": "SAN DIEGO",
    "phone": "(619) 482-6023",
    "lat": 32.621283,
    "lng": -117.023247
  }
]