[
  {
    "id": "080000156",
    "name": "ALVARADO PARKWAY INSTITUTE BEHAVIORAL HEALTH SYSTEM",
    "npi": "1477969970",
    "hcaiId": "106370749",
    "businessName": "BH-SD OPCO LLC",
    "contactEmail": "PDELAROSA@APIBHS.COM",
    "categoryName": "ACUTE PSYCHIATRIC HOSPITAL",
    "categoryCode": "APH",
    "licenseStatus": "ACTIVE",
    "inService": true,
    "licenseNumber": "080000079",
    "licenseEffectiveDate": "01/05/2025",
    "licenseExpirationDate": "01/04/2026",
    "dataDate": "10/18/2025",
    "capacity": 66,
    "address": "7050 PARKWAY DR",
    "city": "LA MESA",
    "zip": "91942",
    "county": "SAN DIEGO",
    "phone": "(619) 667-6003",
    "lat": 32.774481,
    "lng": -117.0440325
  },
  {
    "id": "080000070",
    "name": "ARBOR HILLS NURSING CENTER",
    "npi": "1356345706",
    "hcaiId": "206370735",
    "businessName": "GHC OF LA MESA, LLC",
    "contactEmail": "CALEBSCHULTZ@LIFEGEN.NET",
    "categoryName": "SKILLED NURSING FACILITY",
    "categoryCode": "SNF",
    "licenseStatus": "ACTIVE",
    "inService": true,
    "licenseNumber": "080000066",
    "licenseEffectiveDate": "04/12/2025",
    "licenseExpirationDate": "04/11/2026",
    "dataDate": "10/18/2025",
    "capacity": 100,
    "address": "7800 PARKWAY DR",
    "city": "LA MESA",
    "zip": "91942",
    "county": "SAN DIEGO",
    "phone": "(619) 460-2330",
    "lat": 32.774859,
    "lng": -117.0285435
  },
  {
    "id": "080001277",
    "name": "ASSOCIATED PHYSICAL THERAPY",
    "npi": null,
    "hcaiId": null,
    "businessName": null,
    "contactEmail": null,
    "categoryName": "OTHER",
    "categoryCode": "UNLICEN",
    "licenseStatus": null,
    "inService": null,
    "licenseNumber": null,
    "licenseEffectiveDate": null,
    "licenseExpirationDate": null,
    "dataDate": "10/18/2025",
    "capacity": 0,
    "address": "8881 FLETCHER PKWY, SUITE 280",
    "city": "LA MESA",
    "zip": "91942",
    "county": "SAN DIEGO",
    "phone": "(619) 464-0105",
    "lat": 32.783922,
    "lng": -117.007101
  },
  {
    "id": "080000677",
    "name": "CALIFORNIA SPECIAL CARE CENTER, INC.",
    "npi": null,
    "hcaiId": null,
    "businessName": null,
    "contactEmail": null,
    "categoryName": "REHABILITATION CLINIC",
    "categoryCode": "OPT/SP",
    "licenseStatus": null,
    "inService": null,
    "licenseNumber": null,
    "licenseEffectiveDate": null,
    "licenseExpirationDate": null,
    "dataDate": "10/18/2025",
    "capacity": 0,
    "address": "8787 CENTER DR",
    "city": "LA MESA",
    "zip": "91942",
    "county": "SAN DIEGO",
    "phone": null,
    "lat": 32.781321,
    "lng": -117.0088695
  },
  {
    "id": "630017998",
    "name": "COASTAL INJURY CARE CENTER",
    "npi": null,
    "hcaiId": "206370288",
    "businessName": "SENIOR COAST LIVING, LLC",
    "contactEmail": "ADMIN@COASTALINJURYCARECENTER.COM",
    "categoryName": "CONGREGATE LIVING HEALTH FACILITY",
    "categoryCode": "CLHF",
    "licenseStatus": "ACTIVE",
    "inService": true,
    "licenseNumber": "550005821",
    "licenseEffectiveDate": "10/27/2025",
    "licenseExpirationDate": "10/26/2026",
    "dataDate": "10/18/2025",
    "capacity": 6,
    "address": "8780 ELDEN ST",
    "city": "LA MESA",
    "zip": "91942",
    "county": "SAN DIEGO",
    "phone": "(858) 946-3100",
    "lat": 32.786082,
    "lng": -117.0080685
  },
  {
    "id": "090000041",
    "name": "COMMUNITY CARE CENTER",
    "npi": "1225028327",
    "hcaiId": "206370684",
    "businessName": "TORREY PINES HOLDINGS LLC",
    "contactEmail": "CURTIS.WHITE@LINKSHEALTH.COM",
    "categoryName": "SKILLED NURSING FACILITY",
    "categoryCode": "SNF",
    "licenseStatus": "ACTIVE",
    "inService": true,
    "licenseNumber": "090000033",
    "licenseEffectiveDate": "11/04/2025",
    "licenseExpirationDate": "11/03/2026",
    "dataDate": "10/18/2025",
    "capacity": 119,
    "address": "8665 LA MESA BLVD",
    "city": "LA MESA",
    "zip": "91942",
    "county": "SAN DIEGO",
    "phone": "(619) 465-0702",
    "lat": 32.768982,
    "lng": -117.0105795
  },
  {
    "id": "080000031",
    "name": "COUNTRY MANOR LA MESA HEALTHCARE CENTER",
    "npi": "1457345001",
    "hcaiId": "206370660",
    "businessName": "AG LA MESA, LLC",
    "contactEmail": "SOMRUTAI.MAY@COUNTRYMANORLAMESA.COM",
    "categoryName": "SKILLED NURSING FACILITY",
    "categoryCode": "SNF",
    "licenseStatus": "ACTIVE",
    "inService": true,
    "licenseNumber": "080000020",
    "licenseEffectiveDate": "11/01/2025",
    "licenseExpirationDate": "10/31/2026",
    "dataDate": "10/18/2025",
    "capacity": 99,
    "address": "5696 LAKE MURRAY BLVD",
    "city": "LA MESA",
    "zip": "91942",
    "county": "SAN DIEGO",
    "phone": "(619) 460-7871",
    "lat": 32.783958,
    "lng": -117.029142
  },
  {
    "id": "630017285",
    "name": "DAP HEALTH - LA MESA PEDIATRICS",
    "npi": null,
    "hcaiId": null,
    "businessName": "DAP HEALTH, INC.",
    "contactEmail": null,
    "categoryName": "PRIMARY CARE CLINIC",
    "categoryCode": "COMTYC",
    "licenseStatus": "ACTIVE",
    "inService": true,
    "licenseNumber": "550000430",
    "licenseEffectiveDate": "03/02/2025",
    "licenseExpirationDate": "03/01/2026",
    "dataDate": "10/18/2025",
    "capacity": 0,
    "address": "8881 FLETCHER PKWY, SUITE 200",
    "city": "LA MESA",
    "zip": "91942",
    "county": "SAN DIEGO",
    "phone": null,
    "lat": 32.783922,
    "lng": -117.007101
  },
  {
    "id": "630027050",
    "name": "EAST COUNTY WELLNESS CENTER",
    "npi": "1780397570",
    "hcaiId": "306370767",
    "businessName": "FAMILY HEALTH CENTERS OF SAN DIEGO, INC.",
    "contactEmail": "MYRAB@FHCSD.ORG",
    "categoryName": "PRIMARY CARE CLINIC",
    "categoryCode": "COMTYC",
    "licenseStatus": "ACTIVE",
    "inService": true,
    "licenseNumber": "550008461",
    "licenseEffectiveDate": "04/03/2025",
    "licenseExpirationDate": "04/02/2026",
    "dataDate": "10/18/2025",
    "capacity": 0,
    "address": "8530 LA MESA BLVD, SUITE 306",
    "city": "LA MESA",
    "zip": "91942",
    "county": "SAN DIEGO",
    "phone": "(619) 876-4441",
    "lat": 32.769,
    "lng": -117.013509
  },
  {
    "id": "630016795",
    "name": "ELITE HEALTH CARE SYSTEMS",
    "npi": null,
    "hcaiId": "406374570",
    "businessName": "ANC CORPORATION",
    "contactEmail": "CNANQUIL@ELITEHCS.ORG",
    "categoryName": "HOSPICE",
    "categoryCode": "HOSPICE",
    "licenseStatus": "ACTIVE",
    "inService": true,
    "licenseNumber": "550003776",
    "licenseEffectiveDate": "01/26/2023",
    "licenseExpirationDate": "01/25/2025",
    "dataDate": "10/18/2025",
    "capacity": 0,
    "address": "7484 UNIVERSITY AVENUE, SUITE 250",
    "city": "LA MESA",
    "zip": "91942",
    "county": "SAN DIEGO",
    "phone": "(619) 741-5814",
    "lat": 32.758758,
    "lng": -117.0362205
  },
  {
    "id": "630017578",
    "name": "ENCOMPASS SURGERY CENTER",
    "npi": "1114399656",
    "hcaiId": null,
    "businessName": null,
    "contactEmail": "LARA.ENCOMPASS@GMAIL.COM",
    "categoryName": "SURGICAL CLINIC",
    "categoryCode": "ASC",
    "licenseStatus": null,
    "inService": null,
    "licenseNumber": null,
    "licenseEffectiveDate": null,
    "licenseExpirationDate": null,
    "dataDate": "10/18/2025",
    "capacity": 0,
    "address": "7051 ALVARADO RD, SUITE 100",
    "city": "LA MESA",
    "zip": "91942",
    "county": "SAN DIEGO",
    "phone": "(619) 713-6219",
    "lat": 32.772834,
    "lng": -117.045819
  },
  {
    "id": "080001203",
    "name": "EXCEL HOME HEALTH",
    "npi": "1336230689",
    "hcaiId": "406374167",
    "businessName": "EXCEL HOME HEALTH, INC.",
    "contactEmail": "SRI@EXCELHOMEHEALTH.COM",
    "categoryName": "HOME HEALTH AGENCY",
    "categoryCode": "HHA",
    "licenseStatus": "ACTIVE",
    "inService": true,
    "licenseNumber": "080000489",
    "licenseEffectiveDate": "11/16/2025",
    "licenseExpirationDate": "11/15/2026",
    "dataDate": "10/18/2025",
    "capacity": 0,
    "address": "5575 LAKE PARK WAY, SUITE 220",
    "city": "LA MESA",
    "zip": "91942",
    "county": "SAN DIEGO",
    "phone": "(619) 460-6622",
    "lat": 32.781906,
    "lng": -117.0341775
  },
  {
    "id": "080000750",
    "name": "FRESENIUS MEDICAL CARE BALBOA LA MESA",
    "npi": "1467889360",
    "hcaiId": "306374053",
    "businessName": "FRESENIUS MEDICAL CARE BALBOA II, LLC",
    "contactEmail": "CLINIC9083@FRESENIUSMEDICALCARE.COM",
    "categoryName": "CHRONIC DIALYSIS CLINIC",
    "categoryCode": "ESRD/CDC",
    "licenseStatus": "ACTIVE",
    "inService": true,
    "licenseNumber": "080000356",
    "licenseEffectiveDate": "02/20/2025",
    "licenseExpirationDate": "02/19/2026",
    "dataDate": "10/18/2025",
    "capacity": 24,
    "address": "5995 SEVERIN DR",
    "city": "LA MESA",
    "zip": "91942",
    "county": "SAN DIEGO",
    "phone": "(619) 462-9992",
    "lat": 32.78747918,
    "lng": -116.9992271
  },
  {
    "id": "060002161",
    "name": "GOLDEN LIFE ADHC CENTER",
    "npi": null,
    "hcaiId": null,
    "businessName": "TWELVE STARS, INC.",
    "contactEmail": "GOLDENLIFEADHC1@GMAIL.COM",
    "categoryName": "ADULT DAY HEALTH CARE",
    "categoryCode": "ADHC",
    "licenseStatus": "ACTIVE",
    "inService": true,
    "licenseNumber": "060000921",
    "licenseEffectiveDate": "05/20/2025",
    "licenseExpirationDate": "05/19/2026",
    "dataDate": "10/18/2025",
    "capacity": 0,
    "address": "9158 FLETCHER PKWY",
    "city": "LA MESA",
    "zip": "91942",
    "county": "SAN DIEGO",
    "phone": "(619) 916-8529",
    "lat": 32.793768,
    "lng": -117.0029925
  },
  {
    "id": "080000752",
    "name": "GROSSMONT GARDENS HEALTHCARE CENTER",
    "npi": null,
    "hcaiId": "206374041",
    "businessName": "GROSSMONT SKILLED CARE INC.",
    "contactEmail": "DONALD@SHMCRE.COM",
    "categoryName": "SKILLED NURSING FACILITY",
    "categoryCode": "SNF",
    "licenseStatus": "ACTIVE",
    "inService": true,
    "licenseNumber": "080000337",
    "licenseEffectiveDate": "12/21/2024",
    "licenseExpirationDate": "12/20/2025",
    "dataDate": "10/18/2025",
    "capacity": 39,
    "address": "5480 MARENGO AVE",
    "city": "LA MESA",
    "zip": "91942",
    "county": "SAN DIEGO",
    "phone": "(626) 430-9062",
    "lat": 32.777559,
    "lng": -117.0245385
  },
  {
    "id": "080000045",
    "name": "GROSSMONT HOSPITAL",
    "npi": "1528041811",
    "hcaiId": "106370714",
    "businessName": "GROSSMONT HOSPITAL CORPORATION",
    "contactEmail": "RINA.ADAMS@SHARP.COM",
    "categoryName": "GENERAL ACUTE CARE HOSPITAL",
    "categoryCode": "GACH",
    "licenseStatus": "ACTIVE",
    "inService": true,
    "licenseNumber": "080000006",
    "licenseEffectiveDate": "05/29/2025",
    "licenseExpirationDate": "05/28/2026",
    "dataDate": "10/18/2025",
    "capacity": 486,
    "address": "5555 GROSSMONT CENTER DR",
    "city": "LA MESA",
    "zip": "91942",
    "county": "SAN DIEGO",
    "phone": "(619) 740-5344",
    "lat": 32.781438,
    "lng": -117.00702
  },
  {
    "id": "080000723",
    "name": "GROSSMONT HOSPITAL",
    "npi": "1528041811",
    "hcaiId": null,
    "businessName": "GROSSMONT HOSPITAL CORPORATION",
    "contactEmail": null,
    "categoryName": "OTHER",
    "categoryCode": "PPSPSCH",
    "licenseStatus": "ACTIVE",
    "inService": true,
    "licenseNumber": "080000006",
    "licenseEffectiveDate": "05/29/2025",
    "licenseExpirationDate": "05/28/2026",
    "dataDate": "10/18/2025",
    "capacity": 0,
    "address": "5555 GROSSMONT CENTER DR",
    "city": "LA MESA",
    "zip": "91942",
    "county": "SAN DIEGO",
    "phone": null,
    "lat": 32.781438,
    "lng": -117.00702
  },
  {
    "id": "080000848",
    "name": "GROSSMONT HOSPITAL",
    "npi": "1528041811",
    "hcaiId": null,
    "businessName": "GROSSMONT HOSPITAL CORPORATION",
    "contactEmail": null,
    "categoryName": "OTHER",
    "categoryCode": "PPSREHB",
    "licenseStatus": "ACTIVE",
    "inService": true,
    "licenseNumber": "080000006",
    "licenseEffectiveDate": "05/29/2025",
    "licenseExpirationDate": "05/28/2026",
    "dataDate": "10/18/2025",
    "capacity": 0,
    "address": "5555 GROSSMONT CENTER DR",
    "city": "LA MESA",
    "zip": "91942",
    "county": "SAN DIEGO",
    "phone": null,
    "lat": 32.781438,
    "lng": -117.00702
  },
  {
    "id": "080001283",
    "name": "GROSSMONT HOSPITAL D/P APH",
    "npi": "1528041811",
    "hcaiId": null,
    "businessName": "GROSSMONT HOSPITAL CORPORATION",
    "contactEmail": null,
    "categoryName": "ACUTE PSYCHIATRIC HOSPITAL",
    "categoryCode": "APH",
    "licenseStatus": "ACTIVE",
    "inService": true,
    "licenseNumber": "080000006",
    "licenseEffectiveDate": "05/29/2025",
    "licenseExpirationDate": "05/28/2026",
    "dataDate": "10/18/2025",
    "capacity": 46,
    "address": "5555 GROSSMONT CENTER DR",
    "city": "LA MESA",
    "zip": "91942",
    "county": "SAN DIEGO",
    "phone": "(619) 465-0711",
    "lat": 32.781438,
    "lng": -117.00702
  },
  {
    "id": "080001107",
    "name": "GROSSMONT HOSPITAL D/P SNF",
    "npi": "1417930249",
    "hcaiId": null,
    "businessName": "GROSSMONT HOSPITAL CORPORATION",
    "contactEmail": null,
    "categoryName": "SKILLED NURSING FACILITY",
    "categoryCode": "SNF",
    "licenseStatus": "ACTIVE",
    "inService": true,
    "licenseNumber": "080000006",
    "licenseEffectiveDate": "05/29/2025",
    "licenseExpirationDate": "05/28/2026",
    "dataDate": "10/18/2025",
    "capacity": 30,
    "address": "5555 GROSSMONT CENTER DR",
    "city": "LA MESA",
    "zip": "91942",
    "county": "SAN DIEGO",
    "phone": "(619) 740-4850",
    "lat": 32.781438,
    "lng": -117.00702
  },
  {
    "id": "630018937",
    "name": "GROSSMONT PEDIATRICS",
    "npi": "1932384120",
    "hcaiId": null,
    "businessName": "NEIGHBORHOOD HEALTHCARE",
    "contactEmail": null,
    "categoryName": "PRIMARY CARE CLINIC",
    "categoryCode": "COMTYC",
    "licenseStatus": "ACTIVE",
    "inService": true,
    "licenseNumber": "080000483",
    "licenseEffectiveDate": "11/01/2025",
    "licenseExpirationDate": "10/31/2026",
    "dataDate": "10/18/2025",
    "capacity": 0,
    "address": "6942 UNIVERSITY AVE, SUITE A",
    "city": "LA MESA",
    "zip": "91942",
    "county": "SAN DIEGO",
    "phone": null,
    "lat": 32.755518,
    "lng": -117.048744
  },
  {
    "id": "080000032",
    "name": "GROSSMONT POST ACUTE CARE",
    "npi": "1689077588",
    "hcaiId": "206370667",
    "businessName": "MISSION TRAILS HEALTHCARE LLC",
    "contactEmail": "HROTHEY@ENSIGNSERVICES.NET",
    "categoryName": "SKILLED NURSING FACILITY",
    "categoryCode": "SNF",
    "licenseStatus": "ACTIVE",
    "inService": true,
    "licenseNumber": "080000024",
    "licenseEffectiveDate": "09/29/2025",
    "licenseExpirationDate": "09/28/2026",
    "dataDate": "10/18/2025",
    "capacity": 90,
    "address": "8787 CENTER DR",
    "city": "LA MESA",
    "zip": "91942",
    "county": "SAN DIEGO",
    "phone": "(619) 460-4444",
    "lat": 32.781321,
    "lng": -117.0088695
  },
  {
    "id": "080000248",
    "name": "GROSSMONT SURGERY CENTER",
    "npi": "1326004110",
    "hcaiId": "306371705",
    "businessName": null,
    "contactEmail": null,
    "categoryName": "SURGICAL CLINIC",
    "categoryCode": "ASC",
    "licenseStatus": "INACTIVE - CAPEN DECISION",
    "inService": false,
    "licenseNumber": "080000252",
    "licenseEffectiveDate": "11/24/2007",
    "licenseExpirationDate": "11/23/2008",
    "dataDate": "10/18/2025",
    "capacity": 0,
    "address": "8881 FLETCHER PKWY, SUITE 100",
    "city": "LA MESA",
    "zip": "91942",
    "county": "SAN DIEGO",
    "phone": "(619) 698-0930",
    "lat": 32.783922,
    "lng": -117.007101
  },
  {
    "id": "090000118",
    "name": "HILLDALE HABILITATION CENTER",
    "npi": "1073736427",
    "hcaiId": "206370720",
    "businessName": "RAZAVI CORPORATION",
    "contactEmail": "HILLDALEHABILITATION@YAHOO.COM",
    "categoryName": "INTERMEDIATE CARE FACILITY-DD/H/N/CN/IID",
    "categoryCode": "ICFDD",
    "licenseStatus": "ACTIVE",
    "inService": true,
    "licenseNumber": "090000058",
    "licenseEffectiveDate": "06/30/2025",
    "licenseExpirationDate": "06/29/2026",
    "dataDate": "10/18/2025",
    "capacity": 57,
    "address": "7979 LA MESA BLVD",
    "city": "LA MESA",
    "zip": "91942",
    "county": "SAN DIEGO",
    "phone": "(619) 465-8010",
    "lat": 32.764077,
    "lng": -117.026028
  },
  {
    "id": "080000198",
    "name": "KAISER FOUNDATION HOSPITAL SAN DIEGO HHA",
    "npi": "1245385244",
    "hcaiId": "406371016",
    "businessName": "KAISER FOUNDATION HOSPITALS",
    "contactEmail": "JASON.P.THOMAS@KP.ORG",
    "categoryName": "HOME HEALTH AGENCY",
    "categoryCode": "HHA",
    "licenseStatus": "ACTIVE",
    "inService": true,
    "licenseNumber": "080000129",
    "licenseEffectiveDate": "11/26/2024",
    "licenseExpirationDate": "11/25/2025",
    "dataDate": "10/18/2025",
    "capacity": 0,
    "address": "8010 PARKWAY DR, SUITE 6   ROOM 235",
    "city": "LA MESA",
    "zip": "91942",
    "county": "SAN DIEGO",
    "phone": "(619) 641-4644",
    "lat": 32.776515,
    "lng": -117.026208
  },
  {
    "id": "630028478",
    "name": "LA MESA FAMILY DENTAL CLINIC",
    "npi": null,
    "hcaiId": null,
    "businessName": "FAMILY HEALTH CENTERS OF SAN DIEGO, INC.",
    "contactEmail": null,
    "categoryName": "PRIMARY CARE CLINIC",
    "categoryCode": "COMTYC",
    "licenseStatus": "ACTIVE",
    "inService": true,
    "licenseNumber": "550003553",
    "licenseEffectiveDate": "06/21/2025",
    "licenseExpirationDate": "06/20/2026",
    "dataDate": "10/18/2025",
    "capacity": 0,
    "address": "7557 EL CAJON BLVD, SUITE A",
    "city": "LA MESA",
    "zip": "91942",
    "county": "SAN DIEGO",
    "phone": null,
    "lat": 32.7679099,
    "lng": -117.0348752
  },
  {
    "id": "080001660",
    "name": "LA MESA REHAB",
    "npi": null,
    "hcaiId": "306374393",
    "businessName": "AIJ, INC.",
    "contactEmail": "LAMESAREHAB121@GMAIL.COM",
    "categoryName": "REHABILITATION CLINIC",
    "categoryCode": "REHABC/CORF",
    "licenseStatus": "ACTIVE",
    "inService": true,
    "licenseNumber": "080000742",
    "licenseEffectiveDate": "06/11/2025",
    "licenseExpirationDate": "06/10/2026",
    "dataDate": "10/18/2025",
    "capacity": 0,
    "address": "8380 CENTER DR, SUITE E",
    "city": "LA MESA",
    "zip": "91942",
    "county": "SAN DIEGO",
    "phone": "(619) 466-6077",
    "lat": 32.775606,
    "lng": -117.016533
  },
  {
    "id": "080001559",
    "name": "LAKEVIEW HOME",
    "npi": null,
    "hcaiId": "206374284",
    "businessName": "GROSSMONT HOSPITAL CORPORATION",
    "contactEmail": "SUZI.JOHNSON@SHARP.COM",
    "categoryName": "HOSPICE FACILITY",
    "categoryCode": "HOFA",
    "licenseStatus": "ACTIVE",
    "inService": true,
    "licenseNumber": "080000656",
    "licenseEffectiveDate": "01/10/2025",
    "licenseExpirationDate": "01/09/2026",
    "dataDate": "10/18/2025",
    "capacity": 4,
    "address": "9472 LOREN DR",
    "city": "LA MESA",
    "zip": "91942",
    "county": "SAN DIEGO",
    "phone": "(619) 668-6995",
    "lat": 32.780529,
    "lng": -116.992971
  },
  {
    "id": "630013840",
    "name": "NEURORESTORATIVE CALIFORNIA",
    "npi": null,
    "hcaiId": "206374473",
    "businessName": "CAREMERIDIAN, LLC",
    "contactEmail": "CASSANDRA.DURON@SEVITAHEALTH.COM",
    "categoryName": "CONGREGATE LIVING HEALTH FACILITY",
    "categoryCode": "CLHF",
    "licenseStatus": "ACTIVE",
    "inService": true,
    "licenseNumber": "550002088",
    "licenseEffectiveDate": "10/03/2025",
    "licenseExpirationDate": "10/02/2026",
    "dataDate": "10/18/2025",
    "capacity": 15,
    "address": "5640 AZTEC DR",
    "city": "LA MESA",
    "zip": "91942",
    "county": "SAN DIEGO",
    "phone": "(619) 403-5268",
    "lat": 32.781816,
    "lng": -117.028017
  },
  {
    "id": "630013171",
    "name": "ODOS HOME HEALTH INC",
    "npi": "1033413182",
    "hcaiId": "406374461",
    "businessName": "ODOS HOME HEALTH, INC.",
    "contactEmail": "INFO@ODOSHOMEHEALTH.COM",
    "categoryName": "HOME HEALTH AGENCY",
    "categoryCode": "HHA",
    "licenseStatus": "ACTIVE",
    "inService": true,
    "licenseNumber": "550001814",
    "licenseEffectiveDate": "11/10/2025",
    "licenseExpirationDate": "11/09/2026",
    "dataDate": "10/18/2025",
    "capacity": 0,
    "address": "7840 EL CAJON BLVD, SUITE 500C",
    "city": "LA MESA",
    "zip": "91942",
    "county": "SAN DIEGO",
    "phone": "(858) 362-1637",
    "lat": 32.769064,
    "lng": -117.028969
  },
  {
    "id": "080000062",
    "name": "PARKWAY HILLS NURSING & REHABILITATION",
    "npi": "1174926448",
    "hcaiId": "206370715",
    "businessName": "PARKWAY OPERATIONS, LLC",
    "contactEmail": "BRITTANYM@MADISON.CARE",
    "categoryName": "SKILLED NURSING FACILITY",
    "categoryCode": "SNF",
    "licenseStatus": "ACTIVE",
    "inService": true,
    "licenseNumber": "080000053",
    "licenseEffectiveDate": "12/24/2024",
    "licenseExpirationDate": "12/23/2025",
    "dataDate": "10/18/2025",
    "capacity": 60,
    "address": "7760 PARKWAY DR",
    "city": "LA MESA",
    "zip": "91942",
    "county": "SAN DIEGO",
    "phone": "(619) 469-0124",
    "lat": 32.775507,
    "lng": -117.0298755
  },
  {
    "id": "080001557",
    "name": "SHARP HOSPICECARE",
    "npi": null,
    "hcaiId": "406374282",
    "businessName": "GROSSMONT HOSPITAL CORPORATION",
    "contactEmail": "SUZI.JOHNSON@SHARP.COM",
    "categoryName": "HOSPICE",
    "categoryCode": "HOSPICE",
    "licenseStatus": "ACTIVE",
    "inService": true,
    "licenseNumber": "080000654",
    "licenseEffectiveDate": "11/15/2024",
    "licenseExpirationDate": "11/14/2026",
    "dataDate": "10/18/2025",
    "capacity": 0,
    "address": "8881 FLETCHER PKWY, SUITE 336",
    "city": "LA MESA",
    "zip": "91942",
    "county": "SAN DIEGO",
    "phone": "(619) 667-1900",
    "lat": 32.783922,
    "lng": -117.007101
  },
  {
    "id": "080000343",
    "name": "THERAPY SPECIALISTS EXT.",
    "npi": null,
    "hcaiId": null,
    "businessName": null,
    "contactEmail": null,
    "categoryName": "OTHER",
    "categoryCode": "UNLICEN",
    "licenseStatus": null,
    "inService": null,
    "licenseNumber": null,
    "licenseEffectiveDate": null,
    "licenseExpirationDate": null,
    "dataDate": "10/18/2025",
    "capacity": 0,
    "address": "5740 LAKE MURRAY BLVD",
    "city": "LA MESA",
    "zip": "91942",
    "county": "SAN DIEGO",
    "phone": "(619) 461-9014",
    "lat": 32.78439,
    "lng": -117.0285165
  },
  {
    "id": "630014487",
    "name": "TOGETHER HOSPICE CARE, LLC",
    "npi": "1396085536",
    "hcaiId": "406374507",
    "businessName": "TOGETHER HOSPICE CARE, LLC",
    "contactEmail": "TOGETHERHOSPICE@GMAIL.COM",
    "categoryName": "HOSPICE",
    "categoryCode": "HOSPICE",
    "licenseStatus": "ACTIVE",
    "inService": true,
    "licenseNumber": "550002612",
    "licenseEffectiveDate": "02/06/2024",
    "licenseExpirationDate": "02/05/2026",
    "dataDate": "10/18/2025",
    "capacity": 0,
    "address": "7771 UNIVERSITY AVE",
    "city": "LA MESA",
    "zip": "91942",
    "county": "SAN DIEGO",
    "phone": "(760) 481-8238",
    "lat": 32.76214447,
    "lng": -117.0300878
  }
]