[
  {
    "id": "090001393",
    "name": "ASSOCIATED PHYSICAL THERAPY CENTER EXT.",
    "npi": null,
    "hcaiId": null,
    "businessName": null,
    "contactEmail": null,
    "categoryName": "REHABILITATION CLINIC",
    "categoryCode": "OPT/SP",
    "licenseStatus": null,
    "inService": null,
    "licenseNumber": null,
    "licenseEffectiveDate": null,
    "licenseExpirationDate": null,
    "dataDate": "10/18/2025",
    "capacity": 0,
    "address": "3855 AVOCADO BLVD, SUITE 140",
    "city": "LA MESA",
    "zip": "91941",
    "county": "SAN DIEGO",
    "phone": "(619) 660-7916",
    "lat": 32.749362,
    "lng": -116.9614485
  },
  {
    "id": "630015105",
    "name": "KAMELYA HOME HEALTH, INCORPORATED",
    "npi": "1578986428",
    "hcaiId": "406374531",
    "businessName": "KAMELYA HOME HEALTH, INCORPORATED",
    "contactEmail": "RRAGPAOA@KAMELYAHEALTH.COM",
    "categoryName": "HOME HEALTH AGENCY",
    "categoryCode": "HHA",
    "licenseStatus": "ACTIVE",
    "inService": true,
    "licenseNumber": "550003062",
    "licenseEffectiveDate": "04/23/2025",
    "licenseExpirationDate": "04/22/2026",
    "dataDate": "10/18/2025",
    "capacity": 0,
    "address": "3835 AVOCADO BLVD, SUITE 260",
    "city": "LA MESA",
    "zip": "91941",
    "county": "SAN DIEGO",
    "phone": "(619) 303-8341",
    "lat": 32.748741,
    "lng": -116.961201
  },
  {
    "id": "090000057",
    "name": "LA MESA HEALTHCARE CENTER",
    "npi": "1003852666",
    "hcaiId": "206370769",
    "businessName": "ELM HOLDINGS, LLC",
    "contactEmail": "LIWAYWAY.GABASAN@LAMESAHC.COM",
    "categoryName": "SKILLED NURSING FACILITY",
    "categoryCode": "SNF",
    "licenseStatus": "ACTIVE",
    "inService": true,
    "licenseNumber": "090000007",
    "licenseEffectiveDate": "11/01/2025",
    "licenseExpirationDate": "10/31/2026",
    "dataDate": "10/18/2025",
    "capacity": 94,
    "address": "3780 MASSACHUSETTS AVE",
    "city": "LA MESA",
    "zip": "91941",
    "county": "SAN DIEGO",
    "phone": "(619) 465-1313",
    "lat": 32.745744,
    "lng": -117.0435195
  },
  {
    "id": "090000647",
    "name": "LA MESA SURGICAL CENTER",
    "npi": "1548493422",
    "hcaiId": null,
    "businessName": null,
    "contactEmail": "SKAWESKI@PACBELL.NET",
    "categoryName": "SURGICAL CLINIC",
    "categoryCode": "ASC",
    "licenseStatus": null,
    "inService": null,
    "licenseNumber": null,
    "licenseEffectiveDate": null,
    "licenseExpirationDate": null,
    "dataDate": "10/18/2025",
    "capacity": 0,
    "address": "8401 GRANT AVE",
    "city": "LA MESA",
    "zip": "91941",
    "county": "SAN DIEGO",
    "phone": "(619) 464-9876",
    "lat": 32.766228,
    "lng": -117.015642
  },
  {
    "id": "630017568",
    "name": "NEIGHBORHOOD HOSPICE CARE, INC.",
    "npi": null,
    "hcaiId": "406361841",
    "businessName": "NEIGHBORHOOD HOSPICE CARE, INC.",
    "contactEmail": "NEIGHBORHOODHOSPICECARE@GMAIL.COM",
    "categoryName": "HOSPICE",
    "categoryCode": "HOSPICE",
    "licenseStatus": "ACTIVE",
    "inService": true,
    "licenseNumber": "550004704",
    "licenseEffectiveDate": "09/07/2023",
    "licenseExpirationDate": "05/15/2025",
    "dataDate": "10/18/2025",
    "capacity": 0,
    "address": "5121 GARFIELD ST",
    "city": "LA MESA",
    "zip": "91941",
    "county": "SAN DIEGO",
    "phone": "(619) 439-6759",
    "lat": 32.77198637,
    "lng": -117.0059219
  },
  {
    "id": "080001747",
    "name": "NIGHTINGALE HOME CARE INC.",
    "npi": null,
    "hcaiId": "406374366",
    "businessName": "NIGHTINGALE HOME CARE, INC.",
    "contactEmail": "JLI@NIGHTINGALEHOMECARE.NET",
    "categoryName": "HOME HEALTH AGENCY",
    "categoryCode": "HHA",
    "licenseStatus": "ACTIVE",
    "inService": true,
    "licenseNumber": "080000783",
    "licenseEffectiveDate": "02/11/2025",
    "licenseExpirationDate": "02/10/2026",
    "dataDate": "10/18/2025",
    "capacity": 0,
    "address": "4579 MAPLE AVE, SUITE 2 & 4",
    "city": "LA MESA",
    "zip": "91941",
    "county": "SAN DIEGO",
    "phone": "(619) 337-1888",
    "lat": 32.76161617,
    "lng": -117.0298875
  },
  {
    "id": "630015902",
    "name": "SAINT FRANCIS HEALTHCARE, INC.",
    "npi": null,
    "hcaiId": "406372876",
    "businessName": "SAINT FRANCIS HEALTHCARE, INC.",
    "contactEmail": "SAINTFRANCISHC.INC@GMAIL.COM",
    "categoryName": "HOME HEALTH AGENCY",
    "categoryCode": "HHA",
    "licenseStatus": "ACTIVE",
    "inService": true,
    "licenseNumber": "550003379",
    "licenseEffectiveDate": "01/29/2025",
    "licenseExpirationDate": "01/28/2026",
    "dataDate": "10/18/2025",
    "capacity": 0,
    "address": "5119 GARFIELD ST",
    "city": "LA MESA",
    "zip": "91941",
    "county": "SAN DIEGO",
    "phone": "(619) 439-7840",
    "lat": 32.77197497,
    "lng": -117.0059321
  },
  {
    "id": "090001469",
    "name": "SHASTA HOME",
    "npi": "1134342520",
    "hcaiId": null,
    "businessName": "SEYKAT CORPORATION",
    "contactEmail": "HILLDALEHABILITATION@YAHOO.COM",
    "categoryName": "INTERMEDIATE CARE FACILITY-DD/H/N/CN/IID",
    "categoryCode": "ICFDDH",
    "licenseStatus": "ACTIVE",
    "inService": true,
    "licenseNumber": "090000614",
    "licenseEffectiveDate": "11/04/2025",
    "licenseExpirationDate": "11/03/2026",
    "dataDate": "10/18/2025",
    "capacity": 6,
    "address": "10346 CHALLENGE BLVD",
    "city": "LA MESA",
    "zip": "91941",
    "county": "SAN DIEGO",
    "phone": "(619) 465-8010",
    "lat": 32.75570723,
    "lng": -116.9721519
  }
]