[
  {
    "id": "630011074",
    "name": "ALPHA PLUS HOME HEALTH SERVICES",
    "npi": "1861527012",
    "hcaiId": "406374400",
    "businessName": "ALPHA PLUS HOME HEALTH SERVICES",
    "contactEmail": "APHHS91945@GMAIL.COM",
    "categoryName": "HOME HEALTH AGENCY",
    "categoryCode": "HHA",
    "licenseStatus": "ACTIVE",
    "inService": true,
    "licenseNumber": "550000535",
    "licenseEffectiveDate": "06/21/2025",
    "licenseExpirationDate": "06/20/2026",
    "dataDate": "10/18/2025",
    "capacity": 0,
    "address": "7227 BROADWAY, SUITE 202",
    "city": "LEMON GROVE",
    "zip": "91945",
    "county": "SAN DIEGO",
    "phone": "(619) 337-0955",
    "lat": 32.742225,
    "lng": -117.041958
  },
  {
    "id": "090000044",
    "name": "BELLA VISTA HEALTH CENTER",
    "npi": "1760709687",
    "hcaiId": "206371270",
    "businessName": "AETAS HEALTH SERVICES, LLC",
    "contactEmail": "SUSANFLOYD@BELLAVISTAHEALTH.COM",
    "categoryName": "SKILLED NURSING FACILITY",
    "categoryCode": "SNF",
    "licenseStatus": "ACTIVE",
    "inService": true,
    "licenseNumber": "090000142",
    "licenseEffectiveDate": "11/10/2025",
    "licenseExpirationDate": "11/09/2026",
    "dataDate": "10/18/2025",
    "capacity": 99,
    "address": "7922 PALM ST",
    "city": "LEMON GROVE",
    "zip": "91945",
    "county": "SAN DIEGO",
    "phone": "(619) 385-1898",
    "lat": 32.735088,
    "lng": -117.0281295
  },
  {
    "id": "630012539",
    "name": "LA MAESTRA COMMUNITY HEALTH CENTERS - LEMON GROVE",
    "npi": "1891011599",
    "hcaiId": "306374437",
    "businessName": "LA MAESTRA FAMILY CLINIC, INC.",
    "contactEmail": "TVU@LAMAESTRA.ORG",
    "categoryName": "PRIMARY CARE CLINIC",
    "categoryCode": "COMTYC",
    "licenseStatus": "ACTIVE",
    "inService": true,
    "licenseNumber": "090000378",
    "licenseEffectiveDate": "02/21/2025",
    "licenseExpirationDate": "02/20/2026",
    "dataDate": "10/18/2025",
    "capacity": 0,
    "address": "7967 BROADWAY",
    "city": "LEMON GROVE",
    "zip": "91945",
    "county": "SAN DIEGO",
    "phone": "(619) 741-7423",
    "lat": 32.742144,
    "lng": -117.026838
  },
  {
    "id": "090000071",
    "name": "LEMON GROVE CARE & REHABILITATION CENTER",
    "npi": "1336134204",
    "hcaiId": "206370736",
    "businessName": "LEMON GROVE HEALTH ASSOCIATES LLC",
    "contactEmail": "RENEWALS@ENSIGNSERVICES.NET",
    "categoryName": "SKILLED NURSING FACILITY",
    "categoryCode": "SNF",
    "licenseStatus": "ACTIVE",
    "inService": true,
    "licenseNumber": "090000067",
    "licenseEffectiveDate": "06/01/2025",
    "licenseExpirationDate": "05/31/2026",
    "dataDate": "10/18/2025",
    "capacity": 158,
    "address": "8351 BROADWAY",
    "city": "LEMON GROVE",
    "zip": "91945",
    "county": "SAN DIEGO",
    "phone": "(619) 463-0294",
    "lat": 32.74659,
    "lng": -117.017001
  },
  {
    "id": "630026989",
    "name": "LEMON GROVE FAMILY COUNSELING CENTER",
    "npi": null,
    "hcaiId": null,
    "businessName": "FAMILY HEALTH CENTERS OF SAN DIEGO, INC.",
    "contactEmail": null,
    "categoryName": "PRIMARY CARE CLINIC",
    "categoryCode": "COMTYC",
    "licenseStatus": "ACTIVE",
    "inService": true,
    "licenseNumber": "550000024",
    "licenseEffectiveDate": "05/09/2025",
    "licenseExpirationDate": "05/08/2026",
    "dataDate": "10/18/2025",
    "capacity": 0,
    "address": "7828 BROADWAY",
    "city": "LEMON GROVE",
    "zip": "91945",
    "county": "SAN DIEGO",
    "phone": null,
    "lat": 32.74285098,
    "lng": -117.029803
  },
  {
    "id": "630012634",
    "name": "LEMON GROVE FAMILY HEALTH CENTER",
    "npi": "1427282466",
    "hcaiId": "306374436",
    "businessName": "FAMILY HEALTH CENTERS OF SAN DIEGO, INC.",
    "contactEmail": "LICENSING@FHCSD.ORG",
    "categoryName": "PRIMARY CARE CLINIC",
    "categoryCode": "COMTYC",
    "licenseStatus": "ACTIVE",
    "inService": true,
    "licenseNumber": "550003108",
    "licenseEffectiveDate": "06/15/2025",
    "licenseExpirationDate": "06/14/2026",
    "dataDate": "10/18/2025",
    "capacity": 0,
    "address": "7592 BROADWAY",
    "city": "LEMON GROVE",
    "zip": "91945",
    "county": "SAN DIEGO",
    "phone": "(619) 515-2593",
    "lat": 32.743314,
    "lng": -117.034542
  },
  {
    "id": "630026887",
    "name": "LEMON GROVE PHYSICAL HEALTH AND WELLNESS CENTER",
    "npi": null,
    "hcaiId": null,
    "businessName": "FAMILY HEALTH CENTERS OF SAN DIEGO, INC.",
    "contactEmail": null,
    "categoryName": "PRIMARY CARE CLINIC",
    "categoryCode": "COMTYC",
    "licenseStatus": "ACTIVE",
    "inService": true,
    "licenseNumber": "550003553",
    "licenseEffectiveDate": "06/21/2025",
    "licenseExpirationDate": "06/20/2026",
    "dataDate": "10/18/2025",
    "capacity": 0,
    "address": "7826 BROADWAY",
    "city": "LEMON GROVE",
    "zip": "91945",
    "county": "SAN DIEGO",
    "phone": null,
    "lat": 32.743098,
    "lng": -117.029889
  },
  {
    "id": "080001679",
    "name": "THERAPY SPECIALISTS EXT.",
    "npi": null,
    "hcaiId": null,
    "businessName": null,
    "contactEmail": null,
    "categoryName": "OTHER",
    "categoryCode": "UNLICEN",
    "licenseStatus": null,
    "inService": null,
    "licenseNumber": null,
    "licenseEffectiveDate": null,
    "licenseExpirationDate": null,
    "dataDate": "10/18/2025",
    "capacity": 0,
    "address": "2211 MASSACHUSETTS AVE",
    "city": "LEMON GROVE",
    "zip": "91945",
    "county": "SAN DIEGO",
    "phone": "(000) 000-0000",
    "lat": 32.729409,
    "lng": -117.042435
  },
  {
    "id": "090001442",
    "name": "THERAPY SPECIALISTS EXT.",
    "npi": null,
    "hcaiId": null,
    "businessName": null,
    "contactEmail": null,
    "categoryName": "REHABILITATION CLINIC",
    "categoryCode": "OPT/SP",
    "licenseStatus": null,
    "inService": null,
    "licenseNumber": null,
    "licenseEffectiveDate": null,
    "licenseExpirationDate": null,
    "dataDate": "10/18/2025",
    "capacity": 0,
    "address": "2211 MASSACHUSETTS AVE",
    "city": "LEMON GROVE",
    "zip": "91945",
    "county": "SAN DIEGO",
    "phone": "(619) 698-0903",
    "lat": 32.729409,
    "lng": -117.042435
  },
  {
    "id": "090000485",
    "name": "WASHINGTON STREET GROUP HOME",
    "npi": "1497937221",
    "hcaiId": null,
    "businessName": "THE ARC OF SAN DIEGO",
    "contactEmail": "KCLARK@ARC-SD.COM",
    "categoryName": "INTERMEDIATE CARE FACILITY-DD/H/N/CN/IID",
    "categoryCode": "ICFDDH",
    "licenseStatus": "ACTIVE",
    "inService": true,
    "licenseNumber": "090000296",
    "licenseEffectiveDate": "12/22/2024",
    "licenseExpirationDate": "12/21/2025",
    "dataDate": "10/18/2025",
    "capacity": 6,
    "address": "1938 WASHINGTON ST",
    "city": "LEMON GROVE",
    "zip": "91945",
    "county": "SAN DIEGO",
    "phone": "(585) 410-5513",
    "lat": 32.726601,
    "lng": -117.024318
  }
]