[
  {
    "id": "630002741",
    "name": "ALFRED AND ELAINE BARRACK HOME",
    "npi": "1417183831",
    "hcaiId": null,
    "businessName": "RSCR CALIFORNIA, INC.",
    "contactEmail": "JOSEPH.TONTODONATO@RESCARE.COM",
    "categoryName": "INTERMEDIATE CARE FACILITY-DD/H/N/CN/IID",
    "categoryCode": "ICFDDN",
    "licenseStatus": "ACTIVE",
    "inService": true,
    "licenseNumber": "550000277",
    "licenseEffectiveDate": "12/01/2024",
    "licenseExpirationDate": "11/30/2025",
    "dataDate": "10/18/2025",
    "capacity": 6,
    "address": "2244 E 4TH ST",
    "city": "NATIONAL CITY",
    "zip": "91950",
    "county": "SAN DIEGO",
    "phone": "(619) 267-0842",
    "lat": 32.68557,
    "lng": -117.084771
  },
  {
    "id": "090000475",
    "name": "CASTLE MANOR NURSING & REHABILITATION CENTER",
    "npi": "1497759856",
    "hcaiId": "206374014",
    "businessName": "GHC OF NATIONAL CITY II, LLC",
    "contactEmail": "MARISSAPADILLA@LIFEGEN.NET",
    "categoryName": "SKILLED NURSING FACILITY",
    "categoryCode": "SNF",
    "licenseStatus": "ACTIVE",
    "inService": true,
    "licenseNumber": "090000294",
    "licenseEffectiveDate": "06/14/2025",
    "licenseExpirationDate": "06/13/2026",
    "dataDate": "10/18/2025",
    "capacity": 99,
    "address": "541 S V AVE",
    "city": "NATIONAL CITY",
    "zip": "91950",
    "county": "SAN DIEGO",
    "phone": "(619) 791-7900",
    "lat": 32.684229,
    "lng": -117.0847035
  },
  {
    "id": "090000702",
    "name": "CASTLE MANOR NURSING AND REHABILITATION CENTER",
    "npi": "1497759856",
    "hcaiId": null,
    "businessName": "GHC OF NATIONAL CITY II, LLC",
    "contactEmail": null,
    "categoryName": "REHABILITATION CLINIC",
    "categoryCode": "OPT/SP",
    "licenseStatus": "ACTIVE",
    "inService": true,
    "licenseNumber": "090000294",
    "licenseEffectiveDate": "06/14/2025",
    "licenseExpirationDate": "06/13/2026",
    "dataDate": "10/18/2025",
    "capacity": 0,
    "address": "541 S V AVE",
    "city": "NATIONAL CITY",
    "zip": "91950",
    "county": "SAN DIEGO",
    "phone": null,
    "lat": 32.684229,
    "lng": -117.0847035
  },
  {
    "id": "090000058",
    "name": "FRIENDSHIP MANOR NURSING & REHABILITATION CENTER",
    "npi": "1235133687",
    "hcaiId": "206370710",
    "businessName": "GHC OF NATIONAL CITY I, LLC",
    "contactEmail": "TINAMACATANGAY@LIFEGEN.NET",
    "categoryName": "SKILLED NURSING FACILITY",
    "categoryCode": "SNF",
    "licenseStatus": "ACTIVE",
    "inService": true,
    "licenseNumber": "090000049",
    "licenseEffectiveDate": "06/14/2025",
    "licenseExpirationDate": "06/13/2026",
    "dataDate": "10/18/2025",
    "capacity": 104,
    "address": "902 EUCLID AVE",
    "city": "NATIONAL CITY",
    "zip": "91950",
    "county": "SAN DIEGO",
    "phone": "(619) 791-7700",
    "lat": 32.681313,
    "lng": -117.0824805
  },
  {
    "id": "090000701",
    "name": "FRIENDSHIP MANOR NURSING & REHABILITATION CENTER",
    "npi": "1235133687",
    "hcaiId": null,
    "businessName": "GHC OF NATIONAL CITY I, LLC",
    "contactEmail": null,
    "categoryName": "REHABILITATION CLINIC",
    "categoryCode": "OPT/SP",
    "licenseStatus": "ACTIVE",
    "inService": true,
    "licenseNumber": "090000049",
    "licenseEffectiveDate": "06/14/2025",
    "licenseExpirationDate": "06/13/2026",
    "dataDate": "10/18/2025",
    "capacity": 0,
    "address": "902 EUCLID AVE",
    "city": "NATIONAL CITY",
    "zip": "91950",
    "county": "SAN DIEGO",
    "phone": null,
    "lat": 32.681313,
    "lng": -117.0824805
  },
  {
    "id": "630021589",
    "name": "GOOD SAMARITAN HOME HEALTH CARE, INC.",
    "npi": null,
    "hcaiId": "406375886",
    "businessName": "GOOD SAMARITAN HOME HEALTH CARE, INC.",
    "contactEmail": "GOODSAMARITANHHA@GMAIL.COM",
    "categoryName": "HOME HEALTH AGENCY",
    "categoryCode": "HHA",
    "licenseStatus": "ACTIVE",
    "inService": true,
    "licenseNumber": "550008070",
    "licenseEffectiveDate": "06/30/2025",
    "licenseExpirationDate": "06/29/2026",
    "dataDate": "10/18/2025",
    "capacity": 0,
    "address": "3403 E PLAZA BLVD, UNIT K",
    "city": "NATIONAL CITY",
    "zip": "91950",
    "county": "SAN DIEGO",
    "phone": "(619) 773-6357",
    "lat": 32.684589,
    "lng": -117.071541
  },
  {
    "id": "630013363",
    "name": "HEALTHWISE HOME HEALTH CARE INC.",
    "npi": "1235407826",
    "hcaiId": "406374466",
    "businessName": "HEALTHWISE HOME HEALTH CARE INC.",
    "contactEmail": "LAKERLAND2481@YAHOO.COM",
    "categoryName": "HOME HEALTH AGENCY",
    "categoryCode": "HHA",
    "licenseStatus": "ACTIVE",
    "inService": true,
    "licenseNumber": "550001881",
    "licenseEffectiveDate": "03/29/2025",
    "licenseExpirationDate": "03/28/2026",
    "dataDate": "10/18/2025",
    "capacity": 0,
    "address": "1615 SWEETWATER RD, SUITE I",
    "city": "NATIONAL CITY",
    "zip": "91950",
    "county": "SAN DIEGO",
    "phone": "(619) 474-4699",
    "lat": 32.661711,
    "lng": -117.083061
  },
  {
    "id": "090000064",
    "name": "HILLCREST MANOR SANITARIUM",
    "npi": "1255480646",
    "hcaiId": "206370718",
    "businessName": "IMAGINATIVE HORIZONS, INC.",
    "contactEmail": "CARMINA@SPECIALIZED-CARE.COM",
    "categoryName": "SKILLED NURSING FACILITY",
    "categoryCode": "SNF",
    "licenseStatus": "ACTIVE",
    "inService": true,
    "licenseNumber": "090000056",
    "licenseEffectiveDate": "12/01/2024",
    "licenseExpirationDate": "11/30/2025",
    "dataDate": "10/18/2025",
    "capacity": 60,
    "address": "1889 NATIONAL CITY BLVD",
    "city": "NATIONAL CITY",
    "zip": "91950",
    "county": "SAN DIEGO",
    "phone": "(619) 477-1176",
    "lat": 32.66676,
    "lng": -117.102852
  },
  {
    "id": "060001764",
    "name": "HORIZON CBAS",
    "npi": null,
    "hcaiId": null,
    "businessName": "HORIZON CBAS, INC.",
    "contactEmail": "ADMIN@HORIZONCBAS.COM",
    "categoryName": "ADULT DAY HEALTH CARE",
    "categoryCode": "ADHC",
    "licenseStatus": "ACTIVE",
    "inService": true,
    "licenseNumber": "060000582",
    "licenseEffectiveDate": "04/24/2025",
    "licenseExpirationDate": "04/23/2026",
    "dataDate": "10/18/2025",
    "capacity": 0,
    "address": "1035 S. HARBISON AVE.",
    "city": "NATIONAL CITY",
    "zip": "91950",
    "county": "SAN DIEGO",
    "phone": "(619) 474-1822",
    "lat": 32.68288783,
    "lng": -117.074402
  },
  {
    "id": "630004661",
    "name": "LA MAESTRA COMMUNITY HEALTH CENTERS - NATIONAL CITY",
    "npi": "1508949645",
    "hcaiId": "306374479",
    "businessName": "LA MAESTRA FAMILY CLINIC, INC.",
    "contactEmail": "TVU@LAMAESTRA.ORG",
    "categoryName": "PRIMARY CARE CLINIC",
    "categoryCode": "COMTYC",
    "licenseStatus": "ACTIVE",
    "inService": true,
    "licenseNumber": "090000378",
    "licenseEffectiveDate": "02/21/2025",
    "licenseExpirationDate": "02/20/2026",
    "dataDate": "10/18/2025",
    "capacity": 0,
    "address": "217 HIGHLAND AVE",
    "city": "NATIONAL CITY",
    "zip": "91950",
    "county": "SAN DIEGO",
    "phone": "(619) 269-1292",
    "lat": 32.687523,
    "lng": -117.101646
  },
  {
    "id": "630013852",
    "name": "NATIONAL CITY FAMILY HEALTH CENTER",
    "npi": "1528331287",
    "hcaiId": "306370410",
    "businessName": "FAMILY HEALTH CENTERS OF SAN DIEGO, INC.",
    "contactEmail": "LICENSING@FHCSD.ORG",
    "categoryName": "PRIMARY CARE CLINIC",
    "categoryCode": "COMTYC",
    "licenseStatus": "ACTIVE",
    "inService": true,
    "licenseNumber": "550002061",
    "licenseEffectiveDate": "11/21/2025",
    "licenseExpirationDate": "11/20/2026",
    "dataDate": "10/18/2025",
    "capacity": 0,
    "address": "1000 EUCLID AVE",
    "city": "NATIONAL CITY",
    "zip": "91950",
    "county": "SAN DIEGO",
    "phone": "(619) 515-2364",
    "lat": 32.680593,
    "lng": -117.0807525
  },
  {
    "id": "090000042",
    "name": "NATIONAL CITY POST ACUTE",
    "npi": "1730176538",
    "hcaiId": "206370687",
    "businessName": "WINDSOR CARE CENTER NATIONAL CITY, INC.",
    "contactEmail": "ADMINISTRATOR@WINDSORGARDENSSANDIEGO.COM",
    "categoryName": "SKILLED NURSING FACILITY",
    "categoryCode": "SNF",
    "licenseStatus": "ACTIVE",
    "inService": true,
    "licenseNumber": "090000035",
    "licenseEffectiveDate": "11/01/2025",
    "licenseExpirationDate": "10/31/2026",
    "dataDate": "10/18/2025",
    "capacity": 98,
    "address": "220 E 24TH ST",
    "city": "NATIONAL CITY",
    "zip": "91950",
    "county": "SAN DIEGO",
    "phone": "(619) 474-6741",
    "lat": 32.66235,
    "lng": -117.098613
  },
  {
    "id": "090000250",
    "name": "OPSAM HEALTH: 2743 HIGHLAND",
    "npi": "1801907449",
    "hcaiId": "306371602",
    "businessName": "OPERATION SAMAHAN, INC.",
    "contactEmail": "ASIROTILO@OPSAM.ORG",
    "categoryName": "PRIMARY CARE CLINIC",
    "categoryCode": "COMTYC",
    "licenseStatus": "ACTIVE",
    "inService": true,
    "licenseNumber": "090000183",
    "licenseEffectiveDate": "02/16/2025",
    "licenseExpirationDate": "02/15/2026",
    "dataDate": "10/18/2025",
    "capacity": 0,
    "address": "2743 HIGHLAND AVE",
    "city": "NATIONAL CITY",
    "zip": "91950",
    "county": "SAN DIEGO",
    "phone": "(844) 200-2426",
    "lat": 32.66114456,
    "lng": -117.092029
  },
  {
    "id": "630009681",
    "name": "OPSAM HEALTH: 2835 HIGHLAND",
    "npi": "1275617169",
    "hcaiId": "306374426",
    "businessName": "OPERATION SAMAHAN, INC.",
    "contactEmail": "ASIROTILO@OPSAM.ORG",
    "categoryName": "PRIMARY CARE CLINIC",
    "categoryCode": "COMTYC",
    "licenseStatus": "ACTIVE",
    "inService": true,
    "licenseNumber": "090000183",
    "licenseEffectiveDate": "02/16/2025",
    "licenseExpirationDate": "02/15/2026",
    "dataDate": "10/18/2025",
    "capacity": 0,
    "address": "2835 HIGHLAND AVE",
    "city": "NATIONAL CITY",
    "zip": "91950",
    "county": "SAN DIEGO",
    "phone": "(844) 200-2426",
    "lat": 32.66019869,
    "lng": -117.0916613
  },
  {
    "id": "630014692",
    "name": "OPSAM HEALTH: GRANGER",
    "npi": "1205134517",
    "hcaiId": "306374519",
    "businessName": "OPERATION SAMAHAN, INC.",
    "contactEmail": "ASIROTILO@OPSAM.ORG",
    "categoryName": "PRIMARY CARE CLINIC",
    "categoryCode": "COMTYC",
    "licenseStatus": "ACTIVE",
    "inService": true,
    "licenseNumber": "090000183",
    "licenseEffectiveDate": "02/16/2025",
    "licenseExpirationDate": "02/15/2026",
    "dataDate": "10/18/2025",
    "capacity": 0,
    "address": "2101 GRANGER AVE, SUITE 101A",
    "city": "NATIONAL CITY",
    "zip": "91950",
    "county": "SAN DIEGO",
    "phone": "(844) 200-2426",
    "lat": 32.67265971,
    "lng": -117.0738654
  },
  {
    "id": "630020324",
    "name": "OPSAM HEALTH: MOBILE CLINIC 1",
    "npi": null,
    "hcaiId": null,
    "businessName": "OPERATION SAMAHAN, INC.",
    "contactEmail": null,
    "categoryName": "PRIMARY CARE CLINIC",
    "categoryCode": "COMTYC",
    "licenseStatus": "ACTIVE",
    "inService": true,
    "licenseNumber": "090000183",
    "licenseEffectiveDate": "02/16/2025",
    "licenseExpirationDate": "02/15/2026",
    "dataDate": "10/18/2025",
    "capacity": 0,
    "address": "1428 HIGHLAND AVE",
    "city": "NATIONAL CITY",
    "zip": "91950",
    "county": "SAN DIEGO",
    "phone": null,
    "lat": 32.67243103,
    "lng": -117.0966435
  },
  {
    "id": "630027319",
    "name": "OPSAM HEALTH: MOBILE CLINIC 2",
    "npi": null,
    "hcaiId": null,
    "businessName": "OPERATION SAMAHAN, INC.",
    "contactEmail": null,
    "categoryName": "PRIMARY CARE CLINIC",
    "categoryCode": "COMTYC",
    "licenseStatus": "ACTIVE",
    "inService": true,
    "licenseNumber": "090000183",
    "licenseEffectiveDate": "02/16/2025",
    "licenseExpirationDate": "02/15/2026",
    "dataDate": "10/18/2025",
    "capacity": 0,
    "address": "1428 HIGHLAND AVE",
    "city": "NATIONAL CITY",
    "zip": "91950",
    "county": "SAN DIEGO",
    "phone": null,
    "lat": 32.67243,
    "lng": -117.096872
  },
  {
    "id": "090000010",
    "name": "PARADISE VALLEY HEALTH CARE CENTER",
    "npi": "1275513293",
    "hcaiId": "206371261",
    "businessName": "PARADISE VALLEY HEALTH CARE CENTER, INC.",
    "contactEmail": "BRIANNA.STRAMETZ@PVHCC.COM",
    "categoryName": "SKILLED NURSING FACILITY",
    "categoryCode": "SNF",
    "licenseStatus": "ACTIVE",
    "inService": true,
    "licenseNumber": "090000141",
    "licenseEffectiveDate": "06/30/2025",
    "licenseExpirationDate": "06/29/2026",
    "dataDate": "10/18/2025",
    "capacity": 86,
    "address": "2575 E 8TH ST",
    "city": "NATIONAL CITY",
    "zip": "91950",
    "county": "SAN DIEGO",
    "phone": "(619) 470-6700",
    "lat": 32.684382,
    "lng": -117.0804285
  },
  {
    "id": "090000145",
    "name": "PARADISE VALLEY HOSPITAL",
    "npi": "1356410351",
    "hcaiId": "106370759",
    "businessName": "PRIME HEALTHCARE PARADISE VALLEY, LLC",
    "contactEmail": "PVH-STATEAGENCY@PRIMEHEALTHCARE.COM",
    "categoryName": "GENERAL ACUTE CARE HOSPITAL",
    "categoryCode": "GACH",
    "licenseStatus": "ACTIVE",
    "inService": true,
    "licenseNumber": "090000086",
    "licenseEffectiveDate": "05/01/2025",
    "licenseExpirationDate": "04/30/2026",
    "dataDate": "10/18/2025",
    "capacity": 187,
    "address": "2400 E 4TH ST",
    "city": "NATIONAL CITY",
    "zip": "91950",
    "county": "SAN DIEGO",
    "phone": "(619) 472-4115",
    "lat": 32.684337,
    "lng": -117.082593
  },
  {
    "id": "090000764",
    "name": "PARADISE VALLEY HOSPITAL",
    "npi": "1356410351",
    "hcaiId": null,
    "businessName": "PRIME HEALTHCARE PARADISE VALLEY, LLC",
    "contactEmail": null,
    "categoryName": "OTHER",
    "categoryCode": "PPSPSCH",
    "licenseStatus": "ACTIVE",
    "inService": true,
    "licenseNumber": "090000086",
    "licenseEffectiveDate": "05/01/2025",
    "licenseExpirationDate": "04/30/2026",
    "dataDate": "10/18/2025",
    "capacity": 0,
    "address": "2400 E 4TH ST",
    "city": "NATIONAL CITY",
    "zip": "91950",
    "county": "SAN DIEGO",
    "phone": null,
    "lat": 32.684337,
    "lng": -117.082593
  },
  {
    "id": "090000338",
    "name": "PARADISE VALLEY HOSPITAL D/P APH",
    "npi": "1356410351",
    "hcaiId": null,
    "businessName": "PRIME HEALTHCARE PARADISE VALLEY, LLC",
    "contactEmail": null,
    "categoryName": "ACUTE PSYCHIATRIC HOSPITAL",
    "categoryCode": "APH",
    "licenseStatus": "ACTIVE",
    "inService": true,
    "licenseNumber": "090000086",
    "licenseEffectiveDate": "05/01/2025",
    "licenseExpirationDate": "04/30/2026",
    "dataDate": "10/18/2025",
    "capacity": 39,
    "address": "2400 E 4TH ST",
    "city": "NATIONAL CITY",
    "zip": "91950",
    "county": "SAN DIEGO",
    "phone": "(619) 470-4321",
    "lat": 32.684337,
    "lng": -117.082593
  },
  {
    "id": "080001609",
    "name": "SAN DIEGO DIALYSIS SERVICES, INC.",
    "npi": "1659483451",
    "hcaiId": "306370934",
    "businessName": "SAN DIEGO DIALYSIS SERVICES INC",
    "contactEmail": "CACLINICLICENSE@FRESENIUSMEDICALCARE.COM",
    "categoryName": "CHRONIC DIALYSIS CLINIC",
    "categoryCode": "ESRD/CDC",
    "licenseStatus": "ACTIVE",
    "inService": true,
    "licenseNumber": "080000697",
    "licenseEffectiveDate": "04/01/2025",
    "licenseExpirationDate": "03/31/2026",
    "dataDate": "10/18/2025",
    "capacity": 22,
    "address": "303 W 26TH ST",
    "city": "NATIONAL CITY",
    "zip": "91950",
    "county": "SAN DIEGO",
    "phone": "(619) 474-8151",
    "lat": 32.659083,
    "lng": -117.104463
  },
  {
    "id": "080001617",
    "name": "SAN DIEGO SOUTH DIALYSIS",
    "npi": "1093780017",
    "hcaiId": "306370796",
    "businessName": "DVA RENAL HEALTHCARE, INC.",
    "contactEmail": "CAL_C@DAVITA.COM",
    "categoryName": "CHRONIC DIALYSIS CLINIC",
    "categoryCode": "ESRD/CDC",
    "licenseStatus": "ACTIVE",
    "inService": true,
    "licenseNumber": "080000705",
    "licenseEffectiveDate": "11/07/2025",
    "licenseExpirationDate": "11/06/2026",
    "dataDate": "10/18/2025",
    "capacity": 37,
    "address": "1220 E PLAZA BLVD, 502",
    "city": "NATIONAL CITY",
    "zip": "91950",
    "county": "SAN DIEGO",
    "phone": "(858) 786-1448",
    "lat": 32.67597299,
    "lng": -117.093488
  },
  {
    "id": "090000202",
    "name": "SAN YSIDRO HEALTH NATIONAL CITY",
    "npi": "1003869363",
    "hcaiId": "306371654",
    "businessName": "CENTRO DE SALUD DE LA COMUNIDAD DE SAN YSIDRO, INC.",
    "contactEmail": "SHAMETT@SYHEALTH.ORG",
    "categoryName": "PRIMARY CARE CLINIC",
    "categoryCode": "COMTYC",
    "licenseStatus": "ACTIVE",
    "inService": true,
    "licenseNumber": "090000136",
    "licenseEffectiveDate": "01/02/2025",
    "licenseExpirationDate": "01/01/2026",
    "dataDate": "10/18/2025",
    "capacity": 0,
    "address": "1136 D AVE",
    "city": "NATIONAL CITY",
    "zip": "91950",
    "county": "SAN DIEGO",
    "phone": "(619) 336-2300",
    "lat": 32.673636,
    "lng": -117.101862
  },
  {
    "id": "630012193",
    "name": "SAN YSIDRO HEALTH PARADISE HILLS",
    "npi": "1598907487",
    "hcaiId": "306374432",
    "businessName": "CENTRO DE SALUD DE LA COMUNIDAD DE SAN YSIDRO, INC.",
    "contactEmail": "SHAMETT@SYHEALTH.ORG",
    "categoryName": "PRIMARY CARE CLINIC",
    "categoryCode": "COMTYC",
    "licenseStatus": "ACTIVE",
    "inService": true,
    "licenseNumber": "550001126",
    "licenseEffectiveDate": "11/20/2024",
    "licenseExpirationDate": "11/19/2025",
    "dataDate": "10/18/2025",
    "capacity": 0,
    "address": "2400 E 8TH ST, SUITE A",
    "city": "NATIONAL CITY",
    "zip": "91950",
    "county": "SAN DIEGO",
    "phone": "(619) 662-4100",
    "lat": 32.68242,
    "lng": -117.0818775
  },
  {
    "id": "630016798",
    "name": "SAN YSIDRO HEALTH SOUTH BAY",
    "npi": null,
    "hcaiId": "306374565",
    "businessName": "CENTRO DE SALUD DE LA COMUNIDAD DE SAN YSIDRO, INC.",
    "contactEmail": "SHAMETT@SYHEALTH.ORG",
    "categoryName": "PRIMARY CARE CLINIC",
    "categoryCode": "COMTYC",
    "licenseStatus": "ACTIVE",
    "inService": true,
    "licenseNumber": "550003806",
    "licenseEffectiveDate": "12/23/2024",
    "licenseExpirationDate": "12/22/2025",
    "dataDate": "10/18/2025",
    "capacity": 0,
    "address": "330-340 E 8TH STREET",
    "city": "NATIONAL CITY",
    "zip": "91950",
    "county": "SAN DIEGO",
    "phone": "(619) 662-4100",
    "lat": 32.676723,
    "lng": -117.103005
  },
  {
    "id": "090001239",
    "name": "VIEW POINTE",
    "npi": "1427284843",
    "hcaiId": null,
    "businessName": "RSCR CALIFORNIA, INC.",
    "contactEmail": "JOSEPH.TONTODONATO@RESCARE.COM",
    "categoryName": "INTERMEDIATE CARE FACILITY-DD/H/N/CN/IID",
    "categoryCode": "ICFDDN",
    "licenseStatus": "ACTIVE",
    "inService": true,
    "licenseNumber": "090000505",
    "licenseEffectiveDate": "12/21/2024",
    "licenseExpirationDate": "12/20/2025",
    "dataDate": "10/18/2025",
    "capacity": 6,
    "address": "2130 E 8TH ST",
    "city": "NATIONAL CITY",
    "zip": "91950",
    "county": "SAN DIEGO",
    "phone": "(619) 267-8400",
    "lat": 32.681754,
    "lng": -117.0848745
  }
]