[
  {
    "id": "090000102",
    "name": "AMAYA SPRINGS HEALTH CARE CENTER",
    "npi": "1518974542",
    "hcaiId": "206370793",
    "businessName": "B-EAST, LLC",
    "contactEmail": "ADMINISTRATOR@AMAYASPRINGSHC.COM",
    "categoryName": "SKILLED NURSING FACILITY",
    "categoryCode": "SNF",
    "licenseStatus": "ACTIVE",
    "inService": true,
    "licenseNumber": "090000110",
    "licenseEffectiveDate": "11/23/2024",
    "licenseExpirationDate": "11/22/2025",
    "dataDate": "10/18/2025",
    "capacity": 50,
    "address": "8625 LAMAR ST",
    "city": "SPRING VALLEY",
    "zip": "91977",
    "county": "SAN DIEGO",
    "phone": "(619) 461-3222",
    "lat": 32.738247,
    "lng": -117.013842
  },
  {
    "id": "090000083",
    "name": "BRIGHTON PLACE SPRING VALLEY",
    "npi": "1780682021",
    "hcaiId": "206370776",
    "businessName": "B-SPRING VALLEY, LLC",
    "contactEmail": "ADMINISTRATOR@BRIGHTONPLACESV.COM",
    "categoryName": "SKILLED NURSING FACILITY",
    "categoryCode": "SNF",
    "licenseStatus": "ACTIVE",
    "inService": true,
    "licenseNumber": "090000095",
    "licenseEffectiveDate": "11/16/2025",
    "licenseExpirationDate": "11/15/2026",
    "dataDate": "10/18/2025",
    "capacity": 75,
    "address": "9009 CAMPO RD",
    "city": "SPRING VALLEY",
    "zip": "91977",
    "county": "SAN DIEGO",
    "phone": "(619) 460-2711",
    "lat": 32.751477,
    "lng": -117.003303
  },
  {
    "id": "090001417",
    "name": "GROSSMONT SPRING VALLEY FAMILY HEALTH CENTER",
    "npi": "1508801069",
    "hcaiId": "306374260",
    "businessName": "FAMILY HEALTH CENTERS OF SAN DIEGO, INC.",
    "contactEmail": "LICENSING@FHCSD.COM",
    "categoryName": "PRIMARY CARE CLINIC",
    "categoryCode": "COMTYC",
    "licenseStatus": "ACTIVE",
    "inService": true,
    "licenseNumber": "090000593",
    "licenseEffectiveDate": "11/28/2025",
    "licenseExpirationDate": "11/27/2026",
    "dataDate": "10/18/2025",
    "capacity": 0,
    "address": "8788 JAMACHA RD",
    "city": "SPRING VALLEY",
    "zip": "91977",
    "county": "SAN DIEGO",
    "phone": "(619) 515-2408",
    "lat": 32.715054,
    "lng": -117.0098325
  },
  {
    "id": "090000138",
    "name": "HELIX",
    "npi": "1902088735",
    "hcaiId": null,
    "businessName": "THE ARC OF SAN DIEGO",
    "contactEmail": "KCLARK@ARC-SD.COM",
    "categoryName": "INTERMEDIATE CARE FACILITY-DD/H/N/CN/IID",
    "categoryCode": "ICFDDH",
    "licenseStatus": "ACTIVE",
    "inService": true,
    "licenseNumber": "090000191",
    "licenseEffectiveDate": "01/07/2025",
    "licenseExpirationDate": "01/06/2026",
    "dataDate": "10/18/2025",
    "capacity": 6,
    "address": "2930 HELIX ST",
    "city": "SPRING VALLEY",
    "zip": "91977",
    "county": "SAN DIEGO",
    "phone": "(858) 685-1175",
    "lat": 32.736879,
    "lng": -117.00072
  },
  {
    "id": "090000006",
    "name": "MOUNT MIGUEL COVENANT VILLAGE HEALTH FACILITY",
    "npi": "1649375403",
    "hcaiId": "206370750",
    "businessName": "COVENANT LIVING WEST",
    "contactEmail": "CWHITTAKER@COVLIVING.ORG",
    "categoryName": "SKILLED NURSING FACILITY",
    "categoryCode": "SNF",
    "licenseStatus": "ACTIVE",
    "inService": true,
    "licenseNumber": "090000080",
    "licenseEffectiveDate": "02/02/2025",
    "licenseExpirationDate": "02/01/2026",
    "dataDate": "10/18/2025",
    "capacity": 90,
    "address": "325 KEMPTON ST",
    "city": "SPRING VALLEY",
    "zip": "91977",
    "county": "SAN DIEGO",
    "phone": "(619) 931-1152",
    "lat": 32.70231,
    "lng": -117.0005355
  },
  {
    "id": "090000804",
    "name": "MOUNT MIGUEL COVENANT VILLAGE HEALTH FACILITY",
    "npi": "1649375403",
    "hcaiId": null,
    "businessName": "COVENANT LIVING WEST",
    "contactEmail": "RPMILLER@COVENANTRETIREMENT.ORG",
    "categoryName": "REHABILITATION CLINIC",
    "categoryCode": "OPT/SP",
    "licenseStatus": "ACTIVE",
    "inService": true,
    "licenseNumber": "090000080",
    "licenseEffectiveDate": "02/02/2025",
    "licenseExpirationDate": "02/01/2026",
    "dataDate": "10/18/2025",
    "capacity": 0,
    "address": "325 KEMPTON ST",
    "city": "SPRING VALLEY",
    "zip": "91977",
    "county": "SAN DIEGO",
    "phone": null,
    "lat": 32.70231,
    "lng": -117.0005355
  },
  {
    "id": "630017194",
    "name": "SPRING VALLEY FAMILY COUNSELING CENTER",
    "npi": null,
    "hcaiId": null,
    "businessName": null,
    "contactEmail": null,
    "categoryName": "PRIMARY CARE CLINIC",
    "categoryCode": "FQHC",
    "licenseStatus": null,
    "inService": null,
    "licenseNumber": null,
    "licenseEffectiveDate": null,
    "licenseExpirationDate": null,
    "dataDate": "10/18/2025",
    "capacity": 0,
    "address": "3845 SPRING DR",
    "city": "SPRING VALLEY",
    "zip": "91977",
    "county": "SAN DIEGO",
    "phone": null,
    "lat": 32.748543,
    "lng": -117.002664
  },
  {
    "id": "080001682",
    "name": "THERAPY SPECIALISTS EXT.",
    "npi": null,
    "hcaiId": null,
    "businessName": null,
    "contactEmail": null,
    "categoryName": "OTHER",
    "categoryCode": "UNLICEN",
    "licenseStatus": null,
    "inService": null,
    "licenseNumber": null,
    "licenseEffectiveDate": null,
    "licenseExpirationDate": null,
    "dataDate": "10/18/2025",
    "capacity": 0,
    "address": "8914 TROY ST",
    "city": "SPRING VALLEY",
    "zip": "91977",
    "county": "SAN DIEGO",
    "phone": "(000) 000-0000",
    "lat": 32.73732,
    "lng": -117.007812
  }
]