[
  {
    "id": "630027073",
    "name": "COASTAL A S C LLC",
    "npi": null,
    "hcaiId": null,
    "businessName": null,
    "contactEmail": null,
    "categoryName": "SURGICAL CLINIC",
    "categoryCode": "ASC",
    "licenseStatus": null,
    "inService": null,
    "licenseNumber": null,
    "licenseEffectiveDate": null,
    "licenseExpirationDate": null,
    "dataDate": "10/18/2025",
    "capacity": 0,
    "address": "6221 METROPOLITAN ST, SUITE 102",
    "city": "CARLSBAD",
    "zip": "92009",
    "county": "SAN DIEGO",
    "phone": "(760) 607-1750",
    "lat": 33.12324899,
    "lng": -117.266096
  },
  {
    "id": "080001751",
    "name": "GLENBROOK",
    "npi": null,
    "hcaiId": "206374336",
    "businessName": "GLENBROOK HC LLC",
    "contactEmail": "KEARNAGHANK@LACOSTAGLEN.COM",
    "categoryName": "SKILLED NURSING FACILITY",
    "categoryCode": "SNF",
    "licenseStatus": "ACTIVE",
    "inService": true,
    "licenseNumber": "080000786",
    "licenseEffectiveDate": "03/18/2025",
    "licenseExpirationDate": "03/17/2026",
    "dataDate": "10/18/2025",
    "capacity": 80,
    "address": "1950 CALLE BARCELONA",
    "city": "CARLSBAD",
    "zip": "92009",
    "county": "SAN DIEGO",
    "phone": "(760) 704-6800",
    "lat": 33.07365,
    "lng": -117.2664405
  },
  {
    "id": "090000123",
    "name": "LA COSTA HOUSE",
    "npi": "1962488007",
    "hcaiId": null,
    "businessName": "T.E.R.I., INC.",
    "contactEmail": "PAYABLES@TERIINC.ORG",
    "categoryName": "INTERMEDIATE CARE FACILITY-DD/H/N/CN/IID",
    "categoryCode": "ICFDDH",
    "licenseStatus": "ACTIVE",
    "inService": true,
    "licenseNumber": "090000210",
    "licenseEffectiveDate": "12/07/2024",
    "licenseExpirationDate": "12/06/2025",
    "dataDate": "10/18/2025",
    "capacity": 6,
    "address": "6433 FLAMENCO ST",
    "city": "CARLSBAD",
    "zip": "92009",
    "county": "SAN DIEGO",
    "phone": "(760) 458-0694",
    "lat": 33.110442,
    "lng": -117.24822
  },
  {
    "id": "630012839",
    "name": "MICHALOWSKI HOME",
    "npi": "1962488007",
    "hcaiId": null,
    "businessName": "T.E.R.I., INC.",
    "contactEmail": "KIM.PRIDA@TERIINC.ORG",
    "categoryName": "INTERMEDIATE CARE FACILITY-DD/H/N/CN/IID",
    "categoryCode": "ICFDDH",
    "licenseStatus": "ACTIVE",
    "inService": true,
    "licenseNumber": "550001562",
    "licenseEffectiveDate": "05/05/2025",
    "licenseExpirationDate": "05/04/2026",
    "dataDate": "10/18/2025",
    "capacity": 5,
    "address": "6205 ALVERTON DR",
    "city": "CARLSBAD",
    "zip": "92009",
    "county": "SAN DIEGO",
    "phone": "(760) 721-1706",
    "lat": 33.127137,
    "lng": -117.2613915
  }
]