[
  {
    "id": "630014859",
    "name": "ARCHER HEALTH INC",
    "npi": "1053741017",
    "hcaiId": "406370022",
    "businessName": "OPTIMAL HEALTH CARE, INC.",
    "contactEmail": "N.PHI@ARCHERHEALTHINC.COM",
    "categoryName": "HOME HEALTH AGENCY",
    "categoryCode": "HHA",
    "licenseStatus": "ACTIVE",
    "inService": true,
    "licenseNumber": "550003413",
    "licenseEffectiveDate": "02/10/2025",
    "licenseExpirationDate": "02/09/2026",
    "dataDate": "10/18/2025",
    "capacity": 0,
    "address": "5927 BALFOUR CT, SUITE 205",
    "city": "CARLSBAD",
    "zip": "92008",
    "county": "SAN DIEGO",
    "phone": "(800) 689-5049",
    "lat": 33.12990598,
    "lng": -117.281426
  },
  {
    "id": "630014046",
    "name": "ARDENT HOSPICE",
    "npi": null,
    "hcaiId": "406374524",
    "businessName": "CROWN POINT HEALTHCARE LLC",
    "contactEmail": "ADMIN@ARDENTHOSPICESD.COM",
    "categoryName": "HOSPICE",
    "categoryCode": "HOSPICE",
    "licenseStatus": "ACTIVE",
    "inService": true,
    "licenseNumber": "550002248",
    "licenseEffectiveDate": "04/17/2025",
    "licenseExpirationDate": "04/16/2027",
    "dataDate": "10/18/2025",
    "capacity": 0,
    "address": "5411 AVENIDA ENCINAS, SUITE 260",
    "city": "CARLSBAD",
    "zip": "92008",
    "county": "SAN DIEGO",
    "phone": "(858) 952-1786",
    "lat": 33.12854698,
    "lng": -117.327906
  },
  {
    "id": "080001502",
    "name": "BAYSHIRE CARLSBAD",
    "npi": null,
    "hcaiId": "206374272",
    "businessName": "SKILLED CAMINO LLC",
    "contactEmail": "BILL@BAYSHIRE.COM",
    "categoryName": "SKILLED NURSING FACILITY",
    "categoryCode": "SNF",
    "licenseStatus": "ACTIVE",
    "inService": true,
    "licenseNumber": "080000627",
    "licenseEffectiveDate": "12/05/2024",
    "licenseExpirationDate": "12/04/2025",
    "dataDate": "10/18/2025",
    "capacity": 45,
    "address": "3140 EL CAMINO REAL",
    "city": "CARLSBAD",
    "zip": "92008",
    "county": "SAN DIEGO",
    "phone": "(760) 720-9898",
    "lat": 33.174306,
    "lng": -117.324
  },
  {
    "id": "630019297",
    "name": "BRIGHTSTAR CARE OF CARLSBAD",
    "npi": null,
    "hcaiId": "406372979",
    "businessName": "DUSIE CORPORATION",
    "contactEmail": "SUSIE.SWEIGER@BRIGHTSTARCARE.COM",
    "categoryName": "HOME HEALTH AGENCY",
    "categoryCode": "HHA",
    "licenseStatus": "ACTIVE",
    "inService": true,
    "licenseNumber": "550005848",
    "licenseEffectiveDate": "11/11/2025",
    "licenseExpirationDate": "11/10/2026",
    "dataDate": "10/18/2025",
    "capacity": 0,
    "address": "5962 LA PLACE CT, SUITE 195",
    "city": "CARLSBAD",
    "zip": "92008",
    "county": "SAN DIEGO",
    "phone": "(760) 448-1021",
    "lat": 33.131799,
    "lng": -117.270054
  },
  {
    "id": "080000073",
    "name": "CARLSBAD BY THE SEA",
    "npi": "1265518872",
    "hcaiId": "206374248",
    "businessName": "FRONT PORCH COMMUNITIES AND SERVICES",
    "contactEmail": null,
    "categoryName": "SKILLED NURSING FACILITY",
    "categoryCode": "SNF",
    "licenseStatus": "ACTIVE",
    "inService": true,
    "licenseNumber": "080000116",
    "licenseEffectiveDate": "11/30/2024",
    "licenseExpirationDate": "11/29/2025",
    "dataDate": "10/18/2025",
    "capacity": 33,
    "address": "2855 CARLSBAD BLVD",
    "city": "CARLSBAD",
    "zip": "92008",
    "county": "SAN DIEGO",
    "phone": "(760) 720-4580",
    "lat": 33.159528,
    "lng": -117.3526425
  },
  {
    "id": "080001763",
    "name": "DEPENDABLE NURSING, LLC",
    "npi": "1417102039",
    "hcaiId": "406374356",
    "businessName": "DEPENDABLE NURSING, LLC",
    "contactEmail": "JLONG@DEPENDABLENURSING.COM",
    "categoryName": "HOME HEALTH AGENCY",
    "categoryCode": "HHA",
    "licenseStatus": "ACTIVE",
    "inService": true,
    "licenseNumber": "080000794",
    "licenseEffectiveDate": "11/11/2025",
    "licenseExpirationDate": "11/10/2026",
    "dataDate": "10/18/2025",
    "capacity": 0,
    "address": "5055 AVENIDA ENCINAS, SUITE 120",
    "city": "CARLSBAD",
    "zip": "92008",
    "county": "SAN DIEGO",
    "phone": "(760) 602-0583",
    "lat": 33.131907,
    "lng": -117.330111
  },
  {
    "id": "080001482",
    "name": "HOSPICE OF THE NORTH COAST",
    "npi": null,
    "hcaiId": "406374269",
    "businessName": "HOSPICE OF THE NORTH COAST",
    "contactEmail": "RYARINA@HOSPICENORTHCOAST.ORG",
    "categoryName": "HOSPICE",
    "categoryCode": "HOSPICE",
    "licenseStatus": "ACTIVE",
    "inService": true,
    "licenseNumber": "080000621",
    "licenseEffectiveDate": "02/11/2025",
    "licenseExpirationDate": "02/10/2027",
    "dataDate": "10/18/2025",
    "capacity": 0,
    "address": "2525 PIO PICO DR, SUITE 301, O & P",
    "city": "CARLSBAD",
    "zip": "92008",
    "county": "SAN DIEGO",
    "phone": "(760) 431-4100",
    "lat": 33.169887,
    "lng": -117.3447765
  },
  {
    "id": "630014497",
    "name": "PACIFICA HOUSE",
    "npi": null,
    "hcaiId": "206374516",
    "businessName": "HOSPICE OF THE NORTH COAST",
    "contactEmail": "RTIMMINS@HOSPICENORTHCOAST.ORG",
    "categoryName": "HOSPICE FACILITY",
    "categoryCode": "HOFA",
    "licenseStatus": "ACTIVE",
    "inService": true,
    "licenseNumber": "550002537",
    "licenseEffectiveDate": "12/11/2024",
    "licenseExpirationDate": "12/10/2025",
    "dataDate": "10/18/2025",
    "capacity": 6,
    "address": "4411 PARK DR",
    "city": "CARLSBAD",
    "zip": "92008",
    "county": "SAN DIEGO",
    "phone": "(760) 637-5280",
    "lat": 33.148449,
    "lng": -117.3259395
  },
  {
    "id": "630012041",
    "name": "SAN DIEGO HOME HEALTH CARE",
    "npi": "1750531372",
    "hcaiId": "406374429",
    "businessName": "SAN DIEGO HOME HEALTH CARE SERVICES, INC.",
    "contactEmail": "SDHHCREG@COVENANTCARE.COM",
    "categoryName": "HOME HEALTH AGENCY",
    "categoryCode": "HHA",
    "licenseStatus": "ACTIVE",
    "inService": true,
    "licenseNumber": "550001041",
    "licenseEffectiveDate": "08/17/2025",
    "licenseExpirationDate": "08/16/2026",
    "dataDate": "10/18/2025",
    "capacity": 0,
    "address": "5050 AVENIDA ENCINAS, SUITE 200",
    "city": "CARLSBAD",
    "zip": "92008",
    "county": "SAN DIEGO",
    "phone": "(760) 436-1023",
    "lat": 33.132276,
    "lng": -117.328905
  },
  {
    "id": "630012704",
    "name": "SEAPORT HOME HEALTH",
    "npi": "1265837405",
    "hcaiId": "406374447",
    "businessName": "RANCHO BERNARDO HEALTHCARE, LLC",
    "contactEmail": "ADMIN@SEAPORTHHH.COM",
    "categoryName": "HOME HEALTH AGENCY",
    "categoryCode": "HHA",
    "licenseStatus": "ACTIVE",
    "inService": true,
    "licenseNumber": "550001427",
    "licenseEffectiveDate": "06/16/2025",
    "licenseExpirationDate": "06/15/2026",
    "dataDate": "10/18/2025",
    "capacity": 0,
    "address": "5411 AVENIDA ENCINAS, SUITE 250",
    "city": "CARLSBAD",
    "zip": "92008",
    "county": "SAN DIEGO",
    "phone": "(858) 634-5870",
    "lat": 33.12854698,
    "lng": -117.327906
  },
  {
    "id": "080001507",
    "name": "TRUECARE",
    "npi": "1255347704",
    "hcaiId": "306374480",
    "businessName": "NORTH COUNTY HEALTH PROJECT, INC.",
    "contactEmail": "LICENSING@TRUECARE.ORG",
    "categoryName": "PRIMARY CARE CLINIC",
    "categoryCode": "COMTYC",
    "licenseStatus": "ACTIVE",
    "inService": true,
    "licenseNumber": "080000630",
    "licenseEffectiveDate": "05/21/2025",
    "licenseExpirationDate": "05/20/2026",
    "dataDate": "10/18/2025",
    "capacity": 0,
    "address": "1295 CARLSBAD VILLAGE DR, SUITE 100",
    "city": "CARLSBAD",
    "zip": "92008",
    "county": "SAN DIEGO",
    "phone": "(760) 736-7055",
    "lat": 33.16509,
    "lng": -117.3383685
  }
]