[
  {
    "id": "630016727",
    "name": "ALL CONCIERGE HOMEHEALTH, INC.",
    "npi": "1427443969",
    "hcaiId": "406370856",
    "businessName": "ALL CONCIERGE HOMEHEALTH, INC.",
    "contactEmail": "OFFICE@ALLOFUS.WORK",
    "categoryName": "HOME HEALTH AGENCY",
    "categoryCode": "HHA",
    "licenseStatus": "ACTIVE",
    "inService": true,
    "licenseNumber": "550004225",
    "licenseEffectiveDate": "04/17/2025",
    "licenseExpirationDate": "04/16/2026",
    "dataDate": "10/18/2025",
    "capacity": 0,
    "address": "2038 CORTE DEL NOGAL, SUITE 149",
    "city": "CARLSBAD",
    "zip": "92011",
    "county": "SAN DIEGO",
    "phone": "(760) 696-3828",
    "lat": 33.11903201,
    "lng": -117.279374
  },
  {
    "id": "630012169",
    "name": "CARLSBAD SURGERY CENTER",
    "npi": "1003017351",
    "hcaiId": null,
    "businessName": null,
    "contactEmail": null,
    "categoryName": "SURGICAL CLINIC",
    "categoryCode": "ASC",
    "licenseStatus": null,
    "inService": null,
    "licenseNumber": null,
    "licenseEffectiveDate": null,
    "licenseExpirationDate": null,
    "dataDate": "10/18/2025",
    "capacity": 0,
    "address": "6121 PASEO DEL NORTE, SUITE 100",
    "city": "CARLSBAD",
    "zip": "92011",
    "county": "SAN DIEGO",
    "phone": "(760) 448-2488",
    "lat": 33.11858934,
    "lng": -117.3185924
  },
  {
    "id": "630014781",
    "name": "ELIZABETH HOSPICE - BRANCH",
    "npi": "1538168950",
    "hcaiId": "406374501",
    "businessName": "THE ELIZABETH HOSPICE, INC.",
    "contactEmail": null,
    "categoryName": "HOSPICE",
    "categoryCode": "HOSPICE",
    "licenseStatus": "ACTIVE",
    "inService": true,
    "licenseNumber": "080000519",
    "licenseEffectiveDate": "11/11/2025",
    "licenseExpirationDate": "11/10/2027",
    "dataDate": "10/18/2025",
    "capacity": 0,
    "address": "2038 CORTE DEL NOGAL",
    "city": "CARLSBAD",
    "zip": "92011",
    "county": "SAN DIEGO",
    "phone": "(760) 737-2050",
    "lat": 33.119037,
    "lng": -117.2793735
  },
  {
    "id": "080001716",
    "name": "MAXIM HEALTHCARE SERVICES, INC.",
    "npi": "1033142955",
    "hcaiId": "406374304",
    "businessName": "MAXIM HEALTHCARE SERVICES, INC.",
    "contactEmail": "ZOHUFFMAN@MAXHEALTH.COM",
    "categoryName": "HOME HEALTH AGENCY",
    "categoryCode": "HHA",
    "licenseStatus": "ACTIVE",
    "inService": true,
    "licenseNumber": "080000760",
    "licenseEffectiveDate": "06/19/2025",
    "licenseExpirationDate": "06/18/2026",
    "dataDate": "10/18/2025",
    "capacity": 0,
    "address": "2141 PALOMAR AIRPORT RD, SUITE 350",
    "city": "CARLSBAD",
    "zip": "92011",
    "county": "SAN DIEGO",
    "phone": "(760) 438-0078",
    "lat": 33.124185,
    "lng": -117.2752335
  },
  {
    "id": "630028064",
    "name": "UNITED SURGERY CENTER CARLSBAD LLC",
    "npi": null,
    "hcaiId": null,
    "businessName": null,
    "contactEmail": "KGROSS@PHYSICIANS-ALLY.COM",
    "categoryName": "SURGICAL CLINIC",
    "categoryCode": "ASC",
    "licenseStatus": null,
    "inService": null,
    "licenseNumber": null,
    "licenseEffectiveDate": null,
    "licenseExpirationDate": null,
    "dataDate": "10/18/2025",
    "capacity": 0,
    "address": "6185 PASEO DEL NORTE, SUITE 150",
    "city": "CARLSBAD",
    "zip": "92011",
    "county": "SAN DIEGO",
    "phone": "(720) 236-1254",
    "lat": 33.115614,
    "lng": -117.317113
  }
]