[
  {
    "id": "630004481",
    "name": "LA MAESTRA COMMUNITY HEALTH CENTERS - 183 S 1ST ST.",
    "npi": "1306929443",
    "hcaiId": "306374374",
    "businessName": "LA MAESTRA FAMILY CLINIC, INC.",
    "contactEmail": "INFO@SOUTHLANDINTEGRATED.ORG",
    "categoryName": "PRIMARY CARE CLINIC",
    "categoryCode": "COMTYC",
    "licenseStatus": "ACTIVE",
    "inService": true,
    "licenseNumber": "090000378",
    "licenseEffectiveDate": "02/21/2025",
    "licenseExpirationDate": "02/20/2026",
    "dataDate": "10/18/2025",
    "capacity": 0,
    "address": "183 S 1ST ST",
    "city": "EL CAJON",
    "zip": "92019",
    "county": "SAN DIEGO",
    "phone": "(619) 584-1612",
    "lat": 32.793813,
    "lng": -116.9442765
  },
  {
    "id": "090001600",
    "name": "LA MAESTRA COMMUNITY HEALTH CENTERS - EL CAJON",
    "npi": "1306929443",
    "hcaiId": "306374341",
    "businessName": "LA MAESTRA FAMILY CLINIC, INC.",
    "contactEmail": "TVU@LAMAESTRA.ORG",
    "categoryName": "PRIMARY CARE CLINIC",
    "categoryCode": "COMTYC",
    "licenseStatus": "ACTIVE",
    "inService": true,
    "licenseNumber": "090000378",
    "licenseEffectiveDate": "02/21/2025",
    "licenseExpirationDate": "02/20/2026",
    "dataDate": "10/18/2025",
    "capacity": 0,
    "address": "165 S 1ST ST",
    "city": "EL CAJON",
    "zip": "92019",
    "county": "SAN DIEGO",
    "phone": "(619) 312-0347",
    "lat": 32.79402,
    "lng": -116.9441955
  },
  {
    "id": "090001579",
    "name": "PENASCO ROAD",
    "npi": "1891750170",
    "hcaiId": null,
    "businessName": "HOME OF GUIDING HANDS CORPORATION",
    "contactEmail": "LAURIE@GUIDINGHANDS.ORG",
    "categoryName": "INTERMEDIATE CARE FACILITY-DD/H/N/CN/IID",
    "categoryCode": "ICFDDH",
    "licenseStatus": "ACTIVE",
    "inService": true,
    "licenseNumber": "090000665",
    "licenseEffectiveDate": "01/30/2025",
    "licenseExpirationDate": "01/29/2026",
    "dataDate": "10/18/2025",
    "capacity": 6,
    "address": "1543 PENASCO RD",
    "city": "EL CAJON",
    "zip": "92019",
    "county": "SAN DIEGO",
    "phone": "(619) 938-2850",
    "lat": 32.770062,
    "lng": -116.9263935
  },
  {
    "id": "090000716",
    "name": "SYCUAN MEDICAL/DENTAL CENTER",
    "npi": null,
    "hcaiId": null,
    "businessName": null,
    "contactEmail": "CHARLOTTEQ@SYCUAN.ORG",
    "categoryName": "OTHER",
    "categoryCode": "UNLICEN",
    "licenseStatus": null,
    "inService": null,
    "licenseNumber": null,
    "licenseEffectiveDate": null,
    "licenseExpirationDate": null,
    "dataDate": "10/18/2025",
    "capacity": 0,
    "address": "5442 SYCUAN RD",
    "city": "EL CAJON",
    "zip": "92019",
    "county": "SAN DIEGO",
    "phone": "(619) 445-0707",
    "lat": 32.7889528,
    "lng": -116.8320636
  },
  {
    "id": "080001687",
    "name": "THERAPY SPECIALISTS EXT",
    "npi": null,
    "hcaiId": null,
    "businessName": null,
    "contactEmail": null,
    "categoryName": "OTHER",
    "categoryCode": "UNLICEN",
    "licenseStatus": null,
    "inService": null,
    "licenseNumber": null,
    "licenseEffectiveDate": null,
    "licenseExpirationDate": null,
    "dataDate": "10/18/2025",
    "capacity": 0,
    "address": "794 DOROTHY ST",
    "city": "EL CAJON",
    "zip": "92019",
    "county": "SAN DIEGO",
    "phone": "(000) 000-0000",
    "lat": 32.786001,
    "lng": -116.934129
  }
]