[
  {
    "id": "630027554",
    "name": "OAK HILL ELEMENTARY SCHOOL",
    "npi": null,
    "hcaiId": null,
    "businessName": "NEIGHBORHOOD HEALTHCARE",
    "contactEmail": null,
    "categoryName": "PRIMARY CARE CLINIC",
    "categoryCode": "COMTYC",
    "licenseStatus": "ACTIVE",
    "inService": true,
    "licenseNumber": "080000657",
    "licenseEffectiveDate": "01/29/2025",
    "licenseExpirationDate": "01/28/2026",
    "dataDate": "10/18/2025",
    "capacity": 0,
    "address": "1820 OAK HILL DR, ROOM MPR",
    "city": "ESCONDIDO",
    "zip": "92027",
    "county": "SAN DIEGO",
    "phone": null,
    "lat": 33.12988608,
    "lng": -117.0504382
  },
  {
    "id": "630027434",
    "name": "ORANGE GLEN ELEMENTARY SCHOOL",
    "npi": null,
    "hcaiId": null,
    "businessName": "NEIGHBORHOOD HEALTHCARE",
    "contactEmail": "MELVIN.LOFTON@NHCARE.ORG",
    "categoryName": "PRIMARY CARE CLINIC",
    "categoryCode": "COMTYC",
    "licenseStatus": "ACTIVE",
    "inService": true,
    "licenseNumber": "080000657",
    "licenseEffectiveDate": "01/29/2025",
    "licenseExpirationDate": "01/28/2026",
    "dataDate": "10/18/2025",
    "capacity": 0,
    "address": "2861 E VALLEY PKWY, ROOM 29",
    "city": "ESCONDIDO",
    "zip": "92027",
    "county": "SAN DIEGO",
    "phone": "(442) 286-8364",
    "lat": 33.14534417,
    "lng": -117.0359441
  },
  {
    "id": "630026789",
    "name": "ORANGE GLEN HIGH SCHOOL",
    "npi": null,
    "hcaiId": null,
    "businessName": "NEIGHBORHOOD HEALTHCARE",
    "contactEmail": null,
    "categoryName": "PRIMARY CARE CLINIC",
    "categoryCode": "COMTYC",
    "licenseStatus": "ACTIVE",
    "inService": true,
    "licenseNumber": "080000397",
    "licenseEffectiveDate": "12/09/2024",
    "licenseExpirationDate": "12/08/2025",
    "dataDate": "10/18/2025",
    "capacity": 0,
    "address": "2200 GLENRIDGE RD",
    "city": "ESCONDIDO",
    "zip": "92027",
    "county": "SAN DIEGO",
    "phone": null,
    "lat": 33.12808619,
    "lng": -117.0410333
  },
  {
    "id": "080000724",
    "name": "PALOMAR HEIGHTS CARE CENTER",
    "npi": "1255337440",
    "hcaiId": null,
    "businessName": "PALOMAR HEIGHTS HEALTHCARE, LLC",
    "contactEmail": null,
    "categoryName": "REHABILITATION CLINIC",
    "categoryCode": "OPT/SP",
    "licenseStatus": "ACTIVE",
    "inService": true,
    "licenseNumber": "080000060",
    "licenseEffectiveDate": "11/01/2024",
    "licenseExpirationDate": "10/31/2025",
    "dataDate": "10/18/2025",
    "capacity": 0,
    "address": "1260 E OHIO AVE",
    "city": "ESCONDIDO",
    "zip": "92027",
    "county": "SAN DIEGO",
    "phone": null,
    "lat": 33.128946,
    "lng": -117.0644085
  },
  {
    "id": "080000066",
    "name": "PALOMAR HEIGHTS POST ACUTE",
    "npi": "1255337440",
    "hcaiId": "206370723",
    "businessName": "PALOMAR HEIGHTS HEALTHCARE, LLC",
    "contactEmail": null,
    "categoryName": "SKILLED NURSING FACILITY",
    "categoryCode": "SNF",
    "licenseStatus": "ACTIVE",
    "inService": true,
    "licenseNumber": "080000060",
    "licenseEffectiveDate": "11/01/2024",
    "licenseExpirationDate": "10/31/2025",
    "dataDate": "10/18/2025",
    "capacity": 98,
    "address": "1260 E OHIO AVE",
    "city": "ESCONDIDO",
    "zip": "92027",
    "county": "SAN DIEGO",
    "phone": "(760) 746-1100",
    "lat": 33.128946,
    "lng": -117.0644085
  },
  {
    "id": "630027555",
    "name": "PIONEER ELEMENTARY SCHOOL",
    "npi": null,
    "hcaiId": null,
    "businessName": "NEIGHBORHOOD HEALTHCARE",
    "contactEmail": null,
    "categoryName": "PRIMARY CARE CLINIC",
    "categoryCode": "COMTYC",
    "licenseStatus": "ACTIVE",
    "inService": true,
    "licenseNumber": "080000657",
    "licenseEffectiveDate": "01/29/2025",
    "licenseExpirationDate": "01/28/2026",
    "dataDate": "10/18/2025",
    "capacity": 0,
    "address": "980 N ASH ST, ROOM POD",
    "city": "ESCONDIDO",
    "zip": "92027",
    "county": "SAN DIEGO",
    "phone": null,
    "lat": 33.13841464,
    "lng": -117.0723254
  }
]