[
  {
    "id": "630027415",
    "name": "ALNOOR ADULT DAY HEALTH CARE CENTER",
    "npi": null,
    "hcaiId": null,
    "businessName": "ALNOOR ADULT CARE, INC.",
    "contactEmail": "ALNOORADULTCARE@GMAIL.COM",
    "categoryName": "ADULT DAY HEALTH CARE",
    "categoryCode": "ADHC",
    "licenseStatus": "ACTIVE",
    "inService": true,
    "licenseNumber": "550009029",
    "licenseEffectiveDate": "03/21/2025",
    "licenseExpirationDate": "03/20/2026",
    "dataDate": "10/18/2025",
    "capacity": 0,
    "address": "905 W MAIN ST",
    "city": "EL CAJON",
    "zip": "92020",
    "county": "SAN DIEGO",
    "phone": "(619) 486-6350",
    "lat": 32.794705,
    "lng": -116.973462
  },
  {
    "id": "630019700",
    "name": "API COUNSELING GROUP",
    "npi": null,
    "hcaiId": null,
    "businessName": "NEIGHBORHOOD HEALTHCARE",
    "contactEmail": null,
    "categoryName": "PRIMARY CARE CLINIC",
    "categoryCode": "COMTYC",
    "licenseStatus": "ACTIVE",
    "inService": true,
    "licenseNumber": "090000156",
    "licenseEffectiveDate": "11/13/2025",
    "licenseExpirationDate": "11/12/2026",
    "dataDate": "10/18/2025",
    "capacity": 0,
    "address": "215 W MADISON AVE",
    "city": "EL CAJON",
    "zip": "92020",
    "county": "SAN DIEGO",
    "phone": "(619) 401-6236",
    "lat": 32.80062098,
    "lng": -116.9641643
  },
  {
    "id": "630021502",
    "name": "ASTUR HEALTH CARE LLC",
    "npi": null,
    "hcaiId": null,
    "businessName": "ASTUR HEALTH CARE LLC",
    "contactEmail": "ASTURHEALTHCARE@GMAIL.COM",
    "categoryName": "HOME HEALTH AGENCY",
    "categoryCode": "HHA",
    "licenseStatus": "ACTIVE",
    "inService": true,
    "licenseNumber": "550008544",
    "licenseEffectiveDate": "05/19/2025",
    "licenseExpirationDate": "05/18/2026",
    "dataDate": "10/18/2025",
    "capacity": 0,
    "address": "680 FLETCHER PKWY, SUITE 205",
    "city": "EL CAJON",
    "zip": "92020",
    "county": "SAN DIEGO",
    "phone": "(614) 607-8854",
    "lat": 32.808302,
    "lng": -116.970687
  },
  {
    "id": "630012823",
    "name": "BRIGHTSTAR CARE OF ENCINITAS",
    "npi": null,
    "hcaiId": "406374451",
    "businessName": "SUMAD LLC",
    "contactEmail": "ROBERT.TAHIRY@BRIGHTSTARCARE.COM",
    "categoryName": "HOME HEALTH AGENCY",
    "categoryCode": "HHA",
    "licenseStatus": "ACTIVE",
    "inService": true,
    "licenseNumber": "550001469",
    "licenseEffectiveDate": "09/05/2025",
    "licenseExpirationDate": "09/04/2026",
    "dataDate": "10/18/2025",
    "capacity": 0,
    "address": "680 FLETCHER PKWY, SUITE 206",
    "city": "EL CAJON",
    "zip": "92020",
    "county": "SAN DIEGO",
    "phone": "(858) 777-9525",
    "lat": 32.808294,
    "lng": -116.9706735
  },
  {
    "id": "090001511",
    "name": "CHASE AVENUE FAMILY HEALTH CENTER",
    "npi": "1104861681",
    "hcaiId": "306374280",
    "businessName": "FAMILY HEALTH CENTERS OF SAN DIEGO, INC.",
    "contactEmail": "SBOSQUE@FHCSD.ORG",
    "categoryName": "PRIMARY CARE CLINIC",
    "categoryCode": "COMTYC",
    "licenseStatus": "ACTIVE",
    "inService": true,
    "licenseNumber": "090000631",
    "licenseEffectiveDate": "03/28/2025",
    "licenseExpirationDate": "03/27/2026",
    "dataDate": "10/18/2025",
    "capacity": 0,
    "address": "1111 W CHASE AVE",
    "city": "EL CAJON",
    "zip": "92020",
    "county": "SAN DIEGO",
    "phone": "(619) 906-4517",
    "lat": 32.781339,
    "lng": -116.9766045
  },
  {
    "id": "090001576",
    "name": "CUMBRE",
    "npi": "1124083738",
    "hcaiId": null,
    "businessName": "HOME OF GUIDING HANDS CORPORATION",
    "contactEmail": "LAURIE@GUIDINGHANDS.ORG",
    "categoryName": "INTERMEDIATE CARE FACILITY-DD/H/N/CN/IID",
    "categoryCode": "ICFDDH",
    "licenseStatus": "ACTIVE",
    "inService": true,
    "licenseNumber": "090000663",
    "licenseEffectiveDate": "11/08/2025",
    "licenseExpirationDate": "11/07/2026",
    "dataDate": "10/18/2025",
    "capacity": 6,
    "address": "2198 CUMBRE PL",
    "city": "EL CAJON",
    "zip": "92020",
    "county": "SAN DIEGO",
    "phone": "(619) 938-2850",
    "lat": 32.825799,
    "lng": -116.9891775
  },
  {
    "id": "630011060",
    "name": "DAP HEALTH - CENTRO MEDICO EL CAJON",
    "npi": "1154480069",
    "hcaiId": "306374549",
    "businessName": "DAP HEALTH, INC.",
    "contactEmail": "SPRIOR@DAPHEALTH.ORG",
    "categoryName": "PRIMARY CARE CLINIC",
    "categoryCode": "COMTYC",
    "licenseStatus": "ACTIVE",
    "inService": true,
    "licenseNumber": "550000430",
    "licenseEffectiveDate": "03/02/2025",
    "licenseExpirationDate": "03/01/2026",
    "dataDate": "10/18/2025",
    "capacity": 0,
    "address": "133 W MAIN ST",
    "city": "EL CAJON",
    "zip": "92020",
    "county": "SAN DIEGO",
    "phone": "(760) 676-5982",
    "lat": 32.794706,
    "lng": -116.962794
  },
  {
    "id": "630026823",
    "name": "EL CAJON ADULT DAY HEALTH CARE CENTER",
    "npi": null,
    "hcaiId": null,
    "businessName": "CBAS CONSULTING, INC.",
    "contactEmail": "HREZKWA@YAHOO.COM",
    "categoryName": "ADULT DAY HEALTH CARE",
    "categoryCode": "ADHC",
    "licenseStatus": "ACTIVE",
    "inService": true,
    "licenseNumber": "550008511",
    "licenseEffectiveDate": "05/04/2025",
    "licenseExpirationDate": "05/03/2026",
    "dataDate": "10/18/2025",
    "capacity": 0,
    "address": "854 JACKMAN ST",
    "city": "EL CAJON",
    "zip": "92020",
    "county": "SAN DIEGO",
    "phone": "(818) 404-5005",
    "lat": 32.80691466,
    "lng": -116.973504
  },
  {
    "id": "630027340",
    "name": "EL CAJON FAMILY COUNSELING CENTER",
    "npi": null,
    "hcaiId": null,
    "businessName": "FAMILY HEALTH CENTERS OF SAN DIEGO, INC.",
    "contactEmail": null,
    "categoryName": "PRIMARY CARE CLINIC",
    "categoryCode": "COMTYC",
    "licenseStatus": "ACTIVE",
    "inService": true,
    "licenseNumber": "550000024",
    "licenseEffectiveDate": "05/09/2025",
    "licenseExpirationDate": "05/08/2026",
    "dataDate": "10/18/2025",
    "capacity": 0,
    "address": "338 W LEXINGTON AVE, SUITE 104",
    "city": "EL CAJON",
    "zip": "92020",
    "county": "SAN DIEGO",
    "phone": null,
    "lat": 32.79299501,
    "lng": -116.965153
  },
  {
    "id": "630016669",
    "name": "EL CAJON FAMILY HEALTH CENTER",
    "npi": "1932561198",
    "hcaiId": "306374559",
    "businessName": "FAMILY HEALTH CENTERS OF SAN DIEGO, INC.",
    "contactEmail": "LICENSING@FHCSD.ORG",
    "categoryName": "PRIMARY CARE CLINIC",
    "categoryCode": "COMTYC",
    "licenseStatus": "ACTIVE",
    "inService": true,
    "licenseNumber": "550003553",
    "licenseEffectiveDate": "06/21/2025",
    "licenseExpirationDate": "06/20/2026",
    "dataDate": "10/18/2025",
    "capacity": 0,
    "address": "525 E. MAIN STREET",
    "city": "EL CAJON",
    "zip": "92020",
    "county": "SAN DIEGO",
    "phone": "(619) 876-4454",
    "lat": 32.794641,
    "lng": -116.9559765
  },
  {
    "id": "630017920",
    "name": "EUCLID ENDOSCOPY CENTER LP",
    "npi": "1205853041",
    "hcaiId": null,
    "businessName": null,
    "contactEmail": "TDES234@AOL.COM",
    "categoryName": "SURGICAL CLINIC",
    "categoryCode": "ASC",
    "licenseStatus": null,
    "inService": null,
    "licenseNumber": null,
    "licenseEffectiveDate": null,
    "licenseExpirationDate": null,
    "dataDate": "10/18/2025",
    "capacity": 0,
    "address": "2732 NAVAJO RD, SUITE 100",
    "city": "EL CAJON",
    "zip": "92020",
    "county": "SAN DIEGO",
    "phone": "(619) 323-2732",
    "lat": 32.802309,
    "lng": -117.0024885
  },
  {
    "id": "630019875",
    "name": "FAMILYHEALTH - EL CAJON YOUTH COUNSELING CENTER",
    "npi": null,
    "hcaiId": null,
    "businessName": "FAMILY HEALTH CENTERS OF SAN DIEGO, INC.",
    "contactEmail": null,
    "categoryName": "PRIMARY CARE CLINIC",
    "categoryCode": "COMTYC",
    "licenseStatus": "ACTIVE",
    "inService": true,
    "licenseNumber": "550000024",
    "licenseEffectiveDate": "05/09/2025",
    "licenseExpirationDate": "05/08/2026",
    "dataDate": "10/18/2025",
    "capacity": 0,
    "address": "680 FLETCHER PKWY, SUITE 200",
    "city": "EL CAJON",
    "zip": "92020",
    "county": "SAN DIEGO",
    "phone": "(619) 515-2365",
    "lat": 32.808303,
    "lng": -116.970678
  },
  {
    "id": "090000108",
    "name": "GROSSMONT HEALTHCARE HOME",
    "npi": "1043275373",
    "hcaiId": null,
    "businessName": "HOME OF GUIDING HANDS CORPORATION",
    "contactEmail": "LAURIE@GUIDINGHANDS.ORG",
    "categoryName": "INTERMEDIATE CARE FACILITY-DD/H/N/CN/IID",
    "categoryCode": "ICFDDH",
    "licenseStatus": "ACTIVE",
    "inService": true,
    "licenseNumber": "090000196",
    "licenseEffectiveDate": "12/30/2024",
    "licenseExpirationDate": "12/29/2025",
    "dataDate": "10/18/2025",
    "capacity": 6,
    "address": "1401 LEMON AVE",
    "city": "EL CAJON",
    "zip": "92020",
    "county": "SAN DIEGO",
    "phone": "(619) 938-2850",
    "lat": 32.776974,
    "lng": -116.972325
  },
  {
    "id": "090001578",
    "name": "HOME OF GUIDING HANDS - HINMAN HOME",
    "npi": "1801851985",
    "hcaiId": null,
    "businessName": "HOME OF GUIDING HANDS CORPORATION",
    "contactEmail": "LAURIE@GUIDINGHANDS.ORG",
    "categoryName": "INTERMEDIATE CARE FACILITY-DD/H/N/CN/IID",
    "categoryCode": "ICFDDH",
    "licenseStatus": "ACTIVE",
    "inService": true,
    "licenseNumber": "090000664",
    "licenseEffectiveDate": "05/09/2025",
    "licenseExpirationDate": "05/08/2026",
    "dataDate": "10/18/2025",
    "capacity": 6,
    "address": "2091 VENTANA WAY",
    "city": "EL CAJON",
    "zip": "92020",
    "county": "SAN DIEGO",
    "phone": "(619) 938-2850",
    "lat": 32.82408,
    "lng": -116.992791
  },
  {
    "id": "090000114",
    "name": "JACK CLOSE HOUSE",
    "npi": "1831151851",
    "hcaiId": null,
    "businessName": "HOME OF GUIDING HANDS CORPORATION",
    "contactEmail": "LAURIE@GUIDINGHANDS.ORG",
    "categoryName": "INTERMEDIATE CARE FACILITY-DD/H/N/CN/IID",
    "categoryCode": "ICFDDH",
    "licenseStatus": "ACTIVE",
    "inService": true,
    "licenseNumber": "090000199",
    "licenseEffectiveDate": "12/30/2024",
    "licenseExpirationDate": "12/29/2025",
    "dataDate": "10/18/2025",
    "capacity": 6,
    "address": "533 CLAYDELLE AVE",
    "city": "EL CAJON",
    "zip": "92020",
    "county": "SAN DIEGO",
    "phone": "(619) 938-2850",
    "lat": 32.789439,
    "lng": -116.9584425
  },
  {
    "id": "090001471",
    "name": "KASEY'S HOME",
    "npi": "1639392079",
    "hcaiId": null,
    "businessName": "SEYKAT CORPORATION",
    "contactEmail": "HILLDALEHABILITATION@YAHOO.COM",
    "categoryName": "INTERMEDIATE CARE FACILITY-DD/H/N/CN/IID",
    "categoryCode": "ICFDDH",
    "licenseStatus": "ACTIVE",
    "inService": true,
    "licenseNumber": "090000616",
    "licenseEffectiveDate": "11/09/2025",
    "licenseExpirationDate": "11/08/2026",
    "dataDate": "10/18/2025",
    "capacity": 6,
    "address": "1164 CRYSTAL LN",
    "city": "EL CAJON",
    "zip": "92020",
    "county": "SAN DIEGO",
    "phone": "(619) 465-8010",
    "lat": 32.778378,
    "lng": -116.940438
  },
  {
    "id": "630022096",
    "name": "LA MAESTRA COMMUNITY HEALTH CENTERS-REA AVENUE",
    "npi": "1609849074",
    "hcaiId": null,
    "businessName": "LA MAESTRA FAMILY CLINIC, INC.",
    "contactEmail": null,
    "categoryName": "PRIMARY CARE CLINIC",
    "categoryCode": "COMTYC",
    "licenseStatus": "ACTIVE",
    "inService": true,
    "licenseNumber": "090000378",
    "licenseEffectiveDate": "02/21/2025",
    "licenseExpirationDate": "02/20/2026",
    "dataDate": "10/18/2025",
    "capacity": 0,
    "address": "181 REA AVE",
    "city": "EL CAJON",
    "zip": "92020",
    "county": "SAN DIEGO",
    "phone": null,
    "lat": 32.795424,
    "lng": -116.960418
  },
  {
    "id": "060002028",
    "name": "MAGNOLIA ADULT DAY HEALTH CARE",
    "npi": null,
    "hcaiId": null,
    "businessName": "INGLEWOOD COMMUNITY ADULT DAY HEALTH CARE CENTER, INC.",
    "contactEmail": "MAGNOLIAADHC@GMAIL.COM",
    "categoryName": "ADULT DAY HEALTH CARE",
    "categoryCode": "ADHC",
    "licenseStatus": "ACTIVE",
    "inService": true,
    "licenseNumber": "060000821",
    "licenseEffectiveDate": "06/28/2025",
    "licenseExpirationDate": "06/27/2026",
    "dataDate": "10/18/2025",
    "capacity": 0,
    "address": "490 N MAGNOLIA AVE",
    "city": "EL CAJON",
    "zip": "92020",
    "county": "SAN DIEGO",
    "phone": "(619) 444-1522",
    "lat": 32.800671,
    "lng": -116.9628435
  },
  {
    "id": "090000003",
    "name": "MAGNOLIA POST ACUTE CARE",
    "npi": "1316340227",
    "hcaiId": "206370741",
    "businessName": "JEFFERSON HEALTHCARE LLC",
    "contactEmail": "STMONTGOMERY@ENSIGNSERVICES.NET",
    "categoryName": "SKILLED NURSING FACILITY",
    "categoryCode": "SNF",
    "licenseStatus": "ACTIVE",
    "inService": true,
    "licenseNumber": "090000072",
    "licenseEffectiveDate": "07/20/2025",
    "licenseExpirationDate": "07/19/2026",
    "dataDate": "10/18/2025",
    "capacity": 99,
    "address": "635 S MAGNOLIA AVE",
    "city": "EL CAJON",
    "zip": "92020",
    "county": "SAN DIEGO",
    "phone": "(619) 442-8826",
    "lat": 32.788683,
    "lng": -116.961606
  },
  {
    "id": "630017215",
    "name": "MAGNOLIA SURGERY CENTER, LLC",
    "npi": "1063887875",
    "hcaiId": null,
    "businessName": null,
    "contactEmail": null,
    "categoryName": "SURGICAL CLINIC",
    "categoryCode": "ASC",
    "licenseStatus": null,
    "inService": null,
    "licenseNumber": null,
    "licenseEffectiveDate": null,
    "licenseExpirationDate": null,
    "dataDate": "10/18/2025",
    "capacity": 0,
    "address": "463 N MAGNOLIA AVE, SUITE B",
    "city": "EL CAJON",
    "zip": "92020",
    "county": "SAN DIEGO",
    "phone": null,
    "lat": 32.80014,
    "lng": -116.9619885
  },
  {
    "id": "090000184",
    "name": "NEIGHBORHOOD HEALTHCARE EL CAJON",
    "npi": null,
    "hcaiId": "306371511",
    "businessName": "NEIGHBORHOOD HEALTHCARE",
    "contactEmail": "ELIZABETH.GARCIA@NHCARE.COM",
    "categoryName": "PRIMARY CARE CLINIC",
    "categoryCode": "COMTYC",
    "licenseStatus": "ACTIVE",
    "inService": true,
    "licenseNumber": "090000156",
    "licenseEffectiveDate": "11/13/2025",
    "licenseExpirationDate": "11/12/2026",
    "dataDate": "10/18/2025",
    "capacity": 0,
    "address": "855 E MADISON AVE",
    "city": "EL CAJON",
    "zip": "92020",
    "county": "SAN DIEGO",
    "phone": "(442) 286-8543",
    "lat": 32.800257,
    "lng": -116.952282
  },
  {
    "id": "090000034",
    "name": "PARKSIDE HEALTH AND WELLNESS CENTER",
    "npi": "1447653340",
    "hcaiId": "206370737",
    "businessName": "PARKSIDE HEALTHCARE, INC.",
    "contactEmail": "MOLDROYD@ENSIGNSERVICES.NET",
    "categoryName": "SKILLED NURSING FACILITY",
    "categoryCode": "SNF",
    "licenseStatus": "ACTIVE",
    "inService": true,
    "licenseNumber": "090000068",
    "licenseEffectiveDate": "07/24/2025",
    "licenseExpirationDate": "07/23/2026",
    "dataDate": "10/18/2025",
    "capacity": 52,
    "address": "444 W LEXINGTON AVE",
    "city": "EL CAJON",
    "zip": "92020",
    "county": "SAN DIEGO",
    "phone": "(619) 442-7744",
    "lat": 32.792967,
    "lng": -116.967213
  },
  {
    "id": "630011616",
    "name": "PROMONTORY HOME HEALTH",
    "npi": null,
    "hcaiId": "406374423",
    "businessName": "PROMONTORY HOME HEALTH SD, LLC",
    "contactEmail": "BRAMER@PROMONTORYSD.COM",
    "categoryName": "HOME HEALTH AGENCY",
    "categoryCode": "HHA",
    "licenseStatus": "ACTIVE",
    "inService": true,
    "licenseNumber": "550000906",
    "licenseEffectiveDate": "10/26/2023",
    "licenseExpirationDate": "10/25/2024",
    "dataDate": "10/18/2025",
    "capacity": 0,
    "address": "225 WEST MADISON AVENUE, SUITE 3",
    "city": "EL CAJON",
    "zip": "92020",
    "county": "SAN DIEGO",
    "phone": "(503) 542-2254",
    "lat": 32.800086,
    "lng": -116.964351
  },
  {
    "id": "080000620",
    "name": "RAI - FLETCHER PARKWAY - EL CAJON",
    "npi": "1922172642",
    "hcaiId": "306374016",
    "businessName": "RAI CARE CENTERS OF SOUTHERN CALIFORNIA II, LLC",
    "contactEmail": "JENNIFER.HEWITT@FRESENIUSMEDICALCARE.COM",
    "categoryName": "CHRONIC DIALYSIS CLINIC",
    "categoryCode": "ESRD/CDC",
    "licenseStatus": "ACTIVE",
    "inService": true,
    "licenseNumber": "080000301",
    "licenseEffectiveDate": "11/01/2025",
    "licenseExpirationDate": "10/31/2026",
    "dataDate": "10/18/2025",
    "capacity": 22,
    "address": "858 FLETCHER PKWY",
    "city": "EL CAJON",
    "zip": "92020",
    "county": "SAN DIEGO",
    "phone": "(619) 442-4122",
    "lat": 32.80784903,
    "lng": -116.9730305
  },
  {
    "id": "090000063",
    "name": "SAN DIEGO POST-ACUTE CENTER",
    "npi": "1285061085",
    "hcaiId": "206370717",
    "businessName": "PEPPERBUSH HOLDINGS, LLC",
    "contactEmail": "WILLIAM.JENKINS@SDPOSTACUTE.COM",
    "categoryName": "SKILLED NURSING FACILITY",
    "categoryCode": "SNF",
    "licenseStatus": "ACTIVE",
    "inService": true,
    "licenseNumber": "090000055",
    "licenseEffectiveDate": "04/01/2025",
    "licenseExpirationDate": "03/31/2026",
    "dataDate": "10/18/2025",
    "capacity": 240,
    "address": "1201 S ORANGE AVE",
    "city": "EL CAJON",
    "zip": "92020",
    "county": "SAN DIEGO",
    "phone": "(619) 441-1988",
    "lat": 32.779179,
    "lng": -116.963262
  },
  {
    "id": "630014058",
    "name": "SAN YSIDRO HEALTH EL CAJON/SAN DIEGO PACE",
    "npi": "1568845741",
    "hcaiId": "306370641",
    "businessName": "CENTRO DE SALUD DE LA COMUNIDAD DE SAN YSIDRO, INC.",
    "contactEmail": "SHAMETT@SYHEALTH.ORG",
    "categoryName": "PRIMARY CARE CLINIC",
    "categoryCode": "COMTYC",
    "licenseStatus": "ACTIVE",
    "inService": true,
    "licenseNumber": "550002514",
    "licenseEffectiveDate": "01/20/2025",
    "licenseExpirationDate": "01/19/2026",
    "dataDate": "10/18/2025",
    "capacity": 0,
    "address": "875 EL CAJON BLVD",
    "city": "EL CAJON",
    "zip": "92020",
    "county": "SAN DIEGO",
    "phone": "(619) 401-7401",
    "lat": 32.785227,
    "lng": -116.9766045
  },
  {
    "id": "090000105",
    "name": "SOMERSET SUBACUTE AND CARE",
    "npi": "1073916987",
    "hcaiId": "206370671",
    "businessName": "CLAYDELLE HEALTHCARE LLC",
    "contactEmail": "NWORKINGER@ENSIGNSERVICES.NET",
    "categoryName": "SKILLED NURSING FACILITY",
    "categoryCode": "SNF",
    "licenseStatus": "ACTIVE",
    "inService": true,
    "licenseNumber": "090000027",
    "licenseEffectiveDate": "08/28/2025",
    "licenseExpirationDate": "08/27/2026",
    "dataDate": "10/18/2025",
    "capacity": 65,
    "address": "151 CLAYDELLE AVE",
    "city": "EL CAJON",
    "zip": "92020",
    "county": "SAN DIEGO",
    "phone": "(619) 442-0245",
    "lat": 32.794155,
    "lng": -116.9582265
  },
  {
    "id": "090000020",
    "name": "STILLWATER POST-ACUTE",
    "npi": "1568484517",
    "hcaiId": "206370853",
    "businessName": "SAN DIEGO BAY HOLDINGS, LLC",
    "contactEmail": "MARY.COMRIE@LINKSHEALTH.COM",
    "categoryName": "SKILLED NURSING FACILITY",
    "categoryCode": "SNF",
    "licenseStatus": "ACTIVE",
    "inService": true,
    "licenseNumber": "090000117",
    "licenseEffectiveDate": "11/18/2025",
    "licenseExpirationDate": "11/17/2026",
    "dataDate": "10/18/2025",
    "capacity": 256,
    "address": "510 E WASHINGTON AVE",
    "city": "EL CAJON",
    "zip": "92020",
    "county": "SAN DIEGO",
    "phone": "(619) 440-1211",
    "lat": 32.788368,
    "lng": -116.9556075
  },
  {
    "id": "080001683",
    "name": "THERAPY SPECIALISTS EXT.",
    "npi": null,
    "hcaiId": null,
    "businessName": null,
    "contactEmail": null,
    "categoryName": "OTHER",
    "categoryCode": "UNLICEN",
    "licenseStatus": null,
    "inService": null,
    "licenseNumber": null,
    "licenseEffectiveDate": null,
    "licenseExpirationDate": null,
    "dataDate": "10/18/2025",
    "capacity": 0,
    "address": "151 CLAYDELLE AVE",
    "city": "EL CAJON",
    "zip": "92020",
    "county": "SAN DIEGO",
    "phone": "(000) 000-0000",
    "lat": 32.794155,
    "lng": -116.9582265
  },
  {
    "id": "080001684",
    "name": "THERAPY SPECIALISTS EXT.",
    "npi": null,
    "hcaiId": null,
    "businessName": null,
    "contactEmail": null,
    "categoryName": "OTHER",
    "categoryCode": "UNLICEN",
    "licenseStatus": null,
    "inService": null,
    "licenseNumber": null,
    "licenseEffectiveDate": null,
    "licenseExpirationDate": null,
    "dataDate": "10/18/2025",
    "capacity": 0,
    "address": "654 S ANZA ST",
    "city": "EL CAJON",
    "zip": "92020",
    "county": "SAN DIEGO",
    "phone": "(000) 000-0000",
    "lat": 32.788917,
    "lng": -116.949276
  },
  {
    "id": "090000104",
    "name": "VICTORIA POST ACUTE CARE",
    "npi": "1326441239",
    "hcaiId": "206370669",
    "businessName": "ANZA HEALTHCARE, INC.",
    "contactEmail": "CLEVAR@ENSIGNSERVICES.NET",
    "categoryName": "SKILLED NURSING FACILITY",
    "categoryCode": "SNF",
    "licenseStatus": "ACTIVE",
    "inService": true,
    "licenseNumber": "090000025",
    "licenseEffectiveDate": "09/05/2025",
    "licenseExpirationDate": "09/04/2026",
    "dataDate": "10/18/2025",
    "capacity": 120,
    "address": "654 S ANZA ST",
    "city": "EL CAJON",
    "zip": "92020",
    "county": "SAN DIEGO",
    "phone": "(619) 440-5005",
    "lat": 32.788917,
    "lng": -116.949276
  },
  {
    "id": "090000028",
    "name": "VILLA LAS PALMAS HEALTHCARE CENTER",
    "npi": "1023048295",
    "hcaiId": "206370670",
    "businessName": "JEFFREY PINE HOLDINGS, LLC",
    "contactEmail": "TSOLUM1@GMAIL.COM",
    "categoryName": "SKILLED NURSING FACILITY",
    "categoryCode": "SNF",
    "licenseStatus": "ACTIVE",
    "inService": true,
    "licenseNumber": "090000026",
    "licenseEffectiveDate": "06/01/2025",
    "licenseExpirationDate": "05/31/2026",
    "dataDate": "10/18/2025",
    "capacity": 151,
    "address": "622 S ANZA ST",
    "city": "EL CAJON",
    "zip": "92020",
    "county": "SAN DIEGO",
    "phone": "(619) 442-0544",
    "lat": 32.789484,
    "lng": -116.949087
  },
  {
    "id": "060002099",
    "name": "WESTERN ADULT DAY HEALTH CARE CENTER",
    "npi": null,
    "hcaiId": null,
    "businessName": "WESTERN CONSULTING & ANCILLARY SERVICES, INC.",
    "contactEmail": "WESTERNADHCELCAJON@YAHOO.COM",
    "categoryName": "ADULT DAY HEALTH CARE",
    "categoryCode": "ADHC",
    "licenseStatus": "ACTIVE",
    "inService": true,
    "licenseNumber": "060000892",
    "licenseEffectiveDate": "11/02/2025",
    "licenseExpirationDate": "11/01/2026",
    "dataDate": "10/18/2025",
    "capacity": 0,
    "address": "240 S MAGNOLIA AVE",
    "city": "EL CAJON",
    "zip": "92020",
    "county": "SAN DIEGO",
    "phone": "(619) 631-7222",
    "lat": 32.793417,
    "lng": -116.9626275
  },
  {
    "id": "090000310",
    "name": "WINDMILL VIEW",
    "npi": "1710941141",
    "hcaiId": null,
    "businessName": "HOME OF GUIDING HANDS CORPORATION",
    "contactEmail": "LAURIE@GUIDINGHANDS.ORG",
    "categoryName": "INTERMEDIATE CARE FACILITY-DD/H/N/CN/IID",
    "categoryCode": "ICFDDH",
    "licenseStatus": "ACTIVE",
    "inService": true,
    "licenseNumber": "090000279",
    "licenseEffectiveDate": "11/09/2025",
    "licenseExpirationDate": "11/08/2026",
    "dataDate": "10/18/2025",
    "capacity": 6,
    "address": "2349 WINDMILL VIEW RD",
    "city": "EL CAJON",
    "zip": "92020",
    "county": "SAN DIEGO",
    "phone": "(619) 938-2850",
    "lat": 32.817231,
    "lng": -116.9977635
  }
]