[
  {
    "id": "630020394",
    "name": "AASTA HOSPICE",
    "npi": null,
    "hcaiId": "406374800",
    "businessName": "CHAMPION HOSPICE, LLC",
    "contactEmail": "CHAMPIONSYES71@GMAIL.COM",
    "categoryName": "HOSPICE",
    "categoryCode": "HOSPICE",
    "licenseStatus": "ACTIVE",
    "inService": true,
    "licenseNumber": "550006042",
    "licenseEffectiveDate": "02/10/2025",
    "licenseExpirationDate": "02/09/2027",
    "dataDate": "10/18/2025",
    "capacity": 0,
    "address": "350 W 9TH AVE, SUITE 209",
    "city": "ESCONDIDO",
    "zip": "92025",
    "county": "SAN DIEGO",
    "phone": "(760) 975-3409",
    "lat": 33.112944,
    "lng": -117.0801855
  },
  {
    "id": "630017704",
    "name": "ADVANCED SURGERY CENTER OF NORTH COUNTY",
    "npi": "1295246981",
    "hcaiId": null,
    "businessName": null,
    "contactEmail": "SHAGERTHY@ASCNORTHCOUNTY.COM",
    "categoryName": "SURGICAL CLINIC",
    "categoryCode": "ASC",
    "licenseStatus": null,
    "inService": null,
    "licenseNumber": null,
    "licenseEffectiveDate": null,
    "licenseExpirationDate": null,
    "dataDate": "10/18/2025",
    "capacity": 0,
    "address": "488 E VALLEY PKWY, SUITE 100",
    "city": "ESCONDIDO",
    "zip": "92025",
    "county": "SAN DIEGO",
    "phone": "(760) 214-7439",
    "lat": 33.125751,
    "lng": -117.0769365
  },
  {
    "id": "630025399",
    "name": "AFFINITY HEALTHCARE SAN DIEGO INC",
    "npi": null,
    "hcaiId": "406370020",
    "businessName": "AFFINITY HEALTHCARE SAN DIEGO INC",
    "contactEmail": "AFFINITYHHSANDIEGO@GMAIL.COM",
    "categoryName": "HOME HEALTH AGENCY",
    "categoryCode": "HHA",
    "licenseStatus": "ACTIVE",
    "inService": true,
    "licenseNumber": "550008814",
    "licenseEffectiveDate": "11/16/2025",
    "licenseExpirationDate": "11/15/2026",
    "dataDate": "10/18/2025",
    "capacity": 0,
    "address": "350 W 9TH AVE, SUITE 203",
    "city": "ESCONDIDO",
    "zip": "92025",
    "county": "SAN DIEGO",
    "phone": null,
    "lat": 33.112944,
    "lng": -117.0801855
  },
  {
    "id": "630019161",
    "name": "AHPC SAN DIEGO, INC.",
    "npi": null,
    "hcaiId": null,
    "businessName": "AHPC SAN DIEGO, INC.",
    "contactEmail": "AHPCSANDIEGO@GMAIL.COM",
    "categoryName": "HOSPICE",
    "categoryCode": "HOSPICE",
    "licenseStatus": "ACTIVE",
    "inService": true,
    "licenseNumber": "550006008",
    "licenseEffectiveDate": "01/07/2023",
    "licenseExpirationDate": "01/06/2025",
    "dataDate": "10/18/2025",
    "capacity": 0,
    "address": "500 LA TERRAZA BLVD, SUITE 150",
    "city": "ESCONDIDO",
    "zip": "92025",
    "county": "SAN DIEGO",
    "phone": "(760) 232-6788",
    "lat": 33.112593,
    "lng": -117.095931
  },
  {
    "id": "630028077",
    "name": "ALIGN TREATMENT CENTER - CANYON",
    "npi": null,
    "hcaiId": null,
    "businessName": "ALIGN TREATMENT CENTER LLC",
    "contactEmail": "INFO@ALIGNEATINGDISORDER.COM",
    "categoryName": "CONGREGATE LIVING HEALTH FACILITY",
    "categoryCode": "CLHF",
    "licenseStatus": "ACTIVE",
    "inService": true,
    "licenseNumber": "550009918",
    "licenseEffectiveDate": "07/18/2025",
    "licenseExpirationDate": "01/17/2026",
    "dataDate": "10/18/2025",
    "capacity": 6,
    "address": "2958 CANYON RD",
    "city": "ESCONDIDO",
    "zip": "92025",
    "county": "SAN DIEGO",
    "phone": "(800) 809-1909",
    "lat": 33.08506464,
    "lng": -117.0542769
  },
  {
    "id": "630026625",
    "name": "ALIGN TREATMENT CENTER - GREEN",
    "npi": null,
    "hcaiId": "206370391",
    "businessName": "ALIGN TREATMENT CENTER LLC",
    "contactEmail": "MELINDA@ALIGNEATINGDISORDER.COM",
    "categoryName": "CONGREGATE LIVING HEALTH FACILITY",
    "categoryCode": "CLHF",
    "licenseStatus": "ACTIVE",
    "inService": true,
    "licenseNumber": "550008489",
    "licenseEffectiveDate": "04/28/2025",
    "licenseExpirationDate": "04/27/2026",
    "dataDate": "10/18/2025",
    "capacity": 6,
    "address": "285 GREEN AVE",
    "city": "ESCONDIDO",
    "zip": "92025",
    "county": "SAN DIEGO",
    "phone": "(619) 729-6462",
    "lat": 33.104331,
    "lng": -117.066807
  },
  {
    "id": "080001287",
    "name": "ALTERNATIVES MEDICAL CLINIC",
    "npi": null,
    "hcaiId": "306374226",
    "businessName": "ALTERNATIVES",
    "contactEmail": "SCORR@AMC-CA.COM",
    "categoryName": "PRIMARY CARE CLINIC",
    "categoryCode": "FREEC",
    "licenseStatus": "ACTIVE",
    "inService": true,
    "licenseNumber": "080000523",
    "licenseEffectiveDate": "11/12/2025",
    "licenseExpirationDate": "11/11/2026",
    "dataDate": "10/18/2025",
    "capacity": 0,
    "address": "257 E 2ND AVE",
    "city": "ESCONDIDO",
    "zip": "92025",
    "county": "SAN DIEGO",
    "phone": "(760) 741-9796",
    "lat": 33.1218709,
    "lng": -117.0784663
  },
  {
    "id": "630021190",
    "name": "ANGELES HOSPICE CARE, INC",
    "npi": null,
    "hcaiId": "406375226",
    "businessName": "ANGELES HOSPICE CARE, INC",
    "contactEmail": "ANGELESHOSPICECAREINC@GMAIL.COM",
    "categoryName": "HOSPICE",
    "categoryCode": "HOSPICE",
    "licenseStatus": "ACTIVE",
    "inService": true,
    "licenseNumber": "550007452",
    "licenseEffectiveDate": "12/08/2023",
    "licenseExpirationDate": "12/07/2025",
    "dataDate": "10/18/2025",
    "capacity": 0,
    "address": "659 N ESCONDIDO BLVD",
    "city": "ESCONDIDO",
    "zip": "92025",
    "county": "SAN DIEGO",
    "phone": "(619) 798-8685",
    "lat": 33.12726199,
    "lng": -117.0886645
  },
  {
    "id": "630013036",
    "name": "BRIGHTSTAR OF ESCONDIDO & SAN MARCOS",
    "npi": null,
    "hcaiId": "406374467",
    "businessName": "CONTINUUM CARE OF SAN DIEGO, INC.",
    "contactEmail": "VALEN.KASSAB@BRIGHTSTARCARE.COM",
    "categoryName": "HOME HEALTH AGENCY",
    "categoryCode": "HHA",
    "licenseStatus": "ACTIVE",
    "inService": true,
    "licenseNumber": "550001901",
    "licenseEffectiveDate": "09/30/2025",
    "licenseExpirationDate": "09/29/2026",
    "dataDate": "10/18/2025",
    "capacity": 0,
    "address": "504 WEST MISSION AVENUE, SUITE 206",
    "city": "ESCONDIDO",
    "zip": "92025",
    "county": "SAN DIEGO",
    "phone": "(760) 738-1926",
    "lat": 33.129162,
    "lng": -117.092691
  },
  {
    "id": "630020532",
    "name": "CARE FROM THE HEART HOSPICE, LLC",
    "npi": null,
    "hcaiId": "406193579",
    "businessName": "CARE FROM THE HEART HOSPICE, LLC",
    "contactEmail": "CAREFROMHEARTHOSPICE@GMAIL.COM",
    "categoryName": "HOSPICE",
    "categoryCode": "HOSPICE",
    "licenseStatus": "ACTIVE",
    "inService": true,
    "licenseNumber": "550006472",
    "licenseEffectiveDate": "06/25/2025",
    "licenseExpirationDate": "06/24/2027",
    "dataDate": "10/18/2025",
    "capacity": 0,
    "address": "260 S ORANGE ST, SUITE 11",
    "city": "ESCONDIDO",
    "zip": "92025",
    "county": "SAN DIEGO",
    "phone": "(619) 780-2704",
    "lat": 33.11815126,
    "lng": -117.0844517
  },
  {
    "id": "630021267",
    "name": "COLFS MEDICAL CLINIC",
    "npi": null,
    "hcaiId": "306370724",
    "businessName": "CULTURE OF LIFE FAMILY SERVICES",
    "contactEmail": "MGAGUCAS@COLFS.ORG",
    "categoryName": "PRIMARY CARE CLINIC",
    "categoryCode": "COMTYC",
    "licenseStatus": "ACTIVE",
    "inService": true,
    "licenseNumber": "550006781",
    "licenseEffectiveDate": "09/01/2025",
    "licenseExpirationDate": "08/31/2026",
    "dataDate": "10/18/2025",
    "capacity": 0,
    "address": "362 W MISSION AVE, SUITE 104-105",
    "city": "ESCONDIDO",
    "zip": "92025",
    "county": "SAN DIEGO",
    "phone": "(619) 566-7835",
    "lat": 33.12927,
    "lng": -117.0911205
  },
  {
    "id": "630019239",
    "name": "DAP HEALTH - CENTRO MEDICO ESCONDIDO - 1111 WASHINGTON",
    "npi": "1023349883",
    "hcaiId": null,
    "businessName": "DAP HEALTH, INC.",
    "contactEmail": null,
    "categoryName": "PRIMARY CARE CLINIC",
    "categoryCode": "COMTYC",
    "licenseStatus": "ACTIVE",
    "inService": true,
    "licenseNumber": "550001260",
    "licenseEffectiveDate": "11/05/2025",
    "licenseExpirationDate": "04/13/2026",
    "dataDate": "10/18/2025",
    "capacity": 0,
    "address": "1111 E WASHINGTON AVE, SUITE A, B, AND G",
    "city": "ESCONDIDO",
    "zip": "92025",
    "county": "SAN DIEGO",
    "phone": "(760) 871-0606",
    "lat": 33.131763,
    "lng": -117.069417
  },
  {
    "id": "630012589",
    "name": "DAP HEALTH - CENTRO MEDICO ESCONDIDO - 1121 WASHINGTON",
    "npi": "1023349883",
    "hcaiId": "306374448",
    "businessName": "DAP HEALTH, INC.",
    "contactEmail": "SPRIOR@DAPHEALTH.ORG",
    "categoryName": "PRIMARY CARE CLINIC",
    "categoryCode": "COMTYC",
    "licenseStatus": "ACTIVE",
    "inService": true,
    "licenseNumber": "550001260",
    "licenseEffectiveDate": "11/05/2025",
    "licenseExpirationDate": "04/13/2026",
    "dataDate": "10/18/2025",
    "capacity": 0,
    "address": "1121 E WASHINGTON AVE",
    "city": "ESCONDIDO",
    "zip": "92025",
    "county": "SAN DIEGO",
    "phone": "(760) 676-5982",
    "lat": 33.13239272,
    "lng": -117.0690856
  },
  {
    "id": "630019747",
    "name": "DEL DIOS HEAD START",
    "npi": null,
    "hcaiId": null,
    "businessName": "NEIGHBORHOOD HEALTHCARE",
    "contactEmail": null,
    "categoryName": "PRIMARY CARE CLINIC",
    "categoryCode": "COMTYC",
    "licenseStatus": "ACTIVE",
    "inService": true,
    "licenseNumber": "080000397",
    "licenseEffectiveDate": "12/09/2024",
    "licenseExpirationDate": "12/08/2025",
    "dataDate": "10/18/2025",
    "capacity": 0,
    "address": "835 W 15TH AVE, ROOM HOME OFFICE CUBICLE",
    "city": "ESCONDIDO",
    "zip": "92025",
    "county": "SAN DIEGO",
    "phone": null,
    "lat": 33.103296,
    "lng": -117.082917
  },
  {
    "id": "630020483",
    "name": "ELITE HOSPICE AND PALLIATIVE CARE LLC",
    "npi": null,
    "hcaiId": "406373219",
    "businessName": "ELITE HOSPICE AND PALLIATIVE CARE LLC",
    "contactEmail": "INFO@ELITEHPC.ORG",
    "categoryName": "HOSPICE",
    "categoryCode": "HOSPICE",
    "licenseStatus": "ACTIVE",
    "inService": true,
    "licenseNumber": "550006245",
    "licenseEffectiveDate": "04/28/2025",
    "licenseExpirationDate": "04/27/2027",
    "dataDate": "10/18/2025",
    "capacity": 0,
    "address": "106 S GRAPE ST, SUITE 2",
    "city": "ESCONDIDO",
    "zip": "92025",
    "county": "SAN DIEGO",
    "phone": "(858) 422-7180",
    "lat": 33.124203,
    "lng": -117.0740475
  },
  {
    "id": "080000540",
    "name": "ELIZABETH HOSPICE",
    "npi": "1538168950",
    "hcaiId": "406374182",
    "businessName": "THE ELIZABETH HOSPICE, INC.",
    "contactEmail": "COMPLIANCE@EHOSPICE.ORG",
    "categoryName": "HOSPICE",
    "categoryCode": "HOSPICE",
    "licenseStatus": "ACTIVE",
    "inService": true,
    "licenseNumber": "080000519",
    "licenseEffectiveDate": "11/11/2025",
    "licenseExpirationDate": "11/10/2027",
    "dataDate": "10/18/2025",
    "capacity": 0,
    "address": "800 W VALLEY PKWY, SUITE 100",
    "city": "ESCONDIDO",
    "zip": "92025",
    "county": "SAN DIEGO",
    "phone": "(760) 737-2050",
    "lat": 33.11812199,
    "lng": -117.09259
  },
  {
    "id": "630013674",
    "name": "EMERALD TRIUNE HOME HEALTH SERVICES, INC.",
    "npi": "1629348669",
    "hcaiId": "406374475",
    "businessName": "EMERALD TRIUNE HOME HEALTH SERVICES, INC.",
    "contactEmail": "EMERALDTRIUNE@GMAIL.COM",
    "categoryName": "HOME HEALTH AGENCY",
    "categoryCode": "HHA",
    "licenseStatus": "ACTIVE",
    "inService": true,
    "licenseNumber": "550002018",
    "licenseEffectiveDate": "08/01/2025",
    "licenseExpirationDate": "07/31/2026",
    "dataDate": "10/18/2025",
    "capacity": 0,
    "address": "253 S ESCONDIDO BLVD",
    "city": "ESCONDIDO",
    "zip": "92025",
    "county": "SAN DIEGO",
    "phone": "(760) 294-9680",
    "lat": 33.11876693,
    "lng": -117.0831777
  },
  {
    "id": "080000817",
    "name": "ESCONDIDO CARE CENTER",
    "npi": "1588660765",
    "hcaiId": null,
    "businessName": "ESCONDIDO HEALTHCARE, LLC",
    "contactEmail": null,
    "categoryName": "REHABILITATION CLINIC",
    "categoryCode": "OPT/SP",
    "licenseStatus": "ACTIVE",
    "inService": true,
    "licenseNumber": "080000019",
    "licenseEffectiveDate": "11/02/2024",
    "licenseExpirationDate": "11/01/2025",
    "dataDate": "10/18/2025",
    "capacity": 0,
    "address": "421 E MISSION AVE",
    "city": "ESCONDIDO",
    "zip": "92025",
    "county": "SAN DIEGO",
    "phone": null,
    "lat": 33.131016,
    "lng": -117.080325
  },
  {
    "id": "080000192",
    "name": "ESCONDIDO DIALYSIS",
    "npi": "1902870298",
    "hcaiId": "306370973",
    "businessName": "DVA RENAL HEALTHCARE, INC.",
    "contactEmail": "CAL_C@DAVITA.COM",
    "categoryName": "CHRONIC DIALYSIS CLINIC",
    "categoryCode": "ESRD/CDC",
    "licenseStatus": "ACTIVE",
    "inService": true,
    "licenseNumber": "080000126",
    "licenseEffectiveDate": "11/11/2025",
    "licenseExpirationDate": "11/10/2026",
    "dataDate": "10/18/2025",
    "capacity": 22,
    "address": "203 E 2ND AVE",
    "city": "ESCONDIDO",
    "zip": "92025",
    "county": "SAN DIEGO",
    "phone": "(760) 743-4401",
    "lat": 33.121287,
    "lng": -117.079101
  },
  {
    "id": "630026266",
    "name": "ESCONDIDO FAMILY COUNSELING CENTER",
    "npi": "1013952597",
    "hcaiId": null,
    "businessName": "FAMILY HEALTH CENTERS OF SAN DIEGO, INC.",
    "contactEmail": null,
    "categoryName": "PRIMARY CARE CLINIC",
    "categoryCode": "COMTYC",
    "licenseStatus": "ACTIVE",
    "inService": true,
    "licenseNumber": "550000024",
    "licenseEffectiveDate": "05/09/2025",
    "licenseExpirationDate": "05/08/2026",
    "dataDate": "10/18/2025",
    "capacity": 0,
    "address": "157 E VALLEY PKWY, SUITE 200",
    "city": "ESCONDIDO",
    "zip": "92025",
    "county": "SAN DIEGO",
    "phone": null,
    "lat": 33.122997,
    "lng": -117.080793
  },
  {
    "id": "630027385",
    "name": "ESCONDIDO FAMILY HEALTH CENTER",
    "npi": null,
    "hcaiId": null,
    "businessName": "FAMILY HEALTH CENTERS OF SAN DIEGO, INC.",
    "contactEmail": null,
    "categoryName": "PRIMARY CARE CLINIC",
    "categoryCode": "COMTYC",
    "licenseStatus": "ACTIVE",
    "inService": true,
    "licenseNumber": "550002865",
    "licenseEffectiveDate": "10/22/2025",
    "licenseExpirationDate": "10/21/2026",
    "dataDate": "10/18/2025",
    "capacity": 0,
    "address": "128 N BROADWAY",
    "city": "ESCONDIDO",
    "zip": "92025",
    "county": "SAN DIEGO",
    "phone": null,
    "lat": 33.12263099,
    "lng": -117.08144
  },
  {
    "id": "630028187",
    "name": "ESCONDIDO PHYSICAL HEALTH AND WELLNESS",
    "npi": null,
    "hcaiId": null,
    "businessName": "FAMILY HEALTH CENTERS OF SAN DIEGO, INC.",
    "contactEmail": null,
    "categoryName": "PRIMARY CARE CLINIC",
    "categoryCode": "FQHC/COMTYC",
    "licenseStatus": "ACTIVE",
    "inService": true,
    "licenseNumber": "550002865",
    "licenseEffectiveDate": "10/22/2025",
    "licenseExpirationDate": "10/21/2026",
    "dataDate": "10/18/2025",
    "capacity": 0,
    "address": "157 E VALLEY PKWY, SUITE 100",
    "city": "ESCONDIDO",
    "zip": "92025",
    "county": "SAN DIEGO",
    "phone": null,
    "lat": 33.122977,
    "lng": -117.0807857
  },
  {
    "id": "080000030",
    "name": "ESCONDIDO POST ACUTE",
    "npi": "1588660765",
    "hcaiId": "206370659",
    "businessName": "ESCONDIDO HEALTHCARE, LLC",
    "contactEmail": "KAYVON.AUSSEF@ESCONDIDOPA.COM",
    "categoryName": "SKILLED NURSING FACILITY",
    "categoryCode": "SNF",
    "licenseStatus": "ACTIVE",
    "inService": true,
    "licenseNumber": "080000019",
    "licenseEffectiveDate": "11/02/2024",
    "licenseExpirationDate": "11/01/2025",
    "dataDate": "10/18/2025",
    "capacity": 180,
    "address": "421 E MISSION AVE",
    "city": "ESCONDIDO",
    "zip": "92025",
    "county": "SAN DIEGO",
    "phone": "(760) 747-0430",
    "lat": 33.131016,
    "lng": -117.080325
  },
  {
    "id": "630027431",
    "name": "FELICITA ELEMENTARY SCHOOL",
    "npi": null,
    "hcaiId": null,
    "businessName": "NEIGHBORHOOD HEALTHCARE",
    "contactEmail": "MELVIN.LOFTON@NHCARE.ORG",
    "categoryName": "PRIMARY CARE CLINIC",
    "categoryCode": "COMTYC",
    "licenseStatus": "ACTIVE",
    "inService": true,
    "licenseNumber": "080000657",
    "licenseEffectiveDate": "01/29/2025",
    "licenseExpirationDate": "01/28/2026",
    "dataDate": "10/18/2025",
    "capacity": 0,
    "address": "737 W 13TH AVE, ROOM 36",
    "city": "ESCONDIDO",
    "zip": "92025",
    "county": "SAN DIEGO",
    "phone": "(442) 286-8364",
    "lat": 33.10651729,
    "lng": -117.082482
  },
  {
    "id": "080001744",
    "name": "GRAY BILL PHYSICAL THERAPY",
    "npi": null,
    "hcaiId": null,
    "businessName": null,
    "contactEmail": null,
    "categoryName": "OTHER",
    "categoryCode": "UNLICEN",
    "licenseStatus": null,
    "inService": null,
    "licenseNumber": null,
    "licenseEffectiveDate": null,
    "licenseExpirationDate": null,
    "dataDate": "10/18/2025",
    "capacity": 0,
    "address": "225 E 2ND AVE, SUITE 320",
    "city": "ESCONDIDO",
    "zip": "92025",
    "county": "SAN DIEGO",
    "phone": "(760) 291-6700",
    "lat": 33.12172034,
    "lng": -117.0787523
  },
  {
    "id": "630019742",
    "name": "HICKORY HEAD START",
    "npi": null,
    "hcaiId": null,
    "businessName": "NEIGHBORHOOD HEALTHCARE",
    "contactEmail": null,
    "categoryName": "PRIMARY CARE CLINIC",
    "categoryCode": "COMTYC",
    "licenseStatus": "ACTIVE",
    "inService": true,
    "licenseNumber": "080000397",
    "licenseEffectiveDate": "12/09/2024",
    "licenseExpirationDate": "12/08/2025",
    "dataDate": "10/18/2025",
    "capacity": 0,
    "address": "635 N HICKORY ST, ROOM CONFERENCE ROOM",
    "city": "ESCONDIDO",
    "zip": "92025",
    "county": "SAN DIEGO",
    "phone": null,
    "lat": 33.128946,
    "lng": -117.078759
  },
  {
    "id": "080000914",
    "name": "INTERIM HEALTHCARE SAN DIEGO HOME HEALTH",
    "npi": "1093750747",
    "hcaiId": "406374384",
    "businessName": "INTERIM HEALTHCARE SAN DIEGO, LLC",
    "contactEmail": "CFERNANDEZ@INTERIMHEALTHCARE.COM",
    "categoryName": "HOME HEALTH AGENCY",
    "categoryCode": "HHA",
    "licenseStatus": "ACTIVE",
    "inService": true,
    "licenseNumber": "080000395",
    "licenseEffectiveDate": "05/29/2023",
    "licenseExpirationDate": "05/28/2024",
    "dataDate": "10/18/2025",
    "capacity": 0,
    "address": "425 W 5TH AVENUE, SUITE 101",
    "city": "ESCONDIDO",
    "zip": "92025",
    "county": "SAN DIEGO",
    "phone": "(858) 737-7174",
    "lat": 33.115518,
    "lng": -117.08325
  },
  {
    "id": "630027546",
    "name": "JUNIPER ELEMENTARY SCHOOL",
    "npi": null,
    "hcaiId": null,
    "businessName": "NEIGHBORHOOD HEALTHCARE",
    "contactEmail": null,
    "categoryName": "PRIMARY CARE CLINIC",
    "categoryCode": "COMTYC",
    "licenseStatus": "ACTIVE",
    "inService": true,
    "licenseNumber": "080000657",
    "licenseEffectiveDate": "01/29/2025",
    "licenseExpirationDate": "01/28/2026",
    "dataDate": "10/18/2025",
    "capacity": 0,
    "address": "1809 JUNIPER ST, ROOM MPR",
    "city": "ESCONDIDO",
    "zip": "92025",
    "county": "SAN DIEGO",
    "phone": null,
    "lat": 33.10557262,
    "lng": -117.0666641
  },
  {
    "id": "630027547",
    "name": "L.R. GREEN ELEMENTARY SCHOOL",
    "npi": null,
    "hcaiId": null,
    "businessName": "NEIGHBORHOOD HEALTHCARE",
    "contactEmail": null,
    "categoryName": "PRIMARY CARE CLINIC",
    "categoryCode": "COMTYC",
    "licenseStatus": "ACTIVE",
    "inService": true,
    "licenseNumber": "080000657",
    "licenseEffectiveDate": "01/29/2025",
    "licenseExpirationDate": "01/28/2026",
    "dataDate": "10/18/2025",
    "capacity": 0,
    "address": "3115 LAS PALMAS AVE",
    "city": "ESCONDIDO",
    "zip": "92025",
    "county": "SAN DIEGO",
    "phone": null,
    "lat": 33.08489001,
    "lng": -117.059861
  },
  {
    "id": "630026039",
    "name": "LIAHONA HOME HEALTH AGENCY INC",
    "npi": null,
    "hcaiId": null,
    "businessName": "LIAHONA HOME HEALTH AGENCY INC.",
    "contactEmail": "LIAHONAHHA@GMAIL.COM",
    "categoryName": "HOME HEALTH AGENCY",
    "categoryCode": "HHA",
    "licenseStatus": "ACTIVE",
    "inService": true,
    "licenseNumber": "550009621",
    "licenseEffectiveDate": "08/10/2025",
    "licenseExpirationDate": "02/09/2026",
    "dataDate": "10/18/2025",
    "capacity": 0,
    "address": "500 LA TERRAZA BLVD, SUITE 150, UNIT 113",
    "city": "ESCONDIDO",
    "zip": "92025",
    "county": "SAN DIEGO",
    "phone": "(760) 466-8109",
    "lat": 33.112629,
    "lng": -117.095832
  },
  {
    "id": "630021117",
    "name": "LIFE CARE HOME HEALTH SERVICES, LLC",
    "npi": null,
    "hcaiId": "406373351",
    "businessName": "LIFE CARE HOME HEALTH SERVICES, LLC",
    "contactEmail": "LIFECAREHOMEHEALTHSERVICESLLC@GMAIL.COM",
    "categoryName": "HOME HEALTH AGENCY",
    "categoryCode": "HHA",
    "licenseStatus": "ACTIVE",
    "inService": true,
    "licenseNumber": "550007098",
    "licenseEffectiveDate": "09/29/2025",
    "licenseExpirationDate": "09/28/2026",
    "dataDate": "10/18/2025",
    "capacity": 0,
    "address": "205 W 5TH AVE, SUITE 205",
    "city": "ESCONDIDO",
    "zip": "92025",
    "county": "SAN DIEGO",
    "phone": "(760) 975-3899",
    "lat": 33.117102,
    "lng": -117.080343
  },
  {
    "id": "630021598",
    "name": "LIFE CARE HOSPICE SERVICES, LLC",
    "npi": null,
    "hcaiId": "406373631",
    "businessName": "LIFE CARE HOSPICE SERVICES, LLC",
    "contactEmail": "LIFECAREHOSPICESERVICESLLC@GMAIL.COM",
    "categoryName": "HOSPICE",
    "categoryCode": "HOSPICE",
    "licenseStatus": "ACTIVE",
    "inService": true,
    "licenseNumber": "550006452",
    "licenseEffectiveDate": "06/14/2025",
    "licenseExpirationDate": "06/13/2027",
    "dataDate": "10/18/2025",
    "capacity": 0,
    "address": "205 W 5TH AVE, SUITE 206",
    "city": "ESCONDIDO",
    "zip": "92025",
    "county": "SAN DIEGO",
    "phone": "(760) 975-3769",
    "lat": 33.117102,
    "lng": -117.080343
  },
  {
    "id": "630019754",
    "name": "LOS NIÃ‘OS HEAD START",
    "npi": null,
    "hcaiId": null,
    "businessName": "NEIGHBORHOOD HEALTHCARE",
    "contactEmail": null,
    "categoryName": "PRIMARY CARE CLINIC",
    "categoryCode": "COMTYC",
    "licenseStatus": "ACTIVE",
    "inService": true,
    "licenseNumber": "080000397",
    "licenseEffectiveDate": "12/09/2024",
    "licenseExpirationDate": "12/08/2025",
    "dataDate": "10/18/2025",
    "capacity": 0,
    "address": "221 W 7TH AVE, ROOM FSA OFFICE",
    "city": "ESCONDIDO",
    "zip": "92025",
    "county": "SAN DIEGO",
    "phone": null,
    "lat": 33.115095,
    "lng": -117.079272
  },
  {
    "id": "630027436",
    "name": "MISSION MIDDLE SCHOOL",
    "npi": null,
    "hcaiId": null,
    "businessName": "NEIGHBORHOOD HEALTHCARE",
    "contactEmail": "MELVIN.LOFTON@NHCARE.ORG",
    "categoryName": "PRIMARY CARE CLINIC",
    "categoryCode": "COMTYC",
    "licenseStatus": "ACTIVE",
    "inService": true,
    "licenseNumber": "080000657",
    "licenseEffectiveDate": "01/29/2025",
    "licenseExpirationDate": "01/28/2026",
    "dataDate": "10/18/2025",
    "capacity": 0,
    "address": "939 E MISSION AVE, ROOM LCR",
    "city": "ESCONDIDO",
    "zip": "92025",
    "county": "SAN DIEGO",
    "phone": "(442) 286-8364",
    "lat": 33.13439556,
    "lng": -117.0738477
  },
  {
    "id": "630028379",
    "name": "NEIGHBORHOOD HEALTHCARE - ESCONDIDO OHIO AVE.",
    "npi": null,
    "hcaiId": null,
    "businessName": "NEIGHBORHOOD HEALTHCARE",
    "contactEmail": "MILA.DUENAS@WIPFLI.COM",
    "categoryName": "PRIMARY CARE CLINIC",
    "categoryCode": "FQHC/COMTYC",
    "licenseStatus": "ACTIVE",
    "inService": true,
    "licenseNumber": "550009952",
    "licenseEffectiveDate": "09/23/2025",
    "licenseExpirationDate": "09/22/2026",
    "dataDate": "10/18/2025",
    "capacity": 0,
    "address": "910 E OHIO AVE, SUITE 101",
    "city": "ESCONDIDO",
    "zip": "92025",
    "county": "SAN DIEGO",
    "phone": "(510) 404-3329",
    "lat": 33.12726099,
    "lng": -117.06999
  },
  {
    "id": "630011684",
    "name": "NEIGHBORHOOD HEALTHCARE - GRAND AVE",
    "npi": null,
    "hcaiId": "306374410",
    "businessName": "NEIGHBORHOOD HEALTHCARE",
    "contactEmail": "LISAA@NHCARE.ORG",
    "categoryName": "PRIMARY CARE CLINIC",
    "categoryCode": "COMTYC",
    "licenseStatus": "ACTIVE",
    "inService": true,
    "licenseNumber": "080000397",
    "licenseEffectiveDate": "12/09/2024",
    "licenseExpirationDate": "12/08/2025",
    "dataDate": "10/18/2025",
    "capacity": 0,
    "address": "1001 E GRAND AVE",
    "city": "ESCONDIDO",
    "zip": "92025",
    "county": "SAN DIEGO",
    "phone": "(760) 520-8200",
    "lat": 33.126057,
    "lng": -117.0680535
  },
  {
    "id": "630011226",
    "name": "NEIGHBORHOOD HEALTHCARE - PEDIATRICS",
    "npi": null,
    "hcaiId": "306374395",
    "businessName": "NEIGHBORHOOD HEALTHCARE",
    "contactEmail": "MARTHAH@NHCARE.ORG",
    "categoryName": "PRIMARY CARE CLINIC",
    "categoryCode": "COMTYC",
    "licenseStatus": "ACTIVE",
    "inService": true,
    "licenseNumber": "080000397",
    "licenseEffectiveDate": "12/09/2024",
    "licenseExpirationDate": "12/08/2025",
    "dataDate": "10/18/2025",
    "capacity": 0,
    "address": "426 N DATE ST",
    "city": "ESCONDIDO",
    "zip": "92025",
    "county": "SAN DIEGO",
    "phone": "(760) 520-8300",
    "lat": 33.129216,
    "lng": -117.071334
  },
  {
    "id": "080000918",
    "name": "NEIGHBORHOOD HEALTHCARE ESCONDIDO",
    "npi": null,
    "hcaiId": "306374093",
    "businessName": "NEIGHBORHOOD HEALTHCARE",
    "contactEmail": "BRENDA.CISNEROS@NHCARE.ORG",
    "categoryName": "PRIMARY CARE CLINIC",
    "categoryCode": "COMTYC",
    "licenseStatus": "ACTIVE",
    "inService": true,
    "licenseNumber": "080000397",
    "licenseEffectiveDate": "12/09/2024",
    "licenseExpirationDate": "12/08/2025",
    "dataDate": "10/18/2025",
    "capacity": 0,
    "address": "460 N ELM ST",
    "city": "ESCONDIDO",
    "zip": "92025",
    "county": "SAN DIEGO",
    "phone": "(760) 520-8196",
    "lat": 33.12850841,
    "lng": -117.0729264
  },
  {
    "id": "630018910",
    "name": "NEIGHBORHOOD HEALTHCARE- WASHINGTON AVE",
    "npi": null,
    "hcaiId": null,
    "businessName": "NEIGHBORHOOD HEALTHCARE",
    "contactEmail": null,
    "categoryName": "PRIMARY CARE CLINIC",
    "categoryCode": "COMTYC",
    "licenseStatus": "ACTIVE",
    "inService": true,
    "licenseNumber": "080000397",
    "licenseEffectiveDate": "12/09/2024",
    "licenseExpirationDate": "12/08/2025",
    "dataDate": "10/18/2025",
    "capacity": 0,
    "address": "550 W WASHINGTON AVE, SUITE 101",
    "city": "ESCONDIDO",
    "zip": "92025",
    "county": "SAN DIEGO",
    "phone": null,
    "lat": 33.125166,
    "lng": -117.09198
  },
  {
    "id": "630025998",
    "name": "NEIGHBORHOOD HEALTHCARE-DOWNTOWN ESCONDIDO",
    "npi": null,
    "hcaiId": null,
    "businessName": "NEIGHBORHOOD HEALTHCARE",
    "contactEmail": "RAKESHP@NHCARE.ORG",
    "categoryName": "PRIMARY CARE CLINIC",
    "categoryCode": "COMTYC",
    "licenseStatus": "ACTIVE",
    "inService": true,
    "licenseNumber": "080000397",
    "licenseEffectiveDate": "12/09/2024",
    "licenseExpirationDate": "12/08/2025",
    "dataDate": "10/18/2025",
    "capacity": 0,
    "address": "488 E VALLEY PKWY, SUITE 411",
    "city": "ESCONDIDO",
    "zip": "92025",
    "county": "SAN DIEGO",
    "phone": "(760) 473-9861",
    "lat": 33.125751,
    "lng": -117.0769365
  },
  {
    "id": "630017567",
    "name": "NEIGHBORHOOD HEALTHCARE-PRENATAL",
    "npi": null,
    "hcaiId": null,
    "businessName": "NEIGHBORHOOD HEALTHCARE",
    "contactEmail": null,
    "categoryName": "PRIMARY CARE CLINIC",
    "categoryCode": "COMTYC",
    "licenseStatus": "ACTIVE",
    "inService": true,
    "licenseNumber": "080000397",
    "licenseEffectiveDate": "12/09/2024",
    "licenseExpirationDate": "12/08/2025",
    "dataDate": "10/18/2025",
    "capacity": 0,
    "address": "488 E VALLEY PKWY, SUITE 404",
    "city": "ESCONDIDO",
    "zip": "92025",
    "county": "SAN DIEGO",
    "phone": "(760) 737-6900",
    "lat": 33.125751,
    "lng": -117.0769365
  },
  {
    "id": "080000188",
    "name": "NEIGHBORHOOD HEALTHCARE-VALLEY PARKWAY",
    "npi": "1720264641",
    "hcaiId": "306374481",
    "businessName": "NEIGHBORHOOD HEALTHCARE",
    "contactEmail": "NHCARE@NHCARE.ORG",
    "categoryName": "PRIMARY CARE CLINIC",
    "categoryCode": "COMTYC",
    "licenseStatus": "ACTIVE",
    "inService": true,
    "licenseNumber": "080000397",
    "licenseEffectiveDate": "12/09/2024",
    "licenseExpirationDate": "12/08/2025",
    "dataDate": "10/18/2025",
    "capacity": 0,
    "address": "728 E VALLEY PKWY",
    "city": "ESCONDIDO",
    "zip": "92025",
    "county": "SAN DIEGO",
    "phone": "(760) 737-6900",
    "lat": 33.127839,
    "lng": -117.073512
  },
  {
    "id": "630017014",
    "name": "NORTH INLAND FAMILY MEDICINE",
    "npi": null,
    "hcaiId": null,
    "businessName": null,
    "contactEmail": null,
    "categoryName": "PRIMARY CARE CLINIC",
    "categoryCode": "FQHC",
    "licenseStatus": null,
    "inService": null,
    "licenseNumber": null,
    "licenseEffectiveDate": null,
    "licenseExpirationDate": null,
    "dataDate": "10/18/2025",
    "capacity": 0,
    "address": "125 W MISSION AVE, SUITE 105",
    "city": "ESCONDIDO",
    "zip": "92025",
    "county": "SAN DIEGO",
    "phone": null,
    "lat": 33.129639,
    "lng": -117.0862335
  },
  {
    "id": "080000630",
    "name": "NORTH INLAND PUBLIC HEALTH - EXEMPT COMM CLINIC",
    "npi": null,
    "hcaiId": null,
    "businessName": null,
    "contactEmail": null,
    "categoryName": "OTHER",
    "categoryCode": "UNLICEN",
    "licenseStatus": null,
    "inService": null,
    "licenseNumber": null,
    "licenseEffectiveDate": null,
    "licenseExpirationDate": null,
    "dataDate": "10/18/2025",
    "capacity": 0,
    "address": "606 E. VALLEY PRKWY",
    "city": "ESCONDIDO",
    "zip": "92025",
    "county": "SAN DIEGO",
    "phone": "(760) 740-4000",
    "lat": 33.127029,
    "lng": -117.075024
  },
  {
    "id": "080000222",
    "name": "OCEAN VIEW POST ACUTE",
    "npi": "1386681286",
    "hcaiId": "206371716",
    "businessName": "ESCONDIDO POST ACUTE, LLC",
    "contactEmail": "ADMIN@OCEANVIEWPOSTACUTE.COM",
    "categoryName": "SKILLED NURSING FACILITY",
    "categoryCode": "SNF",
    "licenseStatus": "ACTIVE",
    "inService": true,
    "licenseNumber": "080000260",
    "licenseEffectiveDate": "11/29/2024",
    "licenseExpirationDate": "11/28/2025",
    "dataDate": "10/18/2025",
    "capacity": 120,
    "address": "1980 FELICITA RD",
    "city": "ESCONDIDO",
    "zip": "92025",
    "county": "SAN DIEGO",
    "phone": "(760) 741-6109",
    "lat": 33.097518,
    "lng": -117.081882
  },
  {
    "id": "630019008",
    "name": "PALOMAR FAMILY COUNSELING SERVICES",
    "npi": null,
    "hcaiId": null,
    "businessName": "NEIGHBORHOOD HEALTHCARE",
    "contactEmail": null,
    "categoryName": "PRIMARY CARE CLINIC",
    "categoryCode": "COMTYC",
    "licenseStatus": "ACTIVE",
    "inService": true,
    "licenseNumber": "080000397",
    "licenseEffectiveDate": "12/09/2024",
    "licenseExpirationDate": "12/08/2025",
    "dataDate": "10/18/2025",
    "capacity": 0,
    "address": "1002 E GRAND AVE",
    "city": "ESCONDIDO",
    "zip": "92025",
    "county": "SAN DIEGO",
    "phone": null,
    "lat": 33.126723,
    "lng": -117.068265
  },
  {
    "id": "080000832",
    "name": "PALOMAR MEDICAL CENTER",
    "npi": null,
    "hcaiId": null,
    "businessName": null,
    "contactEmail": null,
    "categoryName": "OTHER",
    "categoryCode": "PPSPSCH",
    "licenseStatus": null,
    "inService": null,
    "licenseNumber": null,
    "licenseEffectiveDate": null,
    "licenseExpirationDate": null,
    "dataDate": "10/18/2025",
    "capacity": 0,
    "address": "555 E VALLEY PKWY",
    "city": "ESCONDIDO",
    "zip": "92025",
    "county": "SAN DIEGO",
    "phone": null,
    "lat": 33.12580904,
    "lng": -117.0762848
  },
  {
    "id": "080000477",
    "name": "PALOMAR MEDICAL CENTER D/P APH",
    "npi": null,
    "hcaiId": null,
    "businessName": null,
    "contactEmail": null,
    "categoryName": "ACUTE PSYCHIATRIC HOSPITAL",
    "categoryCode": "APH",
    "licenseStatus": null,
    "inService": null,
    "licenseNumber": null,
    "licenseEffectiveDate": null,
    "licenseExpirationDate": null,
    "dataDate": "10/18/2025",
    "capacity": 0,
    "address": "555 E VALLEY PKWY",
    "city": "ESCONDIDO",
    "zip": "92025",
    "county": "SAN DIEGO",
    "phone": "(760) 739-3001",
    "lat": 33.12580904,
    "lng": -117.0762848
  },
  {
    "id": "080000050",
    "name": "PALOMAR VISTA HEALTHCARE CENTER",
    "npi": "1861491490",
    "hcaiId": "206370702",
    "businessName": "WEST ESCONDIDO HEALTHCARE, LLC",
    "contactEmail": "TPUGMIRE@ENSIGNSERVICES.NET",
    "categoryName": "SKILLED NURSING FACILITY",
    "categoryCode": "SNF",
    "licenseStatus": "ACTIVE",
    "inService": true,
    "licenseNumber": "080000042",
    "licenseEffectiveDate": "11/01/2025",
    "licenseExpirationDate": "10/31/2026",
    "dataDate": "10/18/2025",
    "capacity": 74,
    "address": "201 N FIG ST",
    "city": "ESCONDIDO",
    "zip": "92025",
    "county": "SAN DIEGO",
    "phone": "(760) 746-0303",
    "lat": 33.12603,
    "lng": -117.0738585
  },
  {
    "id": "080001558",
    "name": "PARKWAY ENDOSCOPY CENTER",
    "npi": "1073588646",
    "hcaiId": "306374283",
    "businessName": "THE ESCONDIDO CA ENDOSCOPY ASC, LP",
    "contactEmail": null,
    "categoryName": "SURGICAL CLINIC",
    "categoryCode": "ASC",
    "licenseStatus": "INACTIVE - CAPEN DECISION",
    "inService": false,
    "licenseNumber": "080000655",
    "licenseEffectiveDate": "01/04/2008",
    "licenseExpirationDate": "01/03/2009",
    "dataDate": "10/18/2025",
    "capacity": 0,
    "address": "488 E VALLEY PKWY, SUITE 110",
    "city": "ESCONDIDO",
    "zip": "92025",
    "county": "SAN DIEGO",
    "phone": "(760) 735-6290",
    "lat": 33.125751,
    "lng": -117.0769365
  },
  {
    "id": "080000255",
    "name": "PLANNED PARENTHOOD - ESCONDIDO CENTER",
    "npi": "1063447050",
    "hcaiId": "306371451",
    "businessName": "PLANNED PARENTHOOD OF THE PACIFIC SOUTHWEST",
    "contactEmail": "LMANN1@PLANNED.ORG",
    "categoryName": "PRIMARY CARE CLINIC",
    "categoryCode": "COMTYC",
    "licenseStatus": "ACTIVE",
    "inService": true,
    "licenseNumber": "080000152",
    "licenseEffectiveDate": "04/23/2025",
    "licenseExpirationDate": "04/22/2026",
    "dataDate": "10/18/2025",
    "capacity": 0,
    "address": "347 W MISSION AVE",
    "city": "ESCONDIDO",
    "zip": "92025",
    "county": "SAN DIEGO",
    "phone": "(619) 881-4500",
    "lat": 33.12872459,
    "lng": -117.0903026
  },
  {
    "id": "080001563",
    "name": "RAY M DICKINSON WELLNESS CENTER",
    "npi": null,
    "hcaiId": "306374286",
    "businessName": "NEIGHBORHOOD HEALTHCARE",
    "contactEmail": "SANDRA.ORZEL@NHCARE.ORG",
    "categoryName": "PRIMARY CARE CLINIC",
    "categoryCode": "COMTYC",
    "licenseStatus": "ACTIVE",
    "inService": true,
    "licenseNumber": "080000657",
    "licenseEffectiveDate": "01/29/2025",
    "licenseExpirationDate": "01/28/2026",
    "dataDate": "10/18/2025",
    "capacity": 0,
    "address": "425 N DATE ST",
    "city": "ESCONDIDO",
    "zip": "92025",
    "county": "SAN DIEGO",
    "phone": "(760) 717-4718",
    "lat": 33.1288784,
    "lng": -117.072122
  },
  {
    "id": "080001160",
    "name": "REDWOOD REHABILITATION",
    "npi": null,
    "hcaiId": null,
    "businessName": null,
    "contactEmail": null,
    "categoryName": "REHABILITATION CLINIC",
    "categoryCode": "OPT/SP",
    "licenseStatus": null,
    "inService": null,
    "licenseNumber": null,
    "licenseEffectiveDate": null,
    "licenseExpirationDate": null,
    "dataDate": "10/18/2025",
    "capacity": 0,
    "address": "1151 S REDWOOD ST",
    "city": "ESCONDIDO",
    "zip": "92025",
    "county": "SAN DIEGO",
    "phone": "(760) 480-1030",
    "lat": 33.107787,
    "lng": -117.083169
  },
  {
    "id": "080000014",
    "name": "REDWOOD TERRACE HEALTH CENTER",
    "npi": "1154396919",
    "hcaiId": "206371321",
    "businessName": "HUMANGOOD SOCAL",
    "contactEmail": "LISA.ALHAMBRA@HUMANGOOD.ORG",
    "categoryName": "SKILLED NURSING FACILITY",
    "categoryCode": "SNF",
    "licenseStatus": "ACTIVE",
    "inService": true,
    "licenseNumber": "080000145",
    "licenseEffectiveDate": "11/17/2025",
    "licenseExpirationDate": "11/16/2026",
    "dataDate": "10/18/2025",
    "capacity": 59,
    "address": "710 W 13TH AVE",
    "city": "ESCONDIDO",
    "zip": "92025",
    "county": "SAN DIEGO",
    "phone": "(760) 747-4306",
    "lat": 33.106707,
    "lng": -117.0833805
  },
  {
    "id": "080000837",
    "name": "REDWOOD TERRACE HEALTH CENTER",
    "npi": "1154396919",
    "hcaiId": null,
    "businessName": "HUMANGOOD SOCAL",
    "contactEmail": null,
    "categoryName": "REHABILITATION CLINIC",
    "categoryCode": "OPT/SP",
    "licenseStatus": "ACTIVE",
    "inService": true,
    "licenseNumber": "080000145",
    "licenseEffectiveDate": "11/17/2025",
    "licenseExpirationDate": "11/16/2026",
    "dataDate": "10/18/2025",
    "capacity": 0,
    "address": "710 W 13TH AVE",
    "city": "ESCONDIDO",
    "zip": "92025",
    "county": "SAN DIEGO",
    "phone": null,
    "lat": 33.106707,
    "lng": -117.0833805
  },
  {
    "id": "630026787",
    "name": "SAN PASQUAL HIGH SCHOOL",
    "npi": null,
    "hcaiId": null,
    "businessName": "NEIGHBORHOOD HEALTHCARE",
    "contactEmail": null,
    "categoryName": "PRIMARY CARE CLINIC",
    "categoryCode": "COMTYC",
    "licenseStatus": "ACTIVE",
    "inService": true,
    "licenseNumber": "080000397",
    "licenseEffectiveDate": "12/09/2024",
    "licenseExpirationDate": "12/08/2025",
    "dataDate": "10/18/2025",
    "capacity": 0,
    "address": "3300 BEAR VALLEY PKWY S",
    "city": "ESCONDIDO",
    "zip": "92025",
    "county": "SAN DIEGO",
    "phone": null,
    "lat": 33.07771253,
    "lng": -117.0572673
  },
  {
    "id": "630011280",
    "name": "SAN YSIDRO HEALTH ESCONDIDO FAMILY MEDICINE",
    "npi": null,
    "hcaiId": "306370020",
    "businessName": "CENTRO DE SALUD DE LA COMUNIDAD DE SAN YSIDRO, INC.",
    "contactEmail": "SHAMETT@SYHEALTH.ORG",
    "categoryName": "PRIMARY CARE CLINIC",
    "categoryCode": "COMTYC",
    "licenseStatus": "ACTIVE",
    "inService": true,
    "licenseNumber": "550008430",
    "licenseEffectiveDate": "03/10/2025",
    "licenseExpirationDate": "03/09/2026",
    "dataDate": "10/18/2025",
    "capacity": 0,
    "address": "704 E GRAND AVE",
    "city": "ESCONDIDO",
    "zip": "92025",
    "county": "SAN DIEGO",
    "phone": "(619) 662-4100",
    "lat": 33.125292,
    "lng": -117.0726435
  },
  {
    "id": "630015459",
    "name": "ST JOSEPH'S CARE HOSPICE SERVICES, INC",
    "npi": null,
    "hcaiId": "406374530",
    "businessName": "ST JOSEPH'S CARE HOSPICE SERVICES, INC",
    "contactEmail": "STJOSEPHCHSI@GMAIL.COM",
    "categoryName": "HOSPICE",
    "categoryCode": "HOSPICE",
    "licenseStatus": "ACTIVE",
    "inService": true,
    "licenseNumber": "550003058",
    "licenseEffectiveDate": "04/08/2025",
    "licenseExpirationDate": "04/07/2027",
    "dataDate": "10/18/2025",
    "capacity": 0,
    "address": "263 S ESCONDIDO BLVD",
    "city": "ESCONDIDO",
    "zip": "92025",
    "county": "SAN DIEGO",
    "phone": "(760) 294-5796",
    "lat": 33.11872334,
    "lng": -117.0831501
  },
  {
    "id": "630022091",
    "name": "TAKARA HOSPICE LLC",
    "npi": null,
    "hcaiId": "406375188",
    "businessName": "TAKARA HOSPICE LLC",
    "contactEmail": "JONBLISS@TAKARAHOSPICE.COM",
    "categoryName": "HOSPICE",
    "categoryCode": "HOSPICE",
    "licenseStatus": "ACTIVE",
    "inService": true,
    "licenseNumber": "550007706",
    "licenseEffectiveDate": "12/27/2023",
    "licenseExpirationDate": "12/26/2025",
    "dataDate": "10/18/2025",
    "capacity": 0,
    "address": "333 S JUNIPER ST, SUITE 103",
    "city": "ESCONDIDO",
    "zip": "92025",
    "county": "SAN DIEGO",
    "phone": "(760) 932-4887",
    "lat": 33.120405,
    "lng": -117.0771615
  },
  {
    "id": "630020993",
    "name": "UNI CARE HOME HEALTH, INC.",
    "npi": null,
    "hcaiId": null,
    "businessName": "UNI CARE HOME HEALTH INC",
    "contactEmail": "SYSADMIN@UNICAREHOMEHEALTH.COM",
    "categoryName": "HOME HEALTH AGENCY",
    "categoryCode": "HHA",
    "licenseStatus": "ACTIVE",
    "inService": true,
    "licenseNumber": "550009231",
    "licenseEffectiveDate": "07/10/2025",
    "licenseExpirationDate": "07/09/2026",
    "dataDate": "10/18/2025",
    "capacity": 0,
    "address": "1510 S ESCONDIDO BLVD, SUITE 101",
    "city": "ESCONDIDO",
    "zip": "92025",
    "county": "SAN DIEGO",
    "phone": "(760) 510-0055",
    "lat": 33.107652,
    "lng": -117.0749025
  },
  {
    "id": "630015328",
    "name": "UNI CARE HOSPICE INC",
    "npi": "1316358930",
    "hcaiId": "406374526",
    "businessName": "UNI CARE HOSPICE INC",
    "contactEmail": "INFO@UNICAREHOSPICE.ORG",
    "categoryName": "HOSPICE",
    "categoryCode": "HOSPICE",
    "licenseStatus": "ACTIVE",
    "inService": true,
    "licenseNumber": "550003028",
    "licenseEffectiveDate": "03/20/2025",
    "licenseExpirationDate": "03/19/2027",
    "dataDate": "10/18/2025",
    "capacity": 0,
    "address": "1510 S ESCONDIDO BLVD, SUITE 104",
    "city": "ESCONDIDO",
    "zip": "92025",
    "county": "SAN DIEGO",
    "phone": "(760) 566-3345",
    "lat": 33.107652,
    "lng": -117.0749025
  },
  {
    "id": "080000090",
    "name": "VALLEY VISTA POST-ACUTE",
    "npi": "1659369262",
    "hcaiId": "206370784",
    "businessName": "KELLOGG BEACH HOLDINGS, LLC",
    "contactEmail": "MARK.POULSEN@LINKSHEALTH.COM",
    "categoryName": "SKILLED NURSING FACILITY",
    "categoryCode": "SNF",
    "licenseStatus": "ACTIVE",
    "inService": true,
    "licenseNumber": "080000102",
    "licenseEffectiveDate": "08/01/2025",
    "licenseExpirationDate": "03/08/2026",
    "dataDate": "10/18/2025",
    "capacity": 59,
    "address": "1025 W 2ND AVE",
    "city": "ESCONDIDO",
    "zip": "92025",
    "county": "SAN DIEGO",
    "phone": "(760) 745-1842",
    "lat": 33.111828,
    "lng": -117.093177
  }
]