[
  {
    "id": "630017049",
    "name": "BELLE VIE HOME HEALTH, INC.",
    "npi": "1487101119",
    "hcaiId": "406370929",
    "businessName": "BELLE VIE HOME HEALTH, INC.",
    "contactEmail": "PAT@BELLEVIEHOMEHEALTH.COM",
    "categoryName": "HOME HEALTH AGENCY",
    "categoryCode": "HHA",
    "licenseStatus": "ACTIVE",
    "inService": true,
    "licenseNumber": "550004084",
    "licenseEffectiveDate": "12/18/2024",
    "licenseExpirationDate": "12/17/2025",
    "dataDate": "10/18/2025",
    "capacity": 0,
    "address": "1220 GREENFIELD DRIVE",
    "city": "EL CAJON",
    "zip": "92021",
    "county": "SAN DIEGO",
    "phone": "(760) 504-9857",
    "lat": 32.81373,
    "lng": -116.939412
  },
  {
    "id": "080000094",
    "name": "BRADLEY COURT",
    "npi": "1356975684",
    "hcaiId": "206371458",
    "businessName": "GHC OF EL CAJON, LLC",
    "contactEmail": "JACOBSCHLOTTMAN@LIFEGEN.NET",
    "categoryName": "SKILLED NURSING FACILITY",
    "categoryCode": "SNF",
    "licenseStatus": "ACTIVE",
    "inService": true,
    "licenseNumber": "080000153",
    "licenseEffectiveDate": "03/01/2025",
    "licenseExpirationDate": "02/28/2026",
    "dataDate": "10/18/2025",
    "capacity": 56,
    "address": "675 E BRADLEY AVE",
    "city": "EL CAJON",
    "zip": "92021",
    "county": "SAN DIEGO",
    "phone": "(619) 448-6633",
    "lat": 32.818266,
    "lng": -116.952336
  },
  {
    "id": "090000074",
    "name": "COTTONWOOD CANYON HEALTHCARE CENTER",
    "npi": "1013953199",
    "hcaiId": "206370740",
    "businessName": "KOA HOLDINGS, LLC",
    "contactEmail": "HUNTER.MOORE@COTTONWOODCANYONHC.COM",
    "categoryName": "SKILLED NURSING FACILITY",
    "categoryCode": "SNF",
    "licenseStatus": "ACTIVE",
    "inService": true,
    "licenseNumber": "090000071",
    "licenseEffectiveDate": "03/01/2025",
    "licenseExpirationDate": "02/28/2026",
    "dataDate": "10/18/2025",
    "capacity": 96,
    "address": "1391 E MADISON AVE",
    "city": "EL CAJON",
    "zip": "92021",
    "county": "SAN DIEGO",
    "phone": "(619) 444-1107",
    "lat": 32.799834,
    "lng": -116.9320545
  },
  {
    "id": "080000820",
    "name": "COUNTRY HILLS POST ACUTE",
    "npi": "1700973963",
    "hcaiId": "206374066",
    "businessName": "EL CAJON POST ACUTE, LLC",
    "contactEmail": "ZACH.GRAF@COUNTRYHILLSPA.COM",
    "categoryName": "SKILLED NURSING FACILITY",
    "categoryCode": "SNF",
    "licenseStatus": "ACTIVE",
    "inService": true,
    "licenseNumber": "080000361",
    "licenseEffectiveDate": "05/15/2025",
    "licenseExpirationDate": "05/14/2026",
    "dataDate": "10/18/2025",
    "capacity": 305,
    "address": "1580 BROADWAY",
    "city": "EL CAJON",
    "zip": "92021",
    "county": "SAN DIEGO",
    "phone": "(949) 416-9806",
    "lat": 32.808825,
    "lng": -116.923914
  },
  {
    "id": "630020173",
    "name": "FAITH HOME HEALTH, INC.",
    "npi": null,
    "hcaiId": "406375536",
    "businessName": "FAITH HOME HEALTH, INC.",
    "contactEmail": "FAITHHOMEHEALTH1524@GMAIL.COM",
    "categoryName": "HOME HEALTH AGENCY",
    "categoryCode": "HHA",
    "licenseStatus": "ACTIVE",
    "inService": true,
    "licenseNumber": "550006629",
    "licenseEffectiveDate": "08/03/2025",
    "licenseExpirationDate": "08/02/2026",
    "dataDate": "10/18/2025",
    "capacity": 0,
    "address": "1524 GRAVES AVE, SUITE D",
    "city": "EL CAJON",
    "zip": "92021",
    "county": "SAN DIEGO",
    "phone": "(619) 345-4198",
    "lat": 32.819949,
    "lng": -116.9597835
  },
  {
    "id": "080001322",
    "name": "FRESENIUS MEDICAL CARE BALBOA EAST\\COUNTY",
    "npi": "1962839183",
    "hcaiId": "306374208",
    "businessName": "FRESENIUS MEDICAL CARE BALBOA II, LLC",
    "contactEmail": "KRISTEN.BARNES@FRESENIUSMEDICALCARE.COM",
    "categoryName": "CHRONIC DIALYSIS CLINIC",
    "categoryCode": "ESRD/CDC",
    "licenseStatus": "ACTIVE",
    "inService": true,
    "licenseNumber": "080000539",
    "licenseEffectiveDate": "02/20/2025",
    "licenseExpirationDate": "02/19/2026",
    "dataDate": "10/18/2025",
    "capacity": 24,
    "address": "570 N 2ND ST",
    "city": "EL CAJON",
    "zip": "92021",
    "county": "SAN DIEGO",
    "phone": "(619) 588-7500",
    "lat": 32.801859,
    "lng": -116.936883
  },
  {
    "id": "090000086",
    "name": "GRANITE HILLS HEALTHCARE & WELLNESS CENTRE, LLC",
    "npi": "1346516937",
    "hcaiId": "206370778",
    "businessName": "GRANITE HILLS HEALTHCARE & WELLNESS CENTRE, LLC",
    "contactEmail": "ADMINISTRATOR@GRANITEHILLSHC.COM",
    "categoryName": "SKILLED NURSING FACILITY",
    "categoryCode": "SNF",
    "licenseStatus": "ACTIVE",
    "inService": true,
    "licenseNumber": "090000097",
    "licenseEffectiveDate": "04/16/2025",
    "licenseExpirationDate": "04/15/2026",
    "dataDate": "10/18/2025",
    "capacity": 99,
    "address": "1340 E MADISON AVE",
    "city": "EL CAJON",
    "zip": "92021",
    "county": "SAN DIEGO",
    "phone": "(619) 447-1020",
    "lat": 32.800869,
    "lng": -116.934138
  },
  {
    "id": "630019456",
    "name": "HOSPICE OF SACRED HEART, LLC",
    "npi": null,
    "hcaiId": null,
    "businessName": "HOSPICE OF SACRED HEART, LLC",
    "contactEmail": "HOSPICEOFSACREDHEART746@GMAIL.COM",
    "categoryName": "HOSPICE",
    "categoryCode": "HOSPICE",
    "licenseStatus": "ACTIVE",
    "inService": true,
    "licenseNumber": "550006348",
    "licenseEffectiveDate": "05/11/2025",
    "licenseExpirationDate": "05/10/2027",
    "dataDate": "10/18/2025",
    "capacity": 0,
    "address": "746 N 2ND ST",
    "city": "EL CAJON",
    "zip": "92021",
    "county": "SAN DIEGO",
    "phone": "(619) 499-7929",
    "lat": 32.80447879,
    "lng": -116.9358379
  },
  {
    "id": "630014196",
    "name": "INDEPENDENT DIAGNOSTIC TESTS INC",
    "npi": null,
    "hcaiId": null,
    "businessName": null,
    "contactEmail": null,
    "categoryName": "PRIMARY CARE CLINIC",
    "categoryCode": "FQHC",
    "licenseStatus": null,
    "inService": null,
    "licenseNumber": null,
    "licenseEffectiveDate": null,
    "licenseExpirationDate": null,
    "dataDate": "10/18/2025",
    "capacity": 0,
    "address": "1663 GREENFIELD DR",
    "city": "EL CAJON",
    "zip": "92021",
    "county": "SAN DIEGO",
    "phone": null,
    "lat": 32.812254,
    "lng": -116.920719
  },
  {
    "id": "630026181",
    "name": "LA MAESTRA COMMUNITY HEALTH CENTERS - 1242 E. MAIN STREET",
    "npi": "1467197798",
    "hcaiId": null,
    "businessName": "LA MAESTRA FAMILY CLINIC, INC.",
    "contactEmail": null,
    "categoryName": "PRIMARY CARE CLINIC",
    "categoryCode": "COMTYC",
    "licenseStatus": "ACTIVE",
    "inService": true,
    "licenseNumber": "090000378",
    "licenseEffectiveDate": "02/21/2025",
    "licenseExpirationDate": "02/20/2026",
    "dataDate": "10/18/2025",
    "capacity": 0,
    "address": "1242 E MAIN ST",
    "city": "EL CAJON",
    "zip": "92021",
    "county": "SAN DIEGO",
    "phone": null,
    "lat": 32.795487,
    "lng": -116.938566
  },
  {
    "id": "630028428",
    "name": "LA MAESTRA COMMUNITY HEALTH CENTERS - 1246 E. MAIN STREET",
    "npi": null,
    "hcaiId": null,
    "businessName": "LA MAESTRA FAMILY CLINIC, INC.",
    "contactEmail": null,
    "categoryName": "PRIMARY CARE CLINIC",
    "categoryCode": "COMTYC",
    "licenseStatus": "ACTIVE",
    "inService": true,
    "licenseNumber": "090000378",
    "licenseEffectiveDate": "02/21/2025",
    "licenseExpirationDate": "02/20/2026",
    "dataDate": "10/18/2025",
    "capacity": 0,
    "address": "1246 E MAIN ST",
    "city": "EL CAJON",
    "zip": "92021",
    "county": "SAN DIEGO",
    "phone": null,
    "lat": 32.79573702,
    "lng": -116.93855
  },
  {
    "id": "630016455",
    "name": "LA MAESTRA COMMUNITY HEALTH CENTERS - EL CAJON BROADWAY",
    "npi": "1134590086",
    "hcaiId": "306374562",
    "businessName": "LA MAESTRA FAMILY CLINIC, INC.",
    "contactEmail": "TVU@LAMAESTRA.ORG",
    "categoryName": "PRIMARY CARE CLINIC",
    "categoryCode": "COMTYC",
    "licenseStatus": "ACTIVE",
    "inService": true,
    "licenseNumber": "090000378",
    "licenseEffectiveDate": "02/21/2025",
    "licenseExpirationDate": "02/20/2026",
    "dataDate": "10/18/2025",
    "capacity": 0,
    "address": "1032 BROADWAY",
    "city": "EL CAJON",
    "zip": "92021",
    "county": "SAN DIEGO",
    "phone": null,
    "lat": 32.808276,
    "lng": -116.946603
  },
  {
    "id": "090001564",
    "name": "MILTON MANOR DRIVE",
    "npi": "1457315806",
    "hcaiId": null,
    "businessName": "HOME OF GUIDING HANDS CORPORATION",
    "contactEmail": "LAURIE@GUIDINGHANDS.ORG",
    "categoryName": "INTERMEDIATE CARE FACILITY-DD/H/N/CN/IID",
    "categoryCode": "ICFDDH",
    "licenseStatus": "ACTIVE",
    "inService": true,
    "licenseNumber": "090000657",
    "licenseEffectiveDate": "11/26/2024",
    "licenseExpirationDate": "11/25/2025",
    "dataDate": "10/18/2025",
    "capacity": 6,
    "address": "1712 MILTON MANOR DR",
    "city": "EL CAJON",
    "zip": "92021",
    "county": "SAN DIEGO",
    "phone": "(619) 938-2850",
    "lat": 32.818824,
    "lng": -116.9244495
  },
  {
    "id": "630027227",
    "name": "NEIGHBORHOOD HEALTHCARE-MOLLISON",
    "npi": null,
    "hcaiId": null,
    "businessName": "NEIGHBORHOOD HEALTHCARE",
    "contactEmail": null,
    "categoryName": "PRIMARY CARE CLINIC",
    "categoryCode": "COMTYC",
    "licenseStatus": "ACTIVE",
    "inService": true,
    "licenseNumber": "090000156",
    "licenseEffectiveDate": "11/13/2025",
    "licenseExpirationDate": "11/12/2026",
    "dataDate": "10/18/2025",
    "capacity": 0,
    "address": "470 N MOLLISON AVE",
    "city": "EL CAJON",
    "zip": "92021",
    "county": "SAN DIEGO",
    "phone": null,
    "lat": 32.79986301,
    "lng": -116.951939
  },
  {
    "id": "630015823",
    "name": "ORANGE COAST HOSPICE, INC.",
    "npi": null,
    "hcaiId": "406375652",
    "businessName": "ORANGE COAST HOSPICE, INC.",
    "contactEmail": "ORANGECOASTHOSPICE2@GMAIL.COM",
    "categoryName": "HOSPICE",
    "categoryCode": "HOSPICE",
    "licenseStatus": "ACTIVE",
    "inService": true,
    "licenseNumber": "550003548",
    "licenseEffectiveDate": "06/16/2022",
    "licenseExpirationDate": "06/15/2024",
    "dataDate": "10/18/2025",
    "capacity": 0,
    "address": "1283 E MAIN ST, SUITE 212",
    "city": "EL CAJON",
    "zip": "92021",
    "county": "SAN DIEGO",
    "phone": "(714) 202-6901",
    "lat": 32.794623,
    "lng": -116.937153
  },
  {
    "id": "090000256",
    "name": "PLANNED PARENTHOOD - EL CAJON CLINIC",
    "npi": "1154356145",
    "hcaiId": "306374387",
    "businessName": "PLANNED PARENTHOOD OF THE PACIFIC SOUTHWEST",
    "contactEmail": "LMANN1@PLANNED.ORG",
    "categoryName": "PRIMARY CARE CLINIC",
    "categoryCode": "COMTYC",
    "licenseStatus": "ACTIVE",
    "inService": true,
    "licenseNumber": "090000144",
    "licenseEffectiveDate": "11/16/2025",
    "licenseExpirationDate": "11/15/2026",
    "dataDate": "10/18/2025",
    "capacity": 0,
    "address": "1685 E MAIN ST, SUITE 301",
    "city": "EL CAJON",
    "zip": "92021",
    "county": "SAN DIEGO",
    "phone": "(619) 881-4500",
    "lat": 32.811075,
    "lng": -116.9187885
  },
  {
    "id": "090001259",
    "name": "PROMISING FUTURES, INC. - AGAPE",
    "npi": "1336368984",
    "hcaiId": null,
    "businessName": "PROMISING FUTURES, INC.",
    "contactEmail": "GPARRA@PROMISING-FUTURES.ORG",
    "categoryName": "INTERMEDIATE CARE FACILITY-DD/H/N/CN/IID",
    "categoryCode": "ICFDDH",
    "licenseStatus": "ACTIVE",
    "inService": true,
    "licenseNumber": "090000513",
    "licenseEffectiveDate": "11/28/2024",
    "licenseExpirationDate": "11/27/2025",
    "dataDate": "10/18/2025",
    "capacity": 5,
    "address": "1350 TETON DR",
    "city": "EL CAJON",
    "zip": "92021",
    "county": "SAN DIEGO",
    "phone": "(619) 592-4850",
    "lat": 32.826717,
    "lng": -116.960031
  },
  {
    "id": "630013294",
    "name": "SACRED HEART HEALTH CARE PROVIDERS, INC.",
    "npi": "1699068205",
    "hcaiId": "406374463",
    "businessName": "SACRED HEART HEALTH CARE PROVIDERS, INC.",
    "contactEmail": "SACREDHEARTHCPI@YAHOO.COM",
    "categoryName": "HOME HEALTH AGENCY",
    "categoryCode": "HHA",
    "licenseStatus": "ACTIVE",
    "inService": true,
    "licenseNumber": "550001830",
    "licenseEffectiveDate": "01/25/2025",
    "licenseExpirationDate": "01/24/2026",
    "dataDate": "10/18/2025",
    "capacity": 0,
    "address": "758 N 2ND ST",
    "city": "EL CAJON",
    "zip": "92021",
    "county": "SAN DIEGO",
    "phone": "(619) 444-4986",
    "lat": 32.80462968,
    "lng": -116.9358379
  },
  {
    "id": "090000111",
    "name": "THALHEIMER - ISAAC HOME",
    "npi": "1508821166",
    "hcaiId": null,
    "businessName": "HOME OF GUIDING HANDS CORPORATION",
    "contactEmail": "LAURIE@GUIDINGHANDS.ORG",
    "categoryName": "INTERMEDIATE CARE FACILITY-DD/H/N/CN/IID",
    "categoryCode": "ICFDDH",
    "licenseStatus": "ACTIVE",
    "inService": true,
    "licenseNumber": "090000206",
    "licenseEffectiveDate": "12/13/2024",
    "licenseExpirationDate": "12/12/2025",
    "dataDate": "10/18/2025",
    "capacity": 6,
    "address": "518 ROBERTA AVE",
    "city": "EL CAJON",
    "zip": "92021",
    "county": "SAN DIEGO",
    "phone": "(619) 938-2850",
    "lat": 32.80086,
    "lng": -116.941941
  },
  {
    "id": "080000017",
    "name": "THE ROYAL HOME",
    "npi": "1780739144",
    "hcaiId": "206370765",
    "businessName": null,
    "contactEmail": "THEROYALHOME10@GMAIL.COM",
    "categoryName": "SKILLED NURSING FACILITY",
    "categoryCode": "SNF",
    "licenseStatus": "ACTIVE",
    "inService": true,
    "licenseNumber": "080000090",
    "licenseEffectiveDate": "06/29/2025",
    "licenseExpirationDate": "06/28/2026",
    "dataDate": "10/18/2025",
    "capacity": 19,
    "address": "12436 ROYAL RD",
    "city": "EL CAJON",
    "zip": "92021",
    "county": "SAN DIEGO",
    "phone": "(619) 443-3886",
    "lat": 32.824377,
    "lng": -116.9240715
  },
  {
    "id": "090000097",
    "name": "VERBECK HOUSE",
    "npi": "1952362758",
    "hcaiId": null,
    "businessName": "HOME OF GUIDING HANDS CORPORATION",
    "contactEmail": "LAURIE@GUIDINGHANDS.ORG",
    "categoryName": "INTERMEDIATE CARE FACILITY-DD/H/N/CN/IID",
    "categoryCode": "ICFDDH",
    "licenseStatus": "ACTIVE",
    "inService": true,
    "licenseNumber": "090000237",
    "licenseEffectiveDate": "04/01/2025",
    "licenseExpirationDate": "03/31/2026",
    "dataDate": "10/18/2025",
    "capacity": 6,
    "address": "1243 BERMUDA LN",
    "city": "EL CAJON",
    "zip": "92021",
    "county": "SAN DIEGO",
    "phone": "(619) 938-2850",
    "lat": 32.812056,
    "lng": -116.913933
  }
]