[
  {
    "id": "630014009",
    "name": "AT HOME NURSING CARE, INC.",
    "npi": "1336493394",
    "hcaiId": "406164034",
    "businessName": "AT HOME NURSING CARE, INC.",
    "contactEmail": "LAUREN@ATHOMENURSINGCARE.COM",
    "categoryName": "HOME HEALTH AGENCY",
    "categoryCode": "HHA",
    "licenseStatus": "ACTIVE",
    "inService": true,
    "licenseNumber": "550002240",
    "licenseEffectiveDate": "03/21/2025",
    "licenseExpirationDate": "03/20/2026",
    "dataDate": "10/18/2025",
    "capacity": 0,
    "address": "531 ENCINITAS BLVD, SUITE 120",
    "city": "ENCINITAS",
    "zip": "92024",
    "county": "SAN DIEGO",
    "phone": "(760) 634-8000",
    "lat": 33.046101,
    "lng": -117.2790495
  },
  {
    "id": "080000077",
    "name": "AVIARA HEALTHCARE CENTER",
    "npi": "1518146620",
    "hcaiId": "206371658",
    "businessName": "OLIVE HOLDINGS, LLC",
    "contactEmail": "TYLER.JACOBS@AVIARAHC.COM",
    "categoryName": "SKILLED NURSING FACILITY",
    "categoryCode": "SNF",
    "licenseStatus": "ACTIVE",
    "inService": true,
    "licenseNumber": "080000220",
    "licenseEffectiveDate": "04/16/2025",
    "licenseExpirationDate": "04/15/2026",
    "dataDate": "10/18/2025",
    "capacity": 120,
    "address": "944 REGAL RD",
    "city": "ENCINITAS",
    "zip": "92024",
    "county": "SAN DIEGO",
    "phone": "(760) 944-0331",
    "lat": 33.040314,
    "lng": -117.282915
  },
  {
    "id": "080001233",
    "name": "ENCINITAS DIALYSIS",
    "npi": "1356315329",
    "hcaiId": "306374171",
    "businessName": "DVA RENAL HEALTHCARE, INC.",
    "contactEmail": "CAL_C@DAVITA.COM",
    "categoryName": "CHRONIC DIALYSIS CLINIC",
    "categoryCode": "ESRD/CDC",
    "licenseStatus": "ACTIVE",
    "inService": true,
    "licenseNumber": "080000502",
    "licenseEffectiveDate": "11/03/2025",
    "licenseExpirationDate": "11/02/2026",
    "dataDate": "10/18/2025",
    "capacity": 15,
    "address": "332 SANTA FE DR, SUITE 100",
    "city": "ENCINITAS",
    "zip": "92024",
    "county": "SAN DIEGO",
    "phone": "(760) 632-2323",
    "lat": 33.039558,
    "lng": -117.2850165
  },
  {
    "id": "080000779",
    "name": "ENCINITAS NURSING AND REHABILITATION CENTER",
    "npi": null,
    "hcaiId": null,
    "businessName": null,
    "contactEmail": null,
    "categoryName": "REHABILITATION CLINIC",
    "categoryCode": "OPT/SP",
    "licenseStatus": null,
    "inService": null,
    "licenseNumber": null,
    "licenseEffectiveDate": null,
    "licenseExpirationDate": null,
    "dataDate": "10/18/2025",
    "capacity": 0,
    "address": "900 SANTA FE DR",
    "city": "ENCINITAS",
    "zip": "92024",
    "county": "SAN DIEGO",
    "phone": null,
    "lat": 33.036813,
    "lng": -117.272322
  },
  {
    "id": "080000001",
    "name": "ENCINITAS POST-ACUTE",
    "npi": "1265415749",
    "hcaiId": "206370752",
    "businessName": "LEUCADIA BEACH HOLDINGS, LLC",
    "contactEmail": "PAUL.CHRISTENSEN@LINKSHEALTH.COM",
    "categoryName": "SKILLED NURSING FACILITY",
    "categoryCode": "SNF",
    "licenseStatus": "ACTIVE",
    "inService": true,
    "licenseNumber": "080000081",
    "licenseEffectiveDate": "11/01/2025",
    "licenseExpirationDate": "10/31/2026",
    "dataDate": "10/18/2025",
    "capacity": 99,
    "address": "900 SANTA FE DR",
    "city": "ENCINITAS",
    "zip": "92024",
    "county": "SAN DIEGO",
    "phone": "(760) 753-6423",
    "lat": 33.036813,
    "lng": -117.272322
  },
  {
    "id": "060002007",
    "name": "GEORGE G.GLENNER ALZHEIMER'S FAMILY CTR, INC",
    "npi": null,
    "hcaiId": null,
    "businessName": "GEORGE G. GLENNER ALZHEIMER'S FAMILY CENTERS, INC.",
    "contactEmail": "STARDE@GLENNER.ORG",
    "categoryName": "ADULT DAY HEALTH CARE",
    "categoryCode": "ADHC",
    "licenseStatus": "ACTIVE",
    "inService": true,
    "licenseNumber": "060000830",
    "licenseEffectiveDate": "02/27/2025",
    "licenseExpirationDate": "02/26/2026",
    "dataDate": "10/18/2025",
    "capacity": 0,
    "address": "335 SAXONY RD",
    "city": "ENCINITAS",
    "zip": "92024",
    "county": "SAN DIEGO",
    "phone": "(760) 635-1895",
    "lat": 33.053616,
    "lng": -117.283896
  },
  {
    "id": "080001176",
    "name": "PRN",
    "npi": null,
    "hcaiId": null,
    "businessName": null,
    "contactEmail": null,
    "categoryName": "OTHER",
    "categoryCode": "UNLICEN",
    "licenseStatus": null,
    "inService": null,
    "licenseNumber": null,
    "licenseEffectiveDate": null,
    "licenseExpirationDate": null,
    "dataDate": "10/18/2025",
    "capacity": 0,
    "address": "317 N EL CAMINO REAL, SUITE 210",
    "city": "ENCINITAS",
    "zip": "92024",
    "county": "SAN DIEGO",
    "phone": "(760) 634-0248",
    "lat": 33.054543,
    "lng": -117.2604465
  },
  {
    "id": "630011615",
    "name": "SCRIPPS ENCINITAS SURGERY CENTER",
    "npi": "1821112145",
    "hcaiId": "306374407",
    "businessName": "SCRIPPS ENCINITAS SURGERY CENTER, LLC",
    "contactEmail": null,
    "categoryName": "SURGICAL CLINIC",
    "categoryCode": "ASC",
    "licenseStatus": "INACTIVE - CAPEN DECISION",
    "inService": false,
    "licenseNumber": "550000661",
    "licenseEffectiveDate": "02/06/2008",
    "licenseExpirationDate": "08/05/2008",
    "dataDate": "10/18/2025",
    "capacity": 0,
    "address": "320 SANTA FE DR, SUITE LL2",
    "city": "ENCINITAS",
    "zip": "92024",
    "county": "SAN DIEGO",
    "phone": "(760) 632-3900",
    "lat": 33.038829,
    "lng": -117.285624
  },
  {
    "id": "080000150",
    "name": "SCRIPPS MEMORIAL HOSPITAL - ENCINITAS",
    "npi": "1700829199",
    "hcaiId": "106371394",
    "businessName": "SCRIPPS HEALTH",
    "contactEmail": "HARDIN.MICHELLE@SCRIPPSHEALTH.ORG",
    "categoryName": "GENERAL ACUTE CARE HOSPITAL",
    "categoryCode": "GACH",
    "licenseStatus": "ACTIVE",
    "inService": true,
    "licenseNumber": "080000148",
    "licenseEffectiveDate": "07/02/2025",
    "licenseExpirationDate": "04/30/2026",
    "dataDate": "10/18/2025",
    "capacity": 179,
    "address": "354 SANTA FE DR",
    "city": "ENCINITAS",
    "zip": "92024",
    "county": "SAN DIEGO",
    "phone": "(760) 633-7424",
    "lat": 33.0362782,
    "lng": -117.2840265
  },
  {
    "id": "630018971",
    "name": "SEACREST HOME HEALTH",
    "npi": null,
    "hcaiId": "406373035",
    "businessName": "JEWISH HOME CARE SERVICES, INC.",
    "contactEmail": null,
    "categoryName": "HOME HEALTH AGENCY",
    "categoryCode": "HHA",
    "licenseStatus": "ACTIVE",
    "inService": true,
    "licenseNumber": "550006141",
    "licenseEffectiveDate": "03/23/2025",
    "licenseExpirationDate": "03/22/2026",
    "dataDate": "10/18/2025",
    "capacity": 0,
    "address": "211 SAXONY RD, SUITE 2",
    "city": "ENCINITAS",
    "zip": "92024",
    "county": "SAN DIEGO",
    "phone": "(760) 473-2914",
    "lat": 33.051879,
    "lng": -117.284301
  },
  {
    "id": "080000835",
    "name": "THE DOROTHY AND JOSEPH GOLDBERG HEALTHCARE CENTER",
    "npi": "1659482032",
    "hcaiId": "206374064",
    "businessName": "SAN DIEGO HEBREW HOMES",
    "contactEmail": "CMEASER@SEACRESTVILLAGE.ORG",
    "categoryName": "SKILLED NURSING FACILITY",
    "categoryCode": "SNF",
    "licenseStatus": "ACTIVE",
    "inService": true,
    "licenseNumber": "080000367",
    "licenseEffectiveDate": "05/30/2025",
    "licenseExpirationDate": "05/29/2026",
    "dataDate": "10/18/2025",
    "capacity": 58,
    "address": "211 SAXONY RD",
    "city": "ENCINITAS",
    "zip": "92024",
    "county": "SAN DIEGO",
    "phone": "(760) 632-0081",
    "lat": 33.051879,
    "lng": -117.284301
  },
  {
    "id": "080000855",
    "name": "THE DOROTHY AND JOSEPH GOLDBERG HEALTHCARE CENTER",
    "npi": "1659482032",
    "hcaiId": null,
    "businessName": "SAN DIEGO HEBREW HOMES",
    "contactEmail": null,
    "categoryName": "REHABILITATION CLINIC",
    "categoryCode": "OPT/SP",
    "licenseStatus": "ACTIVE",
    "inService": true,
    "licenseNumber": "080000367",
    "licenseEffectiveDate": "05/30/2025",
    "licenseExpirationDate": "05/29/2026",
    "dataDate": "10/18/2025",
    "capacity": 0,
    "address": "211 SAXONY RD",
    "city": "ENCINITAS",
    "zip": "92024",
    "county": "SAN DIEGO",
    "phone": null,
    "lat": 33.051879,
    "lng": -117.284301
  },
  {
    "id": "630008102",
    "name": "THE ENDOSCOPY CENTER",
    "npi": "1427326677",
    "hcaiId": null,
    "businessName": null,
    "contactEmail": "JLACKEY@USPI.COM",
    "categoryName": "SURGICAL CLINIC",
    "categoryCode": "ASC",
    "licenseStatus": null,
    "inService": null,
    "licenseNumber": null,
    "licenseEffectiveDate": null,
    "licenseExpirationDate": null,
    "dataDate": "10/18/2025",
    "capacity": 0,
    "address": "700 GARDEN VIEW CT, SUITE 101",
    "city": "ENCINITAS",
    "zip": "92024",
    "county": "SAN DIEGO",
    "phone": "(760) 274-2700",
    "lat": 33.059088,
    "lng": -117.2612115
  },
  {
    "id": "630013963",
    "name": "THE WELL MEDICAL CENTER",
    "npi": "1528383510",
    "hcaiId": null,
    "businessName": null,
    "contactEmail": null,
    "categoryName": "SURGICAL CLINIC",
    "categoryCode": "ASC",
    "licenseStatus": null,
    "inService": null,
    "licenseNumber": null,
    "licenseEffectiveDate": null,
    "licenseExpirationDate": null,
    "dataDate": "10/18/2025",
    "capacity": 0,
    "address": "303 SANTA FE DR",
    "city": "ENCINITAS",
    "zip": "92024",
    "county": "SAN DIEGO",
    "phone": "(760) 942-1329",
    "lat": 33.0361508,
    "lng": -117.2853398
  },
  {
    "id": "630014917",
    "name": "TRIO HOME HEALTH CARE OF SAN DIEGO, INC.",
    "npi": "1639592264",
    "hcaiId": "406374512",
    "businessName": "TRIO HOME HEALTH CARE OF SAN DIEGO, INC.",
    "contactEmail": "CARE@TRIOHHCSD.COM",
    "categoryName": "HOME HEALTH AGENCY",
    "categoryCode": "HHA",
    "licenseStatus": "ACTIVE",
    "inService": true,
    "licenseNumber": "550002783",
    "licenseEffectiveDate": "08/04/2025",
    "licenseExpirationDate": "08/03/2026",
    "dataDate": "10/18/2025",
    "capacity": 0,
    "address": "1991 VILLAGE PARK WAY, SUITE 2L",
    "city": "ENCINITAS",
    "zip": "92024",
    "county": "SAN DIEGO",
    "phone": "(760) 632-8746",
    "lat": 33.053121,
    "lng": -117.2455875
  },
  {
    "id": "080001523",
    "name": "TRUECARE",
    "npi": "1447267349",
    "hcaiId": "306374359",
    "businessName": "NORTH COUNTY HEALTH PROJECT, INC.",
    "contactEmail": "LICENSING@TRUECARE.ORG",
    "categoryName": "PRIMARY CARE CLINIC",
    "categoryCode": "COMTYC",
    "licenseStatus": "ACTIVE",
    "inService": true,
    "licenseNumber": "080000638",
    "licenseEffectiveDate": "11/19/2025",
    "licenseExpirationDate": "11/18/2026",
    "dataDate": "10/18/2025",
    "capacity": 0,
    "address": "1130 2ND ST",
    "city": "ENCINITAS",
    "zip": "92024",
    "county": "SAN DIEGO",
    "phone": "(760) 736-6767",
    "lat": 33.037443,
    "lng": -117.29394
  },
  {
    "id": "080000226",
    "name": "UCSD CENTER FOR SURGERY OF ENCINITAS LP",
    "npi": "1639694797",
    "hcaiId": "306374074",
    "businessName": null,
    "contactEmail": null,
    "categoryName": "SURGICAL CLINIC",
    "categoryCode": "ASC",
    "licenseStatus": "INACTIVE - CAPEN DECISION",
    "inService": false,
    "licenseNumber": "080000373",
    "licenseEffectiveDate": "01/24/2008",
    "licenseExpirationDate": "01/23/2009",
    "dataDate": "10/18/2025",
    "capacity": 0,
    "address": "477 N EL CAMINO REAL, SUITE C100",
    "city": "ENCINITAS",
    "zip": "92024",
    "county": "SAN DIEGO",
    "phone": "(760) 942-8800",
    "lat": 33.057189,
    "lng": -117.261486
  },
  {
    "id": "630019505",
    "name": "UNITED SURGERY CENTER-ENCINITAS",
    "npi": "1427606383",
    "hcaiId": null,
    "businessName": null,
    "contactEmail": "KJONES@UNITEDSURGERY.ORG",
    "categoryName": "SURGICAL CLINIC",
    "categoryCode": "ASC",
    "licenseStatus": null,
    "inService": null,
    "licenseNumber": null,
    "licenseEffectiveDate": null,
    "licenseExpirationDate": null,
    "dataDate": "10/18/2025",
    "capacity": 0,
    "address": "477 N EL CAMINO REAL, SUITE A210",
    "city": "ENCINITAS",
    "zip": "92024",
    "county": "SAN DIEGO",
    "phone": "(951) 764-9396",
    "lat": 33.057189,
    "lng": -117.261486
  }
]