[
  {
    "id": "630026790",
    "name": "ESCONDIDO HIGH SCHOOL",
    "npi": null,
    "hcaiId": null,
    "businessName": "NEIGHBORHOOD HEALTHCARE",
    "contactEmail": null,
    "categoryName": "PRIMARY CARE CLINIC",
    "categoryCode": "COMTYC",
    "licenseStatus": "ACTIVE",
    "inService": true,
    "licenseNumber": "080000397",
    "licenseEffectiveDate": "12/09/2024",
    "licenseExpirationDate": "12/08/2025",
    "dataDate": "10/18/2025",
    "capacity": 0,
    "address": "1535 N BROADWAY",
    "city": "ESCONDIDO",
    "zip": "92026",
    "county": "SAN DIEGO",
    "phone": null,
    "lat": 33.14420154,
    "lng": -117.090237
  },
  {
    "id": "630027553",
    "name": "LINCOLN ELEMENTARY SCHOOL",
    "npi": null,
    "hcaiId": null,
    "businessName": "NEIGHBORHOOD HEALTHCARE",
    "contactEmail": null,
    "categoryName": "PRIMARY CARE CLINIC",
    "categoryCode": "COMTYC",
    "licenseStatus": "ACTIVE",
    "inService": true,
    "licenseNumber": "080000657",
    "licenseEffectiveDate": "01/29/2025",
    "licenseExpirationDate": "01/28/2026",
    "dataDate": "10/18/2025",
    "capacity": 0,
    "address": "1029 N BROADWAY, ROOM SONR6",
    "city": "ESCONDIDO",
    "zip": "92026",
    "county": "SAN DIEGO",
    "phone": null,
    "lat": 33.13421554,
    "lng": -117.0870947
  },
  {
    "id": "630016417",
    "name": "MEADOWBROOK VILLAGE CHRISTIAN RETIREMENT COMMUNITY",
    "npi": null,
    "hcaiId": "206374458",
    "businessName": "MEADOWBROOK VILLAGE CHRISTIAN RETIREMENT COMMUNITY",
    "contactEmail": "MELANIE@MEADOWBROOKVILLAGE.ORG",
    "categoryName": "SKILLED NURSING FACILITY",
    "categoryCode": "SNF",
    "licenseStatus": "ACTIVE",
    "inService": true,
    "licenseNumber": "550003847",
    "licenseEffectiveDate": "04/18/2025",
    "licenseExpirationDate": "04/17/2026",
    "dataDate": "10/18/2025",
    "capacity": 19,
    "address": "100 HOLLAND GLEN",
    "city": "ESCONDIDO",
    "zip": "92026",
    "county": "SAN DIEGO",
    "phone": "(760) 760-2500",
    "lat": 33.15697993,
    "lng": -117.0929115
  },
  {
    "id": "090000314",
    "name": "MOUNTAIN SHADOWS COMMUNITY  HOMES - WILLOW",
    "npi": "1922123181",
    "hcaiId": null,
    "businessName": "MOUNTAIN SHADOWS SUPPORT GROUP",
    "contactEmail": "SSULLIVAN@MTNSHADOWS.ORG",
    "categoryName": "INTERMEDIATE CARE FACILITY-DD/H/N/CN/IID",
    "categoryCode": "ICFDDH",
    "licenseStatus": "ACTIVE",
    "inService": true,
    "licenseNumber": "090000271",
    "licenseEffectiveDate": "12/09/2024",
    "licenseExpirationDate": "12/08/2025",
    "dataDate": "10/18/2025",
    "capacity": 6,
    "address": "2067 W EL NORTE PKWY",
    "city": "ESCONDIDO",
    "zip": "92026",
    "county": "SAN DIEGO",
    "phone": "(760) 743-3714",
    "lat": 33.149412,
    "lng": -117.117927
  },
  {
    "id": "090000316",
    "name": "MOUNTAIN SHADOWS COMMUNITY HOMES - APPLE",
    "npi": "1205951464",
    "hcaiId": null,
    "businessName": "MOUNTAIN SHADOWS SUPPORT GROUP",
    "contactEmail": "JRICH@MTNSHADOWS.ORG",
    "categoryName": "INTERMEDIATE CARE FACILITY-DD/H/N/CN/IID",
    "categoryCode": "ICFDDH",
    "licenseStatus": "ACTIVE",
    "inService": true,
    "licenseNumber": "090000275",
    "licenseEffectiveDate": "12/09/2024",
    "licenseExpirationDate": "12/08/2025",
    "dataDate": "10/18/2025",
    "capacity": 6,
    "address": "2067 W EL NORTE PKWY",
    "city": "ESCONDIDO",
    "zip": "92026",
    "county": "SAN DIEGO",
    "phone": "(760) 743-3714",
    "lat": 33.149412,
    "lng": -117.117927
  },
  {
    "id": "090000277",
    "name": "MOUNTAIN SHADOWS COMMUNITY HOMES - ASH",
    "npi": "1720103971",
    "hcaiId": null,
    "businessName": "MOUNTAIN SHADOWS SUPPORT GROUP",
    "contactEmail": "SSULLIVAN@MTNSHADOWS.ORG",
    "categoryName": "INTERMEDIATE CARE FACILITY-DD/H/N/CN/IID",
    "categoryCode": "ICFDDH",
    "licenseStatus": "ACTIVE",
    "inService": true,
    "licenseNumber": "090000261",
    "licenseEffectiveDate": "12/09/2024",
    "licenseExpirationDate": "12/08/2025",
    "dataDate": "10/18/2025",
    "capacity": 6,
    "address": "2067 W EL NORTE PKWY",
    "city": "ESCONDIDO",
    "zip": "92026",
    "county": "SAN DIEGO",
    "phone": "(760) 743-3714",
    "lat": 33.149412,
    "lng": -117.117927
  },
  {
    "id": "090000278",
    "name": "MOUNTAIN SHADOWS COMMUNITY HOMES - BIRCH",
    "npi": "1710002951",
    "hcaiId": null,
    "businessName": "MOUNTAIN SHADOWS SUPPORT GROUP",
    "contactEmail": "SSULLIVAN@MTNSHADOWS.ORG",
    "categoryName": "INTERMEDIATE CARE FACILITY-DD/H/N/CN/IID",
    "categoryCode": "ICFDDH",
    "licenseStatus": "ACTIVE",
    "inService": true,
    "licenseNumber": "090000257",
    "licenseEffectiveDate": "12/09/2024",
    "licenseExpirationDate": "12/08/2025",
    "dataDate": "10/18/2025",
    "capacity": 6,
    "address": "2067 W EL NORTE PKWY",
    "city": "ESCONDIDO",
    "zip": "92026",
    "county": "SAN DIEGO",
    "phone": "(760) 743-3714",
    "lat": 33.149412,
    "lng": -117.117927
  },
  {
    "id": "090000279",
    "name": "MOUNTAIN SHADOWS COMMUNITY HOMES - CEDAR",
    "npi": "1912022161",
    "hcaiId": null,
    "businessName": "MOUNTAIN SHADOWS SUPPORT GROUP",
    "contactEmail": "SSULLIVAN@MTNSHADOWS.ORG",
    "categoryName": "INTERMEDIATE CARE FACILITY-DD/H/N/CN/IID",
    "categoryCode": "ICFDDH",
    "licenseStatus": "ACTIVE",
    "inService": true,
    "licenseNumber": "090000264",
    "licenseEffectiveDate": "12/09/2024",
    "licenseExpirationDate": "12/08/2025",
    "dataDate": "10/18/2025",
    "capacity": 6,
    "address": "2067 W EL NORTE PKWY",
    "city": "ESCONDIDO",
    "zip": "92026",
    "county": "SAN DIEGO",
    "phone": "(760) 743-3714",
    "lat": 33.149412,
    "lng": -117.117927
  },
  {
    "id": "090000280",
    "name": "MOUNTAIN SHADOWS COMMUNITY HOMES - CREPE MYRTLE",
    "npi": "1396860540",
    "hcaiId": null,
    "businessName": "MOUNTAIN SHADOWS SUPPORT GROUP",
    "contactEmail": "SSULLIVAN@MTNSHADOWS.ORG",
    "categoryName": "INTERMEDIATE CARE FACILITY-DD/H/N/CN/IID",
    "categoryCode": "ICFDDH",
    "licenseStatus": "ACTIVE",
    "inService": true,
    "licenseNumber": "090000258",
    "licenseEffectiveDate": "12/09/2024",
    "licenseExpirationDate": "12/08/2025",
    "dataDate": "10/18/2025",
    "capacity": 6,
    "address": "2067 W EL NORTE PKWY",
    "city": "ESCONDIDO",
    "zip": "92026",
    "county": "SAN DIEGO",
    "phone": "(760) 743-1847",
    "lat": 33.149412,
    "lng": -117.117927
  },
  {
    "id": "090000281",
    "name": "MOUNTAIN SHADOWS COMMUNITY HOMES - JACARANDA",
    "npi": "1346365590",
    "hcaiId": null,
    "businessName": "MOUNTAIN SHADOWS SUPPORT GROUP",
    "contactEmail": "SSULLIVAN@MTNSHADOWS.ORG",
    "categoryName": "INTERMEDIATE CARE FACILITY-DD/H/N/CN/IID",
    "categoryCode": "ICFDDN",
    "licenseStatus": "ACTIVE",
    "inService": true,
    "licenseNumber": "090000262",
    "licenseEffectiveDate": "12/09/2024",
    "licenseExpirationDate": "12/08/2025",
    "dataDate": "10/18/2025",
    "capacity": 6,
    "address": "2067 W EL NORTE PKWY",
    "city": "ESCONDIDO",
    "zip": "92026",
    "county": "SAN DIEGO",
    "phone": "(760) 743-3714",
    "lat": 33.149412,
    "lng": -117.117927
  },
  {
    "id": "090000312",
    "name": "MOUNTAIN SHADOWS COMMUNITY HOMES - LEMON",
    "npi": "1881719045",
    "hcaiId": null,
    "businessName": "MOUNTAIN SHADOWS SUPPORT GROUP",
    "contactEmail": "SSULLIVAN@MTNSHADOWS.ORG",
    "categoryName": "INTERMEDIATE CARE FACILITY-DD/H/N/CN/IID",
    "categoryCode": "ICFDDH",
    "licenseStatus": "ACTIVE",
    "inService": true,
    "licenseNumber": "090000276",
    "licenseEffectiveDate": "12/09/2024",
    "licenseExpirationDate": "12/08/2025",
    "dataDate": "10/18/2025",
    "capacity": 6,
    "address": "2067 W EL NORTE PKWY",
    "city": "ESCONDIDO",
    "zip": "92026",
    "county": "SAN DIEGO",
    "phone": "(760) 743-3714",
    "lat": 33.149412,
    "lng": -117.117927
  },
  {
    "id": "090000317",
    "name": "MOUNTAIN SHADOWS COMMUNITY HOMES - MAPLE",
    "npi": "1871618033",
    "hcaiId": null,
    "businessName": "MOUNTAIN SHADOWS SUPPORT GROUP",
    "contactEmail": "SSULLIVAN@MTNSHADOWS.ORG",
    "categoryName": "INTERMEDIATE CARE FACILITY-DD/H/N/CN/IID",
    "categoryCode": "ICFDDH",
    "licenseStatus": "ACTIVE",
    "inService": true,
    "licenseNumber": "090000274",
    "licenseEffectiveDate": "12/09/2024",
    "licenseExpirationDate": "12/08/2025",
    "dataDate": "10/18/2025",
    "capacity": 6,
    "address": "2067 W EL NORTE PKWY",
    "city": "ESCONDIDO",
    "zip": "92026",
    "county": "SAN DIEGO",
    "phone": "(760) 743-3714",
    "lat": 33.149412,
    "lng": -117.117927
  },
  {
    "id": "090000134",
    "name": "MOUNTAIN SHADOWS COMMUNITY HOMES - OLIVE",
    "npi": "1396894291",
    "hcaiId": null,
    "businessName": "MOUNTAIN SHADOWS SUPPORT GROUP",
    "contactEmail": "SSULLIVAN@MTNSHADOWS.ORG",
    "categoryName": "INTERMEDIATE CARE FACILITY-DD/H/N/CN/IID",
    "categoryCode": "ICFDDN",
    "licenseStatus": "ACTIVE",
    "inService": true,
    "licenseNumber": "090000253",
    "licenseEffectiveDate": "11/14/2025",
    "licenseExpirationDate": "11/13/2026",
    "dataDate": "10/18/2025",
    "capacity": 15,
    "address": "2067 W EL NORTE PKWY",
    "city": "ESCONDIDO",
    "zip": "92026",
    "county": "SAN DIEGO",
    "phone": "(760) 743-3714",
    "lat": 33.149412,
    "lng": -117.117927
  },
  {
    "id": "090000318",
    "name": "MOUNTAIN SHADOWS COMMUNITY HOMES - ORANGE",
    "npi": "1982729133",
    "hcaiId": null,
    "businessName": "MOUNTAIN SHADOWS SUPPORT GROUP",
    "contactEmail": "SSULLIVAN@MTNSHADOWS.ORG",
    "categoryName": "INTERMEDIATE CARE FACILITY-DD/H/N/CN/IID",
    "categoryCode": "ICFDDH",
    "licenseStatus": "ACTIVE",
    "inService": true,
    "licenseNumber": "090000273",
    "licenseEffectiveDate": "12/09/2024",
    "licenseExpirationDate": "12/08/2025",
    "dataDate": "10/18/2025",
    "capacity": 6,
    "address": "2067 W EL NORTE PKWY",
    "city": "ESCONDIDO",
    "zip": "92026",
    "county": "SAN DIEGO",
    "phone": "(760) 743-3714",
    "lat": 33.149412,
    "lng": -117.117927
  },
  {
    "id": "090000282",
    "name": "MOUNTAIN SHADOWS COMMUNITY HOMES - PALM",
    "npi": "1265557417",
    "hcaiId": null,
    "businessName": "MOUNTAIN SHADOWS SUPPORT GROUP",
    "contactEmail": "SSULLIVAN@MTNSHADOWS.ORG",
    "categoryName": "INTERMEDIATE CARE FACILITY-DD/H/N/CN/IID",
    "categoryCode": "ICFDDN",
    "licenseStatus": "ACTIVE",
    "inService": true,
    "licenseNumber": "090000263",
    "licenseEffectiveDate": "12/09/2024",
    "licenseExpirationDate": "12/08/2025",
    "dataDate": "10/18/2025",
    "capacity": 6,
    "address": "2067 W EL NORTE PKWY",
    "city": "ESCONDIDO",
    "zip": "92026",
    "county": "SAN DIEGO",
    "phone": "(760) 743-3714",
    "lat": 33.149412,
    "lng": -117.117927
  },
  {
    "id": "090000136",
    "name": "MOUNTAIN SHADOWS COMMUNITY HOMES - PINE",
    "npi": "1831214071",
    "hcaiId": null,
    "businessName": "MOUNTAIN SHADOWS SUPPORT GROUP",
    "contactEmail": "DENCISO9@GMAIL.COM",
    "categoryName": "INTERMEDIATE CARE FACILITY-DD/H/N/CN/IID",
    "categoryCode": "ICFDDH",
    "licenseStatus": "ACTIVE",
    "inService": true,
    "licenseNumber": "090000254",
    "licenseEffectiveDate": "12/09/2024",
    "licenseExpirationDate": "12/08/2025",
    "dataDate": "10/18/2025",
    "capacity": 6,
    "address": "2067 W EL NORTE PKWY",
    "city": "ESCONDIDO",
    "zip": "92026",
    "county": "SAN DIEGO",
    "phone": "(760) 743-3714",
    "lat": 33.149412,
    "lng": -117.117927
  },
  {
    "id": "090000313",
    "name": "MOUNTAIN SHADOWS COMMUNITY HOMES - PLUM",
    "npi": "1861517021",
    "hcaiId": null,
    "businessName": "MOUNTAIN SHADOWS SUPPORT GROUP",
    "contactEmail": "SSULLIVAN@MTNSHADOWS.ORG",
    "categoryName": "INTERMEDIATE CARE FACILITY-DD/H/N/CN/IID",
    "categoryCode": "ICFDDH",
    "licenseStatus": "ACTIVE",
    "inService": true,
    "licenseNumber": "090000272",
    "licenseEffectiveDate": "12/09/2024",
    "licenseExpirationDate": "12/08/2025",
    "dataDate": "10/18/2025",
    "capacity": 6,
    "address": "2067 W EL NORTE PKWY",
    "city": "ESCONDIDO",
    "zip": "92026",
    "county": "SAN DIEGO",
    "phone": "(760) 743-3714",
    "lat": 33.149412,
    "lng": -117.117927
  },
  {
    "id": "090000311",
    "name": "MOUNTAIN SHADOWS COMMUNITY HOMES - SPRUCE",
    "npi": "1750406914",
    "hcaiId": null,
    "businessName": "MOUNTAIN SHADOWS SUPPORT GROUP",
    "contactEmail": "JRICH@MTNSHADOWS.ORG",
    "categoryName": "INTERMEDIATE CARE FACILITY-DD/H/N/CN/IID",
    "categoryCode": "ICFDDH",
    "licenseStatus": "ACTIVE",
    "inService": true,
    "licenseNumber": "090000269",
    "licenseEffectiveDate": "12/09/2024",
    "licenseExpirationDate": "12/08/2025",
    "dataDate": "10/18/2025",
    "capacity": 6,
    "address": "2067 W EL NORTE PKWY",
    "city": "ESCONDIDO",
    "zip": "92026",
    "county": "SAN DIEGO",
    "phone": "(760) 743-3714",
    "lat": 33.149412,
    "lng": -117.117927
  },
  {
    "id": "090000315",
    "name": "MOUNTAIN SHADOWS COMMUNITY HOMES - TANGELO",
    "npi": "1972628121",
    "hcaiId": null,
    "businessName": "MOUNTAIN SHADOWS SUPPORT GROUP",
    "contactEmail": "SSULLIVAN@MTNSHADOWS.ORG",
    "categoryName": "INTERMEDIATE CARE FACILITY-DD/H/N/CN/IID",
    "categoryCode": "ICFDDH",
    "licenseStatus": "ACTIVE",
    "inService": true,
    "licenseNumber": "090000270",
    "licenseEffectiveDate": "12/09/2024",
    "licenseExpirationDate": "12/08/2025",
    "dataDate": "10/18/2025",
    "capacity": 6,
    "address": "2067 W EL NORTE PKWY",
    "city": "ESCONDIDO",
    "zip": "92026",
    "county": "SAN DIEGO",
    "phone": "(760) 743-3714",
    "lat": 33.149412,
    "lng": -117.117927
  },
  {
    "id": "630027433",
    "name": "NORTH BROADWAY ELEMENTARY SCHOOL",
    "npi": null,
    "hcaiId": null,
    "businessName": "NEIGHBORHOOD HEALTHCARE",
    "contactEmail": "MELVIN.LOFTON@NHCARE.ORG",
    "categoryName": "PRIMARY CARE CLINIC",
    "categoryCode": "COMTYC",
    "licenseStatus": "ACTIVE",
    "inService": true,
    "licenseNumber": "080000657",
    "licenseEffectiveDate": "01/29/2025",
    "licenseExpirationDate": "01/28/2026",
    "dataDate": "10/18/2025",
    "capacity": 0,
    "address": "2301 N BROADWAY, ROOM 23",
    "city": "ESCONDIDO",
    "zip": "92026",
    "county": "SAN DIEGO",
    "phone": "(442) 286-8364",
    "lat": 33.16105501,
    "lng": -117.0929378
  },
  {
    "id": "630017417",
    "name": "NORTH COUNTY VILLA, INC.",
    "npi": null,
    "hcaiId": "206370246",
    "businessName": "NORTH COUNTY VILLA, INC.",
    "contactEmail": "NORTHCOUNTYVILLA@YAHOO.COM",
    "categoryName": "CONGREGATE LIVING HEALTH FACILITY",
    "categoryCode": "CLHF",
    "licenseStatus": "ACTIVE",
    "inService": true,
    "licenseNumber": "550005604",
    "licenseEffectiveDate": "07/21/2023",
    "licenseExpirationDate": "07/20/2024",
    "dataDate": "10/18/2025",
    "capacity": 6,
    "address": "1519 ANTHONY HEIGHTS DR",
    "city": "ESCONDIDO",
    "zip": "92026",
    "county": "SAN DIEGO",
    "phone": "(760) 317-5220",
    "lat": 33.141978,
    "lng": -117.1101645
  },
  {
    "id": "080000857",
    "name": "PREMIERE SURGERY CENTER, INC.",
    "npi": "1043268840",
    "hcaiId": "306374077",
    "businessName": "R.K. MASSENGILL, MD & ESTHER S. MASSENGILL",
    "contactEmail": null,
    "categoryName": "SURGICAL CLINIC",
    "categoryCode": "ASC",
    "licenseStatus": "INACTIVE - CAPEN DECISION",
    "inService": false,
    "licenseNumber": "080000372",
    "licenseEffectiveDate": "06/10/2007",
    "licenseExpirationDate": "06/09/2008",
    "dataDate": "10/18/2025",
    "capacity": 0,
    "address": "700 W EL NORTE PKWY",
    "city": "ESCONDIDO",
    "zip": "92026",
    "county": "SAN DIEGO",
    "phone": "(760) 738-7830",
    "lat": 33.146406,
    "lng": -117.102159
  },
  {
    "id": "630027556",
    "name": "REIDY CREEK ELEMENTARY SCHOOL",
    "npi": null,
    "hcaiId": null,
    "businessName": "NEIGHBORHOOD HEALTHCARE",
    "contactEmail": null,
    "categoryName": "PRIMARY CARE CLINIC",
    "categoryCode": "COMTYC",
    "licenseStatus": "ACTIVE",
    "inService": true,
    "licenseNumber": "080000657",
    "licenseEffectiveDate": "01/29/2025",
    "licenseExpirationDate": "01/28/2026",
    "dataDate": "10/18/2025",
    "capacity": 0,
    "address": "2869 N BROADWAY, ROOM FML",
    "city": "ESCONDIDO",
    "zip": "92026",
    "county": "SAN DIEGO",
    "phone": null,
    "lat": 33.172845,
    "lng": -117.091028
  },
  {
    "id": "630027437",
    "name": "RINCON ELEMENTARY SCHOOL",
    "npi": null,
    "hcaiId": null,
    "businessName": "NEIGHBORHOOD HEALTHCARE",
    "contactEmail": "MELVIN.LOFTON@NHCARE.ORG",
    "categoryName": "PRIMARY CARE CLINIC",
    "categoryCode": "COMTYC",
    "licenseStatus": "ACTIVE",
    "inService": true,
    "licenseNumber": "080000657",
    "licenseEffectiveDate": "01/29/2025",
    "licenseExpirationDate": "01/28/2026",
    "dataDate": "10/18/2025",
    "capacity": 0,
    "address": "925 LEHNER AVE, ROOM A2 & A3",
    "city": "ESCONDIDO",
    "zip": "92026",
    "county": "SAN DIEGO",
    "phone": "(442) 286-8364",
    "lat": 33.15760134,
    "lng": -117.0828652
  }
]