[
  {
    "id": "080000189",
    "name": "FALLBROOK FAMILY HEALTH CENTER",
    "npi": "1982756086",
    "hcaiId": "306374446",
    "businessName": "COMMUNITY HEALTH SYSTEMS, INC.",
    "contactEmail": "V.ORTIZ@CHSICA.ORG",
    "categoryName": "PRIMARY CARE CLINIC",
    "categoryCode": "COMTYC",
    "licenseStatus": "ACTIVE",
    "inService": true,
    "licenseNumber": "550001876",
    "licenseEffectiveDate": "04/02/2025",
    "licenseExpirationDate": "04/01/2026",
    "dataDate": "10/18/2025",
    "capacity": 0,
    "address": "1328 S MISSION RD",
    "city": "FALLBROOK",
    "zip": "92028",
    "county": "SAN DIEGO",
    "phone": "(760) 451-4720",
    "lat": 33.368913,
    "lng": -117.249867
  },
  {
    "id": "080000053",
    "name": "FALLBROOK SKILLED NURSING",
    "npi": "1265823264",
    "hcaiId": "206370704",
    "businessName": "FALLBROOK HEALTHCARE CENTER OPERATING COMPANY, LLC",
    "contactEmail": "B.DURBINFB@PROGRESSIVECARECENTERS.COM",
    "categoryName": "SKILLED NURSING FACILITY",
    "categoryCode": "SNF",
    "licenseStatus": "ACTIVE",
    "inService": true,
    "licenseNumber": "550003129",
    "licenseEffectiveDate": "07/20/2025",
    "licenseExpirationDate": "07/19/2026",
    "dataDate": "10/18/2025",
    "capacity": 93,
    "address": "325 POTTER ST",
    "city": "FALLBROOK",
    "zip": "92028",
    "county": "SAN DIEGO",
    "phone": "(760) 728-2330",
    "lat": 33.379425,
    "lng": -117.2435985
  },
  {
    "id": "630019050",
    "name": "HOPE CLINIC FOR WOMEN",
    "npi": null,
    "hcaiId": "306370576",
    "businessName": "HOPE CLINIC FOR WOMEN",
    "contactEmail": "NURSE@HOPEFALLBROOK.COM",
    "categoryName": "PRIMARY CARE CLINIC",
    "categoryCode": "FREEC",
    "licenseStatus": "ACTIVE",
    "inService": true,
    "licenseNumber": "550005671",
    "licenseEffectiveDate": "07/31/2025",
    "licenseExpirationDate": "07/30/2026",
    "dataDate": "10/18/2025",
    "capacity": 0,
    "address": "125 E HAWTHORNE ST",
    "city": "FALLBROOK",
    "zip": "92028",
    "county": "SAN DIEGO",
    "phone": "(760) 728-4105",
    "lat": 33.382674,
    "lng": -117.250569
  },
  {
    "id": "630018337",
    "name": "NEIGHBORHOOD HEALTHCARE-FALLBROOK",
    "npi": null,
    "hcaiId": null,
    "businessName": "NEIGHBORHOOD HEALTHCARE",
    "contactEmail": null,
    "categoryName": "PRIMARY CARE CLINIC",
    "categoryCode": "COMTYC",
    "licenseStatus": "ACTIVE",
    "inService": true,
    "licenseNumber": "080000397",
    "licenseEffectiveDate": "12/09/2024",
    "licenseExpirationDate": "12/08/2025",
    "dataDate": "10/18/2025",
    "capacity": 0,
    "address": "1309 S MISSION RD, SUITE B",
    "city": "FALLBROOK",
    "zip": "92028",
    "county": "SAN DIEGO",
    "phone": null,
    "lat": 33.369129,
    "lng": -117.2519685
  },
  {
    "id": "630027339",
    "name": "POTTER JHS SCHOOL-BASED HEALTH CENTER",
    "npi": null,
    "hcaiId": null,
    "businessName": "COMMUNITY HEALTH SYSTEMS, INC.",
    "contactEmail": null,
    "categoryName": "PRIMARY CARE CLINIC",
    "categoryCode": "COMTYC",
    "licenseStatus": "ACTIVE",
    "inService": true,
    "licenseNumber": "550001876",
    "licenseEffectiveDate": "04/02/2025",
    "licenseExpirationDate": "04/01/2026",
    "dataDate": "10/18/2025",
    "capacity": 0,
    "address": "1743 RECHE RD, ROOM 90",
    "city": "FALLBROOK",
    "zip": "92028",
    "county": "SAN DIEGO",
    "phone": null,
    "lat": 33.367723,
    "lng": -117.221876
  },
  {
    "id": "630027006",
    "name": "VCC: FALLBROOK PEDIATRICS & FAMILY MEDICINE",
    "npi": "1497203541",
    "hcaiId": null,
    "businessName": "VISTA COMMUNITY CLINIC",
    "contactEmail": "FERNANDO@VCC.ORG",
    "categoryName": "PRIMARY CARE CLINIC",
    "categoryCode": "COMTYC",
    "licenseStatus": "ACTIVE",
    "inService": true,
    "licenseNumber": "550003781",
    "licenseEffectiveDate": "02/06/2025",
    "licenseExpirationDate": "02/05/2026",
    "dataDate": "10/18/2025",
    "capacity": 0,
    "address": "321 E ALVARADO ST",
    "city": "FALLBROOK",
    "zip": "92028",
    "county": "SAN DIEGO",
    "phone": "(760) 631-5000",
    "lat": 33.381792,
    "lng": -117.249345
  },
  {
    "id": "090000219",
    "name": "VIA RIO HOUSE",
    "npi": "1962488007",
    "hcaiId": null,
    "businessName": "T.E.R.I., INC.",
    "contactEmail": "PAYABLES@TERIINC.ORG",
    "categoryName": "INTERMEDIATE CARE FACILITY-DD/H/N/CN/IID",
    "categoryCode": "ICFDDH",
    "licenseStatus": "ACTIVE",
    "inService": true,
    "licenseNumber": "090000211",
    "licenseEffectiveDate": "12/07/2024",
    "licenseExpirationDate": "12/06/2025",
    "dataDate": "10/18/2025",
    "capacity": 6,
    "address": "1262 VIA ENCINOS DR",
    "city": "FALLBROOK",
    "zip": "92028",
    "county": "SAN DIEGO",
    "phone": "(760) 458-0694",
    "lat": 33.327729,
    "lng": -117.231336
  }
]