[
  {
    "id": "630027545",
    "name": "BERNARDO ELEMENTARY SCHOOL",
    "npi": null,
    "hcaiId": null,
    "businessName": "NEIGHBORHOOD HEALTHCARE",
    "contactEmail": null,
    "categoryName": "PRIMARY CARE CLINIC",
    "categoryCode": "COMTYC",
    "licenseStatus": "ACTIVE",
    "inService": true,
    "licenseNumber": "080000657",
    "licenseEffectiveDate": "01/29/2025",
    "licenseExpirationDate": "01/28/2026",
    "dataDate": "10/18/2025",
    "capacity": 0,
    "address": "1122 MOUNTAIN HEIGHTS DR, ROOM FOCR",
    "city": "ESCONDIDO",
    "zip": "92029",
    "county": "SAN DIEGO",
    "phone": null,
    "lat": 33.08481888,
    "lng": -117.091321
  },
  {
    "id": "630017852",
    "name": "HIDDEN VALLEY DIALYSIS",
    "npi": null,
    "hcaiId": "306370519",
    "businessName": "JENNESS DIALYSIS LLC",
    "contactEmail": "CAL_C@DAVITA.COM",
    "categoryName": "CHRONIC DIALYSIS CLINIC",
    "categoryCode": "ESRD/CDC",
    "licenseStatus": "ACTIVE",
    "inService": true,
    "licenseNumber": "550005374",
    "licenseEffectiveDate": "03/25/2025",
    "licenseExpirationDate": "03/24/2026",
    "dataDate": "10/18/2025",
    "capacity": 37,
    "address": "1951 CITRACADO PKWY",
    "city": "ESCONDIDO",
    "zip": "92029",
    "county": "SAN DIEGO",
    "phone": "(760) 746-0464",
    "lat": 33.11244,
    "lng": -117.120978
  },
  {
    "id": "630017023",
    "name": "HOSPICE CARE OF THE COAST",
    "npi": "1346690153",
    "hcaiId": "406374573",
    "businessName": "HOSPICE CARE OF THE COAST INC",
    "contactEmail": "HOSPICECAREOFTHECOAST@GMAIL.COM",
    "categoryName": "HOSPICE",
    "categoryCode": "HOSPICE",
    "licenseStatus": "ACTIVE",
    "inService": true,
    "licenseNumber": "550003955",
    "licenseEffectiveDate": "09/07/2025",
    "licenseExpirationDate": "09/06/2027",
    "dataDate": "10/18/2025",
    "capacity": 0,
    "address": "1340 W VALLEY PKWY, SUITE 103",
    "city": "ESCONDIDO",
    "zip": "92029",
    "county": "SAN DIEGO",
    "phone": "(760) 294-3422",
    "lat": 33.11349401,
    "lng": -117.102199
  },
  {
    "id": "630013873",
    "name": "PALOMAR MEDICAL CENTER",
    "npi": null,
    "hcaiId": "106374382",
    "businessName": "PALOMAR HEALTH",
    "contactEmail": "JAMI.PIEARSON@PALOMARHEALTH.ORG",
    "categoryName": "GENERAL ACUTE CARE HOSPITAL",
    "categoryCode": "GACH",
    "licenseStatus": "ACTIVE",
    "inService": true,
    "licenseNumber": "080000083",
    "licenseEffectiveDate": "01/29/2025",
    "licenseExpirationDate": "11/20/2025",
    "dataDate": "10/18/2025",
    "capacity": 316,
    "address": "2185 CITRACADO PKWY",
    "city": "ESCONDIDO",
    "zip": "92029",
    "county": "SAN DIEGO",
    "phone": "(442) 291-9145",
    "lat": 33.122178,
    "lng": -117.120618
  },
  {
    "id": "630021871",
    "name": "PALOMAR REHABILITATION INSTITUTE",
    "npi": null,
    "hcaiId": "106374572",
    "businessName": "PALOMAR HEALTH REHABILITATION INSTITUTE, LLC",
    "contactEmail": "JENNIFER.WHITNEY@PALOMARHEALTHREHABINSTITUTE.COM",
    "categoryName": "GENERAL ACUTE CARE HOSPITAL",
    "categoryCode": "GACH",
    "licenseStatus": "ACTIVE",
    "inService": true,
    "licenseNumber": "550006213",
    "licenseEffectiveDate": "04/29/2025",
    "licenseExpirationDate": "04/28/2026",
    "dataDate": "10/18/2025",
    "capacity": 52,
    "address": "2181 CITRACADO PKWY",
    "city": "ESCONDIDO",
    "zip": "92029",
    "county": "SAN DIEGO",
    "phone": "(442) 277-6201",
    "lat": 33.1207883,
    "lng": -117.1224028
  },
  {
    "id": "080001128",
    "name": "PALOMAR SURGICAL CENTER ESCONDIDO",
    "npi": "1336107580",
    "hcaiId": "306374147",
    "businessName": null,
    "contactEmail": "JOSEPH.COLBERT@SCASURGERY.COM",
    "categoryName": "SURGICAL CLINIC",
    "categoryCode": "ASC",
    "licenseStatus": "INACTIVE - CAPEN DECISION",
    "inService": false,
    "licenseNumber": "080000465",
    "licenseEffectiveDate": "06/11/2008",
    "licenseExpirationDate": "06/10/2009",
    "dataDate": "10/18/2025",
    "capacity": 0,
    "address": "2130 CITRACADO PARKWAY, SUITE 100",
    "city": "ESCONDIDO",
    "zip": "92029",
    "county": "SAN DIEGO",
    "phone": "(858) 485-1111",
    "lat": 33.11982641,
    "lng": -117.1194545
  }
]