[
  {
    "id": "630028163",
    "name": "CAPS LA JOLLA AREA CLINIC",
    "npi": null,
    "hcaiId": null,
    "businessName": "COLLEGE AREA PREGNANCY SERVICES, INC.",
    "contactEmail": null,
    "categoryName": "PRIMARY CARE CLINIC",
    "categoryCode": "FREEC",
    "licenseStatus": "ACTIVE",
    "inService": true,
    "licenseNumber": "090000659",
    "licenseEffectiveDate": "11/29/2024",
    "licenseExpirationDate": "11/28/2025",
    "dataDate": "10/18/2025",
    "capacity": 0,
    "address": "8950 VILLA LA JOLLA DR, SUITE C-134",
    "city": "LA JOLLA",
    "zip": "92037",
    "county": "SAN DIEGO",
    "phone": null,
    "lat": 32.86481853,
    "lng": -117.2312631
  },
  {
    "id": "080001069",
    "name": "LA JOLLA ENDOSCOPY CENTER",
    "npi": "1407829773",
    "hcaiId": "306374137",
    "businessName": "THE LA JOLLA ENDOSCOPY CENTER, L.P.",
    "contactEmail": null,
    "categoryName": "SURGICAL CLINIC",
    "categoryCode": "ASC",
    "licenseStatus": "INACTIVE - CAPEN DECISION",
    "inService": false,
    "licenseNumber": "080000443",
    "licenseEffectiveDate": "11/12/2007",
    "licenseExpirationDate": "11/11/2008",
    "dataDate": "10/18/2025",
    "capacity": 0,
    "address": "9850 GENESEE AVE, SUITE 980",
    "city": "LA JOLLA",
    "zip": "92037",
    "county": "SAN DIEGO",
    "phone": "(858) 453-7525",
    "lat": 32.885163,
    "lng": -117.225549
  },
  {
    "id": "080001002",
    "name": "LA JOLLA NURSES HOMECARE",
    "npi": null,
    "hcaiId": "406374107",
    "businessName": "LA JOLLA HEALTH CARE GROUP, INC.",
    "contactEmail": "BRITT@LAJOLLANURSESHOMECARE.COM",
    "categoryName": "HOME HEALTH AGENCY",
    "categoryCode": "HHA",
    "licenseStatus": "ACTIVE",
    "inService": true,
    "licenseNumber": "080000412",
    "licenseEffectiveDate": "11/26/2024",
    "licenseExpirationDate": "11/25/2025",
    "dataDate": "10/18/2025",
    "capacity": 0,
    "address": "2223 AVE DE LA PLAYA, SUITE 120",
    "city": "LA JOLLA",
    "zip": "92037",
    "county": "SAN DIEGO",
    "phone": "(858) 454-9339",
    "lat": 32.853393,
    "lng": -117.2552445
  },
  {
    "id": "080000087",
    "name": "LA JOLLA POST-ACUTE",
    "npi": "1457486078",
    "hcaiId": "206370779",
    "businessName": "MISSION BEACH HOLDINGS, LLC",
    "contactEmail": "ENRIQUE.GONZALEZ@LINKSHEALTH.COM",
    "categoryName": "SKILLED NURSING FACILITY",
    "categoryCode": "SNF",
    "licenseStatus": "ACTIVE",
    "inService": true,
    "licenseNumber": "080000098",
    "licenseEffectiveDate": "08/01/2025",
    "licenseExpirationDate": "10/31/2025",
    "dataDate": "10/18/2025",
    "capacity": 161,
    "address": "2552 TORREY PINES RD",
    "city": "LA JOLLA",
    "zip": "92037",
    "county": "SAN DIEGO",
    "phone": "(858) 453-5810",
    "lat": 32.851701,
    "lng": -117.2481975
  },
  {
    "id": "080001556",
    "name": "OUTPATIENT SURGERY CENTER OF LA JOLLA",
    "npi": "1225648470",
    "hcaiId": "306374288",
    "businessName": "LA JOLLA ORTHOPEDIC SURGERY CENTER",
    "contactEmail": null,
    "categoryName": "SURGICAL CLINIC",
    "categoryCode": "ASC",
    "licenseStatus": "INACTIVE - CAPEN DECISION",
    "inService": false,
    "licenseNumber": "080000653",
    "licenseEffectiveDate": "02/14/2008",
    "licenseExpirationDate": "02/13/2009",
    "dataDate": "10/18/2025",
    "capacity": 0,
    "address": "4120 LA JOLLA VILLAGE DR",
    "city": "LA JOLLA",
    "zip": "92037",
    "county": "SAN DIEGO",
    "phone": "(858) 657-0055",
    "lat": 32.872293,
    "lng": -117.2175435
  },
  {
    "id": "080001519",
    "name": "REDWOOD REHABILITATION AGENCY-EXT SITE",
    "npi": null,
    "hcaiId": null,
    "businessName": null,
    "contactEmail": null,
    "categoryName": "OTHER",
    "categoryCode": "UNLICEN",
    "licenseStatus": null,
    "inService": null,
    "licenseNumber": null,
    "licenseEffectiveDate": null,
    "licenseExpirationDate": null,
    "dataDate": "10/18/2025",
    "capacity": 0,
    "address": "7450 OLIVETAS AVE",
    "city": "LA JOLLA",
    "zip": "92037",
    "county": "SAN DIEGO",
    "phone": "(858) 454-4201",
    "lat": 32.838147,
    "lng": -117.280908
  },
  {
    "id": "630012966",
    "name": "SAN DIEGO SKIN INC",
    "npi": "1972831998",
    "hcaiId": null,
    "businessName": null,
    "contactEmail": null,
    "categoryName": "SURGICAL CLINIC",
    "categoryCode": "ASC",
    "licenseStatus": null,
    "inService": null,
    "licenseNumber": null,
    "licenseEffectiveDate": null,
    "licenseExpirationDate": null,
    "dataDate": "10/18/2025",
    "capacity": 0,
    "address": "4150 REGENTS PARK ROW, SUITE 300",
    "city": "LA JOLLA",
    "zip": "92037",
    "county": "SAN DIEGO",
    "phone": "(858) 909-9000",
    "lat": 32.873211,
    "lng": -117.217611
  },
  {
    "id": "630017919",
    "name": "SCRIPPS CLINIC LA JOLLA ASC",
    "npi": "1972054534",
    "hcaiId": null,
    "businessName": null,
    "contactEmail": "SMITH.JENNIFER2@SCRIPPSHEALTH.ORG",
    "categoryName": "SURGICAL CLINIC",
    "categoryCode": "ASC",
    "licenseStatus": null,
    "inService": null,
    "licenseNumber": null,
    "licenseEffectiveDate": null,
    "licenseExpirationDate": null,
    "dataDate": "10/18/2025",
    "capacity": 0,
    "address": "9898 GENESEE AVE",
    "city": "LA JOLLA",
    "zip": "92037",
    "county": "SAN DIEGO",
    "phone": "(414) 975-3807",
    "lat": 32.883921,
    "lng": -117.224361
  },
  {
    "id": "080000022",
    "name": "SCRIPPS GREEN HOSPITAL",
    "npi": "1841233780",
    "hcaiId": "106371256",
    "businessName": "SCRIPPS HEALTH",
    "contactEmail": "MILLER.STEVE@SCRIPPSHEALTH.ORG",
    "categoryName": "GENERAL ACUTE CARE HOSPITAL",
    "categoryCode": "GACH",
    "licenseStatus": "ACTIVE",
    "inService": true,
    "licenseNumber": "080000139",
    "licenseEffectiveDate": "11/01/2025",
    "licenseExpirationDate": "10/31/2026",
    "dataDate": "10/18/2025",
    "capacity": 173,
    "address": "10666 N TORREY PINES RD",
    "city": "LA JOLLA",
    "zip": "92037",
    "county": "SAN DIEGO",
    "phone": "(858) 554-3174",
    "lat": 32.896494,
    "lng": -117.242631
  },
  {
    "id": "080000149",
    "name": "SCRIPPS MEMORIAL HOSPITAL - LA JOLLA",
    "npi": "1841277704",
    "hcaiId": "106370771",
    "businessName": "SCRIPPS HEALTH",
    "contactEmail": "WINKLER.TAMARA@SCRIPPSHEALTH.ORG",
    "categoryName": "GENERAL ACUTE CARE HOSPITAL",
    "categoryCode": "GACH",
    "licenseStatus": "ACTIVE",
    "inService": true,
    "licenseNumber": "080000050",
    "licenseEffectiveDate": "05/28/2025",
    "licenseExpirationDate": "03/30/2026",
    "dataDate": "10/18/2025",
    "capacity": 577,
    "address": "9888 GENESEE AVE",
    "city": "LA JOLLA",
    "zip": "92037",
    "county": "SAN DIEGO",
    "phone": "(858) 626-7600",
    "lat": 32.885154,
    "lng": -117.22509
  },
  {
    "id": "080000037",
    "name": "THE COVE AT LA JOLLA",
    "npi": null,
    "hcaiId": "206370677",
    "businessName": "NAUTILUS HEALTHCARE, INC.",
    "contactEmail": "RENEWALS@ENSIGNSERVICES.NET",
    "categoryName": "SKILLED NURSING FACILITY",
    "categoryCode": "SNF",
    "licenseStatus": "ACTIVE",
    "inService": true,
    "licenseNumber": "080000031",
    "licenseEffectiveDate": "10/14/2025",
    "licenseExpirationDate": "10/13/2026",
    "dataDate": "10/18/2025",
    "capacity": 59,
    "address": "7160 FAY AVENUE",
    "city": "LA JOLLA",
    "zip": "92037",
    "county": "SAN DIEGO",
    "phone": "(858) 459-4361",
    "lat": 32.835978,
    "lng": -117.272556
  },
  {
    "id": "090001116",
    "name": "UC SAN DIEGO HEALTH LA JOLLA - JACOBS MEDICAL CENTER & SULPIZIO CARDIOVASCULAR CENTER",
    "npi": null,
    "hcaiId": "106374141",
    "businessName": "THE REGENTS OF THE UNIVERSITY OF CALIFORNIA (UCSD)",
    "contactEmail": null,
    "categoryName": "GENERAL ACUTE CARE HOSPITAL",
    "categoryCode": "GACH",
    "licenseStatus": "ACTIVE",
    "inService": true,
    "licenseNumber": "090000101",
    "licenseEffectiveDate": "11/01/2025",
    "licenseExpirationDate": "10/31/2026",
    "dataDate": "10/18/2025",
    "capacity": 418,
    "address": "9300 CAMPUS POINT DR",
    "city": "LA JOLLA",
    "zip": "92037",
    "county": "SAN DIEGO",
    "phone": "(858) 657-7000",
    "lat": 32.875344,
    "lng": -117.223155
  },
  {
    "id": "080000100",
    "name": "WHITE SANDS OF LA JOLLA",
    "npi": null,
    "hcaiId": "206370792",
    "businessName": "HUMANGOOD SOCAL",
    "contactEmail": "MARIAVENUS.ISIDERIOJO@HUMANGOOD.ORG",
    "categoryName": "SKILLED NURSING FACILITY",
    "categoryCode": "SNF",
    "licenseStatus": "ACTIVE",
    "inService": true,
    "licenseNumber": "080000109",
    "licenseEffectiveDate": "12/01/2024",
    "licenseExpirationDate": "11/30/2025",
    "dataDate": "10/18/2025",
    "capacity": 38,
    "address": "7450 OLIVETAS AVE",
    "city": "LA JOLLA",
    "zip": "92037",
    "county": "SAN DIEGO",
    "phone": "(858) 454-4201",
    "lat": 32.838147,
    "lng": -117.280908
  }
]