[
  {
    "id": "090000727",
    "name": "ANJA HOUSE",
    "npi": "1114988847",
    "hcaiId": null,
    "businessName": "HOME OF GUIDING HANDS CORPORATION",
    "contactEmail": "LAURIE@GUIDINGHANDS.ORG",
    "categoryName": "INTERMEDIATE CARE FACILITY-DD/H/N/CN/IID",
    "categoryCode": "ICFDDH",
    "licenseStatus": "ACTIVE",
    "inService": true,
    "licenseNumber": "090000330",
    "licenseEffectiveDate": "11/21/2025",
    "licenseExpirationDate": "11/20/2026",
    "dataDate": "10/18/2025",
    "capacity": 6,
    "address": "10045 ANJA PL",
    "city": "LAKESIDE",
    "zip": "92040",
    "county": "SAN DIEGO",
    "phone": "(619) 938-2850",
    "lat": 32.860179,
    "lng": -116.96031
  },
  {
    "id": "090000971",
    "name": "AQUILLA",
    "npi": "1962463745",
    "hcaiId": null,
    "businessName": "HOME OF GUIDING HANDS CORPORATION",
    "contactEmail": "LAURIE@GUIDINGHANDS.ORG",
    "categoryName": "INTERMEDIATE CARE FACILITY-DD/H/N/CN/IID",
    "categoryCode": "ICFDDH",
    "licenseStatus": "ACTIVE",
    "inService": true,
    "licenseNumber": "090000403",
    "licenseEffectiveDate": "03/05/2025",
    "licenseExpirationDate": "03/04/2026",
    "dataDate": "10/18/2025",
    "capacity": 6,
    "address": "10200 AQUILLA DR",
    "city": "LAKESIDE",
    "zip": "92040",
    "county": "SAN DIEGO",
    "phone": "(619) 938-2850",
    "lat": 32.862069,
    "lng": -116.961156
  },
  {
    "id": "090000085",
    "name": "CREEKFORD HOUSE",
    "npi": "1730361569",
    "hcaiId": null,
    "businessName": "THE ARC OF SAN DIEGO",
    "contactEmail": "KCLARK@ARC-SD.COM",
    "categoryName": "INTERMEDIATE CARE FACILITY-DD/H/N/CN/IID",
    "categoryCode": "ICFDDH",
    "licenseStatus": "ACTIVE",
    "inService": true,
    "licenseNumber": "090000242",
    "licenseEffectiveDate": "11/22/2024",
    "licenseExpirationDate": "11/21/2025",
    "dataDate": "10/18/2025",
    "capacity": 6,
    "address": "9075 CREEKFORD DR",
    "city": "LAKESIDE",
    "zip": "92040",
    "county": "SAN DIEGO",
    "phone": "(585) 410-5513",
    "lat": 32.841801,
    "lng": -116.9351145
  },
  {
    "id": "090000101",
    "name": "HOME OF GUIDING HANDS LOS RANCHITOS WAY",
    "npi": "1831124890",
    "hcaiId": null,
    "businessName": "HOME OF GUIDING HANDS CORPORATION",
    "contactEmail": "LAURIE@GUIDINGHANDS.ORG",
    "categoryName": "INTERMEDIATE CARE FACILITY-DD/H/N/CN/IID",
    "categoryCode": "ICFDDH",
    "licenseStatus": "ACTIVE",
    "inService": true,
    "licenseNumber": "090000255",
    "licenseEffectiveDate": "05/23/2025",
    "licenseExpirationDate": "05/22/2026",
    "dataDate": "10/18/2025",
    "capacity": 6,
    "address": "10111 LOS RANCHITOS RD",
    "city": "LAKESIDE",
    "zip": "92040",
    "county": "SAN DIEGO",
    "phone": "(619) 938-2850",
    "lat": 32.860674,
    "lng": -116.959104
  },
  {
    "id": "080000059",
    "name": "LAKESIDE SPECIAL CARE CENTER",
    "npi": "1790789170",
    "hcaiId": "206370794",
    "businessName": "GHC OF LAKESIDE, LLC",
    "contactEmail": "JAMIEBOEHS@LIFEGEN.NET",
    "categoryName": "SKILLED NURSING FACILITY",
    "categoryCode": "SNF",
    "licenseStatus": "ACTIVE",
    "inService": true,
    "licenseNumber": "080000111",
    "licenseEffectiveDate": "06/14/2025",
    "licenseExpirationDate": "06/13/2026",
    "dataDate": "10/18/2025",
    "capacity": 152,
    "address": "11962 WOODSIDE AVE",
    "city": "LAKESIDE",
    "zip": "92040",
    "county": "SAN DIEGO",
    "phone": "(619) 561-1222",
    "lat": 32.856264,
    "lng": -116.9351775
  },
  {
    "id": "630026567",
    "name": "NEIGHBORHOOD HEALTHCARE - LAKESIDE DENTAL",
    "npi": "1932384120",
    "hcaiId": null,
    "businessName": "NEIGHBORHOOD HEALTHCARE",
    "contactEmail": null,
    "categoryName": "PRIMARY CARE CLINIC",
    "categoryCode": "COMTYC",
    "licenseStatus": "ACTIVE",
    "inService": true,
    "licenseNumber": "080000483",
    "licenseEffectiveDate": "11/01/2025",
    "licenseExpirationDate": "10/31/2026",
    "dataDate": "10/18/2025",
    "capacity": 0,
    "address": "10039B VINE ST",
    "city": "LAKESIDE",
    "zip": "92040",
    "county": "SAN DIEGO",
    "phone": null,
    "lat": 32.86114588,
    "lng": -116.9211447
  },
  {
    "id": "080001187",
    "name": "NEIGHBORHOOD HEALTHCARE - LAKESIDE MEDICAL",
    "npi": "1932384120",
    "hcaiId": "306374164",
    "businessName": "NEIGHBORHOOD HEALTHCARE",
    "contactEmail": "ELIZABETH.GARCIA@NHCARE.ORG",
    "categoryName": "PRIMARY CARE CLINIC",
    "categoryCode": "COMTYC",
    "licenseStatus": "ACTIVE",
    "inService": true,
    "licenseNumber": "080000483",
    "licenseEffectiveDate": "11/01/2025",
    "licenseExpirationDate": "10/31/2026",
    "dataDate": "10/18/2025",
    "capacity": 0,
    "address": "10039A VINE ST",
    "city": "LAKESIDE",
    "zip": "92040",
    "county": "SAN DIEGO",
    "phone": "(442) 286-8543",
    "lat": 32.86114544,
    "lng": -116.9211332
  },
  {
    "id": "090001261",
    "name": "PROMISING FUTURES, INC. - HILLSIDE",
    "npi": "1114124849",
    "hcaiId": null,
    "businessName": "PROMISING FUTURES, INC.",
    "contactEmail": "GPARRA@PROMISING-FUTURES.ORG",
    "categoryName": "INTERMEDIATE CARE FACILITY-DD/H/N/CN/IID",
    "categoryCode": "ICFDDH",
    "licenseStatus": "ACTIVE",
    "inService": true,
    "licenseNumber": "090000514",
    "licenseEffectiveDate": "11/10/2025",
    "licenseExpirationDate": "11/09/2026",
    "dataDate": "10/18/2025",
    "capacity": 5,
    "address": "12960 HA HANA RD",
    "city": "LAKESIDE",
    "zip": "92040",
    "county": "SAN DIEGO",
    "phone": "(619) 592-4850",
    "lat": 32.842035,
    "lng": -116.910243
  },
  {
    "id": "090000113",
    "name": "RIO DRIVE",
    "npi": "1477517829",
    "hcaiId": null,
    "businessName": "HOME OF GUIDING HANDS CORPORATION",
    "contactEmail": "LAURIE@GUIDINGHANDS.ORG",
    "categoryName": "INTERMEDIATE CARE FACILITY-DD/H/N/CN/IID",
    "categoryCode": "ICFDDH",
    "licenseStatus": "ACTIVE",
    "inService": true,
    "licenseNumber": "090000205",
    "licenseEffectiveDate": "12/13/2024",
    "licenseExpirationDate": "12/12/2025",
    "dataDate": "10/18/2025",
    "capacity": 6,
    "address": "12116 GAY RIO DR",
    "city": "LAKESIDE",
    "zip": "92040",
    "county": "SAN DIEGO",
    "phone": "(619) 938-2850",
    "lat": 32.83902,
    "lng": -116.92908
  },
  {
    "id": "080001551",
    "name": "THERAPY SPECIALISTS EXT.",
    "npi": null,
    "hcaiId": null,
    "businessName": null,
    "contactEmail": null,
    "categoryName": "OTHER",
    "categoryCode": "UNLICEN",
    "licenseStatus": null,
    "inService": null,
    "licenseNumber": null,
    "licenseEffectiveDate": null,
    "licenseExpirationDate": null,
    "dataDate": "10/18/2025",
    "capacity": 0,
    "address": "11962 WOODSIDE AVE",
    "city": "LAKESIDE",
    "zip": "92040",
    "county": "SAN DIEGO",
    "phone": "(000) 000-0000",
    "lat": 32.856264,
    "lng": -116.9351775
  }
]