[
  {
    "id": "630014322",
    "name": "BRADY HOME",
    "npi": "1760725766",
    "hcaiId": null,
    "businessName": "GREAT EXPECTATIONS SERVICES, INC.",
    "contactEmail": "AZINBAIRD.GES@GMAIL.COM",
    "categoryName": "INTERMEDIATE CARE FACILITY-DD/H/N/CN/IID",
    "categoryCode": "ICFDDH",
    "licenseStatus": "ACTIVE",
    "inService": true,
    "licenseNumber": "550002414",
    "licenseEffectiveDate": "10/01/2025",
    "licenseExpirationDate": "09/30/2026",
    "dataDate": "10/18/2025",
    "capacity": 6,
    "address": "4825 GLENHAVEN DR",
    "city": "OCEANSIDE",
    "zip": "92056",
    "county": "SAN DIEGO",
    "phone": "(714) 812-8684",
    "lat": 33.219477,
    "lng": -117.268263
  },
  {
    "id": "080000902",
    "name": "CENTER FOR ENDOSCOPY LLC",
    "npi": "1144305566",
    "hcaiId": "306374087",
    "businessName": "CENTER FOR ENDOSCOPY",
    "contactEmail": null,
    "categoryName": "SURGICAL CLINIC",
    "categoryCode": "ASC",
    "licenseStatus": "INACTIVE - CAPEN DECISION",
    "inService": false,
    "licenseNumber": "080000391",
    "licenseEffectiveDate": "11/27/2007",
    "licenseExpirationDate": "11/26/2008",
    "dataDate": "10/18/2025",
    "capacity": 0,
    "address": "3921 WARING RD, SUITE B",
    "city": "OCEANSIDE",
    "zip": "92056",
    "county": "SAN DIEGO",
    "phone": "(760) 940-6300",
    "lat": 33.18732,
    "lng": -117.289485
  },
  {
    "id": "080000854",
    "name": "FRESENIUS MEDICAL CARE NORTH COAST KIDNEY CENTER",
    "npi": "1801285960",
    "hcaiId": "306374075",
    "businessName": "FRESENIUS MEDICAL CARE NORTHCOAST, LLC",
    "contactEmail": "CLINIC9381@FMC-NA.COM",
    "categoryName": "CHRONIC DIALYSIS CLINIC",
    "categoryCode": "ESRD/CDC",
    "licenseStatus": "ACTIVE",
    "inService": true,
    "licenseNumber": "080000371",
    "licenseEffectiveDate": "02/01/2025",
    "licenseExpirationDate": "01/31/2026",
    "dataDate": "10/18/2025",
    "capacity": 30,
    "address": "3300 VISTA WAY, SUITE A",
    "city": "OCEANSIDE",
    "zip": "92056",
    "county": "SAN DIEGO",
    "phone": "(760) 721-4344",
    "lat": 33.181128,
    "lng": -117.315522
  },
  {
    "id": "080000089",
    "name": "LA PALOMA HEALTHCARE CENTER",
    "npi": "1265462436",
    "hcaiId": "206370781",
    "businessName": "ITALIAN MAPLE HOLDINGS, LLC",
    "contactEmail": "JARED.MORASCO@LAPALOMAHC.COM",
    "categoryName": "SKILLED NURSING FACILITY",
    "categoryCode": "SNF",
    "licenseStatus": "ACTIVE",
    "inService": true,
    "licenseNumber": "080000100",
    "licenseEffectiveDate": "06/01/2025",
    "licenseExpirationDate": "05/31/2026",
    "dataDate": "10/18/2025",
    "capacity": 93,
    "address": "3232 THUNDER DR",
    "city": "OCEANSIDE",
    "zip": "92056",
    "county": "SAN DIEGO",
    "phone": "(760) 724-2193",
    "lat": 33.187068,
    "lng": -117.287532
  },
  {
    "id": "630022366",
    "name": "LAKE ELEMENTARY SCHOOL",
    "npi": "1437245412",
    "hcaiId": null,
    "businessName": "VISTA COMMUNITY CLINIC",
    "contactEmail": null,
    "categoryName": "PRIMARY CARE CLINIC",
    "categoryCode": "COMTYC",
    "licenseStatus": "ACTIVE",
    "inService": true,
    "licenseNumber": "080000745",
    "licenseEffectiveDate": "11/16/2025",
    "licenseExpirationDate": "11/15/2026",
    "dataDate": "10/18/2025",
    "capacity": 0,
    "address": "4950 LAKE BLVD, ROOM 12",
    "city": "OCEANSIDE",
    "zip": "92056",
    "county": "SAN DIEGO",
    "phone": null,
    "lat": 33.17308324,
    "lng": -117.2573007
  },
  {
    "id": "630019290",
    "name": "MADISON MIDDLE SCHOOL",
    "npi": "1295822658",
    "hcaiId": null,
    "businessName": "VISTA COMMUNITY CLINIC",
    "contactEmail": null,
    "categoryName": "PRIMARY CARE CLINIC",
    "categoryCode": "COMTYC",
    "licenseStatus": "ACTIVE",
    "inService": true,
    "licenseNumber": "080000002",
    "licenseEffectiveDate": "01/29/2025",
    "licenseExpirationDate": "01/28/2026",
    "dataDate": "10/18/2025",
    "capacity": 0,
    "address": "4930 LAKE BLVD, ROOM FRONT OFFICE",
    "city": "OCEANSIDE",
    "zip": "92056",
    "county": "SAN DIEGO",
    "phone": null,
    "lat": 33.174702,
    "lng": -117.258606
  },
  {
    "id": "080000276",
    "name": "NORTH COAST SURGERY CENTER",
    "npi": "1235195033",
    "hcaiId": "306374108",
    "businessName": null,
    "contactEmail": null,
    "categoryName": "SURGICAL CLINIC",
    "categoryCode": "ASC",
    "licenseStatus": "INACTIVE - CAPEN DECISION",
    "inService": false,
    "licenseNumber": "080000001",
    "licenseEffectiveDate": "12/14/2007",
    "licenseExpirationDate": "12/13/2008",
    "dataDate": "10/18/2025",
    "capacity": 0,
    "address": "3903 WARING RD",
    "city": "OCEANSIDE",
    "zip": "92056",
    "county": "SAN DIEGO",
    "phone": "(760) 940-0997",
    "lat": 33.187599,
    "lng": -117.292383
  },
  {
    "id": "630017262",
    "name": "OCEANSIDE DIALYSIS",
    "npi": null,
    "hcaiId": "306370391",
    "businessName": "COUER DIALYSIS LLC",
    "contactEmail": "CAL_C@DAVITA.COM",
    "categoryName": "CHRONIC DIALYSIS CLINIC",
    "categoryCode": "ESRD/CDC",
    "licenseStatus": "ACTIVE",
    "inService": true,
    "licenseNumber": "550004357",
    "licenseEffectiveDate": "06/06/2025",
    "licenseExpirationDate": "06/05/2026",
    "dataDate": "10/18/2025",
    "capacity": 21,
    "address": "4182 OCEANSIDE BLVD",
    "city": "OCEANSIDE",
    "zip": "92056",
    "county": "SAN DIEGO",
    "phone": "(760) 941-8393",
    "lat": 33.208335,
    "lng": -117.2862945
  },
  {
    "id": "080000887",
    "name": "PACIFIC SURGERY CENTER",
    "npi": "1154362630",
    "hcaiId": null,
    "businessName": null,
    "contactEmail": null,
    "categoryName": "SURGICAL CLINIC",
    "categoryCode": "ASC",
    "licenseStatus": null,
    "inService": null,
    "licenseNumber": null,
    "licenseEffectiveDate": null,
    "licenseExpirationDate": null,
    "dataDate": "10/18/2025",
    "capacity": 0,
    "address": "3998 VISTA WAY # C106",
    "city": "OCEANSIDE",
    "zip": "92056",
    "county": "SAN DIEGO",
    "phone": "(760) 914-2600",
    "lat": 33.18377044,
    "lng": -117.2931375
  },
  {
    "id": "630027320",
    "name": "PACIFIC VILLAS POST ACUTE",
    "npi": null,
    "hcaiId": null,
    "businessName": "OCEANSIDEIDENCE OPCO, LLC",
    "contactEmail": "ZACK.GRAF@PACIFICVILLASPA.COM",
    "categoryName": "SKILLED NURSING FACILITY",
    "categoryCode": "SNF",
    "licenseStatus": "ACTIVE",
    "inService": true,
    "licenseNumber": "550009441",
    "licenseEffectiveDate": "10/17/2025",
    "licenseExpirationDate": "10/16/2026",
    "dataDate": "10/18/2025",
    "capacity": 120,
    "address": "3220 THUNDER DR",
    "city": "OCEANSIDE",
    "zip": "92056",
    "county": "SAN DIEGO",
    "phone": "(530) 222-2273",
    "lat": 33.1879722,
    "lng": -117.2881775
  },
  {
    "id": "080000152",
    "name": "TRI-CITY MEDICAL CENTER",
    "npi": "1801861190",
    "hcaiId": "106370780",
    "businessName": "TRI-CITY HOSPITAL DISTRICT",
    "contactEmail": "PFREYNOLDS@TCMC.COM",
    "categoryName": "GENERAL ACUTE CARE HOSPITAL",
    "categoryCode": "GACH",
    "licenseStatus": "ACTIVE",
    "inService": true,
    "licenseNumber": "080000099",
    "licenseEffectiveDate": "11/01/2025",
    "licenseExpirationDate": "10/31/2026",
    "dataDate": "10/18/2025",
    "capacity": 368,
    "address": "4002 VISTA WAY",
    "city": "OCEANSIDE",
    "zip": "92056",
    "county": "SAN DIEGO",
    "phone": "(760) 940-3514",
    "lat": 33.184332,
    "lng": -117.291807
  },
  {
    "id": "080001010",
    "name": "TRI-CITY MEDICAL CENTER",
    "npi": "1801861190",
    "hcaiId": null,
    "businessName": "TRI-CITY HOSPITAL DISTRICT",
    "contactEmail": null,
    "categoryName": "OTHER",
    "categoryCode": "PPSREHB",
    "licenseStatus": "ACTIVE",
    "inService": true,
    "licenseNumber": "080000099",
    "licenseEffectiveDate": "11/01/2025",
    "licenseExpirationDate": "10/31/2026",
    "dataDate": "10/18/2025",
    "capacity": 0,
    "address": "4002 VISTA WAY",
    "city": "OCEANSIDE",
    "zip": "92056",
    "county": "SAN DIEGO",
    "phone": null,
    "lat": 33.184332,
    "lng": -117.291807
  },
  {
    "id": "080000387",
    "name": "TRI-CITY MEDICAL CENTER D/P APH",
    "npi": "1801861190",
    "hcaiId": null,
    "businessName": "TRI-CITY HOSPITAL DISTRICT",
    "contactEmail": null,
    "categoryName": "ACUTE PSYCHIATRIC HOSPITAL",
    "categoryCode": "APH",
    "licenseStatus": "ACTIVE",
    "inService": true,
    "licenseNumber": "080000099",
    "licenseEffectiveDate": "11/01/2025",
    "licenseExpirationDate": "10/31/2026",
    "dataDate": "10/18/2025",
    "capacity": 18,
    "address": "4002 VISTA WAY",
    "city": "OCEANSIDE",
    "zip": "92056",
    "county": "SAN DIEGO",
    "phone": "(760) 724-8411",
    "lat": 33.184332,
    "lng": -117.291807
  },
  {
    "id": "080001705",
    "name": "TRUECARE",
    "npi": "1427064047",
    "hcaiId": "306374433",
    "businessName": "NORTH COUNTY HEALTH PROJECT, INC.",
    "contactEmail": "IRMA.COTA@NCHS-HEALTH.ORG",
    "categoryName": "PRIMARY CARE CLINIC",
    "categoryCode": "COMTYC",
    "licenseStatus": "ACTIVE",
    "inService": true,
    "licenseNumber": "080000240",
    "licenseEffectiveDate": "11/06/2025",
    "licenseExpirationDate": "11/05/2026",
    "dataDate": "10/18/2025",
    "capacity": 0,
    "address": "3998 VISTA WAY, SUITE B/C",
    "city": "OCEANSIDE",
    "zip": "92056",
    "county": "SAN DIEGO",
    "phone": "(760) 400-0277",
    "lat": 33.18424699,
    "lng": -117.292601
  },
  {
    "id": "630028299",
    "name": "TRUECARE",
    "npi": null,
    "hcaiId": null,
    "businessName": "NORTH COUNTY HEALTH PROJECT, INC.",
    "contactEmail": "LICENSING@TRUECARE.ORG",
    "categoryName": "PRIMARY CARE CLINIC",
    "categoryCode": "COMTYC",
    "licenseStatus": "ACTIVE",
    "inService": true,
    "licenseNumber": "550009916",
    "licenseEffectiveDate": "08/13/2025",
    "licenseExpirationDate": "08/12/2026",
    "dataDate": "10/18/2025",
    "capacity": 0,
    "address": "3998 VISTA WAY, SUITE 202",
    "city": "OCEANSIDE",
    "zip": "92056",
    "county": "SAN DIEGO",
    "phone": "(760) 736-6767",
    "lat": 33.1843951,
    "lng": -117.2947878
  },
  {
    "id": "630028306",
    "name": "TRUECARE",
    "npi": null,
    "hcaiId": null,
    "businessName": "NORTH COUNTY HEALTH PROJECT, INC.",
    "contactEmail": null,
    "categoryName": "PRIMARY CARE CLINIC",
    "categoryCode": "COMTYC",
    "licenseStatus": "ACTIVE",
    "inService": true,
    "licenseNumber": "550009917",
    "licenseEffectiveDate": "08/13/2025",
    "licenseExpirationDate": "02/12/2026",
    "dataDate": "10/18/2025",
    "capacity": 0,
    "address": "3998 VISTA WAY, SUITE 200",
    "city": "OCEANSIDE",
    "zip": "92056",
    "county": "SAN DIEGO",
    "phone": null,
    "lat": 33.18364409,
    "lng": -117.292622
  },
  {
    "id": "630027836",
    "name": "TRUECARE VISTA WAY HEALTH CENTER STE 204",
    "npi": null,
    "hcaiId": null,
    "businessName": "NORTH COUNTY HEALTH PROJECT, INC.",
    "contactEmail": null,
    "categoryName": "PRIMARY CARE CLINIC",
    "categoryCode": "COMTYC",
    "licenseStatus": "ACTIVE",
    "inService": true,
    "licenseNumber": "080000240",
    "licenseEffectiveDate": "11/06/2025",
    "licenseExpirationDate": "11/05/2026",
    "dataDate": "10/18/2025",
    "capacity": 0,
    "address": "3998 VISTA WAY, SUITE 204",
    "city": "OCEANSIDE",
    "zip": "92056",
    "county": "SAN DIEGO",
    "phone": null,
    "lat": 33.184314,
    "lng": -117.292845
  },
  {
    "id": "630027663",
    "name": "TRUECARE VISTA WAY HEALTH CENTER STE G",
    "npi": "1639185317",
    "hcaiId": null,
    "businessName": "NORTH COUNTY HEALTH PROJECT, INC.",
    "contactEmail": null,
    "categoryName": "PRIMARY CARE CLINIC",
    "categoryCode": "COMTYC",
    "licenseStatus": "ACTIVE",
    "inService": true,
    "licenseNumber": "080000240",
    "licenseEffectiveDate": "11/06/2025",
    "licenseExpirationDate": "11/05/2026",
    "dataDate": "10/18/2025",
    "capacity": 0,
    "address": "3998 VISTA WAY, SUITE G",
    "city": "OCEANSIDE",
    "zip": "92056",
    "county": "SAN DIEGO",
    "phone": null,
    "lat": 33.184314,
    "lng": -117.292845
  },
  {
    "id": "630020639",
    "name": "UNIVERSAL HEALTH NET SAN DIEGO",
    "npi": null,
    "hcaiId": "406375756",
    "businessName": "UNIVERSAL HEALTH NET SAN DIEGO",
    "contactEmail": "AMENEH@UHNHEALTH.COM",
    "categoryName": "HOSPICE",
    "categoryCode": "HOSPICE",
    "licenseStatus": "ACTIVE",
    "inService": true,
    "licenseNumber": "550008164",
    "licenseEffectiveDate": "12/22/2023",
    "licenseExpirationDate": "12/21/2025",
    "dataDate": "10/18/2025",
    "capacity": 0,
    "address": "4755 OCEANSIDE BLVD, SUITE 240",
    "city": "OCEANSIDE",
    "zip": "92056",
    "county": "SAN DIEGO",
    "phone": "(949) 690-5224",
    "lat": 33.215859,
    "lng": -117.271098
  }
]