[
  {
    "id": "630027498",
    "name": "QUALICARE",
    "npi": null,
    "hcaiId": null,
    "businessName": "QUALICARE (FAMILY HOMECARE) - NORTH SAN DIEGO, INC.",
    "contactEmail": "SKIDWELL@QUALICARE.COM",
    "categoryName": "HOME HEALTH AGENCY",
    "categoryCode": "HHA",
    "licenseStatus": "ACTIVE",
    "inService": true,
    "licenseNumber": "550009899",
    "licenseEffectiveDate": "07/18/2025",
    "licenseExpirationDate": "01/17/2026",
    "dataDate": "10/18/2025",
    "capacity": 0,
    "address": "2103 S EL CAMINO REAL, SUITE 205",
    "city": "OCEANSIDE",
    "zip": "92054",
    "county": "SAN DIEGO",
    "phone": "(760) 936-4000",
    "lat": 33.19024998,
    "lng": -117.328441
  },
  {
    "id": "630022030",
    "name": "SCRIPPS HEALTH ASC JEFFERSON",
    "npi": "1417580028",
    "hcaiId": "306370642",
    "businessName": "SCRIPPS HEALTH",
    "contactEmail": "SMFASCREGULATORY@SCRIPPSHEALTH.ORG",
    "categoryName": "SURGICAL CLINIC",
    "categoryCode": "ASC/SURGC",
    "licenseStatus": "ACTIVE",
    "inService": true,
    "licenseNumber": "550006548",
    "licenseEffectiveDate": "07/28/2024",
    "licenseExpirationDate": "07/27/2025",
    "dataDate": "10/18/2025",
    "capacity": 0,
    "address": "2205 VISTA WAY",
    "city": "OCEANSIDE",
    "zip": "92054",
    "county": "SAN DIEGO",
    "phone": "(760) 704-5690",
    "lat": 33.181839,
    "lng": -117.3383955
  },
  {
    "id": "630020163",
    "name": "SHORES HOSPICE LLC",
    "npi": "1962024760",
    "hcaiId": null,
    "businessName": "SHORES HOSPICE LLC",
    "contactEmail": "CMANNION@SHORESHOSPICE.COM",
    "categoryName": "HOSPICE",
    "categoryCode": "HOSPICE",
    "licenseStatus": "ACTIVE",
    "inService": true,
    "licenseNumber": "550005934",
    "licenseEffectiveDate": "12/18/2024",
    "licenseExpirationDate": "12/17/2026",
    "dataDate": "10/18/2025",
    "capacity": 0,
    "address": "2424 VISTA WAY, SUITE 206",
    "city": "OCEANSIDE",
    "zip": "92054",
    "county": "SAN DIEGO",
    "phone": "(858) 951-5454",
    "lat": 33.183774,
    "lng": -117.3355245
  },
  {
    "id": "630020342",
    "name": "STAND BY U HOSPICE CARE, INC.",
    "npi": null,
    "hcaiId": "406370021",
    "businessName": "STAND BY U HOSPICE CARE, INC.",
    "contactEmail": "STANDBYUHOSPICECAREINC@GMAIL.COM",
    "categoryName": "HOSPICE",
    "categoryCode": "HOSPICE",
    "licenseStatus": "ACTIVE",
    "inService": true,
    "licenseNumber": "550007284",
    "licenseEffectiveDate": "11/22/2023",
    "licenseExpirationDate": "11/21/2025",
    "dataDate": "10/18/2025",
    "capacity": 0,
    "address": "918 MISSION AVE, SUITE 103",
    "city": "OCEANSIDE",
    "zip": "92054",
    "county": "SAN DIEGO",
    "phone": "(213) 610-0020",
    "lat": 33.198183,
    "lng": -117.376092
  },
  {
    "id": "630022368",
    "name": "SURFSIDE EDUCATIONAL ACADEMY",
    "npi": "1437245412",
    "hcaiId": null,
    "businessName": "VISTA COMMUNITY CLINIC",
    "contactEmail": null,
    "categoryName": "PRIMARY CARE CLINIC",
    "categoryCode": "COMTYC",
    "licenseStatus": "ACTIVE",
    "inService": true,
    "licenseNumber": "080000745",
    "licenseEffectiveDate": "11/16/2025",
    "licenseExpirationDate": "11/15/2026",
    "dataDate": "10/18/2025",
    "capacity": 0,
    "address": "1125 S DITMAR ST",
    "city": "OCEANSIDE",
    "zip": "92054",
    "county": "SAN DIEGO",
    "phone": null,
    "lat": 33.1855927,
    "lng": -117.36806
  },
  {
    "id": "080000243",
    "name": "TRUECARE",
    "npi": "1639185317",
    "hcaiId": "306374434",
    "businessName": "NORTH COUNTY HEALTH PROJECT, INC.",
    "contactEmail": "LICENSING@TRUECARE.ORG",
    "categoryName": "PRIMARY CARE CLINIC",
    "categoryCode": "COMTYC",
    "licenseStatus": "ACTIVE",
    "inService": true,
    "licenseNumber": "080000240",
    "licenseEffectiveDate": "11/06/2025",
    "licenseExpirationDate": "11/05/2026",
    "dataDate": "10/18/2025",
    "capacity": 0,
    "address": "605 CROUCH ST, BUILDING C",
    "city": "OCEANSIDE",
    "zip": "92054",
    "county": "SAN DIEGO",
    "phone": "(760) 736-6767",
    "lat": 33.196221,
    "lng": -117.3542805
  },
  {
    "id": "080001307",
    "name": "TRUECARE",
    "npi": "1255347894",
    "hcaiId": "306374200",
    "businessName": "NORTH COUNTY HEALTH PROJECT, INC.",
    "contactEmail": "LICENSING@TRUECARE.ORG",
    "categoryName": "PRIMARY CARE CLINIC",
    "categoryCode": "COMTYC",
    "licenseStatus": "ACTIVE",
    "inService": true,
    "licenseNumber": "080000531",
    "licenseEffectiveDate": "02/02/2025",
    "licenseExpirationDate": "02/01/2026",
    "dataDate": "10/18/2025",
    "capacity": 0,
    "address": "2210 MESA DR, SUITE 300",
    "city": "OCEANSIDE",
    "zip": "92054",
    "county": "SAN DIEGO",
    "phone": "(760) 736-6767",
    "lat": 33.208083,
    "lng": -117.357804
  },
  {
    "id": "080001522",
    "name": "TRUECARE",
    "npi": "1396852455",
    "hcaiId": "306374274",
    "businessName": "NORTH COUNTY HEALTH PROJECT, INC.",
    "contactEmail": "LICENSING@TRUECARE.COM",
    "categoryName": "PRIMARY CARE CLINIC",
    "categoryCode": "COMTYC",
    "licenseStatus": "ACTIVE",
    "inService": true,
    "licenseNumber": "080000637",
    "licenseEffectiveDate": "11/19/2024",
    "licenseExpirationDate": "11/18/2025",
    "dataDate": "10/18/2025",
    "capacity": 0,
    "address": "2210 MESA DR, SUITE 5 & 7 & 8",
    "city": "OCEANSIDE",
    "zip": "92054",
    "county": "SAN DIEGO",
    "phone": "(760) 736-6767",
    "lat": 33.208083,
    "lng": -117.357804
  },
  {
    "id": "630017360",
    "name": "TRUECARE",
    "npi": "1639185317",
    "hcaiId": null,
    "businessName": "NORTH COUNTY HEALTH PROJECT, INC.",
    "contactEmail": null,
    "categoryName": "PRIMARY CARE CLINIC",
    "categoryCode": "COMTYC",
    "licenseStatus": "ACTIVE",
    "inService": true,
    "licenseNumber": "080000240",
    "licenseEffectiveDate": "11/06/2025",
    "licenseExpirationDate": "11/05/2026",
    "dataDate": "10/18/2025",
    "capacity": 0,
    "address": "619 CROUCH ST, SUITE 100",
    "city": "OCEANSIDE",
    "zip": "92054",
    "county": "SAN DIEGO",
    "phone": "(760) 736-6709",
    "lat": 33.19569,
    "lng": -117.3539835
  },
  {
    "id": "630017796",
    "name": "TRUECARE",
    "npi": null,
    "hcaiId": null,
    "businessName": "NORTH COUNTY HEALTH PROJECT, INC.",
    "contactEmail": null,
    "categoryName": "PRIMARY CARE CLINIC",
    "categoryCode": "COMTYC",
    "licenseStatus": "ACTIVE",
    "inService": true,
    "licenseNumber": "080000531",
    "licenseEffectiveDate": "02/02/2025",
    "licenseExpirationDate": "02/01/2026",
    "dataDate": "10/18/2025",
    "capacity": 0,
    "address": "2210 MESA DR, SUITE 100",
    "city": "OCEANSIDE",
    "zip": "92054",
    "county": "SAN DIEGO",
    "phone": null,
    "lat": 33.208133,
    "lng": -117.3604582
  },
  {
    "id": "080001458",
    "name": "U S RENAL CARE OCEANSIDE DIALYSIS",
    "npi": "1629344015",
    "hcaiId": "306374244",
    "businessName": "DIALYSIS NEWCO, LLC.",
    "contactEmail": "LICENSING@USRENALCARE.COM",
    "categoryName": "CHRONIC DIALYSIS CLINIC",
    "categoryCode": "ESRD/CDC",
    "licenseStatus": "ACTIVE",
    "inService": true,
    "licenseNumber": "080000609",
    "licenseEffectiveDate": "01/08/2025",
    "licenseExpirationDate": "01/07/2026",
    "dataDate": "10/18/2025",
    "capacity": 21,
    "address": "2227 S EL CAMINO REAL, SUITE B",
    "city": "OCEANSIDE",
    "zip": "92054",
    "county": "SAN DIEGO",
    "phone": "(760) 757-1838",
    "lat": 33.186339,
    "lng": -117.330516
  },
  {
    "id": "080001689",
    "name": "VISTA COMMUNITY CLINIC - HORNE STREET",
    "npi": "1437245412",
    "hcaiId": "306374295",
    "businessName": "VISTA COMMUNITY CLINIC",
    "contactEmail": "FERNANDO@VCC.ORG",
    "categoryName": "PRIMARY CARE CLINIC",
    "categoryCode": "FQHC/COMTYC",
    "licenseStatus": "ACTIVE",
    "inService": true,
    "licenseNumber": "080000745",
    "licenseEffectiveDate": "11/16/2025",
    "licenseExpirationDate": "11/15/2026",
    "dataDate": "10/18/2025",
    "capacity": 0,
    "address": "517 N HORNE ST",
    "city": "OCEANSIDE",
    "zip": "92054",
    "county": "SAN DIEGO",
    "phone": "(760) 631-5000",
    "lat": 33.20118,
    "lng": -117.378648
  },
  {
    "id": "080001197",
    "name": "VISTA COMMUNITY CLINIC-PIER VIEW WAY",
    "npi": null,
    "hcaiId": "306374180",
    "businessName": "VISTA COMMUNITY CLINIC",
    "contactEmail": "FERNANDO@VCC.ORG",
    "categoryName": "PRIMARY CARE CLINIC",
    "categoryCode": "COMTYC",
    "licenseStatus": "ACTIVE",
    "inService": true,
    "licenseNumber": "080000510",
    "licenseEffectiveDate": "06/06/2025",
    "licenseExpirationDate": "06/05/2026",
    "dataDate": "10/18/2025",
    "capacity": 0,
    "address": "818 PIER VIEW WAY",
    "city": "OCEANSIDE",
    "zip": "92054",
    "county": "SAN DIEGO",
    "phone": "(760) 631-5000",
    "lat": 33.198651,
    "lng": -117.377739
  }
]