[
  {
    "id": "090001338",
    "name": "MARBLEHEAD HOUSE",
    "npi": "1851463483",
    "hcaiId": null,
    "businessName": "INDEPENDENT OPTIONS, INC.",
    "contactEmail": "IO@INDEPENDENTOPTIONS.ORG",
    "categoryName": "INTERMEDIATE CARE FACILITY-DD/H/N/CN/IID",
    "categoryCode": "ICFDDH",
    "licenseStatus": "ACTIVE",
    "inService": true,
    "licenseNumber": "090000545",
    "licenseEffectiveDate": "11/02/2024",
    "licenseExpirationDate": "11/01/2025",
    "dataDate": "10/18/2025",
    "capacity": 6,
    "address": "4728 MARBLEHEAD BAY DR",
    "city": "OCEANSIDE",
    "zip": "92057",
    "county": "SAN DIEGO",
    "phone": "(760) 439-8942",
    "lat": 33.253533,
    "lng": -117.308205
  },
  {
    "id": "090001599",
    "name": "MCNEALY HOUSE",
    "npi": "1962488007",
    "hcaiId": null,
    "businessName": "T.E.R.I., INC.",
    "contactEmail": "PAYABLES@TERIINC.ORG",
    "categoryName": "INTERMEDIATE CARE FACILITY-DD/H/N/CN/IID",
    "categoryCode": "ICFDDH",
    "licenseStatus": "ACTIVE",
    "inService": true,
    "licenseNumber": "090000678",
    "licenseEffectiveDate": "11/18/2024",
    "licenseExpirationDate": "11/17/2025",
    "dataDate": "10/18/2025",
    "capacity": 6,
    "address": "4602 ALLENDE AVE",
    "city": "OCEANSIDE",
    "zip": "92057",
    "county": "SAN DIEGO",
    "phone": "(760) 721-1706",
    "lat": 33.238449,
    "lng": -117.306828
  },
  {
    "id": "630021294",
    "name": "NICHOLS ELEMENTARY SCHOOL",
    "npi": "1437245412",
    "hcaiId": null,
    "businessName": "VISTA COMMUNITY CLINIC",
    "contactEmail": null,
    "categoryName": "PRIMARY CARE CLINIC",
    "categoryCode": "COMTYC",
    "licenseStatus": "ACTIVE",
    "inService": true,
    "licenseNumber": "080000745",
    "licenseEffectiveDate": "11/16/2025",
    "licenseExpirationDate": "11/15/2026",
    "dataDate": "10/18/2025",
    "capacity": 0,
    "address": "4250 OLD GROVE RD, ROOM G3",
    "city": "OCEANSIDE",
    "zip": "92057",
    "county": "SAN DIEGO",
    "phone": null,
    "lat": 33.23799,
    "lng": -117.316269
  },
  {
    "id": "630019911",
    "name": "SCHOLARSHIP PREP - OCEANSIDE",
    "npi": "1437245412",
    "hcaiId": null,
    "businessName": "VISTA COMMUNITY CLINIC",
    "contactEmail": null,
    "categoryName": "PRIMARY CARE CLINIC",
    "categoryCode": "COMTYC",
    "licenseStatus": "ACTIVE",
    "inService": true,
    "licenseNumber": "080000745",
    "licenseEffectiveDate": "11/16/2025",
    "licenseExpirationDate": "11/15/2026",
    "dataDate": "10/18/2025",
    "capacity": 0,
    "address": "4070 MISSION AVE, ROOM EXECUTIVE SUITE",
    "city": "OCEANSIDE",
    "zip": "92057",
    "county": "SAN DIEGO",
    "phone": "(442) 262-3249",
    "lat": 33.232374,
    "lng": -117.317349
  },
  {
    "id": "090001336",
    "name": "VIA MINDANAO HOUSE",
    "npi": "1851463483",
    "hcaiId": null,
    "businessName": "INDEPENDENT OPTIONS, INC.",
    "contactEmail": "IO@INDEPENDENTOPTIONS.ORG",
    "categoryName": "INTERMEDIATE CARE FACILITY-DD/H/N/CN/IID",
    "categoryCode": "ICFDDH",
    "licenseStatus": "ACTIVE",
    "inService": true,
    "licenseNumber": "090000544",
    "licenseEffectiveDate": "11/02/2024",
    "licenseExpirationDate": "11/01/2025",
    "dataDate": "10/18/2025",
    "capacity": 6,
    "address": "5124 VIA MINDANAO",
    "city": "OCEANSIDE",
    "zip": "92057",
    "county": "SAN DIEGO",
    "phone": "(760) 722-4252",
    "lat": 33.267123,
    "lng": -117.305442
  },
  {
    "id": "080001738",
    "name": "VISTA COMMUNITY CLINIC",
    "npi": "1497203541",
    "hcaiId": "306374329",
    "businessName": "VISTA COMMUNITY CLINIC",
    "contactEmail": "FERNANDO@VCC.ORG",
    "categoryName": "PRIMARY CARE CLINIC",
    "categoryCode": "FQHC/COMTYC",
    "licenseStatus": "ACTIVE",
    "inService": true,
    "licenseNumber": "550003781",
    "licenseEffectiveDate": "02/06/2025",
    "licenseExpirationDate": "02/05/2026",
    "dataDate": "10/18/2025",
    "capacity": 0,
    "address": "4700 N RIVER RD",
    "city": "OCEANSIDE",
    "zip": "92057",
    "county": "SAN DIEGO",
    "phone": "(760) 631-5000",
    "lat": 33.245856,
    "lng": -117.309267
  }
]