[
  {
    "id": "630002501",
    "name": "ANDRU HOME",
    "npi": "1801981667",
    "hcaiId": null,
    "businessName": "GREAT EXPECTATIONS SERVICES, INC.",
    "contactEmail": "AZINBAIRD@GMAIL.COM",
    "categoryName": "INTERMEDIATE CARE FACILITY-DD/H/N/CN/IID",
    "categoryCode": "ICFDDH",
    "licenseStatus": "ACTIVE",
    "inService": true,
    "licenseNumber": "550000055",
    "licenseEffectiveDate": "11/04/2024",
    "licenseExpirationDate": "11/03/2025",
    "dataDate": "10/18/2025",
    "capacity": 6,
    "address": "311 DEL FLORA ST",
    "city": "OCEANSIDE",
    "zip": "92058",
    "county": "SAN DIEGO",
    "phone": "(760) 439-1741",
    "lat": 33.24303,
    "lng": -117.3289185
  },
  {
    "id": "630024923",
    "name": "FOUSSAT ELEMENTARY SCHOOL",
    "npi": "1437245412",
    "hcaiId": null,
    "businessName": "VISTA COMMUNITY CLINIC",
    "contactEmail": null,
    "categoryName": "PRIMARY CARE CLINIC",
    "categoryCode": "COMTYC",
    "licenseStatus": "ACTIVE",
    "inService": true,
    "licenseNumber": "080000745",
    "licenseEffectiveDate": "11/16/2025",
    "licenseExpirationDate": "11/15/2026",
    "dataDate": "10/18/2025",
    "capacity": 0,
    "address": "3800 PALA RD, ROOM CONFERENCE",
    "city": "OCEANSIDE",
    "zip": "92058",
    "county": "SAN DIEGO",
    "phone": "(760) 721-2200",
    "lat": 33.238314,
    "lng": -117.3292155
  },
  {
    "id": "630025132",
    "name": "JEFFERSON MIDDLE SCHOOL",
    "npi": "1437245412",
    "hcaiId": null,
    "businessName": "VISTA COMMUNITY CLINIC",
    "contactEmail": "FERNANDO@VCC.ORG",
    "categoryName": "PRIMARY CARE CLINIC",
    "categoryCode": "COMTYC",
    "licenseStatus": "ACTIVE",
    "inService": true,
    "licenseNumber": "080000745",
    "licenseEffectiveDate": "11/16/2025",
    "licenseExpirationDate": "11/15/2026",
    "dataDate": "10/18/2025",
    "capacity": 0,
    "address": "823 ACACIA AVE, ROOM C-3 AND B-2",
    "city": "OCEANSIDE",
    "zip": "92058",
    "county": "SAN DIEGO",
    "phone": "(760) 966-4700",
    "lat": 33.208533,
    "lng": -117.363834
  },
  {
    "id": "630019387",
    "name": "LAUREL ELEMENTARY SCHOOL",
    "npi": "1437245412",
    "hcaiId": null,
    "businessName": "VISTA COMMUNITY CLINIC",
    "contactEmail": null,
    "categoryName": "PRIMARY CARE CLINIC",
    "categoryCode": "COMTYC",
    "licenseStatus": "ACTIVE",
    "inService": true,
    "licenseNumber": "080000745",
    "licenseEffectiveDate": "11/16/2025",
    "licenseExpirationDate": "11/15/2026",
    "dataDate": "10/18/2025",
    "capacity": 0,
    "address": "1410 LAUREL ST, ROOM TA",
    "city": "OCEANSIDE",
    "zip": "92058",
    "county": "SAN DIEGO",
    "phone": null,
    "lat": 33.208362,
    "lng": -117.374994
  },
  {
    "id": "630019294",
    "name": "MISSION ELEMENTARY SCHOOL",
    "npi": "1437245412",
    "hcaiId": null,
    "businessName": "VISTA COMMUNITY CLINIC",
    "contactEmail": null,
    "categoryName": "PRIMARY CARE CLINIC",
    "categoryCode": "COMTYC",
    "licenseStatus": "ACTIVE",
    "inService": true,
    "licenseNumber": "080000745",
    "licenseEffectiveDate": "11/16/2025",
    "licenseExpirationDate": "11/15/2026",
    "dataDate": "10/18/2025",
    "capacity": 0,
    "address": "2100 MISSION AVE, ROOM OFFICE C",
    "city": "OCEANSIDE",
    "zip": "92058",
    "county": "SAN DIEGO",
    "phone": null,
    "lat": 33.20573756,
    "lng": -117.3629609
  },
  {
    "id": "630011293",
    "name": "MONARCH HOME",
    "npi": "1760660336",
    "hcaiId": null,
    "businessName": null,
    "contactEmail": "HFDELEON@COX.NET",
    "categoryName": "INTERMEDIATE CARE FACILITY-DD/H/N/CN/IID",
    "categoryCode": "ICFDDN",
    "licenseStatus": "ACTIVE",
    "inService": true,
    "licenseNumber": "550000611",
    "licenseEffectiveDate": "11/21/2024",
    "licenseExpirationDate": "11/20/2025",
    "dataDate": "10/18/2025",
    "capacity": 8,
    "address": "877 MUIRFIELD DR",
    "city": "OCEANSIDE",
    "zip": "92058",
    "county": "SAN DIEGO",
    "phone": "(760) 231-8139",
    "lat": 33.238404,
    "lng": -117.348264
  },
  {
    "id": "630025026",
    "name": "OCEANSIDE FAMILY COUNSELING CENTER",
    "npi": "1013952597",
    "hcaiId": null,
    "businessName": "FAMILY HEALTH CENTERS OF SAN DIEGO, INC.",
    "contactEmail": null,
    "categoryName": "PRIMARY CARE CLINIC",
    "categoryCode": "COMTYC",
    "licenseStatus": "ACTIVE",
    "inService": true,
    "licenseNumber": "550000024",
    "licenseEffectiveDate": "05/09/2025",
    "licenseExpirationDate": "05/08/2026",
    "dataDate": "10/18/2025",
    "capacity": 0,
    "address": "2201 MISSION AVE",
    "city": "OCEANSIDE",
    "zip": "92058",
    "county": "SAN DIEGO",
    "phone": null,
    "lat": 33.20721,
    "lng": -117.3609405
  },
  {
    "id": "630012230",
    "name": "TRUECARE",
    "npi": null,
    "hcaiId": "306374449",
    "businessName": "NORTH COUNTY HEALTH PROJECT, INC.",
    "contactEmail": "IRMA.COTA@NCHS-HEALTH.ORG",
    "categoryName": "PRIMARY CARE CLINIC",
    "categoryCode": "COMTYC",
    "licenseStatus": "ACTIVE",
    "inService": true,
    "licenseNumber": "080000240",
    "licenseEffectiveDate": "11/06/2025",
    "licenseExpirationDate": "11/05/2026",
    "dataDate": "10/18/2025",
    "capacity": 0,
    "address": "3220 MISSION AVE, SUITE 1",
    "city": "OCEANSIDE",
    "zip": "92058",
    "county": "SAN DIEGO",
    "phone": "(760) 433-3155",
    "lat": 33.214941,
    "lng": -117.347166
  },
  {
    "id": "630019918",
    "name": "VCC: MISSION PEDIATRIC & FAMILY DENTISTRY",
    "npi": null,
    "hcaiId": null,
    "businessName": "VISTA COMMUNITY CLINIC",
    "contactEmail": "FERNANDO@VCC.ORG",
    "categoryName": "PRIMARY CARE CLINIC",
    "categoryCode": "COMTYC",
    "licenseStatus": "ACTIVE",
    "inService": true,
    "licenseNumber": "550003781",
    "licenseEffectiveDate": "02/06/2025",
    "licenseExpirationDate": "02/05/2026",
    "dataDate": "10/18/2025",
    "capacity": 0,
    "address": "1910 MISSION AVE, SUITE 4",
    "city": "OCEANSIDE",
    "zip": "92058",
    "county": "SAN DIEGO",
    "phone": "(760) 631-5000",
    "lat": 33.204258,
    "lng": -117.3656655
  }
]