[
  {
    "id": "080000007",
    "name": "BOULDER CREEK POST ACUTE",
    "npi": "1073902672",
    "hcaiId": "206371703",
    "businessName": "POMERADO OPERATIONS, LLC",
    "contactEmail": "ADMIN-BOULDERCREEK@MADISON.CARE",
    "categoryName": "SKILLED NURSING FACILITY",
    "categoryCode": "SNF",
    "licenseStatus": "ACTIVE",
    "inService": true,
    "licenseNumber": "080000251",
    "licenseEffectiveDate": "05/18/2025",
    "licenseExpirationDate": "05/17/2026",
    "dataDate": "10/18/2025",
    "capacity": 149,
    "address": "12696 MONTE VISTA RD",
    "city": "POWAY",
    "zip": "92064",
    "county": "SAN DIEGO",
    "phone": "(858) 487-6242",
    "lat": 32.995224,
    "lng": -117.0541935
  },
  {
    "id": "630018080",
    "name": "NEIGHBORHOOD HEALTHCARE-GOLD FAMILY HEALTH CENTER",
    "npi": null,
    "hcaiId": "306370378",
    "businessName": "NEIGHBORHOOD HEALTHCARE",
    "contactEmail": "ELIZABETH.GARCIA@NHCARE.ORG",
    "categoryName": "PRIMARY CARE CLINIC",
    "categoryCode": "COMTYC",
    "licenseStatus": "ACTIVE",
    "inService": true,
    "licenseNumber": "550004321",
    "licenseEffectiveDate": "08/08/2025",
    "licenseExpirationDate": "08/07/2026",
    "dataDate": "10/18/2025",
    "capacity": 0,
    "address": "13010 POWAY RD",
    "city": "POWAY",
    "zip": "92064",
    "county": "SAN DIEGO",
    "phone": "(442) 286-8543",
    "lat": 32.957163,
    "lng": -117.0492615
  },
  {
    "id": "080000147",
    "name": "PALOMAR MEDICAL CENTER POWAY",
    "npi": "1376513754",
    "hcaiId": "106370977",
    "businessName": "PALOMAR HEALTH",
    "contactEmail": "JAMI.PIEARSON@PALOMARHEALTH.ORG",
    "categoryName": "GENERAL ACUTE CARE HOSPITAL",
    "categoryCode": "GACH",
    "licenseStatus": "ACTIVE",
    "inService": true,
    "licenseNumber": "080000127",
    "licenseEffectiveDate": "11/21/2024",
    "licenseExpirationDate": "11/20/2025",
    "dataDate": "10/18/2025",
    "capacity": 95,
    "address": "15615 POMERADO RD",
    "city": "POWAY",
    "zip": "92064",
    "county": "SAN DIEGO",
    "phone": "(442) 291-9145",
    "lat": 32.996565,
    "lng": -117.0566505
  },
  {
    "id": "080001258",
    "name": "PALOMAR MEDICAL CENTER POWAY",
    "npi": "1376513754",
    "hcaiId": null,
    "businessName": "PALOMAR HEALTH",
    "contactEmail": null,
    "categoryName": "OTHER",
    "categoryCode": "PPSPSCH",
    "licenseStatus": "ACTIVE",
    "inService": true,
    "licenseNumber": "080000127",
    "licenseEffectiveDate": "11/21/2024",
    "licenseExpirationDate": "11/20/2025",
    "dataDate": "10/18/2025",
    "capacity": 0,
    "address": "15615 POMERADO RD",
    "city": "POWAY",
    "zip": "92064",
    "county": "SAN DIEGO",
    "phone": null,
    "lat": 32.996565,
    "lng": -117.0566505
  },
  {
    "id": "080001257",
    "name": "PALOMAR MEDICAL CENTER POWAY D/P APH",
    "npi": "1376513754",
    "hcaiId": null,
    "businessName": "PALOMAR HEALTH",
    "contactEmail": null,
    "categoryName": "ACUTE PSYCHIATRIC HOSPITAL",
    "categoryCode": "APH",
    "licenseStatus": "ACTIVE",
    "inService": true,
    "licenseNumber": "080000127",
    "licenseEffectiveDate": "11/21/2024",
    "licenseExpirationDate": "11/20/2025",
    "dataDate": "10/18/2025",
    "capacity": 12,
    "address": "15615 POMERADO RD",
    "city": "POWAY",
    "zip": "92064",
    "county": "SAN DIEGO",
    "phone": "(858) 485-6511",
    "lat": 32.996565,
    "lng": -117.0566505
  },
  {
    "id": "080000818",
    "name": "POMERADO HOSPITAL EXERCISE PHYSIOLOGY DEPARTMENT",
    "npi": null,
    "hcaiId": null,
    "businessName": null,
    "contactEmail": null,
    "categoryName": "OTHER",
    "categoryCode": "UNLICEN",
    "licenseStatus": null,
    "inService": null,
    "licenseNumber": null,
    "licenseEffectiveDate": null,
    "licenseExpirationDate": null,
    "dataDate": "10/18/2025",
    "capacity": 0,
    "address": "15708 POMERADO RD, SUITE 210",
    "city": "POWAY",
    "zip": "92064",
    "county": "SAN DIEGO",
    "phone": "(858) 485-5631",
    "lat": 32.99948678,
    "lng": -117.0580235
  },
  {
    "id": "060002027",
    "name": "POWAY ADULT DAY HEALTH CARE CENTER",
    "npi": null,
    "hcaiId": null,
    "businessName": "POWAY ADULT DAY HEALTH CARE, LLC",
    "contactEmail": "KATHRYN.HOLT@POWAYADHC.ORG",
    "categoryName": "ADULT DAY HEALTH CARE",
    "categoryCode": "ADHC",
    "licenseStatus": "ACTIVE",
    "inService": true,
    "licenseNumber": "060000822",
    "licenseEffectiveDate": "06/19/2025",
    "licenseExpirationDate": "06/18/2026",
    "dataDate": "10/18/2025",
    "capacity": 0,
    "address": "12250 CROSTHWAITE CIR",
    "city": "POWAY",
    "zip": "92064",
    "county": "SAN DIEGO",
    "phone": "(858) 748-5044",
    "lat": 32.93991,
    "lng": -117.0343575
  },
  {
    "id": "080000012",
    "name": "POWAY HEALTHCARE CENTER",
    "npi": "1407035512",
    "hcaiId": "206371593",
    "businessName": "POPLAR HOLDINGS, LLC",
    "contactEmail": "AUSTIN.PEPIN@POWAYCARE.COM",
    "categoryName": "SKILLED NURSING FACILITY",
    "categoryCode": "SNF",
    "licenseStatus": "ACTIVE",
    "inService": true,
    "licenseNumber": "080000177",
    "licenseEffectiveDate": "04/16/2025",
    "licenseExpirationDate": "04/15/2026",
    "dataDate": "10/18/2025",
    "capacity": 99,
    "address": "15632 POMERADO RD",
    "city": "POWAY",
    "zip": "92064",
    "county": "SAN DIEGO",
    "phone": "(858) 248-3802",
    "lat": 32.998113,
    "lng": -117.058626
  },
  {
    "id": "080001720",
    "name": "POWAY SURGERY CENTER",
    "npi": "1194770727",
    "hcaiId": "306374314",
    "businessName": "POWAY CA MULTI SPECIALTY ASC LLC",
    "contactEmail": null,
    "categoryName": "SURGICAL CLINIC",
    "categoryCode": "ASC",
    "licenseStatus": "INACTIVE - CAPEN DECISION",
    "inService": false,
    "licenseNumber": "080000768",
    "licenseEffectiveDate": "01/08/2008",
    "licenseExpirationDate": "01/07/2009",
    "dataDate": "10/18/2025",
    "capacity": 0,
    "address": "15611 POMERADO RD, SUITE 220",
    "city": "POWAY",
    "zip": "92064",
    "county": "SAN DIEGO",
    "phone": "(858) 521-0031",
    "lat": 32.99705902,
    "lng": -117.05544
  },
  {
    "id": "630017750",
    "name": "THE HOSPICE OF SAN DIEGO",
    "npi": "1093227738",
    "hcaiId": "406372413",
    "businessName": "THE HOSPICE OF SAN DIEGO",
    "contactEmail": "MMRODILLON@THEHOSPICEOFSANDIEGO.COM",
    "categoryName": "HOSPICE",
    "categoryCode": "HOSPICE",
    "licenseStatus": "ACTIVE",
    "inService": true,
    "licenseNumber": "550004711",
    "licenseEffectiveDate": "04/17/2025",
    "licenseExpirationDate": "04/16/2027",
    "dataDate": "10/18/2025",
    "capacity": 0,
    "address": "12975 BROOKPRINTER PL, SUITE 150",
    "city": "POWAY",
    "zip": "92064",
    "county": "SAN DIEGO",
    "phone": "(858) 722-9090",
    "lat": 32.943846,
    "lng": -117.045561
  },
  {
    "id": "080000679",
    "name": "THE VILLAS AT POWAY",
    "npi": "1619947090",
    "hcaiId": null,
    "businessName": "PALOMAR HEALTH",
    "contactEmail": "VIRGINIA.BARRAGAN@PALOMARHEALTH.ORG",
    "categoryName": "SKILLED NURSING FACILITY",
    "categoryCode": "SNF",
    "licenseStatus": "ACTIVE",
    "inService": true,
    "licenseNumber": "080000127",
    "licenseEffectiveDate": "11/21/2024",
    "licenseExpirationDate": "11/20/2025",
    "dataDate": "10/18/2025",
    "capacity": 129,
    "address": "15615 POMERADO RD",
    "city": "POWAY",
    "zip": "92064",
    "county": "SAN DIEGO",
    "phone": "(858) 613-4545",
    "lat": 32.996565,
    "lng": -117.0566505
  }
]