[
  {
    "id": "060002057",
    "name": "AMERICARE ADULT DAY HEALTH CARE CENTER",
    "npi": null,
    "hcaiId": null,
    "businessName": "AMERICARE ADHC INC.",
    "contactEmail": "LILIT@AMERICAREADHC.COM",
    "categoryName": "ADULT DAY HEALTH CARE",
    "categoryCode": "ADHC",
    "licenseStatus": "ACTIVE",
    "inService": true,
    "licenseNumber": "060000832",
    "licenseEffectiveDate": "05/16/2025",
    "licenseExpirationDate": "11/27/2025",
    "dataDate": "10/18/2025",
    "capacity": 0,
    "address": "340 RANCHEROS DR, SUITE 196",
    "city": "SAN MARCOS",
    "zip": "92069",
    "county": "SAN DIEGO",
    "phone": "(760) 682-2424",
    "lat": 33.139629,
    "lng": -117.156663
  },
  {
    "id": "630013660",
    "name": "MISSION HOME HEALTH OF NORTH COUNTY SAN DIEGO",
    "npi": null,
    "hcaiId": "406374472",
    "businessName": "HEALTHY LIVING AT HOME-SAN DIEGO, LLC",
    "contactEmail": "GPINERO@MISSIONHH.COM",
    "categoryName": "HOME HEALTH AGENCY",
    "categoryCode": "HHA",
    "licenseStatus": "ACTIVE",
    "inService": true,
    "licenseNumber": "550002093",
    "licenseEffectiveDate": "10/07/2025",
    "licenseExpirationDate": "08/13/2026",
    "dataDate": "10/18/2025",
    "capacity": 0,
    "address": "300 RANCHEROS DR, SUITE 200",
    "city": "SAN MARCOS",
    "zip": "92069",
    "county": "SAN DIEGO",
    "phone": "(619) 642-1310",
    "lat": 33.13908,
    "lng": -117.1587645
  },
  {
    "id": "090001342",
    "name": "MOUNTAIN SHADOWS COMMUNITY HOMES - ELM",
    "npi": "1003931262",
    "hcaiId": null,
    "businessName": "MOUNTAIN SHADOWS SUPPORT GROUP",
    "contactEmail": "SSULLIVAN@MTNSHADOWS.ORG",
    "categoryName": "INTERMEDIATE CARE FACILITY-DD/H/N/CN/IID",
    "categoryCode": "ICFDDH",
    "licenseStatus": "ACTIVE",
    "inService": true,
    "licenseNumber": "090000547",
    "licenseEffectiveDate": "12/09/2024",
    "licenseExpirationDate": "12/08/2025",
    "dataDate": "10/18/2025",
    "capacity": 6,
    "address": "600 ROSE CT",
    "city": "SAN MARCOS",
    "zip": "92069",
    "county": "SAN DIEGO",
    "phone": "(760) 743-3714",
    "lat": 33.158484,
    "lng": -117.155142
  },
  {
    "id": "630015373",
    "name": "MOUNTAIN SHADOWS COMMUNITY HOMES - FIG",
    "npi": "1992107221",
    "hcaiId": null,
    "businessName": "MOUNTAIN SHADOWS SUPPORT GROUP",
    "contactEmail": "TAYLOR.RENDON@YAHOO.COM",
    "categoryName": "INTERMEDIATE CARE FACILITY-DD/H/N/CN/IID",
    "categoryCode": "ICFDDH",
    "licenseStatus": "ACTIVE",
    "inService": true,
    "licenseNumber": "550003036",
    "licenseEffectiveDate": "04/07/2025",
    "licenseExpirationDate": "04/06/2026",
    "dataDate": "10/18/2025",
    "capacity": 6,
    "address": "689 DANE DR",
    "city": "SAN MARCOS",
    "zip": "92069",
    "county": "SAN DIEGO",
    "phone": "(442) 202-5008",
    "lat": 33.155478,
    "lng": -117.152154
  },
  {
    "id": "090001340",
    "name": "MOUNTAIN SHADOWS COMMUNITY HOMES - OAK",
    "npi": "1235254582",
    "hcaiId": null,
    "businessName": "MOUNTAIN SHADOWS SUPPORT GROUP",
    "contactEmail": "PATRICIALECHUGA3619@GMAIL.COM",
    "categoryName": "INTERMEDIATE CARE FACILITY-DD/H/N/CN/IID",
    "categoryCode": "ICFDDH",
    "licenseStatus": "ACTIVE",
    "inService": true,
    "licenseNumber": "090000546",
    "licenseEffectiveDate": "12/09/2024",
    "licenseExpirationDate": "12/08/2025",
    "dataDate": "10/18/2025",
    "capacity": 6,
    "address": "866 VIKING LN",
    "city": "SAN MARCOS",
    "zip": "92069",
    "county": "SAN DIEGO",
    "phone": "(760) 743-3714",
    "lat": 33.156729,
    "lng": -117.1501515
  },
  {
    "id": "630027536",
    "name": "NEIGHBORHOOD HEALTHCARE - MOBILE DENTAL HEALTH SERVICES #2",
    "npi": null,
    "hcaiId": null,
    "businessName": "NEIGHBORHOOD HEALTHCARE",
    "contactEmail": null,
    "categoryName": "PRIMARY CARE CLINIC",
    "categoryCode": "COMTYC",
    "licenseStatus": "ACTIVE",
    "inService": true,
    "licenseNumber": "080000657",
    "licenseEffectiveDate": "01/29/2025",
    "licenseExpirationDate": "01/28/2026",
    "dataDate": "10/18/2025",
    "capacity": 0,
    "address": "1510 E MISSION RD, SPACE RV035",
    "city": "SAN MARCOS",
    "zip": "92069",
    "county": "SAN DIEGO",
    "phone": null,
    "lat": 33.13294199,
    "lng": -117.125362
  },
  {
    "id": "630027430",
    "name": "NEIGHBORHOOD HEALTHCARE- MOBILE SCHOOL- BASED HEALTH CENTER",
    "npi": null,
    "hcaiId": null,
    "businessName": "NEIGHBORHOOD HEALTHCARE",
    "contactEmail": "WENDI.VIERRA@NHCARE.ORG",
    "categoryName": "PRIMARY CARE CLINIC",
    "categoryCode": "COMTYC",
    "licenseStatus": "ACTIVE",
    "inService": true,
    "licenseNumber": "080000657",
    "licenseEffectiveDate": "01/29/2025",
    "licenseExpirationDate": "01/28/2026",
    "dataDate": "10/18/2025",
    "capacity": 0,
    "address": "1510 E MISSION RD, ROOM RV035",
    "city": "SAN MARCOS",
    "zip": "92069",
    "county": "SAN DIEGO",
    "phone": "(833) 867-4642",
    "lat": 33.13294199,
    "lng": -117.125362
  },
  {
    "id": "630026867",
    "name": "NEIGHBORHOOD HEALTHCARE- SAN MARCOS",
    "npi": null,
    "hcaiId": null,
    "businessName": "NEIGHBORHOOD HEALTHCARE",
    "contactEmail": null,
    "categoryName": "PRIMARY CARE CLINIC",
    "categoryCode": "COMTYC",
    "licenseStatus": "ACTIVE",
    "inService": true,
    "licenseNumber": "080000397",
    "licenseEffectiveDate": "12/09/2024",
    "licenseExpirationDate": "12/08/2025",
    "dataDate": "10/18/2025",
    "capacity": 0,
    "address": "2085 MONTIEL RD, SUITE 102",
    "city": "SAN MARCOS",
    "zip": "92069",
    "county": "SAN DIEGO",
    "phone": null,
    "lat": 33.131583,
    "lng": -117.118701
  },
  {
    "id": "630016736",
    "name": "NORTH COUNTY DENTAL SURGERY CENTER",
    "npi": "1659768802",
    "hcaiId": null,
    "businessName": null,
    "contactEmail": null,
    "categoryName": "SURGICAL CLINIC",
    "categoryCode": "ASC",
    "licenseStatus": null,
    "inService": null,
    "licenseNumber": null,
    "licenseEffectiveDate": null,
    "licenseExpirationDate": null,
    "dataDate": "10/18/2025",
    "capacity": 0,
    "address": "838 NORDAHL ROAD, SUITE 125",
    "city": "SAN MARCOS",
    "zip": "92069",
    "county": "SAN DIEGO",
    "phone": null,
    "lat": 33.135408,
    "lng": -117.11844
  },
  {
    "id": "630012054",
    "name": "SAN MARCOS DIALYSIS CENTER",
    "npi": "1255506036",
    "hcaiId": "306374425",
    "businessName": "SAN MARCOS DIALYSIS LLC",
    "contactEmail": "CAL_C@DAVITA.COM",
    "categoryName": "CHRONIC DIALYSIS CLINIC",
    "categoryCode": "ESRD/CDC",
    "licenseStatus": "ACTIVE",
    "inService": true,
    "licenseNumber": "550000991",
    "licenseEffectiveDate": "04/22/2025",
    "licenseExpirationDate": "04/21/2026",
    "dataDate": "10/18/2025",
    "capacity": 20,
    "address": "2135 MONTIEL RD, BUILDING B",
    "city": "SAN MARCOS",
    "zip": "92069",
    "county": "SAN DIEGO",
    "phone": "(760) 975-0170",
    "lat": 33.131115,
    "lng": -117.117765
  },
  {
    "id": "080000238",
    "name": "TRUECARE",
    "npi": "1245246917",
    "hcaiId": "306371576",
    "businessName": "NORTH COUNTY HEALTH PROJECT, INC.",
    "contactEmail": "LICENSING@TRUECARE.ORG",
    "categoryName": "PRIMARY CARE CLINIC",
    "categoryCode": "COMTYC",
    "licenseStatus": "ACTIVE",
    "inService": true,
    "licenseNumber": "080000167",
    "licenseEffectiveDate": "11/01/2025",
    "licenseExpirationDate": "10/31/2026",
    "dataDate": "10/18/2025",
    "capacity": 0,
    "address": "150 VALPREDA RD",
    "city": "SAN MARCOS",
    "zip": "92069",
    "county": "SAN DIEGO",
    "phone": "(760) 736-6767",
    "lat": 33.140412,
    "lng": -117.156969
  },
  {
    "id": "630026408",
    "name": "TRUECARE",
    "npi": "1245246917",
    "hcaiId": null,
    "businessName": "NORTH COUNTY HEALTH PROJECT, INC.",
    "contactEmail": null,
    "categoryName": "PRIMARY CARE CLINIC",
    "categoryCode": "COMTYC",
    "licenseStatus": "ACTIVE",
    "inService": true,
    "licenseNumber": "080000167",
    "licenseEffectiveDate": "11/01/2025",
    "licenseExpirationDate": "10/31/2026",
    "dataDate": "10/18/2025",
    "capacity": 0,
    "address": "325 BUENA CREEK RD, BUILDING A",
    "city": "SAN MARCOS",
    "zip": "92069",
    "county": "SAN DIEGO",
    "phone": null,
    "lat": 33.182523,
    "lng": -117.1600695
  },
  {
    "id": "630028224",
    "name": "TRUECARE",
    "npi": null,
    "hcaiId": null,
    "businessName": "NORTH COUNTY HEALTH PROJECT, INC.",
    "contactEmail": null,
    "categoryName": "PRIMARY CARE CLINIC",
    "categoryCode": "COMTYC",
    "licenseStatus": "ACTIVE",
    "inService": true,
    "licenseNumber": "080000240",
    "licenseEffectiveDate": "11/06/2025",
    "licenseExpirationDate": "11/05/2026",
    "dataDate": "10/18/2025",
    "capacity": 0,
    "address": "309 RICHMAR AVE, SUITE 101/102",
    "city": "SAN MARCOS",
    "zip": "92069",
    "county": "SAN DIEGO",
    "phone": null,
    "lat": 33.1440737,
    "lng": -117.1675969
  },
  {
    "id": "630026648",
    "name": "TRUECARE (MOBILE UNIT)",
    "npi": null,
    "hcaiId": null,
    "businessName": "NORTH COUNTY HEALTH PROJECT, INC.",
    "contactEmail": "IRENE.TORRES@TRUECARE.ORG",
    "categoryName": "PRIMARY CARE CLINIC",
    "categoryCode": "COMTYC",
    "licenseStatus": "ACTIVE",
    "inService": true,
    "licenseNumber": "080000167",
    "licenseEffectiveDate": "11/01/2025",
    "licenseExpirationDate": "10/31/2026",
    "dataDate": "10/18/2025",
    "capacity": 0,
    "address": "150 VALPREDA RD",
    "city": "SAN MARCOS",
    "zip": "92069",
    "county": "SAN DIEGO",
    "phone": "(760) 566-1722",
    "lat": 33.140412,
    "lng": -117.156969
  },
  {
    "id": "630026969",
    "name": "TRUECARE (MOBILE UNIT)",
    "npi": null,
    "hcaiId": null,
    "businessName": "NORTH COUNTY HEALTH PROJECT, INC.",
    "contactEmail": null,
    "categoryName": "PRIMARY CARE CLINIC",
    "categoryCode": "COMTYC",
    "licenseStatus": "ACTIVE",
    "inService": true,
    "licenseNumber": "080000167",
    "licenseEffectiveDate": "11/01/2025",
    "licenseExpirationDate": "10/31/2026",
    "dataDate": "10/18/2025",
    "capacity": 0,
    "address": "150 VALPREDA RD",
    "city": "SAN MARCOS",
    "zip": "92069",
    "county": "SAN DIEGO",
    "phone": null,
    "lat": 33.140412,
    "lng": -117.156969
  },
  {
    "id": "630018434",
    "name": "TRUECARE MOBILE UNIT",
    "npi": "1245246917",
    "hcaiId": null,
    "businessName": "NORTH COUNTY HEALTH PROJECT, INC.",
    "contactEmail": null,
    "categoryName": "PRIMARY CARE CLINIC",
    "categoryCode": "COMTYC",
    "licenseStatus": "ACTIVE",
    "inService": true,
    "licenseNumber": "080000167",
    "licenseEffectiveDate": "11/01/2025",
    "licenseExpirationDate": "10/31/2026",
    "dataDate": "10/18/2025",
    "capacity": 0,
    "address": "150 VALPREDA RD",
    "city": "SAN MARCOS",
    "zip": "92069",
    "county": "SAN DIEGO",
    "phone": null,
    "lat": 33.140412,
    "lng": -117.156969
  },
  {
    "id": "630018432",
    "name": "TRUECARE MOBILE UNIT 2",
    "npi": "1245246917",
    "hcaiId": null,
    "businessName": "NORTH COUNTY HEALTH PROJECT, INC.",
    "contactEmail": null,
    "categoryName": "PRIMARY CARE CLINIC",
    "categoryCode": "COMTYC",
    "licenseStatus": "ACTIVE",
    "inService": true,
    "licenseNumber": "080000167",
    "licenseEffectiveDate": "11/01/2025",
    "licenseExpirationDate": "10/31/2026",
    "dataDate": "10/18/2025",
    "capacity": 0,
    "address": "150 VALPREDA RD",
    "city": "SAN MARCOS",
    "zip": "92069",
    "county": "SAN DIEGO",
    "phone": null,
    "lat": 33.140412,
    "lng": -117.156969
  }
]