[
  {
    "id": "080001048",
    "name": "ACCENTCARE HOME HEALTH OF CA - SAN MARCOS",
    "npi": "1376583617",
    "hcaiId": "406374362",
    "businessName": "ACCENTCARE HOME HEALTH OF CALIFORNIA, INC.",
    "contactEmail": null,
    "categoryName": "HOME HEALTH AGENCY",
    "categoryCode": "HHA",
    "licenseStatus": "ACTIVE",
    "inService": true,
    "licenseNumber": "080000226",
    "licenseEffectiveDate": "03/23/2025",
    "licenseExpirationDate": "03/22/2026",
    "dataDate": "10/18/2025",
    "capacity": 0,
    "address": "365 S RANCHO SANTA FE RD",
    "city": "SAN MARCOS",
    "zip": "92078",
    "county": "SAN DIEGO",
    "phone": "(760) 504-0183",
    "lat": 33.14142,
    "lng": -117.20223
  },
  {
    "id": "630026383",
    "name": "BIRTH CHOICE OF SAN MARCOS",
    "npi": null,
    "hcaiId": "306370799",
    "businessName": "BIRTH CHOICE OF SAN MARCOS",
    "contactEmail": "BSCHUMAN@BIRTHCHOICE.NET",
    "categoryName": "PRIMARY CARE CLINIC",
    "categoryCode": "FREEC",
    "licenseStatus": "ACTIVE",
    "inService": true,
    "licenseNumber": "550008228",
    "licenseEffectiveDate": "11/22/2024",
    "licenseExpirationDate": "11/21/2025",
    "dataDate": "10/18/2025",
    "capacity": 0,
    "address": "365 S RANCHO SANTA FE RD, SUITE 201",
    "city": "SAN MARCOS",
    "zip": "92078",
    "county": "SAN DIEGO",
    "phone": "(760) 374-8786",
    "lat": 33.14142,
    "lng": -117.20223
  },
  {
    "id": "630017882",
    "name": "CALIFORNIA PEDIATRICS",
    "npi": null,
    "hcaiId": null,
    "businessName": null,
    "contactEmail": null,
    "categoryName": "PRIMARY CARE CLINIC",
    "categoryCode": "COMTYC",
    "licenseStatus": null,
    "inService": null,
    "licenseNumber": null,
    "licenseEffectiveDate": null,
    "licenseExpirationDate": null,
    "dataDate": "10/18/2025",
    "capacity": 0,
    "address": "1595 GRAND AVE, SUITE 102",
    "city": "SAN MARCOS",
    "zip": "92078",
    "county": "SAN DIEGO",
    "phone": null,
    "lat": 33.144831,
    "lng": -117.198522
  },
  {
    "id": "090001019",
    "name": "CARLO HOUSE",
    "npi": "1962488007",
    "hcaiId": null,
    "businessName": "T.E.R.I., INC.",
    "contactEmail": "REPRESENTATIVE@TERIINC.ORG",
    "categoryName": "INTERMEDIATE CARE FACILITY-DD/H/N/CN/IID",
    "categoryCode": "ICFDDH",
    "licenseStatus": "ACTIVE",
    "inService": true,
    "licenseNumber": "090000416",
    "licenseEffectiveDate": "01/07/2025",
    "licenseExpirationDate": "01/06/2026",
    "dataDate": "10/18/2025",
    "capacity": 6,
    "address": "411 CARLO ST",
    "city": "SAN MARCOS",
    "zip": "92078",
    "county": "SAN DIEGO",
    "phone": "(760) 721-1706",
    "lat": 33.149178,
    "lng": -117.204966
  },
  {
    "id": "630017943",
    "name": "GARY AND MARY WEST SENIOR SERVICES, INC.",
    "npi": null,
    "hcaiId": "306370543",
    "businessName": "GARY AND MARY WEST SENIOR SERVICES, INC.",
    "contactEmail": "ERAMOS@WESTPACE.ORG",
    "categoryName": "PRIMARY CARE CLINIC",
    "categoryCode": "COMTYC",
    "licenseStatus": "ACTIVE",
    "inService": true,
    "licenseNumber": "550004839",
    "licenseEffectiveDate": "07/26/2025",
    "licenseExpirationDate": "07/25/2026",
    "dataDate": "10/18/2025",
    "capacity": 0,
    "address": "1706 DESCANSO AVE",
    "city": "SAN MARCOS",
    "zip": "92078",
    "county": "SAN DIEGO",
    "phone": "(760) 280-2230",
    "lat": 33.149889,
    "lng": -117.199323
  },
  {
    "id": "630017947",
    "name": "GARY AND MARY WEST SENIOR SERVICES. INC",
    "npi": null,
    "hcaiId": null,
    "businessName": "GARY AND MARY WEST SENIOR SERVICES, INC.",
    "contactEmail": "ERAMOS@WESTPACE.ORG",
    "categoryName": "ADULT DAY HEALTH CARE",
    "categoryCode": "ADHC",
    "licenseStatus": "ACTIVE",
    "inService": true,
    "licenseNumber": "550004930",
    "licenseEffectiveDate": "07/26/2025",
    "licenseExpirationDate": "07/25/2026",
    "dataDate": "10/18/2025",
    "capacity": 0,
    "address": "1706 DESCANSO AVE",
    "city": "SAN MARCOS",
    "zip": "92078",
    "county": "SAN DIEGO",
    "phone": "(619) 577-0887",
    "lat": 33.149889,
    "lng": -117.199323
  },
  {
    "id": "630027120",
    "name": "KAISER FOUNDATION HOSPITAL - SAN MARCOS",
    "npi": "1558080861",
    "hcaiId": "106370028",
    "businessName": "KAISER FOUNDATION HOSPITALS",
    "contactEmail": "KIM.M.KURTH@KP.ORG",
    "categoryName": "GENERAL ACUTE CARE HOSPITAL",
    "categoryCode": "GACH",
    "licenseStatus": "ACTIVE",
    "inService": true,
    "licenseNumber": "550008664",
    "licenseEffectiveDate": "07/13/2025",
    "licenseExpirationDate": "07/12/2026",
    "dataDate": "10/18/2025",
    "capacity": 168,
    "address": "360 RUSH DR",
    "city": "SAN MARCOS",
    "zip": "92078",
    "county": "SAN DIEGO",
    "phone": "(619) 528-6295",
    "lat": 33.1300313,
    "lng": -117.1678698
  },
  {
    "id": "630019086",
    "name": "LIVING STONES HOSPICE CARE LLC",
    "npi": null,
    "hcaiId": "406303230",
    "businessName": "LIVING STONES HOSPICE CARE LLC",
    "contactEmail": "STEPHANIE.FERRATT@ACACIAHEALTH.NET",
    "categoryName": "HOSPICE",
    "categoryCode": "HOSPICE",
    "licenseStatus": "ACTIVE",
    "inService": true,
    "licenseNumber": "550006248",
    "licenseEffectiveDate": "03/16/2025",
    "licenseExpirationDate": "03/15/2027",
    "dataDate": "10/18/2025",
    "capacity": 0,
    "address": "960 W SAN MARCOS BLVD, SUITE 220",
    "city": "SAN MARCOS",
    "zip": "92078",
    "county": "SAN DIEGO",
    "phone": "(760) 898-4308",
    "lat": 33.13539701,
    "lng": -117.187063
  },
  {
    "id": "630020393",
    "name": "PALOMAR HEALTH PALLIATIVE & HOSPICE CARE",
    "npi": null,
    "hcaiId": "406373781",
    "businessName": "CIRCLE OF CARE HOSPICE, LLC",
    "contactEmail": "DWALIA@PALOMARPH.ORG",
    "categoryName": "HOSPICE",
    "categoryCode": "HOSPICE",
    "licenseStatus": "ACTIVE",
    "inService": true,
    "licenseNumber": "550006043",
    "licenseEffectiveDate": "02/10/2025",
    "licenseExpirationDate": "02/09/2027",
    "dataDate": "10/18/2025",
    "capacity": 0,
    "address": "365 S RANCHO SANTA FE RD, SUITE 104",
    "city": "SAN MARCOS",
    "zip": "92078",
    "county": "SAN DIEGO",
    "phone": "(310) 422-5484",
    "lat": 33.14142,
    "lng": -117.20223
  },
  {
    "id": "630026611",
    "name": "TRUECARE",
    "npi": null,
    "hcaiId": null,
    "businessName": "NORTH COUNTY HEALTH PROJECT, INC.",
    "contactEmail": null,
    "categoryName": "PRIMARY CARE CLINIC",
    "categoryCode": "COMTYC",
    "licenseStatus": "ACTIVE",
    "inService": true,
    "licenseNumber": "080000167",
    "licenseEffectiveDate": "11/01/2025",
    "licenseExpirationDate": "10/31/2026",
    "dataDate": "10/18/2025",
    "capacity": 0,
    "address": "1595 GRAND AVE, SUITE 106",
    "city": "SAN MARCOS",
    "zip": "92078",
    "county": "SAN DIEGO",
    "phone": null,
    "lat": 33.144831,
    "lng": -117.198531
  },
  {
    "id": "630026988",
    "name": "TRUECARE",
    "npi": "1245246917",
    "hcaiId": null,
    "businessName": "NORTH COUNTY HEALTH PROJECT, INC.",
    "contactEmail": null,
    "categoryName": "PRIMARY CARE CLINIC",
    "categoryCode": "COMTYC",
    "licenseStatus": "ACTIVE",
    "inService": true,
    "licenseNumber": "080000167",
    "licenseEffectiveDate": "11/01/2025",
    "licenseExpirationDate": "10/31/2026",
    "dataDate": "10/18/2025",
    "capacity": 0,
    "address": "1595 GRAND AVE, SUITE 100",
    "city": "SAN MARCOS",
    "zip": "92078",
    "county": "SAN DIEGO",
    "phone": null,
    "lat": 33.144831,
    "lng": -117.198531
  },
  {
    "id": "630028040",
    "name": "TRUECARE",
    "npi": null,
    "hcaiId": null,
    "businessName": "NORTH COUNTY HEALTH PROJECT, INC.",
    "contactEmail": "LICENSING@TRUECARE.ORG",
    "categoryName": "PRIMARY CARE CLINIC",
    "categoryCode": "FQHC/COMTYC",
    "licenseStatus": "ACTIVE",
    "inService": true,
    "licenseNumber": "550009740",
    "licenseEffectiveDate": "04/08/2025",
    "licenseExpirationDate": "04/07/2026",
    "dataDate": "10/18/2025",
    "capacity": 0,
    "address": "295 S RANCHO SANTA FE RD",
    "city": "SAN MARCOS",
    "zip": "92078",
    "county": "SAN DIEGO",
    "phone": "(760) 736-6767",
    "lat": 33.14328098,
    "lng": -117.201398
  },
  {
    "id": "080000801",
    "name": "VILLAGE SQUARE HEALTHCARE CENTER",
    "npi": "1114392511",
    "hcaiId": "206374060",
    "businessName": "SAN MARCOS OPERATING COMPANY, LP",
    "contactEmail": "PHIL.PADILLA@MARINERHEALTHCARE.COM",
    "categoryName": "SKILLED NURSING FACILITY",
    "categoryCode": "SNF",
    "licenseStatus": "ACTIVE",
    "inService": true,
    "licenseNumber": "080000354",
    "licenseEffectiveDate": "10/14/2025",
    "licenseExpirationDate": "10/13/2026",
    "dataDate": "10/18/2025",
    "capacity": 118,
    "address": "1586 W SAN MARCOS BLVD",
    "city": "SAN MARCOS",
    "zip": "92078",
    "county": "SAN DIEGO",
    "phone": "(760) 471-2986",
    "lat": 33.132033,
    "lng": -117.203184
  },
  {
    "id": "630018411",
    "name": "WINDWARD HOME HEALTH",
    "npi": null,
    "hcaiId": "406374547",
    "businessName": "SHANAHAN & ASSOCIATES, INC.",
    "contactEmail": "CKENNEDY@WINDWARDHOMEHEALTH.COM",
    "categoryName": "HOME HEALTH AGENCY",
    "categoryCode": "HHA",
    "licenseStatus": "ACTIVE",
    "inService": true,
    "licenseNumber": "550004925",
    "licenseEffectiveDate": "08/19/2025",
    "licenseExpirationDate": "08/18/2026",
    "dataDate": "10/18/2025",
    "capacity": 0,
    "address": "1635 LAKE SAN MARCOS DR, SUITE 201-A",
    "city": "SAN MARCOS",
    "zip": "92078",
    "county": "SAN DIEGO",
    "phone": "(619) 450-4300",
    "lat": 33.125733,
    "lng": -117.211851
  }
]