[
  {
    "id": "090001030",
    "name": "CASTILLO VERDE",
    "npi": "1750343778",
    "hcaiId": null,
    "businessName": "HOME OF GUIDING HANDS CORPORATION",
    "contactEmail": "LAURIE@GUIDINGHANDS.ORG",
    "categoryName": "INTERMEDIATE CARE FACILITY-DD/H/N/CN/IID",
    "categoryCode": "ICFDDH",
    "licenseStatus": "ACTIVE",
    "inService": true,
    "licenseNumber": "090000421",
    "licenseEffectiveDate": "12/24/2024",
    "licenseExpirationDate": "12/23/2025",
    "dataDate": "10/18/2025",
    "capacity": 6,
    "address": "10835 GREENCASTLE ST",
    "city": "SANTEE",
    "zip": "92071",
    "county": "SAN DIEGO",
    "phone": "(619) 938-2850",
    "lat": 32.856822,
    "lng": -116.962983
  },
  {
    "id": "090000018",
    "name": "EDGEMOOR HOSPITAL DP/SNF",
    "npi": "1962556290",
    "hcaiId": "206374497",
    "businessName": "COUNTY OF SAN DIEGO",
    "contactEmail": "ERIN.CHANCLER@SDCOUNTY.CA.GOV",
    "categoryName": "SKILLED NURSING FACILITY",
    "categoryCode": "SNF",
    "licenseStatus": "ACTIVE",
    "inService": true,
    "licenseNumber": "090000092",
    "licenseEffectiveDate": "03/30/2025",
    "licenseExpirationDate": "03/29/2026",
    "dataDate": "10/18/2025",
    "capacity": 192,
    "address": "655 PARK CENTER DR",
    "city": "SANTEE",
    "zip": "92071",
    "county": "SAN DIEGO",
    "phone": "(619) 596-5500",
    "lat": 32.84091,
    "lng": -116.975997
  },
  {
    "id": "090001428",
    "name": "GERMON HOUSE",
    "npi": "1730141755",
    "hcaiId": null,
    "businessName": "HOME OF GUIDING HANDS CORPORATION",
    "contactEmail": "LAURIE@GUIDINGHANDS.ORG",
    "categoryName": "INTERMEDIATE CARE FACILITY-DD/H/N/CN/IID",
    "categoryCode": "ICFDDH",
    "licenseStatus": "ACTIVE",
    "inService": true,
    "licenseNumber": "090000596",
    "licenseEffectiveDate": "11/09/2025",
    "licenseExpirationDate": "11/08/2026",
    "dataDate": "10/18/2025",
    "capacity": 6,
    "address": "10315 EVERELL PL",
    "city": "SANTEE",
    "zip": "92071",
    "county": "SAN DIEGO",
    "phone": "(619) 938-2850",
    "lat": 32.864823,
    "lng": -116.9643465
  },
  {
    "id": "090001032",
    "name": "GREENCASTLE",
    "npi": "1649232661",
    "hcaiId": null,
    "businessName": "HOME OF GUIDING HANDS CORPORATION",
    "contactEmail": "LAURIE@GUIDINGHANDS.ORG",
    "categoryName": "INTERMEDIATE CARE FACILITY-DD/H/N/CN/IID",
    "categoryCode": "ICFDDH",
    "licenseStatus": "ACTIVE",
    "inService": true,
    "licenseNumber": "090000422",
    "licenseEffectiveDate": "12/31/2024",
    "licenseExpirationDate": "12/30/2025",
    "dataDate": "10/18/2025",
    "capacity": 6,
    "address": "10939 GREENCASTLE ST",
    "city": "SANTEE",
    "zip": "92071",
    "county": "SAN DIEGO",
    "phone": "(619) 938-2850",
    "lat": 32.856795,
    "lng": -116.9611965
  },
  {
    "id": "090000128",
    "name": "LETICIA GROUP HOME",
    "npi": "1336321165",
    "hcaiId": null,
    "businessName": "THE ARC OF SAN DIEGO",
    "contactEmail": "WBISHOP@ARC-SD.COM",
    "categoryName": "INTERMEDIATE CARE FACILITY-DD/H/N/CN/IID",
    "categoryCode": "ICFDDH",
    "licenseStatus": "ACTIVE",
    "inService": true,
    "licenseNumber": "090000203",
    "licenseEffectiveDate": "02/03/2025",
    "licenseExpirationDate": "02/02/2026",
    "dataDate": "10/18/2025",
    "capacity": 6,
    "address": "9235 TODOS SANTOS DR",
    "city": "SANTEE",
    "zip": "92071",
    "county": "SAN DIEGO",
    "phone": "(585) 410-5513",
    "lat": 32.826267,
    "lng": -116.997012
  },
  {
    "id": "090001316",
    "name": "MILLER HOME",
    "npi": "1316909336",
    "hcaiId": null,
    "businessName": "HOME OF GUIDING HANDS CORPORATION",
    "contactEmail": "LAURIE@GUIDINGHANDS.ORG",
    "categoryName": "INTERMEDIATE CARE FACILITY-DD/H/N/CN/IID",
    "categoryCode": "ICFDDH",
    "licenseStatus": "ACTIVE",
    "inService": true,
    "licenseNumber": "090000535",
    "licenseEffectiveDate": "02/23/2025",
    "licenseExpirationDate": "02/22/2026",
    "dataDate": "10/18/2025",
    "capacity": 6,
    "address": "10474 STRATHMORE DR",
    "city": "SANTEE",
    "zip": "92071",
    "county": "SAN DIEGO",
    "phone": "(619) 938-2850",
    "lat": 32.869746,
    "lng": -117.003555
  },
  {
    "id": "090000140",
    "name": "PRYOR STREET GROUP HOME",
    "npi": "1801012927",
    "hcaiId": null,
    "businessName": "THE ARC OF SAN DIEGO",
    "contactEmail": "KCLARK@ARC-SD.COM",
    "categoryName": "INTERMEDIATE CARE FACILITY-DD/H/N/CN/IID",
    "categoryCode": "ICFDDH",
    "licenseStatus": "ACTIVE",
    "inService": true,
    "licenseNumber": "090000245",
    "licenseEffectiveDate": "02/04/2025",
    "licenseExpirationDate": "02/03/2026",
    "dataDate": "10/18/2025",
    "capacity": 6,
    "address": "9415 PRYOR DR",
    "city": "SANTEE",
    "zip": "92071",
    "county": "SAN DIEGO",
    "phone": "(619) 694-7711",
    "lat": 32.830623,
    "lng": -116.992476
  },
  {
    "id": "090001512",
    "name": "RAY HOUSE",
    "npi": "1669434684",
    "hcaiId": null,
    "businessName": "HOME OF GUIDING HANDS CORPORATION",
    "contactEmail": "LAURIE@GUIDINGHANDS.ORG",
    "categoryName": "INTERMEDIATE CARE FACILITY-DD/H/N/CN/IID",
    "categoryCode": "ICFDDH",
    "licenseStatus": "ACTIVE",
    "inService": true,
    "licenseNumber": "090000632",
    "licenseEffectiveDate": "06/24/2025",
    "licenseExpirationDate": "06/23/2026",
    "dataDate": "10/18/2025",
    "capacity": 6,
    "address": "8318 RUMSON DR",
    "city": "SANTEE",
    "zip": "92071",
    "county": "SAN DIEGO",
    "phone": "(619) 938-2850",
    "lat": 32.84577,
    "lng": -117.022275
  },
  {
    "id": "090001556",
    "name": "REGINAS COURT",
    "npi": "1225092661",
    "hcaiId": null,
    "businessName": "HOME OF GUIDING HANDS CORPORATION",
    "contactEmail": "LAURIE@GUIDINGHANDS.ORG",
    "categoryName": "INTERMEDIATE CARE FACILITY-DD/H/N/CN/IID",
    "categoryCode": "ICFDDH",
    "licenseStatus": "ACTIVE",
    "inService": true,
    "licenseNumber": "090000653",
    "licenseEffectiveDate": "11/30/2024",
    "licenseExpirationDate": "11/29/2025",
    "dataDate": "10/18/2025",
    "capacity": 6,
    "address": "10436 REGINAS CT",
    "city": "SANTEE",
    "zip": "92071",
    "county": "SAN DIEGO",
    "phone": "(619) 938-2850",
    "lat": 32.853195,
    "lng": -116.969832
  },
  {
    "id": "630016613",
    "name": "SAN YSIDRO HEALTH SANTEE FAMILY MEDICINE",
    "npi": "1568845741",
    "hcaiId": "306374563",
    "businessName": "CENTRO DE SALUD DE LA COMUNIDAD DE SAN YSIDRO, INC.",
    "contactEmail": "LESLIE.RYAN@SYHEALTH.ORG",
    "categoryName": "PRIMARY CARE CLINIC",
    "categoryCode": "COMTYC",
    "licenseStatus": "ACTIVE",
    "inService": true,
    "licenseNumber": "550002514",
    "licenseEffectiveDate": "01/20/2025",
    "licenseExpirationDate": "01/19/2026",
    "dataDate": "10/18/2025",
    "capacity": 0,
    "address": "120 TOWN CENTER PARKWAY",
    "city": "SANTEE",
    "zip": "92071",
    "county": "SAN DIEGO",
    "phone": "(619) 445-6200",
    "lat": 32.840838,
    "lng": -116.989515
  },
  {
    "id": "090000218",
    "name": "SANTANA HOUSE",
    "npi": "1215119045",
    "hcaiId": null,
    "businessName": "THE ARC OF SAN DIEGO",
    "contactEmail": "NSOOMTHA@GMAIL.COM",
    "categoryName": "INTERMEDIATE CARE FACILITY-DD/H/N/CN/IID",
    "categoryCode": "ICFDDH",
    "licenseStatus": "ACTIVE",
    "inService": true,
    "licenseNumber": "090000208",
    "licenseEffectiveDate": "11/22/2024",
    "licenseExpirationDate": "11/21/2025",
    "dataDate": "10/18/2025",
    "capacity": 6,
    "address": "8513 ATLAS VIEW DR",
    "city": "SANTEE",
    "zip": "92071",
    "county": "SAN DIEGO",
    "phone": "(619) 694-7711",
    "lat": 32.828382,
    "lng": -116.992125
  },
  {
    "id": "080000617",
    "name": "STANFORD COURT SKILLED NURSING & REHAB CENTER",
    "npi": "1184628554",
    "hcaiId": "206374019",
    "businessName": "GHC OF SANTEE, LLC",
    "contactEmail": "JONAHEGBERT@LIFEGEN.NET",
    "categoryName": "SKILLED NURSING FACILITY",
    "categoryCode": "SNF",
    "licenseStatus": "ACTIVE",
    "inService": true,
    "licenseNumber": "080000299",
    "licenseEffectiveDate": "04/12/2025",
    "licenseExpirationDate": "04/11/2026",
    "dataDate": "10/18/2025",
    "capacity": 105,
    "address": "8778 CUYAMACA ST",
    "city": "SANTEE",
    "zip": "92071",
    "county": "SAN DIEGO",
    "phone": null,
    "lat": 32.834718,
    "lng": -116.98569
  }
]