[
  {
    "id": "090001592",
    "name": "AMBER HOME",
    "npi": "1497924823",
    "hcaiId": null,
    "businessName": "GREAT EXPECTATIONS SERVICES, INC.",
    "contactEmail": "AZINBAIRD.GES@GMAIL.COM",
    "categoryName": "INTERMEDIATE CARE FACILITY-DD/H/N/CN/IID",
    "categoryCode": "ICFDDH",
    "licenseStatus": "ACTIVE",
    "inService": true,
    "licenseNumber": "090000673",
    "licenseEffectiveDate": "04/28/2025",
    "licenseExpirationDate": "04/27/2026",
    "dataDate": "10/18/2025",
    "capacity": 6,
    "address": "305 CARLSON CT",
    "city": "VISTA",
    "zip": "92083",
    "county": "SAN DIEGO",
    "phone": "(714) 812-8684",
    "lat": 33.192549,
    "lng": -117.2868705
  },
  {
    "id": "630027618",
    "name": "COMPLETE CARE COMMUNITY HEALTH CENTER-VISTA",
    "npi": "1215113964",
    "hcaiId": null,
    "businessName": "COMPLETE CARE COMMUNITY HEALTH CENTER, INC.",
    "contactEmail": null,
    "categoryName": "PRIMARY CARE CLINIC",
    "categoryCode": "FQHC/COMTYC",
    "licenseStatus": "ACTIVE",
    "inService": true,
    "licenseNumber": "550000639",
    "licenseEffectiveDate": "12/10/2024",
    "licenseExpirationDate": "12/09/2025",
    "dataDate": "10/18/2025",
    "capacity": 0,
    "address": "2023 W VISTA WAY, SUITE J",
    "city": "VISTA",
    "zip": "92083",
    "county": "SAN DIEGO",
    "phone": null,
    "lat": 33.186708,
    "lng": -117.285321
  },
  {
    "id": "080000229",
    "name": "EYE SURGERY CENTER OF SOUTHERN CALIFORNIA, INC.",
    "npi": "1619926755",
    "hcaiId": "306374159",
    "businessName": null,
    "contactEmail": null,
    "categoryName": "SURGICAL CLINIC",
    "categoryCode": "ASC",
    "licenseStatus": "INACTIVE - CAPEN DECISION",
    "inService": false,
    "licenseNumber": "080000475",
    "licenseEffectiveDate": "11/18/2008",
    "licenseExpirationDate": "11/17/2009",
    "dataDate": "10/18/2025",
    "capacity": 0,
    "address": "2023 W VISTA WAY, SUITE E",
    "city": "VISTA",
    "zip": "92083",
    "county": "SAN DIEGO",
    "phone": "(760) 941-8152",
    "lat": 33.185826,
    "lng": -117.2852775
  },
  {
    "id": "630019545",
    "name": "HANNALEI ELEMENTARY SCHOOL",
    "npi": "1295822658",
    "hcaiId": null,
    "businessName": "VISTA COMMUNITY CLINIC",
    "contactEmail": null,
    "categoryName": "PRIMARY CARE CLINIC",
    "categoryCode": "COMTYC",
    "licenseStatus": "ACTIVE",
    "inService": true,
    "licenseNumber": "080000002",
    "licenseEffectiveDate": "01/29/2025",
    "licenseExpirationDate": "01/28/2026",
    "dataDate": "10/18/2025",
    "capacity": 0,
    "address": "120 HANNALEI DR, ROOM OFFICE 6",
    "city": "VISTA",
    "zip": "92083",
    "county": "SAN DIEGO",
    "phone": null,
    "lat": 33.178428,
    "lng": -117.216018
  },
  {
    "id": "630011528",
    "name": "HAYDEN HOME",
    "npi": "1245400670",
    "hcaiId": null,
    "businessName": "GREAT EXPECTATIONS SERVICES, INC.",
    "contactEmail": "AZINBAIRD@GMAIL.COM",
    "categoryName": "INTERMEDIATE CARE FACILITY-DD/H/N/CN/IID",
    "categoryCode": "ICFDDH",
    "licenseStatus": "ACTIVE",
    "inService": true,
    "licenseNumber": "550000625",
    "licenseEffectiveDate": "12/07/2024",
    "licenseExpirationDate": "12/06/2025",
    "dataDate": "10/18/2025",
    "capacity": 6,
    "address": "822 GRANADA DR",
    "city": "VISTA",
    "zip": "92083",
    "county": "SAN DIEGO",
    "phone": "(714) 812-8684",
    "lat": 33.20696838,
    "lng": -117.2703578
  },
  {
    "id": "630019546",
    "name": "MARYLAND ELEMENTARY SCHOOL",
    "npi": "1295822658",
    "hcaiId": null,
    "businessName": "VISTA COMMUNITY CLINIC",
    "contactEmail": null,
    "categoryName": "PRIMARY CARE CLINIC",
    "categoryCode": "COMTYC",
    "licenseStatus": "ACTIVE",
    "inService": true,
    "licenseNumber": "080000002",
    "licenseEffectiveDate": "01/29/2025",
    "licenseExpirationDate": "01/28/2026",
    "dataDate": "10/18/2025",
    "capacity": 0,
    "address": "700 NORTH AVE, ROOM CUME ROOM",
    "city": "VISTA",
    "zip": "92083",
    "county": "SAN DIEGO",
    "phone": null,
    "lat": 33.21550266,
    "lng": -117.2579768
  },
  {
    "id": "080001725",
    "name": "PAIN INTERVENTION THERAPY OF SAN DIEGO, INC.",
    "npi": null,
    "hcaiId": null,
    "businessName": null,
    "contactEmail": null,
    "categoryName": "OTHER",
    "categoryCode": "UNLICEN",
    "licenseStatus": null,
    "inService": null,
    "licenseNumber": null,
    "licenseEffectiveDate": null,
    "licenseExpirationDate": null,
    "dataDate": "10/18/2025",
    "capacity": 0,
    "address": "2023 W VISTA WAY, SUITE E",
    "city": "VISTA",
    "zip": "92083",
    "county": "SAN DIEGO",
    "phone": "(760) 000-0000",
    "lat": 33.185826,
    "lng": -117.2852775
  },
  {
    "id": "630025166",
    "name": "SAN YSIDRO HEALTH SAN DIEGO PACE VISTA",
    "npi": "1568845741",
    "hcaiId": null,
    "businessName": "CENTRO DE SALUD DE LA COMUNIDAD DE SAN YSIDRO, INC.",
    "contactEmail": null,
    "categoryName": "PRIMARY CARE CLINIC",
    "categoryCode": "COMTYC",
    "licenseStatus": "ACTIVE",
    "inService": true,
    "licenseNumber": "550002514",
    "licenseEffectiveDate": "01/20/2025",
    "licenseExpirationDate": "01/19/2026",
    "dataDate": "10/18/2025",
    "capacity": 0,
    "address": "1840 WEST DR",
    "city": "VISTA",
    "zip": "92083",
    "county": "SAN DIEGO",
    "phone": null,
    "lat": 33.19015868,
    "lng": -117.2808307
  },
  {
    "id": "630020992",
    "name": "SAN YSIDRO HEALTH W VISTA WAY",
    "npi": "1326225632",
    "hcaiId": null,
    "businessName": "CENTRO DE SALUD DE LA COMUNIDAD DE SAN YSIDRO, INC.",
    "contactEmail": "SHAMETT@SYHEALTH.ORG",
    "categoryName": "PRIMARY CARE CLINIC",
    "categoryCode": "COMTYC",
    "licenseStatus": "ACTIVE",
    "inService": true,
    "licenseNumber": "090000143",
    "licenseEffectiveDate": "11/25/2024",
    "licenseExpirationDate": "11/24/2025",
    "dataDate": "10/18/2025",
    "capacity": 0,
    "address": "2095 W VISTA WAY",
    "city": "VISTA",
    "zip": "92083",
    "county": "SAN DIEGO",
    "phone": "(619) 662-4141",
    "lat": 33.184746,
    "lng": -117.28782
  },
  {
    "id": "630017164",
    "name": "VCC: DURIAN",
    "npi": "1497203541",
    "hcaiId": null,
    "businessName": "VISTA COMMUNITY CLINIC",
    "contactEmail": "FERNANDO@VCC.CLINIC",
    "categoryName": "PRIMARY CARE CLINIC",
    "categoryCode": "COMTYC",
    "licenseStatus": "ACTIVE",
    "inService": true,
    "licenseNumber": "550003781",
    "licenseEffectiveDate": "02/06/2025",
    "licenseExpirationDate": "02/05/2026",
    "dataDate": "10/18/2025",
    "capacity": 0,
    "address": "105 DURIAN ST, SUITE A",
    "city": "VISTA",
    "zip": "92083",
    "county": "SAN DIEGO",
    "phone": "(760) 631-5000",
    "lat": 33.192576,
    "lng": -117.272367
  },
  {
    "id": "630026628",
    "name": "VCC: DURIAN SENIOR ADULT CARE",
    "npi": null,
    "hcaiId": null,
    "businessName": "VISTA COMMUNITY CLINIC",
    "contactEmail": null,
    "categoryName": "PRIMARY CARE CLINIC",
    "categoryCode": "COMTYC",
    "licenseStatus": "ACTIVE",
    "inService": true,
    "licenseNumber": "080000745",
    "licenseEffectiveDate": "11/16/2025",
    "licenseExpirationDate": "11/15/2026",
    "dataDate": "10/18/2025",
    "capacity": 0,
    "address": "105 DURIAN ST, SUITE B",
    "city": "VISTA",
    "zip": "92083",
    "county": "SAN DIEGO",
    "phone": null,
    "lat": 33.19243544,
    "lng": -117.2729441
  },
  {
    "id": "630028598",
    "name": "VCC: VISTA VILLAGE PEDIATRICS",
    "npi": null,
    "hcaiId": null,
    "businessName": "VISTA COMMUNITY CLINIC",
    "contactEmail": null,
    "categoryName": "PRIMARY CARE CLINIC",
    "categoryCode": "COMTYC",
    "licenseStatus": "ACTIVE",
    "inService": true,
    "licenseNumber": "550003781",
    "licenseEffectiveDate": "02/06/2025",
    "licenseExpirationDate": "02/05/2026",
    "dataDate": "10/18/2025",
    "capacity": 0,
    "address": "950 CIVIC CENTER DR",
    "city": "VISTA",
    "zip": "92083",
    "county": "SAN DIEGO",
    "phone": null,
    "lat": 33.1929621,
    "lng": -117.2346794
  },
  {
    "id": "080000725",
    "name": "VISTA COMMUNITY CLINIC - GRAPEVINE",
    "npi": "1851300123",
    "hcaiId": "306374031",
    "businessName": "VISTA COMMUNITY CLINIC",
    "contactEmail": "FERNANDO@VCC.ORG",
    "categoryName": "PRIMARY CARE CLINIC",
    "categoryCode": "FQHC/COMTYC",
    "licenseStatus": "ACTIVE",
    "inService": true,
    "licenseNumber": "080000328",
    "licenseEffectiveDate": "11/03/2025",
    "licenseExpirationDate": "11/02/2026",
    "dataDate": "10/18/2025",
    "capacity": 0,
    "address": "134 GRAPEVINE RD",
    "city": "VISTA",
    "zip": "92083",
    "county": "SAN DIEGO",
    "phone": "(760) 631-5000",
    "lat": 33.191415,
    "lng": -117.2754315
  },
  {
    "id": "630015626",
    "name": "VISTA HOSPICE CARE INC",
    "npi": null,
    "hcaiId": "406374555",
    "businessName": "VISTA HOSPICE CARE INC",
    "contactEmail": "VISTAHOSPICECARE310@GMAIL.COM",
    "categoryName": "HOSPICE",
    "categoryCode": "HOSPICE",
    "licenseStatus": "ACTIVE",
    "inService": true,
    "licenseNumber": "550003503",
    "licenseEffectiveDate": "04/27/2024",
    "licenseExpirationDate": "04/26/2026",
    "dataDate": "10/18/2025",
    "capacity": 0,
    "address": "550 W VISTA WAY, SUITE 310",
    "city": "VISTA",
    "zip": "92083",
    "county": "SAN DIEGO",
    "phone": "(760) 407-6425",
    "lat": 33.19561532,
    "lng": -117.2534621
  },
  {
    "id": "080000795",
    "name": "VISTA KNOLL SPECIALIZED CARE FACILITY",
    "npi": "1275533929",
    "hcaiId": "206374058",
    "businessName": "VISTA WOODS HEALTH ASSOCIATES LLC",
    "contactEmail": "CGARDNER@ENSIGNSERVICES.NET",
    "categoryName": "SKILLED NURSING FACILITY",
    "categoryCode": "SNF",
    "licenseStatus": "ACTIVE",
    "inService": true,
    "licenseNumber": "080000353",
    "licenseEffectiveDate": "11/01/2025",
    "licenseExpirationDate": "10/31/2026",
    "dataDate": "10/18/2025",
    "capacity": 119,
    "address": "2000 WESTWOOD RD",
    "city": "VISTA",
    "zip": "92083",
    "county": "SAN DIEGO",
    "phone": "(760) 630-2273",
    "lat": 33.191262,
    "lng": -117.286371
  },
  {
    "id": "080000099",
    "name": "VISTA VIEW POST ACUTE",
    "npi": "1811942063",
    "hcaiId": "206370790",
    "businessName": "VISTA SKILLED, LLC",
    "contactEmail": "ADMIN@VISTAVIEWPOSTACUTE.COM",
    "categoryName": "SKILLED NURSING FACILITY",
    "categoryCode": "SNF",
    "licenseStatus": "ACTIVE",
    "inService": true,
    "licenseNumber": "080000108",
    "licenseEffectiveDate": "12/16/2024",
    "licenseExpirationDate": "12/15/2025",
    "dataDate": "10/18/2025",
    "capacity": 176,
    "address": "304 N MELROSE DR",
    "city": "VISTA",
    "zip": "92083",
    "county": "SAN DIEGO",
    "phone": "(760) 724-8222",
    "lat": 33.200865,
    "lng": -117.256257
  }
]