[
  {
    "id": "630024732",
    "name": "ELGIN HOUSE",
    "npi": "1679249072",
    "hcaiId": null,
    "businessName": "T.E.R.I., INC.",
    "contactEmail": "DEANNB@TERIINC.ORG",
    "categoryName": "INTERMEDIATE CARE FACILITY-DD/H/N/CN/IID",
    "categoryCode": "ICFDDH",
    "licenseStatus": "ACTIVE",
    "inService": true,
    "licenseNumber": "550009710",
    "licenseEffectiveDate": "09/18/2025",
    "licenseExpirationDate": "03/17/2026",
    "dataDate": "10/18/2025",
    "capacity": 6,
    "address": "401 GLIN CT",
    "city": "VISTA",
    "zip": "92081",
    "county": "SAN DIEGO",
    "phone": "(760) 721-1706",
    "lat": 33.191334,
    "lng": -117.246033
  },
  {
    "id": "080001490",
    "name": "FRESENIUS MEDICAL CARE BUENA CREEK",
    "npi": "1336538404",
    "hcaiId": "306374413",
    "businessName": "FRESENIUS MEDICAL CARE NORTHCOAST, LLC",
    "contactEmail": "CLINIC9382@FMC-NA.COM",
    "categoryName": "CHRONIC DIALYSIS CLINIC",
    "categoryCode": "ESRD/CDC",
    "licenseStatus": "ACTIVE",
    "inService": true,
    "licenseNumber": "080000623",
    "licenseEffectiveDate": "02/01/2025",
    "licenseExpirationDate": "01/31/2026",
    "dataDate": "10/18/2025",
    "capacity": 20,
    "address": "950 HACIENDA DR",
    "city": "VISTA",
    "zip": "92081",
    "county": "SAN DIEGO",
    "phone": "(760) 631-7900",
    "lat": 33.193197,
    "lng": -117.262125
  },
  {
    "id": "630019271",
    "name": "GENTIVA",
    "npi": "1346241056",
    "hcaiId": "406370024",
    "businessName": "ODYSSEY HEALTHCARE OPERATING A, L.P.",
    "contactEmail": "GMCGEE@CUROHS.COM",
    "categoryName": "HOSPICE",
    "categoryCode": "HOSPICE",
    "licenseStatus": "ACTIVE",
    "inService": true,
    "licenseNumber": "080000595",
    "licenseEffectiveDate": "11/06/2023",
    "licenseExpirationDate": "11/05/2025",
    "dataDate": "10/18/2025",
    "capacity": 0,
    "address": "400 S MELROSE DR, SUITE 107",
    "city": "VISTA",
    "zip": "92081",
    "county": "SAN DIEGO",
    "phone": "(760) 208-1447",
    "lat": 33.190578,
    "lng": -117.252891
  },
  {
    "id": "630021118",
    "name": "GLORY HOSPICE",
    "npi": null,
    "hcaiId": "406373475",
    "businessName": "GLORY HEALTH NETWORK",
    "contactEmail": "COPELANDDNP@GMAIL.COM",
    "categoryName": "HOSPICE",
    "categoryCode": "HOSPICE",
    "licenseStatus": "ACTIVE",
    "inService": true,
    "licenseNumber": "550006722",
    "licenseEffectiveDate": "08/16/2025",
    "licenseExpirationDate": "08/15/2027",
    "dataDate": "10/18/2025",
    "capacity": 0,
    "address": "410 S MELROSE DR, SUITE 222",
    "city": "VISTA",
    "zip": "92081",
    "county": "SAN DIEGO",
    "phone": "(760) 545-2025",
    "lat": 33.19021562,
    "lng": -117.2538356
  },
  {
    "id": "090000093",
    "name": "GRACE HOUSE",
    "npi": "1962488007",
    "hcaiId": null,
    "businessName": "T.E.R.I., INC.",
    "contactEmail": "KIM.PRIDA@TERIINC.ORG",
    "categoryName": "INTERMEDIATE CARE FACILITY-DD/H/N/CN/IID",
    "categoryCode": "ICFDDH",
    "licenseStatus": "ACTIVE",
    "inService": true,
    "licenseNumber": "090000250",
    "licenseEffectiveDate": "04/28/2025",
    "licenseExpirationDate": "04/27/2026",
    "dataDate": "10/18/2025",
    "capacity": 6,
    "address": "2507 HIBISCUS AVE",
    "city": "VISTA",
    "zip": "92081",
    "county": "SAN DIEGO",
    "phone": "(760) 421-9899",
    "lat": 33.158286,
    "lng": -117.2195505
  },
  {
    "id": "630025849",
    "name": "HOME DIALYSIS THERAPIES OF SAN DIEGO",
    "npi": null,
    "hcaiId": null,
    "businessName": null,
    "contactEmail": "DENISE@HOMEDIALYSISTHERAPIES.COM",
    "categoryName": "CHRONIC DIALYSIS CLINIC",
    "categoryCode": "ESRD",
    "licenseStatus": null,
    "inService": null,
    "licenseNumber": null,
    "licenseEffectiveDate": null,
    "licenseExpirationDate": null,
    "dataDate": "10/18/2025",
    "capacity": 0,
    "address": "1948 VIA CTR",
    "city": "VISTA",
    "zip": "92081",
    "county": "SAN DIEGO",
    "phone": "(858) 549-3400",
    "lat": 33.183459,
    "lng": -117.282906
  },
  {
    "id": "090000993",
    "name": "MARSHALL HOUSE",
    "npi": "1962488007",
    "hcaiId": null,
    "businessName": "T.E.R.I., INC.",
    "contactEmail": "INFO@TERIINC.ORG",
    "categoryName": "INTERMEDIATE CARE FACILITY-DD/H/N/CN/IID",
    "categoryCode": "ICFDDH",
    "licenseStatus": "ACTIVE",
    "inService": true,
    "licenseNumber": "090000409",
    "licenseEffectiveDate": "11/01/2025",
    "licenseExpirationDate": "10/31/2026",
    "dataDate": "10/18/2025",
    "capacity": 6,
    "address": "758 S MELROSE DR",
    "city": "VISTA",
    "zip": "92081",
    "county": "SAN DIEGO",
    "phone": "(760) 721-1706",
    "lat": 33.183891,
    "lng": -117.251586
  },
  {
    "id": "080000260",
    "name": "PLANNED PARENTHOOD - ISABELLA CENTER",
    "npi": "1245257708",
    "hcaiId": "306374536",
    "businessName": "PLANNED PARENTHOOD OF THE PACIFIC SOUTHWEST",
    "contactEmail": "LMANN1@PLANNED.ORG",
    "categoryName": "PRIMARY CARE CLINIC",
    "categoryCode": "COMTYC",
    "licenseStatus": "ACTIVE",
    "inService": true,
    "licenseNumber": "080000224",
    "licenseEffectiveDate": "11/21/2025",
    "licenseExpirationDate": "11/20/2026",
    "dataDate": "10/18/2025",
    "capacity": 0,
    "address": "1964 VIA CENTRE DRIVE",
    "city": "VISTA",
    "zip": "92081",
    "county": "SAN DIEGO",
    "phone": "(619) 881-4500",
    "lat": 33.183783,
    "lng": -117.283788
  },
  {
    "id": "080001564",
    "name": "PREGNANCY RESOURCE CENTER",
    "npi": null,
    "hcaiId": "306374430",
    "businessName": "PREGNANCY RESOURCE CENTER",
    "contactEmail": "CEO@PRCVISTA.COM",
    "categoryName": "PRIMARY CARE CLINIC",
    "categoryCode": "COMTYC",
    "licenseStatus": "ACTIVE",
    "inService": true,
    "licenseNumber": "080000658",
    "licenseEffectiveDate": "11/19/2024",
    "licenseExpirationDate": "11/18/2025",
    "dataDate": "10/18/2025",
    "capacity": 0,
    "address": "1830 HACIENDA DR, SUITE 8",
    "city": "VISTA",
    "zip": "92081",
    "county": "SAN DIEGO",
    "phone": "(760) 945-4673",
    "lat": 33.185718,
    "lng": -117.2807145
  },
  {
    "id": "630025393",
    "name": "REVERENCE HOME HEALTH, INC.",
    "npi": null,
    "hcaiId": "406377966",
    "businessName": "REVERENCE HOME HEALTH, INC.",
    "contactEmail": "LIANA@REVERENCEHOMEHEALTH.COM",
    "categoryName": "HOME HEALTH AGENCY",
    "categoryCode": "HHA",
    "licenseStatus": "ACTIVE",
    "inService": true,
    "licenseNumber": "550008560",
    "licenseEffectiveDate": "06/06/2025",
    "licenseExpirationDate": "06/05/2026",
    "dataDate": "10/18/2025",
    "capacity": 0,
    "address": "380 S MELROSE DR, SUITE 352",
    "city": "VISTA",
    "zip": "92081",
    "county": "SAN DIEGO",
    "phone": "(818) 429-4688",
    "lat": 33.191073,
    "lng": -117.253044
  },
  {
    "id": "080001695",
    "name": "TOGETHER WE GROW",
    "npi": null,
    "hcaiId": null,
    "businessName": "TOGETHER WE GROW, INC.",
    "contactEmail": "TERRY@TOGETHERWEGROW.NET",
    "categoryName": "PEDIATRIC DAY HEALTH & RESPITE CARE FACILITY",
    "categoryCode": "PDHRCF",
    "licenseStatus": "ACTIVE",
    "inService": true,
    "licenseNumber": "080000750",
    "licenseEffectiveDate": "03/08/2025",
    "licenseExpirationDate": "03/07/2026",
    "dataDate": "10/18/2025",
    "capacity": 75,
    "address": "2120 THIBODO ROAD",
    "city": "VISTA",
    "zip": "92081",
    "county": "SAN DIEGO",
    "phone": "(619) 778-2940",
    "lat": 33.167583,
    "lng": -117.217791
  },
  {
    "id": "630015839",
    "name": "VCC: A+ MOBILE DENTAL CLINIC",
    "npi": "1295822658",
    "hcaiId": "306374532",
    "businessName": "VISTA COMMUNITY CLINIC",
    "contactEmail": "FERNANDO@VCC.ORG",
    "categoryName": "PRIMARY CARE CLINIC",
    "categoryCode": "COMTYC",
    "licenseStatus": "ACTIVE",
    "inService": true,
    "licenseNumber": "550003105",
    "licenseEffectiveDate": "05/21/2025",
    "licenseExpirationDate": "05/20/2026",
    "dataDate": "10/18/2025",
    "capacity": 0,
    "address": "465 LA TORTUGA DR",
    "city": "VISTA",
    "zip": "92081",
    "county": "SAN DIEGO",
    "phone": "(760) 631-5000",
    "lat": 33.19056447,
    "lng": -117.2591266
  },
  {
    "id": "630027711",
    "name": "VCC: MOBILE BEHAVIORAL HEALTH UNIT",
    "npi": null,
    "hcaiId": null,
    "businessName": "VISTA COMMUNITY CLINIC",
    "contactEmail": null,
    "categoryName": "PRIMARY CARE CLINIC",
    "categoryCode": "COMTYC",
    "licenseStatus": "ACTIVE",
    "inService": true,
    "licenseNumber": "080000002",
    "licenseEffectiveDate": "01/29/2025",
    "licenseExpirationDate": "01/28/2026",
    "dataDate": "10/18/2025",
    "capacity": 0,
    "address": "465 LA TORTUGA DR",
    "city": "VISTA",
    "zip": "92081",
    "county": "SAN DIEGO",
    "phone": null,
    "lat": 33.19058099,
    "lng": -117.259122
  },
  {
    "id": "630020701",
    "name": "VCC: MOBILE MEDICAL CLINIC",
    "npi": null,
    "hcaiId": "306370663",
    "businessName": "VISTA COMMUNITY CLINIC",
    "contactEmail": "FERNANDO@VCC.ORG",
    "categoryName": "PRIMARY CARE CLINIC",
    "categoryCode": "COMTYC",
    "licenseStatus": "ACTIVE",
    "inService": true,
    "licenseNumber": "550005986",
    "licenseEffectiveDate": "02/04/2025",
    "licenseExpirationDate": "02/03/2026",
    "dataDate": "10/18/2025",
    "capacity": 0,
    "address": "465 LA TORTUGA DR",
    "city": "VISTA",
    "zip": "92081",
    "county": "SAN DIEGO",
    "phone": "(760) 631-5000",
    "lat": 33.190524,
    "lng": -117.25902
  },
  {
    "id": "630026415",
    "name": "VCC: MOBILE WELLNESS UNIT",
    "npi": "1497203541",
    "hcaiId": null,
    "businessName": "VISTA COMMUNITY CLINIC",
    "contactEmail": "FERNANDO@VCC.ORG",
    "categoryName": "PRIMARY CARE CLINIC",
    "categoryCode": "COMTYC",
    "licenseStatus": "ACTIVE",
    "inService": true,
    "licenseNumber": "550003781",
    "licenseEffectiveDate": "02/06/2025",
    "licenseExpirationDate": "02/05/2026",
    "dataDate": "10/18/2025",
    "capacity": 0,
    "address": "465 LA TORTUGA DR",
    "city": "VISTA",
    "zip": "92081",
    "county": "SAN DIEGO",
    "phone": "(760) 631-5000",
    "lat": 33.190524,
    "lng": -117.25902
  }
]