[
  {
    "id": "090000120",
    "name": "ANZA HOUSE",
    "npi": "1962488007",
    "hcaiId": null,
    "businessName": "T.E.R.I., INC.",
    "contactEmail": "PAYABLES@TERIINC.ORG",
    "categoryName": "INTERMEDIATE CARE FACILITY-DD/H/N/CN/IID",
    "categoryCode": "ICFDDH",
    "licenseStatus": "ACTIVE",
    "inService": true,
    "licenseNumber": "090000209",
    "licenseEffectiveDate": "12/07/2024",
    "licenseExpirationDate": "12/06/2025",
    "dataDate": "10/18/2025",
    "capacity": 6,
    "address": "1736 ANZA AVE",
    "city": "VISTA",
    "zip": "92084",
    "county": "SAN DIEGO",
    "phone": "(760) 405-2884",
    "lat": 33.226137,
    "lng": -117.2337705
  },
  {
    "id": "630019548",
    "name": "FOOTHILL OAK ELEMENTARY SCHOOL",
    "npi": "1295822658",
    "hcaiId": null,
    "businessName": "VISTA COMMUNITY CLINIC",
    "contactEmail": null,
    "categoryName": "PRIMARY CARE CLINIC",
    "categoryCode": "COMTYC",
    "licenseStatus": "ACTIVE",
    "inService": true,
    "licenseNumber": "080000002",
    "licenseEffectiveDate": "01/29/2025",
    "licenseExpirationDate": "01/28/2026",
    "dataDate": "10/18/2025",
    "capacity": 0,
    "address": "1370 OAK DR, ROOM NEXT TO THE PRINCIPAL, MAIN OFFICE",
    "city": "VISTA",
    "zip": "92084",
    "county": "SAN DIEGO",
    "phone": null,
    "lat": 33.21793608,
    "lng": -117.2218759
  },
  {
    "id": "090000745",
    "name": "MONTGOMERY HOUSE",
    "npi": "1962488007",
    "hcaiId": null,
    "businessName": "T.E.R.I., INC.",
    "contactEmail": "INFO@TERIINC.ORG",
    "categoryName": "INTERMEDIATE CARE FACILITY-DD/H/N/CN/IID",
    "categoryCode": "ICFDDH",
    "licenseStatus": "ACTIVE",
    "inService": true,
    "licenseNumber": "090000336",
    "licenseEffectiveDate": "02/17/2025",
    "licenseExpirationDate": "02/16/2026",
    "dataDate": "10/18/2025",
    "capacity": 6,
    "address": "1658 MONTGOMERY DR",
    "city": "VISTA",
    "zip": "92084",
    "county": "SAN DIEGO",
    "phone": "(760) 721-1706",
    "lat": 33.181542,
    "lng": -117.213282
  },
  {
    "id": "090000771",
    "name": "ORIENTE HOUSE",
    "npi": "1962488007",
    "hcaiId": null,
    "businessName": "T.E.R.I., INC.",
    "contactEmail": "KIM.PRIDA@TERIINC.ORG",
    "categoryName": "INTERMEDIATE CARE FACILITY-DD/H/N/CN/IID",
    "categoryCode": "ICFDDH",
    "licenseStatus": "ACTIVE",
    "inService": true,
    "licenseNumber": "090000343",
    "licenseEffectiveDate": "06/28/2025",
    "licenseExpirationDate": "06/27/2026",
    "dataDate": "10/18/2025",
    "capacity": 6,
    "address": "3081 ORIENTE DR",
    "city": "VISTA",
    "zip": "92084",
    "county": "SAN DIEGO",
    "phone": "(760) 721-1706",
    "lat": 33.250356,
    "lng": -117.236124
  },
  {
    "id": "630019547",
    "name": "RANCHO MINERVA MIDDLE SCHOOL",
    "npi": "1295822658",
    "hcaiId": null,
    "businessName": "VISTA COMMUNITY CLINIC",
    "contactEmail": null,
    "categoryName": "PRIMARY CARE CLINIC",
    "categoryCode": "COMTYC",
    "licenseStatus": "ACTIVE",
    "inService": true,
    "licenseNumber": "080000002",
    "licenseEffectiveDate": "01/29/2025",
    "licenseExpirationDate": "01/28/2026",
    "dataDate": "10/18/2025",
    "capacity": 0,
    "address": "2245 FOOTHILL DR, ROOM AP OFFICE (VCC)",
    "city": "VISTA",
    "zip": "92084",
    "county": "SAN DIEGO",
    "phone": null,
    "lat": 33.20411651,
    "lng": -117.204981
  },
  {
    "id": "080000761",
    "name": "SANTA FE POST-ACUTE",
    "npi": "1366802696",
    "hcaiId": "206374043",
    "businessName": "SKILLED BOBIER LLC",
    "contactEmail": "CHAD@BAYSHIRE.COM",
    "categoryName": "SKILLED NURSING FACILITY",
    "categoryCode": "SNF",
    "licenseStatus": "ACTIVE",
    "inService": true,
    "licenseNumber": "080000339",
    "licenseEffectiveDate": "12/29/2024",
    "licenseExpirationDate": "12/28/2025",
    "dataDate": "10/18/2025",
    "capacity": 187,
    "address": "247 E BOBIER DR",
    "city": "VISTA",
    "zip": "92084",
    "county": "SAN DIEGO",
    "phone": "(760) 946-3033",
    "lat": 33.220422,
    "lng": -117.2420955
  },
  {
    "id": "630003961",
    "name": "SAVA HOME",
    "npi": "1962541177",
    "hcaiId": null,
    "businessName": "VILLADEL, INC.",
    "contactEmail": "HFDELEON@COX.NET",
    "categoryName": "INTERMEDIATE CARE FACILITY-DD/H/N/CN/IID",
    "categoryCode": "ICFDDN",
    "licenseStatus": "ACTIVE",
    "inService": true,
    "licenseNumber": "550000132",
    "licenseEffectiveDate": "03/10/2025",
    "licenseExpirationDate": "03/09/2026",
    "dataDate": "10/18/2025",
    "capacity": 6,
    "address": "263 AHMU TERRACE",
    "city": "VISTA",
    "zip": "92084",
    "county": "SAN DIEGO",
    "phone": "(760) 305-7052",
    "lat": 33.22953,
    "lng": -117.243549
  },
  {
    "id": "630013779",
    "name": "SUSAN PARHAM HOUSING CORPORATION",
    "npi": "1093137762",
    "hcaiId": null,
    "businessName": "T.E.R.I., INC.",
    "contactEmail": "KIM.PRIDA@TERIINC.ORG",
    "categoryName": "INTERMEDIATE CARE FACILITY-DD/H/N/CN/IID",
    "categoryCode": "ICFDDH",
    "licenseStatus": "ACTIVE",
    "inService": true,
    "licenseNumber": "550002324",
    "licenseEffectiveDate": "07/18/2025",
    "licenseExpirationDate": "07/17/2026",
    "dataDate": "10/18/2025",
    "capacity": 6,
    "address": "1658 ANZA AVE",
    "city": "VISTA",
    "zip": "92084",
    "county": "SAN DIEGO",
    "phone": "(760) 721-1706",
    "lat": 33.224787,
    "lng": -117.233811
  },
  {
    "id": "080000268",
    "name": "VISTA COMMUNITY CLINIC",
    "npi": "1295822658",
    "hcaiId": "306370856",
    "businessName": "VISTA COMMUNITY CLINIC",
    "contactEmail": "FERNANDO@VCC.ORG",
    "categoryName": "PRIMARY CARE CLINIC",
    "categoryCode": "COMTYC",
    "licenseStatus": "ACTIVE",
    "inService": true,
    "licenseNumber": "080000002",
    "licenseEffectiveDate": "01/29/2025",
    "licenseExpirationDate": "01/28/2026",
    "dataDate": "10/18/2025",
    "capacity": 0,
    "address": "1000 VALE TERRACE DR",
    "city": "VISTA",
    "zip": "92084",
    "county": "SAN DIEGO",
    "phone": "(760) 631-5000",
    "lat": 33.209595,
    "lng": -117.228699
  },
  {
    "id": "080000613",
    "name": "VISTA HEALTH CENTER - EXEMPT COMM. CLINIC",
    "npi": null,
    "hcaiId": null,
    "businessName": null,
    "contactEmail": null,
    "categoryName": "OTHER",
    "categoryCode": "UNLICEN",
    "licenseStatus": null,
    "inService": null,
    "licenseNumber": null,
    "licenseEffectiveDate": null,
    "licenseExpirationDate": null,
    "dataDate": "10/18/2025",
    "capacity": 0,
    "address": "1070 S SANTA FE AVE, SUITE 9",
    "city": "VISTA",
    "zip": "92084",
    "county": "SAN DIEGO",
    "phone": "(760) 941-7050",
    "lat": 33.191442,
    "lng": -117.2280825
  },
  {
    "id": "630019544",
    "name": "VISTA HIGH SCHOOL",
    "npi": "1295822658",
    "hcaiId": null,
    "businessName": "VISTA COMMUNITY CLINIC",
    "contactEmail": null,
    "categoryName": "PRIMARY CARE CLINIC",
    "categoryCode": "COMTYC",
    "licenseStatus": "ACTIVE",
    "inService": true,
    "licenseNumber": "080000002",
    "licenseEffectiveDate": "01/29/2025",
    "licenseExpirationDate": "01/28/2026",
    "dataDate": "10/18/2025",
    "capacity": 0,
    "address": "1 PANTHER WAY, ROOM D1",
    "city": "VISTA",
    "zip": "92084",
    "county": "SAN DIEGO",
    "phone": null,
    "lat": 33.224004,
    "lng": -117.2390805
  },
  {
    "id": "090000220",
    "name": "VISTA HOUSE",
    "npi": "1962488007",
    "hcaiId": null,
    "businessName": "T.E.R.I., INC.",
    "contactEmail": "KIM.PRIDA@TERIINC.ORG",
    "categoryName": "INTERMEDIATE CARE FACILITY-DD/H/N/CN/IID",
    "categoryCode": "ICFDDH",
    "licenseStatus": "ACTIVE",
    "inService": true,
    "licenseNumber": "090000249",
    "licenseEffectiveDate": "04/28/2025",
    "licenseExpirationDate": "04/27/2026",
    "dataDate": "10/18/2025",
    "capacity": 6,
    "address": "1768 MONTE MAR RD",
    "city": "VISTA",
    "zip": "92084",
    "county": "SAN DIEGO",
    "phone": "(760) 721-1706",
    "lat": 33.219765,
    "lng": -117.2109195
  }
]