[
  {
    "id": "630013295",
    "name": "AMREEN HOME",
    "npi": "1700160405",
    "hcaiId": null,
    "businessName": "AMREEN HOMES INC.",
    "contactEmail": "AMREENHOME65@GMAIL.COM",
    "categoryName": "INTERMEDIATE CARE FACILITY-DD/H/N/CN/IID",
    "categoryCode": "ICFDDH",
    "licenseStatus": "ACTIVE",
    "inService": true,
    "licenseNumber": "550002555",
    "licenseEffectiveDate": "02/03/2025",
    "licenseExpirationDate": "02/02/2026",
    "dataDate": "10/18/2025",
    "capacity": 6,
    "address": "13873 OAKWOOD GLEN PLACE",
    "city": "VALLEY CENTER",
    "zip": "92082",
    "county": "SAN DIEGO",
    "phone": "(760) 751-9879",
    "lat": 33.24312,
    "lng": -117.030393
  },
  {
    "id": "630019750",
    "name": "LILAC SCHOOL",
    "npi": null,
    "hcaiId": null,
    "businessName": "NEIGHBORHOOD HEALTHCARE",
    "contactEmail": null,
    "categoryName": "PRIMARY CARE CLINIC",
    "categoryCode": "COMTYC",
    "licenseStatus": "ACTIVE",
    "inService": true,
    "licenseNumber": "080000397",
    "licenseEffectiveDate": "12/09/2024",
    "licenseExpirationDate": "12/08/2025",
    "dataDate": "10/18/2025",
    "capacity": 0,
    "address": "30109 LILAC RD, ROOM NURSE'S OFFICE",
    "city": "VALLEY CENTER",
    "zip": "92082",
    "county": "SAN DIEGO",
    "phone": null,
    "lat": 33.257817,
    "lng": -117.0684135
  },
  {
    "id": "630020386",
    "name": "NEIGHBORHOOD HEALTHCARE- VALLEY CENTER",
    "npi": null,
    "hcaiId": null,
    "businessName": "NEIGHBORHOOD HEALTHCARE",
    "contactEmail": null,
    "categoryName": "PRIMARY CARE CLINIC",
    "categoryCode": "COMTYC",
    "licenseStatus": "ACTIVE",
    "inService": true,
    "licenseNumber": "080000397",
    "licenseEffectiveDate": "12/09/2024",
    "licenseExpirationDate": "12/08/2025",
    "dataDate": "10/18/2025",
    "capacity": 0,
    "address": "28477 LIZARD ROCKS RD",
    "city": "VALLEY CENTER",
    "zip": "92082",
    "county": "SAN DIEGO",
    "phone": null,
    "lat": 33.230655,
    "lng": -117.0212715
  },
  {
    "id": "630019748",
    "name": "RINCON HEAD START",
    "npi": null,
    "hcaiId": null,
    "businessName": "NEIGHBORHOOD HEALTHCARE",
    "contactEmail": null,
    "categoryName": "PRIMARY CARE CLINIC",
    "categoryCode": "COMTYC",
    "licenseStatus": "ACTIVE",
    "inService": true,
    "licenseNumber": "080000397",
    "licenseEffectiveDate": "12/09/2024",
    "licenseExpirationDate": "12/08/2025",
    "dataDate": "10/18/2025",
    "capacity": 0,
    "address": "33509 VALLEY CENTER RD, ROOM HOME BASE ROOM",
    "city": "VALLEY CENTER",
    "zip": "92082",
    "county": "SAN DIEGO",
    "phone": null,
    "lat": 33.256476,
    "lng": -116.9588745
  },
  {
    "id": "630019753",
    "name": "VALLEY CENTER ELEMENTARY SCHOOL",
    "npi": null,
    "hcaiId": null,
    "businessName": "NEIGHBORHOOD HEALTHCARE",
    "contactEmail": null,
    "categoryName": "PRIMARY CARE CLINIC",
    "categoryCode": "COMTYC",
    "licenseStatus": "ACTIVE",
    "inService": true,
    "licenseNumber": "080000397",
    "licenseEffectiveDate": "12/09/2024",
    "licenseExpirationDate": "12/08/2025",
    "dataDate": "10/18/2025",
    "capacity": 0,
    "address": "28751 COLE GRADE RD, ROOM NURSE'S OFFICE",
    "city": "VALLEY CENTER",
    "zip": "92082",
    "county": "SAN DIEGO",
    "phone": null,
    "lat": 33.236244,
    "lng": -117.020268
  },
  {
    "id": "630019744",
    "name": "VALLEY CENTER HIGH SCHOOL",
    "npi": null,
    "hcaiId": null,
    "businessName": "NEIGHBORHOOD HEALTHCARE",
    "contactEmail": null,
    "categoryName": "PRIMARY CARE CLINIC",
    "categoryCode": "COMTYC",
    "licenseStatus": "ACTIVE",
    "inService": true,
    "licenseNumber": "080000397",
    "licenseEffectiveDate": "12/09/2024",
    "licenseExpirationDate": "12/08/2025",
    "dataDate": "10/18/2025",
    "capacity": 0,
    "address": "31322 COLE GRADE RD, ROOM NURSE'S OFFICE",
    "city": "VALLEY CENTER",
    "zip": "92082",
    "county": "SAN DIEGO",
    "phone": null,
    "lat": 33.280299,
    "lng": -117.02466
  },
  {
    "id": "630019743",
    "name": "VALLEY CENTER MIDDLE SCHOOL",
    "npi": null,
    "hcaiId": null,
    "businessName": "NEIGHBORHOOD HEALTHCARE",
    "contactEmail": null,
    "categoryName": "PRIMARY CARE CLINIC",
    "categoryCode": "COMTYC",
    "licenseStatus": "ACTIVE",
    "inService": true,
    "licenseNumber": "080000397",
    "licenseEffectiveDate": "12/09/2024",
    "licenseExpirationDate": "12/08/2025",
    "dataDate": "10/18/2025",
    "capacity": 0,
    "address": "28102 N LAKE WOHLFORD RD, ROOM NURSE'S OFFICE",
    "city": "VALLEY CENTER",
    "zip": "92082",
    "county": "SAN DIEGO",
    "phone": null,
    "lat": 33.22430165,
    "lng": -116.9756574
  },
  {
    "id": "630019749",
    "name": "VALLEY CENTER PRIMARY SCHOOL",
    "npi": null,
    "hcaiId": null,
    "businessName": "NEIGHBORHOOD HEALTHCARE",
    "contactEmail": null,
    "categoryName": "PRIMARY CARE CLINIC",
    "categoryCode": "COMTYC",
    "licenseStatus": "ACTIVE",
    "inService": true,
    "licenseNumber": "080000397",
    "licenseEffectiveDate": "12/09/2024",
    "licenseExpirationDate": "12/08/2025",
    "dataDate": "10/18/2025",
    "capacity": 0,
    "address": "14249 FRUITVALE RD, ROOM NURSE'S OFFICE",
    "city": "VALLEY CENTER",
    "zip": "92082",
    "county": "SAN DIEGO",
    "phone": null,
    "lat": 33.240753,
    "lng": -117.020718
  }
]