[
  {
    "id": "630020854",
    "name": "ALIGNED HOSPICE",
    "npi": null,
    "hcaiId": "406373638",
    "businessName": "RSAG HOSPICE, INC.",
    "contactEmail": "TRAWI@ALIGNEDHOSPICE.COM",
    "categoryName": "HOSPICE",
    "categoryCode": "HOSPICE",
    "licenseStatus": "ACTIVE",
    "inService": true,
    "licenseNumber": "550006450",
    "licenseEffectiveDate": "08/21/2025",
    "licenseExpirationDate": "05/21/2027",
    "dataDate": "10/18/2025",
    "capacity": 0,
    "address": "402 W BROADWAY, SUITE 400",
    "city": "SAN DIEGO",
    "zip": "92101",
    "county": "SAN DIEGO",
    "phone": "(619) 810-1939",
    "lat": 32.716251,
    "lng": -117.166932
  },
  {
    "id": "630021255",
    "name": "AMA HOSPICE CARE, INC",
    "npi": null,
    "hcaiId": "406373494",
    "businessName": "AMA HOSPICE CARE, INC.",
    "contactEmail": "AMAHOSPICECARE1@GMAIL.COM",
    "categoryName": "HOSPICE",
    "categoryCode": "HOSPICE",
    "licenseStatus": "ACTIVE",
    "inService": true,
    "licenseNumber": "550006256",
    "licenseEffectiveDate": "04/14/2025",
    "licenseExpirationDate": "04/13/2027",
    "dataDate": "10/18/2025",
    "capacity": 0,
    "address": "350 10TH AVE, SUITE 1020",
    "city": "SAN DIEGO",
    "zip": "92101",
    "county": "SAN DIEGO",
    "phone": "(619) 393-5258",
    "lat": 32.70891148,
    "lng": -117.1556269
  },
  {
    "id": "630015136",
    "name": "BERSA MOBILE X-RAY AND ULTASOUND",
    "npi": null,
    "hcaiId": null,
    "businessName": null,
    "contactEmail": null,
    "categoryName": "OTHER",
    "categoryCode": "UNLICEN",
    "licenseStatus": null,
    "inService": null,
    "licenseNumber": null,
    "licenseEffectiveDate": null,
    "licenseExpirationDate": null,
    "dataDate": "10/18/2025",
    "capacity": 0,
    "address": "501 W BROADWAY, SUITE 800",
    "city": "SAN DIEGO",
    "zip": "92101",
    "county": "SAN DIEGO",
    "phone": null,
    "lat": 32.715126,
    "lng": -117.1678275
  },
  {
    "id": "630025451",
    "name": "COME FOR HOME CARE, INC.",
    "npi": null,
    "hcaiId": "406378003",
    "businessName": "COME FOR HOME CARE, INC.",
    "contactEmail": "COMEFORHOMECARE@GMAIL.COM",
    "categoryName": "HOME HEALTH AGENCY",
    "categoryCode": "HHA",
    "licenseStatus": "ACTIVE",
    "inService": true,
    "licenseNumber": "550008759",
    "licenseEffectiveDate": "10/02/2025",
    "licenseExpirationDate": "10/01/2026",
    "dataDate": "10/18/2025",
    "capacity": 0,
    "address": "402 W BROADWAY, SUITE 74D",
    "city": "SAN DIEGO",
    "zip": "92101",
    "county": "SAN DIEGO",
    "phone": "(619) 707-7039",
    "lat": 32.71625202,
    "lng": -117.166941
  },
  {
    "id": "630014206",
    "name": "DTFHC AT CONNECTIONS",
    "npi": "1588901045",
    "hcaiId": "306374494",
    "businessName": "FAMILY HEALTH CENTERS OF SAN DIEGO, INC.",
    "contactEmail": "LICENSING@FHCSD.ORG",
    "categoryName": "PRIMARY CARE CLINIC",
    "categoryCode": "COMTYC",
    "licenseStatus": "ACTIVE",
    "inService": true,
    "licenseNumber": "550003099",
    "licenseEffectiveDate": "07/09/2025",
    "licenseExpirationDate": "06/09/2026",
    "dataDate": "10/18/2025",
    "capacity": 0,
    "address": "1250 6TH AVE, SUITE 100",
    "city": "SAN DIEGO",
    "zip": "92101",
    "county": "SAN DIEGO",
    "phone": "(619) 906-4675",
    "lat": 32.718537,
    "lng": -117.1595385
  },
  {
    "id": "630013933",
    "name": "ELM STREET FAMILY HEALTH CENTER",
    "npi": null,
    "hcaiId": null,
    "businessName": "FAMILY HEALTH CENTERS OF SAN DIEGO, INC.",
    "contactEmail": null,
    "categoryName": "PRIMARY CARE CLINIC",
    "categoryCode": "COMTYC",
    "licenseStatus": "ACTIVE",
    "inService": true,
    "licenseNumber": "550003099",
    "licenseEffectiveDate": "07/09/2025",
    "licenseExpirationDate": "06/09/2026",
    "dataDate": "10/18/2025",
    "capacity": 0,
    "address": "140 ELM ST",
    "city": "SAN DIEGO",
    "zip": "92101",
    "county": "SAN DIEGO",
    "phone": null,
    "lat": 32.72413996,
    "lng": -117.1632052
  },
  {
    "id": "630015400",
    "name": "FAMILY HEALTH AT CITY COLLEGE",
    "npi": "1952729303",
    "hcaiId": "306374518",
    "businessName": "FAMILY HEALTH CENTERS OF SAN DIEGO, INC.",
    "contactEmail": "JANETA@FHCSD.ORG",
    "categoryName": "PRIMARY CARE CLINIC",
    "categoryCode": "COMTYC",
    "licenseStatus": "ACTIVE",
    "inService": true,
    "licenseNumber": "550002865",
    "licenseEffectiveDate": "10/22/2025",
    "licenseExpirationDate": "10/21/2026",
    "dataDate": "10/18/2025",
    "capacity": 0,
    "address": "1550 BROADWAY, SUITE P0002",
    "city": "SAN DIEGO",
    "zip": "92101",
    "county": "SAN DIEGO",
    "phone": "(619) 515-2579",
    "lat": 32.71581053,
    "lng": -117.1499237
  },
  {
    "id": "630027614",
    "name": "HEALTHY DEVELOPMENT SERVICES CENTER - CENTRAL REGION",
    "npi": "1013952597",
    "hcaiId": null,
    "businessName": "FAMILY HEALTH CENTERS OF SAN DIEGO, INC.",
    "contactEmail": "EGASTELUM@FHCSD.ORG",
    "categoryName": "PRIMARY CARE CLINIC",
    "categoryCode": "COMTYC",
    "licenseStatus": "ACTIVE",
    "inService": true,
    "licenseNumber": "550000024",
    "licenseEffectiveDate": "05/09/2025",
    "licenseExpirationDate": "05/08/2026",
    "dataDate": "10/18/2025",
    "capacity": 0,
    "address": "2044 1ST AVE, SUITE 200",
    "city": "SAN DIEGO",
    "zip": "92101",
    "county": "SAN DIEGO",
    "phone": "(619) 515-2405",
    "lat": 32.72664202,
    "lng": -117.164194
  },
  {
    "id": "090000253",
    "name": "PLANNED PARENTHOOD OF SDRC - FIRST AVENUE CENTER",
    "npi": "1389609679",
    "hcaiId": "306371128",
    "businessName": "PLANNED PARENTHOOD OF THE PACIFIC SOUTHWEST",
    "contactEmail": "LMANN1@PLANNED.ORG",
    "categoryName": "PRIMARY CARE CLINIC",
    "categoryCode": "COMTYC",
    "licenseStatus": "ACTIVE",
    "inService": true,
    "licenseNumber": "090000131",
    "licenseEffectiveDate": "12/21/2024",
    "licenseExpirationDate": "12/20/2025",
    "dataDate": "10/18/2025",
    "capacity": 0,
    "address": "2017 1ST AVE, SUITE 301",
    "city": "SAN DIEGO",
    "zip": "92101",
    "county": "SAN DIEGO",
    "phone": "(619) 881-4500",
    "lat": 32.726457,
    "lng": -117.1636065
  },
  {
    "id": "090000687",
    "name": "PLANNED PARENTHOOD OF SDRC - SURGICAL SERVICES",
    "npi": "1797780480",
    "hcaiId": "306374040",
    "businessName": "PLANNED PARENTHOOD OF THE PACIFIC SOUTHWEST",
    "contactEmail": "LMANN1@PLANNED.ORG",
    "categoryName": "PRIMARY CARE CLINIC",
    "categoryCode": "COMTYC",
    "licenseStatus": "ACTIVE",
    "inService": true,
    "licenseNumber": "090000340",
    "licenseEffectiveDate": "01/10/2025",
    "licenseExpirationDate": "01/09/2026",
    "dataDate": "10/18/2025",
    "capacity": 0,
    "address": "2017 1ST AVE, SUITE 100",
    "city": "SAN DIEGO",
    "zip": "92101",
    "county": "SAN DIEGO",
    "phone": "(619) 881-4500",
    "lat": 32.726457,
    "lng": -117.1636065
  },
  {
    "id": "630027653",
    "name": "SAN YSIDRO HEALTH SENIOR DENTAL CENTER",
    "npi": "1326225632",
    "hcaiId": null,
    "businessName": "CENTRO DE SALUD DE LA COMUNIDAD DE SAN YSIDRO, INC.",
    "contactEmail": null,
    "categoryName": "PRIMARY CARE CLINIC",
    "categoryCode": "COMTYC",
    "licenseStatus": "ACTIVE",
    "inService": true,
    "licenseNumber": "090000143",
    "licenseEffectiveDate": "11/25/2024",
    "licenseExpirationDate": "11/24/2025",
    "dataDate": "10/18/2025",
    "capacity": 0,
    "address": "1525 FOURTH AVE, SUITE 201",
    "city": "SAN DIEGO",
    "zip": "92101",
    "county": "SAN DIEGO",
    "phone": null,
    "lat": 32.72166199,
    "lng": -117.16083
  },
  {
    "id": "090000554",
    "name": "ST. VINCENT DE PAUL VILLAGE FAMILY HEALTH CENTER",
    "npi": null,
    "hcaiId": "306374018",
    "businessName": "ST. VINCENT DE PAUL VILLAGE, INC.",
    "contactEmail": "MEGAN.PARTCH@NEIGHBOR.ORG",
    "categoryName": "PRIMARY CARE CLINIC",
    "categoryCode": "COMTYC",
    "licenseStatus": "ACTIVE",
    "inService": true,
    "licenseNumber": "090000297",
    "licenseEffectiveDate": "11/30/2024",
    "licenseExpirationDate": "11/29/2025",
    "dataDate": "10/18/2025",
    "capacity": 0,
    "address": "1501 IMPERIAL AVE",
    "city": "SAN DIEGO",
    "zip": "92101",
    "county": "SAN DIEGO",
    "phone": "(619) 233-8500",
    "lat": 32.705865,
    "lng": -117.149706
  },
  {
    "id": "630020814",
    "name": "WORRYFREE HOSPICE",
    "npi": "1396350013",
    "hcaiId": "406374744",
    "businessName": "APA HOSPICE CARE, INC.",
    "contactEmail": "APAHOSPICECARE@GMAIL.COM",
    "categoryName": "HOSPICE",
    "categoryCode": "HOSPICE",
    "licenseStatus": "ACTIVE",
    "inService": true,
    "licenseNumber": "550006158",
    "licenseEffectiveDate": "03/29/2025",
    "licenseExpirationDate": "03/28/2027",
    "dataDate": "10/18/2025",
    "capacity": 0,
    "address": "501 W BROADWAY, SUITE 800",
    "city": "SAN DIEGO",
    "zip": "92101",
    "county": "SAN DIEGO",
    "phone": "(619) 436-1374",
    "lat": 32.715126,
    "lng": -117.1678275
  }
]