[
  {
    "id": "630018507",
    "name": "ABSALOM HOME HEALTH AGENCY, LLC",
    "npi": null,
    "hcaiId": "406372456",
    "businessName": "ABSALOM HOME HEALTH AGENCY, LLC",
    "contactEmail": "ABSALOMHHA@GMAIL.COM",
    "categoryName": "HOME HEALTH AGENCY",
    "categoryCode": "HHA",
    "licenseStatus": "ACTIVE",
    "inService": true,
    "licenseNumber": "550005251",
    "licenseEffectiveDate": "01/27/2025",
    "licenseExpirationDate": "01/26/2026",
    "dataDate": "10/18/2025",
    "capacity": 0,
    "address": "3517 CAMINO DEL RIO S, SUITE 205",
    "city": "SAN DIEGO",
    "zip": "92108",
    "county": "SAN DIEGO",
    "phone": "(619) 754-3442",
    "lat": 32.777376,
    "lng": -117.117385
  },
  {
    "id": "630011967",
    "name": "APREVA HOSPICE",
    "npi": null,
    "hcaiId": "406374427",
    "businessName": "APREVA CORPORATION",
    "contactEmail": "LICENSING@ABODEHEALTHCARE.COM",
    "categoryName": "HOSPICE",
    "categoryCode": "HOSPICE",
    "licenseStatus": "ACTIVE",
    "inService": true,
    "licenseNumber": "550000978",
    "licenseEffectiveDate": "04/03/2025",
    "licenseExpirationDate": "04/02/2027",
    "dataDate": "10/18/2025",
    "capacity": 0,
    "address": "3333 CAMINO DEL RIO S, SUITE 400",
    "city": "SAN DIEGO",
    "zip": "92108",
    "county": "SAN DIEGO",
    "phone": "(857) 400-0887",
    "lat": 32.77569798,
    "lng": -117.121384
  },
  {
    "id": "630011760",
    "name": "AVEANNA HEALTHCARE",
    "npi": "1437385010",
    "hcaiId": "406374440",
    "businessName": "PREMIER HEALTHCARE SERVICES, LLC",
    "contactEmail": "CREDENTIALING@AVEANNA.COM",
    "categoryName": "HOME HEALTH AGENCY",
    "categoryCode": "HHA",
    "licenseStatus": "ACTIVE",
    "inService": true,
    "licenseNumber": "550001308",
    "licenseEffectiveDate": "06/03/2025",
    "licenseExpirationDate": "06/02/2026",
    "dataDate": "10/18/2025",
    "capacity": 0,
    "address": "2020 CAMINO DEL RIO NORTH, SUITE 600",
    "city": "SAN DIEGO",
    "zip": "92108",
    "county": "SAN DIEGO",
    "phone": "(619) 574-6744",
    "lat": 32.770449,
    "lng": -117.143163
  },
  {
    "id": "080000204",
    "name": "CENTERWELL HOME HEALTH",
    "npi": "1003846130",
    "hcaiId": "406370654",
    "businessName": "CENTERWELL CERTIFIED HEALTHCARE CORP.",
    "contactEmail": "ALEXANDER.ORTIZ@CENTERWELLHOMEHEALTH.COM",
    "categoryName": "HOME HEALTH AGENCY",
    "categoryCode": "HHA",
    "licenseStatus": "ACTIVE",
    "inService": true,
    "licenseNumber": "080000015",
    "licenseEffectiveDate": "03/14/2025",
    "licenseExpirationDate": "03/13/2026",
    "dataDate": "10/18/2025",
    "capacity": 0,
    "address": "2525 CAMINO DEL RIO S, SUITE 220",
    "city": "SAN DIEGO",
    "zip": "92108",
    "county": "SAN DIEGO",
    "phone": "(619) 299-9900",
    "lat": 32.767794,
    "lng": -117.137475
  },
  {
    "id": "630015393",
    "name": "DANNY'S HOME HEATLH CARE, INC.",
    "npi": "1447668462",
    "hcaiId": "406374545",
    "businessName": "DANNY'S HOME HEALTH CARE, INC.",
    "contactEmail": "CEOADMIN@DANNYSHOMEHEALTH.COM",
    "categoryName": "HOME HEALTH AGENCY",
    "categoryCode": "HHA",
    "licenseStatus": "ACTIVE",
    "inService": true,
    "licenseNumber": "550003324",
    "licenseEffectiveDate": "12/18/2024",
    "licenseExpirationDate": "12/17/2025",
    "dataDate": "10/18/2025",
    "capacity": 0,
    "address": "2667 CAMINO DEL RIO S, SUITE 308",
    "city": "SAN DIEGO",
    "zip": "92108",
    "county": "SAN DIEGO",
    "phone": "(619) 726-2570",
    "lat": 32.769072,
    "lng": -117.135486
  },
  {
    "id": "630018896",
    "name": "DIVINE LIGHT HOSPICE",
    "npi": "1952860033",
    "hcaiId": "406372656",
    "businessName": "DJRI HEALTH INC.",
    "contactEmail": "DCUISON@DIVINELIGHTHOSPICE.COM",
    "categoryName": "HOSPICE",
    "categoryCode": "HOSPICE",
    "licenseStatus": "ACTIVE",
    "inService": true,
    "licenseNumber": "550005046",
    "licenseEffectiveDate": "10/28/2023",
    "licenseExpirationDate": "10/27/2025",
    "dataDate": "10/18/2025",
    "capacity": 0,
    "address": "2535 CAMINO DEL RIO S, SUITE 210",
    "city": "SAN DIEGO",
    "zip": "92108",
    "county": "SAN DIEGO",
    "phone": "(858) 276-7770",
    "lat": 32.76791501,
    "lng": -117.135795
  },
  {
    "id": "630014778",
    "name": "ELIZABETH HOSPICE - BRANCH",
    "npi": "1538168950",
    "hcaiId": "406374502",
    "businessName": "THE ELIZABETH HOSPICE, INC.",
    "contactEmail": null,
    "categoryName": "HOSPICE",
    "categoryCode": "HOSPICE",
    "licenseStatus": "ACTIVE",
    "inService": true,
    "licenseNumber": "080000519",
    "licenseEffectiveDate": "11/11/2025",
    "licenseExpirationDate": "11/10/2027",
    "dataDate": "10/18/2025",
    "capacity": 0,
    "address": "8989 RIO SAN DIEGO DR, SUITE 190",
    "city": "SAN DIEGO",
    "zip": "92108",
    "county": "SAN DIEGO",
    "phone": "(760) 737-2050",
    "lat": 32.775003,
    "lng": -117.136827
  },
  {
    "id": "080001400",
    "name": "FIRSTAT NURSING SERVICES",
    "npi": null,
    "hcaiId": "406374236",
    "businessName": "FIRSTAT NURSING SERVICES, INC.",
    "contactEmail": "FIRSTATOFSANDIEGO@GMAIL.COM",
    "categoryName": "HOME HEALTH AGENCY",
    "categoryCode": "HHA",
    "licenseStatus": "ACTIVE",
    "inService": true,
    "licenseNumber": "080000580",
    "licenseEffectiveDate": "04/29/2025",
    "licenseExpirationDate": "04/28/2026",
    "dataDate": "10/18/2025",
    "capacity": 0,
    "address": "411 CAMINO DEL RIO S, SUITE 100",
    "city": "SAN DIEGO",
    "zip": "92108",
    "county": "SAN DIEGO",
    "phone": "(619) 220-7600",
    "lat": 32.759991,
    "lng": -117.160884
  },
  {
    "id": "080001730",
    "name": "GRANDCARE SAN DIEGO LLC",
    "npi": "1811395353",
    "hcaiId": "406374323",
    "businessName": "GRANDCARE SAN DIEGO LLC",
    "contactEmail": "INFO@GRANDCAREHEALTH.COM",
    "categoryName": "HOME HEALTH AGENCY",
    "categoryCode": "HHA",
    "licenseStatus": "ACTIVE",
    "inService": true,
    "licenseNumber": "080000771",
    "licenseEffectiveDate": "05/26/2025",
    "licenseExpirationDate": "05/25/2026",
    "dataDate": "10/18/2025",
    "capacity": 0,
    "address": "2535 CAMINO DEL RIO SOUTH, SUITE 120",
    "city": "SAN DIEGO",
    "zip": "92108",
    "county": "SAN DIEGO",
    "phone": "(619) 220-6980",
    "lat": 32.767929,
    "lng": -117.135783
  },
  {
    "id": "630010972",
    "name": "GUARDIAN ANGEL HOME CARE OF SAN DIEGO LLC",
    "npi": "1063441871",
    "hcaiId": "406374396",
    "businessName": "GUARDIAN ANGEL HOME CARE OF SAN DIEGO LLC",
    "contactEmail": "K.ANDERSON@GAHC94.COM",
    "categoryName": "HOME HEALTH AGENCY",
    "categoryCode": "HHA",
    "licenseStatus": "ACTIVE",
    "inService": true,
    "licenseNumber": "550000512",
    "licenseEffectiveDate": "06/05/2025",
    "licenseExpirationDate": "06/04/2026",
    "dataDate": "10/18/2025",
    "capacity": 0,
    "address": "3505 CAMINO DEL RIO S, SUITE 220",
    "city": "SAN DIEGO",
    "zip": "92108",
    "county": "SAN DIEGO",
    "phone": "(619) 640-4383",
    "lat": 32.777127,
    "lng": -117.118269
  },
  {
    "id": "630027744",
    "name": "HEALINGHAVEN HOME HEALTHCARE LLC",
    "npi": null,
    "hcaiId": null,
    "businessName": "HEALINGHAVEN HOME HEALTHCARE LLC",
    "contactEmail": "ADMIN@HEALINGHAVENHH.COM",
    "categoryName": "HOME HEALTH AGENCY",
    "categoryCode": "HHA",
    "licenseStatus": "ACTIVE",
    "inService": true,
    "licenseNumber": "550009890",
    "licenseEffectiveDate": "07/01/2025",
    "licenseExpirationDate": "12/31/2025",
    "dataDate": "10/18/2025",
    "capacity": 0,
    "address": "3111 CAMINO DEL RIO N, SUITE 455",
    "city": "SAN DIEGO",
    "zip": "92108",
    "county": "SAN DIEGO",
    "phone": "(619) 663-7999",
    "lat": 32.77471902,
    "lng": -117.127291
  },
  {
    "id": "630012591",
    "name": "HEALTH PLUS HOME HEALTH CARE INC",
    "npi": "1528395290",
    "hcaiId": "406374443",
    "businessName": "HEALTH PLUS HOME HEALTH CARE INC.",
    "contactEmail": "HELLO-CA@PATHWELLHEALTH.COM",
    "categoryName": "HOME HEALTH AGENCY",
    "categoryCode": "HHA",
    "licenseStatus": "ACTIVE",
    "inService": true,
    "licenseNumber": "550001415",
    "licenseEffectiveDate": "11/03/2025",
    "licenseExpirationDate": "11/02/2026",
    "dataDate": "10/18/2025",
    "capacity": 0,
    "address": "3110 CAMINO DEL RIO S, SUITE A 215",
    "city": "SAN DIEGO",
    "zip": "92108",
    "county": "SAN DIEGO",
    "phone": "(475) 256-0871",
    "lat": 32.77333701,
    "lng": -117.126054
  },
  {
    "id": "630023136",
    "name": "INNOVA HOME HEALTH, INC.",
    "npi": null,
    "hcaiId": "406375805",
    "businessName": "INNOVA HOME HEALTH, INC.",
    "contactEmail": "INFO@INNOVAHHC.COM",
    "categoryName": "HOME HEALTH AGENCY",
    "categoryCode": "HHA",
    "licenseStatus": "ACTIVE",
    "inService": true,
    "licenseNumber": "550007833",
    "licenseEffectiveDate": "02/09/2025",
    "licenseExpirationDate": "02/08/2026",
    "dataDate": "10/18/2025",
    "capacity": 0,
    "address": "1011 CAMINO DEL RIO S, SUITE 415",
    "city": "SAN DIEGO",
    "zip": "92108",
    "county": "SAN DIEGO",
    "phone": "(619) 439-0899",
    "lat": 32.76419459,
    "lng": -117.1544955
  },
  {
    "id": "080000385",
    "name": "KAISER FOUNDATION HOSPITAL SAN DIEGO HOSPICE",
    "npi": null,
    "hcaiId": "406371525",
    "businessName": "KAISER FOUNDATION HOSPITALS",
    "contactEmail": null,
    "categoryName": "HOSPICE",
    "categoryCode": "HOSPICE",
    "licenseStatus": "ACTIVE",
    "inService": true,
    "licenseNumber": "080000129",
    "licenseEffectiveDate": "11/26/2024",
    "licenseExpirationDate": "11/25/2025",
    "dataDate": "10/18/2025",
    "capacity": 0,
    "address": "10992 SAN DIEGO MISSION RD, BUILDING 2, SUITE 3401",
    "city": "SAN DIEGO",
    "zip": "92108",
    "county": "SAN DIEGO",
    "phone": "(619) 641-4100",
    "lat": 32.786037,
    "lng": -117.1028115
  },
  {
    "id": "060001760",
    "name": "LOVING CARE ADULT DAY HEALTH CENTER",
    "npi": null,
    "hcaiId": null,
    "businessName": "LOVING CARE ADHC LIMITED",
    "contactEmail": "LOVINGCARECBAS@GMAIL.COM",
    "categoryName": "ADULT DAY HEALTH CARE",
    "categoryCode": "ADHC",
    "licenseStatus": "ACTIVE",
    "inService": true,
    "licenseNumber": "060000578",
    "licenseEffectiveDate": "11/18/2025",
    "licenseExpirationDate": "11/17/2026",
    "dataDate": "10/18/2025",
    "capacity": 0,
    "address": "2565 CAMINO DEL RIO S, SUITE 201",
    "city": "SAN DIEGO",
    "zip": "92108",
    "county": "SAN DIEGO",
    "phone": "(619) 718-9777",
    "lat": 32.769036,
    "lng": -117.1367415
  },
  {
    "id": "080000873",
    "name": "MAXIM HEALTHCARE SERVICES, INC.",
    "npi": "1417910126",
    "hcaiId": "406374411",
    "businessName": "MAXIM HEALTHCARE SERVICES, INC.",
    "contactEmail": "SANDIEGOCAHOMECARE@MAXHEALTH.COM",
    "categoryName": "HOME HEALTH AGENCY",
    "categoryCode": "HHA",
    "licenseStatus": "ACTIVE",
    "inService": true,
    "licenseNumber": "080000381",
    "licenseEffectiveDate": "04/29/2025",
    "licenseExpirationDate": "04/28/2026",
    "dataDate": "10/18/2025",
    "capacity": 0,
    "address": "3111 CAMINO DEL RIO N, SUITE 1200",
    "city": "SAN DIEGO",
    "zip": "92108",
    "county": "SAN DIEGO",
    "phone": "(619) 299-9350",
    "lat": 32.774229,
    "lng": -117.1277955
  },
  {
    "id": "080001345",
    "name": "MISSION HOME HEALTH OF SAN DIEGO, LLC",
    "npi": "1063726628",
    "hcaiId": "406374354",
    "businessName": "MISSION HOME HEALTH OF SAN DIEGO, LLC",
    "contactEmail": "LICENSEANDCONTRACTS@MISSIONHH.COM",
    "categoryName": "HOME HEALTH AGENCY",
    "categoryCode": "HHA",
    "licenseStatus": "ACTIVE",
    "inService": true,
    "licenseNumber": "080000548",
    "licenseEffectiveDate": "04/05/2025",
    "licenseExpirationDate": "04/04/2026",
    "dataDate": "10/18/2025",
    "capacity": 0,
    "address": "2365 NORTHSIDE DR, SUITE 100",
    "city": "SAN DIEGO",
    "zip": "92108",
    "county": "SAN DIEGO",
    "phone": "(619) 757-2700",
    "lat": 32.78358,
    "lng": -117.125613
  },
  {
    "id": "630013236",
    "name": "MISSION HOSPICE SERVICES OF SAN DIEGO, LLC",
    "npi": null,
    "hcaiId": "406374464",
    "businessName": "MISSION HOSPICE SERVICES OF SAN DIEGO, LLC",
    "contactEmail": "GPINERO@MISSIONHH.COM",
    "categoryName": "HOSPICE",
    "categoryCode": "HOSPICE",
    "licenseStatus": "ACTIVE",
    "inService": true,
    "licenseNumber": "550001831",
    "licenseEffectiveDate": "02/02/2024",
    "licenseExpirationDate": "02/01/2026",
    "dataDate": "10/18/2025",
    "capacity": 0,
    "address": "2365 NORTHSIDE DR, SUITE 120",
    "city": "SAN DIEGO",
    "zip": "92108",
    "county": "SAN DIEGO",
    "phone": "(855) 848-5433",
    "lat": 32.783876,
    "lng": -117.125362
  },
  {
    "id": "080001715",
    "name": "MISSION VALLEY HEIGHTS SURGERY CENTER",
    "npi": null,
    "hcaiId": "306374331",
    "businessName": "SAN DIEGO CA MULTI SPECIALTY ASC LLC",
    "contactEmail": null,
    "categoryName": "SURGICAL CLINIC",
    "categoryCode": "ASC",
    "licenseStatus": "INACTIVE - CAPEN DECISION",
    "inService": false,
    "licenseNumber": "080000761",
    "licenseEffectiveDate": "11/26/2007",
    "licenseExpirationDate": "11/25/2008",
    "dataDate": "10/18/2025",
    "capacity": 0,
    "address": "7485 MISSION VALLEY RD, SUITE 106",
    "city": "SAN DIEGO",
    "zip": "92108",
    "county": "SAN DIEGO",
    "phone": "(619) 291-3737",
    "lat": 32.779305,
    "lng": -117.1602945
  },
  {
    "id": "090001452",
    "name": "PACIFIC SURGICAL INSTITUTE OF PAIN MANAGEMENT",
    "npi": "1528130879",
    "hcaiId": "306374264",
    "businessName": "PACIFIC SURGICAL INSTITUTE OF PAIN MANAGEMENT",
    "contactEmail": "PSIPMRN@AOL.COM",
    "categoryName": "SURGICAL CLINIC",
    "categoryCode": "ASC",
    "licenseStatus": "INACTIVE - CAPEN DECISION",
    "inService": false,
    "licenseNumber": "090000607",
    "licenseEffectiveDate": "11/16/2007",
    "licenseExpirationDate": "11/15/2008",
    "dataDate": "10/18/2025",
    "capacity": 0,
    "address": "3703 CAMINO DEL RIO S, SUITE 101",
    "city": "SAN DIEGO",
    "zip": "92108",
    "county": "SAN DIEGO",
    "phone": "(619) 640-1555",
    "lat": 32.777694,
    "lng": -117.115065
  },
  {
    "id": "630019731",
    "name": "PRECISION VASCULAR ACCESS",
    "npi": null,
    "hcaiId": null,
    "businessName": null,
    "contactEmail": "KROGERS@PRECISIONVASCULARACCESS.COM",
    "categoryName": "SURGICAL CLINIC",
    "categoryCode": "ASC",
    "licenseStatus": null,
    "inService": null,
    "licenseNumber": null,
    "licenseEffectiveDate": null,
    "licenseExpirationDate": null,
    "dataDate": "10/18/2025",
    "capacity": 0,
    "address": "10981 SAN DIEGO MISSION RD, SUITE 112",
    "city": "SAN DIEGO",
    "zip": "92108",
    "county": "SAN DIEGO",
    "phone": "(619) 693-7399",
    "lat": 32.784606,
    "lng": -117.1018935
  },
  {
    "id": "630022321",
    "name": "PROMAX HOSPICE GROUP",
    "npi": null,
    "hcaiId": "406375089",
    "businessName": "PROMAX HOSPICE GROUP",
    "contactEmail": "PROMAXHOSPICE@GMAIL.COM",
    "categoryName": "HOSPICE",
    "categoryCode": "HOSPICE",
    "licenseStatus": "ACTIVE",
    "inService": true,
    "licenseNumber": "550007587",
    "licenseEffectiveDate": "12/20/2023",
    "licenseExpirationDate": "12/19/2025",
    "dataDate": "10/18/2025",
    "capacity": 0,
    "address": "1761 HOTEL CIR S, SUITE 325",
    "city": "SAN DIEGO",
    "zip": "92108",
    "county": "SAN DIEGO",
    "phone": "(619) 695-2050",
    "lat": 32.758812,
    "lng": -117.1790595
  },
  {
    "id": "080001074",
    "name": "SPECIAL CARE HOME HEALTH SERVICES INC.",
    "npi": null,
    "hcaiId": "406374128",
    "businessName": "SPECIAL CARE HOME HEALTH SERVICES, INC.",
    "contactEmail": "KEVIN@FIRSTPLACEPEDIATRICS.COM",
    "categoryName": "HOME HEALTH AGENCY",
    "categoryCode": "HHA",
    "licenseStatus": "ACTIVE",
    "inService": true,
    "licenseNumber": "080000448",
    "licenseEffectiveDate": "06/19/2025",
    "licenseExpirationDate": "06/18/2026",
    "dataDate": "10/18/2025",
    "capacity": 0,
    "address": "591 CAMINO DE LA REINA, SUITE 810",
    "city": "SAN DIEGO",
    "zip": "92108",
    "county": "SAN DIEGO",
    "phone": "(858) 716-8269",
    "lat": 32.76555299,
    "lng": -117.161666
  },
  {
    "id": "630027741",
    "name": "SYNERGY SURGERY CENTER OF SAN DIEGO, LLC",
    "npi": null,
    "hcaiId": null,
    "businessName": null,
    "contactEmail": "AMETCALF@USPI.COM",
    "categoryName": "SURGICAL CLINIC",
    "categoryCode": "ASC",
    "licenseStatus": null,
    "inService": null,
    "licenseNumber": null,
    "licenseEffectiveDate": null,
    "licenseExpirationDate": null,
    "dataDate": "10/18/2025",
    "capacity": 0,
    "address": "9095 RIO SAN DIEGO DR, SUITE 100",
    "city": "SAN DIEGO",
    "zip": "92108",
    "county": "SAN DIEGO",
    "phone": "(760) 632-3920",
    "lat": 32.77515002,
    "lng": -117.13581
  },
  {
    "id": "630020254",
    "name": "VISTA COMMUNITY HOSPICE, INC.",
    "npi": null,
    "hcaiId": "406376013",
    "businessName": "VISTA COMMUNITY HOSPICE, INC.",
    "contactEmail": "VISTAHOSPICEINC@GMAIL.COM",
    "categoryName": "HOSPICE",
    "categoryCode": "HOSPICE",
    "licenseStatus": "ACTIVE",
    "inService": true,
    "licenseNumber": "550007397",
    "licenseEffectiveDate": "08/12/2024",
    "licenseExpirationDate": "11/30/2025",
    "dataDate": "10/18/2025",
    "capacity": 0,
    "address": "3636 CAMINO DEL RIO N, SUITE 245",
    "city": "SAN DIEGO",
    "zip": "92108",
    "county": "SAN DIEGO",
    "phone": "(760) 536-5442",
    "lat": 32.77940899,
    "lng": -117.11655
  },
  {
    "id": "630013302",
    "name": "VITAL CARE HEALTH SYSTEMS",
    "npi": "1114206976",
    "hcaiId": "406374459",
    "businessName": "VITAL CARE HEALTH SYSTEMS",
    "contactEmail": "LEILANI@VITALCAREHS.COM",
    "categoryName": "HOME HEALTH AGENCY",
    "categoryCode": "HHA",
    "licenseStatus": "ACTIVE",
    "inService": true,
    "licenseNumber": "550001790",
    "licenseEffectiveDate": "11/08/2025",
    "licenseExpirationDate": "11/07/2026",
    "dataDate": "10/18/2025",
    "capacity": 0,
    "address": "444 CAMINO DEL RIO S, SUITE 219",
    "city": "SAN DIEGO",
    "zip": "92108",
    "county": "SAN DIEGO",
    "phone": "(619) 291-7888",
    "lat": 32.761728,
    "lng": -117.160542
  }
]