[
  {
    "id": "630018356",
    "name": "AHF HEALTHCARE CENTER - SAN DIEGO",
    "npi": null,
    "hcaiId": "306370023",
    "businessName": "AIDS HEALTHCARE FOUNDATION",
    "contactEmail": "PHARMACYOPERATIONS@AHFRX.ORG",
    "categoryName": "PRIMARY CARE CLINIC",
    "categoryCode": "COMTYC",
    "licenseStatus": "ACTIVE",
    "inService": true,
    "licenseNumber": "550004798",
    "licenseEffectiveDate": "07/18/2025",
    "licenseExpirationDate": "07/17/2026",
    "dataDate": "10/18/2025",
    "capacity": 0,
    "address": "3580 5TH AVE, SUITE 250",
    "city": "SAN DIEGO",
    "zip": "92103",
    "county": "SAN DIEGO",
    "phone": "(310) 999-6089",
    "lat": 32.742868,
    "lng": -117.160742
  },
  {
    "id": "090000065",
    "name": "BALBOA NURSING & REHABILITATION CENTER",
    "npi": "1578521274",
    "hcaiId": "206370719",
    "businessName": "BALBOA HEALTHCARE, INC.",
    "contactEmail": "PHILLIP@BALBOAHC.COM",
    "categoryName": "SKILLED NURSING FACILITY",
    "categoryCode": "SNF",
    "licenseStatus": "ACTIVE",
    "inService": true,
    "licenseNumber": "090000057",
    "licenseEffectiveDate": "11/30/2024",
    "licenseExpirationDate": "11/29/2025",
    "dataDate": "10/18/2025",
    "capacity": 194,
    "address": "3520 4TH AVE",
    "city": "SAN DIEGO",
    "zip": "92103",
    "county": "SAN DIEGO",
    "phone": "(619) 291-5270",
    "lat": 32.741973,
    "lng": -117.1618785
  },
  {
    "id": "090000676",
    "name": "BALBOA NURSING & REHABILITATION CENTER",
    "npi": "1578521274",
    "hcaiId": null,
    "businessName": "BALBOA HEALTHCARE, INC.",
    "contactEmail": null,
    "categoryName": "REHABILITATION CLINIC",
    "categoryCode": "OPT/SP",
    "licenseStatus": "ACTIVE",
    "inService": true,
    "licenseNumber": "090000057",
    "licenseEffectiveDate": "11/30/2024",
    "licenseExpirationDate": "11/29/2025",
    "dataDate": "10/18/2025",
    "capacity": 0,
    "address": "3520 4TH AVE",
    "city": "SAN DIEGO",
    "zip": "92103",
    "county": "SAN DIEGO",
    "phone": null,
    "lat": 32.741973,
    "lng": -117.1618785
  },
  {
    "id": "630021777",
    "name": "CAPS DOWNTOWN AREA CLINIC",
    "npi": null,
    "hcaiId": null,
    "businessName": "COLLEGE AREA PREGNANCY SERVICES, INC.",
    "contactEmail": null,
    "categoryName": "PRIMARY CARE CLINIC",
    "categoryCode": "FREEC",
    "licenseStatus": "ACTIVE",
    "inService": true,
    "licenseNumber": "090000659",
    "licenseEffectiveDate": "11/29/2024",
    "licenseExpirationDate": "11/28/2025",
    "dataDate": "10/18/2025",
    "capacity": 0,
    "address": "2918 5TH AVE, SUITE 209",
    "city": "SAN DIEGO",
    "zip": "92103",
    "county": "SAN DIEGO",
    "phone": null,
    "lat": 32.73582598,
    "lng": -117.160606
  },
  {
    "id": "630028231",
    "name": "FAMILY HEALTH CENTERS OF SAN DIEGO INC",
    "npi": null,
    "hcaiId": null,
    "businessName": null,
    "contactEmail": null,
    "categoryName": "PRIMARY CARE CLINIC",
    "categoryCode": "FQHC",
    "licenseStatus": null,
    "inService": null,
    "licenseNumber": null,
    "licenseEffectiveDate": null,
    "licenseExpirationDate": null,
    "dataDate": "10/18/2025",
    "capacity": 0,
    "address": "4094 4TH AVE",
    "city": "SAN DIEGO",
    "zip": "92103",
    "county": "SAN DIEGO",
    "phone": null,
    "lat": 32.75168848,
    "lng": -117.1619956
  },
  {
    "id": "630016002",
    "name": "HILLCREST FAMILY HEALTH CENTER",
    "npi": "1629456900",
    "hcaiId": "306374534",
    "businessName": "FAMILY HEALTH CENTERS OF SAN DIEGO, INC.",
    "contactEmail": "LICENSING@FHCSD.ORG",
    "categoryName": "PRIMARY CARE CLINIC",
    "categoryCode": "COMTYC",
    "licenseStatus": "ACTIVE",
    "inService": true,
    "licenseNumber": "550003099",
    "licenseEffectiveDate": "07/09/2025",
    "licenseExpirationDate": "06/09/2026",
    "dataDate": "10/18/2025",
    "capacity": 0,
    "address": "4094 4TH AVENUE",
    "city": "SAN DIEGO",
    "zip": "92103",
    "county": "SAN DIEGO",
    "phone": "(619) 515-2533",
    "lat": 32.751522,
    "lng": -117.1625985
  },
  {
    "id": "630017013",
    "name": "HILLCREST FAMILY HEALTH CENTER-ANNEX",
    "npi": null,
    "hcaiId": null,
    "businessName": "FAMILY HEALTH CENTERS OF SAN DIEGO, INC.",
    "contactEmail": null,
    "categoryName": "PRIMARY CARE CLINIC",
    "categoryCode": "COMTYC",
    "licenseStatus": "ACTIVE",
    "inService": true,
    "licenseNumber": "550003099",
    "licenseEffectiveDate": "07/09/2025",
    "licenseExpirationDate": "06/09/2026",
    "dataDate": "10/18/2025",
    "capacity": 0,
    "address": "4065 3RD AVENUE",
    "city": "SAN DIEGO",
    "zip": "92103",
    "county": "SAN DIEGO",
    "phone": null,
    "lat": 32.751225,
    "lng": -117.1624455
  },
  {
    "id": "090000004",
    "name": "HILLCREST HEIGHTS HEALTHCARE CENTER",
    "npi": "1558825067",
    "hcaiId": "206370747",
    "businessName": "ASD6, LLC",
    "contactEmail": "DINAM@ASPENHEALTH.COM",
    "categoryName": "SKILLED NURSING FACILITY",
    "categoryCode": "SNF",
    "licenseStatus": "ACTIVE",
    "inService": true,
    "licenseNumber": "090000077",
    "licenseEffectiveDate": "02/01/2025",
    "licenseExpirationDate": "01/31/2026",
    "dataDate": "10/18/2025",
    "capacity": 96,
    "address": "4033 6TH AVE",
    "city": "SAN DIEGO",
    "zip": "92103",
    "county": "SAN DIEGO",
    "phone": "(619) 335-0753",
    "lat": 32.75032736,
    "lng": -117.1587661
  },
  {
    "id": "630028085",
    "name": "HILLCREST HOME TRAINING",
    "npi": null,
    "hcaiId": null,
    "businessName": null,
    "contactEmail": null,
    "categoryName": "CHRONIC DIALYSIS CLINIC",
    "categoryCode": "ESRD",
    "licenseStatus": null,
    "inService": null,
    "licenseNumber": null,
    "licenseEffectiveDate": null,
    "licenseExpirationDate": null,
    "dataDate": "10/18/2025",
    "capacity": 0,
    "address": "4033 3RD AVE, SUITE 310",
    "city": "SAN DIEGO",
    "zip": "92103",
    "county": "SAN DIEGO",
    "phone": null,
    "lat": 32.7505472,
    "lng": -117.1624794
  },
  {
    "id": "090000039",
    "name": "MISSION HILLS POST ACUTE CARE",
    "npi": "1669875563",
    "hcaiId": "206370678",
    "businessName": "PORTSIDE HEALTHCARE, INC.",
    "contactEmail": "FAC_MISSIONHILLS-ED@ENSIGNSERVICES.NET",
    "categoryName": "SKILLED NURSING FACILITY",
    "categoryCode": "SNF",
    "licenseStatus": "ACTIVE",
    "inService": true,
    "licenseNumber": "090000032",
    "licenseEffectiveDate": "09/21/2025",
    "licenseExpirationDate": "09/20/2026",
    "dataDate": "10/18/2025",
    "capacity": 75,
    "address": "3680 REYNARD WAY",
    "city": "SAN DIEGO",
    "zip": "92103",
    "county": "SAN DIEGO",
    "phone": "(619) 297-4484",
    "lat": 32.744979,
    "lng": -117.172296
  },
  {
    "id": "630020291",
    "name": "MONARCH HOME HEALTH SERVICES, LLC",
    "npi": null,
    "hcaiId": "406372978",
    "businessName": "MONARCH HOME HEALTH SERVICES, LLC",
    "contactEmail": "HR@MONARCHHH.COM",
    "categoryName": "HOME HEALTH AGENCY",
    "categoryCode": "HHA",
    "licenseStatus": "ACTIVE",
    "inService": true,
    "licenseNumber": "550005846",
    "licenseEffectiveDate": "11/18/2024",
    "licenseExpirationDate": "11/17/2025",
    "dataDate": "10/18/2025",
    "capacity": 0,
    "address": "2941 4TH AVE, SUITE B",
    "city": "SAN DIEGO",
    "zip": "92103",
    "county": "SAN DIEGO",
    "phone": "(888) 789-9636",
    "lat": 32.736177,
    "lng": -117.1609875
  },
  {
    "id": "090000175",
    "name": "SAN DIEGO AMERICAN INDIAN HEALTH CENTER",
    "npi": null,
    "hcaiId": "306371581",
    "businessName": "SAN DIEGO AMERICAN INDIAN HEALTH CENTER",
    "contactEmail": "JVO@SDAIHC.ORG",
    "categoryName": "PRIMARY CARE CLINIC",
    "categoryCode": "COMTYC",
    "licenseStatus": "ACTIVE",
    "inService": true,
    "licenseNumber": "090000168",
    "licenseEffectiveDate": "02/25/2025",
    "licenseExpirationDate": "02/24/2026",
    "dataDate": "10/18/2025",
    "capacity": 0,
    "address": "2630 1ST AVE",
    "city": "SAN DIEGO",
    "zip": "92103",
    "county": "SAN DIEGO",
    "phone": "(619) 234-1521",
    "lat": 32.732874,
    "lng": -117.1641825
  },
  {
    "id": "090001034",
    "name": "SAN DIEGO ENDOSCOPY CENTER",
    "npi": "1952368482",
    "hcaiId": "306374149",
    "businessName": "SAN DIEGO ENDOSCOPY CENTER, A PARTNERSHIP",
    "contactEmail": "RHONDA.SMITH@SCASURGERY.COM",
    "categoryName": "SURGICAL CLINIC",
    "categoryCode": "ASC",
    "licenseStatus": "INACTIVE - CAPEN DECISION",
    "inService": false,
    "licenseNumber": "090000423",
    "licenseEffectiveDate": "12/28/2007",
    "licenseExpirationDate": "12/27/2008",
    "dataDate": "10/18/2025",
    "capacity": 0,
    "address": "4033 3RD AVE, SUITE 106",
    "city": "SAN DIEGO",
    "zip": "92103",
    "county": "SAN DIEGO",
    "phone": "(619) 497-2888",
    "lat": 32.75056987,
    "lng": -117.1626866
  },
  {
    "id": "090000489",
    "name": "SAN DIEGO EYE COR",
    "npi": "1922027176",
    "hcaiId": null,
    "businessName": null,
    "contactEmail": null,
    "categoryName": "SURGICAL CLINIC",
    "categoryCode": "ASC",
    "licenseStatus": null,
    "inService": null,
    "licenseNumber": null,
    "licenseEffectiveDate": null,
    "licenseExpirationDate": null,
    "dataDate": "10/18/2025",
    "capacity": 0,
    "address": "3939 3RD AVE",
    "city": "SAN DIEGO",
    "zip": "92103",
    "county": "SAN DIEGO",
    "phone": "(619) 296-8525",
    "lat": 32.74905303,
    "lng": -117.1626906
  },
  {
    "id": "630024615",
    "name": "SAN YSIDRO HEALTH PHYSICIANS HEALTH INSTITUTE FOR WOMEN",
    "npi": "1598907487",
    "hcaiId": null,
    "businessName": "CENTRO DE SALUD DE LA COMUNIDAD DE SAN YSIDRO, INC.",
    "contactEmail": "SHAMETT@SYHEALTH.ORG",
    "categoryName": "PRIMARY CARE CLINIC",
    "categoryCode": "COMTYC",
    "licenseStatus": "ACTIVE",
    "inService": true,
    "licenseNumber": "550001126",
    "licenseEffectiveDate": "11/20/2024",
    "licenseExpirationDate": "11/19/2025",
    "dataDate": "10/18/2025",
    "capacity": 0,
    "address": "550 WASHINGTON ST, SUITE 331",
    "city": "SAN DIEGO",
    "zip": "92103",
    "county": "SAN DIEGO",
    "phone": "(619) 662-4100",
    "lat": 32.750253,
    "lng": -117.160389
  },
  {
    "id": "090000025",
    "name": "SCRIPPS MERCY HOSPITAL",
    "npi": "1659359446",
    "hcaiId": "106370744",
    "businessName": "SCRIPPS HEALTH",
    "contactEmail": "SCHLOEDER.DIANE@SCRIPPSHEALTH.ORG",
    "categoryName": "GENERAL ACUTE CARE HOSPITAL",
    "categoryCode": "GACH",
    "licenseStatus": "ACTIVE",
    "inService": true,
    "licenseNumber": "090000074",
    "licenseEffectiveDate": "05/11/2025",
    "licenseExpirationDate": "05/10/2026",
    "dataDate": "10/18/2025",
    "capacity": 446,
    "address": "4077 5TH AVE",
    "city": "SAN DIEGO",
    "zip": "92103",
    "county": "SAN DIEGO",
    "phone": "(619) 260-7101",
    "lat": 32.751306,
    "lng": -117.1600785
  },
  {
    "id": "090000812",
    "name": "SCRIPPS MERCY HOSPITAL",
    "npi": "1659359446",
    "hcaiId": null,
    "businessName": "SCRIPPS HEALTH",
    "contactEmail": null,
    "categoryName": "OTHER",
    "categoryCode": "PPSPSCH",
    "licenseStatus": "ACTIVE",
    "inService": true,
    "licenseNumber": "090000074",
    "licenseEffectiveDate": "05/11/2025",
    "licenseExpirationDate": "05/10/2026",
    "dataDate": "10/18/2025",
    "capacity": 0,
    "address": "4077 5TH AVE",
    "city": "SAN DIEGO",
    "zip": "92103",
    "county": "SAN DIEGO",
    "phone": null,
    "lat": 32.751306,
    "lng": -117.1600785
  },
  {
    "id": "090000347",
    "name": "SCRIPPS MERCY HOSPITAL D/P APH",
    "npi": "1659359446",
    "hcaiId": null,
    "businessName": "SCRIPPS HEALTH",
    "contactEmail": null,
    "categoryName": "ACUTE PSYCHIATRIC HOSPITAL",
    "categoryCode": "APH",
    "licenseStatus": "ACTIVE",
    "inService": true,
    "licenseNumber": "090000074",
    "licenseEffectiveDate": "05/11/2025",
    "licenseExpirationDate": "05/10/2026",
    "dataDate": "10/18/2025",
    "capacity": 36,
    "address": "4077 5TH AVE",
    "city": "SAN DIEGO",
    "zip": "92103",
    "county": "SAN DIEGO",
    "phone": "(619) 000-0000",
    "lat": 32.751306,
    "lng": -117.1600785
  },
  {
    "id": "090001595",
    "name": "SCRIPPS MERCY SURGERY PAVILION",
    "npi": "1972668317",
    "hcaiId": "306374339",
    "businessName": null,
    "contactEmail": "GREEN.STEVEN@SCRIPPSHEALTH.ORG",
    "categoryName": "SURGICAL CLINIC",
    "categoryCode": "ASC",
    "licenseStatus": "INACTIVE - CAPEN DECISION",
    "inService": false,
    "licenseNumber": "090000675",
    "licenseEffectiveDate": "11/04/2007",
    "licenseExpirationDate": "11/03/2008",
    "dataDate": "10/18/2025",
    "capacity": 0,
    "address": "550 WASHINGTON ST, SUITE 101",
    "city": "SAN DIEGO",
    "zip": "92103",
    "county": "SAN DIEGO",
    "phone": "(619) 686-3670",
    "lat": 32.750253,
    "lng": -117.160389
  },
  {
    "id": "630028465",
    "name": "SDAIHC MOBILE UNIT 3",
    "npi": null,
    "hcaiId": null,
    "businessName": "SAN DIEGO AMERICAN INDIAN HEALTH CENTER",
    "contactEmail": null,
    "categoryName": "PRIMARY CARE CLINIC",
    "categoryCode": "COMTYC",
    "licenseStatus": "ACTIVE",
    "inService": true,
    "licenseNumber": "090000168",
    "licenseEffectiveDate": "02/25/2025",
    "licenseExpirationDate": "02/24/2026",
    "dataDate": "10/18/2025",
    "capacity": 0,
    "address": "2630 1ST AVENUE",
    "city": "SAN DIEGO",
    "zip": "92103",
    "county": "SAN DIEGO",
    "phone": null,
    "lat": 32.73288025,
    "lng": -117.1641941
  },
  {
    "id": "090000977",
    "name": "SELECT SPECIALTY HOSPITAL - SAN DIEGO",
    "npi": "1639172133",
    "hcaiId": "106374094",
    "businessName": "VIBRA HOSPITAL OF SAN DIEGO, LLC",
    "contactEmail": "TLE@SELECTMEDICAL.COM",
    "categoryName": "GENERAL ACUTE CARE HOSPITAL",
    "categoryCode": "GACH",
    "licenseStatus": "ACTIVE",
    "inService": true,
    "licenseNumber": "090000404",
    "licenseEffectiveDate": "11/01/2025",
    "licenseExpirationDate": "10/31/2026",
    "dataDate": "10/18/2025",
    "capacity": 110,
    "address": "555 WASHINGTON ST",
    "city": "SAN DIEGO",
    "zip": "92103",
    "county": "SAN DIEGO",
    "phone": "(619) 260-8300",
    "lat": 32.749362,
    "lng": -117.1599345
  },
  {
    "id": "090000084",
    "name": "ST. PAUL'S HEALTH CARE CENTER",
    "npi": "1972619104",
    "hcaiId": "206371598",
    "businessName": "ST. PAUL'S EPISCOPAL HOME, INC.",
    "contactEmail": "TJEFFERS@STPAULSENIORS.ORG",
    "categoryName": "SKILLED NURSING FACILITY",
    "categoryCode": "SNF",
    "licenseStatus": "ACTIVE",
    "inService": true,
    "licenseNumber": "090000181",
    "licenseEffectiveDate": "01/04/2025",
    "licenseExpirationDate": "01/03/2026",
    "dataDate": "10/18/2025",
    "capacity": 59,
    "address": "235 NUTMEG ST",
    "city": "SAN DIEGO",
    "zip": "92103",
    "county": "SAN DIEGO",
    "phone": "(619) 239-2097",
    "lat": 32.733144,
    "lng": -117.162423
  },
  {
    "id": "630024228",
    "name": "ST. PAUL'S PACE ROVING CLINIC",
    "npi": null,
    "hcaiId": "306370726",
    "businessName": "COMMUNITY ELDERCARE OF SAN DIEGO",
    "contactEmail": "LICENSE@STPAULSPACE.ORG",
    "categoryName": "PRIMARY CARE CLINIC",
    "categoryCode": "COMTYC",
    "licenseStatus": "ACTIVE",
    "inService": true,
    "licenseNumber": "550007852",
    "licenseEffectiveDate": "02/09/2025",
    "licenseExpirationDate": "02/08/2026",
    "dataDate": "10/18/2025",
    "capacity": 0,
    "address": "2557 3RD AVE",
    "city": "SAN DIEGO",
    "zip": "92103",
    "county": "SAN DIEGO",
    "phone": "(616) 677-3800",
    "lat": 32.732136,
    "lng": -117.1618065
  },
  {
    "id": "630015837",
    "name": "THE HILINSKI AMBULATORY SURGERY CENTER",
    "npi": "1245534460",
    "hcaiId": null,
    "businessName": null,
    "contactEmail": "CHRISTINE@HILINSKIASC.COM",
    "categoryName": "SURGICAL CLINIC",
    "categoryCode": "ASC",
    "licenseStatus": null,
    "inService": null,
    "licenseNumber": null,
    "licenseEffectiveDate": null,
    "licenseExpirationDate": null,
    "dataDate": "10/18/2025",
    "capacity": 0,
    "address": "3720 4TH AVE",
    "city": "SAN DIEGO",
    "zip": "92103",
    "county": "SAN DIEGO",
    "phone": "(619) 296-3223",
    "lat": 32.745555,
    "lng": -117.1619595
  },
  {
    "id": "090000154",
    "name": "UC SAN DIEGO HEALTH HILLCREST - HILLCREST MEDICAL CENTER",
    "npi": "1184722779",
    "hcaiId": "106370782",
    "businessName": "THE REGENTS OF THE UNIVERSITY OF CALIFORNIA (UCSD)",
    "contactEmail": "CEVANDENBERG@HEALTH.UCSD.EDU",
    "categoryName": "GENERAL ACUTE CARE HOSPITAL",
    "categoryCode": "GACH",
    "licenseStatus": "ACTIVE",
    "inService": true,
    "licenseNumber": "090000101",
    "licenseEffectiveDate": "11/01/2025",
    "licenseExpirationDate": "10/31/2026",
    "dataDate": "10/18/2025",
    "capacity": 381,
    "address": "200 W ARBOR DR",
    "city": "SAN DIEGO",
    "zip": "92103",
    "county": "SAN DIEGO",
    "phone": "(619) 543-6475",
    "lat": 32.754177,
    "lng": -117.166671
  },
  {
    "id": "080001621",
    "name": "UCSD DIALYSIS CLINIC",
    "npi": "1124118948",
    "hcaiId": "306374242",
    "businessName": "THE REGENTS OF THE UNIVERSITY OF CALIFORNIA (UCSD)",
    "contactEmail": "TIMBLUM@UCSD.EDU",
    "categoryName": "CHRONIC DIALYSIS CLINIC",
    "categoryCode": "ESRD/CDC",
    "licenseStatus": "ACTIVE",
    "inService": true,
    "licenseNumber": "080000709",
    "licenseEffectiveDate": "02/27/2025",
    "licenseExpirationDate": "02/26/2026",
    "dataDate": "10/18/2025",
    "capacity": 18,
    "address": "200 W ARBOR DR",
    "city": "SAN DIEGO",
    "zip": "92103",
    "county": "SAN DIEGO",
    "phone": "(619) 315-1695",
    "lat": 32.754177,
    "lng": -117.166671
  },
  {
    "id": "630012612",
    "name": "UNIVERSITY OF CALIFORNIA SAN DIEGO",
    "npi": null,
    "hcaiId": null,
    "businessName": null,
    "contactEmail": null,
    "categoryName": "GENERAL ACUTE CARE HOSPITAL",
    "categoryCode": "TRANS",
    "licenseStatus": null,
    "inService": null,
    "licenseNumber": null,
    "licenseEffectiveDate": null,
    "licenseExpirationDate": null,
    "dataDate": "10/18/2025",
    "capacity": 0,
    "address": "200 W ARBOR DR",
    "city": "SAN DIEGO",
    "zip": "92103",
    "county": "SAN DIEGO",
    "phone": null,
    "lat": 32.754177,
    "lng": -117.166671
  }
]