[
  {
    "id": "090000048",
    "name": "KINDRED HOSPITAL - SAN DIEGO",
    "npi": "1992880512",
    "hcaiId": "106370721",
    "businessName": "THC - ORANGE COUNTY, LLC",
    "contactEmail": "ROBIN.GOMEZ@KINDRED.COM",
    "categoryName": "GENERAL ACUTE CARE HOSPITAL",
    "categoryCode": "GACH",
    "licenseStatus": "ACTIVE",
    "inService": true,
    "licenseNumber": "090000059",
    "licenseEffectiveDate": "11/01/2025",
    "licenseExpirationDate": "10/31/2026",
    "dataDate": "10/18/2025",
    "capacity": 70,
    "address": "1940 EL CAJON BLVD",
    "city": "SAN DIEGO",
    "zip": "92104",
    "county": "SAN DIEGO",
    "phone": "(619) 543-4500",
    "lat": 32.756202,
    "lng": -117.144657
  },
  {
    "id": "630017666",
    "name": "NORTH PARK BEHAVIORAL HEALTH CENTER",
    "npi": null,
    "hcaiId": null,
    "businessName": null,
    "contactEmail": null,
    "categoryName": "PRIMARY CARE CLINIC",
    "categoryCode": "FQHC",
    "licenseStatus": null,
    "inService": null,
    "licenseNumber": null,
    "licenseEffectiveDate": null,
    "licenseExpirationDate": null,
    "dataDate": "10/18/2025",
    "capacity": 0,
    "address": "2136 EL CAJON BLVD",
    "city": "SAN DIEGO",
    "zip": "92104",
    "county": "SAN DIEGO",
    "phone": "(619) 515-2588",
    "lat": 32.755545,
    "lng": -117.1416735
  },
  {
    "id": "630025933",
    "name": "NORTH PARK FAMILY COUNSELING CENTER",
    "npi": null,
    "hcaiId": null,
    "businessName": "FAMILY HEALTH CENTERS OF SAN DIEGO, INC.",
    "contactEmail": "MYRAB@FHCSD.ORG",
    "categoryName": "PRIMARY CARE CLINIC",
    "categoryCode": "COMTYC",
    "licenseStatus": "ACTIVE",
    "inService": true,
    "licenseNumber": "550000024",
    "licenseEffectiveDate": "05/09/2025",
    "licenseExpirationDate": "05/08/2026",
    "dataDate": "10/18/2025",
    "capacity": 0,
    "address": "2136 EL CAJON BLVD",
    "city": "SAN DIEGO",
    "zip": "92104",
    "county": "SAN DIEGO",
    "phone": "(619) 906-5319",
    "lat": 32.755545,
    "lng": -117.1416735
  },
  {
    "id": "090001136",
    "name": "NORTH PARK FAMILY HEALTH CENTER",
    "npi": "1700821303",
    "hcaiId": "306374160",
    "businessName": "FAMILY HEALTH CENTERS OF SAN DIEGO, INC.",
    "contactEmail": "LICENSING@FHCSD.ORG",
    "categoryName": "PRIMARY CARE CLINIC",
    "categoryCode": "COMTYC",
    "licenseStatus": "ACTIVE",
    "inService": true,
    "licenseNumber": "090000469",
    "licenseEffectiveDate": "11/10/2025",
    "licenseExpirationDate": "11/09/2026",
    "dataDate": "10/18/2025",
    "capacity": 0,
    "address": "3544 30TH ST",
    "city": "SAN DIEGO",
    "zip": "92104",
    "county": "SAN DIEGO",
    "phone": "(619) 515-2416",
    "lat": 32.742855,
    "lng": -117.130356
  },
  {
    "id": "630018834",
    "name": "NORTH PARK FAMILY HEALTH CENTER II",
    "npi": null,
    "hcaiId": null,
    "businessName": "FAMILY HEALTH CENTERS OF SAN DIEGO, INC.",
    "contactEmail": null,
    "categoryName": "PRIMARY CARE CLINIC",
    "categoryCode": "COMTYC",
    "licenseStatus": "ACTIVE",
    "inService": true,
    "licenseNumber": "090000469",
    "licenseEffectiveDate": "11/10/2025",
    "licenseExpirationDate": "11/09/2026",
    "dataDate": "10/18/2025",
    "capacity": 0,
    "address": "3514 30TH ST",
    "city": "SAN DIEGO",
    "zip": "92104",
    "county": "SAN DIEGO",
    "phone": null,
    "lat": 32.742477,
    "lng": -117.130365
  }
]