[
  {
    "id": "080000176",
    "name": "BEACH AREA FAMILY HEALTH CENTER",
    "npi": "1386689701",
    "hcaiId": "306370847",
    "businessName": "FAMILY HEALTH CENTERS OF SAN DIEGO, INC.",
    "contactEmail": "LICENSING@FHCSD.ORG",
    "categoryName": "PRIMARY CARE CLINIC",
    "categoryCode": "COMTYC",
    "licenseStatus": "ACTIVE",
    "inService": true,
    "licenseNumber": "080000115",
    "licenseEffectiveDate": "11/30/2024",
    "licenseExpirationDate": "11/29/2025",
    "dataDate": "10/18/2025",
    "capacity": 0,
    "address": "3705 MISSION BLVD",
    "city": "SAN DIEGO",
    "zip": "92109",
    "county": "SAN DIEGO",
    "phone": "(619) 515-2345",
    "lat": 32.782734,
    "lng": -117.252216
  },
  {
    "id": "630014437",
    "name": "BEACH AREA FAMILY HEALTH CENTER",
    "npi": null,
    "hcaiId": null,
    "businessName": null,
    "contactEmail": null,
    "categoryName": "PRIMARY CARE CLINIC",
    "categoryCode": "FQHC",
    "licenseStatus": null,
    "inService": null,
    "licenseNumber": null,
    "licenseEffectiveDate": null,
    "licenseExpirationDate": null,
    "dataDate": "10/18/2025",
    "capacity": 0,
    "address": "3690 MISSION BLVD",
    "city": "SAN DIEGO",
    "zip": "92109",
    "county": "SAN DIEGO",
    "phone": null,
    "lat": 32.782383,
    "lng": -117.252684
  },
  {
    "id": "630021776",
    "name": "CAPS BEACH AREA CLINIC",
    "npi": null,
    "hcaiId": null,
    "businessName": "COLLEGE AREA PREGNANCY SERVICES, INC.",
    "contactEmail": null,
    "categoryName": "PRIMARY CARE CLINIC",
    "categoryCode": "FREEC",
    "licenseStatus": "ACTIVE",
    "inService": true,
    "licenseNumber": "090000659",
    "licenseEffectiveDate": "11/29/2024",
    "licenseExpirationDate": "11/28/2025",
    "dataDate": "10/18/2025",
    "capacity": 0,
    "address": "1856 GARNET AVE",
    "city": "SAN DIEGO",
    "zip": "92109",
    "county": "SAN DIEGO",
    "phone": null,
    "lat": 32.8014,
    "lng": -117.236556
  },
  {
    "id": "630014156",
    "name": "MICHAEL S DUFFY SR DO INC",
    "npi": null,
    "hcaiId": null,
    "businessName": null,
    "contactEmail": null,
    "categoryName": "OTHER",
    "categoryCode": "UNLICEN",
    "licenseStatus": null,
    "inService": null,
    "licenseNumber": null,
    "licenseEffectiveDate": null,
    "licenseExpirationDate": null,
    "dataDate": "10/18/2025",
    "capacity": 0,
    "address": "4692 MISSION BLVD",
    "city": "SAN DIEGO",
    "zip": "92109",
    "county": "SAN DIEGO",
    "phone": null,
    "lat": 32.799033,
    "lng": -117.2566395
  },
  {
    "id": "080000628",
    "name": "NORTH SAN DIEGO HEALTH CENTER-EXEMPT COMM. CLINIC",
    "npi": null,
    "hcaiId": null,
    "businessName": null,
    "contactEmail": null,
    "categoryName": "OTHER",
    "categoryCode": "UNLICEN",
    "licenseStatus": null,
    "inService": null,
    "licenseNumber": null,
    "licenseEffectiveDate": null,
    "licenseExpirationDate": null,
    "dataDate": "10/18/2025",
    "capacity": 0,
    "address": "2440 GRAND AVE",
    "city": "SAN DIEGO",
    "zip": "92109",
    "county": "SAN DIEGO",
    "phone": "(858) 490-4423",
    "lat": 32.801769,
    "lng": -117.225468
  }
]