[
  {
    "id": "630011201",
    "name": "DIAMOND NEIGHBORHOODS FAMILY HEALTH CENTER",
    "npi": "1982747671",
    "hcaiId": "306374513",
    "businessName": "FAMILY HEALTH CENTERS OF SAN DIEGO, INC.",
    "contactEmail": "LICENSING@FHCSD.ORG",
    "categoryName": "PRIMARY CARE CLINIC",
    "categoryCode": "COMTYC",
    "licenseStatus": "ACTIVE",
    "inService": true,
    "licenseNumber": "550000465",
    "licenseEffectiveDate": "04/27/2025",
    "licenseExpirationDate": "04/26/2026",
    "dataDate": "10/18/2025",
    "capacity": 0,
    "address": "4725 MARKET ST",
    "city": "SAN DIEGO",
    "zip": "92102",
    "county": "SAN DIEGO",
    "phone": "(619) 515-2326",
    "lat": 32.711013,
    "lng": -117.093078
  },
  {
    "id": "630016416",
    "name": "FRESENIUS MEDICAL CARE RAVEN",
    "npi": null,
    "hcaiId": "306374560",
    "businessName": "BIO-MEDICAL APPLICATIONS OF CALIFORNIA, INC.",
    "contactEmail": "CLINIC6681@FMC-NA.COM",
    "categoryName": "CHRONIC DIALYSIS CLINIC",
    "categoryCode": "ESRD/CDC",
    "licenseStatus": "ACTIVE",
    "inService": true,
    "licenseNumber": "550003681",
    "licenseEffectiveDate": "04/13/2025",
    "licenseExpirationDate": "04/12/2026",
    "dataDate": "10/18/2025",
    "capacity": 31,
    "address": "499 RAVEN STREET",
    "city": "SAN DIEGO",
    "zip": "92102",
    "county": "SAN DIEGO",
    "phone": "(619) 263-1518",
    "lat": 32.710626,
    "lng": -117.1070235
  },
  {
    "id": "090000061",
    "name": "GOLDEN HILL POST ACUTE",
    "npi": "1811963028",
    "hcaiId": "206370713",
    "businessName": "DEVONSHIRE HEALTHCARE, INC",
    "contactEmail": "MEMPEY@ENSIGNSERVICES.NET",
    "categoryName": "SKILLED NURSING FACILITY",
    "categoryCode": "SNF",
    "licenseStatus": "ACTIVE",
    "inService": true,
    "licenseNumber": "090000052",
    "licenseEffectiveDate": "06/17/2025",
    "licenseExpirationDate": "05/19/2026",
    "dataDate": "10/18/2025",
    "capacity": 99,
    "address": "1201 34TH ST",
    "city": "SAN DIEGO",
    "zip": "92102",
    "county": "SAN DIEGO",
    "phone": "(801) 362-2544",
    "lat": 32.718186,
    "lng": -117.1203885
  },
  {
    "id": "090001463",
    "name": "KIDCARE EXPRESS",
    "npi": "1962433458",
    "hcaiId": "306374470",
    "businessName": "FAMILY HEALTH CENTERS OF SAN DIEGO, INC.",
    "contactEmail": "LICENSING@FHCSD.ORG",
    "categoryName": "PRIMARY CARE CLINIC",
    "categoryCode": "COMTYC",
    "licenseStatus": "ACTIVE",
    "inService": true,
    "licenseNumber": "090000612",
    "licenseEffectiveDate": "04/28/2025",
    "licenseExpirationDate": "04/27/2026",
    "dataDate": "10/18/2025",
    "capacity": 0,
    "address": "823 GATEWAY CENTER WAY",
    "city": "SAN DIEGO",
    "zip": "92102",
    "county": "SAN DIEGO",
    "phone": "(619) 515-2586",
    "lat": 32.715405,
    "lng": -117.1134855
  },
  {
    "id": "630019489",
    "name": "MOBILE COUNSELING CENTER I",
    "npi": "1013952597",
    "hcaiId": null,
    "businessName": "FAMILY HEALTH CENTERS OF SAN DIEGO, INC.",
    "contactEmail": null,
    "categoryName": "PRIMARY CARE CLINIC",
    "categoryCode": "COMTYC",
    "licenseStatus": "ACTIVE",
    "inService": true,
    "licenseNumber": "550000024",
    "licenseEffectiveDate": "05/09/2025",
    "licenseExpirationDate": "05/08/2026",
    "dataDate": "10/18/2025",
    "capacity": 0,
    "address": "823 GATEWAY CENTER WAY",
    "city": "SAN DIEGO",
    "zip": "92102",
    "county": "SAN DIEGO",
    "phone": null,
    "lat": 32.715405,
    "lng": -117.1134855
  },
  {
    "id": "630017495",
    "name": "MOBILE MEDICAL UNIT II",
    "npi": "1982747671",
    "hcaiId": null,
    "businessName": "FAMILY HEALTH CENTERS OF SAN DIEGO, INC.",
    "contactEmail": null,
    "categoryName": "PRIMARY CARE CLINIC",
    "categoryCode": "COMTYC",
    "licenseStatus": "ACTIVE",
    "inService": true,
    "licenseNumber": "550000465",
    "licenseEffectiveDate": "04/27/2025",
    "licenseExpirationDate": "04/26/2026",
    "dataDate": "10/18/2025",
    "capacity": 0,
    "address": "823 GATEWAY CENTER WAY",
    "city": "SAN DIEGO",
    "zip": "92102",
    "county": "SAN DIEGO",
    "phone": null,
    "lat": 32.715405,
    "lng": -117.1134855
  },
  {
    "id": "630017496",
    "name": "MOBILE MEDICAL UNIT III",
    "npi": "1982747671",
    "hcaiId": null,
    "businessName": "FAMILY HEALTH CENTERS OF SAN DIEGO, INC.",
    "contactEmail": null,
    "categoryName": "PRIMARY CARE CLINIC",
    "categoryCode": "COMTYC",
    "licenseStatus": "ACTIVE",
    "inService": true,
    "licenseNumber": "550000465",
    "licenseEffectiveDate": "04/27/2025",
    "licenseExpirationDate": "04/26/2026",
    "dataDate": "10/18/2025",
    "capacity": 0,
    "address": "823 GATEWAY CENTER WAY",
    "city": "SAN DIEGO",
    "zip": "92102",
    "county": "SAN DIEGO",
    "phone": null,
    "lat": 32.715405,
    "lng": -117.1134855
  },
  {
    "id": "630027659",
    "name": "MOBILE SCREENING UNIT",
    "npi": "1629456900",
    "hcaiId": null,
    "businessName": "FAMILY HEALTH CENTERS OF SAN DIEGO, INC.",
    "contactEmail": null,
    "categoryName": "PRIMARY CARE CLINIC",
    "categoryCode": "COMTYC",
    "licenseStatus": "ACTIVE",
    "inService": true,
    "licenseNumber": "550003099",
    "licenseEffectiveDate": "07/09/2025",
    "licenseExpirationDate": "06/09/2026",
    "dataDate": "10/18/2025",
    "capacity": 0,
    "address": "823 GATEWAY CENTER WAY",
    "city": "SAN DIEGO",
    "zip": "92102",
    "county": "SAN DIEGO",
    "phone": null,
    "lat": 32.715408,
    "lng": -117.113495
  },
  {
    "id": "080001613",
    "name": "SAN DIEGO DIALYSIS SERVICES, INC.",
    "npi": "1386756187",
    "hcaiId": "306374039",
    "businessName": "SAN DIEGO DIALYSIS SERVICES INC",
    "contactEmail": "CLINIC1985@FMC-NA.COM",
    "categoryName": "CHRONIC DIALYSIS CLINIC",
    "categoryCode": "ESRD/CDC",
    "licenseStatus": "ACTIVE",
    "inService": true,
    "licenseNumber": "080000701",
    "licenseEffectiveDate": "04/01/2025",
    "licenseExpirationDate": "03/31/2026",
    "dataDate": "10/18/2025",
    "capacity": 24,
    "address": "720 GATEWAY CENTER DR, SUITE B",
    "city": "SAN DIEGO",
    "zip": "92102",
    "county": "SAN DIEGO",
    "phone": "(619) 264-4100",
    "lat": 32.713659,
    "lng": -117.11475
  },
  {
    "id": "630011279",
    "name": "SAN YSIDRO HEALTH SHERMAN HEIGHTS",
    "npi": "1922051812",
    "hcaiId": "306374402",
    "businessName": "CENTRO DE SALUD DE LA COMUNIDAD DE SAN YSIDRO, INC.",
    "contactEmail": "KCORONADO@MTNHEALTH.ORG",
    "categoryName": "PRIMARY CARE CLINIC",
    "categoryCode": "COMTYC",
    "licenseStatus": "ACTIVE",
    "inService": true,
    "licenseNumber": "090000136",
    "licenseEffectiveDate": "01/02/2025",
    "licenseExpirationDate": "01/01/2026",
    "dataDate": "10/18/2025",
    "capacity": 0,
    "address": "316 25TH ST",
    "city": "SAN DIEGO",
    "zip": "92102",
    "county": "SAN DIEGO",
    "phone": "(619) 238-5551",
    "lat": 32.70863888,
    "lng": -117.1402801
  },
  {
    "id": "090001374",
    "name": "SHERMAN HEIGHTS FAMILY HEALTH CENTER",
    "npi": null,
    "hcaiId": "306374398",
    "businessName": "FAMILY HEALTH CENTERS OF SAN DIEGO, INC.",
    "contactEmail": "LICENSING@FHCSD.ORG",
    "categoryName": "PRIMARY CARE CLINIC",
    "categoryCode": "COMTYC",
    "licenseStatus": "ACTIVE",
    "inService": true,
    "licenseNumber": "090000565",
    "licenseEffectiveDate": "12/24/2024",
    "licenseExpirationDate": "12/23/2025",
    "dataDate": "10/18/2025",
    "capacity": 0,
    "address": "2391 ISLAND AVE",
    "city": "SAN DIEGO",
    "zip": "92102",
    "county": "SAN DIEGO",
    "phone": "(615) 515-2361",
    "lat": 32.71043165,
    "lng": -117.1425248
  },
  {
    "id": "630012854",
    "name": "ST. VINCENT DE PAUL VILLAGE MOBILE HEALTH CLINIC",
    "npi": null,
    "hcaiId": null,
    "businessName": null,
    "contactEmail": null,
    "categoryName": "PRIMARY CARE CLINIC",
    "categoryCode": "FQHC",
    "licenseStatus": null,
    "inService": null,
    "licenseNumber": null,
    "licenseEffectiveDate": null,
    "licenseExpirationDate": null,
    "dataDate": "10/18/2025",
    "capacity": 0,
    "address": "3350 E ST",
    "city": "SAN DIEGO",
    "zip": "92102",
    "county": "SAN DIEGO",
    "phone": null,
    "lat": 32.715018,
    "lng": -117.121941
  },
  {
    "id": "080001681",
    "name": "THERAPY SPECIALISTS EXT.",
    "npi": null,
    "hcaiId": null,
    "businessName": null,
    "contactEmail": null,
    "categoryName": "OTHER",
    "categoryCode": "UNLICEN",
    "licenseStatus": null,
    "inService": null,
    "licenseNumber": null,
    "licenseEffectiveDate": null,
    "licenseExpirationDate": null,
    "dataDate": "10/18/2025",
    "capacity": 0,
    "address": "1119 28TH ST",
    "city": "SAN DIEGO",
    "zip": "92102",
    "county": "SAN DIEGO",
    "phone": "(000) 000-0000",
    "lat": 32.71734,
    "lng": -117.133434
  }
]