[
  {
    "id": "630006921",
    "name": "ALLIANCE HEALTH CLINIC, INC.",
    "npi": null,
    "hcaiId": "306374401",
    "businessName": "ALLIANCE HEALTH CLINIC, INC.",
    "contactEmail": "SIMIN@ALLIANCEHEALTHCLINIC.ORG",
    "categoryName": "PRIMARY CARE CLINIC",
    "categoryCode": "COMTYC",
    "licenseStatus": "ACTIVE",
    "inService": true,
    "licenseNumber": "550000541",
    "licenseEffectiveDate": "11/26/2024",
    "licenseExpirationDate": "11/25/2025",
    "dataDate": "10/18/2025",
    "capacity": 0,
    "address": "5952 EL CAJON BLVD",
    "city": "SAN DIEGO",
    "zip": "92115",
    "county": "SAN DIEGO",
    "phone": "(619) 286-9052",
    "lat": 32.760495,
    "lng": -117.0694845
  },
  {
    "id": "630015987",
    "name": "CITY HEIGHTS FAMILY HEALTH CENTER",
    "npi": "1477953933",
    "hcaiId": "306374535",
    "businessName": "FAMILY HEALTH CENTERS OF SAN DIEGO, INC.",
    "contactEmail": "LICENSING@FHCSD.ORG",
    "categoryName": "PRIMARY CARE CLINIC",
    "categoryCode": "COMTYC",
    "licenseStatus": "ACTIVE",
    "inService": true,
    "licenseNumber": "550003108",
    "licenseEffectiveDate": "06/15/2025",
    "licenseExpirationDate": "06/14/2026",
    "dataDate": "10/18/2025",
    "capacity": 0,
    "address": "5454 EL CAJON BLVD",
    "city": "SAN DIEGO",
    "zip": "92115",
    "county": "SAN DIEGO",
    "phone": "(619) 515-2441",
    "lat": 32.75836501,
    "lng": -117.077853
  },
  {
    "id": "090001568",
    "name": "COLLEGE AREA PREGNANCY SERVICES",
    "npi": null,
    "hcaiId": "306374349",
    "businessName": "COLLEGE AREA PREGNANCY SERVICES, INC.",
    "contactEmail": "JULIE.CAPSSANDIEGO@GMAIL.COM",
    "categoryName": "PRIMARY CARE CLINIC",
    "categoryCode": "FREEC",
    "licenseStatus": "ACTIVE",
    "inService": true,
    "licenseNumber": "090000659",
    "licenseEffectiveDate": "11/29/2024",
    "licenseExpirationDate": "11/28/2025",
    "dataDate": "10/18/2025",
    "capacity": 0,
    "address": "6663 EL CAJON BLVD, SUITE L&M",
    "city": "SAN DIEGO",
    "zip": "92115",
    "county": "SAN DIEGO",
    "phone": "(619) 337-8080",
    "lat": 32.767488,
    "lng": -117.055044
  },
  {
    "id": "080001733",
    "name": "COLLEGE DIALYSIS",
    "npi": "1902870330",
    "hcaiId": "306374328",
    "businessName": "DVA RENAL HEALTHCARE, INC.",
    "contactEmail": "CAL_C@DAVITA.COM",
    "categoryName": "CHRONIC DIALYSIS CLINIC",
    "categoryCode": "ESRD/CDC",
    "licenseStatus": "ACTIVE",
    "inService": true,
    "licenseNumber": "080000775",
    "licenseEffectiveDate": "11/23/2025",
    "licenseExpirationDate": "11/22/2026",
    "dataDate": "10/18/2025",
    "capacity": 33,
    "address": "6035 UNIVERSITY AVE",
    "city": "SAN DIEGO",
    "zip": "92115",
    "county": "SAN DIEGO",
    "phone": "(619) 287-8796",
    "lat": 32.751837,
    "lng": -117.065997
  },
  {
    "id": "630027722",
    "name": "EL CERRITO FAMILY COUNSELING CENTER",
    "npi": null,
    "hcaiId": null,
    "businessName": "FAMILY HEALTH CENTERS OF SAN DIEGO, INC.",
    "contactEmail": null,
    "categoryName": "PRIMARY CARE CLINIC",
    "categoryCode": "COMTYC",
    "licenseStatus": "ACTIVE",
    "inService": true,
    "licenseNumber": "550008461",
    "licenseEffectiveDate": "04/03/2025",
    "licenseExpirationDate": "04/02/2026",
    "dataDate": "10/18/2025",
    "capacity": 0,
    "address": "5472 EL CAJON BLVD, SUITE 101",
    "city": "SAN DIEGO",
    "zip": "92115",
    "county": "SAN DIEGO",
    "phone": null,
    "lat": 32.75848902,
    "lng": -117.076922
  },
  {
    "id": "630018210",
    "name": "FAMILY HEALTH-CENTER FOR OLDER ADULTS",
    "npi": null,
    "hcaiId": "306370412",
    "businessName": "FAMILY HEALTH CENTERS OF SAN DIEGO, INC.",
    "contactEmail": "LICENSING@FHCSD.ORG",
    "categoryName": "PRIMARY CARE CLINIC",
    "categoryCode": "COMTYC",
    "licenseStatus": "ACTIVE",
    "inService": true,
    "licenseNumber": "550004403",
    "licenseEffectiveDate": "10/25/2025",
    "licenseExpirationDate": "10/24/2026",
    "dataDate": "10/18/2025",
    "capacity": 0,
    "address": "3420 COLLEGE AVE",
    "city": "SAN DIEGO",
    "zip": "92115",
    "county": "SAN DIEGO",
    "phone": "(619) 515-2445",
    "lat": 32.74389,
    "lng": -117.0535455
  },
  {
    "id": "080001711",
    "name": "FMC DIALYSIS SERVICES OF COLLEGE",
    "npi": "1417069212",
    "hcaiId": "306370487",
    "businessName": "FRESENIUS MEDICAL CARE BALBOA V, LLC",
    "contactEmail": "CACLINICLICENSE@FRESENIUSMEDICALCARE.COM",
    "categoryName": "CHRONIC DIALYSIS CLINIC",
    "categoryCode": "ESRD/CDC",
    "licenseStatus": "ACTIVE",
    "inService": true,
    "licenseNumber": "080000757",
    "licenseEffectiveDate": "06/18/2025",
    "licenseExpirationDate": "06/17/2026",
    "dataDate": "10/18/2025",
    "capacity": 25,
    "address": "5961 UNIVERSITY AVE, SUITE 317",
    "city": "SAN DIEGO",
    "zip": "92115",
    "county": "SAN DIEGO",
    "phone": "(619) 229-9354",
    "lat": 32.75135221,
    "lng": -117.0682873
  },
  {
    "id": "630027786",
    "name": "IKIDNEY DIALYSIS",
    "npi": "1962259127",
    "hcaiId": null,
    "businessName": "IKIDNEY DIALYSIS, LLC",
    "contactEmail": "FA@IKIDNEYDIALYSIS.COM",
    "categoryName": "CHRONIC DIALYSIS CLINIC",
    "categoryCode": "ESRD/CDC",
    "licenseStatus": "ACTIVE",
    "inService": true,
    "licenseNumber": "550009726",
    "licenseEffectiveDate": "09/25/2025",
    "licenseExpirationDate": "03/24/2026",
    "dataDate": "10/18/2025",
    "capacity": 12,
    "address": "4660 EL CAJON BLVD, SUITE 110",
    "city": "SAN DIEGO",
    "zip": "92115",
    "county": "SAN DIEGO",
    "phone": "(619) 345-4397",
    "lat": 32.75631802,
    "lng": -117.093743
  },
  {
    "id": "630020001",
    "name": "LA MAESTRA COMMUNITY HEALTH CENTERS - HOOVER HIGH SCHOOL",
    "npi": null,
    "hcaiId": null,
    "businessName": "LA MAESTRA FAMILY CLINIC, INC.",
    "contactEmail": null,
    "categoryName": "PRIMARY CARE CLINIC",
    "categoryCode": "COMTYC",
    "licenseStatus": "ACTIVE",
    "inService": true,
    "licenseNumber": "090000378",
    "licenseEffectiveDate": "02/21/2025",
    "licenseExpirationDate": "02/20/2026",
    "dataDate": "10/18/2025",
    "capacity": 0,
    "address": "4474 EL CAJON BLVD",
    "city": "SAN DIEGO",
    "zip": "92115",
    "county": "SAN DIEGO",
    "phone": null,
    "lat": 32.757318,
    "lng": -117.0980865
  },
  {
    "id": "630024955",
    "name": "LA MESA FAMILY COUNSELING CENTER",
    "npi": "1013952597",
    "hcaiId": null,
    "businessName": "FAMILY HEALTH CENTERS OF SAN DIEGO, INC.",
    "contactEmail": null,
    "categoryName": "PRIMARY CARE CLINIC",
    "categoryCode": "COMTYC",
    "licenseStatus": "ACTIVE",
    "inService": true,
    "licenseNumber": "550000024",
    "licenseEffectiveDate": "05/09/2025",
    "licenseExpirationDate": "05/08/2026",
    "dataDate": "10/18/2025",
    "capacity": 0,
    "address": "7290 EL CAJON BLVD",
    "city": "SAN DIEGO",
    "zip": "92115",
    "county": "SAN DIEGO",
    "phone": null,
    "lat": 32.769045,
    "lng": -117.04068
  },
  {
    "id": "090000257",
    "name": "PLANNED PARENTHOOD ASSOCIATION OF SAN DIEGO COUNTY",
    "npi": "1427081652",
    "hcaiId": "306371594",
    "businessName": "PLANNED PARENTHOOD OF THE PACIFIC SOUTHWEST",
    "contactEmail": "LMANN1@PLANNED.ORG",
    "categoryName": "PRIMARY CARE CLINIC",
    "categoryCode": "COMTYC",
    "licenseStatus": "ACTIVE",
    "inService": true,
    "licenseNumber": "090000178",
    "licenseEffectiveDate": "06/07/2025",
    "licenseExpirationDate": "06/06/2026",
    "dataDate": "10/18/2025",
    "capacity": 0,
    "address": "4575 COLLEGE AVE",
    "city": "SAN DIEGO",
    "zip": "92115",
    "county": "SAN DIEGO",
    "phone": "(619) 881-4500",
    "lat": 32.760324,
    "lng": -117.066555
  },
  {
    "id": "630017193",
    "name": "SAN YSIDRO HEALTH COMMUNITY HEIGHTS FAMILY MEDICINE",
    "npi": "1487011847",
    "hcaiId": "306374567",
    "businessName": "CENTRO DE SALUD DE LA COMUNIDAD DE SAN YSIDRO, INC.",
    "contactEmail": "HEIDI.BLEVINS@SYHEALTH.ORG",
    "categoryName": "PRIMARY CARE CLINIC",
    "categoryCode": "COMTYC",
    "licenseStatus": "ACTIVE",
    "inService": true,
    "licenseNumber": "090000660",
    "licenseEffectiveDate": "06/14/2025",
    "licenseExpirationDate": "06/13/2026",
    "dataDate": "10/18/2025",
    "capacity": 0,
    "address": "4690 EL CAJON BLVD",
    "city": "SAN DIEGO",
    "zip": "92115",
    "county": "SAN DIEGO",
    "phone": "(619) 662-4100",
    "lat": 32.75622,
    "lng": -117.093258
  }
]