[
  {
    "id": "630018302",
    "name": "FAMILY HEALTH - YOUTH COUNSELING CENTER",
    "npi": null,
    "hcaiId": null,
    "businessName": "FAMILY HEALTH CENTERS OF SAN DIEGO, INC.",
    "contactEmail": "LICENSING@FHCSD.ORG",
    "categoryName": "PRIMARY CARE CLINIC",
    "categoryCode": "COMTYC",
    "licenseStatus": "ACTIVE",
    "inService": true,
    "licenseNumber": "550000024",
    "licenseEffectiveDate": "05/09/2025",
    "licenseExpirationDate": "05/08/2026",
    "dataDate": "10/18/2025",
    "capacity": 0,
    "address": "2130 NATIONAL AVE",
    "city": "SAN DIEGO",
    "zip": "92113",
    "county": "SAN DIEGO",
    "phone": "(619) 515-2416",
    "lat": 32.698278,
    "lng": -117.140931
  },
  {
    "id": "630016001",
    "name": "FAMILYHEALTH ON COMMERCIAL",
    "npi": "1235521782",
    "hcaiId": "306374539",
    "businessName": "FAMILY HEALTH CENTERS OF SAN DIEGO, INC.",
    "contactEmail": "LICENSING@FHCSD.ORG",
    "categoryName": "PRIMARY CARE CLINIC",
    "categoryCode": "COMTYC",
    "licenseStatus": "ACTIVE",
    "inService": true,
    "licenseNumber": "550003113",
    "licenseEffectiveDate": "06/19/2025",
    "licenseExpirationDate": "06/18/2026",
    "dataDate": "10/18/2025",
    "capacity": 0,
    "address": "2325 COMMERCIAL STREET, SUITE 1400",
    "city": "SAN DIEGO",
    "zip": "92113",
    "county": "SAN DIEGO",
    "phone": "(619) 515-2361",
    "lat": 32.70513659,
    "lng": -117.1429916
  },
  {
    "id": "630027566",
    "name": "HEALING TO YOU",
    "npi": "1003590357",
    "hcaiId": null,
    "businessName": "HEALING TO YOU",
    "contactEmail": "CARITERAN@HEALINGTOYOU.ORG",
    "categoryName": "PRIMARY CARE CLINIC",
    "categoryCode": "FREEC",
    "licenseStatus": "ACTIVE",
    "inService": true,
    "licenseNumber": "550009903",
    "licenseEffectiveDate": "06/24/2025",
    "licenseExpirationDate": "12/23/2025",
    "dataDate": "10/18/2025",
    "capacity": 0,
    "address": "1215 BEARDSLEY ST",
    "city": "SAN DIEGO",
    "zip": "92113",
    "county": "SAN DIEGO",
    "phone": "(562) 715-5672",
    "lat": 32.70004565,
    "lng": -117.1483816
  },
  {
    "id": "630001981",
    "name": "LOGAN HEIGHTS FAMILY COUNSELING CENTER",
    "npi": "1013952597",
    "hcaiId": "306374438",
    "businessName": "FAMILY HEALTH CENTERS OF SAN DIEGO, INC.",
    "contactEmail": "LICENSING@FHCSD.ORG",
    "categoryName": "PRIMARY CARE CLINIC",
    "categoryCode": "COMTYC",
    "licenseStatus": "ACTIVE",
    "inService": true,
    "licenseNumber": "550000024",
    "licenseEffectiveDate": "05/09/2025",
    "licenseExpirationDate": "05/08/2026",
    "dataDate": "10/18/2025",
    "capacity": 0,
    "address": "2204 NATIONAL AVE",
    "city": "SAN DIEGO",
    "zip": "92113",
    "county": "SAN DIEGO",
    "phone": "(619) 876-4441",
    "lat": 32.697288,
    "lng": -117.1398015
  },
  {
    "id": "090000179",
    "name": "LOGAN HEIGHTS FAMILY HEALTH CENTER",
    "npi": "1447281936",
    "hcaiId": "306370813",
    "businessName": "FAMILY HEALTH CENTERS OF SAN DIEGO, INC.",
    "contactEmail": "LICENSING@FHCSD.ORG",
    "categoryName": "PRIMARY CARE CLINIC",
    "categoryCode": "COMTYC",
    "licenseStatus": "ACTIVE",
    "inService": true,
    "licenseNumber": "090000113",
    "licenseEffectiveDate": "11/09/2024",
    "licenseExpirationDate": "11/08/2025",
    "dataDate": "10/18/2025",
    "capacity": 0,
    "address": "1809 NATIONAL AVE",
    "city": "SAN DIEGO",
    "zip": "92113",
    "county": "SAN DIEGO",
    "phone": "(619) 515-2361",
    "lat": 32.70141,
    "lng": -117.1466505
  },
  {
    "id": "630027457",
    "name": "LOGAN MEMORIAL FAMILY HEALTH CENTER",
    "npi": null,
    "hcaiId": null,
    "businessName": "FAMILY HEALTH CENTERS OF SAN DIEGO, INC.",
    "contactEmail": null,
    "categoryName": "PRIMARY CARE CLINIC",
    "categoryCode": "COMTYC",
    "licenseStatus": "ACTIVE",
    "inService": true,
    "licenseNumber": "550003113",
    "licenseEffectiveDate": "06/19/2025",
    "licenseExpirationDate": "06/18/2026",
    "dataDate": "10/18/2025",
    "capacity": 0,
    "address": "2875 OCEAN VIEW BLVD, SUITE E128",
    "city": "SAN DIEGO",
    "zip": "92113",
    "county": "SAN DIEGO",
    "phone": null,
    "lat": 32.70063201,
    "lng": -117.132075
  },
  {
    "id": "630019490",
    "name": "MOBILE COUNSELING CENTER II",
    "npi": "1013952597",
    "hcaiId": null,
    "businessName": "FAMILY HEALTH CENTERS OF SAN DIEGO, INC.",
    "contactEmail": null,
    "categoryName": "PRIMARY CARE CLINIC",
    "categoryCode": "COMTYC",
    "licenseStatus": "ACTIVE",
    "inService": true,
    "licenseNumber": "550000024",
    "licenseEffectiveDate": "05/09/2025",
    "licenseExpirationDate": "05/08/2026",
    "dataDate": "10/18/2025",
    "capacity": 0,
    "address": "2204 NATIONAL AVE",
    "city": "SAN DIEGO",
    "zip": "92113",
    "county": "SAN DIEGO",
    "phone": null,
    "lat": 32.697288,
    "lng": -117.1398015
  },
  {
    "id": "630025657",
    "name": "MONARCH SCHOOL",
    "npi": null,
    "hcaiId": null,
    "businessName": "FAMILY HEALTH CENTERS OF SAN DIEGO, INC.",
    "contactEmail": null,
    "categoryName": "PRIMARY CARE CLINIC",
    "categoryCode": "COMTYC",
    "licenseStatus": "ACTIVE",
    "inService": true,
    "licenseNumber": "090000565",
    "licenseEffectiveDate": "12/24/2024",
    "licenseExpirationDate": "12/23/2025",
    "dataDate": "10/18/2025",
    "capacity": 0,
    "address": "1625 NEWTON AVE, ROOM 100",
    "city": "SAN DIEGO",
    "zip": "92113",
    "county": "SAN DIEGO",
    "phone": null,
    "lat": 32.702373,
    "lng": -117.150372
  },
  {
    "id": "630027060",
    "name": "PREGNANCY CARE CLINIC",
    "npi": null,
    "hcaiId": null,
    "businessName": "PREGNANCY CARE CENTER",
    "contactEmail": "JOSHMCCLURE@SUPPORTPCC.COM",
    "categoryName": "PRIMARY CARE CLINIC",
    "categoryCode": "COMTYC",
    "licenseStatus": "ACTIVE",
    "inService": true,
    "licenseNumber": "550009487",
    "licenseEffectiveDate": "02/14/2025",
    "licenseExpirationDate": "08/13/2025",
    "dataDate": "10/18/2025",
    "capacity": 0,
    "address": "4130 ALPHA ST",
    "city": "SAN DIEGO",
    "zip": "92113",
    "county": "SAN DIEGO",
    "phone": "(619) 442-4357",
    "lat": 32.692365,
    "lng": -117.104724
  },
  {
    "id": "090000183",
    "name": "SAN YSIDRO HEALTH CHC - OCEAN VIEW",
    "npi": "1326225632",
    "hcaiId": "306371285",
    "businessName": "CENTRO DE SALUD DE LA COMUNIDAD DE SAN YSIDRO, INC.",
    "contactEmail": "SHAMETT@SYHEALTH.ORG",
    "categoryName": "PRIMARY CARE CLINIC",
    "categoryCode": "COMTYC",
    "licenseStatus": "ACTIVE",
    "inService": true,
    "licenseNumber": "090000143",
    "licenseEffectiveDate": "11/25/2024",
    "licenseExpirationDate": "11/24/2025",
    "dataDate": "10/18/2025",
    "capacity": 0,
    "address": "3177 OCEAN VIEW BLVD",
    "city": "SAN DIEGO",
    "zip": "92113",
    "county": "SAN DIEGO",
    "phone": "(619) 662-4100",
    "lat": 32.700915,
    "lng": -117.125856
  },
  {
    "id": "630028213",
    "name": "SAN YSIDRO HEALTH LINCOLN HIGH SCHOOL",
    "npi": null,
    "hcaiId": null,
    "businessName": "CENTRO DE SALUD DE LA COMUNIDAD DE SAN YSIDRO, INC.",
    "contactEmail": null,
    "categoryName": "PRIMARY CARE CLINIC",
    "categoryCode": "COMTYC",
    "licenseStatus": "ACTIVE",
    "inService": true,
    "licenseNumber": "090000660",
    "licenseEffectiveDate": "06/14/2025",
    "licenseExpirationDate": "06/13/2026",
    "dataDate": "10/18/2025",
    "capacity": 0,
    "address": "4777 IMPERIAL AVE",
    "city": "SAN DIEGO",
    "zip": "92113",
    "county": "SAN DIEGO",
    "phone": null,
    "lat": 32.70402871,
    "lng": -117.0919835
  }
]