[
  {
    "id": "630010915",
    "name": "EUCLID ENDOSCOPY CENTER, LP",
    "npi": "1205853041",
    "hcaiId": "306374399",
    "businessName": "EUCLID ENDOSCOPY CENTER, LP",
    "contactEmail": "TDES234@AOL.COM",
    "categoryName": "SURGICAL CLINIC",
    "categoryCode": "ASC",
    "licenseStatus": "INACTIVE - CAPEN DECISION",
    "inService": false,
    "licenseNumber": "550000513",
    "licenseEffectiveDate": "11/16/2007",
    "licenseExpirationDate": "05/15/2008",
    "dataDate": "10/18/2025",
    "capacity": 0,
    "address": "286 EUCLID AVE, SUITE 109",
    "city": "SAN DIEGO",
    "zip": "92114",
    "county": "SAN DIEGO",
    "phone": "(619) 266-3332",
    "lat": 32.707161,
    "lng": -117.086058
  },
  {
    "id": "090000996",
    "name": "FRIENDSHIP VILLA AMISTAD",
    "npi": "1699901017",
    "hcaiId": null,
    "businessName": "RSCR CALIFORNIA, INC.",
    "contactEmail": "JOSEPH.TONTODONATO@RESCARE.COM",
    "categoryName": "INTERMEDIATE CARE FACILITY-DD/H/N/CN/IID",
    "categoryCode": "ICFDDN",
    "licenseStatus": "ACTIVE",
    "inService": true,
    "licenseNumber": "090000411",
    "licenseEffectiveDate": "03/02/2025",
    "licenseExpirationDate": "03/01/2026",
    "dataDate": "10/18/2025",
    "capacity": 6,
    "address": "628 OMEARA ST",
    "city": "SAN DIEGO",
    "zip": "92114",
    "county": "SAN DIEGO",
    "phone": "(619) 267-8400",
    "lat": 32.699196,
    "lng": -117.063234
  },
  {
    "id": "630011640",
    "name": "HARPS COURT",
    "npi": "1477789832",
    "hcaiId": null,
    "businessName": "RSCR CALIFORNIA, INC.",
    "contactEmail": "JOSEPH.TONTODONATO@RESCARE.COM",
    "categoryName": "INTERMEDIATE CARE FACILITY-DD/H/N/CN/IID",
    "categoryCode": "ICFDDN",
    "licenseStatus": "ACTIVE",
    "inService": true,
    "licenseNumber": "550000853",
    "licenseEffectiveDate": "12/01/2024",
    "licenseExpirationDate": "11/30/2025",
    "dataDate": "10/18/2025",
    "capacity": 6,
    "address": "5979 HARPS CT",
    "city": "SAN DIEGO",
    "zip": "92114",
    "county": "SAN DIEGO",
    "phone": "(619) 263-7388",
    "lat": 32.700609,
    "lng": -117.0692415
  },
  {
    "id": "090000259",
    "name": "PLANNED PARENTHOOD - FRANCES TORBERT CENTER",
    "npi": null,
    "hcaiId": "306371686",
    "businessName": "PLANNED PARENTHOOD OF THE PACIFIC SOUTHWEST",
    "contactEmail": "LMANN1@PLANNED.ORG",
    "categoryName": "PRIMARY CARE CLINIC",
    "categoryCode": "COMTYC",
    "licenseStatus": "ACTIVE",
    "inService": true,
    "licenseNumber": "090000241",
    "licenseEffectiveDate": "11/02/2025",
    "licenseExpirationDate": "11/01/2026",
    "dataDate": "10/18/2025",
    "capacity": 0,
    "address": "220 EUCLID AVE, SUITE 30",
    "city": "SAN DIEGO",
    "zip": "92114",
    "county": "SAN DIEGO",
    "phone": "(619) 881-4500",
    "lat": 32.706252,
    "lng": -117.0861345
  },
  {
    "id": "080001699",
    "name": "SAN DIEGO EAST DIALYSIS",
    "npi": "1568437978",
    "hcaiId": "306374303",
    "businessName": "DVA RENAL HEALTHCARE, INC.",
    "contactEmail": "CAL_C@DAVITA.COM",
    "categoryName": "CHRONIC DIALYSIS CLINIC",
    "categoryCode": "ESRD/CDC",
    "licenseStatus": "ACTIVE",
    "inService": true,
    "licenseNumber": "080000759",
    "licenseEffectiveDate": "05/02/2025",
    "licenseExpirationDate": "05/01/2026",
    "dataDate": "10/18/2025",
    "capacity": 25,
    "address": "292 EUCLID AVE, SUITE 100",
    "city": "SAN DIEGO",
    "zip": "92114",
    "county": "SAN DIEGO",
    "phone": "(619) 262-7225",
    "lat": 32.707224,
    "lng": -117.0860715
  },
  {
    "id": "630020120",
    "name": "SAN YSIDRO HEALTH CARE VIEW MEDICAL",
    "npi": "1821275132",
    "hcaiId": null,
    "businessName": "CENTRO DE SALUD DE LA COMUNIDAD DE SAN YSIDRO, INC.",
    "contactEmail": "APRIL.NOBLE@SYHEALTH.ORG",
    "categoryName": "PRIMARY CARE CLINIC",
    "categoryCode": "COMTYC",
    "licenseStatus": "ACTIVE",
    "inService": true,
    "licenseNumber": "090000622",
    "licenseEffectiveDate": "11/25/2025",
    "licenseExpirationDate": "11/24/2026",
    "dataDate": "10/18/2025",
    "capacity": 0,
    "address": "292 EUCLID AVE, SUITE 210",
    "city": "SAN DIEGO",
    "zip": "92114",
    "county": "SAN DIEGO",
    "phone": "(619) 662-4100",
    "lat": 32.707224,
    "lng": -117.0860715
  },
  {
    "id": "090001483",
    "name": "SAN YSIDRO HEALTH EUCLID",
    "npi": "1821275132",
    "hcaiId": "306374261",
    "businessName": "CENTRO DE SALUD DE LA COMUNIDAD DE SAN YSIDRO, INC.",
    "contactEmail": "SHAMETT@SYHEALTH.ORG",
    "categoryName": "PRIMARY CARE CLINIC",
    "categoryCode": "COMTYC",
    "licenseStatus": "ACTIVE",
    "inService": true,
    "licenseNumber": "090000622",
    "licenseEffectiveDate": "11/25/2025",
    "licenseExpirationDate": "11/24/2026",
    "dataDate": "10/18/2025",
    "capacity": 0,
    "address": "286 EUCLID AVE, SUITE 302",
    "city": "SAN DIEGO",
    "zip": "92114",
    "county": "SAN DIEGO",
    "phone": "(619) 662-4100",
    "lat": 32.707161,
    "lng": -117.086058
  },
  {
    "id": "090001570",
    "name": "SAN YSIDRO HEALTH KING-CHAVEZ HEALTH CENTER",
    "npi": "1538262092",
    "hcaiId": "306374491",
    "businessName": "CENTRO DE SALUD DE LA COMUNIDAD DE SAN YSIDRO, INC.",
    "contactEmail": "SHAMETT@SYHEALTH.ORG",
    "categoryName": "PRIMARY CARE CLINIC",
    "categoryCode": "COMTYC",
    "licenseStatus": "ACTIVE",
    "inService": true,
    "licenseNumber": "090000660",
    "licenseEffectiveDate": "06/14/2025",
    "licenseExpirationDate": "06/13/2026",
    "dataDate": "10/18/2025",
    "capacity": 0,
    "address": "950 S EUCLID AVE",
    "city": "SAN DIEGO",
    "zip": "92114",
    "county": "SAN DIEGO",
    "phone": "(619) 205-6381",
    "lat": 32.696127,
    "lng": -117.085536
  },
  {
    "id": "630026979",
    "name": "SAN YSIDRO HEALTH OUR PLACE",
    "npi": null,
    "hcaiId": null,
    "businessName": "CENTRO DE SALUD DE LA COMUNIDAD DE SAN YSIDRO, INC.",
    "contactEmail": null,
    "categoryName": "PRIMARY CARE CLINIC",
    "categoryCode": "COMTYC",
    "licenseStatus": "ACTIVE",
    "inService": true,
    "licenseNumber": "090000136",
    "licenseEffectiveDate": "01/02/2025",
    "licenseExpirationDate": "01/01/2026",
    "dataDate": "10/18/2025",
    "capacity": 0,
    "address": "286 EUCLID AVE, SUITE 309",
    "city": "SAN DIEGO",
    "zip": "92114",
    "county": "SAN DIEGO",
    "phone": null,
    "lat": 32.7071549,
    "lng": -117.085522
  }
]