[
  {
    "id": "630015133",
    "name": "ART OF HOSPICE CARE INC",
    "npi": "1043639107",
    "hcaiId": "406374521",
    "businessName": "ART OF HOSPICE CARE, INC.",
    "contactEmail": "LORELIE@ARTOFHOSPICECARE.COM",
    "categoryName": "HOSPICE",
    "categoryCode": "HOSPICE",
    "licenseStatus": "ACTIVE",
    "inService": true,
    "licenseNumber": "550002944",
    "licenseEffectiveDate": "01/08/2025",
    "licenseExpirationDate": "01/07/2027",
    "dataDate": "10/18/2025",
    "capacity": 0,
    "address": "7710 BALBOA AVE, SUITE 329",
    "city": "SAN DIEGO",
    "zip": "92111",
    "county": "SAN DIEGO",
    "phone": "(619) 756-7096",
    "lat": 32.822334,
    "lng": -117.158094
  },
  {
    "id": "630016666",
    "name": "CALSTRO HOSPICE SAN DIEGO",
    "npi": "1568845261",
    "hcaiId": "406372625",
    "businessName": "ENCINITAS HOSPICE CARE, INC",
    "contactEmail": "ADMIN.SD@CALSTROHOSPICE.COM",
    "categoryName": "HOSPICE",
    "categoryCode": "HOSPICE",
    "licenseStatus": "ACTIVE",
    "inService": true,
    "licenseNumber": "550004507",
    "licenseEffectiveDate": "02/25/2025",
    "licenseExpirationDate": "10/08/2026",
    "dataDate": "10/18/2025",
    "capacity": 0,
    "address": "4849 RONSON CT, SUITE 204",
    "city": "SAN DIEGO",
    "zip": "92111",
    "county": "SAN DIEGO",
    "phone": "(866) 568-6462",
    "lat": 32.83018999,
    "lng": -117.144775
  },
  {
    "id": "630021775",
    "name": "CAPS MESA AREA CLINIC",
    "npi": null,
    "hcaiId": null,
    "businessName": "COLLEGE AREA PREGNANCY SERVICES, INC.",
    "contactEmail": null,
    "categoryName": "PRIMARY CARE CLINIC",
    "categoryCode": "FREEC",
    "licenseStatus": "ACTIVE",
    "inService": true,
    "licenseNumber": "090000659",
    "licenseEffectiveDate": "11/29/2024",
    "licenseExpirationDate": "11/28/2025",
    "dataDate": "10/18/2025",
    "capacity": 0,
    "address": "3750 CONVOY ST, SUITE 118",
    "city": "SAN DIEGO",
    "zip": "92111",
    "county": "SAN DIEGO",
    "phone": null,
    "lat": 32.812299,
    "lng": -117.153891
  },
  {
    "id": "080000186",
    "name": "FRESENIUS MEDICAL CARE BALBOA - KEARNY MESA",
    "npi": "1376784389",
    "hcaiId": "306371591",
    "businessName": "FRESENIUS MEDICAL CARE BALBOA, LLC",
    "contactEmail": "CLINIC6885@FMC-NA.COM",
    "categoryName": "CHRONIC DIALYSIS CLINIC",
    "categoryCode": "ESRD/CDC",
    "licenseStatus": "ACTIVE",
    "inService": true,
    "licenseNumber": "080000175",
    "licenseEffectiveDate": "04/01/2025",
    "licenseExpirationDate": "03/31/2026",
    "dataDate": "10/18/2025",
    "capacity": 28,
    "address": "7927 OSTROW ST, SUITE A",
    "city": "SAN DIEGO",
    "zip": "92111",
    "county": "SAN DIEGO",
    "phone": "(858) 571-0232",
    "lat": 32.812866,
    "lng": -117.154998
  },
  {
    "id": "630017871",
    "name": "HERALD CHRISTIAN HEALTH CENTER",
    "npi": null,
    "hcaiId": "306370390",
    "businessName": "HERALD CHRISTIAN HEALTH CENTER",
    "contactEmail": "ESZETO@HCHCLA.ORG",
    "categoryName": "PRIMARY CARE CLINIC",
    "categoryCode": "COMTYC",
    "licenseStatus": "ACTIVE",
    "inService": true,
    "licenseNumber": "550003224",
    "licenseEffectiveDate": "09/16/2025",
    "licenseExpirationDate": "09/15/2026",
    "dataDate": "10/18/2025",
    "capacity": 0,
    "address": "7808 CLAIREMONT MESA BLVD",
    "city": "SAN DIEGO",
    "zip": "92111",
    "county": "SAN DIEGO",
    "phone": "(858) 286-8700",
    "lat": 32.833067,
    "lng": -117.152869
  },
  {
    "id": "080000068",
    "name": "KEARNY MESA CONVALESCENT AND NURSING HOME",
    "npi": "1275946568",
    "hcaiId": "206370732",
    "businessName": "GHC OF KEARNY MESA, LLC",
    "contactEmail": "CHRISTIANCUARESMA@LIFEGEN.NET",
    "categoryName": "SKILLED NURSING FACILITY",
    "categoryCode": "SNF",
    "licenseStatus": "ACTIVE",
    "inService": true,
    "licenseNumber": "080000063",
    "licenseEffectiveDate": "12/10/2024",
    "licenseExpirationDate": "12/09/2025",
    "dataDate": "10/18/2025",
    "capacity": 98,
    "address": "7675 FAMILY CIRCLE DRIVE",
    "city": "SAN DIEGO",
    "zip": "92111",
    "county": "SAN DIEGO",
    "phone": "(858) 278-8121",
    "lat": 32.79888,
    "lng": -117.157248
  },
  {
    "id": "080000195",
    "name": "LINDA VISTA HEALTH CARE CENTER",
    "npi": "1780665877",
    "hcaiId": "306370738",
    "businessName": "SAN DIEGO FAMILY CARE",
    "contactEmail": "RFEINBERG@SDFAMILYCARE.ORG",
    "categoryName": "PRIMARY CARE CLINIC",
    "categoryCode": "COMTYC",
    "licenseStatus": "ACTIVE",
    "inService": true,
    "licenseNumber": "080000069",
    "licenseEffectiveDate": "12/01/2024",
    "licenseExpirationDate": "11/30/2025",
    "dataDate": "10/18/2025",
    "capacity": 0,
    "address": "6973 LINDA VISTA RD",
    "city": "SAN DIEGO",
    "zip": "92111",
    "county": "SAN DIEGO",
    "phone": "(858) 279-0925",
    "lat": 32.787549,
    "lng": -117.169371
  },
  {
    "id": "630018755",
    "name": "LINDA VISTA HEALTH CARE CENTER",
    "npi": null,
    "hcaiId": null,
    "businessName": "SAN DIEGO FAMILY CARE",
    "contactEmail": null,
    "categoryName": "PRIMARY CARE CLINIC",
    "categoryCode": "COMTYC",
    "licenseStatus": "ACTIVE",
    "inService": true,
    "licenseNumber": "080000069",
    "licenseEffectiveDate": "12/01/2024",
    "licenseExpirationDate": "11/30/2025",
    "dataDate": "10/18/2025",
    "capacity": 0,
    "address": "6985 LINDA VISTA RD",
    "city": "SAN DIEGO",
    "zip": "92111",
    "county": "SAN DIEGO",
    "phone": null,
    "lat": 32.787549,
    "lng": -117.169371
  },
  {
    "id": "630018756",
    "name": "LINDA VISTA HEALTH CARE CENTER",
    "npi": null,
    "hcaiId": null,
    "businessName": "SAN DIEGO FAMILY CARE",
    "contactEmail": null,
    "categoryName": "PRIMARY CARE CLINIC",
    "categoryCode": "COMTYC",
    "licenseStatus": "ACTIVE",
    "inService": true,
    "licenseNumber": "080000069",
    "licenseEffectiveDate": "12/01/2024",
    "licenseExpirationDate": "11/30/2025",
    "dataDate": "10/18/2025",
    "capacity": 0,
    "address": "6979 LINDA VISTA RD",
    "city": "SAN DIEGO",
    "zip": "92111",
    "county": "SAN DIEGO",
    "phone": null,
    "lat": 32.78743107,
    "lng": -117.1696609
  },
  {
    "id": "080000254",
    "name": "PLANNED PARENTHOOD - KEARNY MESA CENTER",
    "npi": "1124053111",
    "hcaiId": "306371589",
    "businessName": "PLANNED PARENTHOOD OF THE PACIFIC SOUTHWEST",
    "contactEmail": "LMANN1@PLANNED.ORG",
    "categoryName": "PRIMARY CARE CLINIC",
    "categoryCode": "COMTYC",
    "licenseStatus": "ACTIVE",
    "inService": true,
    "licenseNumber": "080000174",
    "licenseEffectiveDate": "11/21/2025",
    "licenseExpirationDate": "11/20/2026",
    "dataDate": "10/18/2025",
    "capacity": 0,
    "address": "7035 CONVOY CT",
    "city": "SAN DIEGO",
    "zip": "92111",
    "county": "SAN DIEGO",
    "phone": "(619) 881-4500",
    "lat": 32.834313,
    "lng": -117.165006
  },
  {
    "id": "630016917",
    "name": "RADIANT HOSPICE",
    "npi": "1154878189",
    "hcaiId": "406371602",
    "businessName": "CRESTLINE HOSPICE, INC.",
    "contactEmail": "ABOLLES@RADIANTHOSPICE.COM",
    "categoryName": "HOSPICE",
    "categoryCode": "HOSPICE",
    "licenseStatus": "ACTIVE",
    "inService": true,
    "licenseNumber": "550003749",
    "licenseEffectiveDate": "11/22/2024",
    "licenseExpirationDate": "11/21/2026",
    "dataDate": "10/18/2025",
    "capacity": 0,
    "address": "7675 DAGGET ST, SUITE 370",
    "city": "SAN DIEGO",
    "zip": "92111",
    "county": "SAN DIEGO",
    "phone": "(602) 799-3749",
    "lat": 32.823045,
    "lng": -117.158562
  },
  {
    "id": "630016513",
    "name": "SAN DIEGO FAMILY CARE",
    "npi": null,
    "hcaiId": "306374553",
    "businessName": "SAN DIEGO FAMILY CARE",
    "contactEmail": "RFEINBERG@SDFAMILYCARE.ORG",
    "categoryName": "PRIMARY CARE CLINIC",
    "categoryCode": "COMTYC",
    "licenseStatus": "ACTIVE",
    "inService": true,
    "licenseNumber": "550003427",
    "licenseEffectiveDate": "03/03/2025",
    "licenseExpirationDate": "03/02/2026",
    "dataDate": "10/18/2025",
    "capacity": 0,
    "address": "7011 LINDA VISTA ROAD",
    "city": "SAN DIEGO",
    "zip": "92111",
    "county": "SAN DIEGO",
    "phone": "(858) 279-9676",
    "lat": 32.787729,
    "lng": -117.169038
  },
  {
    "id": "630018660",
    "name": "SAN DIEGO FAMILY CIRCLE ADULT DAY HEALTH CARE",
    "npi": null,
    "hcaiId": null,
    "businessName": "SPECTRUM ADULT DAY HEALTH SERVICES, INC",
    "contactEmail": "GARY.POLSKY@SANDIEGOFAMILYCIRCLE.COM",
    "categoryName": "ADULT DAY HEALTH CARE",
    "categoryCode": "ADHC",
    "licenseStatus": "ACTIVE",
    "inService": true,
    "licenseNumber": "550005837",
    "licenseEffectiveDate": "11/13/2025",
    "licenseExpirationDate": "11/12/2026",
    "dataDate": "10/18/2025",
    "capacity": 0,
    "address": "4428 CONVOY ST, SUITE 288",
    "city": "SAN DIEGO",
    "zip": "92111",
    "county": "SAN DIEGO",
    "phone": "(858) 952-8531",
    "lat": 32.82044874,
    "lng": -117.1551184
  },
  {
    "id": "630014244",
    "name": "SEAPORT HOSPICE",
    "npi": null,
    "hcaiId": "406374482",
    "businessName": "BLACK MOUNTAIN HEALTHCARE, LLC",
    "contactEmail": "TIMOTHY.JOHNSON@SEAPORTSCRIPPS.COM",
    "categoryName": "HOSPICE",
    "categoryCode": "HOSPICE",
    "licenseStatus": "ACTIVE",
    "inService": true,
    "licenseNumber": "550002260",
    "licenseEffectiveDate": "01/07/2025",
    "licenseExpirationDate": "01/06/2027",
    "dataDate": "10/18/2025",
    "capacity": 0,
    "address": "3750 CONVOY ST, SUITE 220B",
    "city": "SAN DIEGO",
    "zip": "92111",
    "county": "SAN DIEGO",
    "phone": "(858) 634-5870",
    "lat": 32.812299,
    "lng": -117.153891
  },
  {
    "id": "080000124",
    "name": "SEAPORT SCRIPPS HOME HEALTH",
    "npi": "1578556114",
    "hcaiId": "406371647",
    "businessName": "RANCHO BERNARDO HEALTHCARE, LLC",
    "contactEmail": "ADMIN@SEAPORTHHH.COM",
    "categoryName": "HOME HEALTH AGENCY",
    "categoryCode": "HHA",
    "licenseStatus": "ACTIVE",
    "inService": true,
    "licenseNumber": "080000215",
    "licenseEffectiveDate": "11/30/2024",
    "licenseExpirationDate": "11/29/2025",
    "dataDate": "10/18/2025",
    "capacity": 0,
    "address": "3750 CONVOY ST, SUITE 220",
    "city": "SAN DIEGO",
    "zip": "92111",
    "county": "SAN DIEGO",
    "phone": "(619) 452-7000",
    "lat": 32.811976,
    "lng": -117.153137
  },
  {
    "id": "080000705",
    "name": "SHARP MCDONALD CENTER",
    "npi": null,
    "hcaiId": "106374049",
    "businessName": "SHARP MEMORIAL HOSPITAL",
    "contactEmail": "TRISHA.KHALEGHI@SHARP.COM",
    "categoryName": "CHEMICAL DEPENDENCY RECOVERY HOSPITAL",
    "categoryCode": "CDRH",
    "licenseStatus": "ACTIVE",
    "inService": true,
    "licenseNumber": "080000319",
    "licenseEffectiveDate": "02/01/2025",
    "licenseExpirationDate": "01/31/2026",
    "dataDate": "10/18/2025",
    "capacity": 16,
    "address": "7989 LINDA VISTA RD",
    "city": "SAN DIEGO",
    "zip": "92111",
    "county": "SAN DIEGO",
    "phone": "(858) 278-4110",
    "lat": 32.806026,
    "lng": -117.154458
  },
  {
    "id": "630019389",
    "name": "TOPKARE HOSPICE INC.",
    "npi": "1740830793",
    "hcaiId": "406302566",
    "businessName": "TOPKARE HOSPICE INC.",
    "contactEmail": "JAMIE@TOPKARE.COM",
    "categoryName": "HOSPICE",
    "categoryCode": "HOSPICE",
    "licenseStatus": "ACTIVE",
    "inService": true,
    "licenseNumber": "550005300",
    "licenseEffectiveDate": "02/20/2024",
    "licenseExpirationDate": "02/19/2026",
    "dataDate": "10/18/2025",
    "capacity": 0,
    "address": "7071 CONVOY CT, SUITE 101",
    "city": "SAN DIEGO",
    "zip": "92111",
    "county": "SAN DIEGO",
    "phone": "(800) 529-7029",
    "lat": 32.83434302,
    "lng": -117.164294
  }
]