[
  {
    "id": "090001072",
    "name": "BEST-START BIRTH CENTER",
    "npi": null,
    "hcaiId": "306370374",
    "businessName": "BEST-START BIRTH CENTER",
    "contactEmail": "KROSLIE@BESTSTARTBIRTHCENTER.COM",
    "categoryName": "ALTERNATIVE BIRTHING CENTER",
    "categoryCode": "ABC",
    "licenseStatus": "ACTIVE",
    "inService": true,
    "licenseNumber": "090000446",
    "licenseEffectiveDate": "11/04/2023",
    "licenseExpirationDate": "11/03/2024",
    "dataDate": "10/18/2025",
    "capacity": 0,
    "address": "3630 ENTERPRISE ST.",
    "city": "SAN DIEGO",
    "zip": "92110",
    "county": "SAN DIEGO",
    "phone": "(619) 299-0840",
    "lat": 32.745816,
    "lng": -117.198234
  },
  {
    "id": "090000159",
    "name": "SAN DIEGO COUNTY PSYCHIATRIC HOSPITAL",
    "npi": "1427101351",
    "hcaiId": "106374055",
    "businessName": "COUNTY OF SAN DIEGO",
    "contactEmail": "ANGELA.WARNEKE1@SDCOUNTY.CA.GOV",
    "categoryName": "ACUTE PSYCHIATRIC HOSPITAL",
    "categoryCode": "APH",
    "licenseStatus": "ACTIVE",
    "inService": true,
    "licenseNumber": "090000092",
    "licenseEffectiveDate": "03/30/2025",
    "licenseExpirationDate": "03/29/2026",
    "dataDate": "10/18/2025",
    "capacity": 109,
    "address": "3853 ROSECRANS ST",
    "city": "SAN DIEGO",
    "zip": "92110",
    "county": "SAN DIEGO",
    "phone": "(619) 692-8232",
    "lat": 32.753683,
    "lng": -117.202604
  },
  {
    "id": "630020188",
    "name": "SURGERY CENTER OF SAN DIEGO, LLC",
    "npi": "1932305968",
    "hcaiId": null,
    "businessName": null,
    "contactEmail": "SSCHUELKE@SYNOVATIONMEDICALGROUP.COM",
    "categoryName": "SURGICAL CLINIC",
    "categoryCode": "ASC",
    "licenseStatus": null,
    "inService": null,
    "licenseNumber": null,
    "licenseEffectiveDate": null,
    "licenseExpirationDate": null,
    "dataDate": "10/18/2025",
    "capacity": 0,
    "address": "3434 MIDWAY DR, SUITE 1008",
    "city": "SAN DIEGO",
    "zip": "92110",
    "county": "SAN DIEGO",
    "phone": "(626) 696-1481",
    "lat": 32.751018,
    "lng": -117.2123235
  },
  {
    "id": "090000011",
    "name": "THE PAVILION AT OCEAN POINT",
    "npi": "1538174990",
    "hcaiId": "206370763",
    "businessName": "POINT LOMA REHABILITATION CENTER, LLC",
    "contactEmail": "ADMINISTRATOR@THEPAVILIONOP.COM",
    "categoryName": "SKILLED NURSING FACILITY",
    "categoryCode": "SNF",
    "licenseStatus": "ACTIVE",
    "inService": true,
    "licenseNumber": "090000088",
    "licenseEffectiveDate": "06/12/2025",
    "licenseExpirationDate": "06/11/2026",
    "dataDate": "10/18/2025",
    "capacity": 133,
    "address": "3202 DUKE ST",
    "city": "SAN DIEGO",
    "zip": "92110",
    "county": "SAN DIEGO",
    "phone": "(619) 224-4141",
    "lat": 32.752719,
    "lng": -117.2189835
  }
]