[
  {
    "id": "630016425",
    "name": "ACCENTCARE HOME HEALTH AT UC SAN DIEGO, LLC",
    "npi": "1568834653",
    "hcaiId": "406370830",
    "businessName": "ACCENTCARE HOME HEALTH AT UC SAN DIEGO, LLC",
    "contactEmail": "LICENSUREANDCERTIFICATION@ACCENTCARE.COM",
    "categoryName": "HOME HEALTH AGENCY",
    "categoryCode": "HHA",
    "licenseStatus": "ACTIVE",
    "inService": true,
    "licenseNumber": "550004034",
    "licenseEffectiveDate": "11/01/2024",
    "licenseExpirationDate": "10/31/2025",
    "dataDate": "10/18/2025",
    "capacity": 0,
    "address": "5060 SHOREHAM PLACE, SUITE 220",
    "city": "SAN DIEGO",
    "zip": "92122",
    "county": "SAN DIEGO",
    "phone": null,
    "lat": 32.851836,
    "lng": -117.1858635
  },
  {
    "id": "630012445",
    "name": "BRIDGE HOME HEALTH",
    "npi": "1629207287",
    "hcaiId": "406374460",
    "businessName": "ABC HOME HEALTH CARE LLC",
    "contactEmail": "KPARSHA@BRIDGEHH.COM",
    "categoryName": "HOME HEALTH AGENCY",
    "categoryCode": "HHA",
    "licenseStatus": "ACTIVE",
    "inService": true,
    "licenseNumber": "550001805",
    "licenseEffectiveDate": "11/09/2025",
    "licenseExpirationDate": "11/08/2026",
    "dataDate": "10/18/2025",
    "capacity": 0,
    "address": "5090 SHOREHAM PL, SUITE 109",
    "city": "SAN DIEGO",
    "zip": "92122",
    "county": "SAN DIEGO",
    "phone": "(858) 455-5000",
    "lat": 32.852358,
    "lng": -117.186408
  },
  {
    "id": "630014932",
    "name": "BRIDGE HOSPICE",
    "npi": "1396173597",
    "hcaiId": "406374511",
    "businessName": "BRIDGE HOSPICE LLC",
    "contactEmail": "GBOGDAN@BRIDGEHH.COM",
    "categoryName": "HOSPICE",
    "categoryCode": "HOSPICE",
    "licenseStatus": "ACTIVE",
    "inService": true,
    "licenseNumber": "550002782",
    "licenseEffectiveDate": "07/17/2024",
    "licenseExpirationDate": "07/16/2026",
    "dataDate": "10/18/2025",
    "capacity": 0,
    "address": "5090 SHOREHAM PL, SUITE 209",
    "city": "SAN DIEGO",
    "zip": "92122",
    "county": "SAN DIEGO",
    "phone": "(708) 218-1661",
    "lat": 32.852358,
    "lng": -117.186408
  },
  {
    "id": "080001427",
    "name": "GENTIVA",
    "npi": "1346241056",
    "hcaiId": "406374234",
    "businessName": "ODYSSEY HEALTHCARE OPERATING A, L.P.",
    "contactEmail": "MEHREEN.SHAH@GENTIVAHS.COM",
    "categoryName": "HOSPICE",
    "categoryCode": "HOSPICE",
    "licenseStatus": "ACTIVE",
    "inService": true,
    "licenseNumber": "080000595",
    "licenseEffectiveDate": "11/06/2023",
    "licenseExpirationDate": "11/05/2025",
    "dataDate": "10/18/2025",
    "capacity": 0,
    "address": "5080 SHOREHAM PL, SUITE 105",
    "city": "SAN DIEGO",
    "zip": "92122",
    "county": "SAN DIEGO",
    "phone": "(858) 565-2499",
    "lat": 32.852358,
    "lng": -117.186408
  },
  {
    "id": "080000962",
    "name": "THE SPRINGS AT PACIFIC REGENT",
    "npi": null,
    "hcaiId": "206374091",
    "businessName": "LA JOLLA SKILLED, LLC",
    "contactEmail": "RENEWALS@ENSIGNSERVICES.NET",
    "categoryName": "SKILLED NURSING FACILITY",
    "categoryCode": "SNF",
    "licenseStatus": "ACTIVE",
    "inService": true,
    "licenseNumber": "080000401",
    "licenseEffectiveDate": "11/07/2024",
    "licenseExpirationDate": "11/06/2025",
    "dataDate": "10/18/2025",
    "capacity": 59,
    "address": "3884 NOBEL DR",
    "city": "SAN DIEGO",
    "zip": "92122",
    "county": "SAN DIEGO",
    "phone": "(858) 625-8700",
    "lat": 32.86860807,
    "lng": -117.2228426
  },
  {
    "id": "080000892",
    "name": "UNIVERSITY AMBULATORY SURGERY CENTER",
    "npi": "1609056290",
    "hcaiId": "306374088",
    "businessName": "UCSD AMBULATORY SURGERY CENTER, LLC",
    "contactEmail": null,
    "categoryName": "SURGICAL CLINIC",
    "categoryCode": "ASC",
    "licenseStatus": "INACTIVE - CAPEN DECISION",
    "inService": false,
    "licenseNumber": "080000389",
    "licenseEffectiveDate": "03/24/2016",
    "licenseExpirationDate": "03/23/2017",
    "dataDate": "10/18/2025",
    "capacity": 0,
    "address": "8929 UNIVERSITY CENTER LN, SUITE 103",
    "city": "SAN DIEGO",
    "zip": "92122",
    "county": "SAN DIEGO",
    "phone": "(858) 554-0220",
    "lat": 32.869989,
    "lng": -117.2265885
  },
  {
    "id": "080001692",
    "name": "VI AT LA JOLLA VILLAGE",
    "npi": null,
    "hcaiId": "206374300",
    "businessName": "CCW LA JOLLA, LLC",
    "contactEmail": "EBLYS@VILIVING.COM",
    "categoryName": "SKILLED NURSING FACILITY",
    "categoryCode": "SNF",
    "licenseStatus": "ACTIVE",
    "inService": true,
    "licenseNumber": "080000751",
    "licenseEffectiveDate": "02/15/2025",
    "licenseExpirationDate": "02/14/2026",
    "dataDate": "10/18/2025",
    "capacity": 60,
    "address": "4171 LAS PALMAS SQ",
    "city": "SAN DIEGO",
    "zip": "92122",
    "county": "SAN DIEGO",
    "phone": "(858) 646-3400",
    "lat": 32.8686523,
    "lng": -117.2156492
  }
]