[
  {
    "id": "630020410",
    "name": "AGEILITY PHYSICAL THERAPY SOLUTIONS AT REMINGTON",
    "npi": null,
    "hcaiId": null,
    "businessName": null,
    "contactEmail": "LICENSING@5SSL.COM",
    "categoryName": "REHABILITATION CLINIC",
    "categoryCode": "OPT/SP",
    "licenseStatus": null,
    "inService": null,
    "licenseNumber": null,
    "licenseEffectiveDate": null,
    "licenseExpirationDate": null,
    "dataDate": "10/18/2025",
    "capacity": 0,
    "address": "16925 HIERBA DR",
    "city": "SAN DIEGO",
    "zip": "92128",
    "county": "SAN DIEGO",
    "phone": "(617) 796-8387",
    "lat": 33.01938,
    "lng": -117.072018
  },
  {
    "id": "080000665",
    "name": "AURORA SAN DIEGO",
    "npi": "1598722027",
    "hcaiId": "106374024",
    "businessName": "AURORA SAN DIEGO, LLC",
    "contactEmail": "ALAIN.AZCONA@AURORABEHAVIORAL.COM",
    "categoryName": "ACUTE PSYCHIATRIC HOSPITAL",
    "categoryCode": "APH",
    "licenseStatus": "ACTIVE",
    "inService": true,
    "licenseNumber": "080000310",
    "licenseEffectiveDate": "11/19/2024",
    "licenseExpirationDate": "11/18/2025",
    "dataDate": "10/18/2025",
    "capacity": 101,
    "address": "11878 AVENUE OF INDUSTRY",
    "city": "SAN DIEGO",
    "zip": "92128",
    "county": "SAN DIEGO",
    "phone": "(858) 487-3200",
    "lat": 32.991372,
    "lng": -117.0749475
  },
  {
    "id": "080000692",
    "name": "CARMEL MOUNTAIN REHABILITATION & HEALTHCARE CENTER",
    "npi": "1083727093",
    "hcaiId": "206374028",
    "businessName": "BERNARDO HEIGHTS HEALTHCARE INC.",
    "contactEmail": "PKAMBO@ENSIGNSERVICES.NET",
    "categoryName": "SKILLED NURSING FACILITY",
    "categoryCode": "SNF",
    "licenseStatus": "ACTIVE",
    "inService": true,
    "licenseNumber": "080000315",
    "licenseEffectiveDate": "04/20/2025",
    "licenseExpirationDate": "04/19/2026",
    "dataDate": "10/18/2025",
    "capacity": 120,
    "address": "11895 AVENUE OF INDUSTRY",
    "city": "SAN DIEGO",
    "zip": "92128",
    "county": "SAN DIEGO",
    "phone": "(760) 347-0750",
    "lat": 32.990733,
    "lng": -117.0739755
  },
  {
    "id": "080000807",
    "name": "CARMEL MOUNTAIN REHABILITATION & HEALTHCARE CENTER",
    "npi": "1083727093",
    "hcaiId": null,
    "businessName": "BERNARDO HEIGHTS HEALTHCARE INC.",
    "contactEmail": null,
    "categoryName": "REHABILITATION CLINIC",
    "categoryCode": "OPT/SP",
    "licenseStatus": "ACTIVE",
    "inService": true,
    "licenseNumber": "080000315",
    "licenseEffectiveDate": "04/20/2025",
    "licenseExpirationDate": "04/19/2026",
    "dataDate": "10/18/2025",
    "capacity": 0,
    "address": "11895 AVENUE OF INDUSTRY",
    "city": "SAN DIEGO",
    "zip": "92128",
    "county": "SAN DIEGO",
    "phone": null,
    "lat": 32.990733,
    "lng": -117.0739755
  },
  {
    "id": "630028059",
    "name": "COMFORCARE HOME CARE (NORTH SAN DIEGO)",
    "npi": null,
    "hcaiId": null,
    "businessName": "FAYAMAN INC.",
    "contactEmail": "IPARGAL@COMFORCARE.COM",
    "categoryName": "HOME HEALTH AGENCY",
    "categoryCode": "HHA",
    "licenseStatus": "ACTIVE",
    "inService": true,
    "licenseNumber": "550009873",
    "licenseEffectiveDate": "05/28/2025",
    "licenseExpirationDate": "11/27/2025",
    "dataDate": "10/18/2025",
    "capacity": 0,
    "address": "16959 BERNARDO CENTER DR, SUITE 105",
    "city": "SAN DIEGO",
    "zip": "92128",
    "county": "SAN DIEGO",
    "phone": "(858) 247-1005",
    "lat": 33.02206102,
    "lng": -117.074055
  },
  {
    "id": "630017956",
    "name": "COMPREHENSIVE PAIN ASC, LLC",
    "npi": "1124406632",
    "hcaiId": null,
    "businessName": null,
    "contactEmail": null,
    "categoryName": "SURGICAL CLINIC",
    "categoryCode": "ASC",
    "licenseStatus": null,
    "inService": null,
    "licenseNumber": null,
    "licenseEffectiveDate": null,
    "licenseExpirationDate": null,
    "dataDate": "10/18/2025",
    "capacity": 0,
    "address": "16466 BERNARDO CENTER DR, UNIT 177",
    "city": "SAN DIEGO",
    "zip": "92128",
    "county": "SAN DIEGO",
    "phone": "(858) 312-6687",
    "lat": 33.014502,
    "lng": -117.078552
  },
  {
    "id": "080001044",
    "name": "CORAM CVS/SPECIALTY INFUSION SERVICES",
    "npi": null,
    "hcaiId": "406374388",
    "businessName": "CORAM ALTERNATE SITE SERVICES, INC.",
    "contactEmail": "JACQUELIN.ROMERO@CORAMHC.COM",
    "categoryName": "HOME HEALTH AGENCY",
    "categoryCode": "HHA",
    "licenseStatus": "ACTIVE",
    "inService": true,
    "licenseNumber": "080000429",
    "licenseEffectiveDate": "03/04/2025",
    "licenseExpirationDate": "03/03/2026",
    "dataDate": "10/18/2025",
    "capacity": 0,
    "address": "12310 WORLD TRADE DRIVE, SUITE 100",
    "city": "SAN DIEGO",
    "zip": "92128",
    "county": "SAN DIEGO",
    "phone": "(909) 730-8113",
    "lat": 32.989383,
    "lng": -117.0716895
  },
  {
    "id": "080001386",
    "name": "CRESCENT HEALTHCARE, INC.",
    "npi": null,
    "hcaiId": "406374355",
    "businessName": "CRESCENT HEALTHCARE, INC.",
    "contactEmail": "OC-PEANDL@OPTIONCARE.COM",
    "categoryName": "HOME HEALTH AGENCY",
    "categoryCode": "HHA",
    "licenseStatus": "ACTIVE",
    "inService": true,
    "licenseNumber": "080000574",
    "licenseEffectiveDate": "05/06/2025",
    "licenseExpirationDate": "05/05/2026",
    "dataDate": "10/18/2025",
    "capacity": 0,
    "address": "15025 INNOVATION DRIVE, SUITE 100",
    "city": "SAN DIEGO",
    "zip": "92128",
    "county": "SAN DIEGO",
    "phone": "(858) 547-8487",
    "lat": 32.989365,
    "lng": -117.075771
  },
  {
    "id": "630015794",
    "name": "LOS ROBLES HEALTHCARE - SAN DIEGO",
    "npi": null,
    "hcaiId": "406374543",
    "businessName": "LOS ROBLES HEALTHCARE LLC",
    "contactEmail": "CONTRACTING@IMPACTHC.ORG",
    "categoryName": "HOSPICE",
    "categoryCode": "HOSPICE",
    "licenseStatus": "ACTIVE",
    "inService": true,
    "licenseNumber": "550003264",
    "licenseEffectiveDate": "10/15/2025",
    "licenseExpirationDate": "10/14/2027",
    "dataDate": "10/18/2025",
    "capacity": 0,
    "address": "11838 BERNARDO PLAZA CT, SUITE 260B",
    "city": "SAN DIEGO",
    "zip": "92128",
    "county": "SAN DIEGO",
    "phone": "(385) 399-3321",
    "lat": 33.0203818,
    "lng": -117.0760701
  },
  {
    "id": "630020139",
    "name": "LOS ROBLES HEALTHCARE SD",
    "npi": null,
    "hcaiId": null,
    "businessName": "NORTHPOINT HOSPICE, LLC",
    "contactEmail": "MGIRARDELLI@IMPACTHC.ORG",
    "categoryName": "HOSPICE",
    "categoryCode": "HOSPICE",
    "licenseStatus": "ACTIVE",
    "inService": true,
    "licenseNumber": "550006014",
    "licenseEffectiveDate": "10/19/2024",
    "licenseExpirationDate": "10/18/2026",
    "dataDate": "10/18/2025",
    "capacity": 0,
    "address": "11838 BERNARDO PLAZA CT, SUITE 260C",
    "city": "SAN DIEGO",
    "zip": "92128",
    "county": "SAN DIEGO",
    "phone": "(385) 399-3321",
    "lat": 33.0203818,
    "lng": -117.0760701
  },
  {
    "id": "630015525",
    "name": "PARAMOUNT HOME HEALTH CARE",
    "npi": "1215339437",
    "hcaiId": "406374544",
    "businessName": "LOS ROBLES HEALTHCARE LLC",
    "contactEmail": "CONTRACTING@IMPACTHC.ORG",
    "categoryName": "HOME HEALTH AGENCY",
    "categoryCode": "HHA",
    "licenseStatus": "ACTIVE",
    "inService": true,
    "licenseNumber": "550003265",
    "licenseEffectiveDate": "10/12/2025",
    "licenseExpirationDate": "10/11/2026",
    "dataDate": "10/18/2025",
    "capacity": 0,
    "address": "11838 BERNARDO PLAZA COURT, SUITE 260A",
    "city": "SAN DIEGO",
    "zip": "92128",
    "county": "SAN DIEGO",
    "phone": "(858) 487-8778",
    "lat": 33.0203818,
    "lng": -117.0760701
  },
  {
    "id": "630012225",
    "name": "SCRIPPS CLINIC AMBULATORY SURGERY CENTER - RANCHO BERNARDO",
    "npi": "1851376222",
    "hcaiId": null,
    "businessName": null,
    "contactEmail": null,
    "categoryName": "SURGICAL CLINIC",
    "categoryCode": "ASC",
    "licenseStatus": null,
    "inService": null,
    "licenseNumber": null,
    "licenseEffectiveDate": null,
    "licenseExpirationDate": null,
    "dataDate": "10/18/2025",
    "capacity": 0,
    "address": "15004 INNOVATION DR",
    "city": "SAN DIEGO",
    "zip": "92128",
    "county": "SAN DIEGO",
    "phone": null,
    "lat": 32.989482,
    "lng": -117.0777465
  },
  {
    "id": "630022400",
    "name": "SILVER TREE HOME HEALTH, INC",
    "npi": null,
    "hcaiId": "406375703",
    "businessName": "SILVER TREE HOME HEALTH, INC",
    "contactEmail": "SILVERTREEHOMEHEALTH@YAHOO.COM",
    "categoryName": "HOME HEALTH AGENCY",
    "categoryCode": "HHA",
    "licenseStatus": "ACTIVE",
    "inService": true,
    "licenseNumber": "550007433",
    "licenseEffectiveDate": "12/07/2024",
    "licenseExpirationDate": "12/06/2025",
    "dataDate": "10/18/2025",
    "capacity": 0,
    "address": "11650 IBERIA PL, SUITE 130",
    "city": "SAN DIEGO",
    "zip": "92128",
    "county": "SAN DIEGO",
    "phone": "(760) 539-7032",
    "lat": 33.01604001,
    "lng": -117.077428
  }
]