[
  {
    "id": "080000144",
    "name": "KAISER FOUNDATION HOSPITAL - ZION",
    "npi": "1013062769",
    "hcaiId": "106370730",
    "businessName": "KAISER FOUNDATION HOSPITALS",
    "contactEmail": "KIM.M.KURTH@KP.ORG",
    "categoryName": "GENERAL ACUTE CARE HOSPITAL",
    "categoryCode": "GACH",
    "licenseStatus": "ACTIVE",
    "inService": true,
    "licenseNumber": "080000062",
    "licenseEffectiveDate": "11/17/2025",
    "licenseExpirationDate": "11/16/2026",
    "dataDate": "10/18/2025",
    "capacity": 343,
    "address": "4647 ZION AVE",
    "city": "SAN DIEGO",
    "zip": "92120",
    "county": "SAN DIEGO",
    "phone": "(619) 528-6295",
    "lat": 32.791572,
    "lng": -117.095031
  },
  {
    "id": "630011980",
    "name": "PARKVIEW HOME",
    "npi": null,
    "hcaiId": "206374431",
    "businessName": "GROSSMONT HOSPITAL CORPORATION",
    "contactEmail": "SUZANNE.JOHNSON@SHARP.COM",
    "categoryName": "HOSPICE FACILITY",
    "categoryCode": "HOFA",
    "licenseStatus": "ACTIVE",
    "inService": true,
    "licenseNumber": "550001054",
    "licenseEffectiveDate": "10/30/2025",
    "licenseExpirationDate": "10/29/2026",
    "dataDate": "10/18/2025",
    "capacity": 4,
    "address": "5788 LYDEN WAY",
    "city": "SAN DIEGO",
    "zip": "92120",
    "county": "SAN DIEGO",
    "phone": "(619) 933-2949",
    "lat": 32.784597,
    "lng": -117.073899
  },
  {
    "id": "080001321",
    "name": "RAI - MISSION GORGE - SAN DIEGO",
    "npi": "1114091840",
    "hcaiId": "306374207",
    "businessName": "RAI CARE CENTERS OF SOUTHERN CALIFORNIA II, LLC",
    "contactEmail": "CLINIC7186@FMC-NA.COM",
    "categoryName": "CHRONIC DIALYSIS CLINIC",
    "categoryCode": "ESRD/CDC",
    "licenseStatus": "ACTIVE",
    "inService": true,
    "licenseNumber": "080000538",
    "licenseEffectiveDate": "11/01/2025",
    "licenseExpirationDate": "10/31/2026",
    "dataDate": "10/18/2025",
    "capacity": 33,
    "address": "7007 MISSION GORGE RD, FLOOR 1",
    "city": "SAN DIEGO",
    "zip": "92120",
    "county": "SAN DIEGO",
    "phone": "(619) 229-1070",
    "lat": 32.799879,
    "lng": -117.0907065
  },
  {
    "id": "090000013",
    "name": "UC SAN DIEGO HEALTH - EAST CAMPUS MEDICAL CENTER",
    "npi": null,
    "hcaiId": "106370652",
    "businessName": "THE REGENTS OF THE UNIVERSITY OF CALIFORNIA (UCSD)",
    "contactEmail": "CEVANDENBERG@HEALTH.UCSD.EDU",
    "categoryName": "GENERAL ACUTE CARE HOSPITAL",
    "categoryCode": "GACH",
    "licenseStatus": "ACTIVE",
    "inService": true,
    "licenseNumber": "090000101",
    "licenseEffectiveDate": "11/01/2025",
    "licenseExpirationDate": "10/31/2026",
    "dataDate": "10/18/2025",
    "capacity": 302,
    "address": "6655 ALVARADO RD",
    "city": "SAN DIEGO",
    "zip": "92120",
    "county": "SAN DIEGO",
    "phone": "(619) 543-6475",
    "lat": 32.775876,
    "lng": -117.05742
  }
]