[
  {
    "id": "630006342",
    "name": "ASPIRE HOME HEALTHCARE",
    "npi": "1699756700",
    "hcaiId": "406374412",
    "businessName": "ASPIRE HOME HEALTHCARE",
    "contactEmail": "DOGDEN@HOMECAREFORYOU.COM",
    "categoryName": "HOME HEALTH AGENCY",
    "categoryCode": "HHA",
    "licenseStatus": "ACTIVE",
    "inService": true,
    "licenseNumber": "550000107",
    "licenseEffectiveDate": "12/07/2024",
    "licenseExpirationDate": "12/06/2025",
    "dataDate": "10/18/2025",
    "capacity": 0,
    "address": "5465 MOREHOUSE DR, SUITE 155",
    "city": "SAN DIEGO",
    "zip": "92121",
    "county": "SAN DIEGO",
    "phone": "(858) 755-9600",
    "lat": 32.893065,
    "lng": -117.2000205
  },
  {
    "id": "630020545",
    "name": "BLUE MONARCH HOSPICE",
    "npi": null,
    "hcaiId": "406373760",
    "businessName": "BLUE MONARCH HOSPICE LLC",
    "contactEmail": "RAPHAEL@BLUEMONARCHHOSPICE.COM",
    "categoryName": "HOSPICE",
    "categoryCode": "HOSPICE",
    "licenseStatus": "ACTIVE",
    "inService": true,
    "licenseNumber": "550006510",
    "licenseEffectiveDate": "07/02/2025",
    "licenseExpirationDate": "07/01/2027",
    "dataDate": "10/18/2025",
    "capacity": 0,
    "address": "7220 TRADE ST, UNIT 245",
    "city": "SAN DIEGO",
    "zip": "92121",
    "county": "SAN DIEGO",
    "phone": "(858) 327-3033",
    "lat": 32.889355,
    "lng": -117.166945
  },
  {
    "id": "630021201",
    "name": "COMPASSIONATE PALLIATIVE CARE, INC",
    "npi": null,
    "hcaiId": "406373247",
    "businessName": "COMPASSIONATE PALLIATIVE CARE, INC",
    "contactEmail": "COMPASSIONATEPALLIATIVECARE@GMAIL.COM",
    "categoryName": "HOSPICE",
    "categoryCode": "HOSPICE",
    "licenseStatus": "ACTIVE",
    "inService": true,
    "licenseNumber": "550006639",
    "licenseEffectiveDate": "08/03/2025",
    "licenseExpirationDate": "08/02/2027",
    "dataDate": "10/18/2025",
    "capacity": 0,
    "address": "10251 VISTA SORRENTO PKWY, SUITE 280 D",
    "city": "SAN DIEGO",
    "zip": "92121",
    "county": "SAN DIEGO",
    "phone": "(858) 947-4212",
    "lat": 32.895585,
    "lng": -117.21384
  },
  {
    "id": "630025106",
    "name": "CURE STAT INFUSION SERVICES, INC.",
    "npi": null,
    "hcaiId": null,
    "businessName": "CURE STAT INFUSION SERVICES, INC",
    "contactEmail": "COMPLIANCE@CURESTATRX.COM",
    "categoryName": "HOME HEALTH AGENCY",
    "categoryCode": "HHA",
    "licenseStatus": "ACTIVE",
    "inService": true,
    "licenseNumber": "550008520",
    "licenseEffectiveDate": "04/21/2025",
    "licenseExpirationDate": "04/20/2026",
    "dataDate": "10/18/2025",
    "capacity": 0,
    "address": "6725 MESA RIDGE RD, SUITE 230",
    "city": "SAN DIEGO",
    "zip": "92121",
    "county": "SAN DIEGO",
    "phone": "(888) 963-6544",
    "lat": 32.901273,
    "lng": -117.174618
  },
  {
    "id": "630027451",
    "name": "ELG HOME HEALTH CARE",
    "npi": null,
    "hcaiId": null,
    "businessName": "ELG HOME CARE",
    "contactEmail": "ELGHC2023@YAHOO.COM",
    "categoryName": "HOME HEALTH AGENCY",
    "categoryCode": "HHA",
    "licenseStatus": "ACTIVE",
    "inService": true,
    "licenseNumber": "550009931",
    "licenseEffectiveDate": "07/01/2025",
    "licenseExpirationDate": "12/31/2025",
    "dataDate": "10/18/2025",
    "capacity": 0,
    "address": "5414 OBERLIN DR, SUITE 230",
    "city": "SAN DIEGO",
    "zip": "92121",
    "county": "SAN DIEGO",
    "phone": "(858) 281-1588",
    "lat": 32.89204999,
    "lng": -117.201059
  },
  {
    "id": "630020508",
    "name": "EVEREST HOSPICE",
    "npi": null,
    "hcaiId": "406196555",
    "businessName": "GOODWILL HEALTHCARE SERVICES INC.",
    "contactEmail": "GOODWILLHS@YAHOO.COM",
    "categoryName": "HOSPICE",
    "categoryCode": "HOSPICE",
    "licenseStatus": "ACTIVE",
    "inService": true,
    "licenseNumber": "550006444",
    "licenseEffectiveDate": "06/01/2025",
    "licenseExpirationDate": "05/31/2027",
    "dataDate": "10/18/2025",
    "capacity": 0,
    "address": "8380 MIRAMAR MALL, SUITE 225B",
    "city": "SAN DIEGO",
    "zip": "92121",
    "county": "SAN DIEGO",
    "phone": "(858) 355-9903",
    "lat": 32.88005402,
    "lng": -117.183493
  },
  {
    "id": "630021810",
    "name": "HEAVENLY DOVES HOSPICE, INC.",
    "npi": null,
    "hcaiId": "406373861",
    "businessName": "HEAVENLY DOVES HOSPICE, INC.",
    "contactEmail": "HEAVENLYDOVESHOSPICE@GMAIL.COM",
    "categoryName": "HOSPICE",
    "categoryCode": "HOSPICE",
    "licenseStatus": "ACTIVE",
    "inService": true,
    "licenseNumber": "550007295",
    "licenseEffectiveDate": "11/22/2023",
    "licenseExpirationDate": "11/21/2025",
    "dataDate": "10/18/2025",
    "capacity": 0,
    "address": "10251 VISTA SORRENTO PKWY, SUITE 280F",
    "city": "SAN DIEGO",
    "zip": "92121",
    "county": "SAN DIEGO",
    "phone": "(858) 947-4242",
    "lat": 32.895531,
    "lng": -117.21366
  },
  {
    "id": "630016535",
    "name": "INNOVATIVE SURGERY CENTER LLC",
    "npi": "1740692730",
    "hcaiId": null,
    "businessName": null,
    "contactEmail": null,
    "categoryName": "SURGICAL CLINIC",
    "categoryCode": "ASC",
    "licenseStatus": null,
    "inService": null,
    "licenseNumber": null,
    "licenseEffectiveDate": null,
    "licenseExpirationDate": null,
    "dataDate": "10/18/2025",
    "capacity": 0,
    "address": "6610 FLANDERS DRIVE",
    "city": "SAN DIEGO",
    "zip": "92121",
    "county": "SAN DIEGO",
    "phone": null,
    "lat": 32.906151,
    "lng": -117.1763325
  },
  {
    "id": "630024377",
    "name": "JTC HOME HEALTH, INC",
    "npi": null,
    "hcaiId": "406377746",
    "businessName": "JTC HOME HEALTH, INC",
    "contactEmail": "INFO@JTCHOMEHEALTH.COM",
    "categoryName": "HOME HEALTH AGENCY",
    "categoryCode": "HHA",
    "licenseStatus": "ACTIVE",
    "inService": true,
    "licenseNumber": "550008242",
    "licenseEffectiveDate": "10/08/2025",
    "licenseExpirationDate": "11/04/2025",
    "dataDate": "10/18/2025",
    "capacity": 0,
    "address": "7220 TRADE ST, SUITE 256",
    "city": "SAN DIEGO",
    "zip": "92121",
    "county": "SAN DIEGO",
    "phone": "(619) 230-5568",
    "lat": 32.889357,
    "lng": -117.1669455
  },
  {
    "id": "630021352",
    "name": "LA JOLLA HOSPICE, INC.",
    "npi": null,
    "hcaiId": "406373251",
    "businessName": "LA JOLLA HOSPICE, INC.",
    "contactEmail": "LAJOLLAHOSPICE@GMAIL.COM",
    "categoryName": "HOSPICE",
    "categoryCode": "HOSPICE",
    "licenseStatus": "ACTIVE",
    "inService": true,
    "licenseNumber": "550006642",
    "licenseEffectiveDate": "08/03/2025",
    "licenseExpirationDate": "08/02/2027",
    "dataDate": "10/18/2025",
    "capacity": 0,
    "address": "10251 VISTA SORRENTO PKWY, SUITE 280C",
    "city": "SAN DIEGO",
    "zip": "92121",
    "county": "SAN DIEGO",
    "phone": "(858) 947-4347",
    "lat": 32.895531,
    "lng": -117.21366
  },
  {
    "id": "080001731",
    "name": "LIGHTBRIDGE HOSPICE",
    "npi": null,
    "hcaiId": "406374352",
    "businessName": "LIGHTBRIDGE HOSPICE, LLC",
    "contactEmail": "PAM@LIGHTBRIDGEHOSPICE.COM",
    "categoryName": "HOSPICE",
    "categoryCode": "HOSPICE",
    "licenseStatus": "ACTIVE",
    "inService": true,
    "licenseNumber": "080000772",
    "licenseEffectiveDate": "06/13/2025",
    "licenseExpirationDate": "06/12/2027",
    "dataDate": "10/18/2025",
    "capacity": 0,
    "address": "6155 CORNERSTONE CT E, SUITE 220",
    "city": "SAN DIEGO",
    "zip": "92121",
    "county": "SAN DIEGO",
    "phone": "(858) 458-2992",
    "lat": 32.89572,
    "lng": -117.1887075
  },
  {
    "id": "630016813",
    "name": "PACIFIC POINT HOME HEALTH & PALLIATIVE CARE",
    "npi": "1396193546",
    "hcaiId": "406370829",
    "businessName": "PACIFIC POINT HEALTH CARE SERVICES, INC.",
    "contactEmail": "INFO@PACIFICPOINTHCS.ORG",
    "categoryName": "HOME HEALTH AGENCY",
    "categoryCode": "HHA",
    "licenseStatus": "ACTIVE",
    "inService": true,
    "licenseNumber": "550004044",
    "licenseEffectiveDate": "12/12/2024",
    "licenseExpirationDate": "12/11/2025",
    "dataDate": "10/18/2025",
    "capacity": 0,
    "address": "6170 CORNERSTONE CT E, SUITE 200B",
    "city": "SAN DIEGO",
    "zip": "92121",
    "county": "SAN DIEGO",
    "phone": "(760) 603-8700",
    "lat": 32.896575,
    "lng": -117.187623
  },
  {
    "id": "630016980",
    "name": "PACIFIC POINT HOSPICE & PALLIATIVE CARE",
    "npi": null,
    "hcaiId": "406374571",
    "businessName": "PACIFIC POINT HEALTH CARE SERVICES, INC.",
    "contactEmail": "INFO@PACIFICPOINTHCS.ORG",
    "categoryName": "HOSPICE",
    "categoryCode": "HOSPICE",
    "licenseStatus": "ACTIVE",
    "inService": true,
    "licenseNumber": "550003858",
    "licenseEffectiveDate": "04/27/2025",
    "licenseExpirationDate": "04/26/2027",
    "dataDate": "10/18/2025",
    "capacity": 0,
    "address": "6170 CORNERSTONE CT E, SUITE 200A",
    "city": "SAN DIEGO",
    "zip": "92121",
    "county": "SAN DIEGO",
    "phone": "(760) 603-8700",
    "lat": 32.8961,
    "lng": -117.187302
  },
  {
    "id": "630017157",
    "name": "SEA COAST HOME HEALTH CARE, INC.",
    "npi": "1720523921",
    "hcaiId": "406371533",
    "businessName": "SEA COAST HOME HEALTH CARE, INC.",
    "contactEmail": "OFFICE@SEACOASTHHC.COM",
    "categoryName": "HOME HEALTH AGENCY",
    "categoryCode": "HHA",
    "licenseStatus": "ACTIVE",
    "inService": true,
    "licenseNumber": "550004471",
    "licenseEffectiveDate": "12/07/2024",
    "licenseExpirationDate": "12/06/2025",
    "dataDate": "10/18/2025",
    "capacity": 0,
    "address": "8380 MIRAMAR MALL, SUITE 107",
    "city": "SAN DIEGO",
    "zip": "92121",
    "county": "SAN DIEGO",
    "phone": "(858) 452-9200",
    "lat": 32.880132,
    "lng": -117.1835775
  },
  {
    "id": "630017320",
    "name": "SEA COAST HOSPICE CARE INC",
    "npi": "1093250292",
    "hcaiId": "406374575",
    "businessName": "SEA COAST HOSPICE CARE INC",
    "contactEmail": "SEACOASTHOSPICECARE@GMAIL.COM",
    "categoryName": "HOSPICE",
    "categoryCode": "HOSPICE",
    "licenseStatus": "ACTIVE",
    "inService": true,
    "licenseNumber": "550003950",
    "licenseEffectiveDate": "09/11/2023",
    "licenseExpirationDate": "09/10/2025",
    "dataDate": "10/18/2025",
    "capacity": 0,
    "address": "8380 MIRAMAR MALL, SUITE 109",
    "city": "SAN DIEGO",
    "zip": "92121",
    "county": "SAN DIEGO",
    "phone": "(858) 452-9300",
    "lat": 32.880132,
    "lng": -117.1835775
  },
  {
    "id": "630013169",
    "name": "UCSD SURGICAL CENTER OF SAN DIEGO LLC",
    "npi": "1922324177",
    "hcaiId": null,
    "businessName": null,
    "contactEmail": null,
    "categoryName": "SURGICAL CLINIC",
    "categoryCode": "ASC",
    "licenseStatus": null,
    "inService": null,
    "licenseNumber": null,
    "licenseEffectiveDate": null,
    "licenseExpirationDate": null,
    "dataDate": "10/18/2025",
    "capacity": 0,
    "address": "4910 DIRECTORS PL, SUITE 100",
    "city": "SAN DIEGO",
    "zip": "92121",
    "county": "SAN DIEGO",
    "phone": "(858) 750-4800",
    "lat": 32.894577,
    "lng": -117.21204
  }
]