[
  {
    "id": "630011822",
    "name": "ACCENTCARE HOSPICE & PALLIATIVE CARE OF CALIFORNIA - SAN DIEGO",
    "npi": null,
    "hcaiId": "406374391",
    "businessName": "SEASONS HOSPICE & PALLIATIVE CARE OF CALIFORNIA-SAN DIEGO LLC",
    "contactEmail": "SARAHBRECKNER@ACCENTCARE.COM",
    "categoryName": "HOSPICE",
    "categoryCode": "HOSPICE",
    "licenseStatus": "ACTIVE",
    "inService": true,
    "licenseNumber": "550000796",
    "licenseEffectiveDate": "03/11/2024",
    "licenseExpirationDate": "03/10/2026",
    "dataDate": "10/18/2025",
    "capacity": 0,
    "address": "16745 W BERNARDO DR, SUITE 240",
    "city": "SAN DIEGO",
    "zip": "92127",
    "county": "SAN DIEGO",
    "phone": "(858) 592-2000",
    "lat": 33.014961,
    "lng": -117.0812205
  },
  {
    "id": "630027323",
    "name": "ARC HEALTH SYSTEMS LLC",
    "npi": null,
    "hcaiId": null,
    "businessName": "ARC HEALTH SYSTEMS LLC",
    "contactEmail": "ARCHEALTHSYSTEMS@GMAIL.COM",
    "categoryName": "HOME HEALTH AGENCY",
    "categoryCode": "HHA",
    "licenseStatus": "ACTIVE",
    "inService": true,
    "licenseNumber": "550009516",
    "licenseEffectiveDate": "11/11/2025",
    "licenseExpirationDate": "11/10/2026",
    "dataDate": "10/18/2025",
    "capacity": 0,
    "address": "10801 THORNMINT RD, SUITE 250",
    "city": "SAN DIEGO",
    "zip": "92127",
    "county": "SAN DIEGO",
    "phone": "(909) 289-7755",
    "lat": 33.01652699,
    "lng": -117.101423
  },
  {
    "id": "080000685",
    "name": "CASA DE LAS CAMPANAS",
    "npi": null,
    "hcaiId": "206374038",
    "businessName": "CASA DE LAS CAMPANAS, INC.",
    "contactEmail": "DOMINY@CASADLC.COM",
    "categoryName": "SKILLED NURSING FACILITY",
    "categoryCode": "SNF",
    "licenseStatus": "ACTIVE",
    "inService": true,
    "licenseNumber": "080000313",
    "licenseEffectiveDate": "02/24/2025",
    "licenseExpirationDate": "02/23/2026",
    "dataDate": "10/18/2025",
    "capacity": 99,
    "address": "18655 W BERNARDO DR",
    "city": "SAN DIEGO",
    "zip": "92127",
    "county": "SAN DIEGO",
    "phone": "(858) 451-9152",
    "lat": 33.051213,
    "lng": -117.074475
  },
  {
    "id": "080000783",
    "name": "CASA DE LAS CAMPANAS",
    "npi": null,
    "hcaiId": null,
    "businessName": "CASA DE LAS CAMPANAS, INC.",
    "contactEmail": null,
    "categoryName": "REHABILITATION CLINIC",
    "categoryCode": "OPT/SP",
    "licenseStatus": "ACTIVE",
    "inService": true,
    "licenseNumber": "080000313",
    "licenseEffectiveDate": "02/24/2025",
    "licenseExpirationDate": "02/23/2026",
    "dataDate": "10/18/2025",
    "capacity": 0,
    "address": "18685 W BERNARDO DR",
    "city": "SAN DIEGO",
    "zip": "92127",
    "county": "SAN DIEGO",
    "phone": null,
    "lat": 33.05287542,
    "lng": -117.0761023
  },
  {
    "id": "080001735",
    "name": "FMCNA DIALYSIS SERVICES OF RANCHO",
    "npi": "1326150129",
    "hcaiId": "306374325",
    "businessName": "BIO-MEDICAL APPLICATIONS OF CALIFORNIA, INC.",
    "contactEmail": "CLINIC2909@FMC-NA.COM",
    "categoryName": "CHRONIC DIALYSIS CLINIC",
    "categoryCode": "ESRD/CDC",
    "licenseStatus": "ACTIVE",
    "inService": true,
    "licenseNumber": "080000777",
    "licenseEffectiveDate": "11/23/2025",
    "licenseExpirationDate": "11/22/2026",
    "dataDate": "10/18/2025",
    "capacity": 16,
    "address": "11031 VIA FRONTERA, SUITE C",
    "city": "SAN DIEGO",
    "zip": "92127",
    "county": "SAN DIEGO",
    "phone": "(858) 385-0700",
    "lat": 33.01173,
    "lng": -117.0932445
  },
  {
    "id": "630021131",
    "name": "RBRK HEALTHCARE, LLC",
    "npi": null,
    "hcaiId": "406374764",
    "businessName": "RBRK HEALTHCARE, LLC",
    "contactEmail": "RBRKHEALTHCARE@GMAIL.COM",
    "categoryName": "HOSPICE",
    "categoryCode": "HOSPICE",
    "licenseStatus": "ACTIVE",
    "inService": true,
    "licenseNumber": "550006856",
    "licenseEffectiveDate": "09/24/2023",
    "licenseExpirationDate": "09/23/2025",
    "dataDate": "10/18/2025",
    "capacity": 0,
    "address": "16870 W BERNARDO DR, SUITE 400",
    "city": "SAN DIEGO",
    "zip": "92127",
    "county": "SAN DIEGO",
    "phone": "(800) 701-7990",
    "lat": 33.019623,
    "lng": -117.081297
  },
  {
    "id": "080000694",
    "name": "VILLA RANCHO BERNARDO CARE CENTER",
    "npi": "1518063437",
    "hcaiId": "206374029",
    "businessName": "VILLA RANCHO BERNARDO HEALTH CARE, LLC",
    "contactEmail": "ADMIN@VILLARANCHOBERNARDO.COM",
    "categoryName": "SKILLED NURSING FACILITY",
    "categoryCode": "SNF",
    "licenseStatus": "ACTIVE",
    "inService": true,
    "licenseNumber": "080000316",
    "licenseEffectiveDate": "11/07/2025",
    "licenseExpirationDate": "11/06/2026",
    "dataDate": "10/18/2025",
    "capacity": 299,
    "address": "15720 BERNARDO CENTER DR",
    "city": "SAN DIEGO",
    "zip": "92127",
    "county": "SAN DIEGO",
    "phone": "(858) 672-3900",
    "lat": 33.005439,
    "lng": -117.093978
  },
  {
    "id": "080000780",
    "name": "VILLA RANCHO BERNARDO CARE CENTER",
    "npi": null,
    "hcaiId": null,
    "businessName": null,
    "contactEmail": null,
    "categoryName": "REHABILITATION CLINIC",
    "categoryCode": "OPT/SP",
    "licenseStatus": null,
    "inService": null,
    "licenseNumber": null,
    "licenseEffectiveDate": null,
    "licenseExpirationDate": null,
    "dataDate": "10/18/2025",
    "capacity": 0,
    "address": "15720 BERNARDO CENTER DR",
    "city": "SAN DIEGO",
    "zip": "92127",
    "county": "SAN DIEGO",
    "phone": null,
    "lat": 33.005439,
    "lng": -117.093978
  }
]