[
  {
    "id": "080001734",
    "name": "CARMEL MOUNTAIN DIALYSIS",
    "npi": "1669788980",
    "hcaiId": "306374326",
    "businessName": "DOVES DIALYSIS LLC",
    "contactEmail": "CAL_C@DAVITA.COM",
    "categoryName": "CHRONIC DIALYSIS CLINIC",
    "categoryCode": "ESRD/CDC",
    "licenseStatus": "ACTIVE",
    "inService": true,
    "licenseNumber": "080000776",
    "licenseEffectiveDate": "11/30/2024",
    "licenseExpirationDate": "11/29/2025",
    "dataDate": "10/18/2025",
    "capacity": 16,
    "address": "9850 CARMEL MOUNTAIN RD, SUITE A",
    "city": "SAN DIEGO",
    "zip": "92129",
    "county": "SAN DIEGO",
    "phone": "(858) 538-1083",
    "lat": 32.96043,
    "lng": -117.115254
  },
  {
    "id": "630017127",
    "name": "OPSAM HEALTH: RANCHO PENASQUITOS",
    "npi": "1699216622",
    "hcaiId": "306374568",
    "businessName": "OPERATION SAMAHAN, INC.",
    "contactEmail": "ASIROTILO@OPSAM.ORG",
    "categoryName": "PRIMARY CARE CLINIC",
    "categoryCode": "COMTYC",
    "licenseStatus": "ACTIVE",
    "inService": true,
    "licenseNumber": "090000183",
    "licenseEffectiveDate": "02/16/2025",
    "licenseExpirationDate": "02/15/2026",
    "dataDate": "10/18/2025",
    "capacity": 0,
    "address": "9995 CARMEL MOUNTAIN RD, SUITE B10 & B11",
    "city": "SAN DIEGO",
    "zip": "92129",
    "county": "SAN DIEGO",
    "phone": "(844) 200-2426",
    "lat": 32.960088,
    "lng": -117.111861
  },
  {
    "id": "080001685",
    "name": "THERAPY SPECIALISTS EXT.",
    "npi": null,
    "hcaiId": null,
    "businessName": null,
    "contactEmail": null,
    "categoryName": "OTHER",
    "categoryCode": "UNLICEN",
    "licenseStatus": null,
    "inService": null,
    "licenseNumber": null,
    "licenseEffectiveDate": null,
    "licenseExpirationDate": null,
    "dataDate": "10/18/2025",
    "capacity": 0,
    "address": "12979 RANCHO PENASQUITOS BLVD",
    "city": "SAN DIEGO",
    "zip": "92129",
    "county": "SAN DIEGO",
    "phone": "(000) 000-0000",
    "lat": 32.953185,
    "lng": -117.107604
  }
]