[
  {
    "id": "630017425",
    "name": "ABILITY HOME HEALTH SERVICES INC.",
    "npi": "1841728508",
    "hcaiId": "406371734",
    "businessName": "ABILITY HOME HEALTH SERVICES INC.",
    "contactEmail": "ADMIN@ABILITYHHS.COM",
    "categoryName": "HOME HEALTH AGENCY",
    "categoryCode": "HHA",
    "licenseStatus": "ACTIVE",
    "inService": true,
    "licenseNumber": "550004552",
    "licenseEffectiveDate": "01/29/2025",
    "licenseExpirationDate": "01/28/2026",
    "dataDate": "10/18/2025",
    "capacity": 0,
    "address": "9560 CANDIDA ST",
    "city": "SAN DIEGO",
    "zip": "92126",
    "county": "SAN DIEGO",
    "phone": "(760) 534-5683",
    "lat": 32.896746,
    "lng": -117.1222605
  },
  {
    "id": "630012053",
    "name": "ADVANCED HOME HEALTH SAN DIEGO INC",
    "npi": "1649669938",
    "hcaiId": "406374435",
    "businessName": "ADVANCED HOME HEALTH SAN DIEGO, INC.",
    "contactEmail": "AROJAS@AHH1.COM",
    "categoryName": "HOME HEALTH AGENCY",
    "categoryCode": "HHA",
    "licenseStatus": "ACTIVE",
    "inService": true,
    "licenseNumber": "550001206",
    "licenseEffectiveDate": "09/02/2025",
    "licenseExpirationDate": "09/01/2026",
    "dataDate": "10/18/2025",
    "capacity": 0,
    "address": "9245 ACTIVITY RD, SUITE 210",
    "city": "SAN DIEGO",
    "zip": "92126",
    "county": "SAN DIEGO",
    "phone": "(858) 673-8880",
    "lat": 32.896224,
    "lng": -117.128151
  },
  {
    "id": "630009921",
    "name": "ADVANTAGE HEALTH SYSTEMS",
    "npi": "1538225313",
    "hcaiId": "406374397",
    "businessName": "ADVANTAGE HEALTH SYSTEMS",
    "contactEmail": "INFO.SDHH@ADVHEALTHSYSTEMS.COM",
    "categoryName": "HOME HEALTH AGENCY",
    "categoryCode": "HHA",
    "licenseStatus": "ACTIVE",
    "inService": true,
    "licenseNumber": "550000163",
    "licenseEffectiveDate": "04/21/2025",
    "licenseExpirationDate": "04/20/2026",
    "dataDate": "10/18/2025",
    "capacity": 0,
    "address": "9663 TIERRA GRANDE ST, SUITE 101",
    "city": "SAN DIEGO",
    "zip": "92126",
    "county": "SAN DIEGO",
    "phone": "(858) 433-0469",
    "lat": 32.894757,
    "lng": -117.121338
  },
  {
    "id": "630013502",
    "name": "ADVANTAGE HEALTH SYSTEMS",
    "npi": null,
    "hcaiId": "406374468",
    "businessName": "ADVANTAGE HEALTH SYSTEMS",
    "contactEmail": "INFO.SDHO@ADVHEALTHSYSTEMS.COM",
    "categoryName": "HOSPICE",
    "categoryCode": "HOSPICE",
    "licenseStatus": "ACTIVE",
    "inService": true,
    "licenseNumber": "550001984",
    "licenseEffectiveDate": "06/20/2024",
    "licenseExpirationDate": "06/19/2026",
    "dataDate": "10/18/2025",
    "capacity": 0,
    "address": "9663 TIERRA GRANDE ST, SUITE 204",
    "city": "SAN DIEGO",
    "zip": "92126",
    "county": "SAN DIEGO",
    "phone": "(858) 547-0077",
    "lat": 32.894757,
    "lng": -117.121338
  },
  {
    "id": "630016750",
    "name": "ALLEVIATION HOSPICE CARE, INC.",
    "npi": null,
    "hcaiId": "406371619",
    "businessName": "ALLEVIATION HOSPICE CARE, INC.",
    "contactEmail": "ALLEVIATIONHOSPICECARE@GMAIL.COM",
    "categoryName": "HOSPICE",
    "categoryCode": "HOSPICE",
    "licenseStatus": "ACTIVE",
    "inService": true,
    "licenseNumber": "550003637",
    "licenseEffectiveDate": "09/06/2024",
    "licenseExpirationDate": "09/05/2026",
    "dataDate": "10/18/2025",
    "capacity": 0,
    "address": "7940 SILVERTON AVE, SUITE 213",
    "city": "SAN DIEGO",
    "zip": "92126",
    "county": "SAN DIEGO",
    "phone": "(760) 705-1557",
    "lat": 32.89136599,
    "lng": -117.149812
  },
  {
    "id": "630027391",
    "name": "AVM HOME HEALTH LLC",
    "npi": null,
    "hcaiId": null,
    "businessName": "AVM HOME HEALTH LLC",
    "contactEmail": "INFO@AVMHOMEHEALTH.COM",
    "categoryName": "HOME HEALTH AGENCY",
    "categoryCode": "HHA",
    "licenseStatus": "ACTIVE",
    "inService": true,
    "licenseNumber": "550009842",
    "licenseEffectiveDate": "11/02/2025",
    "licenseExpirationDate": "05/01/2026",
    "dataDate": "10/18/2025",
    "capacity": 0,
    "address": "7950 SILVERTON AVE, SUITE 207",
    "city": "SAN DIEGO",
    "zip": "92126",
    "county": "SAN DIEGO",
    "phone": "(858) 800-1090",
    "lat": 32.89142399,
    "lng": -117.150068
  },
  {
    "id": "630026925",
    "name": "BE MORE HOME HEALTH SERVICES, INC",
    "npi": null,
    "hcaiId": null,
    "businessName": "BE MORE HOME HEALTH SERVICES, INC",
    "contactEmail": "INFO@BEMOREHOMEHEALTH.COM",
    "categoryName": "HOME HEALTH AGENCY",
    "categoryCode": "HHA",
    "licenseStatus": "ACTIVE",
    "inService": true,
    "licenseNumber": "550009263",
    "licenseEffectiveDate": "07/29/2025",
    "licenseExpirationDate": "07/28/2026",
    "dataDate": "10/18/2025",
    "capacity": 0,
    "address": "9474 KEARNY VILLA RD, SUITE 211",
    "city": "SAN DIEGO",
    "zip": "92126",
    "county": "SAN DIEGO",
    "phone": "(619) 324-9616",
    "lat": 32.895432,
    "lng": -117.1203975
  },
  {
    "id": "630019296",
    "name": "BRIGHTSTAR CARE OF CARMEL VALLEY & RANCHO SANTA FE",
    "npi": null,
    "hcaiId": "406373031",
    "businessName": "VAZIRI CARE, INC.",
    "contactEmail": "S.VAZIRI@BRIGHTSTARCARE.COM",
    "categoryName": "HOME HEALTH AGENCY",
    "categoryCode": "HHA",
    "licenseStatus": "ACTIVE",
    "inService": true,
    "licenseNumber": "550005905",
    "licenseEffectiveDate": "12/03/2024",
    "licenseExpirationDate": "12/02/2025",
    "dataDate": "10/18/2025",
    "capacity": 0,
    "address": "9672 VIA EXCELENCIA, SUITE 102A",
    "city": "SAN DIEGO",
    "zip": "92126",
    "county": "SAN DIEGO",
    "phone": "(858) 247-1111",
    "lat": 32.898852,
    "lng": -117.1178325
  },
  {
    "id": "630014198",
    "name": "DELTA HOME HEALTH, INC.",
    "npi": "1982953758",
    "hcaiId": "406374488",
    "businessName": "DELTA HOME HEALTH, INC.",
    "contactEmail": "DELTAHOMEHEALTH@OUTLOOK.COM",
    "categoryName": "HOME HEALTH AGENCY",
    "categoryCode": "HHA",
    "licenseStatus": "ACTIVE",
    "inService": true,
    "licenseNumber": "550002301",
    "licenseEffectiveDate": "06/01/2025",
    "licenseExpirationDate": "05/31/2026",
    "dataDate": "10/18/2025",
    "capacity": 0,
    "address": "9360 ACTIVITY RD, SUITE B",
    "city": "SAN DIEGO",
    "zip": "92126",
    "county": "SAN DIEGO",
    "phone": "(858) 564-9628",
    "lat": 32.897602,
    "lng": -117.125657
  },
  {
    "id": "630021200",
    "name": "ETHEREAL HOSPICE, INC.",
    "npi": null,
    "hcaiId": "406376189",
    "businessName": "ETHEREAL HOSPICE, INC.",
    "contactEmail": "ETHEREALHOSPICE@GMAIL.COM",
    "categoryName": "HOSPICE",
    "categoryCode": "HOSPICE",
    "licenseStatus": "ACTIVE",
    "inService": true,
    "licenseNumber": "550007261",
    "licenseEffectiveDate": "11/22/2023",
    "licenseExpirationDate": "11/21/2025",
    "dataDate": "10/18/2025",
    "capacity": 0,
    "address": "8400 MIRAMAR RD, SUITE 235B",
    "city": "SAN DIEGO",
    "zip": "92126",
    "county": "SAN DIEGO",
    "phone": "(818) 572-3495",
    "lat": 32.892093,
    "lng": -117.1400175
  },
  {
    "id": "630020994",
    "name": "HEALING LOVE HEALTH CARE SERVICES INC",
    "npi": null,
    "hcaiId": "406564920",
    "businessName": "HEALING LOVE HEALTH CARE SERVICES INC",
    "contactEmail": "HEALINGLOVEHCS@GMAIL.COM",
    "categoryName": "HOSPICE",
    "categoryCode": "HOSPICE",
    "licenseStatus": "ACTIVE",
    "inService": true,
    "licenseNumber": "550007063",
    "licenseEffectiveDate": "09/24/2025",
    "licenseExpirationDate": "09/23/2027",
    "dataDate": "10/18/2025",
    "capacity": 0,
    "address": "8400 MIRAMAR RD, SUITE 245C-2",
    "city": "SAN DIEGO",
    "zip": "92126",
    "county": "SAN DIEGO",
    "phone": "(619) 695-1687",
    "lat": 32.89204299,
    "lng": -117.141224
  },
  {
    "id": "630027275",
    "name": "LEGACY CARE ADHC/CBAS",
    "npi": null,
    "hcaiId": null,
    "businessName": "LEGACY CARE ADHC CORPORATION",
    "contactEmail": "LIZZIE@LEGACYADHC.COM",
    "categoryName": "ADULT DAY HEALTH CARE",
    "categoryCode": "ADHC",
    "licenseStatus": "ACTIVE",
    "inService": true,
    "licenseNumber": "550009443",
    "licenseEffectiveDate": "10/18/2025",
    "licenseExpirationDate": "10/17/2026",
    "dataDate": "10/18/2025",
    "capacity": 0,
    "address": "11239 CAMINO RUIZ, SUITE A",
    "city": "SAN DIEGO",
    "zip": "92126",
    "county": "SAN DIEGO",
    "phone": "(858) 348-4074",
    "lat": 32.92587101,
    "lng": -117.143414
  },
  {
    "id": "630015320",
    "name": "LEGACY HOME HEALTH & REHABILITATION, LLC",
    "npi": "1871919654",
    "hcaiId": "406374541",
    "businessName": "LEGACY HOME HEALTH & REHABILITATION, LLC",
    "contactEmail": "CEO@LEGACYHH.ORG",
    "categoryName": "HOME HEALTH AGENCY",
    "categoryCode": "HHA",
    "licenseStatus": "ACTIVE",
    "inService": true,
    "licenseNumber": "550003278",
    "licenseEffectiveDate": "11/10/2024",
    "licenseExpirationDate": "11/09/2025",
    "dataDate": "10/18/2025",
    "capacity": 0,
    "address": "9672 VIA EXCELENCIA, SUITE 103",
    "city": "SAN DIEGO",
    "zip": "92126",
    "county": "SAN DIEGO",
    "phone": "(858) 578-3700",
    "lat": 32.898852,
    "lng": -117.1178325
  },
  {
    "id": "630021243",
    "name": "MIRAMAR HOSPICE, INC.",
    "npi": null,
    "hcaiId": "406375009",
    "businessName": "MIRAMAR HOSPICE, INC.",
    "contactEmail": "MIRAMARHOSPICEINC@GMAIL.COM",
    "categoryName": "HOSPICE",
    "categoryCode": "HOSPICE",
    "licenseStatus": "ACTIVE",
    "inService": true,
    "licenseNumber": "550007269",
    "licenseEffectiveDate": "11/22/2023",
    "licenseExpirationDate": "11/21/2025",
    "dataDate": "10/18/2025",
    "capacity": 0,
    "address": "8400 MIRAMAR RD, SUITE 242C",
    "city": "SAN DIEGO",
    "zip": "92126",
    "county": "SAN DIEGO",
    "phone": "(818) 572-3495",
    "lat": 32.892093,
    "lng": -117.1400175
  },
  {
    "id": "630020518",
    "name": "OPSAM HEALTH: MIRA MESA 138/140",
    "npi": null,
    "hcaiId": null,
    "businessName": "OPERATION SAMAHAN, INC.",
    "contactEmail": null,
    "categoryName": "PRIMARY CARE CLINIC",
    "categoryCode": "COMTYC",
    "licenseStatus": "ACTIVE",
    "inService": true,
    "licenseNumber": "080000146",
    "licenseEffectiveDate": "11/15/2024",
    "licenseExpirationDate": "11/14/2025",
    "dataDate": "10/18/2025",
    "capacity": 0,
    "address": "10737 CAMINO RUIZ, SUITE 138/140",
    "city": "SAN DIEGO",
    "zip": "92126",
    "county": "SAN DIEGO",
    "phone": null,
    "lat": 32.913972,
    "lng": -117.1427715
  },
  {
    "id": "080000251",
    "name": "OPSAM HEALTH: MIRA MESA MEDICAL",
    "npi": "1871680397",
    "hcaiId": "306371354",
    "businessName": "OPERATION SAMAHAN, INC.",
    "contactEmail": "ASIROTILO@OPSAM.ORG",
    "categoryName": "PRIMARY CARE CLINIC",
    "categoryCode": "COMTYC",
    "licenseStatus": "ACTIVE",
    "inService": true,
    "licenseNumber": "080000146",
    "licenseEffectiveDate": "11/15/2024",
    "licenseExpirationDate": "11/14/2025",
    "dataDate": "10/18/2025",
    "capacity": 0,
    "address": "10737 CAMINO RUIZ, SUITE 235",
    "city": "SAN DIEGO",
    "zip": "92126",
    "county": "SAN DIEGO",
    "phone": "(844) 200-2426",
    "lat": 32.913972,
    "lng": -117.1427715
  },
  {
    "id": "630011758",
    "name": "PACIFIC POINT HCS, INC.",
    "npi": "1245417724",
    "hcaiId": "406304435",
    "businessName": "PACIFIC POINT HCS, INC.",
    "contactEmail": "INFO@PACIFICPOINTHCS.ORG",
    "categoryName": "HOME HEALTH AGENCY",
    "categoryCode": "HHA",
    "licenseStatus": "ACTIVE",
    "inService": true,
    "licenseNumber": "550000908",
    "licenseEffectiveDate": "02/27/2025",
    "licenseExpirationDate": "02/26/2026",
    "dataDate": "10/18/2025",
    "capacity": 0,
    "address": "7950 SILVERTON AVE, SUITE 201",
    "city": "SAN DIEGO",
    "zip": "92126",
    "county": "SAN DIEGO",
    "phone": "(949) 570-5444",
    "lat": 32.89142399,
    "lng": -117.150068
  },
  {
    "id": "630021327",
    "name": "PALLIATIVE TENDER CARE, INC.",
    "npi": null,
    "hcaiId": "406374864",
    "businessName": "PALLIATIVE TENDER CARE, INC.",
    "contactEmail": "PALLIATIVETENDERCAREINC@GMAIL.COM",
    "categoryName": "HOSPICE",
    "categoryCode": "HOSPICE",
    "licenseStatus": "ACTIVE",
    "inService": true,
    "licenseNumber": "550006801",
    "licenseEffectiveDate": "09/13/2025",
    "licenseExpirationDate": "09/12/2027",
    "dataDate": "10/18/2025",
    "capacity": 0,
    "address": "8400 MIRAMAR RD, SUITE 214A",
    "city": "SAN DIEGO",
    "zip": "92126",
    "county": "SAN DIEGO",
    "phone": "(619) 655-3136",
    "lat": 32.892093,
    "lng": -117.1400175
  },
  {
    "id": "630021343",
    "name": "PEACEFUL PALLIATIVE CARE, INC",
    "npi": null,
    "hcaiId": "406373744",
    "businessName": "PEACEFUL PALLIATIVE CARE, INC",
    "contactEmail": "PEACEFULPALLIATIVECAREINC@GMAIL.COM",
    "categoryName": "HOSPICE",
    "categoryCode": "HOSPICE",
    "licenseStatus": "ACTIVE",
    "inService": true,
    "licenseNumber": "550006843",
    "licenseEffectiveDate": "09/13/2025",
    "licenseExpirationDate": "09/12/2027",
    "dataDate": "10/18/2025",
    "capacity": 0,
    "address": "8400 MIRAMAR RD, SUITE 243C",
    "city": "SAN DIEGO",
    "zip": "92126",
    "county": "SAN DIEGO",
    "phone": "(602) 654-3573",
    "lat": 32.892093,
    "lng": -117.1400175
  },
  {
    "id": "080000660",
    "name": "PLANNED PARENTHOOD/MIRA MESA CLINIC",
    "npi": "1124053111",
    "hcaiId": "306374025",
    "businessName": "PLANNED PARENTHOOD OF THE PACIFIC SOUTHWEST",
    "contactEmail": "LMANN1@PLANNED.ORG",
    "categoryName": "PRIMARY CARE CLINIC",
    "categoryCode": "COMTYC",
    "licenseStatus": "ACTIVE",
    "inService": true,
    "licenseNumber": "080000305",
    "licenseEffectiveDate": "04/20/2025",
    "licenseExpirationDate": "04/19/2026",
    "dataDate": "10/18/2025",
    "capacity": 0,
    "address": "10717 CAMINO RUIZ, SUITE 258",
    "city": "SAN DIEGO",
    "zip": "92126",
    "county": "SAN DIEGO",
    "phone": "(619) 881-4500",
    "lat": 32.913747,
    "lng": -117.1427805
  },
  {
    "id": "630011005",
    "name": "PROVIDENT HOME HEALTHCARE, INC",
    "npi": "1558508648",
    "hcaiId": "406374428",
    "businessName": "PROVIDENT HOME HEALTHCARE, INC.",
    "contactEmail": "JLISANDIEGO@GMAIL.COM",
    "categoryName": "HOME HEALTH AGENCY",
    "categoryCode": "HHA",
    "licenseStatus": "ACTIVE",
    "inService": true,
    "licenseNumber": "550001111",
    "licenseEffectiveDate": "11/09/2025",
    "licenseExpirationDate": "11/08/2026",
    "dataDate": "10/18/2025",
    "capacity": 0,
    "address": "7950 SILVERTON AVE, SUITE 114",
    "city": "SAN DIEGO",
    "zip": "92126",
    "county": "SAN DIEGO",
    "phone": "(858) 530-0442",
    "lat": 32.891418,
    "lng": -117.150066
  },
  {
    "id": "630021219",
    "name": "RAY OF LIGHT HOSPICE, INC",
    "npi": null,
    "hcaiId": "406374976",
    "businessName": "RAY OF LIGHT HOSPICE, INC",
    "contactEmail": "RAYOFLIGHTHOSPICE@GMAIL.COM",
    "categoryName": "HOSPICE",
    "categoryCode": "HOSPICE",
    "licenseStatus": "ACTIVE",
    "inService": true,
    "licenseNumber": "550007059",
    "licenseEffectiveDate": "09/13/2025",
    "licenseExpirationDate": "09/12/2027",
    "dataDate": "10/18/2025",
    "capacity": 0,
    "address": "8400 MIRAMAR RD, SUITE 211A",
    "city": "SAN DIEGO",
    "zip": "92126",
    "county": "SAN DIEGO",
    "phone": "(602) 654-3573",
    "lat": 32.892093,
    "lng": -117.1400175
  },
  {
    "id": "630021226",
    "name": "SAN DIEGO HOSPICE CARE, INC",
    "npi": null,
    "hcaiId": "406374977",
    "businessName": "SAN DIEGO HOSPICE CARE, INC",
    "contactEmail": "SANDIEGOHOSPICEINC@GMAIL.COM",
    "categoryName": "HOSPICE",
    "categoryCode": "HOSPICE",
    "licenseStatus": "ACTIVE",
    "inService": true,
    "licenseNumber": "550007060",
    "licenseEffectiveDate": "08/20/2025",
    "licenseExpirationDate": "08/19/2027",
    "dataDate": "10/18/2025",
    "capacity": 0,
    "address": "8400 MIRAMAR RD, SUITE 241C",
    "city": "SAN DIEGO",
    "zip": "92126",
    "county": "SAN DIEGO",
    "phone": "(602) 654-3573",
    "lat": 32.892093,
    "lng": -117.1400175
  },
  {
    "id": "630013999",
    "name": "SHIELD HOME HEALTH",
    "npi": "1083978100",
    "hcaiId": "406374486",
    "businessName": "ABSOLUTE CARE HEALTH SYSTEMS INC.",
    "contactEmail": "INFO@SHIELD-HH.COM",
    "categoryName": "HOME HEALTH AGENCY",
    "categoryCode": "HHA",
    "licenseStatus": "ACTIVE",
    "inService": true,
    "licenseNumber": "550002262",
    "licenseEffectiveDate": "04/29/2025",
    "licenseExpirationDate": "04/28/2026",
    "dataDate": "10/18/2025",
    "capacity": 0,
    "address": "7940 SILVERTON AVE, SUITE 202",
    "city": "SAN DIEGO",
    "zip": "92126",
    "county": "SAN DIEGO",
    "phone": "(858) 693-4350",
    "lat": 32.89091908,
    "lng": -117.1502648
  },
  {
    "id": "630018657",
    "name": "SHIELD HOSPICE",
    "npi": null,
    "hcaiId": "406372150",
    "businessName": "ABSOLUTE CARE HEALTH SYSTEMS HOSPICE, INC.",
    "contactEmail": "HOSPICE@SHIELD-HH.COM",
    "categoryName": "HOSPICE",
    "categoryCode": "HOSPICE",
    "licenseStatus": "ACTIVE",
    "inService": true,
    "licenseNumber": "550005166",
    "licenseEffectiveDate": "10/12/2025",
    "licenseExpirationDate": "10/11/2027",
    "dataDate": "10/18/2025",
    "capacity": 0,
    "address": "7940 SILVERTON AVE, SUITE 203",
    "city": "SAN DIEGO",
    "zip": "92126",
    "county": "SAN DIEGO",
    "phone": "(858) 433-7128",
    "lat": 32.89091908,
    "lng": -117.1502648
  },
  {
    "id": "080001357",
    "name": "TOP CARE HOME HEALTH",
    "npi": "1427044544",
    "hcaiId": "406374219",
    "businessName": "PROCARE HOME HEALTH SERVICES, INC.",
    "contactEmail": "GABBYPERPETUA@YAHOO.COM",
    "categoryName": "HOME HEALTH AGENCY",
    "categoryCode": "HHA",
    "licenseStatus": "ACTIVE",
    "inService": true,
    "licenseNumber": "080000558",
    "licenseEffectiveDate": "04/30/2025",
    "licenseExpirationDate": "04/29/2026",
    "dataDate": "10/18/2025",
    "capacity": 0,
    "address": "9683 TIERRA GRANDE ST, SUITE 201",
    "city": "SAN DIEGO",
    "zip": "92126",
    "county": "SAN DIEGO",
    "phone": "(858) 695-2101",
    "lat": 32.894784,
    "lng": -117.1206945
  },
  {
    "id": "630014290",
    "name": "TRUE CHOICE MEDICAL CLINICS",
    "npi": null,
    "hcaiId": "306374540",
    "businessName": "TURNING POINT PREGNANCY RESOURCE CENTER, INC.",
    "contactEmail": "CAMILLE@TRUECHOICE.ORG",
    "categoryName": "PRIMARY CARE CLINIC",
    "categoryCode": "COMTYC",
    "licenseStatus": "ACTIVE",
    "inService": true,
    "licenseNumber": "550002448",
    "licenseEffectiveDate": "09/09/2025",
    "licenseExpirationDate": "09/08/2026",
    "dataDate": "10/18/2025",
    "capacity": 0,
    "address": "7340 MIRAMAR ROAD, SUITE 205",
    "city": "SAN DIEGO",
    "zip": "92126",
    "county": "SAN DIEGO",
    "phone": "(858) 397-1970",
    "lat": 32.883831,
    "lng": -117.155439
  },
  {
    "id": "630015135",
    "name": "TRUE CHOICE MEDICAL CLINICS",
    "npi": null,
    "hcaiId": "306374551",
    "businessName": "TURNING POINT PREGNANCY RESOURCE CENTER, INC.",
    "contactEmail": "INFO@TRUECHOICE.ORG",
    "categoryName": "PRIMARY CARE CLINIC",
    "categoryCode": "FREEC",
    "licenseStatus": "ACTIVE",
    "inService": true,
    "licenseNumber": "550002940",
    "licenseEffectiveDate": "01/14/2025",
    "licenseExpirationDate": "01/13/2026",
    "dataDate": "10/18/2025",
    "capacity": 0,
    "address": "7340 MIRAMAR RD, SUITE 205",
    "city": "SAN DIEGO",
    "zip": "92126",
    "county": "SAN DIEGO",
    "phone": "(858) 397-1970",
    "lat": 32.88382399,
    "lng": -117.15547
  }
]