[
  {
    "id": "080000881",
    "name": "A.B. JESSIE POLINSKY CHILDREN'S CENTER",
    "npi": null,
    "hcaiId": null,
    "businessName": null,
    "contactEmail": "ED.CADENA@SDCOUNTY.CA.GOV",
    "categoryName": "OTHER",
    "categoryCode": "UNLICEN",
    "licenseStatus": null,
    "inService": null,
    "licenseNumber": null,
    "licenseEffectiveDate": null,
    "licenseExpirationDate": null,
    "dataDate": "10/18/2025",
    "capacity": 0,
    "address": "9400 RUFFIN COURT",
    "city": "SAN DIEGO",
    "zip": "92123",
    "county": "SAN DIEGO",
    "phone": "(858) 514-4600",
    "lat": 32.830515,
    "lng": -117.1230345
  },
  {
    "id": "630013079",
    "name": "ABSOLUTE HOME HEALTH, INC",
    "npi": "1518265644",
    "hcaiId": "406374462",
    "businessName": "ABSOLUTE HOME HEALTH, INC.",
    "contactEmail": "ADMIN@ABSOLUTEHOMEHEALTH.ORG",
    "categoryName": "HOME HEALTH AGENCY",
    "categoryCode": "HHA",
    "licenseStatus": "ACTIVE",
    "inService": true,
    "licenseNumber": "550001828",
    "licenseEffectiveDate": "12/14/2024",
    "licenseExpirationDate": "12/13/2025",
    "dataDate": "10/18/2025",
    "capacity": 0,
    "address": "3656 RUFFIN RD, SUITE A",
    "city": "SAN DIEGO",
    "zip": "92123",
    "county": "SAN DIEGO",
    "phone": "(858) 541-2000",
    "lat": 32.810229,
    "lng": -117.119798
  },
  {
    "id": "630019439",
    "name": "ABSOLUTE HOSPICE INC",
    "npi": null,
    "hcaiId": "406370026",
    "businessName": "ABSOLUTE HOSPICE INC",
    "contactEmail": "ASAPAAB@GMAIL.COM",
    "categoryName": "HOSPICE",
    "categoryCode": "HOSPICE",
    "licenseStatus": "ACTIVE",
    "inService": true,
    "licenseNumber": "550006349",
    "licenseEffectiveDate": "05/13/2025",
    "licenseExpirationDate": "05/12/2027",
    "dataDate": "10/18/2025",
    "capacity": 0,
    "address": "3656 RUFFIN RD, SUITE B",
    "city": "SAN DIEGO",
    "zip": "92123",
    "county": "SAN DIEGO",
    "phone": "(858) 373-9400",
    "lat": 32.810229,
    "lng": -117.119798
  },
  {
    "id": "080000130",
    "name": "ACCENTCARE HOME HEALTH OF CALIFORNIA, INC",
    "npi": "1376583617",
    "hcaiId": "406371665",
    "businessName": "ACCENTCARE HOME HEALTH OF CALIFORNIA, INC.",
    "contactEmail": "LICENSUREANDCERTIFICATION@ACCENTCARE.COM",
    "categoryName": "HOME HEALTH AGENCY",
    "categoryCode": "HHA",
    "licenseStatus": "ACTIVE",
    "inService": true,
    "licenseNumber": "080000226",
    "licenseEffectiveDate": "03/23/2025",
    "licenseExpirationDate": "03/22/2026",
    "dataDate": "10/18/2025",
    "capacity": 0,
    "address": "5050 MURPHY CANYON RD, SUITE 200",
    "city": "SAN DIEGO",
    "zip": "92123",
    "county": "SAN DIEGO",
    "phone": null,
    "lat": 32.830452,
    "lng": -117.120555
  },
  {
    "id": "080001049",
    "name": "ACCENTCARE HOME HEALTH OF CALIFORNIA, INC.",
    "npi": null,
    "hcaiId": "406374369",
    "businessName": "ACCENTCARE HOME HEALTH OF CALIFORNIA, INC.",
    "contactEmail": "LICENSUREANDCERIFICATION@ACCENTCARE.COM",
    "categoryName": "HOME HEALTH AGENCY",
    "categoryCode": "HHA",
    "licenseStatus": "ACTIVE",
    "inService": true,
    "licenseNumber": "080000433",
    "licenseEffectiveDate": "03/29/2025",
    "licenseExpirationDate": "03/28/2026",
    "dataDate": "10/18/2025",
    "capacity": 0,
    "address": "5050 MURPHY CANYON RD, SUITE 201",
    "city": "SAN DIEGO",
    "zip": "92123",
    "county": "SAN DIEGO",
    "phone": null,
    "lat": 32.830443,
    "lng": -117.1205505
  },
  {
    "id": "630025800",
    "name": "ALPINA HOME HEALTH CARE INC",
    "npi": null,
    "hcaiId": null,
    "businessName": "ALPINA HOME HEALTH CARE INC",
    "contactEmail": "ALPINAHOMEHEALTHCARE@GMAIL.COM",
    "categoryName": "HOME HEALTH AGENCY",
    "categoryCode": "HHA",
    "licenseStatus": "ACTIVE",
    "inService": true,
    "licenseNumber": "550009828",
    "licenseEffectiveDate": "03/11/2025",
    "licenseExpirationDate": "09/10/2025",
    "dataDate": "10/18/2025",
    "capacity": 0,
    "address": "3645 RUFFIN RD, SUITE 220",
    "city": "SAN DIEGO",
    "zip": "92123",
    "county": "SAN DIEGO",
    "phone": "(888) 470-9988",
    "lat": 32.810085,
    "lng": -117.119025
  },
  {
    "id": "630020208",
    "name": "ANCHOR HOSPICE & PALLIATIVE CARE",
    "npi": "1942822572",
    "hcaiId": "406194708",
    "businessName": "TOTAL CARE HOSPICE & PALLIATIVE",
    "contactEmail": "CRISTIKEITH@ANCHORHPC.COM",
    "categoryName": "HOSPICE",
    "categoryCode": "HOSPICE",
    "licenseStatus": "ACTIVE",
    "inService": true,
    "licenseNumber": "550006031",
    "licenseEffectiveDate": "01/18/2025",
    "licenseExpirationDate": "01/17/2027",
    "dataDate": "10/18/2025",
    "capacity": 0,
    "address": "5675 RUFFIN RD, SUITE 200",
    "city": "SAN DIEGO",
    "zip": "92123",
    "county": "SAN DIEGO",
    "phone": "(619) 314-4552",
    "lat": 32.83748099,
    "lng": -117.126233
  },
  {
    "id": "630015428",
    "name": "ANGELICUM HOME HEALTH, INC.",
    "npi": "1114336567",
    "hcaiId": "406374546",
    "businessName": "ANGELICUM HOME HEALTH, INC.",
    "contactEmail": "HHERNANDEZ@ANGELICUMHHI.COM",
    "categoryName": "HOME HEALTH AGENCY",
    "categoryCode": "HHA",
    "licenseStatus": "ACTIVE",
    "inService": true,
    "licenseNumber": "550003335",
    "licenseEffectiveDate": "01/05/2025",
    "licenseExpirationDate": "01/04/2026",
    "dataDate": "10/18/2025",
    "capacity": 0,
    "address": "9434 CHESAPEAKE DRIVE, SUITE 1210",
    "city": "SAN DIEGO",
    "zip": "92123",
    "county": "SAN DIEGO",
    "phone": "(858) 525-5295",
    "lat": 32.83794,
    "lng": -117.1242405
  },
  {
    "id": "630018062",
    "name": "ASSISTIVE HEALTH SYSTEMS INC.",
    "npi": "1306334057",
    "hcaiId": "406371868",
    "businessName": "ASSISTIVE HEALTH SYSTEMS INC.",
    "contactEmail": "SAHERCHOUDRY@GMAIL.COM",
    "categoryName": "HOME HEALTH AGENCY",
    "categoryCode": "HHA",
    "licenseStatus": "ACTIVE",
    "inService": true,
    "licenseNumber": "550004572",
    "licenseEffectiveDate": "02/27/2025",
    "licenseExpirationDate": "02/26/2026",
    "dataDate": "10/18/2025",
    "capacity": 0,
    "address": "4540 KEARNY VILLA RD, SUITE 206",
    "city": "SAN DIEGO",
    "zip": "92123",
    "county": "SAN DIEGO",
    "phone": "(951) 522-1425",
    "lat": 32.822622,
    "lng": -117.145116
  },
  {
    "id": "630019141",
    "name": "ASSISTIVE HOSPICE AND PALLIATIVE CARE",
    "npi": null,
    "hcaiId": "406372924",
    "businessName": "ASSISTIVE HEALTH SYSTEMS INC.",
    "contactEmail": "SAHERCHOUDRY@GMAIL.COM",
    "categoryName": "HOSPICE",
    "categoryCode": "HOSPICE",
    "licenseStatus": "ACTIVE",
    "inService": true,
    "licenseNumber": "550005762",
    "licenseEffectiveDate": "09/18/2024",
    "licenseExpirationDate": "09/17/2026",
    "dataDate": "10/18/2025",
    "capacity": 0,
    "address": "4540 KEARNY VILLA RD, SUITE 213",
    "city": "SAN DIEGO",
    "zip": "92123",
    "county": "SAN DIEGO",
    "phone": "(858) 900-6693",
    "lat": 32.822622,
    "lng": -117.145116
  },
  {
    "id": "630006341",
    "name": "AVALON HOSPICE & PALLIATIVE CARE",
    "npi": null,
    "hcaiId": "406374364",
    "businessName": null,
    "contactEmail": "THARRIS@AVALONHOSPICE.COM",
    "categoryName": "HOSPICE",
    "categoryCode": "HOSPICE",
    "licenseStatus": "ACTIVE",
    "inService": true,
    "licenseNumber": "550000104",
    "licenseEffectiveDate": "12/02/2023",
    "licenseExpirationDate": "12/01/2025",
    "dataDate": "10/18/2025",
    "capacity": 0,
    "address": "3914 MURPHY CANYON RD, SUITE A226",
    "city": "SAN DIEGO",
    "zip": "92123",
    "county": "SAN DIEGO",
    "phone": "(858) 751-0315",
    "lat": 32.81562,
    "lng": -117.1174545
  },
  {
    "id": "630021629",
    "name": "BLESSED HOSPICE CALIFORNIA, INC.",
    "npi": null,
    "hcaiId": "406373843",
    "businessName": "BLESSED HOSPICE CALIFORNIA, INC.",
    "contactEmail": "BLESSEDHOSPICECA@GMAIL.COM",
    "categoryName": "HOSPICE",
    "categoryCode": "HOSPICE",
    "licenseStatus": "ACTIVE",
    "inService": true,
    "licenseNumber": "550007374",
    "licenseEffectiveDate": "12/02/2023",
    "licenseExpirationDate": "12/01/2025",
    "dataDate": "10/18/2025",
    "capacity": 0,
    "address": "4540 KEARNY VILLA RD, SUITE 105",
    "city": "SAN DIEGO",
    "zip": "92123",
    "county": "SAN DIEGO",
    "phone": "(858) 430-6656",
    "lat": 32.822622,
    "lng": -117.145116
  },
  {
    "id": "630017601",
    "name": "BRIGHTSTAR CARE OF N. CENTRAL SAN DIEGO/LA JOLLA",
    "npi": null,
    "hcaiId": "406371565",
    "businessName": "MUTH ENTERPRISE INC.",
    "contactEmail": "GENESIS.BOJORQUEZ@BRIGHTSTARCARE.COM",
    "categoryName": "HOME HEALTH AGENCY",
    "categoryCode": "HHA",
    "licenseStatus": "ACTIVE",
    "inService": true,
    "licenseNumber": "550004593",
    "licenseEffectiveDate": "01/09/2024",
    "licenseExpirationDate": "01/08/2025",
    "dataDate": "10/18/2025",
    "capacity": 0,
    "address": "8555 AERO DR, SUITE 203",
    "city": "SAN DIEGO",
    "zip": "92123",
    "county": "SAN DIEGO",
    "phone": "(619) 535-2400",
    "lat": 32.809014,
    "lng": -117.143451
  },
  {
    "id": "630015160",
    "name": "BRISTOL HOSPICE - SAN DIEGO",
    "npi": "1659781045",
    "hcaiId": "406374533",
    "businessName": "SOJOURN HOSPICE & PALLIATIVE CARE - SAN DIEGO, LLC",
    "contactEmail": "CHRISTOPHER.EVANS@BRISTOLHOSPICE.COM",
    "categoryName": "HOSPICE",
    "categoryCode": "HOSPICE",
    "licenseStatus": "ACTIVE",
    "inService": true,
    "licenseNumber": "550003077",
    "licenseEffectiveDate": "05/06/2025",
    "licenseExpirationDate": "05/05/2027",
    "dataDate": "10/18/2025",
    "capacity": 0,
    "address": "8765 AERO DR, SUITE 226",
    "city": "SAN DIEGO",
    "zip": "92123",
    "county": "SAN DIEGO",
    "phone": "(858) 217-2468",
    "lat": 32.808996,
    "lng": -117.1393875
  },
  {
    "id": "630013159",
    "name": "CABRILLO SURGERY CENTER",
    "npi": "1154554160",
    "hcaiId": null,
    "businessName": null,
    "contactEmail": null,
    "categoryName": "SURGICAL CLINIC",
    "categoryCode": "ASC",
    "licenseStatus": null,
    "inService": null,
    "licenseNumber": null,
    "licenseEffectiveDate": null,
    "licenseExpirationDate": null,
    "dataDate": "10/18/2025",
    "capacity": 0,
    "address": "7695 CARDINAL CT, SUITE 220",
    "city": "SAN DIEGO",
    "zip": "92123",
    "county": "SAN DIEGO",
    "phone": "(858) 278-8835",
    "lat": 32.791419,
    "lng": -117.1582425
  },
  {
    "id": "080001013",
    "name": "CHILDREN'S HOMECARE",
    "npi": "1992881478",
    "hcaiId": "406374099",
    "businessName": "RADY CHILDREN'S HOSPITAL SAN DIEGO",
    "contactEmail": "SLAWRENCE@RCHSD.ORG",
    "categoryName": "HOME HEALTH AGENCY",
    "categoryCode": "HHA",
    "licenseStatus": "ACTIVE",
    "inService": true,
    "licenseNumber": "080000415",
    "licenseEffectiveDate": "03/26/2025",
    "licenseExpirationDate": "03/25/2026",
    "dataDate": "10/18/2025",
    "capacity": 0,
    "address": "8291 AERO PL, SUITE 130",
    "city": "SAN DIEGO",
    "zip": "92123",
    "county": "SAN DIEGO",
    "phone": "(858) 966-4941",
    "lat": 32.807475,
    "lng": -117.146034
  },
  {
    "id": "630021426",
    "name": "CITY BEST HOSPICE CARE",
    "npi": null,
    "hcaiId": "406373445",
    "businessName": "CITY BEST HOSPICE CARE",
    "contactEmail": "CITYBESTHOSPICE@GMAIL.COM",
    "categoryName": "HOSPICE",
    "categoryCode": "HOSPICE",
    "licenseStatus": "ACTIVE",
    "inService": true,
    "licenseNumber": "550006746",
    "licenseEffectiveDate": "09/02/2023",
    "licenseExpirationDate": "09/01/2025",
    "dataDate": "10/18/2025",
    "capacity": 0,
    "address": "3914 MURPHY CANYON RD, SUITE A 130",
    "city": "SAN DIEGO",
    "zip": "92123",
    "county": "SAN DIEGO",
    "phone": "(619) 780-3919",
    "lat": 32.815629,
    "lng": -117.116589
  },
  {
    "id": "080001475",
    "name": "COAST SURGERY CENTER FOR ORTHOPEDIC AND ARTHROSCOPIC SURGERY, LLC",
    "npi": "1275532889",
    "hcaiId": "306374243",
    "businessName": "COAST CENTER FOR ORTHOPEDIC AND ARTHROSCOPIC SURGERY, LLC",
    "contactEmail": "ARAMIREZ@COASTSURGERY.COM",
    "categoryName": "SURGICAL CLINIC",
    "categoryCode": "ASC",
    "licenseStatus": "INACTIVE - CAPEN DECISION",
    "inService": false,
    "licenseNumber": "080000619",
    "licenseEffectiveDate": "02/15/2008",
    "licenseExpirationDate": "02/14/2009",
    "dataDate": "10/18/2025",
    "capacity": 0,
    "address": "3444 KEARNY VILLA RD, SUITE 100",
    "city": "SAN DIEGO",
    "zip": "92123",
    "county": "SAN DIEGO",
    "phone": "(858) 268-3566",
    "lat": 32.805513,
    "lng": -117.15021
  },
  {
    "id": "630017017",
    "name": "COMFORT AND PEACE HOSPICE",
    "npi": "1235596826",
    "hcaiId": "406371794",
    "businessName": "ABSOLUTE HOSPICE CARE INC",
    "contactEmail": "CHIB@COMFORTANDPEACEHOSPICE.COM",
    "categoryName": "HOSPICE",
    "categoryCode": "HOSPICE",
    "licenseStatus": "ACTIVE",
    "inService": true,
    "licenseNumber": "550004122",
    "licenseEffectiveDate": "07/06/2025",
    "licenseExpirationDate": "07/05/2027",
    "dataDate": "10/18/2025",
    "capacity": 0,
    "address": "3944 MURPHY CANYON RD, SUITE C100",
    "city": "SAN DIEGO",
    "zip": "92123",
    "county": "SAN DIEGO",
    "phone": "(858) 304-2555",
    "lat": 32.81652936,
    "lng": -117.1169478
  },
  {
    "id": "630015631",
    "name": "COMFORT AND THRIVE HOME HEALTH",
    "npi": "1588053177",
    "hcaiId": "406374537",
    "businessName": "COMFORT AND THRIVE HOME HEALTH CORPORATION",
    "contactEmail": "CHIB@COMFORTANDTHRIVEHH.COM",
    "categoryName": "HOME HEALTH AGENCY",
    "categoryCode": "HHA",
    "licenseStatus": "ACTIVE",
    "inService": true,
    "licenseNumber": "550003192",
    "licenseEffectiveDate": "07/16/2025",
    "licenseExpirationDate": "07/15/2026",
    "dataDate": "10/18/2025",
    "capacity": 0,
    "address": "3934 MURPHY CANYON RD, SUITE B200",
    "city": "SAN DIEGO",
    "zip": "92123",
    "county": "SAN DIEGO",
    "phone": "(858) 430-9609",
    "lat": 32.81628601,
    "lng": -117.117917
  },
  {
    "id": "630027398",
    "name": "EMINENT HOME CARE, INC",
    "npi": null,
    "hcaiId": null,
    "businessName": "EMINENT HOME CARE, INC.",
    "contactEmail": "EMINENTHOMECARE@YAHOO.COM",
    "categoryName": "HOME HEALTH AGENCY",
    "categoryCode": "HHA",
    "licenseStatus": "ACTIVE",
    "inService": true,
    "licenseNumber": "550009601",
    "licenseEffectiveDate": "06/13/2025",
    "licenseExpirationDate": "12/12/2025",
    "dataDate": "10/18/2025",
    "capacity": 0,
    "address": "3675 RUFFIN RD, SUITE 335",
    "city": "SAN DIEGO",
    "zip": "92123",
    "county": "SAN DIEGO",
    "phone": "(858) 256-9009",
    "lat": 32.81074,
    "lng": -117.118553
  },
  {
    "id": "630024006",
    "name": "FRESENIUS KIDNEY CARE HOME TRAINING CENTER OF SAN DIEGO",
    "npi": null,
    "hcaiId": "306370665",
    "businessName": "FRESENIUS MEDICAL CARE BALBOA, LLC",
    "contactEmail": "DAVID.WARNECKE@FRESENIUSMEDICALCARE.COM",
    "categoryName": "CHRONIC DIALYSIS CLINIC",
    "categoryCode": "ESRD/CDC",
    "licenseStatus": "ACTIVE",
    "inService": true,
    "licenseNumber": "550007854",
    "licenseEffectiveDate": "02/15/2025",
    "licenseExpirationDate": "02/14/2026",
    "dataDate": "10/18/2025",
    "capacity": 22,
    "address": "3939 RUFFIN RD, SUITE 100",
    "city": "SAN DIEGO",
    "zip": "92123",
    "county": "SAN DIEGO",
    "phone": "(858) 868-2675",
    "lat": 32.8142055,
    "lng": -117.1228731
  },
  {
    "id": "630017611",
    "name": "HEALTH SHIELD HOME HEALTH SERVICES",
    "npi": null,
    "hcaiId": "406372026",
    "businessName": "HEALTH SHIELD HOME HEALTH SERVICES",
    "contactEmail": "HEALTH_SHIELD@YAHOO.COM",
    "categoryName": "HOME HEALTH AGENCY",
    "categoryCode": "HHA",
    "licenseStatus": "ACTIVE",
    "inService": true,
    "licenseNumber": "550005070",
    "licenseEffectiveDate": "11/04/2025",
    "licenseExpirationDate": "11/03/2026",
    "dataDate": "10/18/2025",
    "capacity": 0,
    "address": "3914 MURPHY CANYON RD, SUITE A163",
    "city": "SAN DIEGO",
    "zip": "92123",
    "county": "SAN DIEGO",
    "phone": "(858) 987-0533",
    "lat": 32.81562,
    "lng": -117.1174545
  },
  {
    "id": "630016679",
    "name": "HEALTHPEAK HOME HEALTH - BRANCH",
    "npi": "1609296318",
    "hcaiId": "406371527",
    "businessName": "HEALTHPEAK HOME HEALTH INC",
    "contactEmail": null,
    "categoryName": "HOME HEALTH AGENCY",
    "categoryCode": "HHA",
    "licenseStatus": "ACTIVE",
    "inService": true,
    "licenseNumber": "550001940",
    "licenseEffectiveDate": "05/08/2025",
    "licenseExpirationDate": "05/07/2026",
    "dataDate": "10/18/2025",
    "capacity": 0,
    "address": "5205 KEARNY VILLA WAY, SUITE 104",
    "city": "SAN DIEGO",
    "zip": "92123",
    "county": "SAN DIEGO",
    "phone": null,
    "lat": 32.829336,
    "lng": -117.139824
  },
  {
    "id": "630028109",
    "name": "HEART OF SAN DIEGO SURGICAL CENTER, LLC",
    "npi": null,
    "hcaiId": null,
    "businessName": null,
    "contactEmail": "NICOLE.TAYLOR@HOSDSC.COM",
    "categoryName": "SURGICAL CLINIC",
    "categoryCode": "ASC",
    "licenseStatus": null,
    "inService": null,
    "licenseNumber": null,
    "licenseEffectiveDate": null,
    "licenseExpirationDate": null,
    "dataDate": "10/18/2025",
    "capacity": 0,
    "address": "8705 COMPLEX DR",
    "city": "SAN DIEGO",
    "zip": "92123",
    "county": "SAN DIEGO",
    "phone": "(858) 256-7658",
    "lat": 32.82979952,
    "lng": -117.139673
  },
  {
    "id": "080000035",
    "name": "HELEN BERNARDY CENTER D/P SNF",
    "npi": "1114091055",
    "hcaiId": "206370777",
    "businessName": "RADY CHILDREN'S HOSPITAL SAN DIEGO",
    "contactEmail": null,
    "categoryName": "SKILLED NURSING FACILITY",
    "categoryCode": "SNF",
    "licenseStatus": "ACTIVE",
    "inService": true,
    "licenseNumber": "080000028",
    "licenseEffectiveDate": "05/28/2025",
    "licenseExpirationDate": "04/30/2026",
    "dataDate": "10/18/2025",
    "capacity": 53,
    "address": "8060 FROST ST",
    "city": "SAN DIEGO",
    "zip": "92123",
    "county": "SAN DIEGO",
    "phone": "(858) 966-5833",
    "lat": 32.80084399,
    "lng": -117.151825
  },
  {
    "id": "090000707",
    "name": "HELMER GROUP HOME",
    "npi": "1043492879",
    "hcaiId": null,
    "businessName": "THE ARC OF SAN DIEGO",
    "contactEmail": null,
    "categoryName": "INTERMEDIATE CARE FACILITY-DD/H/N/CN/IID",
    "categoryCode": "ICFDDH",
    "licenseStatus": "ACTIVE",
    "inService": true,
    "licenseNumber": "090000320",
    "licenseEffectiveDate": "11/12/2024",
    "licenseExpirationDate": "11/11/2025",
    "dataDate": "10/18/2025",
    "capacity": 6,
    "address": "2244 MEADOW LARK DR",
    "city": "SAN DIEGO",
    "zip": "92123",
    "county": "SAN DIEGO",
    "phone": "(585) 410-5513",
    "lat": 32.783571,
    "lng": -117.1546155
  },
  {
    "id": "080000541",
    "name": "INTERIM HEALTHCARE SAN DIEGO HOME HEALTH",
    "npi": "1891737078",
    "hcaiId": "406374033",
    "businessName": "INTERIM HEALTHCARE SAN DIEGO, LLC",
    "contactEmail": "CFERNANDEZ@INTERIMHEALTHCARE.COM",
    "categoryName": "HOME HEALTH AGENCY",
    "categoryCode": "HHA",
    "licenseStatus": "ACTIVE",
    "inService": true,
    "licenseNumber": "080000335",
    "licenseEffectiveDate": "05/29/2023",
    "licenseExpirationDate": "05/28/2024",
    "dataDate": "10/18/2025",
    "capacity": 0,
    "address": "5625 RUFFIN RD, SUITE 225",
    "city": "SAN DIEGO",
    "zip": "92123",
    "county": "SAN DIEGO",
    "phone": "(858) 737-7174",
    "lat": 32.836761,
    "lng": -117.1260855
  },
  {
    "id": "630013011",
    "name": "INTERIM HEALTHCARE SAN DIEGO HOSPICE",
    "npi": null,
    "hcaiId": "406374452",
    "businessName": "INTERIM HEALTHCARE SAN DIEGO, LLC",
    "contactEmail": "AVAUGHN@INTERIMHEALTHCARE.COM",
    "categoryName": "HOSPICE",
    "categoryCode": "HOSPICE",
    "licenseStatus": "ACTIVE",
    "inService": true,
    "licenseNumber": "550001559",
    "licenseEffectiveDate": "04/20/2023",
    "licenseExpirationDate": "04/19/2025",
    "dataDate": "10/18/2025",
    "capacity": 0,
    "address": "5625 RUFFIN RD, SUITE 110",
    "city": "SAN DIEGO",
    "zip": "92123",
    "county": "SAN DIEGO",
    "phone": "(858) 737-7482",
    "lat": 32.836761,
    "lng": -117.1260855
  },
  {
    "id": "080001100",
    "name": "JUVENILE HALL CLINIC-EXEMPT CLINIC",
    "npi": null,
    "hcaiId": null,
    "businessName": null,
    "contactEmail": "VERONICA@CFMG.COM",
    "categoryName": "OTHER",
    "categoryCode": "UNLICEN",
    "licenseStatus": null,
    "inService": null,
    "licenseNumber": null,
    "licenseEffectiveDate": null,
    "licenseExpirationDate": null,
    "dataDate": "10/18/2025",
    "capacity": 0,
    "address": "2801 MEADOW LARK DR",
    "city": "SAN DIEGO",
    "zip": "92123",
    "county": "SAN DIEGO",
    "phone": "(858) 694-4690",
    "lat": 32.79497226,
    "lng": -117.1543888
  },
  {
    "id": "630017096",
    "name": "KAISER FOUNDATION HOSPITAL - SAN DIEGO",
    "npi": null,
    "hcaiId": "106374465",
    "businessName": "KAISER FOUNDATION HOSPITALS",
    "contactEmail": null,
    "categoryName": "GENERAL ACUTE CARE HOSPITAL",
    "categoryCode": "GACH",
    "licenseStatus": "ACTIVE",
    "inService": true,
    "licenseNumber": "080000062",
    "licenseEffectiveDate": "11/17/2025",
    "licenseExpirationDate": "11/16/2026",
    "dataDate": "10/18/2025",
    "capacity": 253,
    "address": "9455 CLAIREMONT MESA BLVD",
    "city": "SAN DIEGO",
    "zip": "92123",
    "county": "SAN DIEGO",
    "phone": "(858) 266-5000",
    "lat": 32.830731,
    "lng": -117.125856
  },
  {
    "id": "080001697",
    "name": "LORIAN HEALTH",
    "npi": "1447318092",
    "hcaiId": "406374358",
    "businessName": "LORIAN HOME SYSTEMS, INC.",
    "contactEmail": "JAHUMADA@LORIANHEALTH.COM",
    "categoryName": "HOME HEALTH AGENCY",
    "categoryCode": "HHA",
    "licenseStatus": "ACTIVE",
    "inService": true,
    "licenseNumber": "080000749",
    "licenseEffectiveDate": "02/14/2025",
    "licenseExpirationDate": "02/13/2026",
    "dataDate": "10/18/2025",
    "capacity": 0,
    "address": "9655 GRANITE RIDGE DRIVE, SUITE 500",
    "city": "SAN DIEGO",
    "zip": "92123",
    "county": "SAN DIEGO",
    "phone": "(619) 280-8184",
    "lat": 32.8057624,
    "lng": -117.1199085
  },
  {
    "id": "630018794",
    "name": "LORIAN HEALTH HOSPICE, INC.",
    "npi": null,
    "hcaiId": "406373707",
    "businessName": "LORIAN HEALTH HOSPICE, INC.",
    "contactEmail": "NMARSDEN@HOOPERLUNDY.COM",
    "categoryName": "HOSPICE",
    "categoryCode": "HOSPICE",
    "licenseStatus": "ACTIVE",
    "inService": true,
    "licenseNumber": "550006564",
    "licenseEffectiveDate": "09/15/2025",
    "licenseExpirationDate": "07/05/2027",
    "dataDate": "10/18/2025",
    "capacity": 0,
    "address": "9655 GRANITE RIDGE DRIVE, SUITE 520",
    "city": "SAN DIEGO",
    "zip": "92123",
    "county": "SAN DIEGO",
    "phone": "(310) 551-8153",
    "lat": 32.8057624,
    "lng": -117.1199085
  },
  {
    "id": "630020205",
    "name": "MERCY HEALTHCARE SERVICES LLC",
    "npi": null,
    "hcaiId": null,
    "businessName": "MERCY HEALTHCARE SERVICES LLC",
    "contactEmail": "SUPPORT@MERCYHEALTHCARESERVICE.ORG",
    "categoryName": "HOME HEALTH AGENCY",
    "categoryCode": "HHA",
    "licenseStatus": "ACTIVE",
    "inService": true,
    "licenseNumber": "550006654",
    "licenseEffectiveDate": "08/10/2025",
    "licenseExpirationDate": "08/09/2026",
    "dataDate": "10/18/2025",
    "capacity": 0,
    "address": "9655 GRANITE RIDGE DR, SUITE 200",
    "city": "SAN DIEGO",
    "zip": "92123",
    "county": "SAN DIEGO",
    "phone": "(800) 627-1678",
    "lat": 32.805765,
    "lng": -117.1199025
  },
  {
    "id": "630015933",
    "name": "MERIDIAN HOME HEALTH",
    "npi": "1831583590",
    "hcaiId": "406374554",
    "businessName": "SD HEALTH PARTNERS, INC.",
    "contactEmail": "LUKE@MERIDIANPRIMENURSING.COM",
    "categoryName": "HOME HEALTH AGENCY",
    "categoryCode": "HHA",
    "licenseStatus": "ACTIVE",
    "inService": true,
    "licenseNumber": "550003446",
    "licenseEffectiveDate": "03/17/2025",
    "licenseExpirationDate": "03/16/2026",
    "dataDate": "10/18/2025",
    "capacity": 0,
    "address": "4545 MURPHY CANYON RD, SUITE 214",
    "city": "SAN DIEGO",
    "zip": "92123",
    "county": "SAN DIEGO",
    "phone": "(858) 999-3068",
    "lat": 32.82538,
    "lng": -117.118778
  },
  {
    "id": "080001401",
    "name": "OASIS SURGERY CENTER",
    "npi": "1548226442",
    "hcaiId": "306374233",
    "businessName": null,
    "contactEmail": null,
    "categoryName": "SURGICAL CLINIC",
    "categoryCode": "ASC",
    "licenseStatus": "INACTIVE - CAPEN DECISION",
    "inService": false,
    "licenseNumber": "080000581",
    "licenseEffectiveDate": "11/09/2007",
    "licenseExpirationDate": "11/08/2008",
    "dataDate": "10/18/2025",
    "capacity": 0,
    "address": "5471 KEARNY VILLA RD, SUITE 100",
    "city": "SAN DIEGO",
    "zip": "92123",
    "county": "SAN DIEGO",
    "phone": "(858) 560-4567",
    "lat": 32.833476,
    "lng": -117.137313
  },
  {
    "id": "630021779",
    "name": "PHYSICIAN'S CHOICE HOSPICE CARE, INC.",
    "npi": null,
    "hcaiId": "406373383",
    "businessName": "PHYSICIAN'S CHOICE HOSPICE CARE, INC.",
    "contactEmail": "PHYSICIANSCHOICEHOSPICECARE@GMAIL.COM",
    "categoryName": "HOSPICE",
    "categoryCode": "HOSPICE",
    "licenseStatus": "ACTIVE",
    "inService": true,
    "licenseNumber": "550007007",
    "licenseEffectiveDate": "10/20/2023",
    "licenseExpirationDate": "10/19/2025",
    "dataDate": "10/18/2025",
    "capacity": 0,
    "address": "3645 RUFFIN RD, SUITE 235",
    "city": "SAN DIEGO",
    "zip": "92123",
    "county": "SAN DIEGO",
    "phone": "(855) 265-1110",
    "lat": 32.810085,
    "lng": -117.119025
  },
  {
    "id": "630013773",
    "name": "RADY CHILDREN'S HOSPITAL - SAN DIEGO",
    "npi": "1710065933",
    "hcaiId": "106374047",
    "businessName": "RADY CHILDREN'S HOSPITAL SAN DIEGO",
    "contactEmail": null,
    "categoryName": "ACUTE PSYCHIATRIC HOSPITAL",
    "categoryCode": "APH",
    "licenseStatus": "ACTIVE",
    "inService": true,
    "licenseNumber": "080000028",
    "licenseEffectiveDate": "05/28/2025",
    "licenseExpirationDate": "04/30/2026",
    "dataDate": "10/18/2025",
    "capacity": 24,
    "address": "3020 CHILDRENS WAY",
    "city": "SAN DIEGO",
    "zip": "92123",
    "county": "SAN DIEGO",
    "phone": null,
    "lat": 32.798322,
    "lng": -117.1520235
  },
  {
    "id": "080001769",
    "name": "RADY CHILDREN'S HOSPITAL - SAN DIEGO ESRD",
    "npi": "1710065933",
    "hcaiId": null,
    "businessName": null,
    "contactEmail": "LMADDELINA@RCHSD.ORG",
    "categoryName": "CHRONIC DIALYSIS CLINIC",
    "categoryCode": "ESRD",
    "licenseStatus": null,
    "inService": null,
    "licenseNumber": null,
    "licenseEffectiveDate": null,
    "licenseExpirationDate": null,
    "dataDate": "10/18/2025",
    "capacity": 0,
    "address": "3020 CHILDRENS WAY",
    "city": "SAN DIEGO",
    "zip": "92123",
    "county": "SAN DIEGO",
    "phone": "(858) 576-7100",
    "lat": 32.798322,
    "lng": -117.1520235
  },
  {
    "id": "080000023",
    "name": "RADY CHILDREN'S HOSPITAL SAN DIEGO",
    "npi": "1710065933",
    "hcaiId": "106370673",
    "businessName": "RADY CHILDREN'S HOSPITAL SAN DIEGO",
    "contactEmail": "CABE@RCHSD.ORG",
    "categoryName": "GENERAL ACUTE CARE HOSPITAL",
    "categoryCode": "GACH",
    "licenseStatus": "ACTIVE",
    "inService": true,
    "licenseNumber": "080000028",
    "licenseEffectiveDate": "05/28/2025",
    "licenseExpirationDate": "04/30/2026",
    "dataDate": "10/18/2025",
    "capacity": 454,
    "address": "3020 CHILDRENS WAY",
    "city": "SAN DIEGO",
    "zip": "92123",
    "county": "SAN DIEGO",
    "phone": "(858) 966-5968",
    "lat": 32.798322,
    "lng": -117.1520235
  },
  {
    "id": "630012195",
    "name": "RADY CHILDREN'S HOSPITAL TRANSPLANT",
    "npi": null,
    "hcaiId": null,
    "businessName": null,
    "contactEmail": null,
    "categoryName": "GENERAL ACUTE CARE HOSPITAL",
    "categoryCode": "TRANS",
    "licenseStatus": null,
    "inService": null,
    "licenseNumber": null,
    "licenseEffectiveDate": null,
    "licenseExpirationDate": null,
    "dataDate": "10/18/2025",
    "capacity": 0,
    "address": "3020 CHILDREN'S WAY",
    "city": "SAN DIEGO",
    "zip": "92123",
    "county": "SAN DIEGO",
    "phone": null,
    "lat": 32.798322,
    "lng": -117.1520235
  },
  {
    "id": "630018531",
    "name": "RO HEALTH, LLC",
    "npi": null,
    "hcaiId": "406371847",
    "businessName": "RO HEALTH, LLC",
    "contactEmail": "HOMEHEALTH@ROHEALTH.COM",
    "categoryName": "HOME HEALTH AGENCY",
    "categoryCode": "HHA",
    "licenseStatus": "ACTIVE",
    "inService": true,
    "licenseNumber": "550004982",
    "licenseEffectiveDate": "10/08/2025",
    "licenseExpirationDate": "10/07/2026",
    "dataDate": "10/18/2025",
    "capacity": 0,
    "address": "3880 MURPHY CANYON RD, SUITE 110",
    "city": "SAN DIEGO",
    "zip": "92123",
    "county": "SAN DIEGO",
    "phone": "(888) 552-9775",
    "lat": 32.81450402,
    "lng": -117.117598
  },
  {
    "id": "080000782",
    "name": "SAN DIEGO HEALTHCARE CENTER",
    "npi": "1003098906",
    "hcaiId": null,
    "businessName": "BRIDGEWATER BAY HOLDINGS, LLC",
    "contactEmail": null,
    "categoryName": "REHABILITATION CLINIC",
    "categoryCode": "OPT/SP",
    "licenseStatus": "ACTIVE",
    "inService": true,
    "licenseNumber": "080000051",
    "licenseEffectiveDate": "12/06/2024",
    "licenseExpirationDate": "12/05/2025",
    "dataDate": "10/18/2025",
    "capacity": 0,
    "address": "2828 MEADOW LARK DR",
    "city": "SAN DIEGO",
    "zip": "92123",
    "county": "SAN DIEGO",
    "phone": null,
    "lat": 32.793993,
    "lng": -117.1550115
  },
  {
    "id": "090000236",
    "name": "SAN DIEGO OUTPATIENT SURGICAL CENTER",
    "npi": "1942261599",
    "hcaiId": "306370838",
    "businessName": null,
    "contactEmail": "INFO@SDSURGERYCENTER.COM",
    "categoryName": "SURGICAL CLINIC",
    "categoryCode": "ASC",
    "licenseStatus": "INACTIVE - CAPEN DECISION",
    "inService": false,
    "licenseNumber": "090000114",
    "licenseEffectiveDate": "03/28/2008",
    "licenseExpirationDate": "03/27/2009",
    "dataDate": "10/18/2025",
    "capacity": 0,
    "address": "3939 RUFFIN RD, SUITE 101",
    "city": "SAN DIEGO",
    "zip": "92123",
    "county": "SAN DIEGO",
    "phone": "(619) 299-9530",
    "lat": 32.814207,
    "lng": -117.1207305
  },
  {
    "id": "080001739",
    "name": "SHARP HOME INFUSION SERVICES",
    "npi": null,
    "hcaiId": "406374330",
    "businessName": "GROSSMONT HOSPITAL CORPORATION",
    "contactEmail": "LISA.ROLLINS@SHARP.COM",
    "categoryName": "HOME HEALTH AGENCY",
    "categoryCode": "HHA",
    "licenseStatus": "ACTIVE",
    "inService": true,
    "licenseNumber": "080000780",
    "licenseEffectiveDate": "12/10/2024",
    "licenseExpirationDate": "12/09/2025",
    "dataDate": "10/18/2025",
    "capacity": 0,
    "address": "3558 RUFFIN RD",
    "city": "SAN DIEGO",
    "zip": "92123",
    "county": "SAN DIEGO",
    "phone": "(858) 627-5600",
    "lat": 32.807979,
    "lng": -117.130023
  },
  {
    "id": "080001470",
    "name": "SHARP MARY BIRCH HOSPITAL FOR WOMEN AND NEWBORNS",
    "npi": "1407839921",
    "hcaiId": "106370695",
    "businessName": "SHARP MEMORIAL HOSPITAL",
    "contactEmail": null,
    "categoryName": "GENERAL ACUTE CARE HOSPITAL",
    "categoryCode": "GACH",
    "licenseStatus": "ACTIVE",
    "inService": true,
    "licenseNumber": "080000039",
    "licenseEffectiveDate": "05/31/2025",
    "licenseExpirationDate": "05/30/2026",
    "dataDate": "10/18/2025",
    "capacity": 206,
    "address": "3003 HEALTH CENTER DR",
    "city": "SAN DIEGO",
    "zip": "92123",
    "county": "SAN DIEGO",
    "phone": "(858) 939-3400",
    "lat": 32.798322,
    "lng": -117.155007
  },
  {
    "id": "080000036",
    "name": "SHARP MEMORIAL HOSPITAL",
    "npi": "1407839921",
    "hcaiId": "106370694",
    "businessName": "SHARP MEMORIAL HOSPITAL",
    "contactEmail": "TRISHA.KHALEGHI@SHARP.COM",
    "categoryName": "GENERAL ACUTE CARE HOSPITAL",
    "categoryCode": "GACH",
    "licenseStatus": "ACTIVE",
    "inService": true,
    "licenseNumber": "080000039",
    "licenseEffectiveDate": "05/31/2025",
    "licenseExpirationDate": "05/30/2026",
    "dataDate": "10/18/2025",
    "capacity": 656,
    "address": "7901 FROST ST",
    "city": "SAN DIEGO",
    "zip": "92123",
    "county": "SAN DIEGO",
    "phone": "(858) 939-4082",
    "lat": 32.798322,
    "lng": -117.155007
  },
  {
    "id": "080000636",
    "name": "SHARP MEMORIAL HOSPITAL",
    "npi": "1407839921",
    "hcaiId": null,
    "businessName": "SHARP MEMORIAL HOSPITAL",
    "contactEmail": null,
    "categoryName": "OTHER",
    "categoryCode": "PPSREHB",
    "licenseStatus": "ACTIVE",
    "inService": true,
    "licenseNumber": "080000039",
    "licenseEffectiveDate": "05/31/2025",
    "licenseExpirationDate": "05/30/2026",
    "dataDate": "10/18/2025",
    "capacity": 0,
    "address": "7901 FROST ST",
    "city": "SAN DIEGO",
    "zip": "92123",
    "county": "SAN DIEGO",
    "phone": null,
    "lat": 32.798322,
    "lng": -117.155007
  },
  {
    "id": "080001767",
    "name": "SHARP MEMORIAL HOSPITAL",
    "npi": null,
    "hcaiId": null,
    "businessName": "SHARP MEMORIAL HOSPITAL",
    "contactEmail": null,
    "categoryName": "GENERAL ACUTE CARE HOSPITAL",
    "categoryCode": "TRANS",
    "licenseStatus": "ACTIVE",
    "inService": true,
    "licenseNumber": "080000039",
    "licenseEffectiveDate": "05/31/2025",
    "licenseExpirationDate": "05/30/2026",
    "dataDate": "10/18/2025",
    "capacity": 0,
    "address": "8010 FROST ST, SUITE 100",
    "city": "SAN DIEGO",
    "zip": "92123",
    "county": "SAN DIEGO",
    "phone": "(619) 541-3400",
    "lat": 32.80158,
    "lng": -117.151965
  },
  {
    "id": "630008921",
    "name": "SHARP MESA VISTA HOSPITAL",
    "npi": "1346334468",
    "hcaiId": "106370745",
    "businessName": "SHARP MEMORIAL HOSPITAL",
    "contactEmail": "TRISHA.KHALEGHI@SHARP.COM",
    "categoryName": "ACUTE PSYCHIATRIC HOSPITAL",
    "categoryCode": "APH",
    "licenseStatus": "ACTIVE",
    "inService": true,
    "licenseNumber": "550000273",
    "licenseEffectiveDate": "11/08/2025",
    "licenseExpirationDate": "11/07/2026",
    "dataDate": "10/18/2025",
    "capacity": 160,
    "address": "7850 VISTA HILL AVE",
    "city": "SAN DIEGO",
    "zip": "92123",
    "county": "SAN DIEGO",
    "phone": "(858) 278-4110",
    "lat": 32.795613,
    "lng": -117.155196
  },
  {
    "id": "630011344",
    "name": "SILVERADO HOSPICE SAN DIEGO",
    "npi": "1386786150",
    "hcaiId": "406374403",
    "businessName": "SILVERADO HOSPICE, INC",
    "contactEmail": "DOUG.RAKOW@SILVERADO.COM",
    "categoryName": "HOSPICE",
    "categoryCode": "HOSPICE",
    "licenseStatus": "ACTIVE",
    "inService": true,
    "licenseNumber": "550000553",
    "licenseEffectiveDate": "11/12/2025",
    "licenseExpirationDate": "11/11/2027",
    "dataDate": "10/18/2025",
    "capacity": 0,
    "address": "5471 KEARNY VILLA RD, SUITE 300",
    "city": "SAN DIEGO",
    "zip": "92123",
    "county": "SAN DIEGO",
    "phone": "(858) 565-1005",
    "lat": 32.833476,
    "lng": -117.137313
  },
  {
    "id": "630018485",
    "name": "SUNCREST HOSPICE SAN DIEGO",
    "npi": "1215428461",
    "hcaiId": "406370025",
    "businessName": "ALPHA OMEGA VENTANA HOSPICE LLC",
    "contactEmail": "MFILHART@SUNCRESTCARE.COM",
    "categoryName": "HOSPICE",
    "categoryCode": "HOSPICE",
    "licenseStatus": "ACTIVE",
    "inService": true,
    "licenseNumber": "550005108",
    "licenseEffectiveDate": "12/19/2023",
    "licenseExpirationDate": "11/15/2025",
    "dataDate": "10/18/2025",
    "capacity": 0,
    "address": "5575 RUFFIN ROAD, SUITE 250",
    "city": "SAN DIEGO",
    "zip": "92123",
    "county": "SAN DIEGO",
    "phone": "(480) 277-1924",
    "lat": 32.8360531,
    "lng": -117.1261536
  },
  {
    "id": "080000060",
    "name": "THE SHORES POST-ACUTE",
    "npi": "1003098906",
    "hcaiId": "206370712",
    "businessName": "BRIDGEWATER BAY HOLDINGS, LLC",
    "contactEmail": "MARIONNE.MATUSALEM@LINKSHEALTH.COM",
    "categoryName": "SKILLED NURSING FACILITY",
    "categoryCode": "SNF",
    "licenseStatus": "ACTIVE",
    "inService": true,
    "licenseNumber": "080000051",
    "licenseEffectiveDate": "12/06/2024",
    "licenseExpirationDate": "12/05/2025",
    "dataDate": "10/18/2025",
    "capacity": 305,
    "address": "2828 MEADOW LARK DR",
    "city": "SAN DIEGO",
    "zip": "92123",
    "county": "SAN DIEGO",
    "phone": "(858) 277-6460",
    "lat": 32.793993,
    "lng": -117.1550115
  },
  {
    "id": "080000922",
    "name": "TOGETHER WE GROW",
    "npi": null,
    "hcaiId": null,
    "businessName": "TOGETHER WE GROW, INC.",
    "contactEmail": "TERRY@TOGETHERWEGROW.NET",
    "categoryName": "PEDIATRIC DAY HEALTH & RESPITE CARE FACILITY",
    "categoryCode": "PDHRCF",
    "licenseStatus": "ACTIVE",
    "inService": true,
    "licenseNumber": "080000398",
    "licenseEffectiveDate": "11/17/2025",
    "licenseExpirationDate": "11/16/2026",
    "dataDate": "10/18/2025",
    "capacity": 75,
    "address": "5055 VIEWRIDGE AVE",
    "city": "SAN DIEGO",
    "zip": "92123",
    "county": "SAN DIEGO",
    "phone": "(619) 778-2940",
    "lat": 32.828517,
    "lng": -117.121239
  },
  {
    "id": "080000121",
    "name": "UCSD HOME INFUSION PHARMACY",
    "npi": null,
    "hcaiId": "406370650",
    "businessName": "UNIVERSITY OF CALIFORNIA BOARD OF REGENTS",
    "contactEmail": "JMHODGSON@HEALTH.UCSD.EDU",
    "categoryName": "HOME HEALTH AGENCY",
    "categoryCode": "HHA",
    "licenseStatus": "ACTIVE",
    "inService": true,
    "licenseNumber": "080000011",
    "licenseEffectiveDate": "12/01/2024",
    "licenseExpirationDate": "11/30/2025",
    "dataDate": "10/18/2025",
    "capacity": 0,
    "address": "9610 RIDGEHAVEN CT, SUITE A",
    "city": "SAN DIEGO",
    "zip": "92123",
    "county": "SAN DIEGO",
    "phone": "(619) 543-8221",
    "lat": 32.821065,
    "lng": -117.1205145
  },
  {
    "id": "080001012",
    "name": "VITAS HEALTHCARE CORPORATION OF CALIFORNIA",
    "npi": null,
    "hcaiId": "406374239",
    "businessName": "VITAS HEALTHCARE CORPORATION OF CALIFORNIA",
    "contactEmail": "ERIC.LUDWIG@VITAS.COM",
    "categoryName": "HOSPICE",
    "categoryCode": "HOSPICE",
    "licenseStatus": "ACTIVE",
    "inService": true,
    "licenseNumber": "080000602",
    "licenseEffectiveDate": "11/30/2023",
    "licenseExpirationDate": "11/29/2025",
    "dataDate": "10/18/2025",
    "capacity": 0,
    "address": "9655 GRANITE RIDGE DR, SUITE 300",
    "city": "SAN DIEGO",
    "zip": "92123",
    "county": "SAN DIEGO",
    "phone": "(858) 499-8901",
    "lat": 32.805765,
    "lng": -117.1199025
  }
]