[
  {
    "id": "630002001",
    "name": "HOME DIALYSIS THERAPIES OF SAN DIEGO INC",
    "npi": "1457487738",
    "hcaiId": null,
    "businessName": null,
    "contactEmail": "DBARNES.HDT@SBCGLOBAL.NET",
    "categoryName": "CHRONIC DIALYSIS CLINIC",
    "categoryCode": "ESRD",
    "licenseStatus": null,
    "inService": null,
    "licenseNumber": null,
    "licenseEffectiveDate": null,
    "licenseExpirationDate": null,
    "dataDate": "10/18/2025",
    "capacity": 0,
    "address": "10672 WEXFORD ST, SUITE 250",
    "city": "SAN DIEGO",
    "zip": "92131",
    "county": "SAN DIEGO",
    "phone": "(858) 385-9213",
    "lat": 32.93897405,
    "lng": -117.0985
  },
  {
    "id": "630017420",
    "name": "OPSAM HEALTH: ERMA ROAD",
    "npi": null,
    "hcaiId": "306370941",
    "businessName": "OPERATION SAMAHAN, INC.",
    "contactEmail": "BMULLER@SAMAHANHEALTH.ORG",
    "categoryName": "PRIMARY CARE CLINIC",
    "categoryCode": "FQHC/COMTYC",
    "licenseStatus": "ACTIVE",
    "inService": true,
    "licenseNumber": "090000183",
    "licenseEffectiveDate": "02/16/2025",
    "licenseExpirationDate": "02/15/2026",
    "dataDate": "10/18/2025",
    "capacity": 0,
    "address": "9855 ERMA RD, SUITE 105-106",
    "city": "SAN DIEGO",
    "zip": "92131",
    "county": "SAN DIEGO",
    "phone": "(844) 200-2426",
    "lat": 32.91894,
    "lng": -117.114417
  },
  {
    "id": "630020891",
    "name": "PRYME CARE HOSPICE",
    "npi": null,
    "hcaiId": "406373771",
    "businessName": "SD HOSPICE, INC.",
    "contactEmail": "SDHOSPICEINC@GMAIL.COM",
    "categoryName": "HOSPICE",
    "categoryCode": "HOSPICE",
    "licenseStatus": "ACTIVE",
    "inService": true,
    "licenseNumber": "550006912",
    "licenseEffectiveDate": "09/16/2025",
    "licenseExpirationDate": "09/15/2027",
    "dataDate": "10/18/2025",
    "capacity": 0,
    "address": "10620 TREENA ST, SUITE 230",
    "city": "SAN DIEGO",
    "zip": "92131",
    "county": "SAN DIEGO",
    "phone": "(760) 295-4912",
    "lat": 32.91134952,
    "lng": -117.1138946
  },
  {
    "id": "630026073",
    "name": "RIDGEVIEW SKILLED NURSING FACILITY",
    "npi": null,
    "hcaiId": "206374574",
    "businessName": "CRESTVIEW HC LLC",
    "contactEmail": "KAURM@RIDGEVIEWHEALTHCENTER.COM",
    "categoryName": "SKILLED NURSING FACILITY",
    "categoryCode": "SNF",
    "licenseStatus": "ACTIVE",
    "inService": true,
    "licenseNumber": "550008392",
    "licenseEffectiveDate": "02/15/2025",
    "licenseExpirationDate": "02/14/2026",
    "dataDate": "10/18/2025",
    "capacity": 45,
    "address": "9825 GLEN CENTER DR",
    "city": "SAN DIEGO",
    "zip": "92131",
    "county": "SAN DIEGO",
    "phone": "(858) 293-3900",
    "lat": 32.9015125,
    "lng": -117.0890072
  }
]