[
  {
    "id": "080001712",
    "name": "FMC DIALYSIS SERVICES OF PARADISE",
    "npi": "1508978305",
    "hcaiId": "306374305",
    "businessName": "SAN DIEGO DIALYSIS SERVICES INC",
    "contactEmail": "CLINIC2907@FMC-NA.COM",
    "categoryName": "CHRONIC DIALYSIS CLINIC",
    "categoryCode": "ESRD/CDC",
    "licenseStatus": "ACTIVE",
    "inService": true,
    "licenseNumber": "080000758",
    "licenseEffectiveDate": "06/19/2025",
    "licenseExpirationDate": "06/18/2026",
    "dataDate": "10/18/2025",
    "capacity": 20,
    "address": "6919 PARADISE VALLEY RD",
    "city": "SAN DIEGO",
    "zip": "92139",
    "county": "SAN DIEGO",
    "phone": "(619) 475-2872",
    "lat": 32.689926,
    "lng": -117.043218
  },
  {
    "id": "630011645",
    "name": "MINOA WAY",
    "npi": "1164658589",
    "hcaiId": null,
    "businessName": "RSCR CALIFORNIA, INC.",
    "contactEmail": "JOSEPH.TONTODONATO@RESCARE.COM",
    "categoryName": "INTERMEDIATE CARE FACILITY-DD/H/N/CN/IID",
    "categoryCode": "ICFDDN",
    "licenseStatus": "ACTIVE",
    "inService": true,
    "licenseNumber": "550000866",
    "licenseEffectiveDate": "12/28/2024",
    "licenseExpirationDate": "12/27/2025",
    "dataDate": "10/18/2025",
    "capacity": 6,
    "address": "3080 MINOA WAY",
    "city": "SAN DIEGO",
    "zip": "92139",
    "county": "SAN DIEGO",
    "phone": "(619) 472-3802",
    "lat": 32.666364,
    "lng": -117.054477
  },
  {
    "id": "090000009",
    "name": "REO VISTA HEALTHCARE CENTER",
    "npi": "1255499174",
    "hcaiId": "206370756",
    "businessName": "LILAC HOLDINGS, LLC",
    "contactEmail": "LANDON.BURRUP@PVHCC.COM",
    "categoryName": "SKILLED NURSING FACILITY",
    "categoryCode": "SNF",
    "licenseStatus": "ACTIVE",
    "inService": true,
    "licenseNumber": "090000084",
    "licenseEffectiveDate": "11/18/2024",
    "licenseExpirationDate": "11/17/2025",
    "dataDate": "10/18/2025",
    "capacity": 162,
    "address": "6061 BANBURY ST",
    "city": "SAN DIEGO",
    "zip": "92139",
    "county": "SAN DIEGO",
    "phone": "(619) 475-2211",
    "lat": 32.670639,
    "lng": -117.059427
  },
  {
    "id": "630011646",
    "name": "SULA WAY",
    "npi": "1659506012",
    "hcaiId": null,
    "businessName": "RSCR CALIFORNIA, INC.",
    "contactEmail": "JOSEPH.TONTODONATO@RESCARE.COM",
    "categoryName": "INTERMEDIATE CARE FACILITY-DD/H/N/CN/IID",
    "categoryCode": "ICFDDN",
    "licenseStatus": "ACTIVE",
    "inService": true,
    "licenseNumber": "550000850",
    "licenseEffectiveDate": "01/13/2025",
    "licenseExpirationDate": "01/12/2026",
    "dataDate": "10/18/2025",
    "capacity": 6,
    "address": "2757 SULA WAY",
    "city": "SAN DIEGO",
    "zip": "92139",
    "county": "SAN DIEGO",
    "phone": "(619) 267-1836",
    "lat": 32.673699,
    "lng": -117.0448065
  }
]