[
  {
    "id": "080001515",
    "name": "BAYSHIRE TORREY PINES POST-ACUTE",
    "npi": null,
    "hcaiId": "206374271",
    "businessName": "SKILLED HARTFIELD LLC",
    "contactEmail": "SCOTT@BAYSHIRE.COM",
    "categoryName": "SKILLED NURSING FACILITY",
    "categoryCode": "SNF",
    "licenseStatus": "ACTIVE",
    "inService": true,
    "licenseNumber": "080000634",
    "licenseEffectiveDate": "12/05/2024",
    "licenseExpirationDate": "12/04/2025",
    "dataDate": "10/18/2025",
    "capacity": 45,
    "address": "13101 HARTFIELD AVE",
    "city": "SAN DIEGO",
    "zip": "92130",
    "county": "SAN DIEGO",
    "phone": "(858) 259-2222",
    "lat": 32.9567936,
    "lng": -117.2303581
  },
  {
    "id": "630015164",
    "name": "CENTER FOR DISCOVERY, DEL MAR",
    "npi": null,
    "hcaiId": "206374515",
    "businessName": "DISCOVERY PRACTICE MANAGEMENT, INC.",
    "contactEmail": "JESSICA.MCKELLAR@CENTERFORDISCOVERY.COM",
    "categoryName": "CONGREGATE LIVING HEALTH FACILITY",
    "categoryCode": "CLHF",
    "licenseStatus": "ACTIVE",
    "inService": true,
    "licenseNumber": "550002860",
    "licenseEffectiveDate": "10/15/2025",
    "licenseExpirationDate": "10/14/2026",
    "dataDate": "10/18/2025",
    "capacity": 6,
    "address": "4421 CARMEL VALLEY RD",
    "city": "SAN DIEGO",
    "zip": "92130",
    "county": "SAN DIEGO",
    "phone": "(760) 419-1209",
    "lat": 32.947092,
    "lng": -117.1975455
  },
  {
    "id": "630010971",
    "name": "FRESENIUS MEDICAL CARE OF LA JOLLA",
    "npi": "1053443101",
    "hcaiId": "306374385",
    "businessName": "BIO-MEDICAL APPLICATIONS OF CALIFORNIA, INC.",
    "contactEmail": "CLINIC4003@FMC-NA.COM",
    "categoryName": "CHRONIC DIALYSIS CLINIC",
    "categoryCode": "ESRD/CDC",
    "licenseStatus": "ACTIVE",
    "inService": true,
    "licenseNumber": "550000269",
    "licenseEffectiveDate": "11/17/2025",
    "licenseExpirationDate": "11/16/2026",
    "dataDate": "10/18/2025",
    "capacity": 24,
    "address": "4765 CARMEL MTN RD, SUITE 100",
    "city": "SAN DIEGO",
    "zip": "92130",
    "county": "SAN DIEGO",
    "phone": "(858) 793-0058",
    "lat": 32.9216834,
    "lng": -117.2132581
  },
  {
    "id": "630002941",
    "name": "SCRIPPS CLINIC AMBULATORY SURGERY CENTER",
    "npi": "1124003280",
    "hcaiId": null,
    "businessName": null,
    "contactEmail": null,
    "categoryName": "SURGICAL CLINIC",
    "categoryCode": "ASC",
    "licenseStatus": null,
    "inService": null,
    "licenseNumber": null,
    "licenseEffectiveDate": null,
    "licenseExpirationDate": null,
    "dataDate": "10/18/2025",
    "capacity": 0,
    "address": "3811 VALLEY CENTRE DR",
    "city": "SAN DIEGO",
    "zip": "92130",
    "county": "SAN DIEGO",
    "phone": "(858) 764-3000",
    "lat": 32.936751,
    "lng": -117.232209
  },
  {
    "id": "080001710",
    "name": "SPECIALIST SURGERYCENTER OF DEL MAR",
    "npi": "1700985397",
    "hcaiId": "306374309",
    "businessName": null,
    "contactEmail": null,
    "categoryName": "SURGICAL CLINIC",
    "categoryCode": "ASC",
    "licenseStatus": "INACTIVE - CAPEN DECISION",
    "inService": false,
    "licenseNumber": "080000756",
    "licenseEffectiveDate": "11/20/2007",
    "licenseExpirationDate": "11/19/2008",
    "dataDate": "10/18/2025",
    "capacity": 0,
    "address": "12264 EL CAMINO REAL, SUITE 55",
    "city": "SAN DIEGO",
    "zip": "92130",
    "county": "SAN DIEGO",
    "phone": "(858) 755-3937",
    "lat": 32.939532,
    "lng": -117.2408445
  }
]