[
  {
    "id": "060001958",
    "name": "CASA PACIFICA ADHC CENTER",
    "npi": null,
    "hcaiId": null,
    "businessName": "J GELT CORPORATION",
    "contactEmail": "CASAPACIFICASANDIEGO@YAHOO.COM",
    "categoryName": "ADULT DAY HEALTH CARE",
    "categoryCode": "ADHC",
    "licenseStatus": "ACTIVE",
    "inService": true,
    "licenseNumber": "060000764",
    "licenseEffectiveDate": "11/27/2024",
    "licenseExpirationDate": "11/26/2025",
    "dataDate": "10/18/2025",
    "capacity": 0,
    "address": "1424 30TH ST, SUITE C",
    "city": "SAN DIEGO",
    "zip": "92154",
    "county": "SAN DIEGO",
    "phone": "(619) 424-8181",
    "lat": 32.570658,
    "lng": -117.067554
  },
  {
    "id": "630010894",
    "name": "FRAULINE DRIVE",
    "npi": "1679708028",
    "hcaiId": null,
    "businessName": "RSCR CALIFORNIA, INC.",
    "contactEmail": "JOSEPH.TONTODONATO@RESCARE.COM",
    "categoryName": "INTERMEDIATE CARE FACILITY-DD/H/N/CN/IID",
    "categoryCode": "ICFDDN",
    "licenseStatus": "ACTIVE",
    "inService": true,
    "licenseNumber": "550000520",
    "licenseEffectiveDate": "01/13/2025",
    "licenseExpirationDate": "01/12/2026",
    "dataDate": "10/18/2025",
    "capacity": 6,
    "address": "1384 FRAULINE DR",
    "city": "SAN DIEGO",
    "zip": "92154",
    "county": "SAN DIEGO",
    "phone": "(619) 267-8400",
    "lat": 32.571072,
    "lng": -117.09117
  },
  {
    "id": "630010895",
    "name": "IONIAN STREET",
    "npi": "1972739399",
    "hcaiId": null,
    "businessName": "RSCR CALIFORNIA, INC.",
    "contactEmail": "JOSEPH.TONTODONATO@RESCARE.COM",
    "categoryName": "INTERMEDIATE CARE FACILITY-DD/H/N/CN/IID",
    "categoryCode": "ICFDDN",
    "licenseStatus": "ACTIVE",
    "inService": true,
    "licenseNumber": "550000487",
    "licenseEffectiveDate": "01/13/2025",
    "licenseExpirationDate": "01/12/2026",
    "dataDate": "10/18/2025",
    "capacity": 6,
    "address": "1805 IONIAN ST",
    "city": "SAN DIEGO",
    "zip": "92154",
    "county": "SAN DIEGO",
    "phone": "(619) 429-1329",
    "lat": 32.570118,
    "lng": -117.094932
  },
  {
    "id": "630010888",
    "name": "LAURISTON DRIVE",
    "npi": "1881820207",
    "hcaiId": null,
    "businessName": "RSCR CALIFORNIA, INC.",
    "contactEmail": "JOSEPH.TONTODONATO@RESCARE.COM",
    "categoryName": "INTERMEDIATE CARE FACILITY-DD/H/N/CN/IID",
    "categoryCode": "ICFDDN",
    "licenseStatus": "ACTIVE",
    "inService": true,
    "licenseNumber": "550000607",
    "licenseEffectiveDate": "11/22/2024",
    "licenseExpirationDate": "11/21/2025",
    "dataDate": "10/18/2025",
    "capacity": 6,
    "address": "1130 LAURISTON DR",
    "city": "SAN DIEGO",
    "zip": "92154",
    "county": "SAN DIEGO",
    "phone": "(619) 429-5960",
    "lat": 32.575419,
    "lng": -117.0718335
  },
  {
    "id": "630012921",
    "name": "NESTOR COMMUNITY HEALTH CENTER",
    "npi": "1215246996",
    "hcaiId": "306374450",
    "businessName": "IMPERIAL BEACH COMMUNITY CLINIC",
    "contactEmail": "IBCCADMINISTRATION@IBCLINIC.ORG",
    "categoryName": "PRIMARY CARE CLINIC",
    "categoryCode": "COMTYC",
    "licenseStatus": "ACTIVE",
    "inService": true,
    "licenseNumber": "550001474",
    "licenseEffectiveDate": "01/27/2025",
    "licenseExpirationDate": "01/26/2026",
    "dataDate": "10/18/2025",
    "capacity": 0,
    "address": "1016 OUTER RD",
    "city": "SAN DIEGO",
    "zip": "92154",
    "county": "SAN DIEGO",
    "phone": "(619) 429-3733",
    "lat": 32.577759,
    "lng": -117.0827595
  },
  {
    "id": "080001611",
    "name": "SAN DIEGO DIALYSIS SERVICES, INC.",
    "npi": "1477665271",
    "hcaiId": "306374005",
    "businessName": "SAN DIEGO DIALYSIS SERVICES INC",
    "contactEmail": "CACLINICLICENSE@FRESENIUSMEDICALCARE.COM",
    "categoryName": "CHRONIC DIALYSIS CLINIC",
    "categoryCode": "ESRD/CDC",
    "licenseStatus": "ACTIVE",
    "inService": true,
    "licenseNumber": "080000699",
    "licenseEffectiveDate": "04/01/2025",
    "licenseExpirationDate": "03/31/2026",
    "dataDate": "10/18/2025",
    "capacity": 30,
    "address": "2252 VERUS ST",
    "city": "SAN DIEGO",
    "zip": "92154",
    "county": "SAN DIEGO",
    "phone": "(619) 429-9201",
    "lat": 32.59449,
    "lng": -117.0865485
  },
  {
    "id": "080001623",
    "name": "SAN YSIDRO DIALYSIS",
    "npi": "1295700201",
    "hcaiId": "306374285",
    "businessName": "DVA RENAL HEALTHCARE, INC.",
    "contactEmail": "CAL_C@DAVITA.COM",
    "categoryName": "CHRONIC DIALYSIS CLINIC",
    "categoryCode": "ESRD/CDC",
    "licenseStatus": "ACTIVE",
    "inService": true,
    "licenseNumber": "080000711",
    "licenseEffectiveDate": "12/08/2024",
    "licenseExpirationDate": "12/07/2025",
    "dataDate": "10/18/2025",
    "capacity": 41,
    "address": "1445 30TH ST., SUITE A & B",
    "city": "SAN DIEGO",
    "zip": "92154",
    "county": "SAN DIEGO",
    "phone": "(619) 575-3901",
    "lat": 32.571468,
    "lng": -117.066852
  },
  {
    "id": "080001622",
    "name": "SAN YSIDRO DIALYSIS CENTER",
    "npi": "1619079035",
    "hcaiId": "306374279",
    "businessName": "SAN DIEGO DIALYSIS SERVICES INC",
    "contactEmail": "CLINIC1990@FMC-NA.COM",
    "categoryName": "CHRONIC DIALYSIS CLINIC",
    "categoryCode": "ESRD/CDC",
    "licenseStatus": "ACTIVE",
    "inService": true,
    "licenseNumber": "080000710",
    "licenseEffectiveDate": "06/12/2025",
    "licenseExpirationDate": "06/11/2026",
    "dataDate": "10/18/2025",
    "capacity": 20,
    "address": "3010 DEL SOL BLVD",
    "city": "SAN DIEGO",
    "zip": "92154",
    "county": "SAN DIEGO",
    "phone": "(619) 429-9690",
    "lat": 32.574213,
    "lng": -117.0684495
  },
  {
    "id": "630026973",
    "name": "SAN YSIDRO HEALTH CASA",
    "npi": null,
    "hcaiId": null,
    "businessName": "CENTRO DE SALUD DE LA COMUNIDAD DE SAN YSIDRO, INC.",
    "contactEmail": null,
    "categoryName": "PRIMARY CARE CLINIC",
    "categoryCode": "COMTYC",
    "licenseStatus": "ACTIVE",
    "inService": true,
    "licenseNumber": "090000136",
    "licenseEffectiveDate": "01/02/2025",
    "licenseExpirationDate": "01/01/2026",
    "dataDate": "10/18/2025",
    "capacity": 0,
    "address": "3045 BEYER BLVD, SUITE D101",
    "city": "SAN DIEGO",
    "zip": "92154",
    "county": "SAN DIEGO",
    "phone": null,
    "lat": 32.571792,
    "lng": -117.065898
  },
  {
    "id": "630010889",
    "name": "TAMARAND WAY",
    "npi": "1154557577",
    "hcaiId": null,
    "businessName": "RSCR CALIFORNIA, INC.",
    "contactEmail": "JOSEPH.TONTODONATO@RESCARE.COM",
    "categoryName": "INTERMEDIATE CARE FACILITY-DD/H/N/CN/IID",
    "categoryCode": "ICFDDN",
    "licenseStatus": "ACTIVE",
    "inService": true,
    "licenseNumber": "550000467",
    "licenseEffectiveDate": "12/01/2024",
    "licenseExpirationDate": "11/30/2025",
    "dataDate": "10/18/2025",
    "capacity": 6,
    "address": "1841 TAMARAND WAY",
    "city": "SAN DIEGO",
    "zip": "92154",
    "county": "SAN DIEGO",
    "phone": "(619) 423-1655",
    "lat": 32.567148,
    "lng": -117.0943515
  },
  {
    "id": "090001377",
    "name": "WILLOW SPRINGS",
    "npi": "1063648483",
    "hcaiId": null,
    "businessName": "RSCR CALIFORNIA, INC.",
    "contactEmail": "JOSEPH.TONTODONATO@RESCARE.COM",
    "categoryName": "INTERMEDIATE CARE FACILITY-DD/H/N/CN/IID",
    "categoryCode": "ICFDDN",
    "licenseStatus": "ACTIVE",
    "inService": true,
    "licenseNumber": "090000567",
    "licenseEffectiveDate": "01/13/2025",
    "licenseExpirationDate": "01/12/2026",
    "dataDate": "10/18/2025",
    "capacity": 6,
    "address": "3066 CAMINO ALETA",
    "city": "SAN DIEGO",
    "zip": "92154",
    "county": "SAN DIEGO",
    "phone": "(619) 424-7897",
    "lat": 32.575878,
    "lng": -117.0662805
  }
]