[
  {
    "id": "630012537",
    "name": "SAN YSIDRO ADULT DAY HEALTHCARE CENTER",
    "npi": null,
    "hcaiId": null,
    "businessName": "CENTRO DE SALUD DE LA COMUNIDAD DE SAN YSIDRO, INC.",
    "contactEmail": "SHAMETT@SYHEALTH.ORG",
    "categoryName": "ADULT DAY HEALTH CARE",
    "categoryCode": "ADHC",
    "licenseStatus": "ACTIVE",
    "inService": true,
    "licenseNumber": "550001235",
    "licenseEffectiveDate": "03/04/2025",
    "licenseExpirationDate": "03/03/2026",
    "dataDate": "10/18/2025",
    "capacity": 0,
    "address": "3364 BEYER BLVD",
    "city": "SAN YSIDRO",
    "zip": "92173",
    "county": "SAN DIEGO",
    "phone": "(619) 662-4100",
    "lat": 32.566698,
    "lng": -117.0607725
  },
  {
    "id": "630027335",
    "name": "SAN YSIDRO HEALTH HIV & LGBTQ MOBILE CLINIC SERVICES",
    "npi": null,
    "hcaiId": "306370797",
    "businessName": "CENTRO DE SALUD DE LA COMUNIDAD DE SAN YSIDRO, INC.",
    "contactEmail": "SHAMETT@SYHEALTH.ORG",
    "categoryName": "PRIMARY CARE CLINIC",
    "categoryCode": "COMTYC",
    "licenseStatus": "ACTIVE",
    "inService": true,
    "licenseNumber": "550008752",
    "licenseEffectiveDate": "10/05/2025",
    "licenseExpirationDate": "10/04/2026",
    "dataDate": "10/18/2025",
    "capacity": 0,
    "address": "4004 BEYER BLVD",
    "city": "SAN YSIDRO",
    "zip": "92173",
    "county": "SAN DIEGO",
    "phone": "(619) 662-4141",
    "lat": 32.55873598,
    "lng": -117.047413
  },
  {
    "id": "630017949",
    "name": "SAN YSIDRO HEALTH MATERNAL & CHILD HEALTH CENTER",
    "npi": null,
    "hcaiId": "306370507",
    "businessName": "CENTRO DE SALUD DE LA COMUNIDAD DE SAN YSIDRO, INC.",
    "contactEmail": "SHAMETT@SYHEALTH.ORG",
    "categoryName": "PRIMARY CARE CLINIC",
    "categoryCode": "COMTYC",
    "licenseStatus": "ACTIVE",
    "inService": true,
    "licenseNumber": "550004555",
    "licenseEffectiveDate": "02/27/2025",
    "licenseExpirationDate": "02/26/2026",
    "dataDate": "10/18/2025",
    "capacity": 0,
    "address": "4050 BEYER BLVD",
    "city": "SAN YSIDRO",
    "zip": "92173",
    "county": "SAN DIEGO",
    "phone": "(619) 662-4100",
    "lat": 32.558553,
    "lng": -117.046836
  },
  {
    "id": "630005422",
    "name": "SAN YSIDRO HEALTH MOBILE HEALTH SERVICES 1F",
    "npi": null,
    "hcaiId": "306374380",
    "businessName": "CENTRO DE SALUD DE LA COMUNIDAD DE SAN YSIDRO, INC.",
    "contactEmail": "SHAMETT@SYHEALTH.ORG",
    "categoryName": "PRIMARY CARE CLINIC",
    "categoryCode": "COMTYC",
    "licenseStatus": "ACTIVE",
    "inService": true,
    "licenseNumber": "550000117",
    "licenseEffectiveDate": "01/01/2025",
    "licenseExpirationDate": "12/31/2025",
    "dataDate": "10/18/2025",
    "capacity": 0,
    "address": "4004 BEYER BLVD",
    "city": "SAN YSIDRO",
    "zip": "92173",
    "county": "SAN DIEGO",
    "phone": "(619) 662-4104",
    "lat": 32.558751,
    "lng": -117.04743
  },
  {
    "id": "630005381",
    "name": "SAN YSIDRO HEALTH MOBILE HEALTH SERVICES 1G",
    "npi": null,
    "hcaiId": "306374379",
    "businessName": "CENTRO DE SALUD DE LA COMUNIDAD DE SAN YSIDRO, INC.",
    "contactEmail": "SHAMETT@SYHEALTH.ORG",
    "categoryName": "PRIMARY CARE CLINIC",
    "categoryCode": "COMTYC",
    "licenseStatus": "ACTIVE",
    "inService": true,
    "licenseNumber": "550000116",
    "licenseEffectiveDate": "01/01/2025",
    "licenseExpirationDate": "12/31/2025",
    "dataDate": "10/18/2025",
    "capacity": 0,
    "address": "4004 BEYER BLVD",
    "city": "SAN YSIDRO",
    "zip": "92173",
    "county": "SAN DIEGO",
    "phone": "(619) 622-4104",
    "lat": 32.558751,
    "lng": -117.04743
  },
  {
    "id": "630014070",
    "name": "SAN YSIDRO HEALTH MOBILE HEALTH SERVICES 1H",
    "npi": "1396081550",
    "hcaiId": "306374527",
    "businessName": "CENTRO DE SALUD DE LA COMUNIDAD DE SAN YSIDRO, INC.",
    "contactEmail": "SHAMETT@SYHEALTH.ORG",
    "categoryName": "PRIMARY CARE CLINIC",
    "categoryCode": "COMTYC",
    "licenseStatus": "ACTIVE",
    "inService": true,
    "licenseNumber": "550002193",
    "licenseEffectiveDate": "02/19/2025",
    "licenseExpirationDate": "02/18/2026",
    "dataDate": "10/18/2025",
    "capacity": 0,
    "address": "4004 BEYER BLVD",
    "city": "SAN YSIDRO",
    "zip": "92173",
    "county": "SAN DIEGO",
    "phone": "(619) 205-6322",
    "lat": 32.558751,
    "lng": -117.04743
  },
  {
    "id": "630027195",
    "name": "SAN YSIDRO HEALTH MOBILE HEALTH SERVICES 1J",
    "npi": "1174213904",
    "hcaiId": null,
    "businessName": "CENTRO DE SALUD DE LA COMUNIDAD DE SAN YSIDRO, INC.",
    "contactEmail": "SHAMETT@SYHEALTH.ORG",
    "categoryName": "PRIMARY CARE CLINIC",
    "categoryCode": "COMTYC",
    "licenseStatus": "ACTIVE",
    "inService": true,
    "licenseNumber": "550008716",
    "licenseEffectiveDate": "09/07/2025",
    "licenseExpirationDate": "09/06/2026",
    "dataDate": "10/18/2025",
    "capacity": 0,
    "address": "4004 BEYER BLVD",
    "city": "SAN YSIDRO",
    "zip": "92173",
    "county": "SAN DIEGO",
    "phone": "(619) 662-4141",
    "lat": 32.55873598,
    "lng": -117.047413
  },
  {
    "id": "630024906",
    "name": "SAN YSIDRO HEALTH PRECISION PARK",
    "npi": null,
    "hcaiId": "306370687",
    "businessName": "CENTRO DE SALUD DE LA COMUNIDAD DE SAN YSIDRO, INC.",
    "contactEmail": "SHAMETT@SYHEALTH.ORG",
    "categoryName": "PRIMARY CARE CLINIC",
    "categoryCode": "COMTYC",
    "licenseStatus": "ACTIVE",
    "inService": true,
    "licenseNumber": "550007737",
    "licenseEffectiveDate": "12/31/2024",
    "licenseExpirationDate": "12/30/2025",
    "dataDate": "10/18/2025",
    "capacity": 0,
    "address": "1666 PRECISION PARK LN",
    "city": "SAN DIEGO",
    "zip": "92173",
    "county": "SAN DIEGO",
    "phone": "(619) 662-4100",
    "lat": 32.566194,
    "lng": -117.0600975
  },
  {
    "id": "630015322",
    "name": "SAN YSIDRO HEALTH SAN DIEGO PACE/SENIOR HEALTH SERVICES",
    "npi": null,
    "hcaiId": "306374514",
    "businessName": "CENTRO DE SALUD DE LA COMUNIDAD DE SAN YSIDRO, INC.",
    "contactEmail": "SHAMETT@SYHEALTH.ORG",
    "categoryName": "PRIMARY CARE CLINIC",
    "categoryCode": "COMTYC",
    "licenseStatus": "ACTIVE",
    "inService": true,
    "licenseNumber": "550002823",
    "licenseEffectiveDate": "09/29/2025",
    "licenseExpirationDate": "09/28/2026",
    "dataDate": "10/18/2025",
    "capacity": 0,
    "address": "3364 BEYER BLVD., SUITES 102 & 103, SUITE 102 & 103",
    "city": "SAN YSIDRO",
    "zip": "92173",
    "county": "SAN DIEGO",
    "phone": "(619) 662-4100",
    "lat": 32.566698,
    "lng": -117.0607725
  },
  {
    "id": "090000264",
    "name": "SAN YSIDRO HEALTH SAN YSIDRO HEALTH CENTER",
    "npi": null,
    "hcaiId": "306371257",
    "businessName": "CENTRO DE SALUD DE LA COMUNIDAD DE SAN YSIDRO, INC.",
    "contactEmail": "JOSE.MONTES@SYHC.ORG",
    "categoryName": "PRIMARY CARE CLINIC",
    "categoryCode": "COMTYC",
    "licenseStatus": "ACTIVE",
    "inService": true,
    "licenseNumber": "090000140",
    "licenseEffectiveDate": "11/05/2025",
    "licenseExpirationDate": "11/04/2026",
    "dataDate": "10/18/2025",
    "capacity": 0,
    "address": "4004 BEYER BLVD",
    "city": "SAN YSIDRO",
    "zip": "92173",
    "county": "SAN DIEGO",
    "phone": "(619) 662-4100",
    "lat": 32.558751,
    "lng": -117.04743
  }
]