[
  {
    "id": "630027478",
    "name": "CENTRAL CITY COMMUNITY HEALTH CENTER, INC. - INDIO",
    "npi": "1033488416",
    "hcaiId": null,
    "businessName": "CENTRAL CITY COMMUNITY HEALTH CENTER, INC.",
    "contactEmail": null,
    "categoryName": "PRIMARY CARE CLINIC",
    "categoryCode": "COMTYC",
    "licenseStatus": "ACTIVE",
    "inService": true,
    "licenseNumber": "550001963",
    "licenseEffectiveDate": "06/15/2025",
    "licenseExpirationDate": "06/14/2026",
    "dataDate": "10/18/2025",
    "capacity": 0,
    "address": "81709 DOCTOR CARREON BLVD, SUITE E1 & E2",
    "city": "INDIO",
    "zip": "92201",
    "county": "RIVERSIDE",
    "phone": null,
    "lat": 33.70677102,
    "lng": -116.23992
  },
  {
    "id": "630027343",
    "name": "COACHELLA VALLEY BEHAVIORAL HEALTH",
    "npi": "1902529209",
    "hcaiId": null,
    "businessName": "INDIO BEHAVIORAL HOSPITAL, LLC",
    "contactEmail": "COOPER@POLSINELLI.COM",
    "categoryName": "ACUTE PSYCHIATRIC HOSPITAL",
    "categoryCode": "APH",
    "licenseStatus": "ACTIVE",
    "inService": true,
    "licenseNumber": "550009586",
    "licenseEffectiveDate": "12/12/2024",
    "licenseExpirationDate": "12/11/2025",
    "dataDate": "10/18/2025",
    "capacity": 80,
    "address": "81555 JFK CT",
    "city": "INDIO",
    "zip": "92201",
    "county": "RIVERSIDE",
    "phone": "(312) 873-3606",
    "lat": 33.70513399,
    "lng": -116.240949
  },
  {
    "id": "630025130",
    "name": "DAP HEALTH",
    "npi": "1568439081",
    "hcaiId": null,
    "businessName": "DAP HEALTH, INC.",
    "contactEmail": null,
    "categoryName": "PRIMARY CARE CLINIC",
    "categoryCode": "COMTYC",
    "licenseStatus": "ACTIVE",
    "inService": true,
    "licenseNumber": "250000395",
    "licenseEffectiveDate": "02/15/2025",
    "licenseExpirationDate": "02/14/2026",
    "dataDate": "10/18/2025",
    "capacity": 0,
    "address": "81719 DOCTOR CARREON BLVD, SUITE D1",
    "city": "INDIO",
    "zip": "92201",
    "county": "RIVERSIDE",
    "phone": null,
    "lat": 33.705882,
    "lng": -116.23869
  },
  {
    "id": "630019802",
    "name": "DAP HEALTH - MARTHA'S VILLAGE",
    "npi": null,
    "hcaiId": null,
    "businessName": "DAP HEALTH, INC.",
    "contactEmail": null,
    "categoryName": "PRIMARY CARE CLINIC",
    "categoryCode": "COMTYC",
    "licenseStatus": "ACTIVE",
    "inService": true,
    "licenseNumber": "550000422",
    "licenseEffectiveDate": "02/06/2025",
    "licenseExpirationDate": "02/05/2026",
    "dataDate": "10/18/2025",
    "capacity": 0,
    "address": "83791 DATE AVE",
    "city": "INDIO",
    "zip": "92201",
    "county": "RIVERSIDE",
    "phone": "(619) 781-2201",
    "lat": 33.710823,
    "lng": -116.205075
  },
  {
    "id": "250001382",
    "name": "DESERT MOUNTAIN CARE CENTER",
    "npi": "1578141206",
    "hcaiId": "206334439",
    "businessName": "STAGECOACH HEALTHCARE, INC.",
    "contactEmail": "BWONG@ENSIGNSERVICES.NET",
    "categoryName": "SKILLED NURSING FACILITY",
    "categoryCode": "SNF",
    "licenseStatus": "ACTIVE",
    "inService": true,
    "licenseNumber": "250000584",
    "licenseEffectiveDate": "06/02/2025",
    "licenseExpirationDate": "06/01/2026",
    "dataDate": "10/18/2025",
    "capacity": 99,
    "address": "47763 MONROE ST",
    "city": "INDIO",
    "zip": "92201",
    "county": "RIVERSIDE",
    "phone": "(760) 347-0750",
    "lat": 33.701427,
    "lng": -116.235963
  },
  {
    "id": "250000061",
    "name": "DESERT SPRINGS HEALTHCARE & WELLNESS CENTRE",
    "npi": "1477873990",
    "hcaiId": "206331217",
    "businessName": "INDIO HEALTHCARE & WELLNESS CENTER, LLC",
    "contactEmail": "ADMINISTRATOR@DESERTSPRINGSHC.COM",
    "categoryName": "SKILLED NURSING FACILITY",
    "categoryCode": "SNF",
    "licenseStatus": "ACTIVE",
    "inService": true,
    "licenseNumber": "250000156",
    "licenseEffectiveDate": "11/27/2024",
    "licenseExpirationDate": "11/26/2025",
    "dataDate": "10/18/2025",
    "capacity": 68,
    "address": "82262 VALENCIA AVE",
    "city": "INDIO",
    "zip": "92201",
    "county": "RIVERSIDE",
    "phone": "(760) 347-6000",
    "lat": 33.724755,
    "lng": -116.230482
  },
  {
    "id": "630010781",
    "name": "INDIO SURGERY CENTER INC.",
    "npi": "1548354038",
    "hcaiId": "306334578",
    "businessName": "INDIO SURGERY CENTER INC.",
    "contactEmail": "INFO@INDIOSURGERYCENTER.COM",
    "categoryName": "SURGICAL CLINIC",
    "categoryCode": "ASC/SURGC",
    "licenseStatus": "ACTIVE",
    "inService": true,
    "licenseNumber": "550000265",
    "licenseEffectiveDate": "11/28/2024",
    "licenseExpirationDate": "11/27/2025",
    "dataDate": "10/18/2025",
    "capacity": 0,
    "address": "46900 MONROE ST, SUITE B-201",
    "city": "INDIO",
    "zip": "92201",
    "county": "RIVERSIDE",
    "phone": "(760) 396-5733",
    "lat": 33.708339,
    "lng": -116.232534
  },
  {
    "id": "250000017",
    "name": "JOHN F. KENNEDY MEMORIAL HOSPITAL",
    "npi": "1477584993",
    "hcaiId": "106331216",
    "businessName": "JFK MEMORIAL HOSPITAL, INC.",
    "contactEmail": "KAREN.FAULIS@TENETHEALTH.COM",
    "categoryName": "GENERAL ACUTE CARE HOSPITAL",
    "categoryCode": "GACH",
    "licenseStatus": "ACTIVE",
    "inService": true,
    "licenseNumber": "250000155",
    "licenseEffectiveDate": "06/01/2025",
    "licenseExpirationDate": "05/31/2026",
    "dataDate": "10/18/2025",
    "capacity": 145,
    "address": "47111 MONROE ST",
    "city": "INDIO",
    "zip": "92201",
    "county": "RIVERSIDE",
    "phone": "(760) 347-6191",
    "lat": 33.706215,
    "lng": -116.2354815
  },
  {
    "id": "240001815",
    "name": "KIDNEY INSTITUTE OF THE DESERT, LLC",
    "npi": "1366527483",
    "hcaiId": "306334003",
    "businessName": "KIDNEY INSTITUTE OF THE DESERT, LLC",
    "contactEmail": "MARILUF@KIDNEYINSTITUTES.COM",
    "categoryName": "CHRONIC DIALYSIS CLINIC",
    "categoryCode": "ESRD/CDC",
    "licenseStatus": "ACTIVE",
    "inService": true,
    "licenseNumber": "240000804",
    "licenseEffectiveDate": "03/31/2025",
    "licenseExpirationDate": "03/30/2026",
    "dataDate": "10/18/2025",
    "capacity": 0,
    "address": "81715 DR CARREON BLVD, SUITE B2",
    "city": "INDIO",
    "zip": "92201",
    "county": "RIVERSIDE",
    "phone": "(760) 347-8181",
    "lat": 33.707052,
    "lng": -116.238681
  },
  {
    "id": "240001880",
    "name": "RAI - MONROE - INDIO",
    "npi": "1619041381",
    "hcaiId": "306334523",
    "businessName": "RAI CARE CENTERS OF SOUTHERN CALIFORNIA II, LLC",
    "contactEmail": "CLINIC7190@FMC-NA.COM",
    "categoryName": "CHRONIC DIALYSIS CLINIC",
    "categoryCode": "ESRD/CDC",
    "licenseStatus": "ACTIVE",
    "inService": true,
    "licenseNumber": "240000842",
    "licenseEffectiveDate": "11/01/2025",
    "licenseExpirationDate": "10/31/2026",
    "dataDate": "10/18/2025",
    "capacity": 20,
    "address": "46767 MONROE ST, SUITE 101",
    "city": "INDIO",
    "zip": "92201",
    "county": "RIVERSIDE",
    "phone": "(760) 347-3986",
    "lat": 33.709239,
    "lng": -116.234469
  },
  {
    "id": "630017398",
    "name": "REFUGE PREGNANCY CENTER",
    "npi": null,
    "hcaiId": "306330423",
    "businessName": "REFUGE PREGNANCY CENTER, INC.",
    "contactEmail": "NURSES@REFUGEPREGNANCYCENTER.ORG",
    "categoryName": "PRIMARY CARE CLINIC",
    "categoryCode": "FREEC",
    "licenseStatus": "ACTIVE",
    "inService": true,
    "licenseNumber": "550004540",
    "licenseEffectiveDate": "01/02/2025",
    "licenseExpirationDate": "01/01/2026",
    "dataDate": "10/18/2025",
    "capacity": 0,
    "address": "81557 DR CARREON BLVD, SUITE B-5",
    "city": "INDIO",
    "zip": "92201",
    "county": "RIVERSIDE",
    "phone": "(760) 347-7072",
    "lat": 33.706728,
    "lng": -116.2416915
  },
  {
    "id": "630020322",
    "name": "SAC HEALTH SYSTEM CVRM",
    "npi": "1801270137",
    "hcaiId": null,
    "businessName": "SAC HEALTH SYSTEM",
    "contactEmail": null,
    "categoryName": "PRIMARY CARE CLINIC",
    "categoryCode": "COMTYC",
    "licenseStatus": "ACTIVE",
    "inService": true,
    "licenseNumber": "550003574",
    "licenseEffectiveDate": "07/15/2025",
    "licenseExpirationDate": "07/14/2026",
    "dataDate": "10/18/2025",
    "capacity": 0,
    "address": "47470 VAN BUREN ST",
    "city": "INDIO",
    "zip": "92201",
    "county": "RIVERSIDE",
    "phone": null,
    "lat": 33.704523,
    "lng": -116.198271
  },
  {
    "id": "630020556",
    "name": "SAC HEALTH SYSTEM CVRM MANILA",
    "npi": "1801270137",
    "hcaiId": null,
    "businessName": "SAC HEALTH SYSTEM",
    "contactEmail": null,
    "categoryName": "PRIMARY CARE CLINIC",
    "categoryCode": "COMTYC",
    "licenseStatus": "ACTIVE",
    "inService": true,
    "licenseNumber": "550003574",
    "licenseEffectiveDate": "07/15/2025",
    "licenseExpirationDate": "07/14/2026",
    "dataDate": "10/18/2025",
    "capacity": 0,
    "address": "84110 MANILA AVE, SUITE B",
    "city": "INDIO",
    "zip": "92201",
    "county": "RIVERSIDE",
    "phone": null,
    "lat": 33.704379,
    "lng": -116.1966735
  },
  {
    "id": "630018164",
    "name": "SAC HEALTH SYSTEM INDIO",
    "npi": "1831624493",
    "hcaiId": "306330392",
    "businessName": "SAC HEALTH SYSTEM",
    "contactEmail": null,
    "categoryName": "PRIMARY CARE CLINIC",
    "categoryCode": "COMTYC",
    "licenseStatus": "ACTIVE",
    "inService": true,
    "licenseNumber": "550003574",
    "licenseEffectiveDate": "07/15/2025",
    "licenseExpirationDate": "07/14/2026",
    "dataDate": "10/18/2025",
    "capacity": 0,
    "address": "82934 CIVIC CENTER DR",
    "city": "INDIO",
    "zip": "92201",
    "county": "RIVERSIDE",
    "phone": "(909) 771-2822",
    "lat": 33.719004,
    "lng": -116.217864
  },
  {
    "id": "630027931",
    "name": "ST. JOHN'S COMMUNITY HEALTH-INDIO",
    "npi": null,
    "hcaiId": null,
    "businessName": "ST. JOHN'S COMMUNITY HEALTH",
    "contactEmail": "JBORJA@SJCH.ORG",
    "categoryName": "PRIMARY CARE CLINIC",
    "categoryCode": "FQHC/COMTYC",
    "licenseStatus": "ACTIVE",
    "inService": true,
    "licenseNumber": "550009534",
    "licenseEffectiveDate": "12/07/2024",
    "licenseExpirationDate": "12/06/2025",
    "dataDate": "10/18/2025",
    "capacity": 0,
    "address": "82025 US HIGHWAY 111, UNIT 101",
    "city": "INDIO",
    "zip": "92201",
    "county": "RIVERSIDE",
    "phone": "(323) 541-1600",
    "lat": 33.71322199,
    "lng": -116.232658
  }
]