[
  {
    "id": "630015617",
    "name": "ABLE HOSPICE, INC.",
    "npi": "1255832333",
    "hcaiId": "406334614",
    "businessName": "ABLE HEALTH GROUP, LLC",
    "contactEmail": "ABLEHOSPICEINC@GMAIL.COM",
    "categoryName": "HOSPICE",
    "categoryCode": "HOSPICE",
    "licenseStatus": "ACTIVE",
    "inService": true,
    "licenseNumber": "550003618",
    "licenseEffectiveDate": "08/15/2022",
    "licenseExpirationDate": "08/14/2024",
    "dataDate": "10/18/2025",
    "capacity": 0,
    "address": "41990 COOK ST, BUILDING F, SUITE 2004",
    "city": "PALM DESERT",
    "zip": "92211",
    "county": "RIVERSIDE",
    "phone": "(760) 610-2093",
    "lat": 33.748362,
    "lng": -116.3553615
  },
  {
    "id": "630021184",
    "name": "ALLIED HOSPICE & PALLIATIVE CARE",
    "npi": null,
    "hcaiId": "406333910",
    "businessName": "AHPC PALM DESERT, INC.",
    "contactEmail": "AHPCPALMDESERT@GMAIL.COM",
    "categoryName": "HOSPICE",
    "categoryCode": "HOSPICE",
    "licenseStatus": "ACTIVE",
    "inService": true,
    "licenseNumber": "550007037",
    "licenseEffectiveDate": "10/11/2025",
    "licenseExpirationDate": "10/10/2027",
    "dataDate": "10/18/2025",
    "capacity": 0,
    "address": "36947 COOK ST, SUITE 104",
    "city": "PALM DESERT",
    "zip": "92211",
    "county": "RIVERSIDE",
    "phone": "(760) 537-4647",
    "lat": 33.78005702,
    "lng": -116.358422
  },
  {
    "id": "980000953",
    "name": "BELLA TERRA HOME HEALTH",
    "npi": "1063828234",
    "hcaiId": "406191136",
    "businessName": "JOSHUA TREE HEALTHCARE, INC.",
    "contactEmail": "ADMIN@BELLATERRAHEALTHCARE.COM",
    "categoryName": "HOME HEALTH AGENCY",
    "categoryCode": "HHA",
    "licenseStatus": "ACTIVE",
    "inService": true,
    "licenseNumber": "980000471",
    "licenseEffectiveDate": "08/10/2025",
    "licenseExpirationDate": "08/09/2026",
    "dataDate": "10/18/2025",
    "capacity": 0,
    "address": "75410 GERALD FORD DR, SUITE 200",
    "city": "PALM DESERT",
    "zip": "92211",
    "county": "RIVERSIDE",
    "phone": "(951) 397-4766",
    "lat": 33.7799947,
    "lng": -116.3483442
  },
  {
    "id": "630014319",
    "name": "BELLA TERRA HOSPICE OF THE DESERT",
    "npi": null,
    "hcaiId": "406334698",
    "businessName": "STONE CREEK HEALTHCARE, LLC",
    "contactEmail": "LICENSING@PENNANTSERVICES.COM",
    "categoryName": "HOSPICE",
    "categoryCode": "HOSPICE",
    "licenseStatus": "ACTIVE",
    "inService": true,
    "licenseNumber": "550002340",
    "licenseEffectiveDate": "07/31/2025",
    "licenseExpirationDate": "07/30/2027",
    "dataDate": "10/18/2025",
    "capacity": 0,
    "address": "75410 GERALD FORD DR, SUITE 202",
    "city": "PALM DESERT",
    "zip": "92211",
    "county": "RIVERSIDE",
    "phone": "(760) 904-6070",
    "lat": 33.77938134,
    "lng": -116.3480178
  },
  {
    "id": "630013402",
    "name": "BERMUDA DUNES DIALYSIS",
    "npi": "1417245259",
    "hcaiId": "306334648",
    "businessName": "CHANNEL DIALYSIS LLC",
    "contactEmail": "CAL_C@DAVITA.COM",
    "categoryName": "CHRONIC DIALYSIS CLINIC",
    "categoryCode": "ESRD/CDC",
    "licenseStatus": "ACTIVE",
    "inService": true,
    "licenseNumber": "550001918",
    "licenseEffectiveDate": "04/24/2025",
    "licenseExpirationDate": "04/23/2026",
    "dataDate": "10/18/2025",
    "capacity": 21,
    "address": "78030 WILDCAT DR, SUITE 101",
    "city": "PALM DESERT",
    "zip": "92211",
    "county": "RIVERSIDE",
    "phone": "(760) 345-5115",
    "lat": 33.766128,
    "lng": -116.303373
  },
  {
    "id": "630021691",
    "name": "CARING & HELPING HEARTS HOSPICE",
    "npi": null,
    "hcaiId": "406333924",
    "businessName": "CARING & HELPING HEARTS HOSPICE",
    "contactEmail": "INNOVHEALTHGROUP@GMAIL.COM",
    "categoryName": "HOSPICE",
    "categoryCode": "HOSPICE",
    "licenseStatus": "ACTIVE",
    "inService": true,
    "licenseNumber": "550007239",
    "licenseEffectiveDate": "11/12/2023",
    "licenseExpirationDate": "11/11/2025",
    "dataDate": "10/18/2025",
    "capacity": 0,
    "address": "41865 BOARDWALK, SUITE 216",
    "city": "PALM DESERT",
    "zip": "92211",
    "county": "RIVERSIDE",
    "phone": "(760) 469-4003",
    "lat": 33.746625,
    "lng": -116.3553345
  },
  {
    "id": "630016866",
    "name": "DESERT SANDS HOME TRAINING",
    "npi": null,
    "hcaiId": null,
    "businessName": null,
    "contactEmail": null,
    "categoryName": "CHRONIC DIALYSIS CLINIC",
    "categoryCode": "ESRD",
    "licenseStatus": null,
    "inService": null,
    "licenseNumber": null,
    "licenseEffectiveDate": null,
    "licenseExpirationDate": null,
    "dataDate": "10/18/2025",
    "capacity": 0,
    "address": "78030 WILDCAT DRIVE, SUITE 102",
    "city": "PALM DESERT",
    "zip": "92211",
    "county": "RIVERSIDE",
    "phone": null,
    "lat": 33.766146,
    "lng": -116.3033685
  },
  {
    "id": "080001640",
    "name": "GENTIVA",
    "npi": null,
    "hcaiId": "406334554",
    "businessName": "ODYSSEY HEALTHCARE OPERATING A, L.P.",
    "contactEmail": "MIKE.REYER@GENTIVAHS.COM",
    "categoryName": "HOSPICE",
    "categoryCode": "HOSPICE",
    "licenseStatus": "ACTIVE",
    "inService": true,
    "licenseNumber": "080000724",
    "licenseEffectiveDate": "11/18/2023",
    "licenseExpirationDate": "11/17/2025",
    "dataDate": "10/18/2025",
    "capacity": 0,
    "address": "36947 COOK ST, SUITE 102 BUILDING 10",
    "city": "PALM DESERT",
    "zip": "92211",
    "county": "RIVERSIDE",
    "phone": "(760) 346-2816",
    "lat": 33.780042,
    "lng": -116.3585025
  },
  {
    "id": "630014356",
    "name": "GUARDIAN ANGEL HOME CARE OF PALM DESERT LLC",
    "npi": "1265876759",
    "hcaiId": "406334680",
    "businessName": "GUARDIAN ANGEL HOME CARE OF PALM DESERT LLC",
    "contactEmail": "K.ANDERSON@GAHC94.COM",
    "categoryName": "HOME HEALTH AGENCY",
    "categoryCode": "HHA",
    "licenseStatus": "ACTIVE",
    "inService": true,
    "licenseNumber": "550002574",
    "licenseEffectiveDate": "02/11/2025",
    "licenseExpirationDate": "01/14/2026",
    "dataDate": "10/18/2025",
    "capacity": 0,
    "address": "41865 BOARDWALK, SUITE 201",
    "city": "PALM DESERT",
    "zip": "92211",
    "county": "RIVERSIDE",
    "phone": "(760) 773-3524",
    "lat": 33.746571,
    "lng": -116.3557395
  },
  {
    "id": "250001815",
    "name": "MAXIM HEALTHCARE SERVICES, INC",
    "npi": "1427155878",
    "hcaiId": "406334546",
    "businessName": "MAXIM HEALTHCARE SERVICES, INC.",
    "contactEmail": "PALMDESERTCAHOMECARE-212@MAXHEALTH.COM",
    "categoryName": "HOME HEALTH AGENCY",
    "categoryCode": "HHA",
    "licenseStatus": "ACTIVE",
    "inService": true,
    "licenseNumber": "250000801",
    "licenseEffectiveDate": "05/21/2025",
    "licenseExpirationDate": "05/20/2026",
    "dataDate": "10/18/2025",
    "capacity": 0,
    "address": "34250 GATEWAY DRIVE, SUITE 100",
    "city": "PALM DESERT",
    "zip": "92211",
    "county": "RIVERSIDE",
    "phone": "(760) 469-3169",
    "lat": 33.798762,
    "lng": -116.3826135
  },
  {
    "id": "630015360",
    "name": "MISSION HOME HEALTH PALM DESERT",
    "npi": "1265848683",
    "hcaiId": "406334718",
    "businessName": "HEALTHY LIVING AT HOME - PALM DESERT, LLC",
    "contactEmail": "GPINERO@MISSIONHH.COM",
    "categoryName": "HOME HEALTH AGENCY",
    "categoryCode": "HHA",
    "licenseStatus": "ACTIVE",
    "inService": true,
    "licenseNumber": "550003070",
    "licenseEffectiveDate": "04/24/2025",
    "licenseExpirationDate": "04/23/2026",
    "dataDate": "10/18/2025",
    "capacity": 0,
    "address": "36953 COOK ST, SUITE 102",
    "city": "PALM DESERT",
    "zip": "92211",
    "county": "RIVERSIDE",
    "phone": "(619) 642-1310",
    "lat": 33.779187,
    "lng": -116.357733
  },
  {
    "id": "630026792",
    "name": "PALM DESERT COMMUNITY HEALTH CENTER",
    "npi": "1801307368",
    "hcaiId": null,
    "businessName": "HEALTH SERVICE ALLIANCE",
    "contactEmail": null,
    "categoryName": "PRIMARY CARE CLINIC",
    "categoryCode": "COMTYC",
    "licenseStatus": "ACTIVE",
    "inService": true,
    "licenseNumber": "550004600",
    "licenseEffectiveDate": "12/20/2024",
    "licenseExpirationDate": "12/19/2025",
    "dataDate": "10/18/2025",
    "capacity": 0,
    "address": "41990 COOK ST",
    "city": "PALM DESERT",
    "zip": "92211",
    "county": "RIVERSIDE",
    "phone": null,
    "lat": 33.748362,
    "lng": -116.3553615
  },
  {
    "id": "630021939",
    "name": "SUNCREST HEALTHCARE",
    "npi": null,
    "hcaiId": "406335546",
    "businessName": "SUNCREST HEALTHCARE",
    "contactEmail": "SUNCRESTHEALTHCARE2021@GMAIL.COM",
    "categoryName": "HOME HEALTH AGENCY",
    "categoryCode": "HHA",
    "licenseStatus": "ACTIVE",
    "inService": true,
    "licenseNumber": "550007155",
    "licenseEffectiveDate": "11/11/2025",
    "licenseExpirationDate": "11/10/2026",
    "dataDate": "10/18/2025",
    "capacity": 0,
    "address": "36923 COOK ST, SUITE 104",
    "city": "PALM DESERT",
    "zip": "92211",
    "county": "RIVERSIDE",
    "phone": "(760) 699-2144",
    "lat": 33.779781,
    "lng": -116.3572245
  },
  {
    "id": "630018631",
    "name": "SUNCREST HOSPICE CARE",
    "npi": "1396209268",
    "hcaiId": "406332648",
    "businessName": "LEGACY CARE HOSPICE, INC.",
    "contactEmail": "LEGACYCAREHOSPICE@GMAIL.COM",
    "categoryName": "HOSPICE",
    "categoryCode": "HOSPICE",
    "licenseStatus": "ACTIVE",
    "inService": true,
    "licenseNumber": "550004848",
    "licenseEffectiveDate": "08/09/2025",
    "licenseExpirationDate": "08/08/2027",
    "dataDate": "10/18/2025",
    "capacity": 0,
    "address": "36923 COOK ST, SUITE 102-1",
    "city": "PALM DESERT",
    "zip": "92211",
    "county": "RIVERSIDE",
    "phone": "(760) 699-0053",
    "lat": 33.77978498,
    "lng": -116.357226
  },
  {
    "id": "250000260",
    "name": "THE SPRINGS HEALTHCARE CENTER AT THE CARLOTTA",
    "npi": "1801597968",
    "hcaiId": "206330222",
    "businessName": "APDC, LLC",
    "contactEmail": "MGUERRA@ASPENHEALTH.COM",
    "categoryName": "SKILLED NURSING FACILITY",
    "categoryCode": "SNF",
    "licenseStatus": "ACTIVE",
    "inService": true,
    "licenseNumber": "250000099",
    "licenseEffectiveDate": "01/07/2025",
    "licenseExpirationDate": "01/06/2026",
    "dataDate": "10/18/2025",
    "capacity": 59,
    "address": "41505 CARLOTTA DR",
    "city": "PALM DESERT",
    "zip": "92211",
    "county": "RIVERSIDE",
    "phone": "(760) 610-0295",
    "lat": 33.745824,
    "lng": -116.3453805
  },
  {
    "id": "630025656",
    "name": "THEKEY CONCIERGE NURSING",
    "npi": null,
    "hcaiId": null,
    "businessName": "THEKEY OF PALM SPRINGS, LLC",
    "contactEmail": "COMPLIANCE@THEKEY.COM",
    "categoryName": "HOME HEALTH AGENCY",
    "categoryCode": "HHA",
    "licenseStatus": "ACTIVE",
    "inService": true,
    "licenseNumber": "550009933",
    "licenseEffectiveDate": "08/27/2025",
    "licenseExpirationDate": "02/26/2026",
    "dataDate": "10/18/2025",
    "capacity": 0,
    "address": "73700 DINAH SHORE DR, SUITE 202",
    "city": "PALM DESERT",
    "zip": "92211",
    "county": "RIVERSIDE",
    "phone": "(760) 610-5580",
    "lat": 33.79778701,
    "lng": -116.378435
  },
  {
    "id": "630017583",
    "name": "WEST COAST SURGERY INC.",
    "npi": "1992248918",
    "hcaiId": null,
    "businessName": null,
    "contactEmail": null,
    "categoryName": "SURGICAL CLINIC",
    "categoryCode": "ASC",
    "licenseStatus": null,
    "inService": null,
    "licenseNumber": null,
    "licenseEffectiveDate": null,
    "licenseExpirationDate": null,
    "dataDate": "10/18/2025",
    "capacity": 0,
    "address": "36915 COOK ST, SUITE 103B",
    "city": "PALM DESERT",
    "zip": "92211",
    "county": "RIVERSIDE",
    "phone": null,
    "lat": 33.780618,
    "lng": -116.358156
  }
]