[
  {
    "id": "240001823",
    "name": "BLYTHE DESERT DIALYSIS",
    "npi": "1932211836",
    "hcaiId": "306334482",
    "businessName": "BIO-MEDICAL APPLICATIONS OF CALIFORNIA, INC.",
    "contactEmail": "CLINIC1525@FMC-NA.COM",
    "categoryName": "CHRONIC DIALYSIS CLINIC",
    "categoryCode": "ESRD/CDC",
    "licenseStatus": "ACTIVE",
    "inService": true,
    "licenseNumber": "240000812",
    "licenseEffectiveDate": "11/01/2025",
    "licenseExpirationDate": "10/31/2026",
    "dataDate": "10/18/2025",
    "capacity": 0,
    "address": "737 W HOBSONWAY",
    "city": "BLYTHE",
    "zip": "92225",
    "county": "RIVERSIDE",
    "phone": "(760) 922-4415",
    "lat": 33.61031665,
    "lng": -114.605055
  },
  {
    "id": "250000022",
    "name": "BLYTHE POST ACUTE LLC",
    "npi": "1194120030",
    "hcaiId": "206331125",
    "businessName": "BLYTHE POST ACUTE LLC",
    "contactEmail": "ADMIN@BLYTHEPOSTACUTE.COM",
    "categoryName": "SKILLED NURSING FACILITY",
    "categoryCode": "SNF",
    "licenseStatus": "ACTIVE",
    "inService": true,
    "licenseNumber": "250000120",
    "licenseEffectiveDate": "10/02/2025",
    "licenseExpirationDate": "10/01/2026",
    "dataDate": "10/18/2025",
    "capacity": 48,
    "address": "285 W CHANSLOR WAY",
    "city": "BLYTHE",
    "zip": "92225",
    "county": "RIVERSIDE",
    "phone": "(760) 922-8176",
    "lat": 33.617862,
    "lng": -114.599376
  },
  {
    "id": "630017402",
    "name": "HELPING HANDS HOME HEALTH SERVICES",
    "npi": "1215472246",
    "hcaiId": "406331548",
    "businessName": "HELPING HANDS HOME HEALTH SERVICES",
    "contactEmail": "HELPINGHANDSHHS@OUTLOOK.COM",
    "categoryName": "HOME HEALTH AGENCY",
    "categoryCode": "HHA",
    "licenseStatus": "ACTIVE",
    "inService": true,
    "licenseNumber": "550004531",
    "licenseEffectiveDate": "01/09/2025",
    "licenseExpirationDate": "01/08/2026",
    "dataDate": "10/18/2025",
    "capacity": 0,
    "address": "139 W HOBSONWAY",
    "city": "BLYTHE",
    "zip": "92225",
    "county": "RIVERSIDE",
    "phone": "(714) 280-2117",
    "lat": 33.61047865,
    "lng": -114.5978548
  },
  {
    "id": "630023995",
    "name": "HELPING HANDS HOSPICE, LLC",
    "npi": null,
    "hcaiId": "406335970",
    "businessName": "HELPING HANDS HOSPICE & PALLIATIVE CARE LLC",
    "contactEmail": "HELPINGHANDSHHS@OUTLOOK.COM",
    "categoryName": "HOSPICE",
    "categoryCode": "HOSPICE",
    "licenseStatus": "ACTIVE",
    "inService": true,
    "licenseNumber": "550008288",
    "licenseEffectiveDate": "12/16/2024",
    "licenseExpirationDate": "12/15/2026",
    "dataDate": "10/18/2025",
    "capacity": 0,
    "address": "141 W HOBSONWAY",
    "city": "BLYTHE",
    "zip": "92225",
    "county": "RIVERSIDE",
    "phone": "(760) 257-6643",
    "lat": 33.610563,
    "lng": -114.597873
  },
  {
    "id": "250000177",
    "name": "INNERCARE - BLYTHE",
    "npi": "1124115431",
    "hcaiId": "306330021",
    "businessName": "CLINICAS DE SALUD DEL PUEBLO, INC.",
    "contactEmail": "YVONNEB@INNERCARE.ORG",
    "categoryName": "PRIMARY CARE CLINIC",
    "categoryCode": "COMTYC",
    "licenseStatus": "ACTIVE",
    "inService": true,
    "licenseNumber": "250000024",
    "licenseEffectiveDate": "02/04/2025",
    "licenseExpirationDate": "02/03/2026",
    "dataDate": "10/18/2025",
    "capacity": 0,
    "address": "1415 W HOBSONWAY",
    "city": "BLYTHE",
    "zip": "92225",
    "county": "RIVERSIDE",
    "phone": "(760) 922-4981",
    "lat": 33.611924,
    "lng": -114.613272
  },
  {
    "id": "250000042",
    "name": "PALO VERDE HOSPITAL",
    "npi": "1194705202",
    "hcaiId": "106331288",
    "businessName": "PALO VERDE HEALTHCARE DISTRICT",
    "contactEmail": "MICHAEL.ROSE@PALOVERDEHOSPITAL.ORG",
    "categoryName": "GENERAL ACUTE CARE HOSPITAL",
    "categoryCode": "GACH",
    "licenseStatus": "ACTIVE",
    "inService": true,
    "licenseNumber": "250000184",
    "licenseEffectiveDate": "01/01/2025",
    "licenseExpirationDate": "12/31/2025",
    "dataDate": "10/18/2025",
    "capacity": 25,
    "address": "250 N 1ST ST",
    "city": "BLYTHE",
    "zip": "92225",
    "county": "RIVERSIDE",
    "phone": "(760) 922-7200",
    "lat": 33.612687,
    "lng": -114.595218
  },
  {
    "id": "630016129",
    "name": "PALO VERDE HOSPITAL COMMUNITY CLINIC",
    "npi": null,
    "hcaiId": null,
    "businessName": "PALO VERDE HEALTHCARE DISTRICT",
    "contactEmail": null,
    "categoryName": "PRIMARY CARE CLINIC",
    "categoryCode": "RHC",
    "licenseStatus": "ACTIVE",
    "inService": true,
    "licenseNumber": "250000184",
    "licenseEffectiveDate": "01/01/2025",
    "licenseExpirationDate": "12/31/2025",
    "dataDate": "10/18/2025",
    "capacity": 0,
    "address": "205 N 1ST ST",
    "city": "BLYTHE",
    "zip": "92225",
    "county": "RIVERSIDE",
    "phone": "(760) 921-5239",
    "lat": 33.612309,
    "lng": -114.595632
  },
  {
    "id": "630026820",
    "name": "SAC BLYTHE MEDICAL",
    "npi": "1801270137",
    "hcaiId": null,
    "businessName": "SAC HEALTH SYSTEM",
    "contactEmail": null,
    "categoryName": "PRIMARY CARE CLINIC",
    "categoryCode": "COMTYC",
    "licenseStatus": "ACTIVE",
    "inService": true,
    "licenseNumber": "550003574",
    "licenseEffectiveDate": "07/15/2025",
    "licenseExpirationDate": "07/14/2026",
    "dataDate": "10/18/2025",
    "capacity": 0,
    "address": "332 W HOBSONWAY",
    "city": "BLYTHE",
    "zip": "92225",
    "county": "RIVERSIDE",
    "phone": null,
    "lat": 33.61016413,
    "lng": -114.6003017
  },
  {
    "id": "630026821",
    "name": "SAC BLYTHE MEDICAL AND BEHAVIORAL HEALTH",
    "npi": "1801270137",
    "hcaiId": null,
    "businessName": "SAC HEALTH SYSTEM",
    "contactEmail": null,
    "categoryName": "PRIMARY CARE CLINIC",
    "categoryCode": "COMTYC",
    "licenseStatus": "ACTIVE",
    "inService": true,
    "licenseNumber": "550003574",
    "licenseEffectiveDate": "07/15/2025",
    "licenseExpirationDate": "07/14/2026",
    "dataDate": "10/18/2025",
    "capacity": 0,
    "address": "322 W HOBSONWAY",
    "city": "BLYTHE",
    "zip": "92225",
    "county": "RIVERSIDE",
    "phone": null,
    "lat": 33.610014,
    "lng": -114.6000735
  }
]