[
  {
    "id": "250000284",
    "name": "HIGHLAND SPRINGS CARE CENTER",
    "npi": "1376963785",
    "hcaiId": "206331111",
    "businessName": "BEAUMONT MANOR LLC",
    "contactEmail": "FAC68ADMIN@LONGWOODMGMT.COM",
    "categoryName": "SKILLED NURSING FACILITY",
    "categoryCode": "SNF",
    "licenseStatus": "ACTIVE",
    "inService": true,
    "licenseNumber": "250000112",
    "licenseEffectiveDate": "07/29/2025",
    "licenseExpirationDate": "07/28/2026",
    "dataDate": "10/18/2025",
    "capacity": 87,
    "address": "1441 MICHIGAN AVE",
    "city": "BEAUMONT",
    "zip": "92223",
    "county": "RIVERSIDE",
    "phone": "(951) 769-2500",
    "lat": 33.948342,
    "lng": -116.969688
  },
  {
    "id": "630012361",
    "name": "HIGHLAND SPRINGS SURGICAL CENTER",
    "npi": "1376794172",
    "hcaiId": null,
    "businessName": null,
    "contactEmail": null,
    "categoryName": "SURGICAL CLINIC",
    "categoryCode": "ASC/SURGC",
    "licenseStatus": null,
    "inService": null,
    "licenseNumber": null,
    "licenseEffectiveDate": null,
    "licenseExpirationDate": null,
    "dataDate": "10/18/2025",
    "capacity": 0,
    "address": "81 HIGHLAND SPGS AVE, SUITE 200A",
    "city": "BEAUMONT",
    "zip": "92223",
    "county": "RIVERSIDE",
    "phone": "(951) 849-3511",
    "lat": 33.919362,
    "lng": -116.947548
  },
  {
    "id": "250001772",
    "name": "INDEPENDENT OPTIONS, INC./DONNA HOUSE",
    "npi": "1851463483",
    "hcaiId": null,
    "businessName": "INDEPENDENT OPTIONS, INC.",
    "contactEmail": "TDAVILA@INDEPENDENTOPTIONS.ORG",
    "categoryName": "INTERMEDIATE CARE FACILITY-DD/H/N/CN/IID",
    "categoryCode": "ICFDDN",
    "licenseStatus": "ACTIVE",
    "inService": true,
    "licenseNumber": "250000774",
    "licenseEffectiveDate": "04/03/2025",
    "licenseExpirationDate": "04/02/2026",
    "dataDate": "10/18/2025",
    "capacity": 6,
    "address": "680 DONNA DR",
    "city": "BEAUMONT",
    "zip": "92223",
    "county": "RIVERSIDE",
    "phone": "(951) 769-6406",
    "lat": 33.945543,
    "lng": -116.9733105
  },
  {
    "id": "250001747",
    "name": "INDEPENDENT OPTIONS, INC./ORANGE HOUSE",
    "npi": "1851463483",
    "hcaiId": null,
    "businessName": "INDEPENDENT OPTIONS, INC.",
    "contactEmail": "TDAVILA@INDEPENDENTOPTIONS.ORG",
    "categoryName": "INTERMEDIATE CARE FACILITY-DD/H/N/CN/IID",
    "categoryCode": "ICFDDH",
    "licenseStatus": "ACTIVE",
    "inService": true,
    "licenseNumber": "250000760",
    "licenseEffectiveDate": "11/29/2024",
    "licenseExpirationDate": "11/28/2025",
    "dataDate": "10/18/2025",
    "capacity": 6,
    "address": "1250 ORANGE AVE",
    "city": "BEAUMONT",
    "zip": "92223",
    "county": "RIVERSIDE",
    "phone": "(951) 769-9010",
    "lat": 33.941889,
    "lng": -116.974035
  },
  {
    "id": "630013482",
    "name": "LOS FELIZ HOSPICE HEALTH CARE",
    "npi": "1366723181",
    "hcaiId": "406197873",
    "businessName": "LOS FELIZ HOSPICE HEALTH CARE",
    "contactEmail": "LOSFELIZHOSPICE@GMAIL.COM",
    "categoryName": "HOSPICE",
    "categoryCode": "HOSPICE",
    "licenseStatus": "ACTIVE",
    "inService": true,
    "licenseNumber": "550002424",
    "licenseEffectiveDate": "09/25/2025",
    "licenseExpirationDate": "09/24/2027",
    "dataDate": "10/18/2025",
    "capacity": 0,
    "address": "790 BEAUMONT AVE, SUITE 122",
    "city": "BEAUMONT",
    "zip": "92223",
    "county": "RIVERSIDE",
    "phone": "(909) 396-0240",
    "lat": 33.93224501,
    "lng": -116.976671
  },
  {
    "id": "630019007",
    "name": "NEIGHBORHOOD HEALTHCARE - BEAUMONT",
    "npi": null,
    "hcaiId": null,
    "businessName": "NEIGHBORHOOD HEALTHCARE",
    "contactEmail": null,
    "categoryName": "PRIMARY CARE CLINIC",
    "categoryCode": "COMTYC",
    "licenseStatus": "ACTIVE",
    "inService": true,
    "licenseNumber": "550003562",
    "licenseEffectiveDate": "07/06/2025",
    "licenseExpirationDate": "07/05/2026",
    "dataDate": "10/18/2025",
    "capacity": 0,
    "address": "831 N HIGHLAND SPRINGS AVE, SUITE 301",
    "city": "BEAUMONT",
    "zip": "92223",
    "county": "RIVERSIDE",
    "phone": null,
    "lat": 33.9281243,
    "lng": -116.9469619
  },
  {
    "id": "630018044",
    "name": "NEW ERA CONGREGATE LIVING FACILITY LLC",
    "npi": null,
    "hcaiId": "206330197",
    "businessName": "NEW ERA CONGREGATE LIVING FACILITY LLC",
    "contactEmail": "NEWERACONGREGATELIVING@GMAIL.COM",
    "categoryName": "CONGREGATE LIVING HEALTH FACILITY",
    "categoryCode": "CLHF",
    "licenseStatus": "ACTIVE",
    "inService": true,
    "licenseNumber": "550005119",
    "licenseEffectiveDate": "11/19/2025",
    "licenseExpirationDate": "11/18/2026",
    "dataDate": "10/18/2025",
    "capacity": 6,
    "address": "1180 SEA LAVENDER LN",
    "city": "BEAUMONT",
    "zip": "92223",
    "county": "RIVERSIDE",
    "phone": "(951) 236-1095",
    "lat": 33.940188,
    "lng": -116.9598555
  },
  {
    "id": "250000148",
    "name": "OAK GLEN POST ACUTE",
    "npi": "1063494276",
    "hcaiId": "206331349",
    "businessName": "MIRAVILLA SNF HEALTHCARE, LLC",
    "contactEmail": "CHET.HAMILTON@OAKGLENPA.COM",
    "categoryName": "SKILLED NURSING FACILITY",
    "categoryCode": "SNF",
    "licenseStatus": "ACTIVE",
    "inService": true,
    "licenseNumber": "250000209",
    "licenseEffectiveDate": "11/17/2024",
    "licenseExpirationDate": "11/16/2025",
    "dataDate": "10/18/2025",
    "capacity": 59,
    "address": "9246 AVENIDA MIRAVILLA",
    "city": "CHERRY VALLEY",
    "zip": "92223",
    "county": "RIVERSIDE",
    "phone": "(951) 845-3194",
    "lat": 33.985809,
    "lng": -116.9636805
  },
  {
    "id": "630012167",
    "name": "RAI E 6TH STREET BEAUMONT",
    "npi": "1699928457",
    "hcaiId": "306334560",
    "businessName": "RAI CARE CENTERS OF SOUTHERN CALIFORNIA II, LLC",
    "contactEmail": "CLINIC7195@FMC-NA.COM",
    "categoryName": "CHRONIC DIALYSIS CLINIC",
    "categoryCode": "ESRD/CDC",
    "licenseStatus": "ACTIVE",
    "inService": true,
    "licenseNumber": "550001103",
    "licenseEffectiveDate": "11/07/2025",
    "licenseExpirationDate": "11/06/2026",
    "dataDate": "10/18/2025",
    "capacity": 24,
    "address": "1536 E 6TH ST",
    "city": "BEAUMONT",
    "zip": "92223",
    "county": "RIVERSIDE",
    "phone": "(951) 769-5072",
    "lat": 33.929937,
    "lng": -116.9530785
  },
  {
    "id": "250000110",
    "name": "VISTA REAL POST ACUTE",
    "npi": "1598746182",
    "hcaiId": "206331214",
    "businessName": "BEAUMONT SNF HEALTHCARE, LLC",
    "contactEmail": "KARSTEN.LESTER@VISTAREALPA.COM",
    "categoryName": "SKILLED NURSING FACILITY",
    "categoryCode": "SNF",
    "licenseStatus": "ACTIVE",
    "inService": true,
    "licenseNumber": "250000154",
    "licenseEffectiveDate": "11/02/2025",
    "licenseExpirationDate": "11/01/2026",
    "dataDate": "10/18/2025",
    "capacity": 57,
    "address": "1665 E 8TH ST",
    "city": "BEAUMONT",
    "zip": "92223",
    "county": "RIVERSIDE",
    "phone": "(951) 845-3125",
    "lat": 33.932124,
    "lng": -116.948538
  }
]