[
  {
    "id": "060001758",
    "name": "DAYOUT ADHC - BRAWLEY",
    "npi": null,
    "hcaiId": null,
    "businessName": "DACARE, INC.",
    "contactEmail": "BRAWLEY@DAYOUTADHC.COM",
    "categoryName": "ADULT DAY HEALTH CARE",
    "categoryCode": "ADHC",
    "licenseStatus": "ACTIVE",
    "inService": true,
    "licenseNumber": "060000576",
    "licenseEffectiveDate": "11/10/2025",
    "licenseExpirationDate": "11/09/2026",
    "dataDate": "10/18/2025",
    "capacity": 0,
    "address": "616 MAIN ST",
    "city": "BRAWLEY",
    "zip": "92227",
    "county": "IMPERIAL",
    "phone": null,
    "lat": 32.978313,
    "lng": -115.5316815
  },
  {
    "id": "630009581",
    "name": "FRESENIUS MEDICAL CARE OF BRAWLEY",
    "npi": "1891729133",
    "hcaiId": "306134023",
    "businessName": "BIO-MEDICAL APPLICATIONS OF CALIFORNIA, INC.",
    "contactEmail": "CLINIC3845@FMC-NA.COM",
    "categoryName": "CHRONIC DIALYSIS CLINIC",
    "categoryCode": "ESRD/CDC",
    "licenseStatus": "ACTIVE",
    "inService": true,
    "licenseNumber": "550000158",
    "licenseEffectiveDate": "04/25/2025",
    "licenseExpirationDate": "04/24/2026",
    "dataDate": "10/18/2025",
    "capacity": 20,
    "address": "751 W LEGION RD, SUITE 100",
    "city": "BRAWLEY",
    "zip": "92227",
    "county": "IMPERIAL",
    "phone": "(760) 344-3766",
    "lat": 32.960493,
    "lng": -115.5539205
  },
  {
    "id": "630014947",
    "name": "IMPERIAL VALLEY FAMILY CARE MEDICAL GROUP",
    "npi": "1508295502",
    "hcaiId": null,
    "businessName": null,
    "contactEmail": null,
    "categoryName": "PRIMARY CARE CLINIC",
    "categoryCode": "RHC/MD",
    "licenseStatus": null,
    "inService": null,
    "licenseNumber": null,
    "licenseEffectiveDate": null,
    "licenseExpirationDate": null,
    "dataDate": "10/18/2025",
    "capacity": 0,
    "address": "608 G ST, SUITE 1A",
    "city": "BRAWLEY",
    "zip": "92227",
    "county": "IMPERIAL",
    "phone": "(760) 351-1011",
    "lat": 32.977206,
    "lng": -115.53183
  },
  {
    "id": "630026777",
    "name": "IMPERIAL VALLEY RURAL HEALTH CLINIC",
    "npi": null,
    "hcaiId": null,
    "businessName": null,
    "contactEmail": "EDIAZ@TTVOMD.COM",
    "categoryName": "PRIMARY CARE CLINIC",
    "categoryCode": "RHC",
    "licenseStatus": null,
    "inService": null,
    "licenseNumber": null,
    "licenseEffectiveDate": null,
    "licenseExpirationDate": null,
    "dataDate": "10/18/2025",
    "capacity": 0,
    "address": "290 MAIN ST, SUITE A",
    "city": "BRAWLEY",
    "zip": "92227",
    "county": "IMPERIAL",
    "phone": "(442) 283-3494",
    "lat": 32.978331,
    "lng": -115.537572
  },
  {
    "id": "090000180",
    "name": "INNERCARE - BRAWLEY",
    "npi": "1649269747",
    "hcaiId": "306130675",
    "businessName": "CLINICAS DE SALUD DEL PUEBLO, INC.",
    "contactEmail": "YVONNEB@INNERCARE.ORG",
    "categoryName": "PRIMARY CARE CLINIC",
    "categoryCode": "COMTYC",
    "licenseStatus": "ACTIVE",
    "inService": true,
    "licenseNumber": "090000030",
    "licenseEffectiveDate": "05/31/2025",
    "licenseExpirationDate": "05/30/2026",
    "dataDate": "10/18/2025",
    "capacity": 0,
    "address": "900 MAIN ST",
    "city": "BRAWLEY",
    "zip": "92227",
    "county": "IMPERIAL",
    "phone": "(760) 344-6471",
    "lat": 32.978493,
    "lng": -115.5285585
  },
  {
    "id": "630027846",
    "name": "INNERCARE - BRAWLEY DENTAL",
    "npi": null,
    "hcaiId": null,
    "businessName": "CLINICAS DE SALUD DEL PUEBLO, INC.",
    "contactEmail": null,
    "categoryName": "PRIMARY CARE CLINIC",
    "categoryCode": "COMTYC",
    "licenseStatus": "ACTIVE",
    "inService": true,
    "licenseNumber": "550003373",
    "licenseEffectiveDate": "02/04/2025",
    "licenseExpirationDate": "02/03/2026",
    "dataDate": "10/18/2025",
    "capacity": 0,
    "address": "283 MAIN ST, UNIT 102",
    "city": "BRAWLEY",
    "zip": "92227",
    "county": "IMPERIAL",
    "phone": null,
    "lat": 32.979418,
    "lng": -115.537942
  },
  {
    "id": "630018216",
    "name": "PIONEERS CHILDREN'S HEALTH CENTER",
    "npi": "1760995625",
    "hcaiId": null,
    "businessName": "IMPERIAL VALLEY HEALTHCARE DISTRICT",
    "contactEmail": null,
    "categoryName": "PRIMARY CARE CLINIC",
    "categoryCode": "RHC/OP",
    "licenseStatus": "ACTIVE",
    "inService": true,
    "licenseNumber": "090000087",
    "licenseEffectiveDate": "07/02/2025",
    "licenseExpirationDate": "06/29/2026",
    "dataDate": "10/18/2025",
    "capacity": 0,
    "address": "565 MAIN ST",
    "city": "BRAWLEY",
    "zip": "92227",
    "county": "IMPERIAL",
    "phone": null,
    "lat": 32.978988,
    "lng": -115.532289
  },
  {
    "id": "630015809",
    "name": "PIONEERS HEALTH CENTER",
    "npi": "1720401607",
    "hcaiId": null,
    "businessName": "IMPERIAL VALLEY HEALTHCARE DISTRICT",
    "contactEmail": null,
    "categoryName": "PRIMARY CARE CLINIC",
    "categoryCode": "RHC/OP",
    "licenseStatus": "ACTIVE",
    "inService": true,
    "licenseNumber": "090000087",
    "licenseEffectiveDate": "07/02/2025",
    "licenseExpirationDate": "06/29/2026",
    "dataDate": "10/18/2025",
    "capacity": 0,
    "address": "751 W LEGION RD, SUITE 103",
    "city": "BRAWLEY",
    "zip": "92227",
    "county": "IMPERIAL",
    "phone": "(760) 351-4400",
    "lat": 32.960493,
    "lng": -115.5539205
  },
  {
    "id": "090000146",
    "name": "PIONEERS MEMORIAL HOSPITAL",
    "npi": "1073519443",
    "hcaiId": "106130760",
    "businessName": "IMPERIAL VALLEY HEALTHCARE DISTRICT",
    "contactEmail": "CZAMORA@PMHD.ORG",
    "categoryName": "GENERAL ACUTE CARE HOSPITAL",
    "categoryCode": "GACH",
    "licenseStatus": "ACTIVE",
    "inService": true,
    "licenseNumber": "090000087",
    "licenseEffectiveDate": "07/02/2025",
    "licenseExpirationDate": "06/29/2026",
    "dataDate": "10/18/2025",
    "capacity": 107,
    "address": "207 W LEGION RD",
    "city": "BRAWLEY",
    "zip": "92227",
    "county": "IMPERIAL",
    "phone": "(760) 351-3290",
    "lat": 32.96001101,
    "lng": -115.5530186
  },
  {
    "id": "090000015",
    "name": "PIONEERS MEMORIAL SKILLED NURSING CENTER",
    "npi": "1699908962",
    "hcaiId": "206130764",
    "businessName": "IMPERIAL VALLEY HEALTHCARE DISTRICT",
    "contactEmail": "FACILITYMANAGER@IMPERIALHEIGHTSHC.COM",
    "categoryName": "SKILLED NURSING FACILITY",
    "categoryCode": "SNF",
    "licenseStatus": "ACTIVE",
    "inService": true,
    "licenseNumber": "090000087",
    "licenseEffectiveDate": "07/02/2025",
    "licenseExpirationDate": "06/29/2026",
    "dataDate": "10/18/2025",
    "capacity": 99,
    "address": "320 CATTLE CALL DR",
    "city": "BRAWLEY",
    "zip": "92227",
    "county": "IMPERIAL",
    "phone": "(760) 344-5431",
    "lat": 32.9704573,
    "lng": -115.5462273
  }
]