[
  {
    "id": "240001917",
    "name": "BANNING DIALYSIS",
    "npi": "1962476499",
    "hcaiId": "306334540",
    "businessName": "DVA RENAL HEALTHCARE, INC.",
    "contactEmail": "CAL_C@DAVITA.COM",
    "categoryName": "CHRONIC DIALYSIS CLINIC",
    "categoryCode": "ESRD/CDC",
    "licenseStatus": "ACTIVE",
    "inService": true,
    "licenseNumber": "240000866",
    "licenseEffectiveDate": "09/03/2025",
    "licenseExpirationDate": "11/20/2025",
    "dataDate": "10/18/2025",
    "capacity": 18,
    "address": "6090 W RAMSEY ST",
    "city": "BANNING",
    "zip": "92220",
    "county": "RIVERSIDE",
    "phone": "(951) 845-4494",
    "lat": 33.928722,
    "lng": -116.9435565
  },
  {
    "id": "630014110",
    "name": "BANNING FAMILY COMMUNITY HEALTH CENTER",
    "npi": "1578823647",
    "hcaiId": "306334677",
    "businessName": "INLAND BEHAVIORAL AND HEALTH SERVICES, INC.",
    "contactEmail": "SDOTSON@IBHEALTH.ORG",
    "categoryName": "PRIMARY CARE CLINIC",
    "categoryCode": "COMTYC",
    "licenseStatus": "ACTIVE",
    "inService": true,
    "licenseNumber": "550002266",
    "licenseEffectiveDate": "05/23/2025",
    "licenseExpirationDate": "05/22/2026",
    "dataDate": "10/18/2025",
    "capacity": 0,
    "address": "1070 E RAMSEY ST",
    "city": "BANNING",
    "zip": "92220",
    "county": "RIVERSIDE",
    "phone": "(951) 846-2560",
    "lat": 33.925032,
    "lng": -116.864469
  },
  {
    "id": "250001739",
    "name": "INDEPENDENT OPTIONS, INC./RED BLUFF HOUSE",
    "npi": "1851463483",
    "hcaiId": null,
    "businessName": "INDEPENDENT OPTIONS, INC.",
    "contactEmail": "TDAVILA@INDEPENDENTOPTIONS.ORG",
    "categoryName": "INTERMEDIATE CARE FACILITY-DD/H/N/CN/IID",
    "categoryCode": "ICFDDH",
    "licenseStatus": "ACTIVE",
    "inService": true,
    "licenseNumber": "250000757",
    "licenseEffectiveDate": "11/29/2024",
    "licenseExpirationDate": "11/28/2025",
    "dataDate": "10/18/2025",
    "capacity": 6,
    "address": "3648 RED BLUFF LN",
    "city": "BANNING",
    "zip": "92220",
    "county": "RIVERSIDE",
    "phone": "(951) 849-4003",
    "lat": 33.935967,
    "lng": -116.9166375
  },
  {
    "id": "250000419",
    "name": "MORONGO INDIAN HEALTH CLINIC",
    "npi": null,
    "hcaiId": null,
    "businessName": null,
    "contactEmail": null,
    "categoryName": "PRIMARY CARE CLINIC",
    "categoryCode": "COMTYC",
    "licenseStatus": null,
    "inService": null,
    "licenseNumber": null,
    "licenseEffectiveDate": null,
    "licenseExpirationDate": null,
    "dataDate": "10/18/2025",
    "capacity": 0,
    "address": "11555 1/2 POTRERO RD",
    "city": "BANNING",
    "zip": "92220",
    "county": "RIVERSIDE",
    "phone": "(951) 849-4761",
    "lat": 33.95358556,
    "lng": -116.8290979
  },
  {
    "id": "250000101",
    "name": "SAN GORGONIO MEMORIAL HOSPITAL",
    "npi": "1568469997",
    "hcaiId": "106331326",
    "businessName": "SAN GORGONIO MEMORIAL HEALTHCARE DISTRICT",
    "contactEmail": "ABRADY@SGMH.ORG",
    "categoryName": "GENERAL ACUTE CARE HOSPITAL",
    "categoryCode": "GACH",
    "licenseStatus": "ACTIVE",
    "inService": true,
    "licenseNumber": "250000199",
    "licenseEffectiveDate": "05/01/2025",
    "licenseExpirationDate": "04/30/2026",
    "dataDate": "10/18/2025",
    "capacity": 79,
    "address": "600 N HIGHLAND SPRINGS AVE",
    "city": "BANNING",
    "zip": "92220",
    "county": "RIVERSIDE",
    "phone": "(951) 769-2101",
    "lat": 33.931944,
    "lng": -116.9457705
  },
  {
    "id": "250000619",
    "name": "SUNDANCE CREEK POST ACUTE",
    "npi": "1255312831",
    "hcaiId": "206334014",
    "businessName": "CHERRY VALLEY SNF HEALTHCARE, LLC",
    "contactEmail": "AVERY.MCCUSKER@SUNDANCECREEKPA.COM",
    "categoryName": "SKILLED NURSING FACILITY",
    "categoryCode": "SNF",
    "licenseStatus": "ACTIVE",
    "inService": true,
    "licenseNumber": "250000298",
    "licenseEffectiveDate": "05/01/2025",
    "licenseExpirationDate": "04/30/2026",
    "dataDate": "10/18/2025",
    "capacity": 132,
    "address": "5800 W WILSON ST",
    "city": "BANNING",
    "zip": "92220",
    "county": "RIVERSIDE",
    "phone": "(951) 845-1606",
    "lat": 33.932124,
    "lng": -116.9419365
  },
  {
    "id": "250000016",
    "name": "SUNRISE POST ACUTE",
    "npi": "1790473064",
    "hcaiId": "206331213",
    "businessName": "BANNING SNF HEALTHCARE, LLC",
    "contactEmail": "PAUL.HINOJOSA@SUNRISEPA.COM",
    "categoryName": "SKILLED NURSING FACILITY",
    "categoryCode": "SNF",
    "licenseStatus": "ACTIVE",
    "inService": true,
    "licenseNumber": "250000153",
    "licenseEffectiveDate": "05/30/2025",
    "licenseExpirationDate": "05/29/2026",
    "dataDate": "10/18/2025",
    "capacity": 64,
    "address": "3476 W WILSON ST",
    "city": "BANNING",
    "zip": "92220",
    "county": "RIVERSIDE",
    "phone": "(951) 849-4723",
    "lat": 33.932187,
    "lng": -116.914923
  }
]