[
  {
    "id": "060001984",
    "name": "ALEGRIA ADULT DAY HEALTH CARE CENTER",
    "npi": null,
    "hcaiId": null,
    "businessName": "ALEGRIA, INC.",
    "contactEmail": "ALEGRIA_CALEXICO@HOTMAIL.COM",
    "categoryName": "ADULT DAY HEALTH CARE",
    "categoryCode": "ADHC",
    "licenseStatus": "ACTIVE",
    "inService": true,
    "licenseNumber": "060000790",
    "licenseEffectiveDate": "08/03/2025",
    "licenseExpirationDate": "08/02/2026",
    "dataDate": "10/18/2025",
    "capacity": 0,
    "address": "1101 C N PERRY RD",
    "city": "CALEXICO",
    "zip": "92231",
    "county": "IMPERIAL",
    "phone": "(760) 768-8419",
    "lat": 32.680089,
    "lng": -115.4928285
  },
  {
    "id": "090001596",
    "name": "CALEXICO HEALTH CENTER",
    "npi": "1437122769",
    "hcaiId": null,
    "businessName": "IMPERIAL VALLEY HEALTHCARE DISTRICT",
    "contactEmail": null,
    "categoryName": "PRIMARY CARE CLINIC",
    "categoryCode": "RHC/OP",
    "licenseStatus": "ACTIVE",
    "inService": true,
    "licenseNumber": "090000087",
    "licenseEffectiveDate": "07/02/2025",
    "licenseExpirationDate": "06/29/2026",
    "dataDate": "10/18/2025",
    "capacity": 0,
    "address": "450 E BIRCH ST",
    "city": "CALEXICO",
    "zip": "92231",
    "county": "IMPERIAL",
    "phone": "(760) 768-6262",
    "lat": 32.678631,
    "lng": -115.491348
  },
  {
    "id": "090001344",
    "name": "CALEXICO OUTPATIENT CENTER",
    "npi": "1598840258",
    "hcaiId": null,
    "businessName": "CITY OF EL CENTRO",
    "contactEmail": null,
    "categoryName": "PRIMARY CARE CLINIC",
    "categoryCode": "RHC/OP",
    "licenseStatus": "ACTIVE",
    "inService": true,
    "licenseNumber": "090000004",
    "licenseEffectiveDate": "06/30/2025",
    "licenseExpirationDate": "06/29/2026",
    "dataDate": "10/18/2025",
    "capacity": 0,
    "address": "495 E BIRCH ST",
    "city": "CALEXICO",
    "zip": "92231",
    "county": "IMPERIAL",
    "phone": "(760) 357-0508",
    "lat": 32.679657,
    "lng": -115.492932
  },
  {
    "id": "630018059",
    "name": "CALEXICO WELLNESS CENTER",
    "npi": null,
    "hcaiId": "306130785",
    "businessName": "CALEXICO WELLNESS CENTER",
    "contactEmail": "BMORALES@CWCCA.ORG",
    "categoryName": "PRIMARY CARE CLINIC",
    "categoryCode": "COMTYC",
    "licenseStatus": "ACTIVE",
    "inService": true,
    "licenseNumber": "550008659",
    "licenseEffectiveDate": "07/14/2025",
    "licenseExpirationDate": "07/13/2026",
    "dataDate": "10/18/2025",
    "capacity": 0,
    "address": "420 HEFFERNAN AVE, SUITE D",
    "city": "CALEXICO",
    "zip": "92231",
    "county": "IMPERIAL",
    "phone": "(760) 270-9126",
    "lat": 32.669271,
    "lng": -115.494498
  },
  {
    "id": "090001305",
    "name": "DE ANZA CLINIC",
    "npi": "1356524599",
    "hcaiId": null,
    "businessName": null,
    "contactEmail": null,
    "categoryName": "PRIMARY CARE CLINIC",
    "categoryCode": "RHC/MD",
    "licenseStatus": null,
    "inService": null,
    "licenseNumber": null,
    "licenseEffectiveDate": null,
    "licenseExpirationDate": null,
    "dataDate": "10/18/2025",
    "capacity": 0,
    "address": "1001 BLAIR AVE",
    "city": "CALEXICO",
    "zip": "92231",
    "county": "IMPERIAL",
    "phone": "(760) 768-5055",
    "lat": 32.678172,
    "lng": -115.4907664
  },
  {
    "id": "080001619",
    "name": "FRESENIUS MEDICAL CARE CALEXICO DIALYSIS",
    "npi": "1487766283",
    "hcaiId": "306134031",
    "businessName": "BIO-MEDICAL APPLICATIONS OF CALIFORNIA, INC.",
    "contactEmail": "CLINIC1839@FMC-NA.COM",
    "categoryName": "CHRONIC DIALYSIS CLINIC",
    "categoryCode": "ESRD/CDC",
    "licenseStatus": "ACTIVE",
    "inService": true,
    "licenseNumber": "080000707",
    "licenseEffectiveDate": "04/09/2025",
    "licenseExpirationDate": "04/08/2026",
    "dataDate": "10/18/2025",
    "capacity": 24,
    "address": "351 E BIRCH ST",
    "city": "CALEXICO",
    "zip": "92231",
    "county": "IMPERIAL",
    "phone": "(760) 357-2400",
    "lat": 32.67917593,
    "lng": -115.4930026
  },
  {
    "id": "630017826",
    "name": "HAPPY DAYS ADULT DAY HEALTH CARE CENTER, INC.",
    "npi": null,
    "hcaiId": null,
    "businessName": "HAPPY DAYS ADULT DAY HEALTH CARE CENTER, INC.",
    "contactEmail": "EDIAZ@LEGACYMEDICALCENTER.COM",
    "categoryName": "ADULT DAY HEALTH CARE",
    "categoryCode": "ADHC",
    "licenseStatus": "ACTIVE",
    "inService": true,
    "licenseNumber": "550005467",
    "licenseEffectiveDate": "03/27/2025",
    "licenseExpirationDate": "03/26/2026",
    "dataDate": "10/18/2025",
    "capacity": 0,
    "address": "222 E COLE BLVD",
    "city": "CALEXICO",
    "zip": "92231",
    "county": "IMPERIAL",
    "phone": "(760) 352-2551",
    "lat": 32.693427,
    "lng": -115.495002
  },
  {
    "id": "090000181",
    "name": "INNERCARE - CALEXICO",
    "npi": "1962599266",
    "hcaiId": "306131254",
    "businessName": "CLINICAS DE SALUD DEL PUEBLO, INC.",
    "contactEmail": "YVONNEB@INNERCARE.ORG",
    "categoryName": "PRIMARY CARE CLINIC",
    "categoryCode": "COMTYC",
    "licenseStatus": "ACTIVE",
    "inService": true,
    "licenseNumber": "090000137",
    "licenseEffectiveDate": "05/16/2025",
    "licenseExpirationDate": "05/15/2026",
    "dataDate": "10/18/2025",
    "capacity": 0,
    "address": "223 W COLE BLVD",
    "city": "CALEXICO",
    "zip": "92231",
    "county": "IMPERIAL",
    "phone": "(760) 357-2020",
    "lat": 32.694642,
    "lng": -115.502841
  }
]