[
  {
    "id": "630023545",
    "name": "CENTRAL NEIGHBORHOOD HEALTH FOUNDATION - COACHELLA",
    "npi": "1841437241",
    "hcaiId": null,
    "businessName": "H STREET CLINIC, INC.",
    "contactEmail": "KORDUNA@CNHFCLINICS.ORG",
    "categoryName": "PRIMARY CARE CLINIC",
    "categoryCode": "COMTYC",
    "licenseStatus": "ACTIVE",
    "inService": true,
    "licenseNumber": "550000837",
    "licenseEffectiveDate": "12/09/2024",
    "licenseExpirationDate": "12/08/2025",
    "dataDate": "10/18/2025",
    "capacity": 0,
    "address": "1490 / 1494 W. SIXTH ST",
    "city": "COACHELLA",
    "zip": "92236",
    "county": "RIVERSIDE",
    "phone": "(213) 536-5815",
    "lat": 33.678459,
    "lng": -116.1764955
  },
  {
    "id": "630014049",
    "name": "COACHELLA KIDNEY INSTITUTE",
    "npi": "1851654552",
    "hcaiId": "306334667",
    "businessName": "COACHELLA KIDNEY INSTITUTE LLC",
    "contactEmail": "YVONNEH@KIDNEYINSTITUTES.COM",
    "categoryName": "CHRONIC DIALYSIS CLINIC",
    "categoryCode": "ESRD/CDC",
    "licenseStatus": "ACTIVE",
    "inService": true,
    "licenseNumber": "550002205",
    "licenseEffectiveDate": "03/06/2025",
    "licenseExpirationDate": "03/05/2026",
    "dataDate": "10/18/2025",
    "capacity": 0,
    "address": "1413 6TH ST",
    "city": "COACHELLA",
    "zip": "92236",
    "county": "RIVERSIDE",
    "phone": "(760) 391-5300",
    "lat": 33.678486,
    "lng": -116.177436
  },
  {
    "id": "630025136",
    "name": "DAP HEALTH - COACHELLA VALLEY COMMUNITY HEALTH CENTER",
    "npi": null,
    "hcaiId": null,
    "businessName": "DAP HEALTH, INC.",
    "contactEmail": null,
    "categoryName": "PRIMARY CARE CLINIC",
    "categoryCode": "COMTYC",
    "licenseStatus": "ACTIVE",
    "inService": true,
    "licenseNumber": "550001467",
    "licenseEffectiveDate": "01/25/2025",
    "licenseExpirationDate": "01/24/2026",
    "dataDate": "10/18/2025",
    "capacity": 0,
    "address": "49869 CALHOUN ST",
    "city": "COACHELLA",
    "zip": "92236",
    "county": "RIVERSIDE",
    "phone": null,
    "lat": 33.68645307,
    "lng": -116.2078134
  },
  {
    "id": "630011510",
    "name": "INNERCARE - COACHELLA",
    "npi": "1932381605",
    "hcaiId": "306334745",
    "businessName": "CLINICAS DE SALUD DEL PUEBLO, INC.",
    "contactEmail": "YVONNEB@INNERCARE.ORG",
    "categoryName": "PRIMARY CARE CLINIC",
    "categoryCode": "COMTYC",
    "licenseStatus": "ACTIVE",
    "inService": true,
    "licenseNumber": "550000613",
    "licenseEffectiveDate": "11/30/2024",
    "licenseExpirationDate": "11/29/2025",
    "dataDate": "10/18/2025",
    "capacity": 0,
    "address": "50249 CESAR CHAVEZ ST, UNIT K",
    "city": "COACHELLA",
    "zip": "92236",
    "county": "RIVERSIDE",
    "phone": "(760) 393-0555",
    "lat": 33.682428,
    "lng": -116.182503
  },
  {
    "id": "250001816",
    "name": "PLANNED PARENTHOOD - COACHELLA VALLEY",
    "npi": "1336174325",
    "hcaiId": "306334547",
    "businessName": "PLANNED PARENTHOOD OF THE PACIFIC SOUTHWEST",
    "contactEmail": "LMANN1@PLANNED.ORG",
    "categoryName": "PRIMARY CARE CLINIC",
    "categoryCode": "COMTYC",
    "licenseStatus": "ACTIVE",
    "inService": true,
    "licenseNumber": "250000802",
    "licenseEffectiveDate": "06/18/2025",
    "licenseExpirationDate": "06/17/2026",
    "dataDate": "10/18/2025",
    "capacity": 0,
    "address": "49-111 US HIGHWAY 111, UNIT 6",
    "city": "COACHELLA",
    "zip": "92236",
    "county": "RIVERSIDE",
    "phone": "(619) 881-4500",
    "lat": 33.692485,
    "lng": -116.185068
  },
  {
    "id": "250001562",
    "name": "SANTA ROSA DEL VALLE MEDICAL GROUP, INC.",
    "npi": "1790970853",
    "hcaiId": null,
    "businessName": null,
    "contactEmail": null,
    "categoryName": "PRIMARY CARE CLINIC",
    "categoryCode": "RHC",
    "licenseStatus": null,
    "inService": null,
    "licenseNumber": null,
    "licenseEffectiveDate": null,
    "licenseExpirationDate": null,
    "dataDate": "10/18/2025",
    "capacity": 0,
    "address": "1293 6TH ST",
    "city": "COACHELLA",
    "zip": "92236",
    "county": "RIVERSIDE",
    "phone": "(760) 391-5151",
    "lat": 33.677541,
    "lng": -116.1791145
  }
]