[
  {
    "id": "630016199",
    "name": "CALMED HOSPICE CARE, INC",
    "npi": "1194107052",
    "hcaiId": "406331573",
    "businessName": "CALMED HOSPICE CARE, INC",
    "contactEmail": "CALMEDHOSPICECARE@GMAIL.COM",
    "categoryName": "HOSPICE",
    "categoryCode": "HOSPICE",
    "licenseStatus": "ACTIVE",
    "inService": true,
    "licenseNumber": "550003862",
    "licenseEffectiveDate": "05/01/2023",
    "licenseExpirationDate": "04/30/2025",
    "dataDate": "10/18/2025",
    "capacity": 0,
    "address": "34400 DATE PALM DRIVE, UNIT U",
    "city": "CATHEDRAL CITY",
    "zip": "92234",
    "county": "RIVERSIDE",
    "phone": "(760) 537-3837",
    "lat": 33.798654,
    "lng": -116.457615
  },
  {
    "id": "170001776",
    "name": "CANYON SPRINGS",
    "npi": "1730130097",
    "hcaiId": "206334536",
    "businessName": "STATE OF CA DEPT OF DEVELOPMENTAL SERVICES",
    "contactEmail": "JENI.STOWELL@CS.DDS.CA.GOV",
    "categoryName": "INTERMEDIATE CARE FACILITY-DD/H/N/CN/IID",
    "categoryCode": "ICFDD",
    "licenseStatus": "ACTIVE",
    "inService": true,
    "licenseNumber": "170000774",
    "licenseEffectiveDate": "10/21/2025",
    "licenseExpirationDate": "12/03/2025",
    "dataDate": "10/18/2025",
    "capacity": 63,
    "address": "69696 RAMON RD",
    "city": "CATHEDRAL CITY",
    "zip": "92234",
    "county": "RIVERSIDE",
    "phone": "(760) 770-6213",
    "lat": 33.817104,
    "lng": -116.443809
  },
  {
    "id": "630013060",
    "name": "CATHEDRAL CITY DIALYSIS",
    "npi": "1033429287",
    "hcaiId": "306334634",
    "businessName": "DOLORES DIALYSIS, LLC",
    "contactEmail": "CAL_C@DAVITA.COM",
    "categoryName": "CHRONIC DIALYSIS CLINIC",
    "categoryCode": "ESRD/CDC",
    "licenseStatus": "ACTIVE",
    "inService": true,
    "licenseNumber": "550001638",
    "licenseEffectiveDate": "11/26/2024",
    "licenseExpirationDate": "11/25/2025",
    "dataDate": "10/18/2025",
    "capacity": 21,
    "address": "30885 DATE PALM DR",
    "city": "CATHEDRAL CITY",
    "zip": "92234",
    "county": "RIVERSIDE",
    "phone": "(760) 202-3491",
    "lat": 33.824304,
    "lng": -116.459469
  },
  {
    "id": "630011059",
    "name": "DAP HEALTH - CENTRO MEDICO CATHEDRAL CITY - 69175 RAMON",
    "npi": "1619036514",
    "hcaiId": "306334582",
    "businessName": "DAP HEALTH, INC.",
    "contactEmail": "SPRIOR@DAPHEALTH.ORG",
    "categoryName": "PRIMARY CARE CLINIC",
    "categoryCode": "COMTYC",
    "licenseStatus": "ACTIVE",
    "inService": true,
    "licenseNumber": "550000422",
    "licenseEffectiveDate": "02/06/2025",
    "licenseExpirationDate": "02/05/2026",
    "dataDate": "10/18/2025",
    "capacity": 0,
    "address": "69175 RAMON RD, BUILDING A",
    "city": "CATHEDRAL CITY",
    "zip": "92234",
    "county": "RIVERSIDE",
    "phone": "(760) 676-5982",
    "lat": 33.813567,
    "lng": -116.456049
  },
  {
    "id": "630021744",
    "name": "DAP HEALTH - CENTRO MEDICO CATHEDRAL CITY - DENTAL",
    "npi": null,
    "hcaiId": null,
    "businessName": "DAP HEALTH, INC.",
    "contactEmail": null,
    "categoryName": "PRIMARY CARE CLINIC",
    "categoryCode": "COMTYC",
    "licenseStatus": "ACTIVE",
    "inService": true,
    "licenseNumber": "550000422",
    "licenseEffectiveDate": "02/06/2025",
    "licenseExpirationDate": "02/05/2026",
    "dataDate": "10/18/2025",
    "capacity": 0,
    "address": "69175 RAMON RD, SUITE C-3",
    "city": "CATHEDRAL CITY",
    "zip": "92234",
    "county": "RIVERSIDE",
    "phone": null,
    "lat": 33.81361698,
    "lng": -116.456191
  },
  {
    "id": "630017115",
    "name": "DAP HEALTH - MOBILE DENTAL TRAILER #1",
    "npi": null,
    "hcaiId": null,
    "businessName": "DAP HEALTH, INC.",
    "contactEmail": null,
    "categoryName": "PRIMARY CARE CLINIC",
    "categoryCode": "COMTYC",
    "licenseStatus": "ACTIVE",
    "inService": true,
    "licenseNumber": "550000422",
    "licenseEffectiveDate": "02/06/2025",
    "licenseExpirationDate": "02/05/2026",
    "dataDate": "10/18/2025",
    "capacity": 0,
    "address": "69175 RAMON RD, BUILDING A",
    "city": "CATHEDRAL CITY",
    "zip": "92234",
    "county": "RIVERSIDE",
    "phone": null,
    "lat": 33.813567,
    "lng": -116.456049
  },
  {
    "id": "630017116",
    "name": "DAP HEALTH - MOBILE UNIT DENTAL TRAILER #2",
    "npi": null,
    "hcaiId": null,
    "businessName": "DAP HEALTH, INC.",
    "contactEmail": null,
    "categoryName": "PRIMARY CARE CLINIC",
    "categoryCode": "COMTYC",
    "licenseStatus": "ACTIVE",
    "inService": true,
    "licenseNumber": "550000422",
    "licenseEffectiveDate": "02/06/2025",
    "licenseExpirationDate": "02/05/2026",
    "dataDate": "10/18/2025",
    "capacity": 0,
    "address": "69175 RAMON RD, BUILDING A",
    "city": "CATHEDRAL CITY",
    "zip": "92234",
    "county": "RIVERSIDE",
    "phone": null,
    "lat": 33.813567,
    "lng": -116.456049
  },
  {
    "id": "630017143",
    "name": "DAP HEALTH - STONEWALL COMMUNITY HEALTH CENTER",
    "npi": null,
    "hcaiId": null,
    "businessName": "DAP HEALTH, INC.",
    "contactEmail": null,
    "categoryName": "PRIMARY CARE CLINIC",
    "categoryCode": "COMTYC",
    "licenseStatus": "ACTIVE",
    "inService": true,
    "licenseNumber": "550001467",
    "licenseEffectiveDate": "01/25/2025",
    "licenseExpirationDate": "01/24/2026",
    "dataDate": "10/18/2025",
    "capacity": 0,
    "address": "68555 RAMON RD",
    "city": "CATHEDRAL CITY",
    "zip": "92234",
    "county": "RIVERSIDE",
    "phone": null,
    "lat": 33.815457,
    "lng": -116.464806
  },
  {
    "id": "630026413",
    "name": "DESERT REGIONAL HOME HEALTHCARE, INC.",
    "npi": null,
    "hcaiId": "406330022",
    "businessName": "DESERT REGIONAL HOME HEALTHCARE, INC.",
    "contactEmail": "DESERTREGIONALHH@GMAIL.COM",
    "categoryName": "HOME HEALTH AGENCY",
    "categoryCode": "HHA",
    "licenseStatus": "ACTIVE",
    "inService": true,
    "licenseNumber": "550009044",
    "licenseEffectiveDate": "03/28/2025",
    "licenseExpirationDate": "03/27/2026",
    "dataDate": "10/18/2025",
    "capacity": 0,
    "address": "35325 DATE PALM DR, SUITE 245B",
    "city": "CATHEDRAL CITY",
    "zip": "92234",
    "county": "RIVERSIDE",
    "phone": "(818) 660-7742",
    "lat": 33.7917645,
    "lng": -116.4581584
  },
  {
    "id": "630023709",
    "name": "DESERT SUN HOME HEALTH CARE INC",
    "npi": null,
    "hcaiId": "406335435",
    "businessName": "DESERT SUN HOME HEALTH CARE INC",
    "contactEmail": "DESERTSUNHEALTH@GMAIL.COM",
    "categoryName": "HOME HEALTH AGENCY",
    "categoryCode": "HHA",
    "licenseStatus": "ACTIVE",
    "inService": true,
    "licenseNumber": "550008060",
    "licenseEffectiveDate": "06/27/2025",
    "licenseExpirationDate": "06/26/2026",
    "dataDate": "10/18/2025",
    "capacity": 0,
    "address": "68457 E PALM CANYON DR, SUITE 6",
    "city": "CATHEDRAL CITY",
    "zip": "92234",
    "county": "RIVERSIDE",
    "phone": "(760) 332-5005",
    "lat": 33.78054405,
    "lng": -116.4675966
  },
  {
    "id": "630021528",
    "name": "EDEN HOSPICE, INC.",
    "npi": null,
    "hcaiId": "406193294",
    "businessName": "EDEN HOSPICE, INC.",
    "contactEmail": "EDENHOSPICE@YAHOO.COM",
    "categoryName": "HOSPICE",
    "categoryCode": "HOSPICE",
    "licenseStatus": "ACTIVE",
    "inService": true,
    "licenseNumber": "550007183",
    "licenseEffectiveDate": "02/14/2025",
    "licenseExpirationDate": "11/10/2025",
    "dataDate": "10/18/2025",
    "capacity": 0,
    "address": "35325 DATE PALM DR, SUITE 134",
    "city": "CATHEDRAL CITY",
    "zip": "92234",
    "county": "RIVERSIDE",
    "phone": "(760) 502-0999",
    "lat": 33.79145599,
    "lng": -116.458727
  },
  {
    "id": "630017862",
    "name": "GOLDEN SPRINGS SURGICAL CENTER",
    "npi": "1659885325",
    "hcaiId": null,
    "businessName": null,
    "contactEmail": "ASC@SUMMIT-INSTITUTE.COM",
    "categoryName": "SURGICAL CLINIC",
    "categoryCode": "ASC",
    "licenseStatus": null,
    "inService": null,
    "licenseNumber": null,
    "licenseEffectiveDate": null,
    "licenseExpirationDate": null,
    "dataDate": "10/18/2025",
    "capacity": 0,
    "address": "67555 E PALM CANYON DR, SUITE F117 - F118",
    "city": "CATHEDRAL CITY",
    "zip": "92234",
    "county": "RIVERSIDE",
    "phone": "(949) 783-3600",
    "lat": 33.78798,
    "lng": -116.48259
  },
  {
    "id": "630015533",
    "name": "SERENITY CONGREGATE CARE",
    "npi": null,
    "hcaiId": "206334746",
    "businessName": "SERENITY CONGREGATE CARE",
    "contactEmail": "THANTAYE@AOL.COM",
    "categoryName": "CONGREGATE LIVING HEALTH FACILITY",
    "categoryCode": "CLHF",
    "licenseStatus": "ACTIVE",
    "inService": true,
    "licenseNumber": "550003632",
    "licenseEffectiveDate": "07/26/2025",
    "licenseExpirationDate": "07/25/2026",
    "dataDate": "10/18/2025",
    "capacity": 6,
    "address": "31730 AVENIDA DEL PADRE",
    "city": "CATHEDRAL CITY",
    "zip": "92234",
    "county": "RIVERSIDE",
    "phone": "(909) 967-1872",
    "lat": 33.817923,
    "lng": -116.460603
  }
]