[
  {
    "id": "080001180",
    "name": "ACCENTCARE HOME HEALTH OF CALIFORNIA, INC",
    "npi": "1740242718",
    "hcaiId": "406134007",
    "businessName": "ACCENTCARE HOME HEALTH OF CALIFORNIA, INC.",
    "contactEmail": "STGARCIA@ACCENTCARE.COM",
    "categoryName": "HOME HEALTH AGENCY",
    "categoryCode": "HHA",
    "licenseStatus": "ACTIVE",
    "inService": true,
    "licenseNumber": "080000479",
    "licenseEffectiveDate": "11/09/2024",
    "licenseExpirationDate": "11/08/2025",
    "dataDate": "10/18/2025",
    "capacity": 0,
    "address": "2344 S 2ND ST, SUITE A",
    "city": "EL CENTRO",
    "zip": "92243",
    "county": "IMPERIAL",
    "phone": "(760) 352-4022",
    "lat": 32.771853,
    "lng": -115.5464415
  },
  {
    "id": "630015496",
    "name": "ACCENTCARE HOSPICE OF CALIFORNIA, INC",
    "npi": null,
    "hcaiId": "406134034",
    "businessName": "ACCENTCARE HOME HEALTH OF CALIFORNIA, INC.",
    "contactEmail": "LICENSUREANDCERTIFICATION@ACCENTCARE.COM",
    "categoryName": "HOSPICE",
    "categoryCode": "HOSPICE",
    "licenseStatus": "ACTIVE",
    "inService": true,
    "licenseNumber": "550003173",
    "licenseEffectiveDate": "07/23/2025",
    "licenseExpirationDate": "07/22/2027",
    "dataDate": "10/18/2025",
    "capacity": 0,
    "address": "2344 SOUTH 2ND STREET, SUITE B",
    "city": "EL CENTRO",
    "zip": "92243",
    "county": "IMPERIAL",
    "phone": null,
    "lat": 32.771853,
    "lng": -115.5464415
  },
  {
    "id": "630014690",
    "name": "ARIA HOSPICE LLC",
    "npi": "1689009128",
    "hcaiId": "406134029",
    "businessName": "ARIA HOSPICE, LLC",
    "contactEmail": "TERESA@ARIAHOSPICE.COM",
    "categoryName": "HOSPICE",
    "categoryCode": "HOSPICE",
    "licenseStatus": "ACTIVE",
    "inService": true,
    "licenseNumber": "550002567",
    "licenseEffectiveDate": "01/23/2024",
    "licenseExpirationDate": "01/22/2026",
    "dataDate": "10/18/2025",
    "capacity": 0,
    "address": "229 S 8TH ST, SUITE A",
    "city": "EL CENTRO",
    "zip": "92243",
    "county": "IMPERIAL",
    "phone": "(480) 215-6706",
    "lat": 32.79102501,
    "lng": -115.561063
  },
  {
    "id": "060001759",
    "name": "DAYOUT ADHC - EL CENTRO",
    "npi": null,
    "hcaiId": null,
    "businessName": "DACARE, INC.",
    "contactEmail": "ELCENTRO@DAYOUTADHC.COM",
    "categoryName": "ADULT DAY HEALTH CARE",
    "categoryCode": "ADHC",
    "licenseStatus": "ACTIVE",
    "inService": true,
    "licenseNumber": "060000577",
    "licenseEffectiveDate": "11/01/2025",
    "licenseExpirationDate": "10/31/2026",
    "dataDate": "10/18/2025",
    "capacity": 0,
    "address": "757 W MAIN ST",
    "city": "EL CENTRO",
    "zip": "92243",
    "county": "IMPERIAL",
    "phone": "(760) 337-8393",
    "lat": 32.792517,
    "lng": -115.560279
  },
  {
    "id": "080001614",
    "name": "EL CENTRO DESERT VALLEY DIALYSIS CENTER",
    "npi": "1104938901",
    "hcaiId": "306134002",
    "businessName": "BIO-MEDICAL APPLICATIONS OF CALIFORNIA, INC.",
    "contactEmail": "CLINIC1917@FMC-NA.COM",
    "categoryName": "CHRONIC DIALYSIS CLINIC",
    "categoryCode": "ESRD/CDC",
    "licenseStatus": "ACTIVE",
    "inService": true,
    "licenseNumber": "080000702",
    "licenseEffectiveDate": "02/01/2025",
    "licenseExpirationDate": "01/31/2026",
    "dataDate": "10/18/2025",
    "capacity": 20,
    "address": "110 S 5TH ST",
    "city": "EL CENTRO",
    "zip": "92243",
    "county": "IMPERIAL",
    "phone": "(760) 353-0353",
    "lat": 32.79267883,
    "lng": -115.5547789
  },
  {
    "id": "090000092",
    "name": "EL CENTRO POST-ACUTE CARE",
    "npi": "1467447102",
    "hcaiId": "206130785",
    "businessName": "IMPERIAL CARE LLC",
    "contactEmail": "JUSTIN.W@BAYSHIRE.COM",
    "categoryName": "SKILLED NURSING FACILITY",
    "categoryCode": "SNF",
    "licenseStatus": "ACTIVE",
    "inService": true,
    "licenseNumber": "090000103",
    "licenseEffectiveDate": "02/15/2025",
    "licenseExpirationDate": "02/14/2026",
    "dataDate": "10/18/2025",
    "capacity": 123,
    "address": "1700 S IMPERIAL AVE",
    "city": "EL CENTRO",
    "zip": "92243",
    "county": "IMPERIAL",
    "phone": "(760) 352-8471",
    "lat": 32.778171,
    "lng": -115.570422
  },
  {
    "id": "090000040",
    "name": "EL CENTRO REGIONAL MEDICAL CENTER",
    "npi": "1861409823",
    "hcaiId": "106130699",
    "businessName": "CITY OF EL CENTRO",
    "contactEmail": "PABLO.VELEZ@ECRMC.ORG",
    "categoryName": "GENERAL ACUTE CARE HOSPITAL",
    "categoryCode": "GACH",
    "licenseStatus": "ACTIVE",
    "inService": true,
    "licenseNumber": "090000004",
    "licenseEffectiveDate": "06/30/2025",
    "licenseExpirationDate": "06/29/2026",
    "dataDate": "10/18/2025",
    "capacity": 161,
    "address": "1415 ROSS AVE",
    "city": "EL CENTRO",
    "zip": "92243",
    "county": "IMPERIAL",
    "phone": "(760) 339-7100",
    "lat": 32.780439,
    "lng": -115.5685005
  },
  {
    "id": "090001249",
    "name": "EL CENTRO REGIONAL MEDICAL CENTER OUTPATIENT CLINIC",
    "npi": "1144300476",
    "hcaiId": null,
    "businessName": "CITY OF EL CENTRO",
    "contactEmail": null,
    "categoryName": "PRIMARY CARE CLINIC",
    "categoryCode": "RHC/OP",
    "licenseStatus": "ACTIVE",
    "inService": true,
    "licenseNumber": "090000004",
    "licenseEffectiveDate": "06/30/2025",
    "licenseExpirationDate": "06/29/2026",
    "dataDate": "10/18/2025",
    "capacity": 0,
    "address": "385 W MAIN ST",
    "city": "EL CENTRO",
    "zip": "92243",
    "county": "IMPERIAL",
    "phone": "(760) 482-9100",
    "lat": 32.792499,
    "lng": -115.551891
  },
  {
    "id": "630012664",
    "name": "FRESENIUS MEDICAL CARE IMPERIAL VALLEY HOME",
    "npi": "1598097982",
    "hcaiId": null,
    "businessName": null,
    "contactEmail": null,
    "categoryName": "CHRONIC DIALYSIS CLINIC",
    "categoryCode": "ESRD",
    "licenseStatus": null,
    "inService": null,
    "licenseNumber": null,
    "licenseEffectiveDate": null,
    "licenseExpirationDate": null,
    "dataDate": "10/18/2025",
    "capacity": 0,
    "address": "2205 ROSS AVE, SUITE 3",
    "city": "EL CENTRO",
    "zip": "92243",
    "county": "IMPERIAL",
    "phone": "(760) 370-5790",
    "lat": 32.781168,
    "lng": -115.580592
  },
  {
    "id": "080001616",
    "name": "FRESENIUS MEDICAL CARE OF IMPERIAL COUNTY",
    "npi": "1346342763",
    "hcaiId": "306134026",
    "businessName": "BIO-MEDICAL APPLICATIONS OF CALIFORNIA, INC.",
    "contactEmail": "CLINIC3784@FMC-NA.COM",
    "categoryName": "CHRONIC DIALYSIS CLINIC",
    "categoryCode": "ESRD/CDC",
    "licenseStatus": "ACTIVE",
    "inService": true,
    "licenseNumber": "080000704",
    "licenseEffectiveDate": "11/20/2024",
    "licenseExpirationDate": "11/19/2025",
    "dataDate": "10/18/2025",
    "capacity": 36,
    "address": "200 WAKE AVE",
    "city": "EL CENTRO",
    "zip": "92243",
    "county": "IMPERIAL",
    "phone": "(760) 370-5790",
    "lat": 32.770724,
    "lng": -115.5345385
  },
  {
    "id": "630013451",
    "name": "HEALTHPEAK HOME HEALTH, INC.",
    "npi": "1609296318",
    "hcaiId": "406134028",
    "businessName": "HEALTHPEAK HOME HEALTH INC",
    "contactEmail": "HEALTHPEAKHOMEHEALTH@YAHOO.COM",
    "categoryName": "HOME HEALTH AGENCY",
    "categoryCode": "HHA",
    "licenseStatus": "ACTIVE",
    "inService": true,
    "licenseNumber": "550001940",
    "licenseEffectiveDate": "05/08/2025",
    "licenseExpirationDate": "05/07/2026",
    "dataDate": "10/18/2025",
    "capacity": 0,
    "address": "1605 SCOTT AVE, SUITE 400",
    "city": "EL CENTRO",
    "zip": "92243",
    "county": "IMPERIAL",
    "phone": "(760) 352-3108",
    "lat": 32.80136224,
    "lng": -115.5710576
  },
  {
    "id": "080001381",
    "name": "HOSPICE OF IMPERIAL VALLEY",
    "npi": null,
    "hcaiId": "406134015",
    "businessName": "HELPING HANDS HOSPICE, INC.",
    "contactEmail": "INFO@IVHOSPICE.ORG",
    "categoryName": "HOSPICE",
    "categoryCode": "HOSPICE",
    "licenseStatus": "ACTIVE",
    "inService": true,
    "licenseNumber": "080000570",
    "licenseEffectiveDate": "01/27/2024",
    "licenseExpirationDate": "01/26/2026",
    "dataDate": "10/18/2025",
    "capacity": 0,
    "address": "137 S 8TH STREET",
    "city": "EL CENTRO",
    "zip": "92243",
    "county": "IMPERIAL",
    "phone": "(760) 352-8905",
    "lat": 32.792067,
    "lng": -115.5610935
  },
  {
    "id": "090001189",
    "name": "INNERCARE - EL CENTRO",
    "npi": "1487741773",
    "hcaiId": "306134024",
    "businessName": "CLINICAS DE SALUD DEL PUEBLO, INC.",
    "contactEmail": "YVONNEB@INNERCARE.ORG",
    "categoryName": "PRIMARY CARE CLINIC",
    "categoryCode": "COMTYC",
    "licenseStatus": "ACTIVE",
    "inService": true,
    "licenseNumber": "090000485",
    "licenseEffectiveDate": "01/12/2025",
    "licenseExpirationDate": "01/11/2026",
    "dataDate": "10/18/2025",
    "capacity": 0,
    "address": "852 E DANENBERG DR",
    "city": "EL CENTRO",
    "zip": "92243",
    "county": "IMPERIAL",
    "phone": "(760) 352-2257",
    "lat": 32.76697564,
    "lng": -115.5274671
  },
  {
    "id": "630012035",
    "name": "N YOUR HOME HEALTH CARE",
    "npi": "1013168046",
    "hcaiId": "406134025",
    "businessName": "N YOUR HOME HEALTH CARE",
    "contactEmail": "NYOURHOMECARE@YAHOO.COM",
    "categoryName": "HOME HEALTH AGENCY",
    "categoryCode": "HHA",
    "licenseStatus": "ACTIVE",
    "inService": true,
    "licenseNumber": "550001205",
    "licenseEffectiveDate": "01/21/2025",
    "licenseExpirationDate": "01/20/2026",
    "dataDate": "10/18/2025",
    "capacity": 0,
    "address": "515 W MAIN ST, SUITE A",
    "city": "EL CENTRO",
    "zip": "92243",
    "county": "IMPERIAL",
    "phone": "(760) 352-2102",
    "lat": 32.792526,
    "lng": -115.555212
  },
  {
    "id": "630015789",
    "name": "PLANNED PARENTHOOD - EL CENTRO",
    "npi": "1669407656",
    "hcaiId": "306134033",
    "businessName": "PLANNED PARENTHOOD OF THE PACIFIC SOUTHWEST",
    "contactEmail": "LMANN1@PLANNED.ORG",
    "categoryName": "PRIMARY CARE CLINIC",
    "categoryCode": "COMTYC",
    "licenseStatus": "ACTIVE",
    "inService": true,
    "licenseNumber": "250000602",
    "licenseEffectiveDate": "11/13/2025",
    "licenseExpirationDate": "11/12/2026",
    "dataDate": "10/18/2025",
    "capacity": 0,
    "address": "1463 SOUTH 4TH STREET",
    "city": "EL CENTRO",
    "zip": "92243",
    "county": "IMPERIAL",
    "phone": "(619) 881-4500",
    "lat": 32.7804431,
    "lng": -115.5513161
  },
  {
    "id": "630028062",
    "name": "PLANNED PARENTHOOD-EL CENTRO",
    "npi": null,
    "hcaiId": null,
    "businessName": "PLANNED PARENTHOOD OF THE PACIFIC SOUTHWEST",
    "contactEmail": null,
    "categoryName": "PRIMARY CARE CLINIC",
    "categoryCode": "COMTYC",
    "licenseStatus": "ACTIVE",
    "inService": true,
    "licenseNumber": "550009705",
    "licenseEffectiveDate": "03/17/2025",
    "licenseExpirationDate": "03/16/2026",
    "dataDate": "10/18/2025",
    "capacity": 0,
    "address": "1463 S 4TH ST",
    "city": "EL CENTRO",
    "zip": "92243",
    "county": "IMPERIAL",
    "phone": null,
    "lat": 32.780268,
    "lng": -115.5523178
  },
  {
    "id": "080001084",
    "name": "UNI CARE HOME CARE INC",
    "npi": "1003215518",
    "hcaiId": "406134004",
    "businessName": "UNI CARE HOME CARE INC",
    "contactEmail": "L.ROMERO@UNICAREHOMEHEALTH.COM",
    "categoryName": "HOME HEALTH AGENCY",
    "categoryCode": "HHA",
    "licenseStatus": "ACTIVE",
    "inService": true,
    "licenseNumber": "080000454",
    "licenseEffectiveDate": "12/15/2024",
    "licenseExpirationDate": "12/14/2025",
    "dataDate": "10/18/2025",
    "capacity": 0,
    "address": "1594 S IMPERIAL AVE",
    "city": "EL CENTRO",
    "zip": "92243",
    "county": "IMPERIAL",
    "phone": "(760) 344-9180",
    "lat": 32.7794948,
    "lng": -115.5697615
  },
  {
    "id": "630018145",
    "name": "UNI CARE HOSPICE, INC.",
    "npi": "1316358930",
    "hcaiId": null,
    "businessName": "UNI CARE HOSPICE INC",
    "contactEmail": "BARRY@UNICAREHOSPICE.ORG",
    "categoryName": "HOSPICE",
    "categoryCode": "HOSPICE",
    "licenseStatus": "ACTIVE",
    "inService": true,
    "licenseNumber": "550003028",
    "licenseEffectiveDate": "03/20/2025",
    "licenseExpirationDate": "03/19/2027",
    "dataDate": "10/18/2025",
    "capacity": 0,
    "address": "1600 S IMPERIAL AVE, SUITE 12",
    "city": "EL CENTRO",
    "zip": "92243",
    "county": "IMPERIAL",
    "phone": "(760) 566-3345",
    "lat": 32.77881,
    "lng": -115.570359
  },
  {
    "id": "090001243",
    "name": "VALLEY ENDOSCOPY CENTER",
    "npi": "1346208642",
    "hcaiId": "306134022",
    "businessName": "BRAWLEY ENDOSCOPY & SURGERY MEDICAL CENTER, INC.",
    "contactEmail": null,
    "categoryName": "SURGICAL CLINIC",
    "categoryCode": "ASC",
    "licenseStatus": "INACTIVE - CAPEN DECISION",
    "inService": false,
    "licenseNumber": "090000507",
    "licenseEffectiveDate": "06/19/2007",
    "licenseExpirationDate": "06/18/2008",
    "dataDate": "10/18/2025",
    "capacity": 0,
    "address": "1550 N IMPERIAL AVE, SUITE 3",
    "city": "EL CENTRO",
    "zip": "92243",
    "county": "IMPERIAL",
    "phone": "(760) 352-3000",
    "lat": 32.80696522,
    "lng": -115.5702688
  }
]