[
  {
    "id": "250001039",
    "name": "ADELSTEIN HOUSE",
    "npi": "1376680140",
    "hcaiId": null,
    "businessName": "ANGEL VIEW, INC.",
    "contactEmail": "CVALENCIA@ANGELVIEW.ORG",
    "categoryName": "INTERMEDIATE CARE FACILITY-DD/H/N/CN/IID",
    "categoryCode": "ICFDDH",
    "licenseStatus": "ACTIVE",
    "inService": true,
    "licenseNumber": "250000446",
    "licenseEffectiveDate": "04/23/2025",
    "licenseExpirationDate": "04/22/2026",
    "dataDate": "10/18/2025",
    "capacity": 6,
    "address": "66145 GRANADA AVE",
    "city": "DESERT HOT SPRINGS",
    "zip": "92240",
    "county": "RIVERSIDE",
    "phone": "(760) 834-1303",
    "lat": 33.954876,
    "lng": -116.507628
  },
  {
    "id": "250001560",
    "name": "BETTY & MARTIN RUSSELL HOUSE",
    "npi": "1922145796",
    "hcaiId": null,
    "businessName": "ANGEL VIEW, INC.",
    "contactEmail": "CVALENCIA@ANGELVIEW.ORG",
    "categoryName": "INTERMEDIATE CARE FACILITY-DD/H/N/CN/IID",
    "categoryCode": "ICFDDH",
    "licenseStatus": "ACTIVE",
    "inService": true,
    "licenseNumber": "250000679",
    "licenseEffectiveDate": "11/27/2024",
    "licenseExpirationDate": "11/26/2025",
    "dataDate": "10/18/2025",
    "capacity": 6,
    "address": "66770 HACIENDA AVE",
    "city": "DESERT HOT SPRINGS",
    "zip": "92240",
    "county": "RIVERSIDE",
    "phone": "(760) 834-1303",
    "lat": 33.954453,
    "lng": -116.496378
  },
  {
    "id": "630012840",
    "name": "DAP HEALTH - DESERT HOT SPRINGS - MAIN CAMPUS",
    "npi": "1275849283",
    "hcaiId": "306334692",
    "businessName": "DAP HEALTH, INC.",
    "contactEmail": "SPRIOR@DAPHEALTH.ORG",
    "categoryName": "PRIMARY CARE CLINIC",
    "categoryCode": "COMTYC",
    "licenseStatus": "ACTIVE",
    "inService": true,
    "licenseNumber": "550001467",
    "licenseEffectiveDate": "01/25/2025",
    "licenseExpirationDate": "01/24/2026",
    "dataDate": "10/18/2025",
    "capacity": 0,
    "address": "66675 PIERSON BLVD",
    "city": "DESERT HOT SPRINGS",
    "zip": "92240",
    "county": "RIVERSIDE",
    "phone": "(760) 676-5982",
    "lat": 33.96114,
    "lng": -116.498358
  },
  {
    "id": "630015734",
    "name": "DAP HEALTH - DESERT HOT SPRINGS - PALM AVENUE",
    "npi": null,
    "hcaiId": null,
    "businessName": "DAP HEALTH, INC.",
    "contactEmail": null,
    "categoryName": "PRIMARY CARE CLINIC",
    "categoryCode": "COMTYC",
    "licenseStatus": "ACTIVE",
    "inService": true,
    "licenseNumber": "550001467",
    "licenseEffectiveDate": "01/25/2025",
    "licenseExpirationDate": "01/24/2026",
    "dataDate": "10/18/2025",
    "capacity": 0,
    "address": "12520 PALM DRIVE",
    "city": "DESERT HOT SPRINGS",
    "zip": "92240",
    "county": "RIVERSIDE",
    "phone": "(760) 676-5800",
    "lat": 33.957558,
    "lng": -116.500869
  },
  {
    "id": "630014526",
    "name": "DAP HEALTH - DESERT HOT SPRINGS HEALTH AND WELLNESS CENTER",
    "npi": "1184065088",
    "hcaiId": "306334683",
    "businessName": "DAP HEALTH, INC.",
    "contactEmail": "BHEBETS@BORREGOMEDICAL.ORG",
    "categoryName": "PRIMARY CARE CLINIC",
    "categoryCode": "COMTYC",
    "licenseStatus": "ACTIVE",
    "inService": true,
    "licenseNumber": "550001467",
    "licenseEffectiveDate": "01/25/2025",
    "licenseExpirationDate": "01/24/2026",
    "dataDate": "10/18/2025",
    "capacity": 0,
    "address": "11750 CHOLLA DR, SUITE B",
    "city": "DESERT HOT SPRINGS",
    "zip": "92240",
    "county": "RIVERSIDE",
    "phone": "(760) 251-0044",
    "lat": 33.963876,
    "lng": -116.513622
  },
  {
    "id": "250001034",
    "name": "FRIEDMAN HOUSE",
    "npi": "1285771055",
    "hcaiId": null,
    "businessName": "ANGEL VIEW, INC.",
    "contactEmail": "NMONTES@ANGELVIEW.ORG",
    "categoryName": "INTERMEDIATE CARE FACILITY-DD/H/N/CN/IID",
    "categoryCode": "ICFDDH",
    "licenseStatus": "ACTIVE",
    "inService": true,
    "licenseNumber": "250000442",
    "licenseEffectiveDate": "04/23/2025",
    "licenseExpirationDate": "04/22/2026",
    "dataDate": "10/18/2025",
    "capacity": 6,
    "address": "66635 GRANADA AVE",
    "city": "DESERT HOT SPRINGS",
    "zip": "92240",
    "county": "RIVERSIDE",
    "phone": "(760) 408-3469",
    "lat": 33.954813,
    "lng": -116.498826
  },
  {
    "id": "250001405",
    "name": "HUCKABEE HOUSE",
    "npi": "1487791224",
    "hcaiId": null,
    "businessName": "ANGEL VIEW, INC.",
    "contactEmail": "CVALENCIA@ANGELVIEW.ORG",
    "categoryName": "INTERMEDIATE CARE FACILITY-DD/H/N/CN/IID",
    "categoryCode": "ICFDDN",
    "licenseStatus": "ACTIVE",
    "inService": true,
    "licenseNumber": "250000600",
    "licenseEffectiveDate": "06/20/2025",
    "licenseExpirationDate": "06/19/2026",
    "dataDate": "10/18/2025",
    "capacity": 6,
    "address": "11270 VERBENA DR",
    "city": "DESERT HOT SPRINGS",
    "zip": "92240",
    "county": "RIVERSIDE",
    "phone": "(760) 834-1303",
    "lat": 33.966567,
    "lng": -116.4922875
  },
  {
    "id": "630007321",
    "name": "JACK SURNOW HOUSE",
    "npi": null,
    "hcaiId": "206334571",
    "businessName": "ANGEL VIEW, INC.",
    "contactEmail": "CVALENCIA@ANGELVIEW.ORG",
    "categoryName": "CONGREGATE LIVING HEALTH FACILITY",
    "categoryCode": "CLHF",
    "licenseStatus": "ACTIVE",
    "inService": true,
    "licenseNumber": "550000120",
    "licenseEffectiveDate": "01/18/2025",
    "licenseExpirationDate": "01/17/2026",
    "dataDate": "10/18/2025",
    "capacity": 6,
    "address": "13785 VIA REAL",
    "city": "DESERT HOT SPRINGS",
    "zip": "92240",
    "county": "RIVERSIDE",
    "phone": "(760) 834-1303",
    "lat": 33.948405,
    "lng": -116.512533
  },
  {
    "id": "630012729",
    "name": "JACKIE LEE AND JIM HOUSTON HOUSE",
    "npi": "1821234774",
    "hcaiId": null,
    "businessName": "ANGEL VIEW, INC.",
    "contactEmail": "KBERDEJO@ANGELVIEW.ORG",
    "categoryName": "INTERMEDIATE CARE FACILITY-DD/H/N/CN/IID",
    "categoryCode": "ICFDDN",
    "licenseStatus": "ACTIVE",
    "inService": true,
    "licenseNumber": "550001426",
    "licenseEffectiveDate": "11/18/2024",
    "licenseExpirationDate": "11/17/2025",
    "dataDate": "10/18/2025",
    "capacity": 6,
    "address": "66415 BUENA VISTA AVE",
    "city": "DESERT HOT SPRINGS",
    "zip": "92240",
    "county": "RIVERSIDE",
    "phone": "(760) 834-1303",
    "lat": 33.959322,
    "lng": -116.5027725
  },
  {
    "id": "250000694",
    "name": "JOEL'S HOUSE",
    "npi": "1093852865",
    "hcaiId": null,
    "businessName": "ANGEL VIEW, INC.",
    "contactEmail": "NMONTES@ANGELVIEW.ORG",
    "categoryName": "INTERMEDIATE CARE FACILITY-DD/H/N/CN/IID",
    "categoryCode": "ICFDDH",
    "licenseStatus": "ACTIVE",
    "inService": true,
    "licenseNumber": "250000318",
    "licenseEffectiveDate": "11/07/2024",
    "licenseExpirationDate": "11/06/2025",
    "dataDate": "10/18/2025",
    "capacity": 6,
    "address": "67440 DESERT VIEW AVE",
    "city": "DESERT HOT SPRINGS",
    "zip": "92240",
    "county": "RIVERSIDE",
    "phone": "(760) 834-1303",
    "lat": 33.95781428,
    "lng": -116.48472
  },
  {
    "id": "630011652",
    "name": "MARION ASHLEY HOUSE",
    "npi": "1023242245",
    "hcaiId": null,
    "businessName": "ANGEL VIEW, INC.",
    "contactEmail": "CVALENCIA@ANGELVIEW.ORG",
    "categoryName": "INTERMEDIATE CARE FACILITY-DD/H/N/CN/IID",
    "categoryCode": "ICFDDN",
    "licenseStatus": "ACTIVE",
    "inService": true,
    "licenseNumber": "550000684",
    "licenseEffectiveDate": "03/13/2025",
    "licenseExpirationDate": "03/12/2026",
    "dataDate": "10/18/2025",
    "capacity": 6,
    "address": "16620 VIA VISTA",
    "city": "DESERT HOT SPRINGS",
    "zip": "92240",
    "county": "RIVERSIDE",
    "phone": "(760) 834-1303",
    "lat": 33.927804,
    "lng": -116.49564
  },
  {
    "id": "250001780",
    "name": "MELVYN HABER HOUSE",
    "npi": "1841076502",
    "hcaiId": null,
    "businessName": "ANGEL VIEW, INC.",
    "contactEmail": "CVALENCIA@ANGELVIEW.ORG",
    "categoryName": "INTERMEDIATE CARE FACILITY-DD/H/N/CN/IID",
    "categoryCode": "ICFDDCN",
    "licenseStatus": "ACTIVE",
    "inService": true,
    "licenseNumber": "250000778",
    "licenseEffectiveDate": "11/11/2024",
    "licenseExpirationDate": "11/10/2025",
    "dataDate": "10/18/2025",
    "capacity": 6,
    "address": "12840 CACTUS DR",
    "city": "DESERT HOT SPRINGS",
    "zip": "92240",
    "county": "RIVERSIDE",
    "phone": "(760) 329-6471",
    "lat": 33.955326,
    "lng": -116.5053915
  },
  {
    "id": "630018780",
    "name": "MOBILE UNIT #7",
    "npi": null,
    "hcaiId": null,
    "businessName": null,
    "contactEmail": null,
    "categoryName": "PRIMARY CARE CLINIC",
    "categoryCode": "COMTYC",
    "licenseStatus": null,
    "inService": null,
    "licenseNumber": null,
    "licenseEffectiveDate": null,
    "licenseExpirationDate": null,
    "dataDate": "10/18/2025",
    "capacity": 0,
    "address": "66675 PIERSON BLVD",
    "city": "DESERT HOT SPRINGS",
    "zip": "92240",
    "county": "RIVERSIDE",
    "phone": null,
    "lat": 33.96114,
    "lng": -116.498358
  },
  {
    "id": "250001618",
    "name": "ROBERT & MARIAN KUSTER HOUSE",
    "npi": "1477690238",
    "hcaiId": null,
    "businessName": "ANGEL VIEW, INC.",
    "contactEmail": "CVALENCIA@ANGELVIEW.ORG",
    "categoryName": "INTERMEDIATE CARE FACILITY-DD/H/N/CN/IID",
    "categoryCode": "ICFDDN",
    "licenseStatus": "ACTIVE",
    "inService": true,
    "licenseNumber": "250000711",
    "licenseEffectiveDate": "11/18/2024",
    "licenseExpirationDate": "11/17/2025",
    "dataDate": "10/18/2025",
    "capacity": 6,
    "address": "66863 FLORA AVE",
    "city": "DESERT HOT SPRINGS",
    "zip": "92240",
    "county": "RIVERSIDE",
    "phone": "(760) 834-1303",
    "lat": 33.955686,
    "lng": -116.495235
  },
  {
    "id": "250001675",
    "name": "THE HELENE KALFUSS HOUSE",
    "npi": "1093852899",
    "hcaiId": null,
    "businessName": "ANGEL VIEW, INC.",
    "contactEmail": "CVALENCIA@ANGELVIEW.ORG",
    "categoryName": "INTERMEDIATE CARE FACILITY-DD/H/N/CN/IID",
    "categoryCode": "ICFDDN",
    "licenseStatus": "ACTIVE",
    "inService": true,
    "licenseNumber": "250000732",
    "licenseEffectiveDate": "05/29/2025",
    "licenseExpirationDate": "05/28/2026",
    "dataDate": "10/18/2025",
    "capacity": 6,
    "address": "66811 4TH ST",
    "city": "DESERT HOT SPRINGS",
    "zip": "92240",
    "county": "RIVERSIDE",
    "phone": "(760) 834-1303",
    "lat": 33.965217,
    "lng": -116.49537
  },
  {
    "id": "250001635",
    "name": "THE JOHN FURBEE HOUSE",
    "npi": "1568509321",
    "hcaiId": null,
    "businessName": "ANGEL VIEW, INC.",
    "contactEmail": "CVALENCIA@ANGELVIEW.ORG",
    "categoryName": "INTERMEDIATE CARE FACILITY-DD/H/N/CN/IID",
    "categoryCode": "ICFDDH",
    "licenseStatus": "ACTIVE",
    "inService": true,
    "licenseNumber": "250000716",
    "licenseEffectiveDate": "11/09/2024",
    "licenseExpirationDate": "11/08/2025",
    "dataDate": "10/18/2025",
    "capacity": 6,
    "address": "66897 CAHUILLA AVE",
    "city": "DESERT HOT SPRINGS",
    "zip": "92240",
    "county": "RIVERSIDE",
    "phone": "(760) 834-1303",
    "lat": 33.95844,
    "lng": -116.494065
  }
]