[
  {
    "id": "090000078",
    "name": "ARC IMPERIAL VALLEY #1",
    "npi": "1588799670",
    "hcaiId": null,
    "businessName": "ARC - IMPERIAL VALLEY",
    "contactEmail": "IGALVAN@ARCIV2.ORG",
    "categoryName": "INTERMEDIATE CARE FACILITY-DD/H/N/CN/IID",
    "categoryCode": "ICFDDH",
    "licenseStatus": "ACTIVE",
    "inService": true,
    "licenseNumber": "090000230",
    "licenseEffectiveDate": "03/31/2025",
    "licenseExpirationDate": "03/30/2026",
    "dataDate": "10/18/2025",
    "capacity": 6,
    "address": "548 MESQUITE ST",
    "city": "IMPERIAL",
    "zip": "92251",
    "county": "IMPERIAL",
    "phone": "(442) 283-5006",
    "lat": 32.821101,
    "lng": -115.58187
  },
  {
    "id": "090000080",
    "name": "ARC IMPERIAL VALLEY #2",
    "npi": "1588799670",
    "hcaiId": null,
    "businessName": "ARC - IMPERIAL VALLEY",
    "contactEmail": "IGALVAN@ARCIV2.ORG",
    "categoryName": "INTERMEDIATE CARE FACILITY-DD/H/N/CN/IID",
    "categoryCode": "ICFDDH",
    "licenseStatus": "ACTIVE",
    "inService": true,
    "licenseNumber": "090000231",
    "licenseEffectiveDate": "04/01/2025",
    "licenseExpirationDate": "03/31/2026",
    "dataDate": "10/18/2025",
    "capacity": 6,
    "address": "709 S H ST",
    "city": "IMPERIAL",
    "zip": "92251",
    "county": "IMPERIAL",
    "phone": "(760) 355-9569",
    "lat": 32.84082,
    "lng": -115.5714795
  },
  {
    "id": "170001895",
    "name": "CENTINELA STATE PRISON CTC",
    "npi": null,
    "hcaiId": null,
    "businessName": "CA DEPARTMENT OF CORRECTIONS AND REHABILITATION",
    "contactEmail": "AURORA.TAYLOR@CDCR.CA.GOV",
    "categoryName": "CORRECTIONAL TREATMENT CENTER",
    "categoryCode": "CTC",
    "licenseStatus": "ACTIVE",
    "inService": true,
    "licenseNumber": "170000847",
    "licenseEffectiveDate": "02/01/2025",
    "licenseExpirationDate": "01/31/2026",
    "dataDate": "10/18/2025",
    "capacity": 13,
    "address": "2302 BROWN ROAD",
    "city": "IMPERIAL",
    "zip": "92251",
    "county": "IMPERIAL",
    "phone": "(760) 337-7900",
    "lat": 32.7956026,
    "lng": -115.7766674
  },
  {
    "id": "090000067",
    "name": "IMPERIAL MANOR",
    "npi": "1437668720",
    "hcaiId": "206130728",
    "businessName": "IMPERIAL MANOR SKILLED NURSING, INC.",
    "contactEmail": "I.PUERTA@MANORSNF.COM",
    "categoryName": "SKILLED NURSING FACILITY",
    "categoryCode": "SNF",
    "licenseStatus": "ACTIVE",
    "inService": true,
    "licenseNumber": "090000061",
    "licenseEffectiveDate": "03/02/2025",
    "licenseExpirationDate": "03/01/2026",
    "dataDate": "10/18/2025",
    "capacity": 31,
    "address": "100 E 2ND ST",
    "city": "IMPERIAL",
    "zip": "92251",
    "county": "IMPERIAL",
    "phone": "(760) 355-2858",
    "lat": 32.840901,
    "lng": -115.569648
  },
  {
    "id": "630018928",
    "name": "SURGERY CENTERS OF IMPERIAL VALLEY, INC.",
    "npi": "1639613128",
    "hcaiId": null,
    "businessName": null,
    "contactEmail": "MEDICAL@OSMB.BIZ",
    "categoryName": "SURGICAL CLINIC",
    "categoryCode": "ASC",
    "licenseStatus": null,
    "inService": null,
    "licenseNumber": null,
    "licenseEffectiveDate": null,
    "licenseExpirationDate": null,
    "dataDate": "10/18/2025",
    "capacity": 0,
    "address": "2402 IMPERIAL BUSINESS PARK DR, SUITE 102",
    "city": "IMPERIAL",
    "zip": "92251",
    "county": "IMPERIAL",
    "phone": "(760) 351-8669",
    "lat": 32.826258,
    "lng": -115.57593
  },
  {
    "id": "090000081",
    "name": "WILDFLOWER",
    "npi": "1588799670",
    "hcaiId": null,
    "businessName": "ARC - IMPERIAL VALLEY",
    "contactEmail": "IGALVAN@ARCIV2.ORG",
    "categoryName": "INTERMEDIATE CARE FACILITY-DD/H/N/CN/IID",
    "categoryCode": "ICFDDH",
    "licenseStatus": "ACTIVE",
    "inService": true,
    "licenseNumber": "090000233",
    "licenseEffectiveDate": "04/01/2025",
    "licenseExpirationDate": "03/31/2026",
    "dataDate": "10/18/2025",
    "capacity": 6,
    "address": "585 SNAPDRAGON WAY",
    "city": "IMPERIAL",
    "zip": "92251",
    "county": "IMPERIAL",
    "phone": "(760) 482-0357",
    "lat": 32.822793,
    "lng": -115.584939
  }
]