[
  {
    "id": "630012052",
    "name": "FAMILY HEALTH CENTER OF JOSHUA TREE",
    "npi": null,
    "hcaiId": null,
    "businessName": null,
    "contactEmail": null,
    "categoryName": "PRIMARY CARE CLINIC",
    "categoryCode": "RHC",
    "licenseStatus": null,
    "inService": null,
    "licenseNumber": null,
    "licenseEffectiveDate": null,
    "licenseExpirationDate": null,
    "dataDate": "10/18/2025",
    "capacity": 0,
    "address": "63532 29 PALMS HIGHWAY, SUITE C",
    "city": "JOSHUA TREE",
    "zip": "92252",
    "county": "SAN BERNARDINO",
    "phone": "(760) 366-7555",
    "lat": 34.13515207,
    "lng": -116.2768111
  },
  {
    "id": "240000298",
    "name": "HI DESERT HOME HEALTH SERVICES",
    "npi": "1396131041",
    "hcaiId": "406362042",
    "businessName": "HDMC HOLDINGS, L.L.C.",
    "contactEmail": "ALICIA3.SMITH@TENETHEALTH.COM",
    "categoryName": "HOME HEALTH AGENCY",
    "categoryCode": "HHA",
    "licenseStatus": "ACTIVE",
    "inService": true,
    "licenseNumber": "240000246",
    "licenseEffectiveDate": "04/05/2025",
    "licenseExpirationDate": "04/04/2026",
    "dataDate": "10/18/2025",
    "capacity": 0,
    "address": "6601 WHITE FEATHER RD, SUITE A-5",
    "city": "JOSHUA TREE",
    "zip": "92252",
    "county": "SAN BERNARDINO",
    "phone": "(760) 366-6424",
    "lat": 34.132581,
    "lng": -116.275086
  },
  {
    "id": "080001643",
    "name": "HI-DESERT HOME HEALTH SERVICES-HOSPICE",
    "npi": null,
    "hcaiId": "406364232",
    "businessName": "HDMC HOLDINGS, L.L.C.",
    "contactEmail": null,
    "categoryName": "HOSPICE",
    "categoryCode": "HOSPICE",
    "licenseStatus": "ACTIVE",
    "inService": true,
    "licenseNumber": "080000726",
    "licenseEffectiveDate": "04/05/2024",
    "licenseExpirationDate": "04/04/2026",
    "dataDate": "10/18/2025",
    "capacity": 0,
    "address": "6601 WHITE FEATHER RD, SUITE A-5",
    "city": "JOSHUA TREE",
    "zip": "92252",
    "county": "SAN BERNARDINO",
    "phone": "(760) 366-6424",
    "lat": 34.132581,
    "lng": -116.275086
  },
  {
    "id": "240000014",
    "name": "HI-DESERT MEDICAL CENTER",
    "npi": "1851787295",
    "hcaiId": "106362041",
    "businessName": "HDMC HOLDINGS, L.L.C.",
    "contactEmail": "TERRI.CONLEYWHITE@TENETHEALTH.COM",
    "categoryName": "GENERAL ACUTE CARE HOSPITAL",
    "categoryCode": "GACH",
    "licenseStatus": "ACTIVE",
    "inService": true,
    "licenseNumber": "240000231",
    "licenseEffectiveDate": "10/15/2025",
    "licenseExpirationDate": "07/14/2026",
    "dataDate": "10/18/2025",
    "capacity": 59,
    "address": "6601 WHITE FEATHER RD",
    "city": "JOSHUA TREE",
    "zip": "92252",
    "county": "SAN BERNARDINO",
    "phone": "(760) 366-3711",
    "lat": 34.132581,
    "lng": -116.275086
  },
  {
    "id": "240000925",
    "name": "HI-DESERT MEDICAL CENTER D/P SNF",
    "npi": "1639565088",
    "hcaiId": null,
    "businessName": "HDMC HOLDINGS, L.L.C.",
    "contactEmail": null,
    "categoryName": "SKILLED NURSING FACILITY",
    "categoryCode": "SNF",
    "licenseStatus": "ACTIVE",
    "inService": true,
    "licenseNumber": "240000231",
    "licenseEffectiveDate": "10/15/2025",
    "licenseExpirationDate": "07/14/2026",
    "dataDate": "10/18/2025",
    "capacity": 120,
    "address": "6601 WHITE FEATHER RD",
    "city": "JOSHUA TREE",
    "zip": "92252",
    "county": "SAN BERNARDINO",
    "phone": "(760) 366-1500",
    "lat": 34.132581,
    "lng": -116.275086
  }
]