[
  {
    "id": "630019022",
    "name": "ALMA HOME HEALTH, INC",
    "npi": "1285294876",
    "hcaiId": "406332502",
    "businessName": "ALMA HOME HEALTH, INC",
    "contactEmail": "INFO@ALMAHHC.COM",
    "categoryName": "HOME HEALTH AGENCY",
    "categoryCode": "HHA",
    "licenseStatus": "ACTIVE",
    "inService": true,
    "licenseNumber": "550005428",
    "licenseEffectiveDate": "05/05/2025",
    "licenseExpirationDate": "02/26/2026",
    "dataDate": "10/18/2025",
    "capacity": 0,
    "address": "74199 EL PASEO, SUITE 104",
    "city": "PALM DESERT",
    "zip": "92260",
    "county": "RIVERSIDE",
    "phone": "(760) 537-1449",
    "lat": 33.72077886,
    "lng": -116.3704613
  },
  {
    "id": "630019083",
    "name": "AMAZING HEALTH HOME CARE, INC.",
    "npi": "1003476953",
    "hcaiId": "406330023",
    "businessName": "AMAZING HEALTH HOME CARE, INC.",
    "contactEmail": "ONEAMAZINGHHC@GMAIL.COM",
    "categoryName": "HOME HEALTH AGENCY",
    "categoryCode": "HHA",
    "licenseStatus": "ACTIVE",
    "inService": true,
    "licenseNumber": "550005436",
    "licenseEffectiveDate": "04/21/2025",
    "licenseExpirationDate": "04/20/2026",
    "dataDate": "10/18/2025",
    "capacity": 0,
    "address": "74333 HIGHWAY 111, SUITE 106",
    "city": "PALM DESERT",
    "zip": "92260",
    "county": "RIVERSIDE",
    "phone": "(760) 808-0041",
    "lat": 33.72086498,
    "lng": -116.368017
  },
  {
    "id": "250001767",
    "name": "AURORA SURGERY CENTER",
    "npi": "1891870986",
    "hcaiId": "306334516",
    "businessName": null,
    "contactEmail": null,
    "categoryName": "SURGICAL CLINIC",
    "categoryCode": "ASC",
    "licenseStatus": "INACTIVE - CAPEN DECISION",
    "inService": false,
    "licenseNumber": "250000771",
    "licenseEffectiveDate": "12/26/2007",
    "licenseExpirationDate": "12/25/2008",
    "dataDate": "10/18/2025",
    "capacity": 0,
    "address": "73950 ALESSANDRO DR",
    "city": "PALM DESERT",
    "zip": "92260",
    "county": "RIVERSIDE",
    "phone": "(760) 346-5911",
    "lat": 33.722181,
    "lng": -116.374572
  },
  {
    "id": "630014941",
    "name": "CARE DIMENSIONS OF THE DESERT",
    "npi": "1831535475",
    "hcaiId": "406334700",
    "businessName": "CARE DIMENSIONS OF THE DESERT, LLC",
    "contactEmail": "ALAN.DELEON@CAREDIMENSIONSOFTHDESERT.COM",
    "categoryName": "HOME HEALTH AGENCY",
    "categoryCode": "HHA",
    "licenseStatus": "ACTIVE",
    "inService": true,
    "licenseNumber": "550002856",
    "licenseEffectiveDate": "09/24/2025",
    "licenseExpirationDate": "09/23/2026",
    "dataDate": "10/18/2025",
    "capacity": 0,
    "address": "74130 COUNTRY CLUB DR, SUITE 104",
    "city": "PALM DESERT",
    "zip": "92260",
    "county": "RIVERSIDE",
    "phone": "(909) 770-4402",
    "lat": 33.759342,
    "lng": -116.3718
  },
  {
    "id": "630019805",
    "name": "DAP HEALTH - COLLEGE OF THE DESERT STUDENT HEALTH CENTER",
    "npi": null,
    "hcaiId": null,
    "businessName": "DAP HEALTH, INC.",
    "contactEmail": null,
    "categoryName": "PRIMARY CARE CLINIC",
    "categoryCode": "COMTYC",
    "licenseStatus": "ACTIVE",
    "inService": true,
    "licenseNumber": "550000422",
    "licenseEffectiveDate": "02/06/2025",
    "licenseExpirationDate": "02/05/2026",
    "dataDate": "10/18/2025",
    "capacity": 0,
    "address": "43500 MONTEREY AVE",
    "city": "PALM DESERT",
    "zip": "92260",
    "county": "RIVERSIDE",
    "phone": null,
    "lat": 33.72975,
    "lng": -116.3897685
  },
  {
    "id": "630027263",
    "name": "DESERT SENIORS HOME HEALTH, INC.",
    "npi": null,
    "hcaiId": null,
    "businessName": "DESERT SENIORS HOME HEALTH, INC.",
    "contactEmail": "DESERTSENIORSHHI@GMAIL.COM",
    "categoryName": "HOME HEALTH AGENCY",
    "categoryCode": "HHA",
    "licenseStatus": "ACTIVE",
    "inService": true,
    "licenseNumber": "550009750",
    "licenseEffectiveDate": "09/21/2025",
    "licenseExpirationDate": "03/20/2026",
    "dataDate": "10/18/2025",
    "capacity": 0,
    "address": "73-660 HIGHWAY 111, SUITE 1",
    "city": "PALM DESERT",
    "zip": "92260",
    "county": "RIVERSIDE",
    "phone": "(760) 385-3455",
    "lat": 33.72171101,
    "lng": -116.379815
  },
  {
    "id": "250000634",
    "name": "DESERT SPRINGS POST ACUTE",
    "npi": "1972540714",
    "hcaiId": "206334020",
    "businessName": "PALM DESERT COMMUNITY HEALTHCARE, LLC",
    "contactEmail": "KADE.COPELAND@WILLOWSPRINGS-HCC.COM",
    "categoryName": "SKILLED NURSING FACILITY",
    "categoryCode": "SNF",
    "licenseStatus": "ACTIVE",
    "inService": true,
    "licenseNumber": "250000317",
    "licenseEffectiveDate": "03/06/2025",
    "licenseExpirationDate": "03/05/2026",
    "dataDate": "10/18/2025",
    "capacity": 178,
    "address": "74350 COUNTRY CLUB DR",
    "city": "PALM DESERT",
    "zip": "92260",
    "county": "RIVERSIDE",
    "phone": "(760) 341-0261",
    "lat": 33.758982,
    "lng": -116.3677005
  },
  {
    "id": "630027505",
    "name": "EKO SURGERY CENTER",
    "npi": null,
    "hcaiId": null,
    "businessName": null,
    "contactEmail": null,
    "categoryName": "SURGICAL CLINIC",
    "categoryCode": "ASC",
    "licenseStatus": null,
    "inService": null,
    "licenseNumber": null,
    "licenseEffectiveDate": null,
    "licenseExpirationDate": null,
    "dataDate": "10/18/2025",
    "capacity": 0,
    "address": "44651 VILLAGE CT, SUITE 104",
    "city": "PALM DESERT",
    "zip": "92260",
    "county": "RIVERSIDE",
    "phone": "(760) 249-2222",
    "lat": 33.72469199,
    "lng": -116.361852
  },
  {
    "id": "630018064",
    "name": "HIGH CARE HOSPICE, INC.",
    "npi": "1528556958",
    "hcaiId": "406331825",
    "businessName": "HIGH CARE HOSPICE, INC.",
    "contactEmail": "HIGHCAREHOSPICE@YAHOO.COM",
    "categoryName": "HOSPICE",
    "categoryCode": "HOSPICE",
    "licenseStatus": "ACTIVE",
    "inService": true,
    "licenseNumber": "550004926",
    "licenseEffectiveDate": "08/07/2025",
    "licenseExpirationDate": "08/06/2027",
    "dataDate": "10/18/2025",
    "capacity": 0,
    "address": "74710 HIGHWAY 111, SUITE 102-223",
    "city": "PALM DESERT",
    "zip": "92260",
    "county": "RIVERSIDE",
    "phone": "(760) 469-9639",
    "lat": 33.721839,
    "lng": -116.361612
  },
  {
    "id": "250000799",
    "name": "MANORCARE HEALTH SERVICES",
    "npi": "1972540714",
    "hcaiId": null,
    "businessName": "PALM DESERT COMMUNITY HEALTHCARE, LLC",
    "contactEmail": null,
    "categoryName": "REHABILITATION CLINIC",
    "categoryCode": "OPT/SP",
    "licenseStatus": "ACTIVE",
    "inService": true,
    "licenseNumber": "250000317",
    "licenseEffectiveDate": "03/06/2025",
    "licenseExpirationDate": "03/05/2026",
    "dataDate": "10/18/2025",
    "capacity": 0,
    "address": "74350 COUNTRY CLUB DR",
    "city": "PALM DESERT",
    "zip": "92260",
    "county": "RIVERSIDE",
    "phone": null,
    "lat": 33.758982,
    "lng": -116.3677005
  },
  {
    "id": "630020577",
    "name": "MKB CONSULTING LLC",
    "npi": "1144838723",
    "hcaiId": "406334709",
    "businessName": "MKB CONSULTING LLC",
    "contactEmail": "MKBCONSULTING@GMAIL.COM",
    "categoryName": "HOSPICE",
    "categoryCode": "HOSPICE",
    "licenseStatus": "ACTIVE",
    "inService": true,
    "licenseNumber": "550006064",
    "licenseEffectiveDate": "02/19/2025",
    "licenseExpirationDate": "02/18/2027",
    "dataDate": "10/18/2025",
    "capacity": 0,
    "address": "74710 HIGHWAY 111, SUITE 102",
    "city": "PALM DESERT",
    "zip": "92260",
    "county": "RIVERSIDE",
    "phone": "(800) 909-7971",
    "lat": 33.721839,
    "lng": -116.361612
  },
  {
    "id": "250000723",
    "name": "MONTEREY PALMS HEALTH CARE CENTER",
    "npi": "1326336009",
    "hcaiId": "206334030",
    "businessName": "MONTEREY PALMS OPERATING COMPANY, LP",
    "contactEmail": "JOHN.BLACK@MARINERHEALTHCARE.COM",
    "categoryName": "SKILLED NURSING FACILITY",
    "categoryCode": "SNF",
    "licenseStatus": "ACTIVE",
    "inService": true,
    "licenseNumber": "250000340",
    "licenseEffectiveDate": "11/02/2025",
    "licenseExpirationDate": "11/01/2026",
    "dataDate": "10/18/2025",
    "capacity": 99,
    "address": "44610 MONTEREY AVE",
    "city": "PALM DESERT",
    "zip": "92260",
    "county": "RIVERSIDE",
    "phone": "(760) 776-7700",
    "lat": 33.72470533,
    "lng": -116.39116
  },
  {
    "id": "630021198",
    "name": "PALM DESERT SURGERY CENTER A MEDICAL CORPORATION",
    "npi": "1730642216",
    "hcaiId": null,
    "businessName": null,
    "contactEmail": "NATALIEDRIESSENMD@GMAIL.COM",
    "categoryName": "SURGICAL CLINIC",
    "categoryCode": "ASC",
    "licenseStatus": null,
    "inService": null,
    "licenseNumber": null,
    "licenseEffectiveDate": null,
    "licenseExpirationDate": null,
    "dataDate": "10/18/2025",
    "capacity": 0,
    "address": "44331 MONTEREY AVE",
    "city": "PALM DESERT",
    "zip": "92260",
    "county": "RIVERSIDE",
    "phone": "(760) 636-0261",
    "lat": 33.726276,
    "lng": -116.391618
  },
  {
    "id": "630025847",
    "name": "PALM VALLEY SURGICAL CENTER, INC",
    "npi": null,
    "hcaiId": null,
    "businessName": null,
    "contactEmail": null,
    "categoryName": "SURGICAL CLINIC",
    "categoryCode": "ASC",
    "licenseStatus": null,
    "inService": null,
    "licenseNumber": null,
    "licenseEffectiveDate": null,
    "licenseExpirationDate": null,
    "dataDate": "10/18/2025",
    "capacity": 0,
    "address": "72650 FRED WARING DR, SUITE 103",
    "city": "PALM DESERT",
    "zip": "92260",
    "county": "RIVERSIDE",
    "phone": "(760) 810-7587",
    "lat": 33.729309,
    "lng": -116.397477
  },
  {
    "id": "630018704",
    "name": "PINNACLE HOSPICE",
    "npi": null,
    "hcaiId": "406335827",
    "businessName": "VALLEY DIGNITY HEALTH",
    "contactEmail": "PINNACLEHOSPICE2017@GMAIL.COM",
    "categoryName": "HOSPICE",
    "categoryCode": "HOSPICE",
    "licenseStatus": "ACTIVE",
    "inService": true,
    "licenseNumber": "550007941",
    "licenseEffectiveDate": "04/15/2022",
    "licenseExpirationDate": "04/14/2024",
    "dataDate": "10/18/2025",
    "capacity": 0,
    "address": "72650 FRED WARING DR, SUITE 203",
    "city": "PALM DESERT",
    "zip": "92260",
    "county": "RIVERSIDE",
    "phone": "(760) 679-3588",
    "lat": 33.729309,
    "lng": -116.397477
  },
  {
    "id": "630023598",
    "name": "PREVENTIVE CARE HOSPICE, INC",
    "npi": null,
    "hcaiId": "406333875",
    "businessName": "PREVENTIVE CARE HOSPICE, INC",
    "contactEmail": "GALUST@LIVE.COM",
    "categoryName": "HOSPICE",
    "categoryCode": "HOSPICE",
    "licenseStatus": "ACTIVE",
    "inService": true,
    "licenseNumber": "550007364",
    "licenseEffectiveDate": "12/04/2023",
    "licenseExpirationDate": "12/03/2025",
    "dataDate": "10/18/2025",
    "capacity": 0,
    "address": "74854 VELIE WAY, SUITE 7",
    "city": "PALM DESERT",
    "zip": "92260",
    "county": "RIVERSIDE",
    "phone": "(818) 371-5979",
    "lat": 33.74289,
    "lng": -116.358354
  },
  {
    "id": "240001814",
    "name": "RAI - CORPORATE WAY - PALM DESERT",
    "npi": "1598839227",
    "hcaiId": "306334002",
    "businessName": "RAI CARE CENTERS OF SOUTHERN CALIFORNIA II, LLC",
    "contactEmail": "CLINIC7187@HMC-NA.COM",
    "categoryName": "CHRONIC DIALYSIS CLINIC",
    "categoryCode": "ESRD/CDC",
    "licenseStatus": "ACTIVE",
    "inService": true,
    "licenseNumber": "240000803",
    "licenseEffectiveDate": "11/01/2025",
    "licenseExpirationDate": "10/31/2026",
    "dataDate": "10/18/2025",
    "capacity": 21,
    "address": "41501 CORPORATE WAY",
    "city": "PALM DESERT",
    "zip": "92260",
    "county": "RIVERSIDE",
    "phone": "(760) 346-7588",
    "lat": 33.746796,
    "lng": -116.362737
  },
  {
    "id": "630014509",
    "name": "RELIANCE HOSPICE, INC.",
    "npi": "1336581701",
    "hcaiId": "406334699",
    "businessName": "RELIANCE HOSPICE, INC.",
    "contactEmail": "SMILLS@RELIANCEHOSPICE.NET",
    "categoryName": "HOSPICE",
    "categoryCode": "HOSPICE",
    "licenseStatus": "ACTIVE",
    "inService": true,
    "licenseNumber": "550002950",
    "licenseEffectiveDate": "09/25/2024",
    "licenseExpirationDate": "09/24/2026",
    "dataDate": "10/18/2025",
    "capacity": 0,
    "address": "74130 COUNTRY CLUB DR, SUITE 103 A",
    "city": "PALM DESERT",
    "zip": "92260",
    "county": "RIVERSIDE",
    "phone": "(760) 423-6924",
    "lat": 33.759342,
    "lng": -116.3718
  },
  {
    "id": "250001824",
    "name": "RENAISSANCE ASC, LLC",
    "npi": "1013068642",
    "hcaiId": "306334556",
    "businessName": "W. RAY HENDERSON, M.D., INC.",
    "contactEmail": null,
    "categoryName": "SURGICAL CLINIC",
    "categoryCode": "ASC/SURGC",
    "licenseStatus": "INACTIVE - CAPEN DECISION",
    "inService": false,
    "licenseNumber": "250000809",
    "licenseEffectiveDate": "11/22/2007",
    "licenseExpirationDate": "11/21/2008",
    "dataDate": "10/18/2025",
    "capacity": 0,
    "address": "44139-B MONTEREY AVENUE",
    "city": "PALM DESERT",
    "zip": "92260",
    "county": "RIVERSIDE",
    "phone": "(760) 773-4477",
    "lat": 33.728317,
    "lng": -116.391293
  },
  {
    "id": "630020759",
    "name": "TRANQUILITY SANDS HOSPICE, INC.",
    "npi": null,
    "hcaiId": "406333988",
    "businessName": "TRANQUILITY SANDS HOSPICE, INC.",
    "contactEmail": "TRANQUILITYSANDSHOSPICE@GMAIL.COM",
    "categoryName": "HOSPICE",
    "categoryCode": "HOSPICE",
    "licenseStatus": "ACTIVE",
    "inService": true,
    "licenseNumber": "550006391",
    "licenseEffectiveDate": "06/03/2025",
    "licenseExpirationDate": "06/02/2027",
    "dataDate": "10/18/2025",
    "capacity": 0,
    "address": "74333 HIGHWAY 111, SUITE 204",
    "city": "PALM DESERT",
    "zip": "92260",
    "county": "RIVERSIDE",
    "phone": "(760) 565-1774",
    "lat": 33.720903,
    "lng": -116.36802
  },
  {
    "id": "250001736",
    "name": "UNLICENSED #100",
    "npi": null,
    "hcaiId": null,
    "businessName": null,
    "contactEmail": null,
    "categoryName": "OTHER",
    "categoryCode": "UNLICEN",
    "licenseStatus": null,
    "inService": null,
    "licenseNumber": null,
    "licenseEffectiveDate": null,
    "licenseExpirationDate": null,
    "dataDate": "10/18/2025",
    "capacity": 0,
    "address": "44610 MONTEREY AVE",
    "city": "PALM DESERT",
    "zip": "92260",
    "county": "RIVERSIDE",
    "phone": "(760) 862-1017",
    "lat": 33.72470533,
    "lng": -116.39116
  },
  {
    "id": "250001749",
    "name": "UNLICENSED FACILITY #103",
    "npi": null,
    "hcaiId": null,
    "businessName": null,
    "contactEmail": null,
    "categoryName": "OTHER",
    "categoryCode": "UNLICEN",
    "licenseStatus": null,
    "inService": null,
    "licenseNumber": null,
    "licenseEffectiveDate": null,
    "licenseExpirationDate": null,
    "dataDate": "10/18/2025",
    "capacity": 0,
    "address": "41625 ECLECTIC ST # 0-1",
    "city": "PALM DESERT",
    "zip": "92260",
    "county": "RIVERSIDE",
    "phone": "(909) 333-3333",
    "lat": 33.746409,
    "lng": -116.358606
  },
  {
    "id": "250001790",
    "name": "UNLICENSED FACILITY#450",
    "npi": null,
    "hcaiId": null,
    "businessName": null,
    "contactEmail": null,
    "categoryName": "OTHER",
    "categoryCode": "UNLICEN",
    "licenseStatus": null,
    "inService": null,
    "licenseNumber": null,
    "licenseEffectiveDate": null,
    "licenseExpirationDate": null,
    "dataDate": "10/18/2025",
    "capacity": 0,
    "address": "73345 HIGHWAY 111, RM 204B",
    "city": "PALM DESERT",
    "zip": "92260",
    "county": "RIVERSIDE",
    "phone": "(760) 568-6933",
    "lat": 33.720813,
    "lng": -116.38512
  },
  {
    "id": "630012937",
    "name": "VALLEY CARE HOME HEALTH, INC.",
    "npi": "1730481193",
    "hcaiId": "406197576",
    "businessName": "VALLEY CARE HOME HEALTH, INC.",
    "contactEmail": "VALLEYCAREHHA@GMAIL.COM",
    "categoryName": "HOME HEALTH AGENCY",
    "categoryCode": "HHA",
    "licenseStatus": "ACTIVE",
    "inService": true,
    "licenseNumber": "550001629",
    "licenseEffectiveDate": "06/30/2025",
    "licenseExpirationDate": "06/29/2026",
    "dataDate": "10/18/2025",
    "capacity": 0,
    "address": "73271 FRED WARING DR, SUITE 100",
    "city": "PALM DESERT",
    "zip": "92260",
    "county": "RIVERSIDE",
    "phone": "(760) 610-1964",
    "lat": 33.72845999,
    "lng": -116.386087
  }
]