[
  {
    "id": "630018871",
    "name": "ANGEL HOSPICE PROVIDERS, INC.",
    "npi": null,
    "hcaiId": "406336056",
    "businessName": "ANGEL HOSPICE PROVIDERS, INC.",
    "contactEmail": "ANGELHOSPICEPROVIDERS@YAHOO.COM",
    "categoryName": "HOSPICE",
    "categoryCode": "HOSPICE",
    "licenseStatus": "ACTIVE",
    "inService": true,
    "licenseNumber": "550006015",
    "licenseEffectiveDate": "11/19/2024",
    "licenseExpirationDate": "11/18/2026",
    "dataDate": "10/18/2025",
    "capacity": 0,
    "address": "555 S SUNRISE WAY, SUITE 212",
    "city": "PALM SPRINGS",
    "zip": "92264",
    "county": "RIVERSIDE",
    "phone": "(760) 799-5464",
    "lat": 33.814908,
    "lng": -116.528859
  },
  {
    "id": "630013257",
    "name": "ANGELS HOME HEALTH CORPORATION",
    "npi": "1073806642",
    "hcaiId": "406335359",
    "businessName": "ANGELS HOME HEALTH CORPORATION",
    "contactEmail": "CC_ANGELSHOMEHEALTH@YAHOO.COM",
    "categoryName": "HOME HEALTH AGENCY",
    "categoryCode": "HHA",
    "licenseStatus": "ACTIVE",
    "inService": true,
    "licenseNumber": "550001765",
    "licenseEffectiveDate": "11/11/2025",
    "licenseExpirationDate": "11/10/2026",
    "dataDate": "10/18/2025",
    "capacity": 0,
    "address": "555 S SUNRISE WAY, SUITE 217",
    "city": "PALM SPRINGS",
    "zip": "92264",
    "county": "RIVERSIDE",
    "phone": "(760) 656-8912",
    "lat": 33.815634,
    "lng": -116.5309421
  },
  {
    "id": "630017248",
    "name": "DESERT CARE HOSPICE",
    "npi": "1104215920",
    "hcaiId": "406331571",
    "businessName": "DESERT CARE ENTERPRISES, LLC",
    "contactEmail": "DESERTCAREHOSPICE@GMAIL.COM",
    "categoryName": "HOSPICE",
    "categoryCode": "HOSPICE",
    "licenseStatus": "ACTIVE",
    "inService": true,
    "licenseNumber": "550004591",
    "licenseEffectiveDate": "03/11/2025",
    "licenseExpirationDate": "03/10/2027",
    "dataDate": "10/18/2025",
    "capacity": 0,
    "address": "555 S SUNRISE WAY, SUITE 213",
    "city": "PALM SPRINGS",
    "zip": "92264",
    "county": "RIVERSIDE",
    "phone": "(760) 318-0668",
    "lat": 33.814908,
    "lng": -116.528859
  },
  {
    "id": "250000039",
    "name": "PREMIER CARE CENTER FOR PALM SPRINGS",
    "npi": "1295734713",
    "hcaiId": "206331147",
    "businessName": "ENSIGN PALM I LLC",
    "contactEmail": "BWONG@ENSIGNSERVICES.NET",
    "categoryName": "SKILLED NURSING FACILITY",
    "categoryCode": "SNF",
    "licenseStatus": "ACTIVE",
    "inService": true,
    "licenseNumber": "250000128",
    "licenseEffectiveDate": "11/16/2024",
    "licenseExpirationDate": "11/15/2025",
    "dataDate": "10/18/2025",
    "capacity": 99,
    "address": "2990 E RAMON RD",
    "city": "PALM SPRINGS",
    "zip": "92264",
    "county": "RIVERSIDE",
    "phone": "(760) 323-2638",
    "lat": 33.8161204,
    "lng": -116.5130784
  }
]