[
  {
    "id": "630016940",
    "name": "BLUE HORIZON HOSPICE",
    "npi": null,
    "hcaiId": "406331534",
    "businessName": "BRIDGE AGENCY, INC.",
    "contactEmail": "ADMIN@BLUEHORIZONHOSPICE.COM",
    "categoryName": "HOSPICE",
    "categoryCode": "HOSPICE",
    "licenseStatus": "ACTIVE",
    "inService": true,
    "licenseNumber": "550004516",
    "licenseEffectiveDate": "11/16/2024",
    "licenseExpirationDate": "11/15/2026",
    "dataDate": "10/18/2025",
    "capacity": 0,
    "address": "400 S. FARRELL DRIVE, SUITE B-100",
    "city": "PALM SPRINGS",
    "zip": "92262",
    "county": "RIVERSIDE",
    "phone": "(760) 318-0554",
    "lat": 33.81715986,
    "lng": -116.5179746
  },
  {
    "id": "630006881",
    "name": "BRIDGE HOME HEALTH INLAND EMPIRE",
    "npi": "1780888206",
    "hcaiId": "406334604",
    "businessName": "SANROSE HOMEHEALTH SERVICES, INC.",
    "contactEmail": "GBOGDAN@BRIDGEHH.COM",
    "categoryName": "HOME HEALTH AGENCY",
    "categoryCode": "HHA",
    "licenseStatus": "ACTIVE",
    "inService": true,
    "licenseNumber": "550000705",
    "licenseEffectiveDate": "03/04/2025",
    "licenseExpirationDate": "03/03/2026",
    "dataDate": "10/18/2025",
    "capacity": 0,
    "address": "777 E TAHQUITZ CANYON WAY, SUITE 341",
    "city": "PALM SPRINGS",
    "zip": "92262",
    "county": "RIVERSIDE",
    "phone": "(708) 218-1661",
    "lat": 33.822621,
    "lng": -116.540469
  },
  {
    "id": "250000033",
    "name": "CALIFORNIA NURSING & REHABILITATION CENTER",
    "npi": "1750398921",
    "hcaiId": "206331352",
    "businessName": "CNRC, LLC",
    "contactEmail": "ADMINISTRATOR@CALIFORNIANURSINGRC.COM",
    "categoryName": "SKILLED NURSING FACILITY",
    "categoryCode": "SNF",
    "licenseStatus": "ACTIVE",
    "inService": true,
    "licenseNumber": "250000212",
    "licenseEffectiveDate": "11/18/2024",
    "licenseExpirationDate": "11/17/2025",
    "dataDate": "10/18/2025",
    "capacity": 80,
    "address": "2299 N INDIAN CANYON DR",
    "city": "PALM SPRINGS",
    "zip": "92262",
    "county": "RIVERSIDE",
    "phone": "(760) 325-2937",
    "lat": 33.849729,
    "lng": -116.546184
  },
  {
    "id": "630019804",
    "name": "DAP HEALTH - PALM SPRINGS FAMILY HEALTH CENTER",
    "npi": null,
    "hcaiId": null,
    "businessName": "DAP HEALTH, INC.",
    "contactEmail": null,
    "categoryName": "PRIMARY CARE CLINIC",
    "categoryCode": "COMTYC",
    "licenseStatus": "ACTIVE",
    "inService": true,
    "licenseNumber": "550000422",
    "licenseEffectiveDate": "02/06/2025",
    "licenseExpirationDate": "02/05/2026",
    "dataDate": "10/18/2025",
    "capacity": 0,
    "address": "1100 N PALM CANYON DR, SUITE 104, 105, 106",
    "city": "PALM SPRINGS",
    "zip": "92262",
    "county": "RIVERSIDE",
    "phone": "(760) 327-1188",
    "lat": 33.838182,
    "lng": -116.5461705
  },
  {
    "id": "250000875",
    "name": "DAP HEALTH, INC",
    "npi": "1568439081",
    "hcaiId": "306334054",
    "businessName": "DAP HEALTH, INC.",
    "contactEmail": "LICENSE@DAPHEALTH.ORG",
    "categoryName": "PRIMARY CARE CLINIC",
    "categoryCode": "COMTYC",
    "licenseStatus": "ACTIVE",
    "inService": true,
    "licenseNumber": "250000395",
    "licenseEffectiveDate": "02/15/2025",
    "licenseExpirationDate": "02/14/2026",
    "dataDate": "10/18/2025",
    "capacity": 0,
    "address": "1695 N SUNRISE WAY, SUITE 101, 103, & 104",
    "city": "PALM SPRINGS",
    "zip": "92262",
    "county": "RIVERSIDE",
    "phone": "(760) 676-5982",
    "lat": 33.843357,
    "lng": -116.5286655
  },
  {
    "id": "630019195",
    "name": "DAP HEALTH, INC",
    "npi": null,
    "hcaiId": null,
    "businessName": "DAP HEALTH, INC.",
    "contactEmail": "CREDENTIALING@DESERTAIDSPROJECT.ORG",
    "categoryName": "PRIMARY CARE CLINIC",
    "categoryCode": "COMTYC",
    "licenseStatus": "ACTIVE",
    "inService": true,
    "licenseNumber": "250000395",
    "licenseEffectiveDate": "02/15/2025",
    "licenseExpirationDate": "02/14/2026",
    "dataDate": "10/18/2025",
    "capacity": 0,
    "address": "1695 N SUNRISE WAY, SUITE SUITE 201, 202, 203 & 204",
    "city": "PALM SPRINGS",
    "zip": "92262",
    "county": "RIVERSIDE",
    "phone": "(760) 323-2118",
    "lat": 33.843483,
    "lng": -116.528697
  },
  {
    "id": "250001784",
    "name": "DESERT HOME HEALTH SERVICES, INC.",
    "npi": "1740287697",
    "hcaiId": "406334594",
    "businessName": "DESERT HOME HEALTH SERVICES, INC.",
    "contactEmail": "EMMA@DHHSI.COM",
    "categoryName": "HOME HEALTH AGENCY",
    "categoryCode": "HHA",
    "licenseStatus": "ACTIVE",
    "inService": true,
    "licenseNumber": "250000781",
    "licenseEffectiveDate": "11/14/2025",
    "licenseExpirationDate": "11/13/2026",
    "dataDate": "10/18/2025",
    "capacity": 0,
    "address": "440 S EL CIELO RD, SUITE 8",
    "city": "PALM SPRINGS",
    "zip": "92262",
    "county": "RIVERSIDE",
    "phone": "(760) 318-9006",
    "lat": 33.81732,
    "lng": -116.509851
  },
  {
    "id": "630005001",
    "name": "DESERT OASIS HEALTHCARE-HOME HEALTH SERVICES",
    "npi": "1578655858",
    "hcaiId": "406334583",
    "businessName": "DESERT MEDICAL GROUP OF INDIO, INC.",
    "contactEmail": "JESS.SANDERFOOT@MYDOHC.COM",
    "categoryName": "HOME HEALTH AGENCY",
    "categoryCode": "HHA",
    "licenseStatus": "ACTIVE",
    "inService": true,
    "licenseNumber": "550000079",
    "licenseEffectiveDate": "11/04/2024",
    "licenseExpirationDate": "11/03/2025",
    "dataDate": "10/18/2025",
    "capacity": 0,
    "address": "255 N EL CIELO RD, SUITE C - 308",
    "city": "PALM SPRINGS",
    "zip": "92262",
    "county": "RIVERSIDE",
    "phone": "(760) 346-8254",
    "lat": 33.818679,
    "lng": -116.5119075
  },
  {
    "id": "250000008",
    "name": "DESERT REGIONAL MEDICAL CENTER",
    "npi": "1104856095",
    "hcaiId": "106331164",
    "businessName": "DESERT REGIONAL MEDICAL CENTER, INC.",
    "contactEmail": "SANDRA.BUTKUS@TENETHEALTH.COM",
    "categoryName": "GENERAL ACUTE CARE HOSPITAL",
    "categoryCode": "GACH",
    "licenseStatus": "ACTIVE",
    "inService": true,
    "licenseNumber": "250000139",
    "licenseEffectiveDate": "11/01/2025",
    "licenseExpirationDate": "10/31/2026",
    "dataDate": "10/18/2025",
    "capacity": 353,
    "address": "1150 N INDIAN CANYON DR",
    "city": "PALM SPRINGS",
    "zip": "92262",
    "county": "RIVERSIDE",
    "phone": "(760) 323-6501",
    "lat": 33.83852744,
    "lng": -116.5455416
  },
  {
    "id": "250000857",
    "name": "DESERT REGIONAL MEDICAL CENTER D/P SNF",
    "npi": null,
    "hcaiId": null,
    "businessName": "DESERT REGIONAL MEDICAL CENTER, INC.",
    "contactEmail": null,
    "categoryName": "SKILLED NURSING FACILITY",
    "categoryCode": "SNF",
    "licenseStatus": "ACTIVE",
    "inService": true,
    "licenseNumber": "250000139",
    "licenseEffectiveDate": "11/01/2025",
    "licenseExpirationDate": "10/31/2026",
    "dataDate": "10/18/2025",
    "capacity": 32,
    "address": "1150 N INDIAN CANYON DR",
    "city": "PALM SPRINGS",
    "zip": "92262",
    "county": "RIVERSIDE",
    "phone": "(760) 323-6511",
    "lat": 33.83852744,
    "lng": -116.5455416
  },
  {
    "id": "630020968",
    "name": "DESERT VALLEY HOSPICE CARE, INC",
    "npi": null,
    "hcaiId": "406333658",
    "businessName": "DESERT VALLEY HOSPICE CARE, INC",
    "contactEmail": "DESERTVALLEYHOSPICECARE@GMAIL.COM",
    "categoryName": "HOSPICE",
    "categoryCode": "HOSPICE",
    "licenseStatus": "ACTIVE",
    "inService": true,
    "licenseNumber": "550006866",
    "licenseEffectiveDate": "09/17/2023",
    "licenseExpirationDate": "09/16/2025",
    "dataDate": "10/18/2025",
    "capacity": 0,
    "address": "777 E TAHQUITZ CANYON WAY, SUITE 200-52",
    "city": "PALM SPRINGS",
    "zip": "92262",
    "county": "RIVERSIDE",
    "phone": "(442) 372-7562",
    "lat": 33.822387,
    "lng": -116.5401315
  },
  {
    "id": "250001372",
    "name": "EL MIRADOR SURGERY CENTER, LLC",
    "npi": "1053416818",
    "hcaiId": "306334440",
    "businessName": "DESERT REGIONAL MEDICAL CENTER, INC.",
    "contactEmail": "IMULLINGS@USPI.COM",
    "categoryName": "SURGICAL CLINIC",
    "categoryCode": "ASC",
    "licenseStatus": "INACTIVE - CAPEN DECISION",
    "inService": false,
    "licenseNumber": "250000583",
    "licenseEffectiveDate": "11/01/2013",
    "licenseExpirationDate": "10/31/2014",
    "dataDate": "10/18/2025",
    "capacity": 0,
    "address": "1180 N INDIAN CYN DR, SUITE 110",
    "city": "PALM SPRINGS",
    "zip": "92262",
    "county": "RIVERSIDE",
    "phone": "(760) 416-4600",
    "lat": 33.83946,
    "lng": -116.545158
  },
  {
    "id": "630009961",
    "name": "FAMILY HOSPICE CARE, LLC",
    "npi": null,
    "hcaiId": "406334574",
    "businessName": "FAMILY HOSPICE CARE LLC",
    "contactEmail": "INFO@FAMILYHOSPICECARE.COM",
    "categoryName": "HOSPICE",
    "categoryCode": "HOSPICE",
    "licenseStatus": "ACTIVE",
    "inService": true,
    "licenseNumber": "550000176",
    "licenseEffectiveDate": "05/12/2024",
    "licenseExpirationDate": "05/11/2026",
    "dataDate": "10/18/2025",
    "capacity": 0,
    "address": "255 N EL CIELO RD, SUITE 300",
    "city": "PALM SPRINGS",
    "zip": "92262",
    "county": "RIVERSIDE",
    "phone": "(760) 674-3344",
    "lat": 33.818679,
    "lng": -116.5119075
  },
  {
    "id": "630018630",
    "name": "LEGACY CARE HOME HEALTH, INC.",
    "npi": "1760946636",
    "hcaiId": "406332213",
    "businessName": "LEGACY CARE HOME HEALTH, INC.",
    "contactEmail": "LEGACYCAREHOMEHEALTH@GMAIL.COM",
    "categoryName": "HOME HEALTH AGENCY",
    "categoryCode": "HHA",
    "licenseStatus": "ACTIVE",
    "inService": true,
    "licenseNumber": "550005241",
    "licenseEffectiveDate": "11/20/2024",
    "licenseExpirationDate": "11/19/2025",
    "dataDate": "10/18/2025",
    "capacity": 0,
    "address": "1733 N PALM CANYON DR, SUITE C",
    "city": "PALM SPRINGS",
    "zip": "92262",
    "county": "RIVERSIDE",
    "phone": "(760) 904-0730",
    "lat": 33.8454,
    "lng": -116.5470165
  },
  {
    "id": "250000869",
    "name": "MARIAN JAMES TRANSITIONAL HOUSE",
    "npi": "1386781144",
    "hcaiId": null,
    "businessName": "ANGEL VIEW, INC.",
    "contactEmail": "RESCAREGA@ANGELVIEW.ORG",
    "categoryName": "INTERMEDIATE CARE FACILITY-DD/H/N/CN/IID",
    "categoryCode": "ICFDDH",
    "licenseStatus": "ACTIVE",
    "inService": true,
    "licenseNumber": "250000392",
    "licenseEffectiveDate": "02/27/2025",
    "licenseExpirationDate": "02/26/2026",
    "dataDate": "10/18/2025",
    "capacity": 6,
    "address": "1758 SCOTIA LN",
    "city": "PALM SPRINGS",
    "zip": "92262",
    "county": "RIVERSIDE",
    "phone": "(760) 834-1303",
    "lat": 33.845139,
    "lng": -116.5174335
  },
  {
    "id": "630012061",
    "name": "MIRAGE HOME HEALTH, LLC",
    "npi": null,
    "hcaiId": "406334618",
    "businessName": "MIRAGE HOME HEALTH LLC",
    "contactEmail": "MIRAGEHOMEHEALTH@GMAIL.COM",
    "categoryName": "HOME HEALTH AGENCY",
    "categoryCode": "HHA",
    "licenseStatus": "ACTIVE",
    "inService": false,
    "licenseNumber": "550001138",
    "licenseEffectiveDate": "11/16/2022",
    "licenseExpirationDate": "11/15/2023",
    "dataDate": "10/18/2025",
    "capacity": 0,
    "address": "2145 E TAHQUITZ CANYON WAY, SUITE 3",
    "city": "PALM SPRINGS",
    "zip": "92262",
    "county": "RIVERSIDE",
    "phone": "(760) 620-5890",
    "lat": 33.822828,
    "lng": -116.522838
  },
  {
    "id": "240001811",
    "name": "PALM SPRINGS DIALYSIS",
    "npi": "1639143431",
    "hcaiId": "306330002",
    "businessName": "DVA RENAL HEALTHCARE, INC.",
    "contactEmail": "CAL_C@DAVITA.COM",
    "categoryName": "CHRONIC DIALYSIS CLINIC",
    "categoryCode": "ESRD/CDC",
    "licenseStatus": "ACTIVE",
    "inService": true,
    "licenseNumber": "240000800",
    "licenseEffectiveDate": "11/11/2024",
    "licenseExpirationDate": "11/10/2025",
    "dataDate": "10/18/2025",
    "capacity": 20,
    "address": "1061 N INDIAN CANYON DR",
    "city": "PALM SPRINGS",
    "zip": "92262",
    "county": "RIVERSIDE",
    "phone": "(760) 325-0909",
    "lat": 33.837147,
    "lng": -116.546409
  },
  {
    "id": "250000092",
    "name": "PALM SPRINGS HEALTHCARE & REHABILITATION CENTER",
    "npi": "1699747659",
    "hcaiId": "206331284",
    "businessName": "PALM SPRINGS OPERATING COMPANY LP",
    "contactEmail": "DENNISE.POTTROFF@MARINERHEALTHCARE.COM",
    "categoryName": "SKILLED NURSING FACILITY",
    "categoryCode": "SNF",
    "licenseStatus": "ACTIVE",
    "inService": true,
    "licenseNumber": "250000182",
    "licenseEffectiveDate": "05/21/2025",
    "licenseExpirationDate": "05/20/2026",
    "dataDate": "10/18/2025",
    "capacity": 99,
    "address": "277 S SUNRISE WAY",
    "city": "PALM SPRINGS",
    "zip": "92262",
    "county": "RIVERSIDE",
    "phone": "(760) 883-2800",
    "lat": 33.81996115,
    "lng": -116.5282864
  },
  {
    "id": "630011869",
    "name": "SERENITY HOSPICE LLC",
    "npi": null,
    "hcaiId": "406334615",
    "businessName": "SERENITY HOSPICE LLC",
    "contactEmail": "SERENITY@SERENITYHOSPICEPS.COM",
    "categoryName": "HOSPICE",
    "categoryCode": "HOSPICE",
    "licenseStatus": "ACTIVE",
    "inService": true,
    "licenseNumber": "550000962",
    "licenseEffectiveDate": "04/02/2025",
    "licenseExpirationDate": "04/01/2027",
    "dataDate": "10/18/2025",
    "capacity": 0,
    "address": "777 E TAHQUITZ CANYON WAY, SUITE 301-308",
    "city": "PALM SPRINGS",
    "zip": "92262",
    "county": "RIVERSIDE",
    "phone": "(760) 325-8718",
    "lat": 33.822414,
    "lng": -116.541234
  },
  {
    "id": "630016659",
    "name": "TEAM HOSPICE, INC.",
    "npi": null,
    "hcaiId": null,
    "businessName": null,
    "contactEmail": null,
    "categoryName": "OTHER",
    "categoryCode": "UNLICEN",
    "licenseStatus": null,
    "inService": null,
    "licenseNumber": null,
    "licenseEffectiveDate": null,
    "licenseExpirationDate": null,
    "dataDate": "10/18/2025",
    "capacity": 0,
    "address": "490 SO. FARRELL DRIVE,, SUITE #C107",
    "city": "PALM SPRINGS",
    "zip": "92262",
    "county": "RIVERSIDE",
    "phone": null,
    "lat": 33.830145,
    "lng": -116.5179015
  },
  {
    "id": "630020004",
    "name": "TRANSGENDER HEALTH AND WELLNESS CENTER",
    "npi": null,
    "hcaiId": "306330709",
    "businessName": "TRANSGENDER HEALTH AND WELLNESS CENTER",
    "contactEmail": "THOMI@TRANS.HEALTH",
    "categoryName": "PRIMARY CARE CLINIC",
    "categoryCode": "COMTYC",
    "licenseStatus": "ACTIVE",
    "inService": true,
    "licenseNumber": "550007799",
    "licenseEffectiveDate": "12/22/2024",
    "licenseExpirationDate": "12/21/2025",
    "dataDate": "10/18/2025",
    "capacity": 0,
    "address": "340 S FARRELL DR, SUITE A208",
    "city": "PALM SPRINGS",
    "zip": "92262",
    "county": "RIVERSIDE",
    "phone": "(760) 202-4308",
    "lat": 33.818139,
    "lng": -116.517627
  },
  {
    "id": "630027596",
    "name": "TRANSGENDER HEALTH AND WELLNESS CENTER (MARSHA P. JOHNSON LGBTQ+ YOUTH DROP-IN CENTER)",
    "npi": null,
    "hcaiId": null,
    "businessName": "TRANSGENDER HEALTH AND WELLNESS CENTER",
    "contactEmail": null,
    "categoryName": "PRIMARY CARE CLINIC",
    "categoryCode": "COMTYC",
    "licenseStatus": "ACTIVE",
    "inService": true,
    "licenseNumber": "550007799",
    "licenseEffectiveDate": "12/22/2024",
    "licenseExpirationDate": "12/21/2025",
    "dataDate": "10/18/2025",
    "capacity": 0,
    "address": "340 S FARRELL DR, SUITE A106",
    "city": "PALM SPRINGS",
    "zip": "92262",
    "county": "RIVERSIDE",
    "phone": null,
    "lat": 33.81788601,
    "lng": -116.517555
  },
  {
    "id": "250000830",
    "name": "WILLIAM DEMAREST CANYON COUNTRY CLUB HOUSE",
    "npi": "1104963974",
    "hcaiId": null,
    "businessName": "ANGEL VIEW, INC.",
    "contactEmail": "CVALENCIA@ANGELVIEW.ORG",
    "categoryName": "INTERMEDIATE CARE FACILITY-DD/H/N/CN/IID",
    "categoryCode": "ICFDDH",
    "licenseStatus": "ACTIVE",
    "inService": true,
    "licenseNumber": "250000374",
    "licenseEffectiveDate": "01/18/2025",
    "licenseExpirationDate": "01/17/2026",
    "dataDate": "10/18/2025",
    "capacity": 6,
    "address": "3566 N EASTGATE RD",
    "city": "PALM SPRINGS",
    "zip": "92262",
    "county": "RIVERSIDE",
    "phone": "(760) 834-1303",
    "lat": 33.86225616,
    "lng": -116.5545704
  }
]