[
  {
    "id": "240001585",
    "name": "AMERICAN DESERT MEDICAL CLINICS/SEAN R.THOMAS,MD",
    "npi": "1154336246",
    "hcaiId": null,
    "businessName": null,
    "contactEmail": null,
    "categoryName": "PRIMARY CARE CLINIC",
    "categoryCode": "RHC",
    "licenseStatus": null,
    "inService": null,
    "licenseNumber": null,
    "licenseEffectiveDate": null,
    "licenseExpirationDate": null,
    "dataDate": "10/18/2025",
    "capacity": 0,
    "address": "6186 ADOBE RD",
    "city": "TWENTYNINE PALMS",
    "zip": "92277",
    "county": "SAN BERNARDINO",
    "phone": "(760) 361-8525",
    "lat": 34.141473,
    "lng": -116.0551035
  },
  {
    "id": "630020772",
    "name": "MORONGO BASIN COMMUNITY HEALTH CENTER - SR",
    "npi": null,
    "hcaiId": null,
    "businessName": null,
    "contactEmail": null,
    "categoryName": "PRIMARY CARE CLINIC",
    "categoryCode": "FQHC",
    "licenseStatus": null,
    "inService": null,
    "licenseNumber": null,
    "licenseEffectiveDate": null,
    "licenseExpirationDate": null,
    "dataDate": "10/18/2025",
    "capacity": 0,
    "address": "6830 SPLIT ROCK AVE, SUITE 103",
    "city": "TWENTYNINE PALMS",
    "zip": "92277",
    "county": "SAN BERNARDINO",
    "phone": "(760) 367-5906",
    "lat": 34.12967782,
    "lng": -116.0603323
  },
  {
    "id": "630002781",
    "name": "MORONGO BASIN COMMUNITY HEALTH CENTER 29P",
    "npi": null,
    "hcaiId": null,
    "businessName": null,
    "contactEmail": "SCHMALL@MBHDISTRICT.ORG",
    "categoryName": "PRIMARY CARE CLINIC",
    "categoryCode": "FQHC",
    "licenseStatus": null,
    "inService": null,
    "licenseNumber": null,
    "licenseEffectiveDate": null,
    "licenseExpirationDate": null,
    "dataDate": "10/18/2025",
    "capacity": 0,
    "address": "6380 SPLIT ROCK AVE, SUITE 101-103",
    "city": "TWENTYNINE PALMS",
    "zip": "92277",
    "county": "SAN BERNARDINO",
    "phone": "(760) 365-9305",
    "lat": 34.13732047,
    "lng": -116.0602317
  }
]