[
  {
    "id": "250001735",
    "name": "ADVANCED PAIN MANAGEMENT",
    "npi": "1699768713",
    "hcaiId": "306334504",
    "businessName": null,
    "contactEmail": null,
    "categoryName": "SURGICAL CLINIC",
    "categoryCode": "ASC",
    "licenseStatus": "INACTIVE - CAPEN DECISION",
    "inService": false,
    "licenseNumber": "250000753",
    "licenseEffectiveDate": "05/17/2008",
    "licenseExpirationDate": "05/16/2009",
    "dataDate": "10/18/2025",
    "capacity": 0,
    "address": "39700 BOB HOPE DR, SUITE 204",
    "city": "RANCHO MIRAGE",
    "zip": "92270",
    "county": "RIVERSIDE",
    "phone": "(760) 776-7520",
    "lat": 33.760656,
    "lng": -116.406153
  },
  {
    "id": "250000406",
    "name": "BARBARA SINATRA CHILDREN'S CENTER AT EISENHOWER",
    "npi": null,
    "hcaiId": "306334009",
    "businessName": "BARBARA SINATRA CHILDREN'S CENTER AT EISENHOWER",
    "contactEmail": "JTHORESEN@EISENHOWERHEALTH.ORG",
    "categoryName": "PSYCHOLOGY CLINIC",
    "categoryCode": "PSYCHC",
    "licenseStatus": "ACTIVE",
    "inService": true,
    "licenseNumber": "250000253",
    "licenseEffectiveDate": "11/01/2025",
    "licenseExpirationDate": "10/31/2026",
    "dataDate": "10/18/2025",
    "capacity": 0,
    "address": "39000 BOB HOPE DR",
    "city": "RANCHO MIRAGE",
    "zip": "92270",
    "county": "RIVERSIDE",
    "phone": "(760) 340-2336",
    "lat": 33.764652,
    "lng": -116.40555
  },
  {
    "id": "250001745",
    "name": "BAYSHIRE RANCHO MIRAGE",
    "npi": null,
    "hcaiId": "206334506",
    "businessName": "SKILLED MIRAGE LLC",
    "contactEmail": "CHAD@BAYSHIRE.COM",
    "categoryName": "SKILLED NURSING FACILITY",
    "categoryCode": "SNF",
    "licenseStatus": "ACTIVE",
    "inService": true,
    "licenseNumber": "250000759",
    "licenseEffectiveDate": "05/06/2025",
    "licenseExpirationDate": "05/05/2026",
    "dataDate": "10/18/2025",
    "capacity": 45,
    "address": "72201 COUNTRY CLUB DR",
    "city": "RANCHO MIRAGE",
    "zip": "92270",
    "county": "RIVERSIDE",
    "phone": "(858) 888-5969",
    "lat": 33.756759,
    "lng": -116.4048525
  },
  {
    "id": "630017446",
    "name": "DEL ROSA HOSPICE AND PALLIATIVE CARE, INC.",
    "npi": "1518496348",
    "hcaiId": "406362231",
    "businessName": "DEL ROSA HOSPICE AND PALLIATIVE CARE, INC.",
    "contactEmail": "CONTACT@DELROSAHOSPICE.COM",
    "categoryName": "HOSPICE",
    "categoryCode": "HOSPICE",
    "licenseStatus": "ACTIVE",
    "inService": true,
    "licenseNumber": "550005221",
    "licenseEffectiveDate": "01/13/2024",
    "licenseExpirationDate": "01/12/2026",
    "dataDate": "10/18/2025",
    "capacity": 0,
    "address": "69846 HIGHWAY 111, SUITE D",
    "city": "RANCHO MIRAGE",
    "zip": "92270",
    "county": "RIVERSIDE",
    "phone": "(909) 713-2070",
    "lat": 33.76935298,
    "lng": -116.4461226
  },
  {
    "id": "630026932",
    "name": "DESERT VEIN & VASCULAR INSTITUTE, ASC, LLC",
    "npi": null,
    "hcaiId": null,
    "businessName": null,
    "contactEmail": null,
    "categoryName": "SURGICAL CLINIC",
    "categoryCode": "ASC",
    "licenseStatus": null,
    "inService": null,
    "licenseNumber": null,
    "licenseEffectiveDate": null,
    "licenseExpirationDate": null,
    "dataDate": "10/18/2025",
    "capacity": 0,
    "address": "72120 MAGNESIA FALLS DR, BUILDING C6-14",
    "city": "RANCHO MIRAGE",
    "zip": "92270",
    "county": "RIVERSIDE",
    "phone": "(760) 568-3461",
    "lat": 33.7360084,
    "lng": -116.4056824
  },
  {
    "id": "250000011",
    "name": "EISENHOWER MEDICAL CENTER",
    "npi": "1013981554",
    "hcaiId": "106331168",
    "businessName": "EISENHOWER MEDICAL CENTER",
    "contactEmail": "TPELLUM@EISENHOWERHEALTH.ORG",
    "categoryName": "GENERAL ACUTE CARE HOSPITAL",
    "categoryCode": "GACH",
    "licenseStatus": "ACTIVE",
    "inService": true,
    "licenseNumber": "250000142",
    "licenseEffectiveDate": "04/14/2025",
    "licenseExpirationDate": "12/31/2025",
    "dataDate": "10/18/2025",
    "capacity": 463,
    "address": "39000 BOB HOPE DR",
    "city": "RANCHO MIRAGE",
    "zip": "92270",
    "county": "RIVERSIDE",
    "phone": "(760) 837-8812",
    "lat": 33.764076,
    "lng": -116.402526
  },
  {
    "id": "250000255",
    "name": "EYE SURGERY CENTER OF THE DESERT",
    "npi": "1336254770",
    "hcaiId": null,
    "businessName": null,
    "contactEmail": null,
    "categoryName": "SURGICAL CLINIC",
    "categoryCode": "ASC",
    "licenseStatus": null,
    "inService": null,
    "licenseNumber": null,
    "licenseEffectiveDate": null,
    "licenseExpirationDate": null,
    "dataDate": "10/18/2025",
    "capacity": 0,
    "address": "72301 COUNTRY CLUB DR, SUITE 101",
    "city": "RANCHO MIRAGE",
    "zip": "92270",
    "county": "RIVERSIDE",
    "phone": "(760) 776-8100",
    "lat": 33.75693,
    "lng": -116.4025035
  },
  {
    "id": "630025223",
    "name": "GOLDEN PALMS HOME HEALTH CARE INC.",
    "npi": null,
    "hcaiId": "406336757",
    "businessName": "GOLDEN PALM HOME HEALTH CARE INC.",
    "contactEmail": "GOLDENPALMSHHC@YAHOO.COM",
    "categoryName": "HOME HEALTH AGENCY",
    "categoryCode": "HHA",
    "licenseStatus": "ACTIVE",
    "inService": true,
    "licenseNumber": "550008366",
    "licenseEffectiveDate": "05/05/2025",
    "licenseExpirationDate": "01/18/2026",
    "dataDate": "10/18/2025",
    "capacity": 0,
    "address": "71703 HIGHWAY 111, SUITE 1A",
    "city": "RANCHO MIRAGE",
    "zip": "92270",
    "county": "RIVERSIDE",
    "phone": "(760) 318-0000",
    "lat": 33.74183701,
    "lng": -116.413486
  },
  {
    "id": "240001824",
    "name": "KIDNEY INSTITUTE AT EMC LLC",
    "npi": "1922183045",
    "hcaiId": "306334490",
    "businessName": "KIDNEY INSTITUTE AT EMC LLC",
    "contactEmail": "YVONNEH@KIDNEYINSTITUTES.COM",
    "categoryName": "CHRONIC DIALYSIS CLINIC",
    "categoryCode": "ESRD/CDC",
    "licenseStatus": "ACTIVE",
    "inService": true,
    "licenseNumber": "240000813",
    "licenseEffectiveDate": "02/24/2025",
    "licenseExpirationDate": "02/23/2026",
    "dataDate": "10/18/2025",
    "capacity": 0,
    "address": "39000 BOB HOPE DR, SUITE P-103",
    "city": "RANCHO MIRAGE",
    "zip": "92270",
    "county": "RIVERSIDE",
    "phone": "(760) 837-9696",
    "lat": 33.764652,
    "lng": -116.40555
  },
  {
    "id": "250001794",
    "name": "MIRAGE ENDOSCOPY CENTER L.P.",
    "npi": "1588668503",
    "hcaiId": "306334529",
    "businessName": "MIRAGE ENDOSCOPY CENTER, L.P.",
    "contactEmail": null,
    "categoryName": "SURGICAL CLINIC",
    "categoryCode": "ASC",
    "licenseStatus": "INACTIVE - CAPEN DECISION",
    "inService": false,
    "licenseNumber": "250000789",
    "licenseEffectiveDate": "04/15/2008",
    "licenseExpirationDate": "04/14/2009",
    "dataDate": "10/18/2025",
    "capacity": 0,
    "address": "39935 VISTA DEL SOL, SUITE 101",
    "city": "RANCHO MIRAGE",
    "zip": "92270",
    "county": "RIVERSIDE",
    "phone": "(760) 837-9210",
    "lat": 33.758505,
    "lng": -116.398827
  },
  {
    "id": "630016326",
    "name": "MISSION HOSPICE SERVICES OF RANCHO MIRAGE, LLC.",
    "npi": "1063804763",
    "hcaiId": "406332351",
    "businessName": "MISSION HOSPICE SERVICES OF RANCHO MIRAGE, LLC.",
    "contactEmail": "GPINERO@MISSIONHH.COM",
    "categoryName": "HOSPICE",
    "categoryCode": "HOSPICE",
    "licenseStatus": "ACTIVE",
    "inService": true,
    "licenseNumber": "550004153",
    "licenseEffectiveDate": "02/06/2024",
    "licenseExpirationDate": "02/05/2026",
    "dataDate": "10/18/2025",
    "capacity": 0,
    "address": "71703 HIGHWAY 111, SUITE 1C",
    "city": "RANCHO MIRAGE",
    "zip": "92270",
    "county": "RIVERSIDE",
    "phone": "(760) 610-5425",
    "lat": 33.741792,
    "lng": -116.413443
  },
  {
    "id": "630025857",
    "name": "PALM SPRINGS HOME HEALTH NURSES INC",
    "npi": null,
    "hcaiId": null,
    "businessName": "PALM SPRINGS HOME HEALTH NURSES, INC",
    "contactEmail": "PALMSPRINGSHHN@GMAIL.COM",
    "categoryName": "HOME HEALTH AGENCY",
    "categoryCode": "HHA",
    "licenseStatus": "ACTIVE",
    "inService": true,
    "licenseNumber": "550009208",
    "licenseEffectiveDate": "06/04/2025",
    "licenseExpirationDate": "06/03/2026",
    "dataDate": "10/18/2025",
    "capacity": 0,
    "address": "69730 HIGHWAY 111, SUITE 207B",
    "city": "RANCHO MIRAGE",
    "zip": "92270",
    "county": "RIVERSIDE",
    "phone": "(800) 975-7880",
    "lat": 33.773013,
    "lng": -116.446968
  },
  {
    "id": "630021752",
    "name": "PALM SPRINGS HOSPICE AND PALLIATIVE CARE, INC.",
    "npi": null,
    "hcaiId": "406335741",
    "businessName": "PALM SPRINGS HOSPICE AND PALLIATIVE CARE, INC.",
    "contactEmail": "PALMSPRINGSHPC@GMAIL.COM",
    "categoryName": "HOSPICE",
    "categoryCode": "HOSPICE",
    "licenseStatus": "ACTIVE",
    "inService": true,
    "licenseNumber": "550007720",
    "licenseEffectiveDate": "12/21/2023",
    "licenseExpirationDate": "12/20/2025",
    "dataDate": "10/18/2025",
    "capacity": 0,
    "address": "69-730 HIGHWAY 111, SUITE 204",
    "city": "RANCHO MIRAGE",
    "zip": "92270",
    "county": "RIVERSIDE",
    "phone": "(800) 917-6090",
    "lat": 33.7731137,
    "lng": -116.4485538
  },
  {
    "id": "250001411",
    "name": "PLANNED PARENTHOOD - RANCHO MIRAGE CENTER",
    "npi": "1669407656",
    "hcaiId": "306334451",
    "businessName": "PLANNED PARENTHOOD OF THE PACIFIC SOUTHWEST",
    "contactEmail": "LMANN1@PLANNED.ORG",
    "categoryName": "PRIMARY CARE CLINIC",
    "categoryCode": "COMTYC",
    "licenseStatus": "ACTIVE",
    "inService": true,
    "licenseNumber": "250000602",
    "licenseEffectiveDate": "11/13/2025",
    "licenseExpirationDate": "11/12/2026",
    "dataDate": "10/18/2025",
    "capacity": 0,
    "address": "71777 SAN JACINTO DR, SUITE 202",
    "city": "RANCHO MIRAGE",
    "zip": "92270",
    "county": "RIVERSIDE",
    "phone": "(619) 881-4500",
    "lat": 33.743781,
    "lng": -116.4127905
  },
  {
    "id": "630026996",
    "name": "PLASTIC & RECONSTRUCTIVE SURGERY & LASER MEDICAL CENTER OF THE DESERT",
    "npi": null,
    "hcaiId": null,
    "businessName": null,
    "contactEmail": "DRSOFONIO@DRSOFONIO.COM",
    "categoryName": "SURGICAL CLINIC",
    "categoryCode": "ASC",
    "licenseStatus": null,
    "inService": null,
    "licenseNumber": null,
    "licenseEffectiveDate": null,
    "licenseExpirationDate": null,
    "dataDate": "10/18/2025",
    "capacity": 0,
    "address": "71885 HIGHWAY 111",
    "city": "RANCHO MIRAGE",
    "zip": "92270",
    "county": "RIVERSIDE",
    "phone": "(760) 388-6677",
    "lat": 33.73857599,
    "lng": -116.410549
  },
  {
    "id": "250000299",
    "name": "RANCHO MIRAGE HEALTH AND REHABILITATION CENTER",
    "npi": "1164416657",
    "hcaiId": "206332173",
    "businessName": "AG RANCHO MIRAGE, LLC",
    "contactEmail": "JENNIFER.CABALLERO@RANCHOMIRAGEHCC.COM",
    "categoryName": "SKILLED NURSING FACILITY",
    "categoryCode": "SNF",
    "licenseStatus": "ACTIVE",
    "inService": true,
    "licenseNumber": "250000245",
    "licenseEffectiveDate": "11/01/2024",
    "licenseExpirationDate": "10/31/2025",
    "dataDate": "10/18/2025",
    "capacity": 99,
    "address": "39950 VISTA DEL SOL",
    "city": "RANCHO MIRAGE",
    "zip": "92270",
    "county": "RIVERSIDE",
    "phone": "(760) 340-0053",
    "lat": 33.758226,
    "lng": -116.3965455
  },
  {
    "id": "630011318",
    "name": "RANCHO MIRAGE PAIN CENTER",
    "npi": "1093885675",
    "hcaiId": null,
    "businessName": null,
    "contactEmail": null,
    "categoryName": "SURGICAL CLINIC",
    "categoryCode": "ASC",
    "licenseStatus": null,
    "inService": null,
    "licenseNumber": null,
    "licenseEffectiveDate": null,
    "licenseExpirationDate": null,
    "dataDate": "10/18/2025",
    "capacity": 0,
    "address": "39300 BOB HOPE DR",
    "city": "RANCHO MIRAGE",
    "zip": "92270",
    "county": "RIVERSIDE",
    "phone": null,
    "lat": 33.762276,
    "lng": -116.407989
  },
  {
    "id": "630011898",
    "name": "RANCHO MIRAGE SURGERY CENTER",
    "npi": "1154593481",
    "hcaiId": "306334612",
    "businessName": "RANCHO MIRAGE SURGERY CENTER",
    "contactEmail": null,
    "categoryName": "SURGICAL CLINIC",
    "categoryCode": "ASC/SURGC",
    "licenseStatus": "INACTIVE - CAPEN DECISION",
    "inService": false,
    "licenseNumber": "550000803",
    "licenseEffectiveDate": "11/01/2009",
    "licenseExpirationDate": "10/31/2010",
    "dataDate": "10/18/2025",
    "capacity": 0,
    "address": "35800 BOB HOPE DR, SUITE 100",
    "city": "RANCHO MIRAGE",
    "zip": "92270",
    "county": "RIVERSIDE",
    "phone": "(760) 699-6500",
    "lat": 33.790518,
    "lng": -116.405424
  },
  {
    "id": "630017654",
    "name": "REHABILITATION HOSPITAL OF SOUTHERN CALIFORNIA",
    "npi": "1407381320",
    "hcaiId": "106334533",
    "businessName": "REHABILITATION HOSPITAL OF SOUTHERN CALIFORNIA, LLC",
    "contactEmail": "RACHELLESPENCER@ERNESTHEALTH.COM",
    "categoryName": "GENERAL ACUTE CARE HOSPITAL",
    "categoryCode": "GACH",
    "licenseStatus": "ACTIVE",
    "inService": true,
    "licenseNumber": "550004348",
    "licenseEffectiveDate": "08/24/2025",
    "licenseExpirationDate": "08/23/2026",
    "dataDate": "10/18/2025",
    "capacity": 50,
    "address": "70077 RAMON RD",
    "city": "RANCHO MIRAGE",
    "zip": "92270",
    "county": "RIVERSIDE",
    "phone": "(760) 895-6600",
    "lat": 33.814872,
    "lng": -116.4394485
  },
  {
    "id": "630016963",
    "name": "RIVER'S EDGE SURGERY CENTER, INC",
    "npi": "1811386147",
    "hcaiId": null,
    "businessName": null,
    "contactEmail": null,
    "categoryName": "SURGICAL CLINIC",
    "categoryCode": "ASC",
    "licenseStatus": null,
    "inService": null,
    "licenseNumber": null,
    "licenseEffectiveDate": null,
    "licenseExpirationDate": null,
    "dataDate": "10/18/2025",
    "capacity": 0,
    "address": "71780 SAN JACINTO DRIVE, SUITE D",
    "city": "RANCHO MIRAGE",
    "zip": "92270",
    "county": "RIVERSIDE",
    "phone": null,
    "lat": 33.743331,
    "lng": -116.411607
  },
  {
    "id": "630012457",
    "name": "STELLAR SURGICAL SPECIALTIES, INC.",
    "npi": "1558625731",
    "hcaiId": null,
    "businessName": null,
    "contactEmail": null,
    "categoryName": "SURGICAL CLINIC",
    "categoryCode": "ASC/SURGC",
    "licenseStatus": null,
    "inService": null,
    "licenseNumber": null,
    "licenseEffectiveDate": null,
    "licenseExpirationDate": null,
    "dataDate": "10/18/2025",
    "capacity": 0,
    "address": "69780 STELLAR DR",
    "city": "RANCHO MIRAGE",
    "zip": "92270",
    "county": "RIVERSIDE",
    "phone": "(760) 202-2770",
    "lat": 33.763131,
    "lng": -116.444169
  },
  {
    "id": "250000147",
    "name": "THE BETTY FORD CENTER",
    "npi": null,
    "hcaiId": "106330120",
    "businessName": "HAZELDEN BETTY FORD FOUNDATION",
    "contactEmail": "SHARPER@HAZELDENBETTYFORD.ORG",
    "categoryName": "CHEMICAL DEPENDENCY RECOVERY HOSPITAL",
    "categoryCode": "CDRH",
    "licenseStatus": "ACTIVE",
    "inService": true,
    "licenseNumber": "250000049",
    "licenseEffectiveDate": "09/07/2025",
    "licenseExpirationDate": "09/06/2026",
    "dataDate": "10/18/2025",
    "capacity": 100,
    "address": "39407 VISTA DEL SOL",
    "city": "RANCHO MIRAGE",
    "zip": "92270",
    "county": "RIVERSIDE",
    "phone": "(760) 837-8815",
    "lat": 33.76240494,
    "lng": -116.3976909
  },
  {
    "id": "250001789",
    "name": "THE PLASTIC SURGERY INSTITUTE",
    "npi": null,
    "hcaiId": "306334522",
    "businessName": null,
    "contactEmail": null,
    "categoryName": "SURGICAL CLINIC",
    "categoryCode": "ASC",
    "licenseStatus": "INACTIVE - CAPEN DECISION",
    "inService": false,
    "licenseNumber": "250000785",
    "licenseEffectiveDate": "12/30/2007",
    "licenseExpirationDate": "12/29/2008",
    "dataDate": "10/18/2025",
    "capacity": 0,
    "address": "71949 HIGHWAY 111, SUITE 300",
    "city": "RANCHO MIRAGE",
    "zip": "92270",
    "county": "RIVERSIDE",
    "phone": "(760) 568-2211",
    "lat": 33.736455,
    "lng": -116.4101355
  },
  {
    "id": "250001754",
    "name": "UNLICENSED FACILITY #111",
    "npi": null,
    "hcaiId": null,
    "businessName": null,
    "contactEmail": null,
    "categoryName": "OTHER",
    "categoryCode": "UNLICEN",
    "licenseStatus": null,
    "inService": null,
    "licenseNumber": null,
    "licenseEffectiveDate": null,
    "licenseExpirationDate": null,
    "dataDate": "10/18/2025",
    "capacity": 0,
    "address": "69846 HIGHWAY 111",
    "city": "RANCHO MIRAGE",
    "zip": "92270",
    "county": "RIVERSIDE",
    "phone": "(800) 336-5000",
    "lat": 33.76935298,
    "lng": -116.4461226
  }
]