[
  {
    "id": "630018250",
    "name": "ARCHANGEL HOSPICE, LLC",
    "npi": "1629554977",
    "hcaiId": "406362641",
    "businessName": "ARCHANGEL HOSPICE, LLC",
    "contactEmail": "ARCHANGELHOSPICELLC@YAHOO.COM",
    "categoryName": "HOSPICE",
    "categoryCode": "HOSPICE",
    "licenseStatus": "ACTIVE",
    "inService": true,
    "licenseNumber": "550005044",
    "licenseEffectiveDate": "10/10/2025",
    "licenseExpirationDate": "10/09/2027",
    "dataDate": "10/18/2025",
    "capacity": 0,
    "address": "57475 TWENTYNINE PALMS HWY, SUITE 103",
    "city": "YUCCA VALLEY",
    "zip": "92284",
    "county": "SAN BERNARDINO",
    "phone": "(760) 799-5464",
    "lat": 34.12446721,
    "lng": -116.4105871
  },
  {
    "id": "240001459",
    "name": "HI-DESERT DIALYSIS",
    "npi": "1265406045",
    "hcaiId": "306364573",
    "businessName": "DVA RENAL HEALTHCARE, INC.",
    "contactEmail": "CAL_C@DAVITA.COM",
    "categoryName": "CHRONIC DIALYSIS CLINIC",
    "categoryCode": "ESRD/CDC",
    "licenseStatus": "ACTIVE",
    "inService": true,
    "licenseNumber": "240000630",
    "licenseEffectiveDate": "01/01/2025",
    "licenseExpirationDate": "12/31/2025",
    "dataDate": "10/18/2025",
    "capacity": 25,
    "address": "56845 29 PALMS HWY",
    "city": "YUCCA VALLEY",
    "zip": "92284",
    "county": "SAN BERNARDINO",
    "phone": "(760) 365-8706",
    "lat": 34.119729,
    "lng": -116.424279
  },
  {
    "id": "240001386",
    "name": "HIGH DESERT FAMILY MEDICAL CLINIC",
    "npi": "1639405004",
    "hcaiId": null,
    "businessName": null,
    "contactEmail": null,
    "categoryName": "PRIMARY CARE CLINIC",
    "categoryCode": "RHC",
    "licenseStatus": null,
    "inService": null,
    "licenseNumber": null,
    "licenseEffectiveDate": null,
    "licenseExpirationDate": null,
    "dataDate": "10/18/2025",
    "capacity": 0,
    "address": "7350 CHURCH ST",
    "city": "YUCCA VALLEY",
    "zip": "92284",
    "county": "SAN BERNARDINO",
    "phone": "(760) 369-3069",
    "lat": 34.119468,
    "lng": -116.437005
  },
  {
    "id": "240001555",
    "name": "HIGH DESERT PREGNANCY CLINIC, INC.",
    "npi": null,
    "hcaiId": "306364259",
    "businessName": "HIGH DESERT PREGNANCY CLINIC, INC.",
    "contactEmail": "HDPCLINIC@GMAIL.COM",
    "categoryName": "PRIMARY CARE CLINIC",
    "categoryCode": "COMTYC",
    "licenseStatus": "ACTIVE",
    "inService": true,
    "licenseNumber": "240000674",
    "licenseEffectiveDate": "12/09/2024",
    "licenseExpirationDate": "12/08/2025",
    "dataDate": "10/18/2025",
    "capacity": 0,
    "address": "57725 29 PALMS HWY, SUITE 104",
    "city": "YUCCA VALLEY",
    "zip": "92284",
    "county": "SAN BERNARDINO",
    "phone": "(760) 369-8512",
    "lat": 34.12539,
    "lng": -116.403563
  },
  {
    "id": "240000682",
    "name": "INDIAN CANYON POST ACUTE",
    "npi": "1417928862",
    "hcaiId": "206364035",
    "businessName": "INDIAN CANYON PACC, LLC",
    "contactEmail": "JILLL@ROCKWELL.CARE",
    "categoryName": "SKILLED NURSING FACILITY",
    "categoryCode": "SNF",
    "licenseStatus": "ACTIVE",
    "inService": true,
    "licenseNumber": "240000320",
    "licenseEffectiveDate": "06/05/2025",
    "licenseExpirationDate": "06/04/2026",
    "dataDate": "10/18/2025",
    "capacity": 99,
    "address": "57333 JOSHUA LN",
    "city": "YUCCA VALLEY",
    "zip": "92284",
    "county": "SAN BERNARDINO",
    "phone": "(626) 236-7981",
    "lat": 34.096752,
    "lng": -116.413488
  },
  {
    "id": "240000252",
    "name": "JOSHUA TREE POST ACUTE",
    "npi": "1902372360",
    "hcaiId": "206360188",
    "businessName": "JOSHUA TREE PAAC, LLC",
    "contactEmail": "JILLL@ROCKWELL.CARE",
    "categoryName": "SKILLED NURSING FACILITY",
    "categoryCode": "SNF",
    "licenseStatus": "ACTIVE",
    "inService": true,
    "licenseNumber": "240000001",
    "licenseEffectiveDate": "06/05/2025",
    "licenseExpirationDate": "06/04/2026",
    "dataDate": "10/18/2025",
    "capacity": 58,
    "address": "8515 CHOLLA AVE",
    "city": "YUCCA VALLEY",
    "zip": "92284",
    "county": "SAN BERNARDINO",
    "phone": "(909) 677-3865",
    "lat": 34.096788,
    "lng": -116.4318525
  },
  {
    "id": "630017753",
    "name": "MORONGO BASIN COMMUNITY HEALTH CENTER BH",
    "npi": null,
    "hcaiId": null,
    "businessName": null,
    "contactEmail": "SCHMALL@MBHDISTRICT.ORG",
    "categoryName": "PRIMARY CARE CLINIC",
    "categoryCode": "FQHC",
    "licenseStatus": null,
    "inService": null,
    "licenseNumber": null,
    "licenseEffectiveDate": null,
    "licenseExpirationDate": null,
    "dataDate": "10/18/2025",
    "capacity": 0,
    "address": "58383 29 PALMS HWY",
    "city": "YUCCA VALLEY",
    "zip": "92284",
    "county": "SAN BERNARDINO",
    "phone": "(760) 365-9305",
    "lat": 34.13124099,
    "lng": -116.389813
  },
  {
    "id": "630015471",
    "name": "MORONGO BASIN COMMUNITY HEALTH CENTER YV",
    "npi": null,
    "hcaiId": null,
    "businessName": null,
    "contactEmail": "SCHMALL@MBHDISTRICT.ORG",
    "categoryName": "PRIMARY CARE CLINIC",
    "categoryCode": "FQHC",
    "licenseStatus": null,
    "inService": null,
    "licenseNumber": null,
    "licenseEffectiveDate": null,
    "licenseExpirationDate": null,
    "dataDate": "10/18/2025",
    "capacity": 0,
    "address": "58375 29 PALMS HWY",
    "city": "YUCCA VALLEY",
    "zip": "92284",
    "county": "SAN BERNARDINO",
    "phone": "(760) 365-9305",
    "lat": 34.130853,
    "lng": -116.389908
  },
  {
    "id": "240001604",
    "name": "SEAN R. THOMAS M.D. INC.",
    "npi": "1386869147",
    "hcaiId": null,
    "businessName": null,
    "contactEmail": null,
    "categoryName": "PRIMARY CARE CLINIC",
    "categoryCode": "RHC",
    "licenseStatus": null,
    "inService": null,
    "licenseNumber": null,
    "licenseEffectiveDate": null,
    "licenseExpirationDate": null,
    "dataDate": "10/18/2025",
    "capacity": 0,
    "address": "55585 29 PALMS HWY",
    "city": "YUCCA VALLEY",
    "zip": "92284",
    "county": "SAN BERNARDINO",
    "phone": "(760) 228-3366",
    "lat": 34.11799301,
    "lng": -116.4513856
  },
  {
    "id": "630015026",
    "name": "SPECIALTY HEALTH CLINIC",
    "npi": "1841501319",
    "hcaiId": null,
    "businessName": null,
    "contactEmail": "SEIPSURGERY@HOTMAIL.COM",
    "categoryName": "PRIMARY CARE CLINIC",
    "categoryCode": "RHC",
    "licenseStatus": null,
    "inService": null,
    "licenseNumber": null,
    "licenseEffectiveDate": null,
    "licenseExpirationDate": null,
    "dataDate": "10/18/2025",
    "capacity": 0,
    "address": "57402 29 PALMS HWY, SUITE 1",
    "city": "YUCCA VALLEY",
    "zip": "92284",
    "county": "SAN BERNARDINO",
    "phone": "(760) 228-1800",
    "lat": 34.124868,
    "lng": -116.411499
  },
  {
    "id": "630014523",
    "name": "YUCCA FAMILY MEDICAL CARE, INC.",
    "npi": "1942640511",
    "hcaiId": null,
    "businessName": null,
    "contactEmail": "YFMC2008@GMAIL.COM",
    "categoryName": "PRIMARY CARE CLINIC",
    "categoryCode": "RHC",
    "licenseStatus": null,
    "inService": null,
    "licenseNumber": null,
    "licenseEffectiveDate": null,
    "licenseExpirationDate": null,
    "dataDate": "10/18/2025",
    "capacity": 0,
    "address": "57675 29 PALMS HWY, SUITE 111",
    "city": "YUCCA VALLEY",
    "zip": "92284",
    "county": "SAN BERNARDINO",
    "phone": "(760) 365-8500",
    "lat": 34.124607,
    "lng": -116.405586
  }
]