[
  {
    "id": "630014014",
    "name": "COUNTY OF SAN BERNARDINO",
    "npi": null,
    "hcaiId": null,
    "businessName": null,
    "contactEmail": null,
    "categoryName": "PRIMARY CARE CLINIC",
    "categoryCode": "FQHC",
    "licenseStatus": null,
    "inService": null,
    "licenseNumber": null,
    "licenseEffectiveDate": null,
    "licenseExpirationDate": null,
    "dataDate": "10/18/2025",
    "capacity": 0,
    "address": "11336 BARTLETT AVENUE, SUITE 11",
    "city": "ADELANTO",
    "zip": "92301",
    "county": "SAN BERNARDINO",
    "phone": null,
    "lat": 34.57924844,
    "lng": -117.417362
  },
  {
    "id": "630016498",
    "name": "SAVANNAH BEST CARE CONGREGATE HOUSE",
    "npi": "1154770832",
    "hcaiId": "206360821",
    "businessName": "C&D INC",
    "contactEmail": null,
    "categoryName": "CONGREGATE LIVING HEALTH FACILITY",
    "categoryCode": "CLHF",
    "licenseStatus": "ACTIVE",
    "inService": true,
    "licenseNumber": "550003705",
    "licenseEffectiveDate": "10/03/2024",
    "licenseExpirationDate": "10/02/2025",
    "dataDate": "10/18/2025",
    "capacity": 6,
    "address": "14434 SAVANNA ST",
    "city": "ADELANTO",
    "zip": "92301",
    "county": "SAN BERNARDINO",
    "phone": "(442) 249-1676",
    "lat": 34.51280503,
    "lng": -117.4364791
  },
  {
    "id": "630020964",
    "name": "ST MARY HEALTH CENTER-ADELANTO",
    "npi": null,
    "hcaiId": null,
    "businessName": "ST. JUDE NEIGHBORHOOD HEALTH CENTERS",
    "contactEmail": null,
    "categoryName": "PRIMARY CARE CLINIC",
    "categoryCode": "COMTYC",
    "licenseStatus": "ACTIVE",
    "inService": true,
    "licenseNumber": "550000408",
    "licenseEffectiveDate": "11/01/2025",
    "licenseExpirationDate": "10/31/2026",
    "dataDate": "10/18/2025",
    "capacity": 0,
    "address": "11965 CACTUS RD, SUITE LJK",
    "city": "ADELANTO",
    "zip": "92301",
    "county": "SAN BERNARDINO",
    "phone": null,
    "lat": 34.535286,
    "lng": -117.402588
  },
  {
    "id": "630017962",
    "name": "TRI-STATE COMMUNITY HEALTHCARE CENTER",
    "npi": null,
    "hcaiId": "306360801",
    "businessName": "TRI - STATE COMMUNITY HEALTHCARE CENTER",
    "contactEmail": "ARAM.MANOUKIAN@TRISTATECLINICS.ORG",
    "categoryName": "PRIMARY CARE CLINIC",
    "categoryCode": "COMTYC",
    "licenseStatus": "ACTIVE",
    "inService": true,
    "licenseNumber": "550004322",
    "licenseEffectiveDate": "08/09/2025",
    "licenseExpirationDate": "08/08/2026",
    "dataDate": "10/18/2025",
    "capacity": 0,
    "address": "11499 BARTLETT AVE",
    "city": "ADELANTO",
    "zip": "92301",
    "county": "SAN BERNARDINO",
    "phone": "(626) 827-6239",
    "lat": 34.578864,
    "lng": -117.4142475
  },
  {
    "id": "630027873",
    "name": "TRI-STATE COMMUNITY HEALTHCARE CENTER - ADELANTO",
    "npi": null,
    "hcaiId": null,
    "businessName": "TRI - STATE COMMUNITY HEALTHCARE CENTER",
    "contactEmail": null,
    "categoryName": "PRIMARY CARE CLINIC",
    "categoryCode": "COMTYC",
    "licenseStatus": "ACTIVE",
    "inService": true,
    "licenseNumber": "550004322",
    "licenseEffectiveDate": "08/09/2025",
    "licenseExpirationDate": "08/08/2026",
    "dataDate": "10/18/2025",
    "capacity": 0,
    "address": "11888 BARTLETT AVE",
    "city": "ADELANTO",
    "zip": "92301",
    "county": "SAN BERNARDINO",
    "phone": null,
    "lat": 34.57950098,
    "lng": -117.406873
  },
  {
    "id": "630022114",
    "name": "TRI-STATE COMMUNITY HEALTHCARE CENTER-ADELANTO 2",
    "npi": null,
    "hcaiId": null,
    "businessName": "TRI - STATE COMMUNITY HEALTHCARE CENTER",
    "contactEmail": null,
    "categoryName": "PRIMARY CARE CLINIC",
    "categoryCode": "COMTYC",
    "licenseStatus": "ACTIVE",
    "inService": true,
    "licenseNumber": "550004322",
    "licenseEffectiveDate": "08/09/2025",
    "licenseExpirationDate": "08/08/2026",
    "dataDate": "10/18/2025",
    "capacity": 0,
    "address": "11328 BARTLETT AVE",
    "city": "ADELANTO",
    "zip": "92301",
    "county": "SAN BERNARDINO",
    "phone": null,
    "lat": 34.579413,
    "lng": -117.4171185
  },
  {
    "id": "630021197",
    "name": "TRI-STATE COMMUNITY HEALTHCARE CENTER-MOBILE UNIT",
    "npi": null,
    "hcaiId": null,
    "businessName": "TRI - STATE COMMUNITY HEALTHCARE CENTER",
    "contactEmail": null,
    "categoryName": "PRIMARY CARE CLINIC",
    "categoryCode": "COMTYC",
    "licenseStatus": "ACTIVE",
    "inService": true,
    "licenseNumber": "550004322",
    "licenseEffectiveDate": "08/09/2025",
    "licenseExpirationDate": "08/08/2026",
    "dataDate": "10/18/2025",
    "capacity": 0,
    "address": "11888 BARTLETT AVE",
    "city": "ADELANTO",
    "zip": "92301",
    "county": "SAN BERNARDINO",
    "phone": null,
    "lat": 34.579503,
    "lng": -117.406827
  }
]