[
  {
    "id": "630017758",
    "name": "APPLE VALLEY CONGREGATE LIVING HEALTH FACILITY",
    "npi": null,
    "hcaiId": "206360237",
    "businessName": "OAK FENCE SENIOR LIVING LLC",
    "contactEmail": "THANTAYE@AOL.COM",
    "categoryName": "CONGREGATE LIVING HEALTH FACILITY",
    "categoryCode": "CLHF",
    "licenseStatus": "ACTIVE",
    "inService": true,
    "licenseNumber": "550005416",
    "licenseEffectiveDate": "08/26/2025",
    "licenseExpirationDate": "05/22/2026",
    "dataDate": "10/18/2025",
    "capacity": 6,
    "address": "20135 ONEIDA RD",
    "city": "APPLE VALLEY",
    "zip": "92307",
    "county": "SAN BERNARDINO",
    "phone": "(909) 967-1872",
    "lat": 34.516368,
    "lng": -117.2245545
  },
  {
    "id": "630011710",
    "name": "GENTIVA",
    "npi": "1053312033",
    "hcaiId": "406364362",
    "businessName": "ODYSSEY HEALTHCARE OPERATING A, L.P.",
    "contactEmail": null,
    "categoryName": "HOSPICE",
    "categoryCode": "HOSPICE",
    "licenseStatus": "ACTIVE",
    "inService": true,
    "licenseNumber": "080000736",
    "licenseEffectiveDate": "11/05/2023",
    "licenseExpirationDate": "11/04/2025",
    "dataDate": "10/18/2025",
    "capacity": 0,
    "address": "16070 TUSCOLA RD, SUITE 201",
    "city": "APPLE VALLEY",
    "zip": "92307",
    "county": "SAN BERNARDINO",
    "phone": "(909) 888-5000",
    "lat": 34.54330101,
    "lng": -117.26955
  },
  {
    "id": "240001920",
    "name": "GREEN VALLEY HOME HEALTH SERVICES, INC.",
    "npi": "1801862578",
    "hcaiId": "406364348",
    "businessName": "GREEN VALLEY HOME HEALTH SERVICES, INC.",
    "contactEmail": "ADMINISTRATOR@GREENVALLEYHHS.COM",
    "categoryName": "HOME HEALTH AGENCY",
    "categoryCode": "HHA",
    "licenseStatus": "ACTIVE",
    "inService": true,
    "licenseNumber": "240000867",
    "licenseEffectiveDate": "11/01/2024",
    "licenseExpirationDate": "10/31/2025",
    "dataDate": "10/18/2025",
    "capacity": 0,
    "address": "19031 US HIGHWAY 18, SUITE 180",
    "city": "APPLE VALLEY",
    "zip": "92307",
    "county": "SAN BERNARDINO",
    "phone": "(760) 242-7009",
    "lat": 34.53624,
    "lng": -117.2487825
  },
  {
    "id": "630015820",
    "name": "GREEN VALLEY HOSPICE & PALLIATIVE CARE, LLC",
    "npi": null,
    "hcaiId": "406364560",
    "businessName": "GREEN VALLEY HOSPICE & PALLIATIVE CARE, LLC",
    "contactEmail": "ADMINISTRATOR@HOSPICE.GREENVALLEYHHS.COM",
    "categoryName": "HOSPICE",
    "categoryCode": "HOSPICE",
    "licenseStatus": "ACTIVE",
    "inService": true,
    "licenseNumber": "550003399",
    "licenseEffectiveDate": "01/27/2024",
    "licenseExpirationDate": "01/26/2026",
    "dataDate": "10/18/2025",
    "capacity": 0,
    "address": "19031 US HIGHWAY 18, SUITE 160",
    "city": "APPLE VALLEY",
    "zip": "92307",
    "county": "SAN BERNARDINO",
    "phone": "(760) 242-0088",
    "lat": 34.536204,
    "lng": -117.2488095
  },
  {
    "id": "630020323",
    "name": "HIGH DESERT EYE SURGERY CENTER",
    "npi": "1588203988",
    "hcaiId": null,
    "businessName": null,
    "contactEmail": "EYEMOHAN@GMAIL.COM",
    "categoryName": "SURGICAL CLINIC",
    "categoryCode": "ASC",
    "licenseStatus": null,
    "inService": null,
    "licenseNumber": null,
    "licenseEffectiveDate": null,
    "licenseExpirationDate": null,
    "dataDate": "10/18/2025",
    "capacity": 0,
    "address": "16030 KAMANA RD",
    "city": "APPLE VALLEY",
    "zip": "92307",
    "county": "SAN BERNARDINO",
    "phone": "(760) 946-0618",
    "lat": 34.54270076,
    "lng": -117.271587
  },
  {
    "id": "630027622",
    "name": "HIGHER CALLING HEALTHCARE AGENCY, LLC.",
    "npi": null,
    "hcaiId": null,
    "businessName": "HIGHER CALLING HEALTHCARE AGENCY LLC",
    "contactEmail": "JNJONES1234@AOL.COM",
    "categoryName": "HOME HEALTH AGENCY",
    "categoryCode": "HHA",
    "licenseStatus": "ACTIVE",
    "inService": true,
    "licenseNumber": "550009887",
    "licenseEffectiveDate": "06/30/2025",
    "licenseExpirationDate": "12/29/2025",
    "dataDate": "10/18/2025",
    "capacity": 0,
    "address": "18077 US HIGHWAY 18, SUITE 400",
    "city": "APPLE VALLEY",
    "zip": "92307",
    "county": "SAN BERNARDINO",
    "phone": "(760) 503-1997",
    "lat": 34.53985898,
    "lng": -117.269598
  },
  {
    "id": "630011416",
    "name": "INLAND VALLEY HOSPICE CARE",
    "npi": null,
    "hcaiId": "406364372",
    "businessName": "ALLEVIATE CARE - APPLE VALLEY, LLC",
    "contactEmail": "BRENT@INLANDVALLEYHOSPICE.COM",
    "categoryName": "HOSPICE",
    "categoryCode": "HOSPICE",
    "licenseStatus": "ACTIVE",
    "inService": true,
    "licenseNumber": "550000776",
    "licenseEffectiveDate": "11/03/2024",
    "licenseExpirationDate": "11/02/2026",
    "dataDate": "10/18/2025",
    "capacity": 0,
    "address": "19167 US HIGHWAY 18, SUITE 6",
    "city": "APPLE VALLEY",
    "zip": "92307",
    "county": "SAN BERNARDINO",
    "phone": "(760) 243-2501",
    "lat": 34.53624902,
    "lng": -117.245774
  },
  {
    "id": "630016366",
    "name": "LOVING CARE HOSPICE OF APPLE VALLEY",
    "npi": null,
    "hcaiId": "406360831",
    "businessName": "LOVING CARE HOSPICE OF APPLE VALLEY",
    "contactEmail": "LOVINGCAREHOSPICEAV@GMAIL.COM",
    "categoryName": "HOSPICE",
    "categoryCode": "HOSPICE",
    "licenseStatus": "ACTIVE",
    "inService": true,
    "licenseNumber": "550004189",
    "licenseEffectiveDate": "02/21/2024",
    "licenseExpirationDate": "02/20/2026",
    "dataDate": "10/18/2025",
    "capacity": 0,
    "address": "15995 TUSCOLA RD, SUITE 203",
    "city": "APPLE VALLEY",
    "zip": "92307",
    "county": "SAN BERNARDINO",
    "phone": "(909) 782-5009",
    "lat": 34.54176423,
    "lng": -117.2687631
  },
  {
    "id": "240001729",
    "name": "MARIAH",
    "npi": "1508208877",
    "hcaiId": null,
    "businessName": "PROVIDENT PLACE",
    "contactEmail": "DAN@PROVIDENTPLACE.COM",
    "categoryName": "INTERMEDIATE CARE FACILITY-DD/H/N/CN/IID",
    "categoryCode": "ICFDDH",
    "licenseStatus": "ACTIVE",
    "inService": true,
    "licenseNumber": "240000753",
    "licenseEffectiveDate": "12/04/2024",
    "licenseExpirationDate": "12/03/2025",
    "dataDate": "10/18/2025",
    "capacity": 8,
    "address": "15448 MONDAMON RD",
    "city": "APPLE VALLEY",
    "zip": "92307",
    "county": "SAN BERNARDINO",
    "phone": "(626) 722-1352",
    "lat": 34.532352,
    "lng": -117.2643255
  },
  {
    "id": "630020716",
    "name": "NEXUS HOSPICE OF THE HIGH DESERT, LLC",
    "npi": null,
    "hcaiId": "406364860",
    "businessName": "NEXUS HOSPICE OF THE HIGH DESERT",
    "contactEmail": "NEXUSHCG@GMAIL.COM",
    "categoryName": "HOSPICE",
    "categoryCode": "HOSPICE",
    "licenseStatus": "ACTIVE",
    "inService": true,
    "licenseNumber": "550006873",
    "licenseEffectiveDate": "09/23/2025",
    "licenseExpirationDate": "09/22/2027",
    "dataDate": "10/18/2025",
    "capacity": 0,
    "address": "19195 OUTER HWY 18 S, SUITE 204",
    "city": "APPLE VALLEY",
    "zip": "92307",
    "county": "SAN BERNARDINO",
    "phone": "(760) 932-0120",
    "lat": 34.53653883,
    "lng": -117.2453006
  },
  {
    "id": "630013602",
    "name": "PERSEPOLIS GROUP , LLC (DBA APPLE VALLEY OUTPATIENT)",
    "npi": "1801185665",
    "hcaiId": null,
    "businessName": null,
    "contactEmail": "ILBEIGIDO@YAHOO.COM",
    "categoryName": "SURGICAL CLINIC",
    "categoryCode": "ASC",
    "licenseStatus": null,
    "inService": null,
    "licenseNumber": null,
    "licenseEffectiveDate": null,
    "licenseExpirationDate": null,
    "dataDate": "10/18/2025",
    "capacity": 0,
    "address": "18400 US HIGHWAY 18, SUITE B",
    "city": "APPLE VALLEY",
    "zip": "92307",
    "county": "SAN BERNARDINO",
    "phone": "(760) 810-7590",
    "lat": 34.540119,
    "lng": -117.2617695
  },
  {
    "id": "240000104",
    "name": "PROVIDENCE ST. MARY MEDICAL CENTER",
    "npi": "1669456299",
    "hcaiId": "106361343",
    "businessName": "ST. MARY MEDICAL CENTER",
    "contactEmail": "BROOKE.LINTAG@PROVIDENCE.ORG",
    "categoryName": "GENERAL ACUTE CARE HOSPITAL",
    "categoryCode": "GACH",
    "licenseStatus": "ACTIVE",
    "inService": true,
    "licenseNumber": "240000207",
    "licenseEffectiveDate": "12/22/2024",
    "licenseExpirationDate": "12/21/2025",
    "dataDate": "10/18/2025",
    "capacity": 213,
    "address": "18300 US HIGHWAY 18",
    "city": "APPLE VALLEY",
    "zip": "92307",
    "county": "SAN BERNARDINO",
    "phone": "(760) 242-2311",
    "lat": 34.542261,
    "lng": -117.265347
  },
  {
    "id": "630020965",
    "name": "ST MARY HEALTH CENTERS-APPLE VALLEY",
    "npi": null,
    "hcaiId": null,
    "businessName": "ST. JUDE NEIGHBORHOOD HEALTH CENTERS",
    "contactEmail": null,
    "categoryName": "PRIMARY CARE CLINIC",
    "categoryCode": "COMTYC",
    "licenseStatus": "ACTIVE",
    "inService": true,
    "licenseNumber": "550000408",
    "licenseEffectiveDate": "11/01/2025",
    "licenseExpirationDate": "10/31/2026",
    "dataDate": "10/18/2025",
    "capacity": 0,
    "address": "18077 OUTER HWY 18 S, SUITE 100",
    "city": "APPLE VALLEY",
    "zip": "92307",
    "county": "SAN BERNARDINO",
    "phone": null,
    "lat": 34.54014093,
    "lng": -117.2699311
  },
  {
    "id": "630014069",
    "name": "ST. BERNARDINE HOSPICE CARE",
    "npi": "1952658049",
    "hcaiId": "406364482",
    "businessName": "ST. BERNARDINE CARE PROVIDERS, INC",
    "contactEmail": "HOSPICE@STBERNARDINE.COM",
    "categoryName": "HOSPICE",
    "categoryCode": "HOSPICE",
    "licenseStatus": "ACTIVE",
    "inService": true,
    "licenseNumber": "550002373",
    "licenseEffectiveDate": "08/09/2025",
    "licenseExpirationDate": "08/08/2027",
    "dataDate": "10/18/2025",
    "capacity": 0,
    "address": "18064 WIKA RD, SUITE 202",
    "city": "APPLE VALLEY",
    "zip": "92307",
    "county": "SAN BERNARDINO",
    "phone": "(818) 471-3000",
    "lat": 34.540992,
    "lng": -117.269874
  },
  {
    "id": "630020961",
    "name": "ST. MARY HEALTH CENTERS' MOBILE CLINICS",
    "npi": null,
    "hcaiId": null,
    "businessName": "ST. JUDE NEIGHBORHOOD HEALTH CENTERS",
    "contactEmail": null,
    "categoryName": "PRIMARY CARE CLINIC",
    "categoryCode": "COMTYC",
    "licenseStatus": "ACTIVE",
    "inService": true,
    "licenseNumber": "550000408",
    "licenseEffectiveDate": "11/01/2025",
    "licenseExpirationDate": "10/31/2026",
    "dataDate": "10/18/2025",
    "capacity": 0,
    "address": "18300 US HIGHWAY 18",
    "city": "APPLE VALLEY",
    "zip": "92307",
    "county": "SAN BERNARDINO",
    "phone": null,
    "lat": 34.542261,
    "lng": -117.265347
  },
  {
    "id": "630018121",
    "name": "TAJANTA CARE HOMES",
    "npi": "1811487820",
    "hcaiId": null,
    "businessName": "HEAVEN'S HERITAGE INC.",
    "contactEmail": "MARCENA_TAJANTACAREHOMES@YAHOO.COM",
    "categoryName": "INTERMEDIATE CARE FACILITY-DD/H/N/CN/IID",
    "categoryCode": "ICFDDH",
    "licenseStatus": "ACTIVE",
    "inService": true,
    "licenseNumber": "550004508",
    "licenseEffectiveDate": "12/27/2024",
    "licenseExpirationDate": "12/26/2025",
    "dataDate": "10/18/2025",
    "capacity": 6,
    "address": "22201 TAJANTA CT",
    "city": "APPLE VALLEY",
    "zip": "92307",
    "county": "SAN BERNARDINO",
    "phone": "(760) 503-9153",
    "lat": 34.520121,
    "lng": -117.179568
  },
  {
    "id": "630027243",
    "name": "UNICARE COMMUNITY HEALTH CENTER, INC.",
    "npi": "1043777089",
    "hcaiId": null,
    "businessName": "UNICARE COMMUNITY HEALTH CENTER, INC.",
    "contactEmail": null,
    "categoryName": "PRIMARY CARE CLINIC",
    "categoryCode": "COMTYC",
    "licenseStatus": "ACTIVE",
    "inService": true,
    "licenseNumber": "550006138",
    "licenseEffectiveDate": "02/05/2025",
    "licenseExpirationDate": "02/04/2026",
    "dataDate": "10/18/2025",
    "capacity": 0,
    "address": "15863 KASOTA RD",
    "city": "APPLE VALLEY",
    "zip": "92307",
    "county": "SAN BERNARDINO",
    "phone": null,
    "lat": 34.53957474,
    "lng": -117.2667484
  },
  {
    "id": "240000162",
    "name": "VICTOR VALLEY DIALYSIS",
    "npi": "1861467607",
    "hcaiId": "306360055",
    "businessName": "DVA HEALTHCARE RENAL CARE, INC.",
    "contactEmail": "CAL_C@DAVITA.COM",
    "categoryName": "CHRONIC DIALYSIS CLINIC",
    "categoryCode": "ESRD/CDC",
    "licenseStatus": "ACTIVE",
    "inService": true,
    "licenseNumber": "240000022",
    "licenseEffectiveDate": "11/01/2025",
    "licenseExpirationDate": "10/31/2026",
    "dataDate": "10/18/2025",
    "capacity": 22,
    "address": "16049 KAMANA RD",
    "city": "APPLE VALLEY",
    "zip": "92307",
    "county": "SAN BERNARDINO",
    "phone": "(760) 242-8311",
    "lat": 34.542639,
    "lng": -117.270927
  },
  {
    "id": "080001637",
    "name": "VNACARE",
    "npi": "1720087299",
    "hcaiId": "406364219",
    "businessName": "VNACARE",
    "contactEmail": "JREIS@VNACARE.COM",
    "categoryName": "HOSPICE",
    "categoryCode": "HOSPICE",
    "licenseStatus": "ACTIVE",
    "inService": true,
    "licenseNumber": "080000721",
    "licenseEffectiveDate": "06/11/2024",
    "licenseExpirationDate": "06/10/2026",
    "dataDate": "10/18/2025",
    "capacity": 0,
    "address": "16147 KAMANA RD",
    "city": "APPLE VALLEY",
    "zip": "92307",
    "county": "SAN BERNARDINO",
    "phone": "(909) 538-5546",
    "lat": 34.544457,
    "lng": -117.268875
  }
]