[
  {
    "id": "240001011",
    "name": "APPLE VALLEY CARE CENTER",
    "npi": "1366091233",
    "hcaiId": "206364080",
    "businessName": "JESS RANCH HEALTHCARE, LLC",
    "contactEmail": "JAYANNEE@APPLEVALLEYCARECENTER.COM",
    "categoryName": "SKILLED NURSING FACILITY",
    "categoryCode": "SNF",
    "licenseStatus": "ACTIVE",
    "inService": true,
    "licenseNumber": "240000433",
    "licenseEffectiveDate": "10/23/2024",
    "licenseExpirationDate": "10/22/2025",
    "dataDate": "10/18/2025",
    "capacity": 99,
    "address": "11959 APPLE VALLEY RD",
    "city": "APPLE VALLEY",
    "zip": "92308",
    "county": "SAN BERNARDINO",
    "phone": "(760) 240-5051",
    "lat": 34.468218,
    "lng": -117.241227
  },
  {
    "id": "630016756",
    "name": "DESERT VALLEY CONGREGATE LIVING HEALTH FACILITY, INC.",
    "npi": null,
    "hcaiId": "206361005",
    "businessName": "DESERT VALLEY CONGREGATE LIVING HEALTH FACILITY, INC.",
    "contactEmail": "DESERTVALLEYCLHF@YAHOO.COM",
    "categoryName": "CONGREGATE LIVING HEALTH FACILITY",
    "categoryCode": "CLHF",
    "licenseStatus": "ACTIVE",
    "inService": true,
    "licenseNumber": "550003852",
    "licenseEffectiveDate": "04/03/2025",
    "licenseExpirationDate": "04/02/2026",
    "dataDate": "10/18/2025",
    "capacity": 6,
    "address": "20721 SHOLIC ROAD",
    "city": "APPLE VALLEY",
    "zip": "92308",
    "county": "SAN BERNARDINO",
    "phone": "(760) 247-0113",
    "lat": 34.4889,
    "lng": -117.2117385
  },
  {
    "id": "240001511",
    "name": "ITUMA",
    "npi": "1558703827",
    "hcaiId": null,
    "businessName": "PROVIDENT PLACE",
    "contactEmail": "DAN@PROVIDENTPLACE.COM",
    "categoryName": "INTERMEDIATE CARE FACILITY-DD/H/N/CN/IID",
    "categoryCode": "ICFDDH",
    "licenseStatus": "ACTIVE",
    "inService": true,
    "licenseNumber": "240000650",
    "licenseEffectiveDate": "12/20/2023",
    "licenseExpirationDate": "12/19/2024",
    "dataDate": "10/18/2025",
    "capacity": 8,
    "address": "20400 ITUMA RD",
    "city": "APPLE VALLEY",
    "zip": "92308",
    "county": "SAN BERNARDINO",
    "phone": "(626) 722-1352",
    "lat": 34.491015,
    "lng": -117.218646
  }
]