[
  {
    "id": "240000001",
    "name": "BARSTOW COMMUNITY HOSPITAL",
    "npi": "1780655670",
    "hcaiId": "106364430",
    "businessName": "HOSPITAL OF BARSTOW, INC.",
    "contactEmail": "MMENDIBLES@QHCUS.COM",
    "categoryName": "GENERAL ACUTE CARE HOSPITAL",
    "categoryCode": "GACH",
    "licenseStatus": "ACTIVE",
    "inService": true,
    "licenseNumber": "240000110",
    "licenseEffectiveDate": "11/13/2025",
    "licenseExpirationDate": "11/12/2026",
    "dataDate": "10/18/2025",
    "capacity": 30,
    "address": "820 E MOUNTAIN VIEW ST",
    "city": "BARSTOW",
    "zip": "92311",
    "county": "SAN BERNARDINO",
    "phone": "(760) 957-3000",
    "lat": 34.892217,
    "lng": -117.0168525
  },
  {
    "id": "630018471",
    "name": "BETA HOME HEALTH CARE INC",
    "npi": null,
    "hcaiId": "406361899",
    "businessName": "BETA HOME HEALTH CARE INC",
    "contactEmail": "OFFICE@BETAHOMEHEALTH.COM",
    "categoryName": "HOME HEALTH AGENCY",
    "categoryCode": "HHA",
    "licenseStatus": "ACTIVE",
    "inService": true,
    "licenseNumber": "550004961",
    "licenseEffectiveDate": "09/26/2025",
    "licenseExpirationDate": "09/25/2026",
    "dataDate": "10/18/2025",
    "capacity": 0,
    "address": "705 E. VIRGINIA WAY, SUITE D",
    "city": "BARSTOW",
    "zip": "92311",
    "county": "SAN BERNARDINO",
    "phone": "(760) 979-2068",
    "lat": 34.8885904,
    "lng": -117.0206789
  },
  {
    "id": "630016789",
    "name": "CHERRY BLOSSOM HOSPICE",
    "npi": "1861849093",
    "hcaiId": "406361818",
    "businessName": "DEBENTZ INC.",
    "contactEmail": "CHERRYBLOSSOMHOSPICE@YAHOO.COM",
    "categoryName": "HOSPICE",
    "categoryCode": "HOSPICE",
    "licenseStatus": "ACTIVE",
    "inService": true,
    "licenseNumber": "550003873",
    "licenseEffectiveDate": "04/13/2025",
    "licenseExpirationDate": "04/12/2027",
    "dataDate": "10/18/2025",
    "capacity": 0,
    "address": "536 BARSTOW RD",
    "city": "BARSTOW",
    "zip": "92311",
    "county": "SAN BERNARDINO",
    "phone": "(760) 979-2539",
    "lat": 34.893666,
    "lng": -117.023238
  },
  {
    "id": "240001610",
    "name": "DESERT CITIES DIALYSIS OF BARSTOW",
    "npi": "1457362261",
    "hcaiId": "306364208",
    "businessName": "JAMBOOR MEDICAL CORPORATION",
    "contactEmail": "GBASKETT@DCDIALYSIS.COM",
    "categoryName": "CHRONIC DIALYSIS CLINIC",
    "categoryCode": "ESRD/CDC",
    "licenseStatus": "ACTIVE",
    "inService": true,
    "licenseNumber": "240000702",
    "licenseEffectiveDate": "11/21/2024",
    "licenseExpirationDate": "11/20/2025",
    "dataDate": "10/18/2025",
    "capacity": 25,
    "address": "655 S 7TH AVE",
    "city": "BARSTOW",
    "zip": "92311",
    "county": "SAN BERNARDINO",
    "phone": "(760) 256-3918",
    "lat": 34.891614,
    "lng": -117.019197
  },
  {
    "id": "630020409",
    "name": "HIGH DESERT COMMUNITY HOME HEALTH, INC.",
    "npi": null,
    "hcaiId": "406363127",
    "businessName": "HIGH DESERT COMMUNITY HOME HEALTH, INC.",
    "contactEmail": "AMAJOYIB@GMAIL.COM",
    "categoryName": "HOME HEALTH AGENCY",
    "categoryCode": "HHA",
    "licenseStatus": "ACTIVE",
    "inService": true,
    "licenseNumber": "550006145",
    "licenseEffectiveDate": "03/01/2025",
    "licenseExpirationDate": "02/28/2026",
    "dataDate": "10/18/2025",
    "capacity": 0,
    "address": "222 E MAIN ST, SUITE 216",
    "city": "BARSTOW",
    "zip": "92311",
    "county": "SAN BERNARDINO",
    "phone": "(442) 295-9510",
    "lat": 34.898382,
    "lng": -117.025155
  },
  {
    "id": "630026869",
    "name": "MISSION CITY COMMUNITY NETWORK, INC - BARSTOW CLINIC",
    "npi": "1265708994",
    "hcaiId": null,
    "businessName": "MISSION CITY COMMUNITY NETWORK, INC.",
    "contactEmail": null,
    "categoryName": "PRIMARY CARE CLINIC",
    "categoryCode": "COMTYC",
    "licenseStatus": "ACTIVE",
    "inService": true,
    "licenseNumber": "550002273",
    "licenseEffectiveDate": "02/13/2025",
    "licenseExpirationDate": "02/12/2026",
    "dataDate": "10/18/2025",
    "capacity": 0,
    "address": "401 E BUENA VISTA ST",
    "city": "BARSTOW",
    "zip": "92311",
    "county": "SAN BERNARDINO",
    "phone": null,
    "lat": 34.895862,
    "lng": -117.023472
  },
  {
    "id": "630017459",
    "name": "MISSION CITY COMMUNITY NETWORK, INC. - BARSTOW",
    "npi": null,
    "hcaiId": null,
    "businessName": "MISSION CITY COMMUNITY NETWORK, INC.",
    "contactEmail": "NIKG@MCCN.ORG",
    "categoryName": "PRIMARY CARE CLINIC",
    "categoryCode": "COMTYC",
    "licenseStatus": "ACTIVE",
    "inService": true,
    "licenseNumber": "550002273",
    "licenseEffectiveDate": "02/13/2025",
    "licenseExpirationDate": "02/12/2026",
    "dataDate": "10/18/2025",
    "capacity": 0,
    "address": "405 E BUENA VISTA ST",
    "city": "BARSTOW",
    "zip": "92311",
    "county": "SAN BERNARDINO",
    "phone": "(818) 895-3100",
    "lat": 34.895763,
    "lng": -117.023301
  },
  {
    "id": "240000286",
    "name": "MOUNTAIN VIEW POST ACUTE",
    "npi": "1841925344",
    "hcaiId": "206361311",
    "businessName": "BARSTOW POST ACUTE, LLC",
    "contactEmail": "ADMIN@MOUNTAINVIEWPOSTACUTE.COM",
    "categoryName": "SKILLED NURSING FACILITY",
    "categoryCode": "SNF",
    "licenseStatus": "ACTIVE",
    "inService": true,
    "licenseNumber": "240000193",
    "licenseEffectiveDate": "06/14/2025",
    "licenseExpirationDate": "06/13/2026",
    "dataDate": "10/18/2025",
    "capacity": 59,
    "address": "27555 RIMROCK RD",
    "city": "BARSTOW",
    "zip": "92311",
    "county": "SAN BERNARDINO",
    "phone": "(760) 252-2515",
    "lat": 34.876953,
    "lng": -117.0600615
  },
  {
    "id": "630026819",
    "name": "SAC BARSTOW",
    "npi": "1801270137",
    "hcaiId": null,
    "businessName": "SAC HEALTH SYSTEM",
    "contactEmail": null,
    "categoryName": "PRIMARY CARE CLINIC",
    "categoryCode": "COMTYC",
    "licenseStatus": "ACTIVE",
    "inService": true,
    "licenseNumber": "550003574",
    "licenseEffectiveDate": "07/15/2025",
    "licenseExpirationDate": "07/14/2026",
    "dataDate": "10/18/2025",
    "capacity": 0,
    "address": "801 E MOUNTAIN VIEW ST",
    "city": "BARSTOW",
    "zip": "92311",
    "county": "SAN BERNARDINO",
    "phone": null,
    "lat": 34.89354,
    "lng": -117.017856
  },
  {
    "id": "170001867",
    "name": "VETERANS HOME OF CALIFORNIA - BARSTOW",
    "npi": "1205821758",
    "hcaiId": "206364186",
    "businessName": "CALIFORNIA DEPARTMENT OF VETERANS AFFAIRS",
    "contactEmail": "LARRY.PANGILINAN@CALVET.CA.GOV",
    "categoryName": "SKILLED NURSING FACILITY",
    "categoryCode": "SNF",
    "licenseStatus": "ACTIVE",
    "inService": true,
    "licenseNumber": "170000835",
    "licenseEffectiveDate": "04/01/2025",
    "licenseExpirationDate": "03/31/2026",
    "dataDate": "10/18/2025",
    "capacity": 60,
    "address": "100 VETERANS PKWY",
    "city": "BARSTOW",
    "zip": "92311",
    "county": "SAN BERNARDINO",
    "phone": "(760) 252-6200",
    "lat": 34.86797861,
    "lng": -117.0264517
  },
  {
    "id": "630012066",
    "name": "VETERANS HOME OF CALIFORNIA - BARSTOW ICF",
    "npi": null,
    "hcaiId": null,
    "businessName": "CALIFORNIA DEPARTMENT OF VETERANS AFFAIRS",
    "contactEmail": "LARRY.PANGILINAN@CALVET.CA.GOV",
    "categoryName": "INTERMEDIATE CARE FACILITY",
    "categoryCode": "ICF",
    "licenseStatus": "ACTIVE",
    "inService": true,
    "licenseNumber": "170000835",
    "licenseEffectiveDate": "04/01/2025",
    "licenseExpirationDate": "03/31/2026",
    "dataDate": "10/18/2025",
    "capacity": 120,
    "address": "100 VETERANS PKWY",
    "city": "BARSTOW",
    "zip": "92311",
    "county": "SAN BERNARDINO",
    "phone": "(760) 252-6288",
    "lat": 34.86797861,
    "lng": -117.0264517
  }
]