[
  {
    "id": "240001263",
    "name": "CANAL DIVISION",
    "npi": "1811037492",
    "hcaiId": null,
    "businessName": "JONBEC CARE INCORPORATED",
    "contactEmail": "JENNYJOSEPH@JONBECCAREINC.COM",
    "categoryName": "INTERMEDIATE CARE FACILITY-DD/H/N/CN/IID",
    "categoryCode": "ICFDDH",
    "licenseStatus": "ACTIVE",
    "inService": true,
    "licenseNumber": "240000526",
    "licenseEffectiveDate": "12/01/2024",
    "licenseExpirationDate": "11/30/2025",
    "dataDate": "10/18/2025",
    "capacity": 6,
    "address": "11868 CANAL ST",
    "city": "GRAND TERRACE",
    "zip": "92313",
    "county": "SAN BERNARDINO",
    "phone": "(909) 872-0508",
    "lat": 34.038279,
    "lng": -117.318771
  },
  {
    "id": "240001433",
    "name": "CARE ESSENTIALS HOME HEALTH",
    "npi": "1306888631",
    "hcaiId": "406364169",
    "businessName": "HEALTH ENTERPRISES",
    "contactEmail": "JAE@CAREHH.NET",
    "categoryName": "HOME HEALTH AGENCY",
    "categoryCode": "HHA",
    "licenseStatus": "ACTIVE",
    "inService": true,
    "licenseNumber": "240000615",
    "licenseEffectiveDate": "01/29/2025",
    "licenseExpirationDate": "01/28/2026",
    "dataDate": "10/18/2025",
    "capacity": 0,
    "address": "22365 BARTON RD, SUITE 212",
    "city": "GRAND TERRACE",
    "zip": "92313",
    "county": "SAN BERNARDINO",
    "phone": "(909) 883-0288",
    "lat": 34.03324301,
    "lng": -117.316818
  },
  {
    "id": "240000063",
    "name": "GRAND TERRACE HEALTH CARE CENTER",
    "npi": "1740993419",
    "hcaiId": "206361191",
    "businessName": "MORNING GLORY HEALTHCARE, INC.",
    "contactEmail": "BHAROLDSEN@ENSIGNSERVICES.NET",
    "categoryName": "SKILLED NURSING FACILITY",
    "categoryCode": "SNF",
    "licenseStatus": "ACTIVE",
    "inService": true,
    "licenseNumber": "240000143",
    "licenseEffectiveDate": "11/01/2025",
    "licenseExpirationDate": "10/31/2026",
    "dataDate": "10/18/2025",
    "capacity": 59,
    "address": "12000 MOUNT VERNON AVE",
    "city": "GRAND TERRACE",
    "zip": "92313",
    "county": "SAN BERNARDINO",
    "phone": "(909) 825-5221",
    "lat": 34.035813,
    "lng": -117.314325
  },
  {
    "id": "630015333",
    "name": "GRAND TERRACE HOSPICE",
    "npi": "1659791721",
    "hcaiId": "406364534",
    "businessName": "STARLIGHT OF HEMET, LLC",
    "contactEmail": "GRANDTERRACEHOSPICE11@GMAIL.COM",
    "categoryName": "HOSPICE",
    "categoryCode": "HOSPICE",
    "licenseStatus": "ACTIVE",
    "inService": true,
    "licenseNumber": "550003072",
    "licenseEffectiveDate": "10/24/2025",
    "licenseExpirationDate": "05/06/2027",
    "dataDate": "10/18/2025",
    "capacity": 0,
    "address": "22365 BARTON RD, SUITE 304",
    "city": "GRAND TERRACE",
    "zip": "92313",
    "county": "SAN BERNARDINO",
    "phone": "(909) 693-5027",
    "lat": 34.033239,
    "lng": -117.316818
  },
  {
    "id": "630014593",
    "name": "HOSPICE OF IE AND OC",
    "npi": "1780019612",
    "hcaiId": "406364561",
    "businessName": "EQUANIMITY HOSPICE & PALLIATIVE CARE INC",
    "contactEmail": "BRIANA@HOSPICEOFIEANDOC.COM",
    "categoryName": "HOSPICE",
    "categoryCode": "HOSPICE",
    "licenseStatus": "ACTIVE",
    "inService": true,
    "licenseNumber": "550002705",
    "licenseEffectiveDate": "04/23/2024",
    "licenseExpirationDate": "04/22/2026",
    "dataDate": "10/18/2025",
    "capacity": 0,
    "address": "22365 BARTON RD, SUITE 100",
    "city": "GRAND TERRACE",
    "zip": "92313",
    "county": "SAN BERNARDINO",
    "phone": "(909) 777-3472",
    "lat": 34.033248,
    "lng": -117.316791
  },
  {
    "id": "240001092",
    "name": "MAVIS DIVISION",
    "npi": "1447397120",
    "hcaiId": null,
    "businessName": "JONBEC CARE INCORPORATED",
    "contactEmail": "JENNYJOSEPH@JONBECCAREINC.COM",
    "categoryName": "INTERMEDIATE CARE FACILITY-DD/H/N/CN/IID",
    "categoryCode": "ICFDDH",
    "licenseStatus": "ACTIVE",
    "inService": true,
    "licenseNumber": "240000469",
    "licenseEffectiveDate": "12/01/2024",
    "licenseExpirationDate": "11/30/2025",
    "dataDate": "10/18/2025",
    "capacity": 6,
    "address": "22130 MAVIS ST",
    "city": "GRAND TERRACE",
    "zip": "92313",
    "county": "SAN BERNARDINO",
    "phone": "(909) 370-3425",
    "lat": 34.028703,
    "lng": -117.3217275
  },
  {
    "id": "240000969",
    "name": "VAN BUREN HOME",
    "npi": "1831225762",
    "hcaiId": null,
    "businessName": "ALTERNATIVE CHOICES, INC.",
    "contactEmail": null,
    "categoryName": "INTERMEDIATE CARE FACILITY-DD/H/N/CN/IID",
    "categoryCode": "ICFDDN",
    "licenseStatus": "ACTIVE",
    "inService": true,
    "licenseNumber": "240000413",
    "licenseEffectiveDate": "04/01/2025",
    "licenseExpirationDate": "03/31/2026",
    "dataDate": "10/18/2025",
    "capacity": 6,
    "address": "22840 VAN BUREN STREET",
    "city": "GRAND TERRACE",
    "zip": "92313",
    "county": "SAN BERNARDINO",
    "phone": "(909) 783-1452",
    "lat": 34.026867,
    "lng": -117.305784
  }
]