[
  {
    "id": "240000002",
    "name": "BEAR VALLEY COMMUNITY HOSPITAL",
    "npi": "1073553756",
    "hcaiId": "106361110",
    "businessName": "BEAR VALLEY COMMUNITY HEALTHCARE DISTRICT",
    "contactEmail": "EVAN.RAYNER@BVCHD.COM",
    "categoryName": "GENERAL ACUTE CARE HOSPITAL",
    "categoryCode": "GACH",
    "licenseStatus": "ACTIVE",
    "inService": true,
    "licenseNumber": "240000111",
    "licenseEffectiveDate": "04/16/2025",
    "licenseExpirationDate": "12/20/2025",
    "dataDate": "10/18/2025",
    "capacity": 9,
    "address": "41870 GARSTIN DR",
    "city": "BIG BEAR LAKE",
    "zip": "92315",
    "county": "SAN BERNARDINO",
    "phone": "(909) 878-8214",
    "lat": 34.246656,
    "lng": -116.8879005
  },
  {
    "id": "240000979",
    "name": "BEAR VALLEY COMMUNITY HOSPITAL D/P SNF",
    "npi": "1073553756",
    "hcaiId": null,
    "businessName": "BEAR VALLEY COMMUNITY HEALTHCARE DISTRICT",
    "contactEmail": null,
    "categoryName": "SKILLED NURSING FACILITY",
    "categoryCode": "SNF",
    "licenseStatus": "ACTIVE",
    "inService": true,
    "licenseNumber": "240000111",
    "licenseEffectiveDate": "04/16/2025",
    "licenseExpirationDate": "12/20/2025",
    "dataDate": "10/18/2025",
    "capacity": 21,
    "address": "41870 GARSTIN DR",
    "city": "BIG BEAR LAKE",
    "zip": "92315",
    "county": "SAN BERNARDINO",
    "phone": "(909) 866-6501",
    "lat": 34.246656,
    "lng": -116.8879005
  },
  {
    "id": "630028373",
    "name": "BEAR VALLEY MOBILE HEALTH CLINIC",
    "npi": null,
    "hcaiId": null,
    "businessName": "BEAR VALLEY COMMUNITY HEALTHCARE DISTRICT",
    "contactEmail": null,
    "categoryName": "PRIMARY CARE CLINIC",
    "categoryCode": "RHC/OP",
    "licenseStatus": "ACTIVE",
    "inService": true,
    "licenseNumber": "240000111",
    "licenseEffectiveDate": "04/16/2025",
    "licenseExpirationDate": "12/20/2025",
    "dataDate": "10/18/2025",
    "capacity": 0,
    "address": "41820 GARSTIN DR",
    "city": "BIG BEAR LAKE",
    "zip": "92315",
    "county": "SAN BERNARDINO",
    "phone": null,
    "lat": 34.24742642,
    "lng": -116.8899814
  },
  {
    "id": "240001725",
    "name": "BEAR VALLEY PHYSICAL THERAPY & SPORTS REHAB.",
    "npi": null,
    "hcaiId": null,
    "businessName": null,
    "contactEmail": null,
    "categoryName": "REHABILITATION CLINIC",
    "categoryCode": "OPT/SP",
    "licenseStatus": null,
    "inService": null,
    "licenseNumber": null,
    "licenseEffectiveDate": null,
    "licenseExpirationDate": null,
    "dataDate": "10/18/2025",
    "capacity": 0,
    "address": "41945 BIG BEAR BLVD, SUITE 209",
    "city": "BIG BEAR LAKE",
    "zip": "92315",
    "county": "SAN BERNARDINO",
    "phone": "(909) 866-6200",
    "lat": 34.242822,
    "lng": -116.8868565
  },
  {
    "id": "240001764",
    "name": "FAMILY HEALTH CENTER RHC",
    "npi": "1851576888",
    "hcaiId": null,
    "businessName": "BEAR VALLEY COMMUNITY HEALTHCARE DISTRICT",
    "contactEmail": null,
    "categoryName": "PRIMARY CARE CLINIC",
    "categoryCode": "RHC/OP",
    "licenseStatus": "ACTIVE",
    "inService": true,
    "licenseNumber": "240000111",
    "licenseEffectiveDate": "04/16/2025",
    "licenseExpirationDate": "12/20/2025",
    "dataDate": "10/18/2025",
    "capacity": 0,
    "address": "41820 GARSTIN DRIVE",
    "city": "BIG BEAR LAKE",
    "zip": "92315",
    "county": "SAN BERNARDINO",
    "phone": "(909) 878-8246",
    "lat": 34.24752103,
    "lng": -116.8899632
  }
]