[
  {
    "id": "630016505",
    "name": "A&M SURGERY CENTER, INC.",
    "npi": "1881098101",
    "hcaiId": null,
    "businessName": null,
    "contactEmail": null,
    "categoryName": "SURGICAL CLINIC",
    "categoryCode": "ASC",
    "licenseStatus": null,
    "inService": null,
    "licenseNumber": null,
    "licenseEffectiveDate": null,
    "licenseExpirationDate": null,
    "dataDate": "10/18/2025",
    "capacity": 0,
    "address": "1850 EAST WASHINGTON STREET, SUITE A",
    "city": "COLTON",
    "zip": "92324",
    "county": "SAN BERNARDINO",
    "phone": "(909) 887-2991",
    "lat": 34.048152,
    "lng": -117.295893
  },
  {
    "id": "630018758",
    "name": "ADAI HOMEHEALTH SERVICES",
    "npi": null,
    "hcaiId": "406367327",
    "businessName": "MICHOKAN BEE INTERNATIONAL LLC",
    "contactEmail": "MICHOKAN@GMAIL.COM",
    "categoryName": "HOME HEALTH AGENCY",
    "categoryCode": "HHA",
    "licenseStatus": "ACTIVE",
    "inService": true,
    "licenseNumber": "550005864",
    "licenseEffectiveDate": "12/17/2024",
    "licenseExpirationDate": "11/02/2025",
    "dataDate": "10/18/2025",
    "capacity": 0,
    "address": "1003 E COOLEY DR, UNIT 104",
    "city": "COLTON",
    "zip": "92324",
    "county": "SAN BERNARDINO",
    "phone": "(310) 770-5451",
    "lat": 34.054965,
    "lng": -117.3107565
  },
  {
    "id": "630016849",
    "name": "ALLIANCE HEALTH SERVICES, INC.",
    "npi": "1073975900",
    "hcaiId": "406361387",
    "businessName": "ALLIANCE HEALTH SERVICES, INC.",
    "contactEmail": "ALLIANCEHC@YAHOO.COM",
    "categoryName": "HOME HEALTH AGENCY",
    "categoryCode": "HHA",
    "licenseStatus": "ACTIVE",
    "inService": true,
    "licenseNumber": "550004437",
    "licenseEffectiveDate": "10/15/2025",
    "licenseExpirationDate": "10/14/2026",
    "dataDate": "10/18/2025",
    "capacity": 0,
    "address": "1421 E. COOLEY DRIVE, SUITE 4",
    "city": "COLTON",
    "zip": "92324",
    "county": "SAN BERNARDINO",
    "phone": "(909) 990-1060",
    "lat": 34.055127,
    "lng": -117.305145
  },
  {
    "id": "630019149",
    "name": "ALLIANCE HOSPICE SERVICES",
    "npi": null,
    "hcaiId": "406366623",
    "businessName": "ALLIANCE HEALTH SERVICES, INC.",
    "contactEmail": "ALLIANCEHC@YAHOO.COM",
    "categoryName": "HOSPICE",
    "categoryCode": "HOSPICE",
    "licenseStatus": "ACTIVE",
    "inService": true,
    "licenseNumber": "550006173",
    "licenseEffectiveDate": "04/02/2025",
    "licenseExpirationDate": "04/01/2027",
    "dataDate": "10/18/2025",
    "capacity": 0,
    "address": "1421 E COOLEY DR, SUITE 5",
    "city": "COLTON",
    "zip": "92324",
    "county": "SAN BERNARDINO",
    "phone": "(909) 990-1060",
    "lat": 34.055127,
    "lng": -117.305145
  },
  {
    "id": "630017889",
    "name": "ANGELS IN ROUTE, LLC",
    "npi": null,
    "hcaiId": "406361699",
    "businessName": "ANGELS IN ROUTE, LLC",
    "contactEmail": "MELVADELL@YAHOO.COM",
    "categoryName": "HOME HEALTH AGENCY",
    "categoryCode": "HHA",
    "licenseStatus": "ACTIVE",
    "inService": true,
    "licenseNumber": "550004690",
    "licenseEffectiveDate": "05/10/2025",
    "licenseExpirationDate": "05/09/2026",
    "dataDate": "10/18/2025",
    "capacity": 0,
    "address": "935 S MOUNT VERNON AVE, SUITE 103",
    "city": "COLTON",
    "zip": "92324",
    "county": "SAN BERNARDINO",
    "phone": "(909) 496-4161",
    "lat": 34.054893,
    "lng": -117.309789
  },
  {
    "id": "630014622",
    "name": "ANTHEM HOSPICE PROVIDERS, INC.",
    "npi": null,
    "hcaiId": "406360905",
    "businessName": "ANTHEM HOSPICE PROVIDERS, INC.",
    "contactEmail": "ANTHEMHOSPICE@YAHOO.COM",
    "categoryName": "HOSPICE",
    "categoryCode": "HOSPICE",
    "licenseStatus": "ACTIVE",
    "inService": true,
    "licenseNumber": "550002571",
    "licenseEffectiveDate": "01/17/2024",
    "licenseExpirationDate": "01/16/2026",
    "dataDate": "10/18/2025",
    "capacity": 0,
    "address": "850 VIA LATA, SUITE 118",
    "city": "COLTON",
    "zip": "92324",
    "county": "SAN BERNARDINO",
    "phone": "(909) 533-4553",
    "lat": 34.05627207,
    "lng": -117.3068921
  },
  {
    "id": "630026610",
    "name": "ARROWHEAD CLHF",
    "npi": null,
    "hcaiId": null,
    "businessName": "ARROWHEAD CLHF",
    "contactEmail": "EPPOSNER@GMAIL.COM",
    "categoryName": "CONGREGATE LIVING HEALTH FACILITY",
    "categoryCode": "CLHF",
    "licenseStatus": "ACTIVE",
    "inService": true,
    "licenseNumber": "550009651",
    "licenseEffectiveDate": "08/18/2025",
    "licenseExpirationDate": "02/17/2026",
    "dataDate": "10/18/2025",
    "capacity": 18,
    "address": "128 E G ST",
    "city": "COLTON",
    "zip": "92324",
    "county": "SAN BERNARDINO",
    "phone": "(818) 281-5822",
    "lat": 34.068663,
    "lng": -117.3233835
  },
  {
    "id": "240000100",
    "name": "ARROWHEAD REGIONAL MEDICAL CENTER",
    "npi": "1790781169",
    "hcaiId": "106364231",
    "businessName": "SAN BERNARDINO COUNTY DBA ARROWHEAD REGIONAL MEDICAL CENTER",
    "contactEmail": "SHELBYK@ARMC.SBCOUNTY.GOV",
    "categoryName": "GENERAL ACUTE CARE HOSPITAL",
    "categoryCode": "GACH",
    "licenseStatus": "ACTIVE",
    "inService": true,
    "licenseNumber": "240000197",
    "licenseEffectiveDate": "07/24/2025",
    "licenseExpirationDate": "01/31/2026",
    "dataDate": "10/18/2025",
    "capacity": 366,
    "address": "400 N PEPPER AVE",
    "city": "COLTON",
    "zip": "92324",
    "county": "SAN BERNARDINO",
    "phone": "(909) 580-6160",
    "lat": 34.07193214,
    "lng": -117.3527728
  },
  {
    "id": "630006721",
    "name": "ARROWHEAD REGIONAL MEDICAL CENTER - DIALYSIS",
    "npi": "1992989834",
    "hcaiId": null,
    "businessName": "SAN BERNARDINO COUNTY DBA ARROWHEAD REGIONAL MEDICAL CENTER",
    "contactEmail": null,
    "categoryName": "CHRONIC DIALYSIS CLINIC",
    "categoryCode": "ESRD",
    "licenseStatus": "ACTIVE",
    "inService": true,
    "licenseNumber": "240000197",
    "licenseEffectiveDate": "07/24/2025",
    "licenseExpirationDate": "01/31/2026",
    "dataDate": "10/18/2025",
    "capacity": 0,
    "address": "400 N PEPPER AVE",
    "city": "COLTON",
    "zip": "92324",
    "county": "SAN BERNARDINO",
    "phone": "(909) 580-6150",
    "lat": 34.07193214,
    "lng": -117.3527728
  },
  {
    "id": "240000454",
    "name": "ARROWHEAD REGIONAL MEDICAL CENTER D/P APH",
    "npi": "1790781169",
    "hcaiId": null,
    "businessName": "SAN BERNARDINO COUNTY DBA ARROWHEAD REGIONAL MEDICAL CENTER",
    "contactEmail": null,
    "categoryName": "ACUTE PSYCHIATRIC HOSPITAL",
    "categoryCode": "APH",
    "licenseStatus": "ACTIVE",
    "inService": true,
    "licenseNumber": "240000197",
    "licenseEffectiveDate": "07/24/2025",
    "licenseExpirationDate": "01/31/2026",
    "dataDate": "10/18/2025",
    "capacity": 90,
    "address": "400 N PEPPER AVE",
    "city": "COLTON",
    "zip": "92324",
    "county": "SAN BERNARDINO",
    "phone": "(909) 580-1000",
    "lat": 34.07193214,
    "lng": -117.3527728
  },
  {
    "id": "630016159",
    "name": "BELMONT HOSPICE, INC.",
    "npi": null,
    "hcaiId": "406364564",
    "businessName": "BELMONT HOSPICE, INC.",
    "contactEmail": "BELMONTHOSPICE@GMAIL.COM",
    "categoryName": "HOSPICE",
    "categoryCode": "HOSPICE",
    "licenseStatus": "ACTIVE",
    "inService": true,
    "licenseNumber": "550003368",
    "licenseEffectiveDate": "12/29/2023",
    "licenseExpirationDate": "12/28/2025",
    "dataDate": "10/18/2025",
    "capacity": 0,
    "address": "1007 E COOLEY DR, SUITE 117",
    "city": "COLTON",
    "zip": "92324",
    "county": "SAN BERNARDINO",
    "phone": "(909) 256-4399",
    "lat": 34.055145,
    "lng": -117.311436
  },
  {
    "id": "630018827",
    "name": "CAL MED ASC",
    "npi": "1811482698",
    "hcaiId": null,
    "businessName": null,
    "contactEmail": "ROBERTSS@CALMEDD.COM",
    "categoryName": "SURGICAL CLINIC",
    "categoryCode": "ASC",
    "licenseStatus": null,
    "inService": null,
    "licenseNumber": null,
    "licenseEffectiveDate": null,
    "licenseExpirationDate": null,
    "dataDate": "10/18/2025",
    "capacity": 0,
    "address": "1281 W C ST",
    "city": "COLTON",
    "zip": "92324",
    "county": "SAN BERNARDINO",
    "phone": "(909) 679-2710",
    "lat": 34.07364,
    "lng": -117.3472245
  },
  {
    "id": "630027716",
    "name": "CAL MED ENDOSCOPY CENTER LLC",
    "npi": null,
    "hcaiId": null,
    "businessName": null,
    "contactEmail": null,
    "categoryName": "SURGICAL CLINIC",
    "categoryCode": "ASC",
    "licenseStatus": null,
    "inService": null,
    "licenseNumber": null,
    "licenseEffectiveDate": null,
    "licenseExpirationDate": null,
    "dataDate": "10/18/2025",
    "capacity": 0,
    "address": "1281 W C ST, SUITE 150",
    "city": "COLTON",
    "zip": "92324",
    "county": "SAN BERNARDINO",
    "phone": "(909) 600-4406",
    "lat": 34.073617,
    "lng": -117.347249
  },
  {
    "id": "630027454",
    "name": "CAL MED VASCULAR ASC, LLC",
    "npi": null,
    "hcaiId": null,
    "businessName": null,
    "contactEmail": "GNANADEVD@CALMEDDOCS.COM",
    "categoryName": "SURGICAL CLINIC",
    "categoryCode": "ASC",
    "licenseStatus": null,
    "inService": null,
    "licenseNumber": null,
    "licenseEffectiveDate": null,
    "licenseExpirationDate": null,
    "dataDate": "10/18/2025",
    "capacity": 0,
    "address": "1281 W C ST, SUITE 350",
    "city": "COLTON",
    "zip": "92324",
    "county": "SAN BERNARDINO",
    "phone": "(909) 841-9324",
    "lat": 34.073617,
    "lng": -117.347249
  },
  {
    "id": "630015159",
    "name": "COLTON RANCH DIALYSIS",
    "npi": "1063838894",
    "hcaiId": "306364528",
    "businessName": "WALTON DIALYSIS LLC",
    "contactEmail": "CAL_C@DAVITA.COM",
    "categoryName": "CHRONIC DIALYSIS CLINIC",
    "categoryCode": "ESRD/CDC",
    "licenseStatus": "ACTIVE",
    "inService": true,
    "licenseNumber": "550002975",
    "licenseEffectiveDate": "10/20/2025",
    "licenseExpirationDate": "10/19/2026",
    "dataDate": "10/18/2025",
    "capacity": 32,
    "address": "1405 W. VALLEY BLVD., SUITE 100",
    "city": "COLTON",
    "zip": "92324",
    "county": "SAN BERNARDINO",
    "phone": "(909) 783-7948",
    "lat": 34.070058,
    "lng": -117.348867
  },
  {
    "id": "630015529",
    "name": "COMPASSION HOSPICE & PALLIATIVE CARE",
    "npi": "1194134569",
    "hcaiId": "406364586",
    "businessName": "COMPASSION HOSPICE & PALLIATIVE CARE",
    "contactEmail": "COMPASSIONHOSPICE@YAHOO.COM",
    "categoryName": "HOSPICE",
    "categoryCode": "HOSPICE",
    "licenseStatus": "ACTIVE",
    "inService": true,
    "licenseNumber": "550003304",
    "licenseEffectiveDate": "10/20/2023",
    "licenseExpirationDate": "10/19/2025",
    "dataDate": "10/18/2025",
    "capacity": 0,
    "address": "1016 E COOLEY DRIVE, UNIT D",
    "city": "COLTON",
    "zip": "92324",
    "county": "SAN BERNARDINO",
    "phone": null,
    "lat": 34.05450899,
    "lng": -117.3107658
  },
  {
    "id": "630022334",
    "name": "DAZION'S HOME HEALTH SERVICES LLC",
    "npi": null,
    "hcaiId": "406365448",
    "businessName": "DAZION'S HOME HEALTH SERVICES LLC",
    "contactEmail": "DAZIONHOMEHEALTHCARE@GMAIL.COM",
    "categoryName": "HOME HEALTH AGENCY",
    "categoryCode": "HHA",
    "licenseStatus": "ACTIVE",
    "inService": true,
    "licenseNumber": "550008074",
    "licenseEffectiveDate": "07/12/2025",
    "licenseExpirationDate": "07/11/2026",
    "dataDate": "10/18/2025",
    "capacity": 0,
    "address": "1003 E COOLEY DR, SUITE 208",
    "city": "COLTON",
    "zip": "92324",
    "county": "SAN BERNARDINO",
    "phone": "(408) 966-5739",
    "lat": 34.054974,
    "lng": -117.310797
  },
  {
    "id": "630014874",
    "name": "EXCELCARE HOSPICE, INC.",
    "npi": null,
    "hcaiId": "406361307",
    "businessName": "EXCELCARE HOSPICE, INC.",
    "contactEmail": "EXCELCAREHOSPICE@YAHOO.COM",
    "categoryName": "HOSPICE",
    "categoryCode": "HOSPICE",
    "licenseStatus": "ACTIVE",
    "inService": true,
    "licenseNumber": "550002651",
    "licenseEffectiveDate": "04/07/2024",
    "licenseExpirationDate": "04/06/2026",
    "dataDate": "10/18/2025",
    "capacity": 0,
    "address": "937 VIA LATA, SUITE 200",
    "city": "COLTON",
    "zip": "92324",
    "county": "SAN BERNARDINO",
    "phone": "(909) 300-5533",
    "lat": 34.0553925,
    "lng": -117.3070069
  },
  {
    "id": "630027707",
    "name": "FRESENIUS KIDNEY CARE COLTON HOME",
    "npi": null,
    "hcaiId": null,
    "businessName": null,
    "contactEmail": "ANALIA.RATSOMBATH@FRESENIUSMEDICALCARE.COM",
    "categoryName": "CHRONIC DIALYSIS CLINIC",
    "categoryCode": "ESRD",
    "licenseStatus": null,
    "inService": null,
    "licenseNumber": null,
    "licenseEffectiveDate": null,
    "licenseExpirationDate": null,
    "dataDate": "10/18/2025",
    "capacity": 0,
    "address": "952 S MOUNT VERNON AVE, SUITE C",
    "city": "COLTON",
    "zip": "92324",
    "county": "SAN BERNARDINO",
    "phone": "(951) 269-9691",
    "lat": 34.053951,
    "lng": -117.308728
  },
  {
    "id": "630016729",
    "name": "GLOBAL HOME HEALTH AND ALLIED SERVICES, LLC",
    "npi": null,
    "hcaiId": "406360675",
    "businessName": "GLOBAL HOME HEALTH AND ALLIED SERVICES, LLC",
    "contactEmail": "GHNAS1@GMAIL.COM",
    "categoryName": "HOME HEALTH AGENCY",
    "categoryCode": "HHA",
    "licenseStatus": "ACTIVE",
    "inService": true,
    "licenseNumber": "550004049",
    "licenseEffectiveDate": "11/07/2017",
    "licenseExpirationDate": "05/06/2018",
    "dataDate": "10/18/2025",
    "capacity": 0,
    "address": "1003 E. COOLEY DRIVE, SUITE 207",
    "city": "COLTON",
    "zip": "92324",
    "county": "SAN BERNARDINO",
    "phone": "(909) 424-0274",
    "lat": 34.054965,
    "lng": -117.3107565
  },
  {
    "id": "630016905",
    "name": "GSR HOSPICE, INC.",
    "npi": null,
    "hcaiId": "406360902",
    "businessName": "GSR HOSPICE, INC.",
    "contactEmail": "GSRHOSPICEINC@GMAIL.COM",
    "categoryName": "HOSPICE",
    "categoryCode": "HOSPICE",
    "licenseStatus": "ACTIVE",
    "inService": true,
    "licenseNumber": "550003724",
    "licenseEffectiveDate": "11/02/2024",
    "licenseExpirationDate": "11/01/2026",
    "dataDate": "10/18/2025",
    "capacity": 0,
    "address": "837 N. LA CADENA DRIVE, SUITE B",
    "city": "COLTON",
    "zip": "92324",
    "county": "SAN BERNARDINO",
    "phone": "(909) 963-0992",
    "lat": 34.07377555,
    "lng": -117.3229394
  },
  {
    "id": "630020788",
    "name": "HI-TOP HOSPICE CARE INC.",
    "npi": "1245849124",
    "hcaiId": "406366120",
    "businessName": "HI-TOP HOSPICE CARE INC.",
    "contactEmail": "HITOPHOSPICE@GMAIL.COM",
    "categoryName": "HOSPICE",
    "categoryCode": "HOSPICE",
    "licenseStatus": "ACTIVE",
    "inService": true,
    "licenseNumber": "550006371",
    "licenseEffectiveDate": "05/26/2025",
    "licenseExpirationDate": "05/25/2027",
    "dataDate": "10/18/2025",
    "capacity": 0,
    "address": "829 N LA CADENA DR",
    "city": "COLTON",
    "zip": "92324",
    "county": "SAN BERNARDINO",
    "phone": "(909) 284-5238",
    "lat": 34.0737605,
    "lng": -117.3229419
  },
  {
    "id": "630000641",
    "name": "IN HOME HEALTHCARE INC",
    "npi": "1962643718",
    "hcaiId": "406364338",
    "businessName": "IN HOME HEALTHCARE, INC.",
    "contactEmail": "INHOMEHC@GMAIL.COM",
    "categoryName": "HOME HEALTH AGENCY",
    "categoryCode": "HHA",
    "licenseStatus": "ACTIVE",
    "inService": true,
    "licenseNumber": "550000451",
    "licenseEffectiveDate": "03/22/2025",
    "licenseExpirationDate": "03/21/2026",
    "dataDate": "10/18/2025",
    "capacity": 0,
    "address": "1280 E COOLEY DR, SUITE 7",
    "city": "COLTON",
    "zip": "92324",
    "county": "SAN BERNARDINO",
    "phone": "(909) 824-1112",
    "lat": 34.054218,
    "lng": -117.3069945
  },
  {
    "id": "630017834",
    "name": "INTER-COMMUNITY HOSPICE, INC.",
    "npi": "1508373408",
    "hcaiId": "406190312",
    "businessName": "INTER-COMMUNITY HOSPICE, INC.",
    "contactEmail": "ICHINTERCOMMUNITYHOSPICE@GMAIL.COM",
    "categoryName": "HOSPICE",
    "categoryCode": "HOSPICE",
    "licenseStatus": "ACTIVE",
    "inService": true,
    "licenseNumber": "550004661",
    "licenseEffectiveDate": "11/15/2024",
    "licenseExpirationDate": "05/08/2025",
    "dataDate": "10/18/2025",
    "capacity": 0,
    "address": "1421 E COOLEY DR, SUITE 15",
    "city": "COLTON",
    "zip": "92324",
    "county": "SAN BERNARDINO",
    "phone": "(840) 356-4387",
    "lat": 34.05513629,
    "lng": -117.3051673
  },
  {
    "id": "240000089",
    "name": "MEADOWS RIDGE CARE CENTER",
    "npi": "1487196655",
    "hcaiId": "206361131",
    "businessName": "MEADOWS RIDGE CARE CENTER LLC",
    "contactEmail": "FAC76ADMIN@LONGWOODMGMT.COM",
    "categoryName": "SKILLED NURSING FACILITY",
    "categoryCode": "SNF",
    "licenseStatus": "ACTIVE",
    "inService": true,
    "licenseNumber": "240000122",
    "licenseEffectiveDate": "10/13/2025",
    "licenseExpirationDate": "10/12/2026",
    "dataDate": "10/18/2025",
    "capacity": 99,
    "address": "1700 E WASHINGTON ST",
    "city": "COLTON",
    "zip": "92324",
    "county": "SAN BERNARDINO",
    "phone": "(909) 824-1530",
    "lat": 34.047927,
    "lng": -117.298926
  },
  {
    "id": "630015560",
    "name": "MERIT HOME HEALTH SERVICES INC.",
    "npi": "1679974299",
    "hcaiId": "406364584",
    "businessName": "MERIT HOME HEALTH SERVICES INC.",
    "contactEmail": "MERITHHA@GMAIL.COM",
    "categoryName": "HOME HEALTH AGENCY",
    "categoryCode": "HHA",
    "licenseStatus": "ACTIVE",
    "inService": true,
    "licenseNumber": "550003217",
    "licenseEffectiveDate": "06/29/2025",
    "licenseExpirationDate": "06/28/2026",
    "dataDate": "10/18/2025",
    "capacity": 0,
    "address": "1003 COOLEY DRIVE, SUITE 108",
    "city": "COLTON",
    "zip": "92324",
    "county": "SAN BERNARDINO",
    "phone": "(909) 825-8767",
    "lat": 34.054965,
    "lng": -117.3107565
  },
  {
    "id": "630017715",
    "name": "NEWLINE HOME HEALTH AND PALLIATIVE CARE, INC.",
    "npi": null,
    "hcaiId": "406361873",
    "businessName": "NEWLINE HOME HEALTH AND PALLIATIVE CARE, INC.",
    "contactEmail": "INFO@NEWLINEHOMEHEALTH.COM",
    "categoryName": "HOME HEALTH AGENCY",
    "categoryCode": "HHA",
    "licenseStatus": "ACTIVE",
    "inService": true,
    "licenseNumber": "550004833",
    "licenseEffectiveDate": "07/19/2025",
    "licenseExpirationDate": "07/18/2026",
    "dataDate": "10/18/2025",
    "capacity": 0,
    "address": "827 N LA CADENA DR",
    "city": "COLTON",
    "zip": "92324",
    "county": "SAN BERNARDINO",
    "phone": "(909) 375-1232",
    "lat": 34.07375674,
    "lng": -117.3229425
  },
  {
    "id": "630025427",
    "name": "NEXUS HEALTHLINK LLC",
    "npi": null,
    "hcaiId": "406368018",
    "businessName": "NEXUS HEALTHLINK LLC",
    "contactEmail": "NEXUSHCG@GMAIL.COM",
    "categoryName": "HOME HEALTH AGENCY",
    "categoryCode": "HHA",
    "licenseStatus": "ACTIVE",
    "inService": true,
    "licenseNumber": "550008764",
    "licenseEffectiveDate": "10/10/2025",
    "licenseExpirationDate": "10/09/2026",
    "dataDate": "10/18/2025",
    "capacity": 0,
    "address": "1325 E COOLEY DR, SUITE 102",
    "city": "COLTON",
    "zip": "92324",
    "county": "SAN BERNARDINO",
    "phone": "(909) 719-0520",
    "lat": 34.054992,
    "lng": -117.306243
  },
  {
    "id": "630020702",
    "name": "NEXUS HOSPICE OF THE INLAND EMPIRE LLC",
    "npi": null,
    "hcaiId": "406366115",
    "businessName": "NEXUS HOSPICE OF THE INLAND EMPIRE, LLC",
    "contactEmail": "NEXUSHCG@GMAIL.COM",
    "categoryName": "HOSPICE",
    "categoryCode": "HOSPICE",
    "licenseStatus": "ACTIVE",
    "inService": true,
    "licenseNumber": "550006313",
    "licenseEffectiveDate": "05/24/2025",
    "licenseExpirationDate": "05/23/2027",
    "dataDate": "10/18/2025",
    "capacity": 0,
    "address": "1325 E COOLEY DR, SUITE 103",
    "city": "COLTON",
    "zip": "92324",
    "county": "SAN BERNARDINO",
    "phone": "(909) 757-8150",
    "lat": 34.054992,
    "lng": -117.306243
  },
  {
    "id": "630027282",
    "name": "ONE LOVE IN HOME CARE LLC",
    "npi": null,
    "hcaiId": null,
    "businessName": "ONE LOVE IN HOME CARE LLC",
    "contactEmail": "1LOVEINHOMECARE@GMAIL.COM",
    "categoryName": "HOME HEALTH AGENCY",
    "categoryCode": "HHA",
    "licenseStatus": "ACTIVE",
    "inService": true,
    "licenseNumber": "550009622",
    "licenseEffectiveDate": "01/06/2025",
    "licenseExpirationDate": "07/05/2025",
    "dataDate": "10/18/2025",
    "capacity": 0,
    "address": "1421 E COOLEY DR, SUITE 14",
    "city": "COLTON",
    "zip": "92324",
    "county": "SAN BERNARDINO",
    "phone": "(909) 836-1992",
    "lat": 34.05513398,
    "lng": -117.305161
  },
  {
    "id": "630018126",
    "name": "PRECISION CARE HOSPICE",
    "npi": "1194219519",
    "hcaiId": "406363975",
    "businessName": "PRECISION CARE HOSPICE",
    "contactEmail": "PRECISIONCAREHOSPICE@GMAIL.COM",
    "categoryName": "HOSPICE",
    "categoryCode": "HOSPICE",
    "licenseStatus": "ACTIVE",
    "inService": true,
    "licenseNumber": "550007036",
    "licenseEffectiveDate": "10/14/2023",
    "licenseExpirationDate": "10/13/2025",
    "dataDate": "10/18/2025",
    "capacity": 0,
    "address": "1003 E COOLEY DR, SUITE 201A",
    "city": "COLTON",
    "zip": "92324",
    "county": "SAN BERNARDINO",
    "phone": "(909) 736-1849",
    "lat": 34.054974,
    "lng": -117.310797
  },
  {
    "id": "240001613",
    "name": "RAI - WEST C - COLTON",
    "npi": "1790835031",
    "hcaiId": "306364198",
    "businessName": "RAI CARE CENTERS OF COLTON, LLC",
    "contactEmail": "CLINIC7193@FMC-NA.COM",
    "categoryName": "CHRONIC DIALYSIS CLINIC",
    "categoryCode": "ESRD/CDC",
    "licenseStatus": "ACTIVE",
    "inService": true,
    "licenseNumber": "240000703",
    "licenseEffectiveDate": "06/01/2025",
    "licenseExpirationDate": "05/31/2026",
    "dataDate": "10/18/2025",
    "capacity": 37,
    "address": "952 S MOUNT VERNON AVE, SUITE A",
    "city": "COLTON",
    "zip": "92324",
    "county": "SAN BERNARDINO",
    "phone": "(909) 430-0930",
    "lat": 34.053951,
    "lng": -117.308728
  },
  {
    "id": "240001723",
    "name": "SAN MANUEL INDIAN HEALTH CLINIC",
    "npi": null,
    "hcaiId": "306364522",
    "businessName": null,
    "contactEmail": "BTHOMSH@RSBUNI.ORG",
    "categoryName": "PRIMARY CARE CLINIC",
    "categoryCode": "FQHC",
    "licenseStatus": null,
    "inService": null,
    "licenseNumber": null,
    "licenseEffectiveDate": null,
    "licenseExpirationDate": null,
    "dataDate": "10/18/2025",
    "capacity": 0,
    "address": "11980 MOUNT VERNON AVENUE",
    "city": "GRAND TERRACE",
    "zip": "92324",
    "county": "SAN BERNARDINO",
    "phone": "(909) 864-1097",
    "lat": 34.036344,
    "lng": -117.3146535
  },
  {
    "id": "630016460",
    "name": "ST JOHN SURGERY CENTER INC",
    "npi": "1720359151",
    "hcaiId": null,
    "businessName": null,
    "contactEmail": null,
    "categoryName": "SURGICAL CLINIC",
    "categoryCode": "ASC",
    "licenseStatus": null,
    "inService": null,
    "licenseNumber": null,
    "licenseEffectiveDate": null,
    "licenseExpirationDate": null,
    "dataDate": "10/18/2025",
    "capacity": 0,
    "address": "1023 S MOUNT VERNON AVE",
    "city": "COLTON",
    "zip": "92324",
    "county": "SAN BERNARDINO",
    "phone": null,
    "lat": 34.052553,
    "lng": -117.309888
  },
  {
    "id": "240000873",
    "name": "THE CANYONS POST-ACUTE",
    "npi": "1316220247",
    "hcaiId": "206364064",
    "businessName": "CAPE COD BAY HOLDINGS, LLC",
    "contactEmail": "TOBY@LINKSHEALTH.COM",
    "categoryName": "SKILLED NURSING FACILITY",
    "categoryCode": "SNF",
    "licenseStatus": "ACTIVE",
    "inService": true,
    "licenseNumber": "240000394",
    "licenseEffectiveDate": "10/20/2025",
    "licenseExpirationDate": "02/28/2026",
    "dataDate": "10/18/2025",
    "capacity": 156,
    "address": "1350 RECHE CANYON RD",
    "city": "COLTON",
    "zip": "92324",
    "county": "SAN BERNARDINO",
    "phone": "(858) 798-5700",
    "lat": 34.045416,
    "lng": -117.2833065
  },
  {
    "id": "240000249",
    "name": "THE EYE SURGERY CENTER",
    "npi": "1699747667",
    "hcaiId": null,
    "businessName": null,
    "contactEmail": null,
    "categoryName": "SURGICAL CLINIC",
    "categoryCode": "ASC",
    "licenseStatus": null,
    "inService": null,
    "licenseNumber": null,
    "licenseEffectiveDate": null,
    "licenseExpirationDate": null,
    "dataDate": "10/18/2025",
    "capacity": 0,
    "address": "1900 E WASHINGTON ST",
    "city": "COLTON",
    "zip": "92324",
    "county": "SAN BERNARDINO",
    "phone": "(909) 825-8002",
    "lat": 34.047846,
    "lng": -117.2948805
  },
  {
    "id": "630021053",
    "name": "TOUCHING HEARTS HOSPICE, LLC",
    "npi": null,
    "hcaiId": "406364631",
    "businessName": "TOUCHING HEARTS HOSPICE, LLC",
    "contactEmail": "THEARTSHOSPICE@GMAIL.COM",
    "categoryName": "HOSPICE",
    "categoryCode": "HOSPICE",
    "licenseStatus": "ACTIVE",
    "inService": true,
    "licenseNumber": "550007289",
    "licenseEffectiveDate": "11/18/2023",
    "licenseExpirationDate": "11/17/2025",
    "dataDate": "10/18/2025",
    "capacity": 0,
    "address": "813 N LA CADENA DR",
    "city": "COLTON",
    "zip": "92324",
    "county": "SAN BERNARDINO",
    "phone": "(909) 966-4354",
    "lat": 34.07373042,
    "lng": -117.3229469
  },
  {
    "id": "630016725",
    "name": "UNICARE COMMUNITY HEALTH CENTER, INC.",
    "npi": "1447604582",
    "hcaiId": "306364577",
    "businessName": "UNICARE COMMUNITY HEALTH CENTER, INC.",
    "contactEmail": "UCHC@UNICARECHC.ORG",
    "categoryName": "PRIMARY CARE CLINIC",
    "categoryCode": "COMTYC",
    "licenseStatus": "ACTIVE",
    "inService": true,
    "licenseNumber": "550006138",
    "licenseEffectiveDate": "02/05/2025",
    "licenseExpirationDate": "02/04/2026",
    "dataDate": "10/18/2025",
    "capacity": 0,
    "address": "308 N. LA CADENA DRIVE",
    "city": "COLTON",
    "zip": "92324",
    "county": "SAN BERNARDINO",
    "phone": "(909) 988-2555",
    "lat": 34.068132,
    "lng": -117.323703
  }
]