[
  {
    "id": "630011817",
    "name": "FRESENIUS KIDNEY CARE JUNIPER FONTANA",
    "npi": "1447429568",
    "hcaiId": "306364396",
    "businessName": "FRESENIUS MEDICAL CARE SAN BERNARDINO, LLC",
    "contactEmail": "CLINIC7194@FMC-NA.COM",
    "categoryName": "CHRONIC DIALYSIS CLINIC",
    "categoryCode": "ESRD/CDC",
    "licenseStatus": "ACTIVE",
    "inService": true,
    "licenseNumber": "550001007",
    "licenseEffectiveDate": "04/20/2025",
    "licenseExpirationDate": "04/19/2026",
    "dataDate": "10/18/2025",
    "capacity": 24,
    "address": "10557 JUNIPER AVE, BUILDING A #B",
    "city": "FONTANA",
    "zip": "92337",
    "county": "SAN BERNARDINO",
    "phone": "(909) 854-4336",
    "lat": 34.061922,
    "lng": -117.4388625
  },
  {
    "id": "240001859",
    "name": "KAISER FOUNDATION HOSPITAL HOME HEALTH AGENCY",
    "npi": "1710032735",
    "hcaiId": "406361335",
    "businessName": "KAISER FOUNDATION HOSPITALS",
    "contactEmail": "RHONDA.M.HORNACK@KP.ORG",
    "categoryName": "HOME HEALTH AGENCY",
    "categoryCode": "HHA",
    "licenseStatus": "ACTIVE",
    "inService": true,
    "licenseNumber": "240000833",
    "licenseEffectiveDate": "12/03/2024",
    "licenseExpirationDate": "12/02/2025",
    "dataDate": "10/18/2025",
    "capacity": 0,
    "address": "17284 SLOVER AVE",
    "city": "FONTANA",
    "zip": "92337",
    "county": "SAN BERNARDINO",
    "phone": "(951) 255-0965",
    "lat": 34.065351,
    "lng": -117.4278105
  },
  {
    "id": "080001647",
    "name": "KAISER FOUNDATION HOSPITAL HOSPICE",
    "npi": "1053466961",
    "hcaiId": null,
    "businessName": null,
    "contactEmail": null,
    "categoryName": "HOSPICE",
    "categoryCode": "HOSPICE",
    "licenseStatus": null,
    "inService": null,
    "licenseNumber": null,
    "licenseEffectiveDate": null,
    "licenseExpirationDate": null,
    "dataDate": "10/18/2025",
    "capacity": 0,
    "address": "17284 SLOVER AVE",
    "city": "FONTANA",
    "zip": "92337",
    "county": "SAN BERNARDINO",
    "phone": "(909) 609-3838",
    "lat": 34.065351,
    "lng": -117.4278105
  }
]