[
  {
    "id": "630014341",
    "name": "ASSURE PREGNANCY CLINIC",
    "npi": "1669529863",
    "hcaiId": "306360594",
    "businessName": "ALTERNATE AVENUES WOMEN'S RESOURCE CENTER",
    "contactEmail": "NURSEMANAGER@ASSUREPREGNANCY.ORG",
    "categoryName": "PRIMARY CARE CLINIC",
    "categoryCode": "COMTYC",
    "licenseStatus": "ACTIVE",
    "inService": true,
    "licenseNumber": "550002289",
    "licenseEffectiveDate": "06/07/2024",
    "licenseExpirationDate": "06/06/2025",
    "dataDate": "10/18/2025",
    "capacity": 0,
    "address": "17057 FOOTHILL BLVD, SUITE 204",
    "city": "FONTANA",
    "zip": "92335",
    "county": "SAN BERNARDINO",
    "phone": "(909) 621-4800",
    "lat": 34.105635,
    "lng": -117.432828
  },
  {
    "id": "240000038",
    "name": "CITRUS NURSING CENTER",
    "npi": "1346346285",
    "hcaiId": "206361146",
    "businessName": "CITRUS NURSING CENTER",
    "contactEmail": "ADMIN@CITRUSNURSING.COM",
    "categoryName": "SKILLED NURSING FACILITY",
    "categoryCode": "SNF",
    "licenseStatus": "ACTIVE",
    "inService": true,
    "licenseNumber": "240000127",
    "licenseEffectiveDate": "01/06/2025",
    "licenseExpirationDate": "01/05/2026",
    "dataDate": "10/18/2025",
    "capacity": 99,
    "address": "9440 CITRUS AVE",
    "city": "FONTANA",
    "zip": "92335",
    "county": "SAN BERNARDINO",
    "phone": "(909) 823-3481",
    "lat": 34.082334,
    "lng": -117.454284
  },
  {
    "id": "630014853",
    "name": "COBBLESTONE HOUSE",
    "npi": "1295151710",
    "hcaiId": null,
    "businessName": "ZUHA HOMES, INC.",
    "contactEmail": "ZUHAHOMESINC@GMAIL.COM",
    "categoryName": "INTERMEDIATE CARE FACILITY-DD/H/N/CN/IID",
    "categoryCode": "ICFDDN",
    "licenseStatus": "ACTIVE",
    "inService": true,
    "licenseNumber": "550002880",
    "licenseEffectiveDate": "07/23/2024",
    "licenseExpirationDate": "07/22/2025",
    "dataDate": "10/18/2025",
    "capacity": 6,
    "address": "13881 COBBLESTONE CT",
    "city": "FONTANA",
    "zip": "92335",
    "county": "SAN BERNARDINO",
    "phone": "(909) 371-3760",
    "lat": 34.103916,
    "lng": -117.502542
  },
  {
    "id": "630021687",
    "name": "FONTANA ADULT DAY HEALTH SERVICES",
    "npi": null,
    "hcaiId": null,
    "businessName": "SQUARE HEALTH, LLC",
    "contactEmail": "E4VENTURE@GMAIL.COM",
    "categoryName": "ADULT DAY HEALTH CARE",
    "categoryCode": "ADHC",
    "licenseStatus": "ACTIVE",
    "inService": true,
    "licenseNumber": "550007905",
    "licenseEffectiveDate": "12/14/2024",
    "licenseExpirationDate": "12/13/2025",
    "dataDate": "10/18/2025",
    "capacity": 0,
    "address": "17057 FOOTHILL BLVD, SUITE 101",
    "city": "FONTANA",
    "zip": "92335",
    "county": "SAN BERNARDINO",
    "phone": "(626) 888-6580",
    "lat": 34.105635,
    "lng": -117.432828
  },
  {
    "id": "240000719",
    "name": "FONTANA DIALYSIS",
    "npi": "1326012311",
    "hcaiId": "306364415",
    "businessName": "DVA HEALTHCARE RENAL CARE, INC.",
    "contactEmail": "CAL_C@DAVITA.COM",
    "categoryName": "CHRONIC DIALYSIS CLINIC",
    "categoryCode": "ESRD/CDC",
    "licenseStatus": "ACTIVE",
    "inService": true,
    "licenseNumber": "240000334",
    "licenseEffectiveDate": "11/20/2025",
    "licenseExpirationDate": "11/19/2026",
    "dataDate": "10/18/2025",
    "capacity": 28,
    "address": "17590 FOOTHILL BLVD",
    "city": "FONTANA",
    "zip": "92335",
    "county": "SAN BERNARDINO",
    "phone": "(909) 356-9664",
    "lat": 34.10721,
    "lng": -117.420822
  },
  {
    "id": "240000024",
    "name": "KAISER FOUNDATION HOSPITAL FONTANA",
    "npi": "1356496772",
    "hcaiId": "106361223",
    "businessName": "KAISER FOUNDATION HOSPITALS",
    "contactEmail": "NANCY.T.MCCLELLAND@KP.ORG",
    "categoryName": "GENERAL ACUTE CARE HOSPITAL",
    "categoryCode": "GACH",
    "licenseStatus": "ACTIVE",
    "inService": true,
    "licenseNumber": "240000159",
    "licenseEffectiveDate": "04/01/2025",
    "licenseExpirationDate": "03/31/2026",
    "dataDate": "10/18/2025",
    "capacity": 450,
    "address": "9961 SIERRA AVE",
    "city": "FONTANA",
    "zip": "92335",
    "county": "SAN BERNARDINO",
    "phone": "(909) 302-7765",
    "lat": 34.07184,
    "lng": -117.432081
  },
  {
    "id": "240001731",
    "name": "KAISER FOUNDATION HOSPITAL, FONTANA",
    "npi": null,
    "hcaiId": null,
    "businessName": null,
    "contactEmail": null,
    "categoryName": "CHRONIC DIALYSIS CLINIC",
    "categoryCode": "ESRD",
    "licenseStatus": null,
    "inService": null,
    "licenseNumber": null,
    "licenseEffectiveDate": null,
    "licenseExpirationDate": null,
    "dataDate": "10/18/2025",
    "capacity": 0,
    "address": "9961 SIERRA AVENUE",
    "city": "FONTANA",
    "zip": "92335",
    "county": "SAN BERNARDINO",
    "phone": "(909) 427-4253",
    "lat": 34.07184,
    "lng": -117.432081
  },
  {
    "id": "240001623",
    "name": "KANDDID HEALTHCARE INC",
    "npi": "1003183237",
    "hcaiId": "406364213",
    "businessName": "KANDDID HEALTHCARE INC.",
    "contactEmail": "NONYEOBI2014@YAHOO.COM",
    "categoryName": "HOME HEALTH AGENCY",
    "categoryCode": "HHA",
    "licenseStatus": "ACTIVE",
    "inService": true,
    "licenseNumber": "240000709",
    "licenseEffectiveDate": "10/23/2023",
    "licenseExpirationDate": "10/22/2024",
    "dataDate": "10/18/2025",
    "capacity": 0,
    "address": "9161 SIERRA AVE, SUITE 200",
    "city": "FONTANA",
    "zip": "92335",
    "county": "SAN BERNARDINO",
    "phone": "(909) 695-1160",
    "lat": 34.087491,
    "lng": -117.4347225
  },
  {
    "id": "630016724",
    "name": "UNICARE COMMUNITY HEALTH CENTER, INC.",
    "npi": "1174984041",
    "hcaiId": "306364568",
    "businessName": "UNICARE COMMUNITY HEALTH CENTER, INC.",
    "contactEmail": "UCHC@UNICARECHC.ORG",
    "categoryName": "PRIMARY CARE CLINIC",
    "categoryCode": "COMTYC",
    "licenseStatus": "ACTIVE",
    "inService": true,
    "licenseNumber": "550006138",
    "licenseEffectiveDate": "02/05/2025",
    "licenseExpirationDate": "02/04/2026",
    "dataDate": "10/18/2025",
    "capacity": 0,
    "address": "16127 FOOTHILL BLVD",
    "city": "FONTANA",
    "zip": "92335",
    "county": "SAN BERNARDINO",
    "phone": "(909) 988-2555",
    "lat": 34.10649106,
    "lng": -117.4531157
  },
  {
    "id": "630019126",
    "name": "UNICARE COMMUNITY HEALTH CENTER, INC.",
    "npi": "1003373812",
    "hcaiId": "306360588",
    "businessName": "UNICARE COMMUNITY HEALTH CENTER, INC.",
    "contactEmail": "K.VO@UNICARECHC.ORG",
    "categoryName": "PRIMARY CARE CLINIC",
    "categoryCode": "COMTYC",
    "licenseStatus": "ACTIVE",
    "inService": true,
    "licenseNumber": "550005756",
    "licenseEffectiveDate": "09/29/2025",
    "licenseExpirationDate": "09/28/2026",
    "dataDate": "10/18/2025",
    "capacity": 0,
    "address": "17500 FOOTHILL BLVD, SUITE A2",
    "city": "FONTANA",
    "zip": "92335",
    "county": "SAN BERNARDINO",
    "phone": "(909) 428-0170",
    "lat": 34.10748,
    "lng": -117.421893
  }
]