[
  {
    "id": "630024484",
    "name": "ALLIANCE NURSING LLC",
    "npi": null,
    "hcaiId": null,
    "businessName": "ALLIANCE NURSING LLC",
    "contactEmail": "NAZARETHTES@AOL.COM",
    "categoryName": "HOME HEALTH AGENCY",
    "categoryCode": "HHA",
    "licenseStatus": "ACTIVE",
    "inService": true,
    "licenseNumber": "550009852",
    "licenseEffectiveDate": "06/10/2025",
    "licenseExpirationDate": "12/09/2025",
    "dataDate": "10/18/2025",
    "capacity": 0,
    "address": "7216 PALM AVE, SUITE C, ROOM 1",
    "city": "HIGHLAND",
    "zip": "92346",
    "county": "SAN BERNARDINO",
    "phone": "(909) 782-6925",
    "lat": 34.122978,
    "lng": -117.209115
  },
  {
    "id": "240001831",
    "name": "COLE HOME",
    "npi": "1073640363",
    "hcaiId": null,
    "businessName": "ANGEL CARE ENTERPRISES, INC.",
    "contactEmail": "ANGELCAREENT9999@YAHOO.COM",
    "categoryName": "INTERMEDIATE CARE FACILITY-DD/H/N/CN/IID",
    "categoryCode": "ICFDDH",
    "licenseStatus": "ACTIVE",
    "inService": false,
    "licenseNumber": "240000819",
    "licenseEffectiveDate": "06/23/2025",
    "licenseExpirationDate": "06/22/2026",
    "dataDate": "10/18/2025",
    "capacity": 6,
    "address": "6996 COLE AVE",
    "city": "HIGHLAND",
    "zip": "92346",
    "county": "SAN BERNARDINO",
    "phone": "(909) 633-6258",
    "lat": 34.126695,
    "lng": -117.2116125
  },
  {
    "id": "240001021",
    "name": "EDGEMONT HOUSE",
    "npi": "1508993874",
    "hcaiId": null,
    "businessName": "ROCKCREEK, INC.",
    "contactEmail": null,
    "categoryName": "INTERMEDIATE CARE FACILITY-DD/H/N/CN/IID",
    "categoryCode": "ICFDDH",
    "licenseStatus": "ACTIVE",
    "inService": true,
    "licenseNumber": "240000438",
    "licenseEffectiveDate": "11/15/2024",
    "licenseExpirationDate": "11/14/2025",
    "dataDate": "10/18/2025",
    "capacity": 6,
    "address": "26219 EDGEMONT DR",
    "city": "HIGHLAND",
    "zip": "92346",
    "county": "SAN BERNARDINO",
    "phone": "(909) 425-0860",
    "lat": 34.149681,
    "lng": -117.2323305
  },
  {
    "id": "240000125",
    "name": "HIGHLAND HOUSE",
    "npi": "1427694595",
    "hcaiId": null,
    "businessName": "JANET'S ENTERPRISE, INC.",
    "contactEmail": "JANET@JANETSENTERPRISE.COM",
    "categoryName": "INTERMEDIATE CARE FACILITY-DD/H/N/CN/IID",
    "categoryCode": "ICFDDH",
    "licenseStatus": "ACTIVE",
    "inService": true,
    "licenseNumber": "240000060",
    "licenseEffectiveDate": "11/01/2025",
    "licenseExpirationDate": "10/31/2026",
    "dataDate": "10/18/2025",
    "capacity": 6,
    "address": "3465 DARREN PL",
    "city": "HIGHLAND",
    "zip": "92346",
    "county": "SAN BERNARDINO",
    "phone": "(951) 545-4462",
    "lat": 34.152903,
    "lng": -117.2340585
  },
  {
    "id": "240000068",
    "name": "HIGHLAND PALMS HEALTHCARE CENTER",
    "npi": "1356370159",
    "hcaiId": "206361198",
    "businessName": "CEDAR HOLDING, LLC",
    "contactEmail": "DANIEL.DRIGGS@HIGHLANDPALMSHC.OCM",
    "categoryName": "SKILLED NURSING FACILITY",
    "categoryCode": "SNF",
    "licenseStatus": "ACTIVE",
    "inService": true,
    "licenseNumber": "240000148",
    "licenseEffectiveDate": "11/02/2024",
    "licenseExpirationDate": "11/01/2025",
    "dataDate": "10/18/2025",
    "capacity": 99,
    "address": "7534 PALM AVE",
    "city": "HIGHLAND",
    "zip": "92346",
    "county": "SAN BERNARDINO",
    "phone": "(909) 862-0611",
    "lat": 34.116939,
    "lng": -117.209205
  },
  {
    "id": "630012231",
    "name": "HIGHLAND RANCH DIALYSIS CENTER",
    "npi": "1942599592",
    "hcaiId": "306364406",
    "businessName": "CRYSTALS DIALYSIS, LLC",
    "contactEmail": "CAL_C@DAVITA.COM",
    "categoryName": "CHRONIC DIALYSIS CLINIC",
    "categoryCode": "ESRD/CDC",
    "licenseStatus": "ACTIVE",
    "inService": true,
    "licenseNumber": "550001241",
    "licenseEffectiveDate": "04/26/2025",
    "licenseExpirationDate": "04/25/2026",
    "dataDate": "10/18/2025",
    "capacity": 21,
    "address": "7223 CHURCH ST, SUITE A14",
    "city": "HIGHLAND",
    "zip": "92346",
    "county": "SAN BERNARDINO",
    "phone": "(909) 862-9670",
    "lat": 34.121889,
    "lng": -117.172863
  },
  {
    "id": "240001000",
    "name": "LILLIAN HOUSE",
    "npi": "1487781753",
    "hcaiId": null,
    "businessName": "ROCKCREEK, INC.",
    "contactEmail": "TIMOTHY.HEASLIP@RESCARE.COM",
    "categoryName": "INTERMEDIATE CARE FACILITY-DD/H/N/CN/IID",
    "categoryCode": "ICFDDH",
    "licenseStatus": "ACTIVE",
    "inService": true,
    "licenseNumber": "240000426",
    "licenseEffectiveDate": "11/19/2024",
    "licenseExpirationDate": "11/18/2025",
    "dataDate": "10/18/2025",
    "capacity": 6,
    "address": "1574 LILLIAN LN",
    "city": "HIGHLAND",
    "zip": "92346",
    "county": "SAN BERNARDINO",
    "phone": "(909) 862-2336",
    "lat": 34.127883,
    "lng": -117.214236
  },
  {
    "id": "240000853",
    "name": "RAINBOW HOUSE",
    "npi": "1437285251",
    "hcaiId": null,
    "businessName": "ROCKCREEK, INC.",
    "contactEmail": "TIMOTHY.HEASLIP@RESCARE.COM",
    "categoryName": "INTERMEDIATE CARE FACILITY-DD/H/N/CN/IID",
    "categoryCode": "ICFDDH",
    "licenseStatus": "ACTIVE",
    "inService": true,
    "licenseNumber": "240000382",
    "licenseEffectiveDate": "11/02/2025",
    "licenseExpirationDate": "11/01/2026",
    "dataDate": "10/18/2025",
    "capacity": 6,
    "address": "27889 RAINBOW LN",
    "city": "HIGHLAND",
    "zip": "92346",
    "county": "SAN BERNARDINO",
    "phone": "(909) 864-7713",
    "lat": 34.133643,
    "lng": -117.1959075
  },
  {
    "id": "240000099",
    "name": "SIERRA VISTA",
    "npi": "1326094665",
    "hcaiId": "206361122",
    "businessName": "SUNBRIDGE BRASWELL ENTERPRISES, LLC",
    "contactEmail": "ADMINISTRATOR@SIERRAVISTABHC.COM",
    "categoryName": "SKILLED NURSING FACILITY",
    "categoryCode": "SNF",
    "licenseStatus": "ACTIVE",
    "inService": true,
    "licenseNumber": "240000117",
    "licenseEffectiveDate": "02/02/2025",
    "licenseExpirationDate": "02/01/2026",
    "dataDate": "10/18/2025",
    "capacity": 116,
    "address": "3455 HIGHLAND AVE",
    "city": "HIGHLAND",
    "zip": "92346",
    "county": "SAN BERNARDINO",
    "phone": "(909) 862-6454",
    "lat": 34.1352,
    "lng": -117.211716
  },
  {
    "id": "630027969",
    "name": "STALLANT HEALTH & WELLNESS",
    "npi": null,
    "hcaiId": null,
    "businessName": null,
    "contactEmail": null,
    "categoryName": "PRIMARY CARE CLINIC",
    "categoryCode": "RHC",
    "licenseStatus": null,
    "inService": null,
    "licenseNumber": null,
    "licenseEffectiveDate": null,
    "licenseExpirationDate": null,
    "dataDate": "10/18/2025",
    "capacity": 0,
    "address": "27811 GREENSPOT RD, SUITE A & B",
    "city": "HIGHLAND",
    "zip": "92346",
    "county": "SAN BERNARDINO",
    "phone": null,
    "lat": 34.107708,
    "lng": -117.19785
  },
  {
    "id": "240001007",
    "name": "VILLA HOUSE",
    "npi": "1093842361",
    "hcaiId": null,
    "businessName": "ROCKCREEK, INC.",
    "contactEmail": "TIMOTHY.HEASLIP@RESCARE.COM",
    "categoryName": "INTERMEDIATE CARE FACILITY-DD/H/N/CN/IID",
    "categoryCode": "ICFDDH",
    "licenseStatus": "ACTIVE",
    "inService": true,
    "licenseNumber": "240000430",
    "licenseEffectiveDate": "11/09/2024",
    "licenseExpirationDate": "11/08/2025",
    "dataDate": "10/18/2025",
    "capacity": 6,
    "address": "27590 VILLA AVE",
    "city": "HIGHLAND",
    "zip": "92346",
    "county": "SAN BERNARDINO",
    "phone": "(909) 425-1594",
    "lat": 34.123437,
    "lng": -117.2024415
  }
]