[
  {
    "id": "630012060",
    "name": "HESPERIA DIALYSIS CENTER",
    "npi": "1952570541",
    "hcaiId": "306364391",
    "businessName": "TOTAL RENAL CARE, INC.",
    "contactEmail": "CAL_C@DAVITA.COM",
    "categoryName": "CHRONIC DIALYSIS CLINIC",
    "categoryCode": "ESRD/CDC",
    "licenseStatus": "ACTIVE",
    "inService": true,
    "licenseNumber": "550001093",
    "licenseEffectiveDate": "06/01/2025",
    "licenseExpirationDate": "05/31/2026",
    "dataDate": "10/18/2025",
    "capacity": 22,
    "address": "14135 MAIN ST, SUITE 501",
    "city": "HESPERIA",
    "zip": "92345",
    "county": "SAN BERNARDINO",
    "phone": "(760) 947-7405",
    "lat": 34.425693,
    "lng": -117.3544875
  },
  {
    "id": "630013821",
    "name": "HESPERIA HEALTH CENTER",
    "npi": null,
    "hcaiId": null,
    "businessName": null,
    "contactEmail": null,
    "categoryName": "PRIMARY CARE CLINIC",
    "categoryCode": "FQHC",
    "licenseStatus": null,
    "inService": null,
    "licenseNumber": null,
    "licenseEffectiveDate": null,
    "licenseExpirationDate": null,
    "dataDate": "10/18/2025",
    "capacity": 0,
    "address": "16453 BEAR VALLEY RD",
    "city": "HESPERIA",
    "zip": "92345",
    "county": "SAN BERNARDINO",
    "phone": "(760) 956-4422",
    "lat": 34.470261,
    "lng": -117.304272
  },
  {
    "id": "630012546",
    "name": "PROVIDENCE HOME HEALTH HIGH DESERT",
    "npi": "1437484409",
    "hcaiId": "406364409",
    "businessName": "ST. MARY HIGH DESERT HOME HEALTH SERVICES, LLC",
    "contactEmail": "MARY.DENNIS@STJOE.ORG",
    "categoryName": "HOME HEALTH AGENCY",
    "categoryCode": "HHA",
    "licenseStatus": "ACTIVE",
    "inService": true,
    "licenseNumber": "550001300",
    "licenseEffectiveDate": "06/04/2025",
    "licenseExpirationDate": "06/03/2026",
    "dataDate": "10/18/2025",
    "capacity": 0,
    "address": "17051 MAIN ST",
    "city": "HESPERIA",
    "zip": "92345",
    "county": "SAN BERNARDINO",
    "phone": "(760) 956-4119",
    "lat": 34.41991327,
    "lng": -117.2909729
  },
  {
    "id": "630020963",
    "name": "ST. MARY HEALTH CENTERS-HESPERIA",
    "npi": null,
    "hcaiId": null,
    "businessName": "ST. JUDE NEIGHBORHOOD HEALTH CENTERS",
    "contactEmail": null,
    "categoryName": "PRIMARY CARE CLINIC",
    "categoryCode": "COMTYC",
    "licenseStatus": "ACTIVE",
    "inService": true,
    "licenseNumber": "550000408",
    "licenseEffectiveDate": "11/01/2025",
    "licenseExpirationDate": "10/31/2026",
    "dataDate": "10/18/2025",
    "capacity": 0,
    "address": "17071 MAIN ST, SUITE 100",
    "city": "HESPERIA",
    "zip": "92345",
    "county": "SAN BERNARDINO",
    "phone": null,
    "lat": 34.4198827,
    "lng": -117.290737
  },
  {
    "id": "060001736",
    "name": "TENDER HEART ADULT DAY HEALTH CARE",
    "npi": null,
    "hcaiId": null,
    "businessName": "RGGS, INC.",
    "contactEmail": "TENDERHEART-ADHC@ATT.NET",
    "categoryName": "ADULT DAY HEALTH CARE",
    "categoryCode": "ADHC",
    "licenseStatus": "ACTIVE",
    "inService": true,
    "licenseNumber": "060000555",
    "licenseEffectiveDate": "03/17/2025",
    "licenseExpirationDate": "03/16/2026",
    "dataDate": "10/18/2025",
    "capacity": 0,
    "address": "9499 I AVE",
    "city": "HESPERIA",
    "zip": "92345",
    "county": "SAN BERNARDINO",
    "phone": "(760) 244-8776",
    "lat": 34.423605,
    "lng": -117.281502
  },
  {
    "id": "630027242",
    "name": "UNICARE COMMUNITY HEALTH CENTER, INC.",
    "npi": "1043777089",
    "hcaiId": null,
    "businessName": "UNICARE COMMUNITY HEALTH CENTER, INC.",
    "contactEmail": null,
    "categoryName": "PRIMARY CARE CLINIC",
    "categoryCode": "COMTYC",
    "licenseStatus": "ACTIVE",
    "inService": true,
    "licenseNumber": "550006138",
    "licenseEffectiveDate": "02/05/2025",
    "licenseExpirationDate": "02/04/2026",
    "dataDate": "10/18/2025",
    "capacity": 0,
    "address": "11919 HESPERIA RD",
    "city": "HESPERIA",
    "zip": "92345",
    "county": "SAN BERNARDINO",
    "phone": null,
    "lat": 34.46752701,
    "lng": -117.291923
  }
]