[
  {
    "id": "240000124",
    "name": "BUCHANAN HOUSE",
    "npi": "1821635376",
    "hcaiId": null,
    "businessName": "JANET'S ENTERPRISE, INC.",
    "contactEmail": "JANET@JANETSENTERPRISE.COM",
    "categoryName": "INTERMEDIATE CARE FACILITY-DD/H/N/CN/IID",
    "categoryCode": "ICFDDH",
    "licenseStatus": "ACTIVE",
    "inService": true,
    "licenseNumber": "240000061",
    "licenseEffectiveDate": "11/01/2025",
    "licenseExpirationDate": "10/31/2026",
    "dataDate": "10/18/2025",
    "capacity": 6,
    "address": "11451 ACACIA ST",
    "city": "LOMA LINDA",
    "zip": "92354",
    "county": "SAN BERNARDINO",
    "phone": "(951) 545-4462",
    "lat": 34.045704,
    "lng": -117.257724
  },
  {
    "id": "240000127",
    "name": "CIRCLEBROOK",
    "npi": "1669509402",
    "hcaiId": null,
    "businessName": "MOUNTAIN VIEW CHILD CARE, INC.",
    "contactEmail": "VIVIEN@TOTALLYKIDS.COM",
    "categoryName": "INTERMEDIATE CARE FACILITY-DD/H/N/CN/IID",
    "categoryCode": "ICFDDN",
    "licenseStatus": "ACTIVE",
    "inService": true,
    "licenseNumber": "240000051",
    "licenseEffectiveDate": "02/02/2025",
    "licenseExpirationDate": "02/01/2026",
    "dataDate": "10/18/2025",
    "capacity": 15,
    "address": "1720 MOUNTAIN VIEW AVE",
    "city": "LOMA LINDA",
    "zip": "92354",
    "county": "SAN BERNARDINO",
    "phone": "(909) 796-4438",
    "lat": 34.070094,
    "lng": -117.244899
  },
  {
    "id": "240001838",
    "name": "COLOMA DIVISION",
    "npi": "1205965571",
    "hcaiId": null,
    "businessName": "ABILITY PATHWAYS INCORPORATED",
    "contactEmail": "MRARN@AOL.COM",
    "categoryName": "INTERMEDIATE CARE FACILITY-DD/H/N/CN/IID",
    "categoryCode": "ICFDDN",
    "licenseStatus": "ACTIVE",
    "inService": true,
    "licenseNumber": "240000822",
    "licenseEffectiveDate": "11/13/2024",
    "licenseExpirationDate": "11/12/2025",
    "dataDate": "10/18/2025",
    "capacity": 6,
    "address": "1895 S COLOMA ST",
    "city": "LOMA LINDA",
    "zip": "92354",
    "county": "SAN BERNARDINO",
    "phone": "(909) 796-0087",
    "lat": 34.067106,
    "lng": -117.2497455
  },
  {
    "id": "240001870",
    "name": "ELM DIVISION",
    "npi": "1891960365",
    "hcaiId": null,
    "businessName": "ABILITY PATHWAYS INCORPORATED",
    "contactEmail": "MRARN@AOL.COM",
    "categoryName": "INTERMEDIATE CARE FACILITY-DD/H/N/CN/IID",
    "categoryCode": "ICFDDN",
    "licenseStatus": "ACTIVE",
    "inService": true,
    "licenseNumber": "240000838",
    "licenseEffectiveDate": "11/13/2024",
    "licenseExpirationDate": "11/12/2025",
    "dataDate": "10/18/2025",
    "capacity": 6,
    "address": "1894 ELM AVE",
    "city": "LOMA LINDA",
    "zip": "92354",
    "county": "SAN BERNARDINO",
    "phone": "(909) 240-7680",
    "lat": 34.067295,
    "lng": -117.246897
  },
  {
    "id": "240000137",
    "name": "ELM HOUSE",
    "npi": "1962040063",
    "hcaiId": null,
    "businessName": "JANET'S ENTERPRISE, INC.",
    "contactEmail": "JANET@JANETSENTERPRISE.COM",
    "categoryName": "INTERMEDIATE CARE FACILITY-DD/H/N/CN/IID",
    "categoryCode": "ICFDDH",
    "licenseStatus": "ACTIVE",
    "inService": true,
    "licenseNumber": "240000078",
    "licenseEffectiveDate": "03/02/2025",
    "licenseExpirationDate": "03/01/2026",
    "dataDate": "10/18/2025",
    "capacity": 6,
    "address": "10771 LILAC AVE",
    "city": "LOMA LINDA",
    "zip": "92354",
    "county": "SAN BERNARDINO",
    "phone": "(909) 577-0110",
    "lat": 34.058124,
    "lng": -117.2515815
  },
  {
    "id": "240000065",
    "name": "HERITAGE GARDENS HEALTH CARE CENTER",
    "npi": "1942273933",
    "hcaiId": "206361195",
    "businessName": "HERITAGE HEALTHCARE INCORPORATED",
    "contactEmail": "S.FLOODHG@PROGRESSIVECARECENTERS.COM",
    "categoryName": "SKILLED NURSING FACILITY",
    "categoryCode": "SNF",
    "licenseStatus": "ACTIVE",
    "inService": true,
    "licenseNumber": "240000146",
    "licenseEffectiveDate": "06/01/2025",
    "licenseExpirationDate": "05/31/2026",
    "dataDate": "10/18/2025",
    "capacity": 110,
    "address": "25271 BARTON RD",
    "city": "LOMA LINDA",
    "zip": "92354",
    "county": "SAN BERNARDINO",
    "phone": "(909) 796-0216",
    "lat": 34.047252,
    "lng": -117.253071
  },
  {
    "id": "240001840",
    "name": "LILAC DIVISION",
    "npi": "1154596724",
    "hcaiId": null,
    "businessName": "ABILITY PATHWAYS INCORPORATED",
    "contactEmail": "MRARN@AOL.COM",
    "categoryName": "INTERMEDIATE CARE FACILITY-DD/H/N/CN/IID",
    "categoryCode": "ICFDDN",
    "licenseStatus": "ACTIVE",
    "inService": true,
    "licenseNumber": "240000823",
    "licenseEffectiveDate": "06/21/2025",
    "licenseExpirationDate": "06/20/2026",
    "dataDate": "10/18/2025",
    "capacity": 6,
    "address": "1886 S LILAC CT",
    "city": "LOMA LINDA",
    "zip": "92354",
    "county": "SAN BERNARDINO",
    "phone": "(909) 796-2831",
    "lat": 34.067079,
    "lng": -117.2519775
  },
  {
    "id": "240000536",
    "name": "LOMA LINDA AMBULATORY SURGICAL CENTER",
    "npi": null,
    "hcaiId": "306364023",
    "businessName": null,
    "contactEmail": "LLFOOTANKLE@GMAIL.COM",
    "categoryName": "SURGICAL CLINIC",
    "categoryCode": "ASC/SURGC",
    "licenseStatus": "ACTIVE",
    "inService": false,
    "licenseNumber": "240000308",
    "licenseEffectiveDate": "01/01/2025",
    "licenseExpirationDate": "12/31/2025",
    "dataDate": "10/18/2025",
    "capacity": 0,
    "address": "11332 MOUNTAIN VIEW AVE, SUITE A",
    "city": "LOMA LINDA",
    "zip": "92354",
    "county": "SAN BERNARDINO",
    "phone": "(909) 796-3707",
    "lat": 34.04707052,
    "lng": -117.2436824
  },
  {
    "id": "240000075",
    "name": "LOMA LINDA POST ACUTE",
    "npi": "1649968900",
    "hcaiId": "206361244",
    "businessName": "LOMA LINDA SNF HEALTHCARE, LLC",
    "contactEmail": "KENNETH.JARDINE@LOMALINDAPA.COM",
    "categoryName": "SKILLED NURSING FACILITY",
    "categoryCode": "SNF",
    "licenseStatus": "ACTIVE",
    "inService": true,
    "licenseNumber": "240000167",
    "licenseEffectiveDate": "11/01/2025",
    "licenseExpirationDate": "10/31/2026",
    "dataDate": "10/18/2025",
    "capacity": 83,
    "address": "25383 COLE ST",
    "city": "LOMA LINDA",
    "zip": "92354",
    "county": "SAN BERNARDINO",
    "phone": "(909) 796-0235",
    "lat": 34.052661,
    "lng": -117.2510505
  },
  {
    "id": "630027535",
    "name": "LOMA LINDA SURGICAL INSTITUTE, LLC",
    "npi": null,
    "hcaiId": null,
    "businessName": null,
    "contactEmail": "TAMMYT@LLSURGICAL.COM",
    "categoryName": "SURGICAL CLINIC",
    "categoryCode": "ASC",
    "licenseStatus": null,
    "inService": null,
    "licenseNumber": null,
    "licenseEffectiveDate": null,
    "licenseExpirationDate": null,
    "dataDate": "10/18/2025",
    "capacity": 0,
    "address": "25915 BARTON RD, SUITE 101",
    "city": "LOMA LINDA",
    "zip": "92354",
    "county": "SAN BERNARDINO",
    "phone": "(909) 551-3940",
    "lat": 34.04790702,
    "lng": -117.238845
  },
  {
    "id": "060001732",
    "name": "LOMA LINDA UNIV MED CTR ADULT DAY HEALTH SERVICES",
    "npi": null,
    "hcaiId": null,
    "businessName": "LOMA LINDA UNIVERSITY MEDICAL CENTER",
    "contactEmail": "EMORENOBARRAGAN@LLU.EDU",
    "categoryName": "ADULT DAY HEALTH CARE",
    "categoryCode": "ADHC",
    "licenseStatus": "ACTIVE",
    "inService": true,
    "licenseNumber": "060000551",
    "licenseEffectiveDate": "11/18/2024",
    "licenseExpirationDate": "11/17/2025",
    "dataDate": "10/18/2025",
    "capacity": 0,
    "address": "11406 LOMA LINDA DR",
    "city": "LOMA LINDA",
    "zip": "92354",
    "county": "SAN BERNARDINO",
    "phone": "(909) 558-6198",
    "lat": 34.046316,
    "lng": -117.249147
  },
  {
    "id": "630015551",
    "name": "LOMA LINDA UNIVERSITY CHILDREN'S HOSPITAL",
    "npi": "1366866345",
    "hcaiId": "106364502",
    "businessName": "LOMA LINDA UNIVERSITY CHILDREN'S HOSPITAL",
    "contactEmail": "EMORENOBARRAGAN@LLU.EDU",
    "categoryName": "GENERAL ACUTE CARE HOSPITAL",
    "categoryCode": "GACH",
    "licenseStatus": "ACTIVE",
    "inService": true,
    "licenseNumber": "550002873",
    "licenseEffectiveDate": "11/16/2024",
    "licenseExpirationDate": "11/15/2025",
    "dataDate": "10/18/2025",
    "capacity": 364,
    "address": "11234 ANDERSON STREET, SUITE A",
    "city": "LOMA LINDA",
    "zip": "92354",
    "county": "SAN BERNARDINO",
    "phone": "(909) 558-8000",
    "lat": 34.04920239,
    "lng": -117.2611754
  },
  {
    "id": "240000559",
    "name": "LOMA LINDA UNIVERSITY CHILDRENâ€™S HOSPITAL PEDIATRIC OUTPATIENT CHRONIC DIALYSIS",
    "npi": "1366866345",
    "hcaiId": null,
    "businessName": "LOMA LINDA UNIVERSITY CHILDREN'S HOSPITAL",
    "contactEmail": null,
    "categoryName": "CHRONIC DIALYSIS CLINIC",
    "categoryCode": "ESRD",
    "licenseStatus": "ACTIVE",
    "inService": true,
    "licenseNumber": "550002873",
    "licenseEffectiveDate": "11/16/2024",
    "licenseExpirationDate": "11/15/2025",
    "dataDate": "10/18/2025",
    "capacity": 0,
    "address": "11234 ANDERSON ST, ROOM 4219",
    "city": "LOMA LINDA",
    "zip": "92354",
    "county": "SAN BERNARDINO",
    "phone": null,
    "lat": 34.04920239,
    "lng": -117.2611754
  },
  {
    "id": "240000172",
    "name": "LOMA LINDA UNIVERSITY KIDNEY CENTER",
    "npi": "1669489571",
    "hcaiId": "306360016",
    "businessName": "LOMA LINDA UNIVERSITY MEDICAL CENTER",
    "contactEmail": "EMORENOBARRAGAN@LLU.EDU",
    "categoryName": "CHRONIC DIALYSIS CLINIC",
    "categoryCode": "ESRD/CDC",
    "licenseStatus": "ACTIVE",
    "inService": true,
    "licenseNumber": "240000011",
    "licenseEffectiveDate": "11/01/2024",
    "licenseExpirationDate": "10/31/2025",
    "dataDate": "10/18/2025",
    "capacity": 20,
    "address": "11375 ANDERSON ST",
    "city": "LOMA LINDA",
    "zip": "92354",
    "county": "SAN BERNARDINO",
    "phone": "(909) 558-4225",
    "lat": 34.046856,
    "lng": -117.2606805
  },
  {
    "id": "630011884",
    "name": "LOMA LINDA UNIVERSITY MEDICAL",
    "npi": null,
    "hcaiId": null,
    "businessName": null,
    "contactEmail": null,
    "categoryName": "GENERAL ACUTE CARE HOSPITAL",
    "categoryCode": "TRANS",
    "licenseStatus": null,
    "inService": null,
    "licenseNumber": null,
    "licenseEffectiveDate": null,
    "licenseExpirationDate": null,
    "dataDate": "10/18/2025",
    "capacity": 0,
    "address": "11234 ANDERSON STREET",
    "city": "LOMA LINDA",
    "zip": "92354",
    "county": "SAN BERNARDINO",
    "phone": null,
    "lat": 34.04920239,
    "lng": -117.2611754
  },
  {
    "id": "240000027",
    "name": "LOMA LINDA UNIVERSITY MEDICAL CENTER",
    "npi": "1194731935",
    "hcaiId": "106361246",
    "businessName": "LOMA LINDA UNIVERSITY MEDICAL CENTER",
    "contactEmail": "EMORENOBARRAGAN@LLU.EDU",
    "categoryName": "GENERAL ACUTE CARE HOSPITAL",
    "categoryCode": "GACH",
    "licenseStatus": "ACTIVE",
    "inService": true,
    "licenseNumber": "240000169",
    "licenseEffectiveDate": "11/01/2025",
    "licenseExpirationDate": "10/31/2026",
    "dataDate": "10/18/2025",
    "capacity": 320,
    "address": "11234 ANDERSON ST",
    "city": "LOMA LINDA",
    "zip": "92354",
    "county": "SAN BERNARDINO",
    "phone": "(909) 558-4000",
    "lat": 34.04920239,
    "lng": -117.2611754
  },
  {
    "id": "240000025",
    "name": "LOMA LINDA UNIVERSITY MEDICAL CENTER EAST CAMPUS HOSPITAL",
    "npi": null,
    "hcaiId": "106361245",
    "businessName": "LOMA LINDA UNIVERSITY MEDICAL CENTER",
    "contactEmail": null,
    "categoryName": "GENERAL ACUTE CARE HOSPITAL",
    "categoryCode": "GACH",
    "licenseStatus": "ACTIVE",
    "inService": true,
    "licenseNumber": "240000169",
    "licenseEffectiveDate": "11/01/2025",
    "licenseExpirationDate": "10/31/2026",
    "dataDate": "10/18/2025",
    "capacity": 134,
    "address": "25333 BARTON RD",
    "city": "LOMA LINDA",
    "zip": "92354",
    "county": "SAN BERNARDINO",
    "phone": "(909) 825-8601",
    "lat": 34.047189,
    "lng": -117.251568
  },
  {
    "id": "240000121",
    "name": "NEWBURY HOUSE",
    "npi": "1578101663",
    "hcaiId": null,
    "businessName": "JANET'S ENTERPRISE, INC.",
    "contactEmail": "JANET@JANETSENTERPRISE.COM",
    "categoryName": "INTERMEDIATE CARE FACILITY-DD/H/N/CN/IID",
    "categoryCode": "ICFDDN",
    "licenseStatus": "ACTIVE",
    "inService": true,
    "licenseNumber": "240000038",
    "licenseEffectiveDate": "03/02/2025",
    "licenseExpirationDate": "03/01/2026",
    "dataDate": "10/18/2025",
    "capacity": 6,
    "address": "11489 LAUREL AVE",
    "city": "LOMA LINDA",
    "zip": "92354",
    "county": "SAN BERNARDINO",
    "phone": "(909) 577-0110",
    "lat": 34.044219,
    "lng": -117.2266155
  },
  {
    "id": "240000122",
    "name": "ROBINSON HOUSE",
    "npi": "1205472198",
    "hcaiId": null,
    "businessName": "JANET'S ENTERPRISE, INC.",
    "contactEmail": "JANET@JANETSENTERPRISE.COM",
    "categoryName": "INTERMEDIATE CARE FACILITY-DD/H/N/CN/IID",
    "categoryCode": "ICFDDH",
    "licenseStatus": "ACTIVE",
    "inService": true,
    "licenseNumber": "240000037",
    "licenseEffectiveDate": "11/02/2024",
    "licenseExpirationDate": "11/01/2025",
    "dataDate": "10/18/2025",
    "capacity": 6,
    "address": "11580 WELEBIR ST",
    "city": "LOMA LINDA",
    "zip": "92354",
    "county": "SAN BERNARDINO",
    "phone": "(909) 545-4462",
    "lat": 34.04313101,
    "lng": -117.251135
  },
  {
    "id": "240000131",
    "name": "ROSEBUD DIVISION",
    "npi": "1538209127",
    "hcaiId": null,
    "businessName": "JONBEC CARE INCORPORATED",
    "contactEmail": "BECKYJOSEPH@JONBECCAREINC.COM",
    "categoryName": "INTERMEDIATE CARE FACILITY-DD/H/N/CN/IID",
    "categoryCode": "ICFDDH",
    "licenseStatus": "ACTIVE",
    "inService": true,
    "licenseNumber": "240000082",
    "licenseEffectiveDate": "12/01/2024",
    "licenseExpirationDate": "11/30/2025",
    "dataDate": "10/18/2025",
    "capacity": 6,
    "address": "1956 HARDT ST",
    "city": "LOMA LINDA",
    "zip": "92354",
    "county": "SAN BERNARDINO",
    "phone": "(909) 796-9459",
    "lat": 34.071084,
    "lng": -117.2448045
  },
  {
    "id": "240000128",
    "name": "TARA DIVISION",
    "npi": "1174662787",
    "hcaiId": null,
    "businessName": "JONBEC CARE INCORPORATED",
    "contactEmail": "BECKYJOSEPH@JONBECCAREINC.COM",
    "categoryName": "INTERMEDIATE CARE FACILITY-DD/H/N/CN/IID",
    "categoryCode": "ICFDDH",
    "licenseStatus": "ACTIVE",
    "inService": true,
    "licenseNumber": "240000074",
    "licenseEffectiveDate": "12/01/2024",
    "licenseExpirationDate": "11/30/2025",
    "dataDate": "10/18/2025",
    "capacity": 6,
    "address": "1695 ROSENA AVE",
    "city": "LOMA LINDA",
    "zip": "92354",
    "county": "SAN BERNARDINO",
    "phone": "(909) 796-0629",
    "lat": 34.070139,
    "lng": -117.24561
  },
  {
    "id": "630012380",
    "name": "TOTALLY KIDS REHABILITATION HOSPITAL",
    "npi": "1003133695",
    "hcaiId": "106364451",
    "businessName": "MOUNTAIN VIEW CHILD CARE, INC.",
    "contactEmail": "DOUG@TOTALLYKIDS.COM",
    "categoryName": "GENERAL ACUTE CARE HOSPITAL",
    "categoryCode": "GACH",
    "licenseStatus": "ACTIVE",
    "inService": true,
    "licenseNumber": "550002720",
    "licenseEffectiveDate": "06/20/2025",
    "licenseExpirationDate": "06/19/2026",
    "dataDate": "10/18/2025",
    "capacity": 25,
    "address": "1720 MOUNTAIN VIEW AVENUE",
    "city": "LOMA LINDA",
    "zip": "92354",
    "county": "SAN BERNARDINO",
    "phone": "(909) 796-6915",
    "lat": 34.070094,
    "lng": -117.244899
  },
  {
    "id": "240000107",
    "name": "TOTALLY KIDS REHABILITATION HOSPITAL - D/P SNF",
    "npi": "1437149556",
    "hcaiId": "206361369",
    "businessName": "MOUNTAIN VIEW CHILD CARE, INC.",
    "contactEmail": "DOUG@TOTALLYKIDS.COM",
    "categoryName": "SKILLED NURSING FACILITY",
    "categoryCode": "SNF",
    "licenseStatus": "ACTIVE",
    "inService": true,
    "licenseNumber": "550002720",
    "licenseEffectiveDate": "06/20/2025",
    "licenseExpirationDate": "06/19/2026",
    "dataDate": "10/18/2025",
    "capacity": 56,
    "address": "1720 MOUNTAIN VIEW AVENUE",
    "city": "LOMA LINDA",
    "zip": "92354",
    "county": "SAN BERNARDINO",
    "phone": "(909) 796-6915",
    "lat": 34.070094,
    "lng": -117.244899
  },
  {
    "id": "240000129",
    "name": "TWELVE OAKS DIVISION",
    "npi": "1720128309",
    "hcaiId": null,
    "businessName": "JONBEC CARE INCORPORATED",
    "contactEmail": "BECKYJOSEPH@JONBECCAREINC.COM",
    "categoryName": "INTERMEDIATE CARE FACILITY-DD/H/N/CN/IID",
    "categoryCode": "ICFDDH",
    "licenseStatus": "ACTIVE",
    "inService": true,
    "licenseNumber": "240000075",
    "licenseEffectiveDate": "01/15/2025",
    "licenseExpirationDate": "01/14/2026",
    "dataDate": "10/18/2025",
    "capacity": 6,
    "address": "1930 GOULD ST",
    "city": "LOMA LINDA",
    "zip": "92354",
    "county": "SAN BERNARDINO",
    "phone": "(909) 796-9458",
    "lat": 34.071039,
    "lng": -117.2457675
  },
  {
    "id": "240001882",
    "name": "WALKER HOUSE",
    "npi": "1871131979",
    "hcaiId": null,
    "businessName": "JANET'S ENTERPRISE, INC.",
    "contactEmail": "JANET@JANETSENTERPRISE.COM",
    "categoryName": "INTERMEDIATE CARE FACILITY-DD/H/N/CN/IID",
    "categoryCode": "ICFDDN",
    "licenseStatus": "ACTIVE",
    "inService": true,
    "licenseNumber": "240000844",
    "licenseEffectiveDate": "11/07/2024",
    "licenseExpirationDate": "11/06/2025",
    "dataDate": "10/18/2025",
    "capacity": 6,
    "address": "25084 TULIP AVE",
    "city": "LOMA LINDA",
    "zip": "92354",
    "county": "SAN BERNARDINO",
    "phone": "(909) 577-0110",
    "lat": 34.047162,
    "lng": -117.2568825
  },
  {
    "id": "630013956",
    "name": "WELLHOUSE CARE, INC",
    "npi": "1548535370",
    "hcaiId": "406364529",
    "businessName": "WELLHOUSE CARE, INC",
    "contactEmail": "GPUNZALAN300@GMAIL.COM",
    "categoryName": "HOSPICE",
    "categoryCode": "HOSPICE",
    "licenseStatus": "ACTIVE",
    "inService": true,
    "licenseNumber": "550002194",
    "licenseEffectiveDate": "01/22/2025",
    "licenseExpirationDate": "01/21/2027",
    "dataDate": "10/18/2025",
    "capacity": 0,
    "address": "11354 MOUNTAIN VIEW AVE, SUITE D",
    "city": "LOMA LINDA",
    "zip": "92354",
    "county": "SAN BERNARDINO",
    "phone": "(951) 237-3949",
    "lat": 34.04682439,
    "lng": -117.2436865
  }
]