[
  {
    "id": "240000034",
    "name": "COLORADO RIVER MEDICAL CENTER",
    "npi": "1457520942",
    "hcaiId": "106361458",
    "businessName": "COMMUNITY HEALTHCARE PARTNER INC.",
    "contactEmail": "INFO@CRMCCARES.COM",
    "categoryName": "GENERAL ACUTE CARE HOSPITAL",
    "categoryCode": "GACH",
    "licenseStatus": "ACTIVE",
    "inService": true,
    "licenseNumber": "240000227",
    "licenseEffectiveDate": "06/18/2025",
    "licenseExpirationDate": "06/17/2026",
    "dataDate": "10/18/2025",
    "capacity": 25,
    "address": "1401 BAILEY AVE",
    "city": "NEEDLES",
    "zip": "92363",
    "county": "SAN BERNARDINO",
    "phone": "(760) 326-7162",
    "lat": 34.832565,
    "lng": -114.617475
  },
  {
    "id": "630018707",
    "name": "NEEDLES HOSPICE, INC.",
    "npi": "1417426578",
    "hcaiId": "406362889",
    "businessName": "NEEDLES HOSPICE, INC.",
    "contactEmail": "NEEDLESHOSPICE@YAHOO.COM",
    "categoryName": "HOSPICE",
    "categoryCode": "HOSPICE",
    "licenseStatus": "ACTIVE",
    "inService": true,
    "licenseNumber": "550005712",
    "licenseEffectiveDate": "06/09/2024",
    "licenseExpirationDate": "06/08/2026",
    "dataDate": "10/18/2025",
    "capacity": 0,
    "address": "813 W BROADWAY ST, UNIT B",
    "city": "NEEDLES",
    "zip": "92363",
    "county": "SAN BERNARDINO",
    "phone": "(760) 266-4400",
    "lat": 34.83873,
    "lng": -114.6055635
  },
  {
    "id": "630013898",
    "name": "TRI-STATE COMMUNITY HEALTHCARE CENTER",
    "npi": null,
    "hcaiId": "306364466",
    "businessName": "TRI - STATE COMMUNITY HEALTHCARE CENTER",
    "contactEmail": "MARIA.SOTNIKOVA@TRISTATECLINICS.ORG",
    "categoryName": "PRIMARY CARE CLINIC",
    "categoryCode": "COMTYC",
    "licenseStatus": "ACTIVE",
    "inService": true,
    "licenseNumber": "550002236",
    "licenseEffectiveDate": "02/21/2025",
    "licenseExpirationDate": "02/20/2026",
    "dataDate": "10/18/2025",
    "capacity": 0,
    "address": "820 W BROADWAY ST",
    "city": "NEEDLES",
    "zip": "92363",
    "county": "SAN BERNARDINO",
    "phone": "(760) 326-0222",
    "lat": 34.839207,
    "lng": -114.605121
  }
]