[
  {
    "id": "240000700",
    "name": "ASISTENCIA VILLA HEALTHCARE CENTER",
    "npi": "1346965399",
    "hcaiId": "206364042",
    "businessName": "AVPA LLC",
    "contactEmail": "ADMINISTRATOR@AVPOSTACUTE.COM",
    "categoryName": "SKILLED NURSING FACILITY",
    "categoryCode": "SNF",
    "licenseStatus": "ACTIVE",
    "inService": true,
    "licenseNumber": "240000323",
    "licenseEffectiveDate": "11/22/2024",
    "licenseExpirationDate": "11/07/2025",
    "dataDate": "10/18/2025",
    "capacity": 99,
    "address": "1875 BARTON RD",
    "city": "REDLANDS",
    "zip": "92373",
    "county": "SAN BERNARDINO",
    "phone": "(909) 793-1382",
    "lat": 34.047351,
    "lng": -117.216846
  },
  {
    "id": "630015585",
    "name": "BRIGHT SKY HOME HEALTH CARE, INC.",
    "npi": "1083010920",
    "hcaiId": "406364523",
    "businessName": "BRIGHT SKY HOME HEALTH CARE, INC.",
    "contactEmail": "POSNERELEANOR@GMAIL.COM",
    "categoryName": "HOME HEALTH AGENCY",
    "categoryCode": "HHA",
    "licenseStatus": "ACTIVE",
    "inService": true,
    "licenseNumber": "550003097",
    "licenseEffectiveDate": "06/04/2025",
    "licenseExpirationDate": "06/03/2026",
    "dataDate": "10/18/2025",
    "capacity": 0,
    "address": "502 CAJON ST",
    "city": "REDLANDS",
    "zip": "92373",
    "county": "SAN BERNARDINO",
    "phone": "(909) 792-4090",
    "lat": 34.048575,
    "lng": -117.177894
  },
  {
    "id": "630014052",
    "name": "BRIGHT SKY HOSPICE CARE, INC",
    "npi": "1164768511",
    "hcaiId": "406364508",
    "businessName": "BRIGHT SKY HOSPICE CARE, INC",
    "contactEmail": "POSNERELEANOR@GMAIL.COM",
    "categoryName": "HOSPICE",
    "categoryCode": "HOSPICE",
    "licenseStatus": "ACTIVE",
    "inService": true,
    "licenseNumber": "550002302",
    "licenseEffectiveDate": "05/29/2025",
    "licenseExpirationDate": "05/28/2027",
    "dataDate": "10/18/2025",
    "capacity": 0,
    "address": "502 CAJON ST, SUITE A",
    "city": "REDLANDS",
    "zip": "92373",
    "county": "SAN BERNARDINO",
    "phone": "(909) 335-1818",
    "lat": 34.048575,
    "lng": -117.177894
  },
  {
    "id": "240000032",
    "name": "BROOKSIDE HEALTHCARE CENTER",
    "npi": "1396744918",
    "hcaiId": "206361129",
    "businessName": "REDBROOK HEALTHCARE ASSOCIATES, LLC",
    "contactEmail": "RENEWALS@ENSIGNSERVICES.NET",
    "categoryName": "SKILLED NURSING FACILITY",
    "categoryCode": "SNF",
    "licenseStatus": "ACTIVE",
    "inService": true,
    "licenseNumber": "240000121",
    "licenseEffectiveDate": "11/01/2025",
    "licenseExpirationDate": "10/31/2026",
    "dataDate": "10/18/2025",
    "capacity": 97,
    "address": "105 TERRACINA BLVD",
    "city": "REDLANDS",
    "zip": "92373",
    "county": "SAN BERNARDINO",
    "phone": "(909) 793-2271",
    "lat": 34.044075,
    "lng": -117.211104
  },
  {
    "id": "630024047",
    "name": "CENTENNIAL HOME HEALTH INC",
    "npi": null,
    "hcaiId": "406365637",
    "businessName": "CENTENNIAL HOME HEALTH, INC.",
    "contactEmail": "HOMEHEALTHCENTENNIAL@GMAIL.COM",
    "categoryName": "HOME HEALTH AGENCY",
    "categoryCode": "HHA",
    "licenseStatus": "ACTIVE",
    "inService": true,
    "licenseNumber": "550008186",
    "licenseEffectiveDate": "09/27/2025",
    "licenseExpirationDate": "09/26/2026",
    "dataDate": "10/18/2025",
    "capacity": 0,
    "address": "101 E REDLANDS BLVD, SUITE 247",
    "city": "REDLANDS",
    "zip": "92373",
    "county": "SAN BERNARDINO",
    "phone": "(909) 471-8887",
    "lat": 34.05735601,
    "lng": -117.18138
  },
  {
    "id": "240001095",
    "name": "FRESENIUS KIDNEY CARE REDLANDS",
    "npi": "1003989732",
    "hcaiId": "306364100",
    "businessName": "RAI CARE CENTERS OF SOUTHERN CALIFORNIA I, LLC",
    "contactEmail": "JEFFREY.BALDWIN@FMC-NA.COM",
    "categoryName": "CHRONIC DIALYSIS CLINIC",
    "categoryCode": "ESRD/CDC",
    "licenseStatus": "ACTIVE",
    "inService": true,
    "licenseNumber": "240000470",
    "licenseEffectiveDate": "11/01/2025",
    "licenseExpirationDate": "10/31/2026",
    "dataDate": "10/18/2025",
    "capacity": 25,
    "address": "1449 W REDLANDS BLVD",
    "city": "REDLANDS",
    "zip": "92373",
    "county": "SAN BERNARDINO",
    "phone": "(909) 792-8880",
    "lat": 34.062147,
    "lng": -117.2065995
  },
  {
    "id": "630016751",
    "name": "HILTON MANOR, LLC",
    "npi": null,
    "hcaiId": "206364580",
    "businessName": "HILTON MANOR LLC",
    "contactEmail": "OPPOSNER@GMAIL.COM",
    "categoryName": "CONGREGATE LIVING HEALTH FACILITY",
    "categoryCode": "CLHF",
    "licenseStatus": "ACTIVE",
    "inService": true,
    "licenseNumber": "550003708",
    "licenseEffectiveDate": "11/10/2024",
    "licenseExpirationDate": "11/09/2025",
    "dataDate": "10/18/2025",
    "capacity": 6,
    "address": "42 WEST HILTON AVENUE",
    "city": "REDLANDS",
    "zip": "92373",
    "county": "SAN BERNARDINO",
    "phone": "(818) 281-5822",
    "lat": 34.036956,
    "lng": -117.1678185
  },
  {
    "id": "240000630",
    "name": "HOSPICE OF REDLANDS COMMUNITY HOSPITAL",
    "npi": null,
    "hcaiId": null,
    "businessName": "REDLANDS COMMUNITY HOSPITAL",
    "contactEmail": null,
    "categoryName": "HOSPICE",
    "categoryCode": "HOSPICE",
    "licenseStatus": "ACTIVE",
    "inService": true,
    "licenseNumber": "240000191",
    "licenseEffectiveDate": "11/01/2025",
    "licenseExpirationDate": "10/31/2026",
    "dataDate": "10/18/2025",
    "capacity": 0,
    "address": "350 TERRACINA BLVD",
    "city": "REDLANDS",
    "zip": "92373",
    "county": "SAN BERNARDINO",
    "phone": null,
    "lat": 34.036506,
    "lng": -117.2051775
  },
  {
    "id": "240000535",
    "name": "INLAND SURGERY CENTER",
    "npi": "1942265939",
    "hcaiId": "306364008",
    "businessName": "INLAND SURGERY CENTER LTD.",
    "contactEmail": "DEBRA.EISNER@SCASURGERY.COM",
    "categoryName": "SURGICAL CLINIC",
    "categoryCode": "ASC",
    "licenseStatus": "INACTIVE - CAPEN DECISION",
    "inService": false,
    "licenseNumber": "240000270",
    "licenseEffectiveDate": "05/01/2008",
    "licenseExpirationDate": "04/30/2009",
    "dataDate": "10/18/2025",
    "capacity": 0,
    "address": "1620 LAUREL AVE",
    "city": "REDLANDS",
    "zip": "92373",
    "county": "SAN BERNARDINO",
    "phone": "(909) 793-4701",
    "lat": 34.038315,
    "lng": -117.204516
  },
  {
    "id": "240000578",
    "name": "LOMA LINDA UNIVERSITY BEHAVIORAL MEDICINE CENTER",
    "npi": "1194731935",
    "hcaiId": "106364014",
    "businessName": "LOMA LINDA UNIVERSITY MEDICAL CENTER",
    "contactEmail": "EMORENOBARRAGAN@LLU.EDU",
    "categoryName": "ACUTE PSYCHIATRIC HOSPITAL",
    "categoryCode": "APH",
    "licenseStatus": "ACTIVE",
    "inService": true,
    "licenseNumber": "240000169",
    "licenseEffectiveDate": "11/01/2025",
    "licenseExpirationDate": "10/31/2026",
    "dataDate": "10/18/2025",
    "capacity": 89,
    "address": "1710 BARTON RD",
    "city": "REDLANDS",
    "zip": "92373",
    "county": "SAN BERNARDINO",
    "phone": "(909) 651-4271",
    "lat": 34.049439,
    "lng": -117.214092
  },
  {
    "id": "630012294",
    "name": "LOMA LINDA UNIVERSITY SURGICAL HOSPITAL",
    "npi": null,
    "hcaiId": "106364268",
    "businessName": "LOMA LINDA UNIVERSITY MEDICAL CENTER",
    "contactEmail": "JMOCK@LLU.EDU",
    "categoryName": "GENERAL ACUTE CARE HOSPITAL",
    "categoryCode": "GACH",
    "licenseStatus": "ACTIVE",
    "inService": true,
    "licenseNumber": "240000169",
    "licenseEffectiveDate": "11/01/2025",
    "licenseExpirationDate": "10/31/2026",
    "dataDate": "10/18/2025",
    "capacity": 28,
    "address": "26780 BARTON RD",
    "city": "REDLANDS",
    "zip": "92373",
    "county": "SAN BERNARDINO",
    "phone": "(909) 651-7000",
    "lat": 34.04898,
    "lng": -117.2199465
  },
  {
    "id": "240000650",
    "name": "MADISON GROVE POST ACUTE",
    "npi": "1871980722",
    "hcaiId": "206364036",
    "businessName": "LAUREL AVENUE, LLC",
    "contactEmail": "GARYL@MADISON.CARE",
    "categoryName": "SKILLED NURSING FACILITY",
    "categoryCode": "SNF",
    "licenseStatus": "ACTIVE",
    "inService": true,
    "licenseNumber": "240000307",
    "licenseEffectiveDate": "11/16/2024",
    "licenseExpirationDate": "11/15/2025",
    "dataDate": "10/18/2025",
    "capacity": 243,
    "address": "1618 LAUREL AVE",
    "city": "REDLANDS",
    "zip": "92373",
    "county": "SAN BERNARDINO",
    "phone": "(909) 792-6050",
    "lat": 34.038909,
    "lng": -117.2036025
  },
  {
    "id": "240000096",
    "name": "PLYMOUTH VILLAGE",
    "npi": "1982789343",
    "hcaiId": "206361301",
    "businessName": "HUMANGOOD NORCAL",
    "contactEmail": "BRETT.DRAKE@HUMANGOOD.ORG",
    "categoryName": "SKILLED NURSING FACILITY",
    "categoryCode": "SNF",
    "licenseStatus": "ACTIVE",
    "inService": true,
    "licenseNumber": "240000189",
    "licenseEffectiveDate": "03/15/2025",
    "licenseExpirationDate": "03/14/2026",
    "dataDate": "10/18/2025",
    "capacity": 48,
    "address": "819 SALEM DR",
    "city": "REDLANDS",
    "zip": "92373",
    "county": "SAN BERNARDINO",
    "phone": "(909) 255-7558",
    "lat": 34.043895,
    "lng": -117.1720575
  },
  {
    "id": "240001294",
    "name": "REDLANDS COMMUNITY HOSP. HOME HEALTH CARE SERVICES",
    "npi": "1407990575",
    "hcaiId": "406364134",
    "businessName": "REDLANDS COMMUNITY HOSPITAL",
    "contactEmail": "JRH@REDLANDSHOSPITAL.ORG",
    "categoryName": "HOME HEALTH AGENCY",
    "categoryCode": "HHA",
    "licenseStatus": "ACTIVE",
    "inService": true,
    "licenseNumber": "240000543",
    "licenseEffectiveDate": "03/10/2025",
    "licenseExpirationDate": "03/09/2026",
    "dataDate": "10/18/2025",
    "capacity": 0,
    "address": "350 TERRACINA BLVD",
    "city": "REDLANDS",
    "zip": "92373",
    "county": "SAN BERNARDINO",
    "phone": "(909) 335-5515",
    "lat": 34.036506,
    "lng": -117.2051775
  },
  {
    "id": "240000046",
    "name": "REDLANDS COMMUNITY HOSPITAL",
    "npi": "1043354111",
    "hcaiId": "106361308",
    "businessName": "REDLANDS COMMUNITY HOSPITAL",
    "contactEmail": "RWILSON@REDLANDSHOSPITAL.ORG",
    "categoryName": "GENERAL ACUTE CARE HOSPITAL",
    "categoryCode": "GACH",
    "licenseStatus": "ACTIVE",
    "inService": true,
    "licenseNumber": "240000191",
    "licenseEffectiveDate": "11/01/2025",
    "licenseExpirationDate": "10/31/2026",
    "dataDate": "10/18/2025",
    "capacity": 195,
    "address": "350 TERRACINA BLVD",
    "city": "REDLANDS",
    "zip": "92373",
    "county": "SAN BERNARDINO",
    "phone": "(909) 335-5500",
    "lat": 34.036506,
    "lng": -117.2051775
  },
  {
    "id": "240001393",
    "name": "REDLANDS COMMUNITY HOSPITAL D/P SNF",
    "npi": null,
    "hcaiId": null,
    "businessName": "REDLANDS COMMUNITY HOSPITAL",
    "contactEmail": "NGF2@REDLANDSHOSPITAL.ORG",
    "categoryName": "SKILLED NURSING FACILITY",
    "categoryCode": "SNF",
    "licenseStatus": "ACTIVE",
    "inService": true,
    "licenseNumber": "240000191",
    "licenseEffectiveDate": "11/01/2025",
    "licenseExpirationDate": "10/31/2026",
    "dataDate": "10/18/2025",
    "capacity": 16,
    "address": "350 TERRACINA BLVD",
    "city": "REDLANDS",
    "zip": "92373",
    "county": "SAN BERNARDINO",
    "phone": "(909) 335-5644",
    "lat": 34.036506,
    "lng": -117.2051775
  },
  {
    "id": "240000150",
    "name": "REDLANDS HEALTHCARE CENTER",
    "npi": "1811926603",
    "hcaiId": "206361351",
    "businessName": "ASH HOLDINGS, LLC",
    "contactEmail": "DANIEL.DRIGGS@HIGHLANDPALMSHC.COM",
    "categoryName": "SKILLED NURSING FACILITY",
    "categoryCode": "SNF",
    "licenseStatus": "ACTIVE",
    "inService": true,
    "licenseNumber": "240000211",
    "licenseEffectiveDate": "11/19/2024",
    "licenseExpirationDate": "11/18/2025",
    "dataDate": "10/18/2025",
    "capacity": 78,
    "address": "1620 W FERN AVE",
    "city": "REDLANDS",
    "zip": "92373",
    "county": "SAN BERNARDINO",
    "phone": "(909) 793-2609",
    "lat": 34.037523,
    "lng": -117.203661
  },
  {
    "id": "630016712",
    "name": "RIVER OF LIGHT HOSPICE",
    "npi": "1558702142",
    "hcaiId": "406361356",
    "businessName": "SAN BERNARDINO HOSPICE, INC.",
    "contactEmail": "SBHOSPICE225@GMAIL.COM",
    "categoryName": "HOSPICE",
    "categoryCode": "HOSPICE",
    "licenseStatus": "ACTIVE",
    "inService": true,
    "licenseNumber": "550003664",
    "licenseEffectiveDate": "08/25/2024",
    "licenseExpirationDate": "08/24/2026",
    "dataDate": "10/18/2025",
    "capacity": 0,
    "address": "256 CAJON ST, SUITE D",
    "city": "REDLANDS",
    "zip": "92373",
    "county": "SAN BERNARDINO",
    "phone": "(909) 748-7999",
    "lat": 34.05195,
    "lng": -117.180477
  },
  {
    "id": "630012827",
    "name": "TERRACINA SURGICAL ARTS INC",
    "npi": "1538394523",
    "hcaiId": null,
    "businessName": null,
    "contactEmail": null,
    "categoryName": "SURGICAL CLINIC",
    "categoryCode": "ASC",
    "licenseStatus": null,
    "inService": null,
    "licenseNumber": null,
    "licenseEffectiveDate": null,
    "licenseExpirationDate": null,
    "dataDate": "10/18/2025",
    "capacity": 0,
    "address": "295 TERRACINA BLVD",
    "city": "REDLANDS",
    "zip": "92373",
    "county": "SAN BERNARDINO",
    "phone": null,
    "lat": 34.037802,
    "lng": -117.2049165
  },
  {
    "id": "630012718",
    "name": "VIGILANS HOME HEALTH SERVICES INC",
    "npi": "1407178643",
    "hcaiId": "406364420",
    "businessName": "VIGILANS HOME HEALTH SERVICES, INC.",
    "contactEmail": "DPCS@VIGILANSHOMEHEALTH.NET",
    "categoryName": "HOME HEALTH AGENCY",
    "categoryCode": "HHA",
    "licenseStatus": "ACTIVE",
    "inService": true,
    "licenseNumber": "550001531",
    "licenseEffectiveDate": "12/20/2024",
    "licenseExpirationDate": "12/19/2025",
    "dataDate": "10/18/2025",
    "capacity": 0,
    "address": "256 CAJON ST, SUITE B",
    "city": "REDLANDS",
    "zip": "92373",
    "county": "SAN BERNARDINO",
    "phone": "(909) 748-7980",
    "lat": 34.05191998,
    "lng": -117.180446
  }
]