[
  {
    "id": "240000111",
    "name": "AARON HOUSE",
    "npi": "1841330420",
    "hcaiId": null,
    "businessName": "JONBEC CARE INCORPORATED",
    "contactEmail": "JENNYJOSEPH@JONBECCAREINC.COM",
    "categoryName": "INTERMEDIATE CARE FACILITY-DD/H/N/CN/IID",
    "categoryCode": "ICFDDH",
    "licenseStatus": "ACTIVE",
    "inService": true,
    "licenseNumber": "240000044",
    "licenseEffectiveDate": "11/01/2025",
    "licenseExpirationDate": "10/31/2026",
    "dataDate": "10/18/2025",
    "capacity": 6,
    "address": "1010 AARON DR",
    "city": "REDLANDS",
    "zip": "92374",
    "county": "SAN BERNARDINO",
    "phone": "(909) 794-3845",
    "lat": 34.065864,
    "lng": -117.154215
  },
  {
    "id": "630000741",
    "name": "ADVANCED AMBULATORY SURGERY CENTER, LP",
    "npi": "1881690949",
    "hcaiId": "306364309",
    "businessName": "ADVANCED AMBULATORY SURGERY CENTER, LP",
    "contactEmail": "DISTEFANO@AACSSURGERY.COM",
    "categoryName": "SURGICAL CLINIC",
    "categoryCode": "ASC",
    "licenseStatus": "INACTIVE - CAPEN DECISION",
    "inService": false,
    "licenseNumber": "550000011",
    "licenseEffectiveDate": "02/17/2008",
    "licenseExpirationDate": "02/16/2009",
    "dataDate": "10/18/2025",
    "capacity": 0,
    "address": "1901 W LUGONIA AVE, SUITE 100",
    "city": "REDLANDS",
    "zip": "92374",
    "county": "SAN BERNARDINO",
    "phone": "(909) 557-1704",
    "lat": 34.069833,
    "lng": -117.2183535
  },
  {
    "id": "630010983",
    "name": "AMERIHEALTH HOSPICE PROVIDER, INC.",
    "npi": null,
    "hcaiId": "406364342",
    "businessName": "AMERIHEALTH HOSPICE PROVIDER, INC.",
    "contactEmail": "RCRUZ@AMERIHEALTHHOSPICE.COM",
    "categoryName": "HOSPICE",
    "categoryCode": "HOSPICE",
    "licenseStatus": "ACTIVE",
    "inService": true,
    "licenseNumber": "550000494",
    "licenseEffectiveDate": "05/16/2025",
    "licenseExpirationDate": "05/15/2027",
    "dataDate": "10/18/2025",
    "capacity": 0,
    "address": "1323 W COLTON AVE, SUITE 200",
    "city": "REDLANDS",
    "zip": "92374",
    "county": "SAN BERNARDINO",
    "phone": "(909) 793-7558",
    "lat": 34.062522,
    "lng": -117.202599
  },
  {
    "id": "630020890",
    "name": "AVIVA HOSPICE, INC.",
    "npi": "1043826811",
    "hcaiId": "406363200",
    "businessName": "AVIVA HOSPICE, INC.",
    "contactEmail": "AVIVAHOSPICE@GMAIL.COM",
    "categoryName": "HOSPICE",
    "categoryCode": "HOSPICE",
    "licenseStatus": "ACTIVE",
    "inService": true,
    "licenseNumber": "550006275",
    "licenseEffectiveDate": "05/10/2025",
    "licenseExpirationDate": "05/09/2027",
    "dataDate": "10/18/2025",
    "capacity": 0,
    "address": "1200 CALIFORNIA ST, SUITE 130",
    "city": "REDLANDS",
    "zip": "92374",
    "county": "SAN BERNARDINO",
    "phone": "(909) 284-5600",
    "lat": 34.06892401,
    "lng": -117.225439
  },
  {
    "id": "630017065",
    "name": "BLUE JAY MANOR, LLC",
    "npi": null,
    "hcaiId": "206361004",
    "businessName": "BLUE JAY MANOR, LLC",
    "contactEmail": "EPPOSNER@GMAIL.COM",
    "categoryName": "CONGREGATE LIVING HEALTH FACILITY",
    "categoryCode": "CLHF",
    "licenseStatus": "ACTIVE",
    "inService": true,
    "licenseNumber": "550003969",
    "licenseEffectiveDate": "10/03/2025",
    "licenseExpirationDate": "10/02/2026",
    "dataDate": "10/18/2025",
    "capacity": 6,
    "address": "35 BLUE JAY LN",
    "city": "REDLANDS",
    "zip": "92374",
    "county": "SAN BERNARDINO",
    "phone": "(818) 281-5822",
    "lat": 34.084962,
    "lng": -117.183024
  },
  {
    "id": "630020898",
    "name": "BRADFORD HEALTHCARE",
    "npi": "1104435817",
    "hcaiId": "406363763",
    "businessName": "BRADFORD HEALTHCARE",
    "contactEmail": "BRADFORDHEALTHCARE21@GMAIL.COM",
    "categoryName": "HOSPICE",
    "categoryCode": "HOSPICE",
    "licenseStatus": "ACTIVE",
    "inService": true,
    "licenseNumber": "550006520",
    "licenseEffectiveDate": "07/01/2025",
    "licenseExpirationDate": "06/30/2027",
    "dataDate": "10/18/2025",
    "capacity": 0,
    "address": "1916 ORANGE TREE LN, SUITE 450A",
    "city": "REDLANDS",
    "zip": "92374",
    "county": "SAN BERNARDINO",
    "phone": "(909) 457-7492",
    "lat": 34.068348,
    "lng": -117.218952
  },
  {
    "id": "240000020",
    "name": "HIGHLAND CARE CENTER OF REDLANDS",
    "npi": "1790779288",
    "hcaiId": "206361114",
    "businessName": "AG REDLANDS, LLC",
    "contactEmail": "GWENDY.HERNANDEZ@REDLANDSHCC.COM",
    "categoryName": "SKILLED NURSING FACILITY",
    "categoryCode": "SNF",
    "licenseStatus": "ACTIVE",
    "inService": true,
    "licenseNumber": "240000114",
    "licenseEffectiveDate": "11/01/2025",
    "licenseExpirationDate": "10/31/2026",
    "dataDate": "10/18/2025",
    "capacity": 80,
    "address": "700 E HIGHLAND AVE",
    "city": "REDLANDS",
    "zip": "92374",
    "county": "SAN BERNARDINO",
    "phone": "(909) 793-2678",
    "lat": 34.045173,
    "lng": -117.1635075
  },
  {
    "id": "240000617",
    "name": "KENDALL HOUSE",
    "npi": "1497895965",
    "hcaiId": null,
    "businessName": "JONBEC CARE INCORPORATED",
    "contactEmail": "JENNYJOSEPH@JONBECCAREINC.COM",
    "categoryName": "INTERMEDIATE CARE FACILITY-DD/H/N/CN/IID",
    "categoryCode": "ICFDDH",
    "licenseStatus": "ACTIVE",
    "inService": true,
    "licenseNumber": "240000295",
    "licenseEffectiveDate": "11/01/2025",
    "licenseExpirationDate": "10/31/2026",
    "dataDate": "10/18/2025",
    "capacity": 6,
    "address": "1835 E CITRUS AVE",
    "city": "REDLANDS",
    "zip": "92374",
    "county": "SAN BERNARDINO",
    "phone": "(909) 794-9242",
    "lat": 34.055802,
    "lng": -117.137007
  },
  {
    "id": "240000747",
    "name": "LANCASTER HOUSE",
    "npi": "1679614218",
    "hcaiId": null,
    "businessName": "JONBEC CARE INCORPORATED",
    "contactEmail": "JENNYJOSEPH@JONBECCAREINC.COM",
    "categoryName": "INTERMEDIATE CARE FACILITY-DD/H/N/CN/IID",
    "categoryCode": "ICFDDH",
    "licenseStatus": "ACTIVE",
    "inService": true,
    "licenseNumber": "240000346",
    "licenseEffectiveDate": "11/01/2025",
    "licenseExpirationDate": "10/31/2026",
    "dataDate": "10/18/2025",
    "capacity": 6,
    "address": "1126 E CENTRAL AVE",
    "city": "REDLANDS",
    "zip": "92374",
    "county": "SAN BERNARDINO",
    "phone": "(909) 792-7172",
    "lat": 34.05681,
    "lng": -117.1642455
  },
  {
    "id": "240000876",
    "name": "LANFAIR HOUSE",
    "npi": "1013058692",
    "hcaiId": null,
    "businessName": "JONBEC CARE INCORPORATED",
    "contactEmail": "JENNYJOSEPH@JONBECCAREINC.COM",
    "categoryName": "INTERMEDIATE CARE FACILITY-DD/H/N/CN/IID",
    "categoryCode": "ICFDDH",
    "licenseStatus": "ACTIVE",
    "inService": true,
    "licenseNumber": "240000396",
    "licenseEffectiveDate": "12/28/2024",
    "licenseExpirationDate": "12/27/2025",
    "dataDate": "10/18/2025",
    "capacity": 6,
    "address": "1334 LANFAIR ST",
    "city": "REDLANDS",
    "zip": "92374",
    "county": "SAN BERNARDINO",
    "phone": "(909) 798-4003",
    "lat": 34.07193,
    "lng": -117.1676025
  },
  {
    "id": "240001306",
    "name": "MOUNTAIN VIEW SURGERY CENTER AND MEDICAL CLINIC",
    "npi": "1821141441",
    "hcaiId": "306364140",
    "businessName": "INLAND ENDOSCOPY CENTER, INC.",
    "contactEmail": "MTVIEWSURGERYCTR@AOL.COM",
    "categoryName": "SURGICAL CLINIC",
    "categoryCode": "ASC",
    "licenseStatus": "INACTIVE - CAPEN DECISION",
    "inService": false,
    "licenseNumber": "240000549",
    "licenseEffectiveDate": "04/01/2008",
    "licenseExpirationDate": "03/31/2009",
    "dataDate": "10/18/2025",
    "capacity": 0,
    "address": "10408 INDUSTRIAL CIR",
    "city": "REDLANDS",
    "zip": "92374",
    "county": "SAN BERNARDINO",
    "phone": "(909) 796-7803",
    "lat": 34.064685,
    "lng": -117.2365335
  },
  {
    "id": "630021829",
    "name": "OMSH FOREVER LLC",
    "npi": "1336739861",
    "hcaiId": "406363322",
    "businessName": "OMSH FOREVER LLC",
    "contactEmail": "OMSHFOREVER@GMAIL.COM",
    "categoryName": "HOSPICE",
    "categoryCode": "HOSPICE",
    "licenseStatus": "ACTIVE",
    "inService": true,
    "licenseNumber": "550007122",
    "licenseEffectiveDate": "11/04/2023",
    "licenseExpirationDate": "11/03/2025",
    "dataDate": "10/18/2025",
    "capacity": 0,
    "address": "1255 W COLTON AVE, SUITE 543",
    "city": "REDLANDS",
    "zip": "92374",
    "county": "SAN BERNARDINO",
    "phone": "(800) 674-4428",
    "lat": 34.062075,
    "lng": -117.201789
  },
  {
    "id": "240000132",
    "name": "PIONEER HOUSE",
    "npi": "1124168711",
    "hcaiId": null,
    "businessName": "JONBEC CARE INCORPORATED",
    "contactEmail": "JENNYJOSEPH@JONBECCAREINC.COM",
    "categoryName": "INTERMEDIATE CARE FACILITY-DD/H/N/CN/IID",
    "categoryCode": "ICFDDH",
    "licenseStatus": "ACTIVE",
    "inService": true,
    "licenseNumber": "240000043",
    "licenseEffectiveDate": "11/01/2025",
    "licenseExpirationDate": "10/31/2026",
    "dataDate": "10/18/2025",
    "capacity": 6,
    "address": "840 E PIONEER AVE",
    "city": "REDLANDS",
    "zip": "92374",
    "county": "SAN BERNARDINO",
    "phone": "(909) 793-0275",
    "lat": 34.080714,
    "lng": -117.172341
  },
  {
    "id": "630018115",
    "name": "PRIOR LEVEL HOME HEALTH",
    "npi": "1912493750",
    "hcaiId": "406361716",
    "businessName": "PRIOR LEVEL HOME CARE PHYSICAL THERAPY, INC",
    "contactEmail": "ALIMCCLINTOCKDPT@GMAIL.COM",
    "categoryName": "HOME HEALTH AGENCY",
    "categoryCode": "HHA",
    "licenseStatus": "ACTIVE",
    "inService": true,
    "licenseNumber": "550004550",
    "licenseEffectiveDate": "02/09/2024",
    "licenseExpirationDate": "02/08/2025",
    "dataDate": "10/18/2025",
    "capacity": 0,
    "address": "1200 CALIFORNIA ST, SUITE 112",
    "city": "REDLANDS",
    "zip": "92374",
    "county": "SAN BERNARDINO",
    "phone": "(909) 312-7099",
    "lat": 34.068573,
    "lng": -117.2256165
  },
  {
    "id": "630022440",
    "name": "RC HARMONY HOSPICE & PALLIATIVE CARE INC.",
    "npi": "1104419219",
    "hcaiId": "406368064",
    "businessName": "RC HARMONY HOSPICE & PALLIATIVE CARE INC.",
    "contactEmail": "RCHARMONY@OUTLOOK.COM",
    "categoryName": "HOSPICE",
    "categoryCode": "HOSPICE",
    "licenseStatus": "ACTIVE",
    "inService": true,
    "licenseNumber": "550007663",
    "licenseEffectiveDate": "12/20/2023",
    "licenseExpirationDate": "12/19/2025",
    "dataDate": "10/18/2025",
    "capacity": 0,
    "address": "1706 PLUM LN, SUITE 129",
    "city": "REDLANDS",
    "zip": "92374",
    "county": "SAN BERNARDINO",
    "phone": "(909) 335-3831",
    "lat": 34.069266,
    "lng": -117.213399
  },
  {
    "id": "240001240",
    "name": "REDLANDS DENTAL SURGERY CENTER",
    "npi": "1487708400",
    "hcaiId": "306364122",
    "businessName": null,
    "contactEmail": "REDLANDSDENTAL1@GMAIL.COM",
    "categoryName": "SURGICAL CLINIC",
    "categoryCode": "ASC/SURGC",
    "licenseStatus": "ACTIVE",
    "inService": true,
    "licenseNumber": "240000513",
    "licenseEffectiveDate": "11/26/2025",
    "licenseExpirationDate": "11/25/2026",
    "dataDate": "10/18/2025",
    "capacity": 0,
    "address": "1180 NEVADA ST, SUITE 100",
    "city": "REDLANDS",
    "zip": "92374",
    "county": "SAN BERNARDINO",
    "phone": "(909) 335-0474",
    "lat": 34.068969,
    "lng": -117.217206
  },
  {
    "id": "630011137",
    "name": "REDLANDS DIALYSIS",
    "npi": "1336319607",
    "hcaiId": "306360488",
    "businessName": "YUCAIPA DIALYSIS LLC",
    "contactEmail": "CAL_C@DAVITA.COM",
    "categoryName": "CHRONIC DIALYSIS CLINIC",
    "categoryCode": "ESRD/CDC",
    "licenseStatus": "ACTIVE",
    "inService": true,
    "licenseNumber": "550000524",
    "licenseEffectiveDate": "05/17/2025",
    "licenseExpirationDate": "05/16/2026",
    "dataDate": "10/18/2025",
    "capacity": 37,
    "address": "1722 ORANGE TREE LN",
    "city": "REDLANDS",
    "zip": "92374",
    "county": "SAN BERNARDINO",
    "phone": "(909) 307-0437",
    "lat": 34.068249,
    "lng": -117.213615
  },
  {
    "id": "630017469",
    "name": "SERENE CONGREGATE LIVING, LLC",
    "npi": null,
    "hcaiId": "206360023",
    "businessName": "SERENE CONGREGATE LIVING, LLC",
    "contactEmail": "POSNERELEANOR@GMAIL.COM",
    "categoryName": "CONGREGATE LIVING HEALTH FACILITY",
    "categoryCode": "CLHF",
    "licenseStatus": "ACTIVE",
    "inService": true,
    "licenseNumber": "550004194",
    "licenseEffectiveDate": "01/18/2025",
    "licenseExpirationDate": "01/17/2026",
    "dataDate": "10/18/2025",
    "capacity": 6,
    "address": "812 CONCORD LN",
    "city": "REDLANDS",
    "zip": "92374",
    "county": "SAN BERNARDINO",
    "phone": "(818) 281-5822",
    "lat": 34.037487,
    "lng": -117.1486215
  },
  {
    "id": "240000996",
    "name": "STILLMAN HOUSE",
    "npi": "1922149509",
    "hcaiId": null,
    "businessName": "JONBEC CARE INCORPORATED",
    "contactEmail": "BECKYJOSEPH@JONBECCAREINC.COM",
    "categoryName": "INTERMEDIATE CARE FACILITY-DD/H/N/CN/IID",
    "categoryCode": "ICFDDH",
    "licenseStatus": "ACTIVE",
    "inService": true,
    "licenseNumber": "240000424",
    "licenseEffectiveDate": "02/11/2025",
    "licenseExpirationDate": "02/10/2026",
    "dataDate": "10/18/2025",
    "capacity": 6,
    "address": "1528 STILLMAN AVE",
    "city": "REDLANDS",
    "zip": "92374",
    "county": "SAN BERNARDINO",
    "phone": "(909) 792-4003",
    "lat": 34.061688,
    "lng": -117.150858
  },
  {
    "id": "630016544",
    "name": "WINGS OF HOPE HOSPICE, INC.",
    "npi": null,
    "hcaiId": "406361298",
    "businessName": "WINGS OF HOPE HOSPICE, INC.",
    "contactEmail": "WOHH.GENMGR@GMAIL.COM",
    "categoryName": "HOSPICE",
    "categoryCode": "HOSPICE",
    "licenseStatus": "ACTIVE",
    "inService": true,
    "licenseNumber": "550003546",
    "licenseEffectiveDate": "06/06/2024",
    "licenseExpirationDate": "06/05/2026",
    "dataDate": "10/18/2025",
    "capacity": 0,
    "address": "345 W PEARL AVE, SUITE 240",
    "city": "REDLANDS",
    "zip": "92374",
    "county": "SAN BERNARDINO",
    "phone": "(909) 307-0089",
    "lat": 34.06106799,
    "lng": -117.18617
  }
]