[
  {
    "id": "240000647",
    "name": "BLANDFORD HOUSE",
    "npi": "1932249406",
    "hcaiId": null,
    "businessName": "JONBEC CARE INCORPORATED",
    "contactEmail": "JENNYJOSEPH@JONBECCAREINC.COM",
    "categoryName": "INTERMEDIATE CARE FACILITY-DD/H/N/CN/IID",
    "categoryCode": "ICFDDN",
    "licenseStatus": "ACTIVE",
    "inService": true,
    "licenseNumber": "240000304",
    "licenseEffectiveDate": "11/01/2025",
    "licenseExpirationDate": "10/31/2026",
    "dataDate": "10/18/2025",
    "capacity": 6,
    "address": "13131 6TH PL, UNIT 1",
    "city": "YUCAIPA",
    "zip": "92399",
    "county": "SAN BERNARDINO",
    "phone": "(909) 795-2117",
    "lat": 34.014735,
    "lng": -117.06219
  },
  {
    "id": "240000649",
    "name": "CANTERBURY HOUSE",
    "npi": "1780724286",
    "hcaiId": null,
    "businessName": "JONBEC CARE INCORPORATED",
    "contactEmail": "JENNYJOSEPH@JONBECCAREINC.COM",
    "categoryName": "INTERMEDIATE CARE FACILITY-DD/H/N/CN/IID",
    "categoryCode": "ICFDDN",
    "licenseStatus": "ACTIVE",
    "inService": true,
    "licenseNumber": "240000306",
    "licenseEffectiveDate": "11/01/2025",
    "licenseExpirationDate": "10/31/2026",
    "dataDate": "10/18/2025",
    "capacity": 6,
    "address": "13131 6TH PL, UNIT 2",
    "city": "YUCAIPA",
    "zip": "92399",
    "county": "SAN BERNARDINO",
    "phone": "(909) 798-4003",
    "lat": 34.014735,
    "lng": -117.06219
  },
  {
    "id": "240001032",
    "name": "CEDAR MOUNTAIN POST ACUTE",
    "npi": "1467847996",
    "hcaiId": "206364083",
    "businessName": "CEDAR OPERATIONS, LLC",
    "contactEmail": "JULIENER@MADISON.CARE",
    "categoryName": "SKILLED NURSING FACILITY",
    "categoryCode": "SNF",
    "licenseStatus": "ACTIVE",
    "inService": true,
    "licenseNumber": "240000441",
    "licenseEffectiveDate": "11/23/2024",
    "licenseExpirationDate": "11/22/2025",
    "dataDate": "10/18/2025",
    "capacity": 99,
    "address": "11970 4TH ST",
    "city": "YUCAIPA",
    "zip": "92399",
    "county": "SAN BERNARDINO",
    "phone": "(909) 708-9252",
    "lat": 34.036137,
    "lng": -117.0527085
  },
  {
    "id": "240000031",
    "name": "CREEKSIDE POST ACUTE",
    "npi": "1285202549",
    "hcaiId": "206361383",
    "businessName": "CRSCA HC, LLC",
    "contactEmail": "RACHELLE@ROCKWELL.CARE",
    "categoryName": "SKILLED NURSING FACILITY",
    "categoryCode": "SNF",
    "licenseStatus": "ACTIVE",
    "inService": true,
    "licenseNumber": "240000224",
    "licenseEffectiveDate": "10/15/2025",
    "licenseExpirationDate": "10/14/2026",
    "dataDate": "10/18/2025",
    "capacity": 59,
    "address": "35253 AVENUE H",
    "city": "YUCAIPA",
    "zip": "92399",
    "county": "SAN BERNARDINO",
    "phone": "(909) 795-2476",
    "lat": 34.009758,
    "lng": -117.0352845
  },
  {
    "id": "240000904",
    "name": "HILLSIDE HOUSE",
    "npi": "1871634451",
    "hcaiId": null,
    "businessName": "JONBEC CARE INCORPORATED",
    "contactEmail": "BECKYJOSEPH@JONBECCAREINC.COM",
    "categoryName": "INTERMEDIATE CARE FACILITY-DD/H/N/CN/IID",
    "categoryCode": "ICFDDN",
    "licenseStatus": "ACTIVE",
    "inService": true,
    "licenseNumber": "240000407",
    "licenseEffectiveDate": "01/23/2025",
    "licenseExpirationDate": "01/22/2026",
    "dataDate": "10/18/2025",
    "capacity": 6,
    "address": "12000 PEACH TREE RD, UNIT 1",
    "city": "YUCAIPA",
    "zip": "92399",
    "county": "SAN BERNARDINO",
    "phone": "(909) 790-0986",
    "lat": 34.03656,
    "lng": -117.0559935
  },
  {
    "id": "630017416",
    "name": "JUNIPER MANOR, LLC",
    "npi": null,
    "hcaiId": "206360025",
    "businessName": "JUNIPER MANOR, LLC",
    "contactEmail": "EPPOSNER@GMAIL.COM",
    "categoryName": "CONGREGATE LIVING HEALTH FACILITY",
    "categoryCode": "CLHF",
    "licenseStatus": "ACTIVE",
    "inService": true,
    "licenseNumber": "550004081",
    "licenseEffectiveDate": "01/04/2025",
    "licenseExpirationDate": "01/03/2026",
    "dataDate": "10/18/2025",
    "capacity": 6,
    "address": "35223 JUNIPER AVE",
    "city": "YUCAIPA",
    "zip": "92399",
    "county": "SAN BERNARDINO",
    "phone": "(818) 281-5822",
    "lat": 34.071534,
    "lng": -117.035451
  },
  {
    "id": "240000687",
    "name": "NORTHAMPTON HOUSE",
    "npi": "1619017118",
    "hcaiId": null,
    "businessName": "JONBEC CARE INCORPORATED",
    "contactEmail": "JENNYJOSEPH@JONBECCAREINC.COM",
    "categoryName": "INTERMEDIATE CARE FACILITY-DD/H/N/CN/IID",
    "categoryCode": "ICFDDH",
    "licenseStatus": "ACTIVE",
    "inService": true,
    "licenseNumber": "240000351",
    "licenseEffectiveDate": "11/01/2025",
    "licenseExpirationDate": "10/31/2026",
    "dataDate": "10/18/2025",
    "capacity": 6,
    "address": "35284 WILDWOOD CANYON RD",
    "city": "YUCAIPA",
    "zip": "92399",
    "county": "SAN BERNARDINO",
    "phone": "(909) 798-4003",
    "lat": 34.016022,
    "lng": -117.035181
  },
  {
    "id": "240000648",
    "name": "SALISBURY HOUSE",
    "npi": "1144401001",
    "hcaiId": null,
    "businessName": "JONBEC CARE INCORPORATED",
    "contactEmail": "JENNYJOSEPH@JONBECCAREINC.COM",
    "categoryName": "INTERMEDIATE CARE FACILITY-DD/H/N/CN/IID",
    "categoryCode": "ICFDDN",
    "licenseStatus": "ACTIVE",
    "inService": true,
    "licenseNumber": "240000305",
    "licenseEffectiveDate": "11/01/2025",
    "licenseExpirationDate": "10/31/2026",
    "dataDate": "10/18/2025",
    "capacity": 6,
    "address": "13131 6TH PL, UNIT 3",
    "city": "YUCAIPA",
    "zip": "92399",
    "county": "SAN BERNARDINO",
    "phone": "(909) 798-4003",
    "lat": 34.014735,
    "lng": -117.06219
  },
  {
    "id": "240000905",
    "name": "TERRACE VIEW HOUSE",
    "npi": "1942341524",
    "hcaiId": null,
    "businessName": "JONBEC CARE INCORPORATED",
    "contactEmail": "BECKYJOSEPH@JONBECCAREINC.COM",
    "categoryName": "INTERMEDIATE CARE FACILITY-DD/H/N/CN/IID",
    "categoryCode": "ICFDDN",
    "licenseStatus": "ACTIVE",
    "inService": true,
    "licenseNumber": "240000406",
    "licenseEffectiveDate": "01/23/2025",
    "licenseExpirationDate": "01/22/2026",
    "dataDate": "10/18/2025",
    "capacity": 6,
    "address": "12000 PEACH TREE RD, UNIT 2",
    "city": "YUCAIPA",
    "zip": "92399",
    "county": "SAN BERNARDINO",
    "phone": "(909) 797-3945",
    "lat": 34.03656,
    "lng": -117.0559935
  },
  {
    "id": "630027938",
    "name": "WILDWOOD WOMEN'S CENTER",
    "npi": null,
    "hcaiId": null,
    "businessName": "MOUNTAIN RIGHT TO LIFE INC",
    "contactEmail": "JANICE.PASSMORE@WILDWOODCALVARY.COM",
    "categoryName": "PRIMARY CARE CLINIC",
    "categoryCode": "COMTYC",
    "licenseStatus": "ACTIVE",
    "inService": true,
    "licenseNumber": "240000750",
    "licenseEffectiveDate": "11/05/2024",
    "licenseExpirationDate": "11/04/2025",
    "dataDate": "10/18/2025",
    "capacity": 0,
    "address": "35145 OAK GLEN RD",
    "city": "YUCAIPA",
    "zip": "92399",
    "county": "SAN BERNARDINO",
    "phone": "(909) 534-4596",
    "lat": 34.047456,
    "lng": -117.037687
  },
  {
    "id": "240000688",
    "name": "WINDSOR HOUSE",
    "npi": "1588704084",
    "hcaiId": null,
    "businessName": "JONBEC CARE INCORPORATED",
    "contactEmail": "JENNYJOSEPH@JONBECCAREINC.COM",
    "categoryName": "INTERMEDIATE CARE FACILITY-DD/H/N/CN/IID",
    "categoryCode": "ICFDDN",
    "licenseStatus": "ACTIVE",
    "inService": true,
    "licenseNumber": "240000316",
    "licenseEffectiveDate": "11/01/2025",
    "licenseExpirationDate": "10/31/2026",
    "dataDate": "10/18/2025",
    "capacity": 6,
    "address": "35388 FIR AVE",
    "city": "YUCAIPA",
    "zip": "92399",
    "county": "SAN BERNARDINO",
    "phone": "(909) 798-4003",
    "lat": 34.056189,
    "lng": -117.0328275
  },
  {
    "id": "240000585",
    "name": "YORK HOUSE",
    "npi": "1255471843",
    "hcaiId": null,
    "businessName": "JONBEC CARE INCORPORATED",
    "contactEmail": "JENNYJOSEPH@JONBECCAREINC.COM",
    "categoryName": "INTERMEDIATE CARE FACILITY-DD/H/N/CN/IID",
    "categoryCode": "ICFDDH",
    "licenseStatus": "ACTIVE",
    "inService": true,
    "licenseNumber": "240000286",
    "licenseEffectiveDate": "11/01/2025",
    "licenseExpirationDate": "10/31/2026",
    "dataDate": "10/18/2025",
    "capacity": 6,
    "address": "35679 DATE ST",
    "city": "YUCAIPA",
    "zip": "92399",
    "county": "SAN BERNARDINO",
    "phone": "(909) 798-4003",
    "lat": 34.041033,
    "lng": -117.0262035
  },
  {
    "id": "240000023",
    "name": "YUCAIPA HILLS POST ACUTE",
    "npi": "1659949923",
    "hcaiId": "206361150",
    "businessName": "YUHCA HC, LLC",
    "contactEmail": "JILLANNENUNEZ@YAHOO.COM",
    "categoryName": "SKILLED NURSING FACILITY",
    "categoryCode": "SNF",
    "licenseStatus": "ACTIVE",
    "inService": true,
    "licenseNumber": "240000236",
    "licenseEffectiveDate": "10/29/2025",
    "licenseExpirationDate": "10/28/2026",
    "dataDate": "10/18/2025",
    "capacity": 82,
    "address": "13542 2ND ST",
    "city": "YUCAIPA",
    "zip": "92399",
    "county": "SAN BERNARDINO",
    "phone": "(909) 795-2421",
    "lat": 34.007832,
    "lng": -117.044028
  }
]