[
  {
    "id": "630020270",
    "name": "ALLAY 4 HOSPICE, INC.",
    "npi": null,
    "hcaiId": "406363187",
    "businessName": "ALLAY 4 HOSPICE, INC.",
    "contactEmail": "IZ.A4H@YAHOO.COM",
    "categoryName": "HOSPICE",
    "categoryCode": "HOSPICE",
    "licenseStatus": "ACTIVE",
    "inService": true,
    "licenseNumber": "550006302",
    "licenseEffectiveDate": "04/16/2025",
    "licenseExpirationDate": "04/15/2027",
    "dataDate": "10/18/2025",
    "capacity": 0,
    "address": "14350 CIVIC DR, SUITE 130",
    "city": "VICTORVILLE",
    "zip": "92392",
    "county": "SAN BERNARDINO",
    "phone": "(909) 493-2197",
    "lat": 34.51176699,
    "lng": -117.32397
  },
  {
    "id": "240001692",
    "name": "CHESHIRE",
    "npi": "1245385889",
    "hcaiId": null,
    "businessName": "PROVIDENT PLACE",
    "contactEmail": "DAN@PROVIDENTPLACE.COM",
    "categoryName": "INTERMEDIATE CARE FACILITY-DD/H/N/CN/IID",
    "categoryCode": "ICFDDH",
    "licenseStatus": "ACTIVE",
    "inService": true,
    "licenseNumber": "240000738",
    "licenseEffectiveDate": "11/25/2024",
    "licenseExpirationDate": "11/24/2025",
    "dataDate": "10/18/2025",
    "capacity": 8,
    "address": "13943 TRIGGER LN",
    "city": "VICTORVILLE",
    "zip": "92392",
    "county": "SAN BERNARDINO",
    "phone": "(626) 722-1352",
    "lat": 34.485228,
    "lng": -117.3589875
  },
  {
    "id": "630014555",
    "name": "DESERT CITIES DIALYSIS - AMETHYST",
    "npi": "1225460264",
    "hcaiId": "306364500",
    "businessName": "JAMBOOR MEDICAL CORPORATION",
    "contactEmail": "LGUTIERREZ@DCDIALYSIS.COM",
    "categoryName": "CHRONIC DIALYSIS CLINIC",
    "categoryCode": "ESRD/CDC",
    "licenseStatus": "ACTIVE",
    "inService": true,
    "licenseNumber": "550002569",
    "licenseEffectiveDate": "12/24/2024",
    "licenseExpirationDate": "12/23/2025",
    "dataDate": "10/18/2025",
    "capacity": 26,
    "address": "11883 AMETHYST RD",
    "city": "VICTORVILLE",
    "zip": "92392",
    "county": "SAN BERNARDINO",
    "phone": "(760) 241-8063",
    "lat": 34.466301,
    "lng": -117.3637485
  },
  {
    "id": "630018961",
    "name": "DESERT VIEW HOSPICE, INC.",
    "npi": "1235792391",
    "hcaiId": "406362061",
    "businessName": "DESERT VIEW HOSPICE, INC.",
    "contactEmail": "SA.DVHINC@GMAIL.COM",
    "categoryName": "HOSPICE",
    "categoryCode": "HOSPICE",
    "licenseStatus": "ACTIVE",
    "inService": true,
    "licenseNumber": "550005141",
    "licenseEffectiveDate": "11/13/2023",
    "licenseExpirationDate": "11/12/2025",
    "dataDate": "10/18/2025",
    "capacity": 0,
    "address": "14338 PARK AVE, SUITE 4",
    "city": "VICTORVILLE",
    "zip": "92392",
    "county": "SAN BERNARDINO",
    "phone": "(760) 457-6680",
    "lat": 34.51131,
    "lng": -117.325314
  },
  {
    "id": "630019757",
    "name": "DESERT WIND HOSPICE, INC.",
    "npi": "1052955070",
    "hcaiId": "406423693",
    "businessName": "DESERT WIND HOSPICE, INC.",
    "contactEmail": "DESERTWINDHOSPICE@GMAIL.COM",
    "categoryName": "HOSPICE",
    "categoryCode": "HOSPICE",
    "licenseStatus": "ACTIVE",
    "inService": true,
    "licenseNumber": "550006528",
    "licenseEffectiveDate": "07/03/2025",
    "licenseExpirationDate": "07/02/2027",
    "dataDate": "10/18/2025",
    "capacity": 0,
    "address": "14359 AMARGOSA RD, SUITE O",
    "city": "VICTORVILLE",
    "zip": "92392",
    "county": "SAN BERNARDINO",
    "phone": "(442) 255-4311",
    "lat": 34.511769,
    "lng": -117.329886
  },
  {
    "id": "630017800",
    "name": "LAM NURSING HEALTHCARE SERVICES INC",
    "npi": null,
    "hcaiId": "406361696",
    "businessName": "LAM NURSING HEALTHCARE SERVICES INC",
    "contactEmail": "LUTZIE7@YAHOO.COM",
    "categoryName": "HOME HEALTH AGENCY",
    "categoryCode": "HHA",
    "licenseStatus": "ACTIVE",
    "inService": true,
    "licenseNumber": "550004685",
    "licenseEffectiveDate": "04/11/2025",
    "licenseExpirationDate": "04/10/2026",
    "dataDate": "10/18/2025",
    "capacity": 0,
    "address": "14455 PARK AVE, SUITE E",
    "city": "VICTORVILLE",
    "zip": "92392",
    "county": "SAN BERNARDINO",
    "phone": "(442) 327-9060",
    "lat": 34.513506,
    "lng": -117.324567
  },
  {
    "id": "630027202",
    "name": "PATRICIO AND SANDRA BRACERO HAVEN, INC",
    "npi": null,
    "hcaiId": null,
    "businessName": "PATRICIO AND SANDRA BRACERO HAVEN, INC",
    "contactEmail": "PSBH.HOMEHEALTH@GMAIL.COM",
    "categoryName": "HOME HEALTH AGENCY",
    "categoryCode": "HHA",
    "licenseStatus": "ACTIVE",
    "inService": true,
    "licenseNumber": "550009662",
    "licenseEffectiveDate": "08/21/2025",
    "licenseExpirationDate": "02/20/2026",
    "dataDate": "10/18/2025",
    "capacity": 0,
    "address": "15475 SENECA RD, SUITE B",
    "city": "VICTORVILLE",
    "zip": "92392",
    "county": "SAN BERNARDINO",
    "phone": "(760) 493-7831",
    "lat": 34.51382299,
    "lng": -117.326322
  },
  {
    "id": "630014489",
    "name": "PLANNED PARENTHOOD OF ORANGE AND SAN BERNARDINO COUNTIES",
    "npi": "1225376809",
    "hcaiId": "306364484",
    "businessName": "PLANNED PARENTHOOD/ORANGE & SAN BERNARDINO CO.,INC",
    "contactEmail": "SAMANTHA.ORTEGA@PPOSBC.ORG",
    "categoryName": "PRIMARY CARE CLINIC",
    "categoryCode": "COMTYC",
    "licenseStatus": "ACTIVE",
    "inService": true,
    "licenseNumber": "550002375",
    "licenseEffectiveDate": "08/21/2025",
    "licenseExpirationDate": "08/20/2026",
    "dataDate": "10/18/2025",
    "capacity": 0,
    "address": "15403 PARK AVE E",
    "city": "VICTORVILLE",
    "zip": "92392",
    "county": "SAN BERNARDINO",
    "phone": "(711) 463-3637",
    "lat": 34.50663,
    "lng": -117.323829
  },
  {
    "id": "630021290",
    "name": "ST MARTIN HIGH DESERT",
    "npi": "1639771017",
    "hcaiId": "406366128",
    "businessName": "ST MARTIN HIGH DESERT",
    "contactEmail": "PMMARTIN@USC.EDU",
    "categoryName": "HOSPICE",
    "categoryCode": "HOSPICE",
    "licenseStatus": "ACTIVE",
    "inService": true,
    "licenseNumber": "550006585",
    "licenseEffectiveDate": "07/20/2025",
    "licenseExpirationDate": "07/19/2027",
    "dataDate": "10/18/2025",
    "capacity": 0,
    "address": "15475 SENECA RD, SUITE A",
    "city": "VICTORVILLE",
    "zip": "92392",
    "county": "SAN BERNARDINO",
    "phone": "(442) 255-4992",
    "lat": 34.513821,
    "lng": -117.326304
  }
]