[
  {
    "id": "630014940",
    "name": "AVEANNA HEALTHCARE",
    "npi": "1295159366",
    "hcaiId": "406364516",
    "businessName": "PREMIER HEALTHCARE SERVICES, LLC",
    "contactEmail": "CREDENTIALING@AVEANNA.COM",
    "categoryName": "HOME HEALTH AGENCY",
    "categoryCode": "HHA",
    "licenseStatus": "ACTIVE",
    "inService": true,
    "licenseNumber": "550002906",
    "licenseEffectiveDate": "10/20/2025",
    "licenseExpirationDate": "10/19/2026",
    "dataDate": "10/18/2025",
    "capacity": 0,
    "address": "12401 HESPERIA RD, SUITE 8",
    "city": "VICTORVILLE",
    "zip": "92395",
    "county": "SAN BERNARDINO",
    "phone": "(442) 300-9788",
    "lat": 34.477128,
    "lng": -117.2903895
  },
  {
    "id": "630021035",
    "name": "BROTHER'S HOSPICE AND PALLIATIVE CARE, INC.",
    "npi": null,
    "hcaiId": "406195715",
    "businessName": "BROTHER'S HOSPICE AND PALLIATIVE CARE, INC.",
    "contactEmail": "BROTHERSHOSPICE@PROTONMAIL.COM",
    "categoryName": "HOSPICE",
    "categoryCode": "HOSPICE",
    "licenseStatus": "ACTIVE",
    "inService": true,
    "licenseNumber": "550007686",
    "licenseEffectiveDate": "12/17/2023",
    "licenseExpirationDate": "12/16/2025",
    "dataDate": "10/18/2025",
    "capacity": 0,
    "address": "16519 VICTOR ST, SUITE 302",
    "city": "VICTORVILLE",
    "zip": "92395",
    "county": "SAN BERNARDINO",
    "phone": "(442) 255-4562",
    "lat": 34.520976,
    "lng": -117.303939
  },
  {
    "id": "240001009",
    "name": "DESERT CITIES DIALYSIS",
    "npi": "1063421212",
    "hcaiId": "306364077",
    "businessName": "JAMBOOR MEDICAL CORPORATION",
    "contactEmail": "JWOODBURN@DCDIALYSIS.COM",
    "categoryName": "CHRONIC DIALYSIS CLINIC",
    "categoryCode": "ESRD/CDC",
    "licenseStatus": "ACTIVE",
    "inService": true,
    "licenseNumber": "240000431",
    "licenseEffectiveDate": "11/29/2024",
    "licenseExpirationDate": "11/28/2025",
    "dataDate": "10/18/2025",
    "capacity": 30,
    "address": "12675 HESPERIA RD",
    "city": "VICTORVILLE",
    "zip": "92395",
    "county": "SAN BERNARDINO",
    "phone": "(760) 241-8063",
    "lat": 34.481394,
    "lng": -117.29007
  },
  {
    "id": "630025255",
    "name": "DESERT RIDGE TRANSITIONAL CARE CENTER, LP",
    "npi": null,
    "hcaiId": null,
    "businessName": "DESERT RIDGE TRANSITIONAL CARE CENTER, LP",
    "contactEmail": "CHOW@PURSUEHEALTHLLC.COM",
    "categoryName": "SKILLED NURSING FACILITY",
    "categoryCode": "SNF",
    "licenseStatus": "ACTIVE",
    "inService": true,
    "licenseNumber": "550009936",
    "licenseEffectiveDate": "08/21/2025",
    "licenseExpirationDate": "02/20/2026",
    "dataDate": "10/18/2025",
    "capacity": 170,
    "address": "13300 11TH AVE",
    "city": "VICTORVILLE",
    "zip": "92395",
    "county": "SAN BERNARDINO",
    "phone": "(714) 673-6899",
    "lat": 34.48937478,
    "lng": -117.3270209
  },
  {
    "id": "240001330",
    "name": "DESERT VALLEY HOSPITAL",
    "npi": "1851396576",
    "hcaiId": "106364144",
    "businessName": "DESERT VALLEY HOSPITAL, LLC",
    "contactEmail": "DROESLER@PRIMEHEALTHCARE.COM",
    "categoryName": "GENERAL ACUTE CARE HOSPITAL",
    "categoryCode": "GACH",
    "licenseStatus": "ACTIVE",
    "inService": true,
    "licenseNumber": "240000562",
    "licenseEffectiveDate": "12/01/2024",
    "licenseExpirationDate": "11/30/2025",
    "dataDate": "10/18/2025",
    "capacity": 148,
    "address": "16850 BEAR VALLEY RD",
    "city": "VICTORVILLE",
    "zip": "92395",
    "county": "SAN BERNARDINO",
    "phone": "(760) 241-8000",
    "lat": 34.472016,
    "lng": -117.297738
  },
  {
    "id": "630013780",
    "name": "DESERT VIEW ENDOSCOPY CENTER, LLC",
    "npi": "1316231020",
    "hcaiId": null,
    "businessName": null,
    "contactEmail": "BRANDON@CALISHER.COM",
    "categoryName": "SURGICAL CLINIC",
    "categoryCode": "ASC",
    "licenseStatus": null,
    "inService": null,
    "licenseNumber": null,
    "licenseEffectiveDate": null,
    "licenseExpirationDate": null,
    "dataDate": "10/18/2025",
    "capacity": 0,
    "address": "12595 HESPERIA RD, SUITE 100",
    "city": "VICTORVILLE",
    "zip": "92395",
    "county": "SAN BERNARDINO",
    "phone": "(760) 881-3350",
    "lat": 34.479891,
    "lng": -117.290502
  },
  {
    "id": "630013476",
    "name": "GRACELIGHT HOME HEALTH",
    "npi": "1841591062",
    "hcaiId": "406364476",
    "businessName": "UNITED NURSING PERSONAL CARE, INC.",
    "contactEmail": "NURSINGPERSONAL@GMAIL.COM",
    "categoryName": "HOME HEALTH AGENCY",
    "categoryCode": "HHA",
    "licenseStatus": "ACTIVE",
    "inService": true,
    "licenseNumber": "550002145",
    "licenseEffectiveDate": "10/22/2025",
    "licenseExpirationDate": "10/21/2026",
    "dataDate": "10/18/2025",
    "capacity": 0,
    "address": "14070 HESPERIA RD, SUITE 102",
    "city": "VICTORVILLE",
    "zip": "92395",
    "county": "SAN BERNARDINO",
    "phone": "(760) 241-3800",
    "lat": 34.50704601,
    "lng": -117.297331
  },
  {
    "id": "630012942",
    "name": "HIGH DESERT HOSPICE SERVICES INC",
    "npi": "1760783476",
    "hcaiId": "406364425",
    "businessName": "HIGH DESERT HOSPICE SERVICES, INC",
    "contactEmail": "HIGHDESERTHOSPICE@YAHOO.COM",
    "categoryName": "HOSPICE",
    "categoryCode": "HOSPICE",
    "licenseStatus": "ACTIVE",
    "inService": true,
    "licenseNumber": "550001527",
    "licenseEffectiveDate": "03/16/2025",
    "licenseExpirationDate": "03/15/2027",
    "dataDate": "10/18/2025",
    "capacity": 0,
    "address": "12998 HESPERIA RD., SUITE 202",
    "city": "VICTORVILLE",
    "zip": "92395",
    "county": "SAN BERNARDINO",
    "phone": "(760) 245-8900",
    "lat": 34.487757,
    "lng": -117.291087
  },
  {
    "id": "630000321",
    "name": "IMPERIAL HOME HEALTH",
    "npi": "1104067578",
    "hcaiId": "406364347",
    "businessName": "PARAMOUNT PROFESSIONALS, INC.",
    "contactEmail": "OFFICE@IMPERIALHOMEHEALTHVV.COM",
    "categoryName": "HOME HEALTH AGENCY",
    "categoryCode": "HHA",
    "licenseStatus": "ACTIVE",
    "inService": true,
    "licenseNumber": "550000506",
    "licenseEffectiveDate": "07/19/2025",
    "licenseExpirationDate": "07/18/2026",
    "dataDate": "10/18/2025",
    "capacity": 0,
    "address": "16484 VICTOR ST",
    "city": "VICTORVILLE",
    "zip": "92395",
    "county": "SAN BERNARDINO",
    "phone": "(760) 951-6688",
    "lat": 34.521939,
    "lng": -117.304524
  },
  {
    "id": "630027748",
    "name": "IMPERIAL PHYSICAL THERAPY PC",
    "npi": null,
    "hcaiId": null,
    "businessName": null,
    "contactEmail": "ELEAZAR@IMPERIALHH.COM",
    "categoryName": "REHABILITATION CLINIC",
    "categoryCode": "OPT/SP",
    "licenseStatus": null,
    "inService": null,
    "licenseNumber": null,
    "licenseEffectiveDate": null,
    "licenseExpirationDate": null,
    "dataDate": "10/18/2025",
    "capacity": 0,
    "address": "12550 HESPERIA RD, SUITE 220",
    "city": "VICTORVILLE",
    "zip": "92395",
    "county": "SAN BERNARDINO",
    "phone": "(909) 509-6064",
    "lat": 34.479346,
    "lng": -117.291604
  },
  {
    "id": "240000365",
    "name": "KNOLLS WEST POST ACUTE LLC",
    "npi": "1588091383",
    "hcaiId": "206364001",
    "businessName": "KNOLLS WEST POST ACUTE LLC",
    "contactEmail": "ADMIN@KNOLLSWESTPOSTACUTE.COM",
    "categoryName": "SKILLED NURSING FACILITY",
    "categoryCode": "SNF",
    "licenseStatus": "ACTIVE",
    "inService": true,
    "licenseNumber": "240000249",
    "licenseEffectiveDate": "11/25/2024",
    "licenseExpirationDate": "11/24/2025",
    "dataDate": "10/18/2025",
    "capacity": 118,
    "address": "16890 GREEN TREE BLVD",
    "city": "VICTORVILLE",
    "zip": "92395",
    "county": "SAN BERNARDINO",
    "phone": "(760) 245-5361",
    "lat": 34.501014,
    "lng": -117.2954475
  },
  {
    "id": "630014044",
    "name": "MISSION CITY COMMUNITY NETWORK, INC. - VICTORVILLE",
    "npi": "1265708994",
    "hcaiId": "306364485",
    "businessName": "MISSION CITY COMMUNITY NETWORK, INC.",
    "contactEmail": "NIKG@MCCN.ORG",
    "categoryName": "PRIMARY CARE CLINIC",
    "categoryCode": "COMTYC",
    "licenseStatus": "ACTIVE",
    "inService": true,
    "licenseNumber": "550002273",
    "licenseEffectiveDate": "02/13/2025",
    "licenseExpirationDate": "02/12/2026",
    "dataDate": "10/18/2025",
    "capacity": 0,
    "address": "15201 ELEVENTH ST, SUITE 300",
    "city": "VICTORVILLE",
    "zip": "92395",
    "county": "SAN BERNARDINO",
    "phone": "(818) 895-3100",
    "lat": 34.527195,
    "lng": -117.2916315
  },
  {
    "id": "630017457",
    "name": "MISSION CITY COMMUNITY NETWORK, INC. - VICTORVILLE",
    "npi": null,
    "hcaiId": null,
    "businessName": "MISSION CITY COMMUNITY NETWORK, INC.",
    "contactEmail": "NIKG@MCCN.ORG",
    "categoryName": "PRIMARY CARE CLINIC",
    "categoryCode": "COMTYC",
    "licenseStatus": "ACTIVE",
    "inService": true,
    "licenseNumber": "550002273",
    "licenseEffectiveDate": "02/13/2025",
    "licenseExpirationDate": "02/12/2026",
    "dataDate": "10/18/2025",
    "capacity": 0,
    "address": "14357 7TH ST",
    "city": "VICTORVILLE",
    "zip": "92395",
    "county": "SAN BERNARDINO",
    "phone": "(818) 895-3100",
    "lat": 34.511634,
    "lng": -117.3174615
  },
  {
    "id": "630013405",
    "name": "MOJAVE SAGE DIALYSIS",
    "npi": "1477836039",
    "hcaiId": "306364448",
    "businessName": "VILLANUEVA DIALYSIS LLC",
    "contactEmail": "CAL_C@DAVITA.COM",
    "categoryName": "CHRONIC DIALYSIS CLINIC",
    "categoryCode": "ESRD/CDC",
    "licenseStatus": "ACTIVE",
    "inService": true,
    "licenseNumber": "550001904",
    "licenseEffectiveDate": "04/23/2025",
    "licenseExpirationDate": "04/22/2026",
    "dataDate": "10/18/2025",
    "capacity": 0,
    "address": "17207 JASMINE ST",
    "city": "VICTORVILLE",
    "zip": "92395",
    "county": "SAN BERNARDINO",
    "phone": "(760) 241-8167",
    "lat": 34.474464,
    "lng": -117.2864475
  },
  {
    "id": "630020871",
    "name": "MORGAN HOSPICE AND PALLIATIVE CARE, INC.",
    "npi": "1306458898",
    "hcaiId": "406365143",
    "businessName": "MORGAN HOSPICE AND PALLIATIVE CARE, INC.",
    "contactEmail": "MORGANHOSPICE@MAIL.COM",
    "categoryName": "HOSPICE",
    "categoryCode": "HOSPICE",
    "licenseStatus": "ACTIVE",
    "inService": true,
    "licenseNumber": "550006960",
    "licenseEffectiveDate": "10/07/2023",
    "licenseExpirationDate": "10/06/2025",
    "dataDate": "10/18/2025",
    "capacity": 0,
    "address": "16519 VICTOR ST, SUITE 301",
    "city": "VICTORVILLE",
    "zip": "92395",
    "county": "SAN BERNARDINO",
    "phone": "(442) 255-4061",
    "lat": 34.520976,
    "lng": -117.303939
  },
  {
    "id": "240000780",
    "name": "PHYSICIAN'S SURGERY CENTER",
    "npi": "1497746747",
    "hcaiId": "306364315",
    "businessName": "DOCTOR'S SURGERY CENTER OF APPLE VALLEY",
    "contactEmail": "SARAH@PSC-ASC.COM",
    "categoryName": "SURGICAL CLINIC",
    "categoryCode": "ASC",
    "licenseStatus": "INACTIVE - CAPEN DECISION",
    "inService": false,
    "licenseNumber": "550000094",
    "licenseEffectiveDate": "11/03/2007",
    "licenseExpirationDate": "11/02/2008",
    "dataDate": "10/18/2025",
    "capacity": 0,
    "address": "12567 HESPERIA RD",
    "city": "VICTORVILLE",
    "zip": "92395",
    "county": "SAN BERNARDINO",
    "phone": "(760) 241-7754",
    "lat": 34.47936,
    "lng": -117.2893545
  },
  {
    "id": "630028452",
    "name": "PRIORITY CARE MEDICAL GROUP-VICTORVILLE",
    "npi": null,
    "hcaiId": null,
    "businessName": "CENTER FOR FAMILY HEALTH & EDUCATION, INC.",
    "contactEmail": null,
    "categoryName": "PRIMARY CARE CLINIC",
    "categoryCode": "COMTYC",
    "licenseStatus": "ACTIVE",
    "inService": true,
    "licenseNumber": "550004817",
    "licenseEffectiveDate": "08/12/2025",
    "licenseExpirationDate": "08/08/2026",
    "dataDate": "10/18/2025",
    "capacity": 0,
    "address": "12677 HESPERIA RD, SUITE 170",
    "city": "VICTORVILLE",
    "zip": "92395",
    "county": "SAN BERNARDINO",
    "phone": null,
    "lat": 34.48115699,
    "lng": -117.289165
  },
  {
    "id": "630015855",
    "name": "SEASONS HOSPICE & PALLIATIVE CARE OF CALIFORNIA-SAN BERNARDINO, LLC",
    "npi": "1336408848",
    "hcaiId": "406361519",
    "businessName": "SEASONS HOSPICE & PALLIATIVE CARE OF CALIFORNIA - SAN BERNARDINO, LLC",
    "contactEmail": "CATHOMPSON@SEASONS.ORG",
    "categoryName": "HOSPICE",
    "categoryCode": "HOSPICE",
    "licenseStatus": "ACTIVE",
    "inService": true,
    "licenseNumber": "550001512",
    "licenseEffectiveDate": "12/18/2024",
    "licenseExpirationDate": "12/17/2026",
    "dataDate": "10/18/2025",
    "capacity": 0,
    "address": "12550 HESPERIA RD, SUITE 250",
    "city": "VICTORVILLE",
    "zip": "92395",
    "county": "SAN BERNARDINO",
    "phone": "(760) 955-0020",
    "lat": 34.479324,
    "lng": -117.291582
  },
  {
    "id": "240000060",
    "name": "SPRING VALLEY POST ACUTE LLC",
    "npi": "1053748830",
    "hcaiId": "206361165",
    "businessName": "SPRING VALLEY POST ACUTE LLC",
    "contactEmail": "ADMIN@SPRINGVALLEYPOSTACUTE.COM",
    "categoryName": "SKILLED NURSING FACILITY",
    "categoryCode": "SNF",
    "licenseStatus": "ACTIVE",
    "inService": true,
    "licenseNumber": "240000140",
    "licenseEffectiveDate": "11/26/2024",
    "licenseExpirationDate": "11/25/2025",
    "dataDate": "10/18/2025",
    "capacity": 126,
    "address": "14973 HESPERIA RD",
    "city": "VICTORVILLE",
    "zip": "92395",
    "county": "SAN BERNARDINO",
    "phone": "(760) 245-6477",
    "lat": 34.523199,
    "lng": -117.295839
  },
  {
    "id": "630027750",
    "name": "SYMBA CENTER",
    "npi": null,
    "hcaiId": null,
    "businessName": "SYMBA CENTER",
    "contactEmail": "MILA.DUENAS@WIPFLI.COM",
    "categoryName": "PRIMARY CARE CLINIC",
    "categoryCode": "COMTYC",
    "licenseStatus": "ACTIVE",
    "inService": true,
    "licenseNumber": "550009809",
    "licenseEffectiveDate": "11/08/2025",
    "licenseExpirationDate": "05/07/2026",
    "dataDate": "10/18/2025",
    "capacity": 0,
    "address": "16902 1ST ST, BUILDING 1100",
    "city": "VICTORVILLE",
    "zip": "92395",
    "county": "SAN BERNARDINO",
    "phone": "(510) 404-3329",
    "lat": 34.54028076,
    "lng": -117.2982994
  },
  {
    "id": "630017064",
    "name": "U. S. RENAL CARE VICTORVILLE HOME DIALYSIS",
    "npi": null,
    "hcaiId": null,
    "businessName": null,
    "contactEmail": "LEGAL@USRENALCARE.COM",
    "categoryName": "CHRONIC DIALYSIS CLINIC",
    "categoryCode": "ESRD",
    "licenseStatus": null,
    "inService": null,
    "licenseNumber": null,
    "licenseEffectiveDate": null,
    "licenseExpirationDate": null,
    "dataDate": "10/18/2025",
    "capacity": 0,
    "address": "17125 SILICA DR, SUITE 102",
    "city": "VICTORVILLE",
    "zip": "92395",
    "county": "SAN BERNARDINO",
    "phone": "(760) 843-6752",
    "lat": 34.477497,
    "lng": -117.288387
  },
  {
    "id": "630019640",
    "name": "U.S. RENAL CARE VICTORVILLE DIALYSIS",
    "npi": null,
    "hcaiId": "306360585",
    "businessName": "DSI APPLE VALLEY HOME DIALYSIS, LLC",
    "contactEmail": "NORNDORFF@USRENALCARE.COM",
    "categoryName": "CHRONIC DIALYSIS CLINIC",
    "categoryCode": "ESRD/CDC",
    "licenseStatus": "ACTIVE",
    "inService": true,
    "licenseNumber": "550005894",
    "licenseEffectiveDate": "11/09/2024",
    "licenseExpirationDate": "11/08/2025",
    "dataDate": "10/18/2025",
    "capacity": 13,
    "address": "17125 SILICA DR, SUITE 100",
    "city": "VICTORVILLE",
    "zip": "92395",
    "county": "SAN BERNARDINO",
    "phone": "(760) 904-3570",
    "lat": 34.477497,
    "lng": -117.288387
  },
  {
    "id": "630016859",
    "name": "VALDE HOME HEALTH, INC.",
    "npi": "1184073389",
    "hcaiId": "406360872",
    "businessName": "VALDE HOME HEALTH, INC.",
    "contactEmail": "VALDEHH18@GMAIL.COM",
    "categoryName": "HOME HEALTH AGENCY",
    "categoryCode": "HHA",
    "licenseStatus": "ACTIVE",
    "inService": true,
    "licenseNumber": "550004098",
    "licenseEffectiveDate": "01/04/2025",
    "licenseExpirationDate": "01/03/2026",
    "dataDate": "10/18/2025",
    "capacity": 0,
    "address": "12241 INDUSTRIAL BLVD., SUITE 202",
    "city": "VICTORVILLE",
    "zip": "92395",
    "county": "SAN BERNARDINO",
    "phone": "(760) 437-8001",
    "lat": 34.473294,
    "lng": -117.2824155
  },
  {
    "id": "240000054",
    "name": "VICTOR VALLEY GLOBAL MEDICAL CENTER",
    "npi": "1679879589",
    "hcaiId": "106361370",
    "businessName": "VICTOR VALLEY HOSPITAL ACQUISITION, INC",
    "contactEmail": "MARILYN.DRONE@VVGMC.COM",
    "categoryName": "GENERAL ACUTE CARE HOSPITAL",
    "categoryCode": "GACH",
    "licenseStatus": "ACTIVE",
    "inService": true,
    "licenseNumber": "240000218",
    "licenseEffectiveDate": "02/13/2025",
    "licenseExpirationDate": "02/12/2026",
    "dataDate": "10/18/2025",
    "capacity": 101,
    "address": "15248 ELEVENTH ST",
    "city": "VICTORVILLE",
    "zip": "92395",
    "county": "SAN BERNARDINO",
    "phone": "(760) 245-8691",
    "lat": 34.528266,
    "lng": -117.293265
  },
  {
    "id": "630025461",
    "name": "VICTORVILLE HEALTH CARE SERVICES",
    "npi": null,
    "hcaiId": "406367595",
    "businessName": "VICTORVILLE HEALTH CARE SERVICES",
    "contactEmail": "VICTORVILLEHCS@GMAIL.COM",
    "categoryName": "HOME HEALTH AGENCY",
    "categoryCode": "HHA",
    "licenseStatus": "ACTIVE",
    "inService": true,
    "licenseNumber": "550008761",
    "licenseEffectiveDate": "09/11/2023",
    "licenseExpirationDate": "03/10/2024",
    "dataDate": "10/18/2025",
    "capacity": 0,
    "address": "14360 ST ANDREWS DR, SUITE 3",
    "city": "VICTORVILLE",
    "zip": "92395",
    "county": "SAN BERNARDINO",
    "phone": "(442) 955-4833",
    "lat": 34.511769,
    "lng": -117.316674
  },
  {
    "id": "630024897",
    "name": "VICTORVILLE HOME HEALTH",
    "npi": null,
    "hcaiId": "406367167",
    "businessName": "VICTORVILLE HOME HEALTH",
    "contactEmail": "VICTORVILLEHH@GMAIL.COM",
    "categoryName": "HOME HEALTH AGENCY",
    "categoryCode": "HHA",
    "licenseStatus": "ACTIVE",
    "inService": true,
    "licenseNumber": "550008328",
    "licenseEffectiveDate": "01/18/2025",
    "licenseExpirationDate": "01/17/2026",
    "dataDate": "10/18/2025",
    "capacity": 0,
    "address": "14360 ST ANDREWS DR, SUITE 4A",
    "city": "VICTORVILLE",
    "zip": "92395",
    "county": "SAN BERNARDINO",
    "phone": "(800) 613-9590",
    "lat": 34.511769,
    "lng": -117.316674
  }
]