[
  {
    "id": "630016904",
    "name": "BELLVIEW HOSPICE CARE, INC.",
    "npi": "1487064143",
    "hcaiId": "406362626",
    "businessName": "BELLVIEW HOSPICE CARE, INC.",
    "contactEmail": "BELLVIEWHOSPICECARE@GMAIL.COM",
    "categoryName": "HOSPICE",
    "categoryCode": "HOSPICE",
    "licenseStatus": "ACTIVE",
    "inService": true,
    "licenseNumber": "550003788",
    "licenseEffectiveDate": "10/19/2024",
    "licenseExpirationDate": "10/18/2026",
    "dataDate": "10/18/2025",
    "capacity": 0,
    "address": "255 N. D STREET, SUITE 214",
    "city": "SAN BERNARDINO",
    "zip": "92401",
    "county": "SAN BERNARDINO",
    "phone": "(951) 867-4039",
    "lat": 34.1037,
    "lng": -117.2914785
  },
  {
    "id": "630017409",
    "name": "CHERRY BLOSSOM HEALTHCARE PALLIATIVE & HOSPICE, INC.",
    "npi": "1164967741",
    "hcaiId": "406361464",
    "businessName": "CHERRY BLOSSOM HEALTHCARE PALLIATIVE & HOSPICE, INC.",
    "contactEmail": "CHERRYBLOSSOM.HOSPICE@GMAIL.COM",
    "categoryName": "HOSPICE",
    "categoryCode": "HOSPICE",
    "licenseStatus": "ACTIVE",
    "inService": true,
    "licenseNumber": "550004496",
    "licenseEffectiveDate": "11/20/2024",
    "licenseExpirationDate": "11/19/2026",
    "dataDate": "10/18/2025",
    "capacity": 0,
    "address": "688 N ARROWHEAD AVE, SUITE 205",
    "city": "SAN BERNARDINO",
    "zip": "92401",
    "county": "SAN BERNARDINO",
    "phone": "(909) 571-5650",
    "lat": 34.111827,
    "lng": -117.2898405
  },
  {
    "id": "630027308",
    "name": "COMFORT HOME HEALTHCARE SERVICES LLC",
    "npi": null,
    "hcaiId": null,
    "businessName": "COMFORT HOME HEALTHCARE SERVICES LLC",
    "contactEmail": "COMFORTHHS1@GMAIL.COM",
    "categoryName": "HOME HEALTH AGENCY",
    "categoryCode": "HHA",
    "licenseStatus": "ACTIVE",
    "inService": true,
    "licenseNumber": "550009492",
    "licenseEffectiveDate": "05/04/2025",
    "licenseExpirationDate": "11/03/2025",
    "dataDate": "10/18/2025",
    "capacity": 0,
    "address": "363 W 6TH ST, SUITE 6",
    "city": "SAN BERNARDINO",
    "zip": "92401",
    "county": "SAN BERNARDINO",
    "phone": "(909) 443-2150",
    "lat": 34.10993302,
    "lng": -117.291179
  },
  {
    "id": "630011125",
    "name": "GENUS HOME CARE OF SAN BERNARDINO",
    "npi": "1518021963",
    "hcaiId": "406364379",
    "businessName": "GENUS HOME CARE INC OF SAN BERNARDINO",
    "contactEmail": "JHAYWOOD@GENUSHOMECARE.COM",
    "categoryName": "HOME HEALTH AGENCY",
    "categoryCode": "HHA",
    "licenseStatus": "ACTIVE",
    "inService": true,
    "licenseNumber": "550000730",
    "licenseEffectiveDate": "04/18/2025",
    "licenseExpirationDate": "04/17/2026",
    "dataDate": "10/18/2025",
    "capacity": 0,
    "address": "515 N MOUNTAIN VIEW AVE",
    "city": "SAN BERNARDINO",
    "zip": "92401",
    "county": "SAN BERNARDINO",
    "phone": "(909) 386-1821",
    "lat": 34.108569,
    "lng": -117.287244
  },
  {
    "id": "240001229",
    "name": "INLAND FAMILY COMMUNITY HEALTH CENTER",
    "npi": null,
    "hcaiId": "306364366",
    "businessName": "INLAND BEHAVIORAL AND HEALTH SERVICES, INC.",
    "contactEmail": "DEMELP@IBHEALTH.ORG",
    "categoryName": "PRIMARY CARE CLINIC",
    "categoryCode": "COMTYC",
    "licenseStatus": "ACTIVE",
    "inService": true,
    "licenseNumber": "240000508",
    "licenseEffectiveDate": "11/21/2024",
    "licenseExpirationDate": "11/20/2025",
    "dataDate": "10/18/2025",
    "capacity": 0,
    "address": "665 N D ST",
    "city": "SAN BERNARDINO",
    "zip": "92401",
    "county": "SAN BERNARDINO",
    "phone": "(909) 708-8158",
    "lat": 34.111566,
    "lng": -117.291267
  },
  {
    "id": "630019139",
    "name": "LOVING HANDS HOSPICE, LLC.",
    "npi": "1922662576",
    "hcaiId": "406362804",
    "businessName": "LOVING HANDS HOSPICE, LLC.",
    "contactEmail": "LOVINGHANDSHOSPICE0319@GMAIL.COM",
    "categoryName": "HOSPICE",
    "categoryCode": "HOSPICE",
    "licenseStatus": "ACTIVE",
    "inService": true,
    "licenseNumber": "550005665",
    "licenseEffectiveDate": "07/14/2024",
    "licenseExpirationDate": "07/13/2026",
    "dataDate": "10/18/2025",
    "capacity": 0,
    "address": "363 W 6TH ST, SUITE 6",
    "city": "SAN BERNARDINO",
    "zip": "92401",
    "county": "SAN BERNARDINO",
    "phone": "(909) 999-5540",
    "lat": 34.11,
    "lng": -117.291024
  },
  {
    "id": "630020468",
    "name": "MEDICAL AND DENTAL MOBILE UNIT #9",
    "npi": null,
    "hcaiId": null,
    "businessName": null,
    "contactEmail": null,
    "categoryName": "PRIMARY CARE CLINIC",
    "categoryCode": "COMTYC",
    "licenseStatus": null,
    "inService": null,
    "licenseNumber": null,
    "licenseEffectiveDate": null,
    "licenseExpirationDate": null,
    "dataDate": "10/18/2025",
    "capacity": 0,
    "address": "590 N D ST",
    "city": "SAN BERNARDINO",
    "zip": "92401",
    "county": "SAN BERNARDINO",
    "phone": null,
    "lat": 34.109937,
    "lng": -117.292257
  },
  {
    "id": "630017280",
    "name": "MOBILE UNIT #5",
    "npi": "1780038042",
    "hcaiId": null,
    "businessName": null,
    "contactEmail": "MCONNELLY@BORREGOMEDICAL.ORG",
    "categoryName": "PRIMARY CARE CLINIC",
    "categoryCode": "COMTYC",
    "licenseStatus": null,
    "inService": null,
    "licenseNumber": null,
    "licenseEffectiveDate": null,
    "licenseExpirationDate": null,
    "dataDate": "10/18/2025",
    "capacity": 0,
    "address": "590 ND ST",
    "city": "SAN BERNARDINO",
    "zip": "92401",
    "county": "SAN BERNARDINO",
    "phone": "(909) 453-6900",
    "lat": 34.10973,
    "lng": -117.292491
  },
  {
    "id": "630023825",
    "name": "POST ACUTE HOME HEALTH AGENCY",
    "npi": null,
    "hcaiId": "406365352",
    "businessName": "POST ACUTE HOME HEALTH AGENCY",
    "contactEmail": "POSTACUTEHHA@GMAIL.COM",
    "categoryName": "HOME HEALTH AGENCY",
    "categoryCode": "HHA",
    "licenseStatus": "ACTIVE",
    "inService": true,
    "licenseNumber": "550007981",
    "licenseEffectiveDate": "05/13/2025",
    "licenseExpirationDate": "05/12/2026",
    "dataDate": "10/18/2025",
    "capacity": 0,
    "address": "504 N MOUNTAIN VIEW AVE, SUITE 308",
    "city": "SAN BERNARDINO",
    "zip": "92401",
    "county": "SAN BERNARDINO",
    "phone": "(888) 451-3500",
    "lat": 34.108632,
    "lng": -117.2879415
  },
  {
    "id": "630025873",
    "name": "QUICLINICS MEDICAL PARTNERS",
    "npi": "1679083182",
    "hcaiId": null,
    "businessName": "QUICLINICS MEDICAL PARTNERS",
    "contactEmail": null,
    "categoryName": "PRIMARY CARE CLINIC",
    "categoryCode": "COMTYC",
    "licenseStatus": "ACTIVE",
    "inService": true,
    "licenseNumber": "550003189",
    "licenseEffectiveDate": "08/20/2025",
    "licenseExpirationDate": "08/19/2026",
    "dataDate": "10/18/2025",
    "capacity": 0,
    "address": "330 N D ST, SUITE 306",
    "city": "SAN BERNARDINO",
    "zip": "92401",
    "county": "SAN BERNARDINO",
    "phone": null,
    "lat": 34.105113,
    "lng": -117.2922885
  },
  {
    "id": "630021624",
    "name": "ST BERNARD HOME HEALTH, INC.",
    "npi": null,
    "hcaiId": "406365871",
    "businessName": "ST BERNARD HOME HEALTH, INC.",
    "contactEmail": "STBERNARDHH@PROTONMAIL.COM",
    "categoryName": "HOME HEALTH AGENCY",
    "categoryCode": "HHA",
    "licenseStatus": "ACTIVE",
    "inService": true,
    "licenseNumber": "550008030",
    "licenseEffectiveDate": "06/07/2025",
    "licenseExpirationDate": "06/06/2026",
    "dataDate": "10/18/2025",
    "capacity": 0,
    "address": "577 N D ST, SUITE 105",
    "city": "SAN BERNARDINO",
    "zip": "92401",
    "county": "SAN BERNARDINO",
    "phone": "(323) 459-3026",
    "lat": 34.109685,
    "lng": -117.29142
  }
]