[
  {
    "id": "630020200",
    "name": "ALTA HOSPICE OF CALIFORNIA",
    "npi": null,
    "hcaiId": "406196078",
    "businessName": "ALTA HOSPICE OF CALIFORNIA",
    "contactEmail": "NAREG@ALTAHOSPICEOFCA.COM",
    "categoryName": "HOSPICE",
    "categoryCode": "HOSPICE",
    "licenseStatus": "ACTIVE",
    "inService": true,
    "licenseNumber": "550006292",
    "licenseEffectiveDate": "05/17/2025",
    "licenseExpirationDate": "05/16/2027",
    "dataDate": "10/18/2025",
    "capacity": 0,
    "address": "1898 N ARROWHEAD AVE",
    "city": "SAN BERNARDINO",
    "zip": "92405",
    "county": "SAN BERNARDINO",
    "phone": "(866) 935-5055",
    "lat": 34.13247099,
    "lng": -117.289939
  },
  {
    "id": "630018290",
    "name": "AZURE HEALTH CARE MANAGEMENT, INC.",
    "npi": "1235611518",
    "hcaiId": "406361640",
    "businessName": "AZURE HEALTH CARE MANAGEMENT, INC.",
    "contactEmail": "AZUREHEALTHCAREMANAGEMENT@GMAIL.COM",
    "categoryName": "HOME HEALTH AGENCY",
    "categoryCode": "HHA",
    "licenseStatus": "ACTIVE",
    "inService": true,
    "licenseNumber": "550004665",
    "licenseEffectiveDate": "04/19/2024",
    "licenseExpirationDate": "04/18/2025",
    "dataDate": "10/18/2025",
    "capacity": 0,
    "address": "2130 N ARROWHEAD AVE, SUITE 103C",
    "city": "SAN BERNARDINO",
    "zip": "92405",
    "county": "SAN BERNARDINO",
    "phone": "(818) 281-3275",
    "lat": 34.134507,
    "lng": -117.290466
  },
  {
    "id": "630018472",
    "name": "BETA HOSPICE CARE INC",
    "npi": "1063983997",
    "hcaiId": "406361930",
    "businessName": "BETA HOSPICE CARE INC",
    "contactEmail": "INFO@BETAHOSPICE.COM",
    "categoryName": "HOSPICE",
    "categoryCode": "HOSPICE",
    "licenseStatus": "ACTIVE",
    "inService": true,
    "licenseNumber": "550004949",
    "licenseEffectiveDate": "09/26/2025",
    "licenseExpirationDate": "09/25/2027",
    "dataDate": "10/18/2025",
    "capacity": 0,
    "address": "1525 N D ST, SUITE 10",
    "city": "SAN BERNARDINO",
    "zip": "92405",
    "county": "SAN BERNARDINO",
    "phone": "(909) 347-7000",
    "lat": 34.127433,
    "lng": -117.291249
  },
  {
    "id": "630011721",
    "name": "CENTRAL NEIGHBORHOOD HEALTH FOUNDATION - H STREET",
    "npi": "1841437241",
    "hcaiId": "306364382",
    "businessName": "H STREET CLINIC, INC.",
    "contactEmail": "ECOCHRAN@CNHFCLINICS.ORG",
    "categoryName": "PRIMARY CARE CLINIC",
    "categoryCode": "COMTYC",
    "licenseStatus": "ACTIVE",
    "inService": true,
    "licenseNumber": "550000837",
    "licenseEffectiveDate": "12/09/2024",
    "licenseExpirationDate": "12/08/2025",
    "dataDate": "10/18/2025",
    "capacity": 0,
    "address": "1329 N H ST",
    "city": "SAN BERNARDINO",
    "zip": "92405",
    "county": "SAN BERNARDINO",
    "phone": "(626) 488-3111",
    "lat": 34.12386,
    "lng": -117.3005235
  },
  {
    "id": "630026549",
    "name": "CENTRAL NEIGHBORHOOD HEALTH FOUNDATION MOBILE CARE CLINIC",
    "npi": "1841437241",
    "hcaiId": null,
    "businessName": "H STREET CLINIC, INC.",
    "contactEmail": null,
    "categoryName": "PRIMARY CARE CLINIC",
    "categoryCode": "COMTYC",
    "licenseStatus": "ACTIVE",
    "inService": true,
    "licenseNumber": "550000837",
    "licenseEffectiveDate": "12/09/2024",
    "licenseExpirationDate": "12/08/2025",
    "dataDate": "10/18/2025",
    "capacity": 0,
    "address": "1329 N H ST",
    "city": "SAN BERNARDINO",
    "zip": "92405",
    "county": "SAN BERNARDINO",
    "phone": null,
    "lat": 34.12386,
    "lng": -117.3005235
  },
  {
    "id": "630027251",
    "name": "CENTRAL NEIGHBORHOOD HEALTH FOUNDATION MOBILE CARE CLINIC #2",
    "npi": "1841437241",
    "hcaiId": null,
    "businessName": "H STREET CLINIC, INC.",
    "contactEmail": null,
    "categoryName": "PRIMARY CARE CLINIC",
    "categoryCode": "COMTYC",
    "licenseStatus": "ACTIVE",
    "inService": true,
    "licenseNumber": "550000837",
    "licenseEffectiveDate": "12/09/2024",
    "licenseExpirationDate": "12/08/2025",
    "dataDate": "10/18/2025",
    "capacity": 0,
    "address": "1329 N H ST",
    "city": "SAN BERNARDINO",
    "zip": "92405",
    "county": "SAN BERNARDINO",
    "phone": null,
    "lat": 34.12385498,
    "lng": -117.300531
  },
  {
    "id": "630027130",
    "name": "CENTRAL NEIGHBORHOOD HEALTH FOUNDATION MOBILE CARE CLINIC #3",
    "npi": "1841437241",
    "hcaiId": null,
    "businessName": "H STREET CLINIC, INC.",
    "contactEmail": null,
    "categoryName": "PRIMARY CARE CLINIC",
    "categoryCode": "COMTYC",
    "licenseStatus": "ACTIVE",
    "inService": true,
    "licenseNumber": "550000837",
    "licenseEffectiveDate": "12/09/2024",
    "licenseExpirationDate": "12/08/2025",
    "dataDate": "10/18/2025",
    "capacity": 0,
    "address": "1329 N H ST",
    "city": "SAN BERNARDINO",
    "zip": "92405",
    "county": "SAN BERNARDINO",
    "phone": null,
    "lat": 34.12385498,
    "lng": -117.300531
  },
  {
    "id": "630025750",
    "name": "COMPLIANCE HOME HEALTH CARE SERVICES, INC.",
    "npi": null,
    "hcaiId": "406360021",
    "businessName": "COMPLIANCE HOME HEALTH CARE SERVICES, INC.",
    "contactEmail": "COMPLIANCEHHCS@GMAIL.COM",
    "categoryName": "HOME HEALTH AGENCY",
    "categoryCode": "HHA",
    "licenseStatus": "ACTIVE",
    "inService": true,
    "licenseNumber": "550008839",
    "licenseEffectiveDate": "11/22/2024",
    "licenseExpirationDate": "11/21/2025",
    "dataDate": "10/18/2025",
    "capacity": 0,
    "address": "2130 N ARROWHEAD AVE, SUITE 202A",
    "city": "SAN BERNARDINO",
    "zip": "92405",
    "county": "SAN BERNARDINO",
    "phone": "(909) 747-9355",
    "lat": 34.13448,
    "lng": -117.290286
  },
  {
    "id": "630025993",
    "name": "HEALTH CARE PROVIDER SERVICES, INC.",
    "npi": null,
    "hcaiId": null,
    "businessName": "HEALTH CARE PROVIDER SERVICES, INC.",
    "contactEmail": "HEALTHCAREPROVIDERSERVICESINC@GMAIL.COM",
    "categoryName": "HOME HEALTH AGENCY",
    "categoryCode": "HHA",
    "licenseStatus": "ACTIVE",
    "inService": true,
    "licenseNumber": "550009313",
    "licenseEffectiveDate": "08/15/2024",
    "licenseExpirationDate": "02/14/2025",
    "dataDate": "10/18/2025",
    "capacity": 0,
    "address": "2130 N ARROWHEAD AVE, SUITE 205 A",
    "city": "SAN BERNARDINO",
    "zip": "92405",
    "county": "SAN BERNARDINO",
    "phone": "(818) 336-0172",
    "lat": 34.13448,
    "lng": -117.290286
  },
  {
    "id": "630018279",
    "name": "RDA HOME HEALTH SERVICES, INC.",
    "npi": "1376025650",
    "hcaiId": "406361903",
    "businessName": "RDA HOME HEALTH SERVICES, INC.",
    "contactEmail": "RDAHOMEHEALTHSERVICES@GMAIL.COM",
    "categoryName": "HOME HEALTH AGENCY",
    "categoryCode": "HHA",
    "licenseStatus": "ACTIVE",
    "inService": true,
    "licenseNumber": "550004891",
    "licenseEffectiveDate": "08/22/2025",
    "licenseExpirationDate": "08/21/2026",
    "dataDate": "10/18/2025",
    "capacity": 0,
    "address": "2130 N ARROWHEAD AVE, SUITE 202 B&D",
    "city": "SAN BERNARDINO",
    "zip": "92405",
    "county": "SAN BERNARDINO",
    "phone": "(661) 426-3140",
    "lat": 34.134507,
    "lng": -117.290466
  },
  {
    "id": "630012008",
    "name": "TEAM NURSES HOME HEALTH SERVICES, INC.",
    "npi": "1932351475",
    "hcaiId": "406364403",
    "businessName": "TEAM NURSES HOME HEALTH SERVICES, INC.",
    "contactEmail": "TEAMNURSESHH@YAHOO.COM",
    "categoryName": "HOME HEALTH AGENCY",
    "categoryCode": "HHA",
    "licenseStatus": "ACTIVE",
    "inService": true,
    "licenseNumber": "550001246",
    "licenseEffectiveDate": "03/05/2025",
    "licenseExpirationDate": "03/04/2026",
    "dataDate": "10/18/2025",
    "capacity": 0,
    "address": "1815 N D ST",
    "city": "SAN BERNARDINO",
    "zip": "92405",
    "county": "SAN BERNARDINO",
    "phone": "(951) 897-8002",
    "lat": 34.13168899,
    "lng": -117.2918531
  },
  {
    "id": "630028548",
    "name": "UMMA HEALTH AL SHIFA CLINIC",
    "npi": null,
    "hcaiId": null,
    "businessName": "UNIVERSITY MUSLIM MEDICAL ASSOCIATION, INC.",
    "contactEmail": null,
    "categoryName": "PRIMARY CARE CLINIC",
    "categoryCode": "COMTYC",
    "licenseStatus": "ACTIVE",
    "inService": true,
    "licenseNumber": "550002630",
    "licenseEffectiveDate": "08/11/2025",
    "licenseExpirationDate": "04/14/2026",
    "dataDate": "10/18/2025",
    "capacity": 0,
    "address": "2334 N SIERRA WAY",
    "city": "SAN BERNARDINO",
    "zip": "92405",
    "county": "SAN BERNARDINO",
    "phone": null,
    "lat": 34.137378,
    "lng": -117.285417
  }
]