[
  {
    "id": "630020229",
    "name": "7 STAR HOSPICE CARE INC",
    "npi": null,
    "hcaiId": "406363888",
    "businessName": "7 STAR HOSPICE CARE INC",
    "contactEmail": "7STARHOSPICECARE@GMAIL.COM",
    "categoryName": "HOSPICE",
    "categoryCode": "HOSPICE",
    "licenseStatus": "ACTIVE",
    "inService": true,
    "licenseNumber": "550007332",
    "licenseEffectiveDate": "10/08/2023",
    "licenseExpirationDate": "10/07/2025",
    "dataDate": "10/18/2025",
    "capacity": 0,
    "address": "1264 S WATERMAN AVE, SUITE 47",
    "city": "SAN BERNARDINO",
    "zip": "92408",
    "county": "SAN BERNARDINO",
    "phone": "(909) 500-9740",
    "lat": 34.078482,
    "lng": -117.2788459
  },
  {
    "id": "630027168",
    "name": "ADDAS HOME HEALTH AGENCY",
    "npi": null,
    "hcaiId": null,
    "businessName": "ADDAS HOME HEALTH AGENCY",
    "contactEmail": "ADDASHOMEHEALTH@GMAIL.COM",
    "categoryName": "HOME HEALTH AGENCY",
    "categoryCode": "HHA",
    "licenseStatus": "ACTIVE",
    "inService": true,
    "licenseNumber": "550009617",
    "licenseEffectiveDate": "01/06/2025",
    "licenseExpirationDate": "07/05/2025",
    "dataDate": "10/18/2025",
    "capacity": 0,
    "address": "1881 COMMERCENTER E, SUITE 218",
    "city": "SAN BERNARDINO",
    "zip": "92408",
    "county": "SAN BERNARDINO",
    "phone": "(909) 637-2233",
    "lat": 34.067699,
    "lng": -117.282007
  },
  {
    "id": "630012499",
    "name": "ALL AMERICANS CHOICE HOME HEALTH, INC.",
    "npi": "1306075775",
    "hcaiId": "406364408",
    "businessName": "ALL AMERICANS CHOICE HOME HEALTH, INC.",
    "contactEmail": "AMERHHC@GMAIL.COM",
    "categoryName": "HOME HEALTH AGENCY",
    "categoryCode": "HHA",
    "licenseStatus": "ACTIVE",
    "inService": true,
    "licenseNumber": "550001304",
    "licenseEffectiveDate": "06/03/2025",
    "licenseExpirationDate": "06/02/2026",
    "dataDate": "10/18/2025",
    "capacity": 0,
    "address": "2619 S WATERMAN AVE, SUITE C",
    "city": "SAN BERNARDINO",
    "zip": "92408",
    "county": "SAN BERNARDINO",
    "phone": "(909) 420-9277",
    "lat": 34.053723,
    "lng": -117.2782395
  },
  {
    "id": "630020562",
    "name": "ALL LIVES MATTER HOSPICE",
    "npi": "1730798836",
    "hcaiId": "406193243",
    "businessName": "ALL LIVES MATTER HOSPICE",
    "contactEmail": "ALMHOSPICEINC1@GMAIL.COM",
    "categoryName": "HOSPICE",
    "categoryCode": "HOSPICE",
    "licenseStatus": "ACTIVE",
    "inService": true,
    "licenseNumber": "550006638",
    "licenseEffectiveDate": "07/27/2025",
    "licenseExpirationDate": "07/26/2027",
    "dataDate": "10/18/2025",
    "capacity": 0,
    "address": "1254 S WATERMAN AVE, SUITE 45",
    "city": "SAN BERNARDINO",
    "zip": "92408",
    "county": "SAN BERNARDINO",
    "phone": "(909) 521-7555",
    "lat": 34.07877,
    "lng": -117.279891
  },
  {
    "id": "630027055",
    "name": "ALLEVIANT CARE HOME HEALTH, INC.",
    "npi": null,
    "hcaiId": null,
    "businessName": "ALLEVIANT CARE HOME HEALTH, INC.",
    "contactEmail": "ALLEVIANTCAREHHA@GMAIL.COM",
    "categoryName": "HOME HEALTH AGENCY",
    "categoryCode": "HHA",
    "licenseStatus": "ACTIVE",
    "inService": true,
    "licenseNumber": "550009435",
    "licenseEffectiveDate": "04/11/2025",
    "licenseExpirationDate": "10/10/2025",
    "dataDate": "10/18/2025",
    "capacity": 0,
    "address": "435 ORANGE SHOW LN, SUITE 207",
    "city": "SAN BERNARDINO",
    "zip": "92408",
    "county": "SAN BERNARDINO",
    "phone": "(760) 298-0627",
    "lat": 34.080804,
    "lng": -117.292194
  },
  {
    "id": "630018265",
    "name": "ALLY HOSPICE",
    "npi": "1346764776",
    "hcaiId": "406361920",
    "businessName": "ALLY HOSPICE CORPORATION",
    "contactEmail": "ADMIN@ALLYHOSPICE.COM",
    "categoryName": "HOSPICE",
    "categoryCode": "HOSPICE",
    "licenseStatus": "ACTIVE",
    "inService": true,
    "licenseNumber": "550004965",
    "licenseEffectiveDate": "09/16/2025",
    "licenseExpirationDate": "09/15/2027",
    "dataDate": "10/18/2025",
    "capacity": 0,
    "address": "202 E AIRPORT DR, SUITE 240",
    "city": "SAN BERNARDINO",
    "zip": "92408",
    "county": "SAN BERNARDINO",
    "phone": "(909) 381-4400",
    "lat": 34.0677,
    "lng": -117.283707
  },
  {
    "id": "630021225",
    "name": "AMAYA HOSPICE, INC.",
    "npi": null,
    "hcaiId": "406363301",
    "businessName": "AMAYA HOSPICE, INC.",
    "contactEmail": "AMAYAHOSPICE@GMAIL.COM",
    "categoryName": "HOSPICE",
    "categoryCode": "HOSPICE",
    "licenseStatus": "ACTIVE",
    "inService": true,
    "licenseNumber": "550007158",
    "licenseEffectiveDate": "10/21/2025",
    "licenseExpirationDate": "10/20/2027",
    "dataDate": "10/18/2025",
    "capacity": 0,
    "address": "435 ORANGE SHOW LN, SUITE 106",
    "city": "SAN BERNARDINO",
    "zip": "92408",
    "county": "SAN BERNARDINO",
    "phone": "(909) 677-2285",
    "lat": 34.080885,
    "lng": -117.2922165
  },
  {
    "id": "080001755",
    "name": "ASCEND HOSPICE",
    "npi": "1437267309",
    "hcaiId": "406334591",
    "businessName": "CARE ALTERNATIVES OF CALIFORNIA, LLC",
    "contactEmail": "TERRI.WALTERS@ASCENDHEALTH.COM",
    "categoryName": "HOSPICE",
    "categoryCode": "HOSPICE",
    "licenseStatus": "ACTIVE",
    "inService": true,
    "licenseNumber": "080000789",
    "licenseEffectiveDate": "05/12/2022",
    "licenseExpirationDate": "05/11/2024",
    "dataDate": "10/18/2025",
    "capacity": 0,
    "address": "650 E HOSPITALITY LN, SUITE 460",
    "city": "SAN BERNARDINO",
    "zip": "92408",
    "county": "SAN BERNARDINO",
    "phone": "(951) 353-8006",
    "lat": 34.067178,
    "lng": -117.2715975
  },
  {
    "id": "630021847",
    "name": "AURORA SPRING HOSPICE CARE, INC.",
    "npi": null,
    "hcaiId": "406364805",
    "businessName": "AURORA SPRING HOSPICE CARE, INC.",
    "contactEmail": "AURORASPRINGHCI@GMAIL.COM",
    "categoryName": "HOSPICE",
    "categoryCode": "HOSPICE",
    "licenseStatus": "ACTIVE",
    "inService": true,
    "licenseNumber": "550007441",
    "licenseEffectiveDate": "12/04/2023",
    "licenseExpirationDate": "12/03/2025",
    "dataDate": "10/18/2025",
    "capacity": 0,
    "address": "435 ORANGE SHOW LN, SUITE 205",
    "city": "SAN BERNARDINO",
    "zip": "92408",
    "county": "SAN BERNARDINO",
    "phone": "(909) 571-5761",
    "lat": 34.080804,
    "lng": -117.292194
  },
  {
    "id": "630012180",
    "name": "AVEANNA HEALTHCARE",
    "npi": "1902035876",
    "hcaiId": "406364410",
    "businessName": "PREMIER HEALTHCARE SERVICES, LLC",
    "contactEmail": "SARABETH.HENDERSON@AVEANNA.COM",
    "categoryName": "HOME HEALTH AGENCY",
    "categoryCode": "HHA",
    "licenseStatus": "ACTIVE",
    "inService": true,
    "licenseNumber": "550001286",
    "licenseEffectiveDate": "05/10/2025",
    "licenseExpirationDate": "05/09/2026",
    "dataDate": "10/18/2025",
    "capacity": 0,
    "address": "650 E HOSPITALITY LN, SUITE 100",
    "city": "SAN BERNARDINO",
    "zip": "92408",
    "county": "SAN BERNARDINO",
    "phone": "(909) 890-0448",
    "lat": 34.067169,
    "lng": -117.271611
  },
  {
    "id": "630023741",
    "name": "BEST LIFE HOME HEALTH, INC.",
    "npi": null,
    "hcaiId": "406365842",
    "businessName": "BEST LIFE HOME HEALTH, INC.",
    "contactEmail": "BESTLIFEHHCARE@YAHOO.COM",
    "categoryName": "HOME HEALTH AGENCY",
    "categoryCode": "HHA",
    "licenseStatus": "ACTIVE",
    "inService": true,
    "licenseNumber": "550007989",
    "licenseEffectiveDate": "11/13/2022",
    "licenseExpirationDate": "05/12/2023",
    "dataDate": "10/18/2025",
    "capacity": 0,
    "address": "1264 S WATERMAN AVE, SUITE 55",
    "city": "SAN BERNARDINO",
    "zip": "92408",
    "county": "SAN BERNARDINO",
    "phone": "(805) 500-0038",
    "lat": 34.078482,
    "lng": -117.2788459
  },
  {
    "id": "630015893",
    "name": "BLESSED HOPE HOSPICE, INC.",
    "npi": null,
    "hcaiId": "406364598",
    "businessName": "BLESSED HOPE HOSPICE, INC.",
    "contactEmail": "BLESSEDHOPEHOSPICE@GMAIL.COM",
    "categoryName": "HOSPICE",
    "categoryCode": "HOSPICE",
    "licenseStatus": "ACTIVE",
    "inService": true,
    "licenseNumber": "550003300",
    "licenseEffectiveDate": "11/24/2023",
    "licenseExpirationDate": "11/23/2025",
    "dataDate": "10/18/2025",
    "capacity": 0,
    "address": "2619 S. WATERMAN AVE STE D",
    "city": "SAN BERNARDINO",
    "zip": "92408",
    "county": "SAN BERNARDINO",
    "phone": "(909) 824-2316",
    "lat": 34.053723,
    "lng": -117.2782395
  },
  {
    "id": "630020252",
    "name": "BRIGHT HORIZON HOSPICE CORPORATION",
    "npi": null,
    "hcaiId": "406366234",
    "businessName": "BRIGHT HORIZON HOSPICE CORPORATION",
    "contactEmail": "BHHC304@GMAIL.COM",
    "categoryName": "HOSPICE",
    "categoryCode": "HOSPICE",
    "licenseStatus": "ACTIVE",
    "inService": true,
    "licenseNumber": "550006384",
    "licenseEffectiveDate": "06/10/2025",
    "licenseExpirationDate": "06/09/2027",
    "dataDate": "10/18/2025",
    "capacity": 0,
    "address": "225 W HOSPITALITY LN, SUITE 304",
    "city": "SAN BERNARDINO",
    "zip": "92408",
    "county": "SAN BERNARDINO",
    "phone": "(909) 763-2585",
    "lat": 34.06527,
    "lng": -117.2884995
  },
  {
    "id": "630012379",
    "name": "CAVALRY HOME HEALTH CARE INC.",
    "npi": null,
    "hcaiId": "406364397",
    "businessName": "CAVALRY HOME HEALTH CARE, INC.",
    "contactEmail": "CAVALRYHH2009@YAHOO.COM",
    "categoryName": "HOME HEALTH AGENCY",
    "categoryCode": "HHA",
    "licenseStatus": "ACTIVE",
    "inService": true,
    "licenseNumber": "550001144",
    "licenseEffectiveDate": "06/03/2024",
    "licenseExpirationDate": "06/02/2025",
    "dataDate": "10/18/2025",
    "capacity": 0,
    "address": "225 W. HOSPITALITY LANE, SUITE 305",
    "city": "SAN BERNARDINO",
    "zip": "92408",
    "county": "SAN BERNARDINO",
    "phone": "(626) 473-0395",
    "lat": 34.06527,
    "lng": -117.2884995
  },
  {
    "id": "630000061",
    "name": "CITRUS VALLEY DIALYSIS",
    "npi": "1043271489",
    "hcaiId": "306364308",
    "businessName": "RENAL TREATMENT CENTERS - CALIFORNIA, INC.",
    "contactEmail": "CAL_C@DAVITA.COM",
    "categoryName": "CHRONIC DIALYSIS CLINIC",
    "categoryCode": "ESRD/CDC",
    "licenseStatus": "ACTIVE",
    "inService": true,
    "licenseNumber": "550000010",
    "licenseEffectiveDate": "01/14/2025",
    "licenseExpirationDate": "01/13/2026",
    "dataDate": "10/18/2025",
    "capacity": 20,
    "address": "894 HARDT ST",
    "city": "SAN BERNARDINO",
    "zip": "92408",
    "county": "SAN BERNARDINO",
    "phone": "(909) 388-6608",
    "lat": 34.072956,
    "lng": -117.2668185
  },
  {
    "id": "630019667",
    "name": "DEL ROSA HOSPICE II",
    "npi": "1104465046",
    "hcaiId": "406364772",
    "businessName": "TOGETHERNESS HOSPICE CARE",
    "contactEmail": "JOELCANDIDO@DELROSAHOSPICE.COM",
    "categoryName": "HOSPICE",
    "categoryCode": "HOSPICE",
    "licenseStatus": "ACTIVE",
    "inService": true,
    "licenseNumber": "550006108",
    "licenseEffectiveDate": "03/08/2025",
    "licenseExpirationDate": "03/07/2027",
    "dataDate": "10/18/2025",
    "capacity": 0,
    "address": "275 W HOSPITALITY LN, SUITE 325",
    "city": "SAN BERNARDINO",
    "zip": "92408",
    "county": "SAN BERNARDINO",
    "phone": "(909) 313-5225",
    "lat": 34.06532298,
    "lng": -117.289213
  },
  {
    "id": "630026344",
    "name": "ELITE HOME HEALTH CARE",
    "npi": null,
    "hcaiId": null,
    "businessName": "ELITE HEALTH CARE OPTIONS, LLC",
    "contactEmail": "BUTLERMAKEDA@YAHOO.COM",
    "categoryName": "HOME HEALTH AGENCY",
    "categoryCode": "HHA",
    "licenseStatus": "ACTIVE",
    "inService": true,
    "licenseNumber": "550009829",
    "licenseEffectiveDate": "05/19/2025",
    "licenseExpirationDate": "11/18/2025",
    "dataDate": "10/18/2025",
    "capacity": 0,
    "address": "1906 S COMMERCENTER DR E, SUITE 202",
    "city": "SAN BERNARDINO",
    "zip": "92408",
    "county": "SAN BERNARDINO",
    "phone": "(909) 567-2097",
    "lat": 34.06659746,
    "lng": -117.2823412
  },
  {
    "id": "240001863",
    "name": "FMC DIALYSIS SERVICES OF SAN BERNARDINO",
    "npi": "1700998507",
    "hcaiId": "306364258",
    "businessName": "BIO-MEDICAL APPLICATIONS OF CALIFORNIA, INC.",
    "contactEmail": "CLINIC2724@FMC-NA.COM",
    "categoryName": "CHRONIC DIALYSIS CLINIC",
    "categoryCode": "ESRD/CDC",
    "licenseStatus": "ACTIVE",
    "inService": true,
    "licenseNumber": "240000835",
    "licenseEffectiveDate": "12/04/2024",
    "licenseExpirationDate": "12/03/2025",
    "dataDate": "10/18/2025",
    "capacity": 21,
    "address": "636 E BRIER DR, SUITE 150",
    "city": "SAN BERNARDINO",
    "zip": "92408",
    "county": "SAN BERNARDINO",
    "phone": "(909) 890-9508",
    "lat": 34.070292,
    "lng": -117.2722365
  },
  {
    "id": "630011867",
    "name": "FRESENIUS MEDICAL CARE OF LOMA LINDA",
    "npi": "1891979332",
    "hcaiId": "306364392",
    "businessName": "BIO-MEDICAL APPLICATIONS OF CALIFORNIA, INC.",
    "contactEmail": "CLINIC6132@FMC-NA.COM",
    "categoryName": "CHRONIC DIALYSIS CLINIC",
    "categoryCode": "ESRD/CDC",
    "licenseStatus": "ACTIVE",
    "inService": true,
    "licenseNumber": "550000894",
    "licenseEffectiveDate": "12/10/2024",
    "licenseExpirationDate": "12/09/2025",
    "dataDate": "10/18/2025",
    "capacity": 24,
    "address": "269 E CAROLINE ST, SUITE A",
    "city": "SAN BERNARDINO",
    "zip": "92408",
    "county": "SAN BERNARDINO",
    "phone": "(909) 514-1008",
    "lat": 34.06139399,
    "lng": -117.2797928
  },
  {
    "id": "630027797",
    "name": "GENERATION HOME HEALTH CARE",
    "npi": null,
    "hcaiId": null,
    "businessName": "GENERATION HOME HEALTH CARE",
    "contactEmail": "GENERATIONHOMEHEALTHCARE1@GMAIL.COM",
    "categoryName": "HOME HEALTH AGENCY",
    "categoryCode": "HHA",
    "licenseStatus": "ACTIVE",
    "inService": true,
    "licenseNumber": "550009783",
    "licenseEffectiveDate": "10/07/2025",
    "licenseExpirationDate": "04/06/2026",
    "dataDate": "10/18/2025",
    "capacity": 0,
    "address": "1264 S WATERMAN AVE, SUITE 35",
    "city": "SAN BERNARDINO",
    "zip": "92408",
    "county": "SAN BERNARDINO",
    "phone": "(909) 748-6872",
    "lat": 34.0783767,
    "lng": -117.2788647
  },
  {
    "id": "080001656",
    "name": "GENTIVA",
    "npi": "1053312033",
    "hcaiId": "406364254",
    "businessName": "ODYSSEY HEALTHCARE OPERATING A, L.P.",
    "contactEmail": "MARIO.MORALES@GENTIVAHS.COM",
    "categoryName": "HOSPICE",
    "categoryCode": "HOSPICE",
    "licenseStatus": "ACTIVE",
    "inService": true,
    "licenseNumber": "080000736",
    "licenseEffectiveDate": "11/05/2023",
    "licenseExpirationDate": "11/04/2025",
    "dataDate": "10/18/2025",
    "capacity": 0,
    "address": "735 CARNEGIE DR, SUITE 240",
    "city": "SAN BERNARDINO",
    "zip": "92408",
    "county": "SAN BERNARDINO",
    "phone": "(909) 888-5000",
    "lat": 34.068168,
    "lng": -117.2694195
  },
  {
    "id": "630021737",
    "name": "HEAVENLY ANGEL HOSPICE INC",
    "npi": null,
    "hcaiId": "406365147",
    "businessName": "HEAVENLY ANGEL HOSPICE INC",
    "contactEmail": "HEAVENLYANGELHOSPICE@GMAIL.COM",
    "categoryName": "HOSPICE",
    "categoryCode": "HOSPICE",
    "licenseStatus": "ACTIVE",
    "inService": true,
    "licenseNumber": "550007501",
    "licenseEffectiveDate": "12/04/2023",
    "licenseExpirationDate": "12/03/2025",
    "dataDate": "10/18/2025",
    "capacity": 0,
    "address": "202 E AIRPORT DR, SUITE 158",
    "city": "SAN BERNARDINO",
    "zip": "92408",
    "county": "SAN BERNARDINO",
    "phone": "(909) 571-5949",
    "lat": 34.067682,
    "lng": -117.283644
  },
  {
    "id": "630027021",
    "name": "HELPING HANDS HOME HEALTH CARE",
    "npi": null,
    "hcaiId": null,
    "businessName": "HELPING HANDS HOME HEALTH CARE",
    "contactEmail": "HELPINGHANDSHOMECARESOLUTIONS@GMAIL.COM",
    "categoryName": "HOME HEALTH AGENCY",
    "categoryCode": "HHA",
    "licenseStatus": "ACTIVE",
    "inService": true,
    "licenseNumber": "550009975",
    "licenseEffectiveDate": "08/22/2025",
    "licenseExpirationDate": "02/21/2026",
    "dataDate": "10/18/2025",
    "capacity": 0,
    "address": "1264 S WATERMAN AVE, SUITE 25",
    "city": "SAN BERNARDINO",
    "zip": "92408",
    "county": "SAN BERNARDINO",
    "phone": "(909) 332-7503",
    "lat": 34.078482,
    "lng": -117.2788459
  },
  {
    "id": "630019898",
    "name": "INFINITE HOPE HOSPICE CORP",
    "npi": "1922648104",
    "hcaiId": "406366233",
    "businessName": "INFINITE HOPE HOSPICE CORP",
    "contactEmail": "INFINITEHOPE304@GMAIL.COM",
    "categoryName": "HOSPICE",
    "categoryCode": "HOSPICE",
    "licenseStatus": "ACTIVE",
    "inService": true,
    "licenseNumber": "550005869",
    "licenseEffectiveDate": "11/18/2022",
    "licenseExpirationDate": "11/17/2024",
    "dataDate": "10/18/2025",
    "capacity": 0,
    "address": "225 W HOSPITALITY LN, SUITE 305",
    "city": "SAN BERNARDINO",
    "zip": "92408",
    "county": "SAN BERNARDINO",
    "phone": "(909) 567-2547",
    "lat": 34.06527,
    "lng": -117.2884995
  },
  {
    "id": "630025921",
    "name": "LIFE CARE HOME HEALTH",
    "npi": null,
    "hcaiId": null,
    "businessName": "LIFE CARE HOME HEALTH",
    "contactEmail": "LIFECAREHOMEH@GMAIL.COM",
    "categoryName": "HOME HEALTH AGENCY",
    "categoryCode": "HHA",
    "licenseStatus": "ACTIVE",
    "inService": true,
    "licenseNumber": "550009509",
    "licenseEffectiveDate": "07/29/2025",
    "licenseExpirationDate": "07/28/2026",
    "dataDate": "10/18/2025",
    "capacity": 0,
    "address": "1264 S WATERMAN AVE, SUITE 28",
    "city": "SAN BERNARDINO",
    "zip": "92408",
    "county": "SAN BERNARDINO",
    "phone": "(909) 332-7713",
    "lat": 34.078482,
    "lng": -117.2788459
  },
  {
    "id": "240001722",
    "name": "LIFE CHOICE PREGNANCY CENTER",
    "npi": null,
    "hcaiId": "306364311",
    "businessName": "MOUNTAIN RIGHT TO LIFE INC",
    "contactEmail": "KJONES@LIFECHOICEPC.COM",
    "categoryName": "PRIMARY CARE CLINIC",
    "categoryCode": "COMTYC",
    "licenseStatus": "ACTIVE",
    "inService": true,
    "licenseNumber": "240000750",
    "licenseEffectiveDate": "11/05/2024",
    "licenseExpirationDate": "11/04/2025",
    "dataDate": "10/18/2025",
    "capacity": 0,
    "address": "114 E AIRPORT DR, SUITE S103-S104",
    "city": "SAN BERNARDINO",
    "zip": "92408",
    "county": "SAN BERNARDINO",
    "phone": "(909) 382-4550",
    "lat": 34.067412,
    "lng": -117.285588
  },
  {
    "id": "630019450",
    "name": "LSZ HOME HEALTH CARE INC",
    "npi": null,
    "hcaiId": "406362872",
    "businessName": "LSZ HOME HEALTH CARE INC",
    "contactEmail": "LSZHOMEHEALTHCARE@GMAIL.COM",
    "categoryName": "HOME HEALTH AGENCY",
    "categoryCode": "HHA",
    "licenseStatus": "ACTIVE",
    "inService": true,
    "licenseNumber": "550005721",
    "licenseEffectiveDate": "08/24/2025",
    "licenseExpirationDate": "08/23/2026",
    "dataDate": "10/18/2025",
    "capacity": 0,
    "address": "1254 S WATERMAN AVE, SUITE 55",
    "city": "SAN BERNARDINO",
    "zip": "92408",
    "county": "SAN BERNARDINO",
    "phone": "(760) 292-2175",
    "lat": 34.07877,
    "lng": -117.279891
  },
  {
    "id": "630016377",
    "name": "MAIN HOSPICE AND PALLIATIVE CARE, INC.",
    "npi": "1083084511",
    "hcaiId": "406361289",
    "businessName": "MAIN HOSPICE AND PALLIATIVE CARE, INC.",
    "contactEmail": "BJLANGLEY@HOTMAIL.COM",
    "categoryName": "HOSPICE",
    "categoryCode": "HOSPICE",
    "licenseStatus": "ACTIVE",
    "inService": true,
    "licenseNumber": "550003608",
    "licenseEffectiveDate": "07/05/2024",
    "licenseExpirationDate": "07/04/2026",
    "dataDate": "10/18/2025",
    "capacity": 0,
    "address": "1918 BUSINESS CENTER DRIVE, SUITE 211",
    "city": "SAN BERNARDINO",
    "zip": "92408",
    "county": "SAN BERNARDINO",
    "phone": "(951) 314-2410",
    "lat": 34.066962,
    "lng": -117.2805615
  },
  {
    "id": "240001220",
    "name": "MAXIM HEALTHCARE SERVICES INC.",
    "npi": "1063520286",
    "hcaiId": "406364152",
    "businessName": "MAXIM HEALTHCARE SERVICES, INC.",
    "contactEmail": "SANBERNARDINOOFFICE@MAXHEALTH.COM",
    "categoryName": "HOME HEALTH AGENCY",
    "categoryCode": "HHA",
    "licenseStatus": "ACTIVE",
    "inService": true,
    "licenseNumber": "240000503",
    "licenseEffectiveDate": "05/15/2025",
    "licenseExpirationDate": "05/14/2026",
    "dataDate": "10/18/2025",
    "capacity": 0,
    "address": "560 E HOSPITALITY LN, SUITE 400",
    "city": "SAN BERNARDINO",
    "zip": "92408",
    "county": "SAN BERNARDINO",
    "phone": "(909) 824-5800",
    "lat": 34.067835,
    "lng": -117.273267
  },
  {
    "id": "240001766",
    "name": "PLANNED PARENTHOOD/ORANGE & SAN BERNARDINO CO. INC",
    "npi": null,
    "hcaiId": "306364243",
    "businessName": "PLANNED PARENTHOOD/ORANGE & SAN BERNARDINO CO.,INC",
    "contactEmail": "SAMANTHA.ORTEGA@PPOSBC.ORG",
    "categoryName": "PRIMARY CARE CLINIC",
    "categoryCode": "COMTYC",
    "licenseStatus": "ACTIVE",
    "inService": true,
    "licenseNumber": "240000770",
    "licenseEffectiveDate": "11/24/2025",
    "licenseExpirationDate": "11/23/2026",
    "dataDate": "10/18/2025",
    "capacity": 0,
    "address": "1873 COMMERCENTER W",
    "city": "SAN BERNARDINO",
    "zip": "92408",
    "county": "SAN BERNARDINO",
    "phone": "(909) 890-5511",
    "lat": 34.067826,
    "lng": -117.285588
  },
  {
    "id": "240001849",
    "name": "PREMIER OUTPATIENT SURGERY CENTER",
    "npi": "1033114764",
    "hcaiId": "306364253",
    "businessName": "PREMIER OUTPATIENT SURGERY CENTER, INC.",
    "contactEmail": "PREMIERSURGERY@SBCGLOBAL.NET",
    "categoryName": "SURGICAL CLINIC",
    "categoryCode": "ASC",
    "licenseStatus": "INACTIVE - CAPEN DECISION",
    "inService": false,
    "licenseNumber": "240000827",
    "licenseEffectiveDate": "11/14/2008",
    "licenseExpirationDate": "11/13/2009",
    "dataDate": "10/18/2025",
    "capacity": 0,
    "address": "1003 E BRIER DR, SUITE 170",
    "city": "SAN BERNARDINO",
    "zip": "92408",
    "county": "SAN BERNARDINO",
    "phone": "(909) 370-2190",
    "lat": 34.07032098,
    "lng": -117.26406
  },
  {
    "id": "630021073",
    "name": "ROZE ROOM HEALTHCARE",
    "npi": "1699382267",
    "hcaiId": "406363637",
    "businessName": "JUNO HEALTHCARE, INC",
    "contactEmail": "JOSEFA@ROZEROOMHOSPICE.ORG",
    "categoryName": "HOSPICE",
    "categoryCode": "HOSPICE",
    "licenseStatus": "ACTIVE",
    "inService": true,
    "licenseNumber": "550006480",
    "licenseEffectiveDate": "06/23/2025",
    "licenseExpirationDate": "06/22/2027",
    "dataDate": "10/18/2025",
    "capacity": 0,
    "address": "621 E CARNEGIE DR, SUITE 190",
    "city": "SAN BERNARDINO",
    "zip": "92408",
    "county": "SAN BERNARDINO",
    "phone": "(877) 783-0072",
    "lat": 34.0695184,
    "lng": -117.2716773
  },
  {
    "id": "630028132",
    "name": "SAC BRIER",
    "npi": null,
    "hcaiId": null,
    "businessName": "SAC HEALTH SYSTEM",
    "contactEmail": "MWESTERBERG@SACHEALTH.ORG",
    "categoryName": "PRIMARY CARE CLINIC",
    "categoryCode": "FQHC/COMTYC",
    "licenseStatus": "ACTIVE",
    "inService": true,
    "licenseNumber": "550009780",
    "licenseEffectiveDate": "05/05/2025",
    "licenseExpirationDate": "05/04/2026",
    "dataDate": "10/18/2025",
    "capacity": 0,
    "address": "1003 E BRIER DR",
    "city": "SAN BERNARDINO",
    "zip": "92408",
    "county": "SAN BERNARDINO",
    "phone": "(909) 838-5889",
    "lat": 34.0703212,
    "lng": -117.2666472
  },
  {
    "id": "240001541",
    "name": "SAC HEALTH SYSTEM NORTON",
    "npi": null,
    "hcaiId": "306364196",
    "businessName": "SAC HEALTH SYSTEM",
    "contactEmail": "JLOHR@SACHEALTH.ORG",
    "categoryName": "PRIMARY CARE CLINIC",
    "categoryCode": "COMTYC",
    "licenseStatus": "ACTIVE",
    "inService": true,
    "licenseNumber": "240000666",
    "licenseEffectiveDate": "11/20/2024",
    "licenseExpirationDate": "11/19/2025",
    "dataDate": "10/18/2025",
    "capacity": 0,
    "address": "1454 E 2ND ST",
    "city": "SAN BERNARDINO",
    "zip": "92408",
    "county": "SAN BERNARDINO",
    "phone": "(909) 382-7100",
    "lat": 34.10360705,
    "lng": -117.2563725
  },
  {
    "id": "060001993",
    "name": "SAN BERNARDINO ADULT DAY HEALTH CARE CENTER",
    "npi": null,
    "hcaiId": null,
    "businessName": "CATLEYA HEALTH SERVICES, INC.",
    "contactEmail": "CATLEYAADHC@SISNA.COM",
    "categoryName": "ADULT DAY HEALTH CARE",
    "categoryCode": "ADHC",
    "licenseStatus": "ACTIVE",
    "inService": true,
    "licenseNumber": "060000789",
    "licenseEffectiveDate": "11/29/2024",
    "licenseExpirationDate": "11/28/2025",
    "dataDate": "10/18/2025",
    "capacity": 0,
    "address": "1102 S ARROWHEAD AVE",
    "city": "SAN BERNARDINO",
    "zip": "92408",
    "county": "SAN BERNARDINO",
    "phone": "(909) 381-9952",
    "lat": 34.081344,
    "lng": -117.2899485
  },
  {
    "id": "630015150",
    "name": "SAN BERNARDINO HOME TRAINING",
    "npi": "1306267364",
    "hcaiId": null,
    "businessName": null,
    "contactEmail": "CYNTHIA.HUTCHISON@DAVIA.COM",
    "categoryName": "CHRONIC DIALYSIS CLINIC",
    "categoryCode": "ESRD",
    "licenseStatus": null,
    "inService": null,
    "licenseNumber": null,
    "licenseEffectiveDate": null,
    "licenseExpirationDate": null,
    "dataDate": "10/18/2025",
    "capacity": 0,
    "address": "966 E HOSPITALITY LN",
    "city": "SAN BERNARDINO",
    "zip": "92408",
    "county": "SAN BERNARDINO",
    "phone": "(909) 796-8421",
    "lat": 34.069527,
    "lng": -117.2649375
  },
  {
    "id": "630020909",
    "name": "VICTORY CARE HOSPICE",
    "npi": "1962012401",
    "hcaiId": "406364870",
    "businessName": "VICTORY CARE HOSPICE",
    "contactEmail": "VICTORYCAREHOSPICE@GMAIL.COM",
    "categoryName": "HOSPICE",
    "categoryCode": "HOSPICE",
    "licenseStatus": "ACTIVE",
    "inService": true,
    "licenseNumber": "550006877",
    "licenseEffectiveDate": "09/20/2023",
    "licenseExpirationDate": "09/19/2025",
    "dataDate": "10/18/2025",
    "capacity": 0,
    "address": "1254 S WATERMAN AVE, SUITE 54",
    "city": "SAN BERNARDINO",
    "zip": "92408",
    "county": "SAN BERNARDINO",
    "phone": "(909) 521-7988",
    "lat": 34.07877,
    "lng": -117.279891
  }
]