[
  {
    "id": "240001218",
    "name": "BALLARD REHABILITATION HOSPITAL",
    "npi": "1497748081",
    "hcaiId": "106364121",
    "businessName": "VIBRA HOSPITAL OF SAN BERNARDINO, LLC",
    "contactEmail": "TFUENTES@BALLARDREHAB.COM",
    "categoryName": "GENERAL ACUTE CARE HOSPITAL",
    "categoryCode": "GACH",
    "licenseStatus": "ACTIVE",
    "inService": true,
    "licenseNumber": "240000502",
    "licenseEffectiveDate": "11/01/2024",
    "licenseExpirationDate": "10/31/2025",
    "dataDate": "10/18/2025",
    "capacity": 60,
    "address": "1760 W 16TH ST",
    "city": "SAN BERNARDINO",
    "zip": "92411",
    "county": "SAN BERNARDINO",
    "phone": "(909) 473-1275",
    "lat": 34.1293768,
    "lng": -117.3254677
  },
  {
    "id": "240001373",
    "name": "BALLARD REHABILITATION HOSPITAL",
    "npi": "1497748081",
    "hcaiId": null,
    "businessName": "VIBRA HOSPITAL OF SAN BERNARDINO, LLC",
    "contactEmail": null,
    "categoryName": "OTHER",
    "categoryCode": "PPSREHB",
    "licenseStatus": "ACTIVE",
    "inService": true,
    "licenseNumber": "240000502",
    "licenseEffectiveDate": "11/01/2024",
    "licenseExpirationDate": "10/31/2025",
    "dataDate": "10/18/2025",
    "capacity": 0,
    "address": "1760 W 16TH ST",
    "city": "SAN BERNARDINO",
    "zip": "92411",
    "county": "SAN BERNARDINO",
    "phone": null,
    "lat": 34.129233,
    "lng": -117.3254535
  },
  {
    "id": "240000093",
    "name": "COMMUNITY CONVALESCENT CENTER OF SAN BERNARDINO",
    "npi": "1851395685",
    "hcaiId": "206361292",
    "businessName": "COMMUNITY HOSPITAL OF SAN BERNARDINO",
    "contactEmail": "KEVIN.BURKIN@DIGNITYHEALTH.ORG",
    "categoryName": "SKILLED NURSING FACILITY",
    "categoryCode": "SNF",
    "licenseStatus": "ACTIVE",
    "inService": true,
    "licenseNumber": "240000185",
    "licenseEffectiveDate": "05/08/2025",
    "licenseExpirationDate": "11/15/2025",
    "dataDate": "10/18/2025",
    "capacity": 63,
    "address": "1676 MEDICAL CENTER DR",
    "city": "SAN BERNARDINO",
    "zip": "92411",
    "county": "SAN BERNARDINO",
    "phone": "(909) 806-1418",
    "lat": 34.130268,
    "lng": -117.3239325
  },
  {
    "id": "240000082",
    "name": "COMMUNITY HOSPITAL OF SAN BERNARDINO",
    "npi": "1235290818",
    "hcaiId": "106361323",
    "businessName": "COMMUNITY HOSPITAL OF SAN BERNARDINO",
    "contactEmail": "CAROLINE.SWINTON@DIGNITYHEALTH.ORG",
    "categoryName": "GENERAL ACUTE CARE HOSPITAL",
    "categoryCode": "GACH",
    "licenseStatus": "ACTIVE",
    "inService": true,
    "licenseNumber": "240000198",
    "licenseEffectiveDate": "11/01/2025",
    "licenseExpirationDate": "10/31/2026",
    "dataDate": "10/18/2025",
    "capacity": 185,
    "address": "1805 MEDICAL CENTER DR",
    "city": "SAN BERNARDINO",
    "zip": "92411",
    "county": "SAN BERNARDINO",
    "phone": "(909) 806-1256",
    "lat": 34.13163171,
    "lng": -117.3225026
  },
  {
    "id": "240000317",
    "name": "COMMUNITY HOSPITAL OF SAN BERNARDINO D/P APH",
    "npi": "1235290818",
    "hcaiId": null,
    "businessName": "COMMUNITY HOSPITAL OF SAN BERNARDINO",
    "contactEmail": null,
    "categoryName": "ACUTE PSYCHIATRIC HOSPITAL",
    "categoryCode": "APH",
    "licenseStatus": "ACTIVE",
    "inService": true,
    "licenseNumber": "240000198",
    "licenseEffectiveDate": "11/01/2025",
    "licenseExpirationDate": "10/31/2026",
    "dataDate": "10/18/2025",
    "capacity": 74,
    "address": "1805 MEDICAL CENTER DR",
    "city": "SAN BERNARDINO",
    "zip": "92411",
    "county": "SAN BERNARDINO",
    "phone": "(909) 887-6333",
    "lat": 34.13163171,
    "lng": -117.3225026
  },
  {
    "id": "240001089",
    "name": "COMMUNITY HOSPITAL OF SAN BERNARDINO D/P SNF",
    "npi": "1235290818",
    "hcaiId": null,
    "businessName": "COMMUNITY HOSPITAL OF SAN BERNARDINO",
    "contactEmail": null,
    "categoryName": "SKILLED NURSING FACILITY",
    "categoryCode": "SNF",
    "licenseStatus": "ACTIVE",
    "inService": true,
    "licenseNumber": "240000198",
    "licenseEffectiveDate": "11/01/2025",
    "licenseExpirationDate": "10/31/2026",
    "dataDate": "10/18/2025",
    "capacity": 88,
    "address": "1805 MEDICAL CENTER DR",
    "city": "SAN BERNARDINO",
    "zip": "92411",
    "county": "SAN BERNARDINO",
    "phone": "(909) 887-6333",
    "lat": 34.13163171,
    "lng": -117.3225026
  },
  {
    "id": "630023031",
    "name": "MIRACLE ADULT DAY HEALTH CARE CENTER",
    "npi": null,
    "hcaiId": null,
    "businessName": "MIRACLE ADULT DAY HEALTH CARE, INC.",
    "contactEmail": "INFO@MIRACLEADHC.COM",
    "categoryName": "ADULT DAY HEALTH CARE",
    "categoryCode": "ADHC",
    "licenseStatus": "ACTIVE",
    "inService": true,
    "licenseNumber": "550008709",
    "licenseEffectiveDate": "08/22/2025",
    "licenseExpirationDate": "08/21/2026",
    "dataDate": "10/18/2025",
    "capacity": 0,
    "address": "2050 N MOUNT VERNON AVE",
    "city": "SAN BERNARDINO",
    "zip": "92411",
    "county": "SAN BERNARDINO",
    "phone": "(909) 880-0009",
    "lat": 34.133805,
    "lng": -117.31419
  },
  {
    "id": "630016709",
    "name": "SERRANO DIALYSIS",
    "npi": null,
    "hcaiId": "306364569",
    "businessName": "HOLTEN DIALYSIS LLC",
    "contactEmail": "CAL_C@DAVITA.COM",
    "categoryName": "CHRONIC DIALYSIS CLINIC",
    "categoryCode": "ESRD/CDC",
    "licenseStatus": "ACTIVE",
    "inService": true,
    "licenseNumber": "550003843",
    "licenseEffectiveDate": "09/27/2025",
    "licenseExpirationDate": "09/26/2026",
    "dataDate": "10/18/2025",
    "capacity": 25,
    "address": "1800 MEDICAL CENTER DRIVE, SUITE 150",
    "city": "SAN BERNARDINO",
    "zip": "92411",
    "county": "SAN BERNARDINO",
    "phone": "(909) 887-2717",
    "lat": 34.131474,
    "lng": -117.3229695
  }
]