[
  {
    "id": "630019374",
    "name": "SAC HEALTH SYSTEM SBCUSC SCHOOL-BASED CLINIC",
    "npi": "1801270137",
    "hcaiId": null,
    "businessName": "SAC HEALTH SYSTEM",
    "contactEmail": null,
    "categoryName": "PRIMARY CARE CLINIC",
    "categoryCode": "COMTYC",
    "licenseStatus": "ACTIVE",
    "inService": true,
    "licenseNumber": "550003574",
    "licenseEffectiveDate": "07/15/2025",
    "licenseExpirationDate": "07/14/2026",
    "dataDate": "10/18/2025",
    "capacity": 0,
    "address": "781 W 2ND ST, SUITE C",
    "city": "SAN BERNARDINO",
    "zip": "92410",
    "county": "SAN BERNARDINO",
    "phone": null,
    "lat": 34.101198,
    "lng": -117.3005685
  },
  {
    "id": "630016312",
    "name": "SAC SAN BERNARDINO CAMPUS",
    "npi": "1801270137",
    "hcaiId": "306364558",
    "businessName": "SAC HEALTH SYSTEM",
    "contactEmail": "VLEVARIO@SACHEALTH.ORG",
    "categoryName": "PRIMARY CARE CLINIC",
    "categoryCode": "COMTYC",
    "licenseStatus": "ACTIVE",
    "inService": true,
    "licenseNumber": "550003574",
    "licenseEffectiveDate": "07/15/2025",
    "licenseExpirationDate": "07/14/2026",
    "dataDate": "10/18/2025",
    "capacity": 0,
    "address": "250 G STREET",
    "city": "SAN BERNARDINO, CA",
    "zip": "92410",
    "county": "SAN BERNARDINO",
    "phone": "(909) 900-3226",
    "lat": 34.103932,
    "lng": -117.299441
  },
  {
    "id": "630014013",
    "name": "SACHS-FRAZEE CLINIC",
    "npi": null,
    "hcaiId": null,
    "businessName": "SAC HEALTH SYSTEM",
    "contactEmail": null,
    "categoryName": "PRIMARY CARE CLINIC",
    "categoryCode": "COMTYC",
    "licenseStatus": "ACTIVE",
    "inService": true,
    "licenseNumber": "240000666",
    "licenseEffectiveDate": "11/20/2024",
    "licenseExpirationDate": "11/19/2025",
    "dataDate": "10/18/2025",
    "capacity": 0,
    "address": "488 S K ST",
    "city": "SAN BERNARDINO",
    "zip": "92410",
    "county": "SAN BERNARDINO",
    "phone": "(909) 383-8092",
    "lat": 34.09243017,
    "lng": -117.3076996
  },
  {
    "id": "630014998",
    "name": "UNICARE COMMUNITY HEALTH CENTER, INC.",
    "npi": "1265854061",
    "hcaiId": "306364542",
    "businessName": "UNICARE COMMUNITY HEALTH CENTER, INC.",
    "contactEmail": "K.VO@UNICARECHC.ORG",
    "categoryName": "PRIMARY CARE CLINIC",
    "categoryCode": "COMTYC",
    "licenseStatus": "ACTIVE",
    "inService": true,
    "licenseNumber": "550006138",
    "licenseEffectiveDate": "02/05/2025",
    "licenseExpirationDate": "02/04/2026",
    "dataDate": "10/18/2025",
    "capacity": 0,
    "address": "570 S MOUNT VERNON AVE, SUITE G",
    "city": "SAN BERNARDINO",
    "zip": "92410",
    "county": "SAN BERNARDINO",
    "phone": "(909) 884-6700",
    "lat": 34.09103356,
    "lng": -117.3138874
  }
]