[
  {
    "id": "250000114",
    "name": "DERBY HOUSE",
    "npi": "1851463483",
    "hcaiId": null,
    "businessName": "INDEPENDENT OPTIONS, INC.",
    "contactEmail": "JCOTA@INDEPENDENTOPTIONS.ORG",
    "categoryName": "INTERMEDIATE CARE FACILITY-DD/H/N/CN/IID",
    "categoryCode": "ICFDDH",
    "licenseStatus": "ACTIVE",
    "inService": true,
    "licenseNumber": "250000080",
    "licenseEffectiveDate": "11/20/2024",
    "licenseExpirationDate": "11/19/2025",
    "dataDate": "10/18/2025",
    "capacity": 6,
    "address": "9653 DERBY DR",
    "city": "RIVERSIDE",
    "zip": "92509",
    "county": "RIVERSIDE",
    "phone": "(951) 685-1414",
    "lat": 33.99939,
    "lng": -117.4943115
  },
  {
    "id": "250000761",
    "name": "HORSESHOE HOUSE",
    "npi": "1851463483",
    "hcaiId": null,
    "businessName": "INDEPENDENT OPTIONS, INC.",
    "contactEmail": "JCOTA@INDEPENDENTOPTIONS.ORG",
    "categoryName": "INTERMEDIATE CARE FACILITY-DD/H/N/CN/IID",
    "categoryCode": "ICFDDH",
    "licenseStatus": "ACTIVE",
    "inService": true,
    "licenseNumber": "250000350",
    "licenseEffectiveDate": "11/16/2024",
    "licenseExpirationDate": "11/15/2025",
    "dataDate": "10/18/2025",
    "capacity": 6,
    "address": "4736 HORSESHOE LN",
    "city": "RIVERSIDE",
    "zip": "92509",
    "county": "RIVERSIDE",
    "phone": "(951) 685-1216",
    "lat": 34.003314,
    "lng": -117.469872
  },
  {
    "id": "250001441",
    "name": "JUAN BAUTISTA",
    "npi": "1073788378",
    "hcaiId": null,
    "businessName": "BRIGHT EXPECTATIONS, INC.",
    "contactEmail": "BRIGHTEXPECTATIONS@YAHOO.COM",
    "categoryName": "INTERMEDIATE CARE FACILITY-DD/H/N/CN/IID",
    "categoryCode": "ICFDDH",
    "licenseStatus": "ACTIVE",
    "inService": true,
    "licenseNumber": "250000618",
    "licenseEffectiveDate": "11/27/2024",
    "licenseExpirationDate": "11/26/2025",
    "dataDate": "10/18/2025",
    "capacity": 6,
    "address": "5593 AVENUE JUAN BAUTISTA",
    "city": "RIVERSIDE",
    "zip": "92509",
    "county": "RIVERSIDE",
    "phone": "(951) 557-3903",
    "lat": 33.98661,
    "lng": -117.4339485
  },
  {
    "id": "250000087",
    "name": "JURUPA HILLS POST ACUTE",
    "npi": "1497153878",
    "hcaiId": "206331267",
    "businessName": "MT. RUBIDOUXIDENCE OPCO, LLC",
    "contactEmail": "BOYACK.BRENNAN@GMAIL.COM",
    "categoryName": "SKILLED NURSING FACILITY",
    "categoryCode": "SNF",
    "licenseStatus": "ACTIVE",
    "inService": true,
    "licenseNumber": "250000177",
    "licenseEffectiveDate": "09/16/2025",
    "licenseExpirationDate": "09/15/2026",
    "dataDate": "10/18/2025",
    "capacity": 143,
    "address": "6401 33RD ST",
    "city": "RIVERSIDE",
    "zip": "92509",
    "county": "RIVERSIDE",
    "phone": "(951) 681-2200",
    "lat": 34.012953,
    "lng": -117.4228245
  },
  {
    "id": "250001563",
    "name": "JURUPA VALLEY COMMUNITY HEALTH CENTER",
    "npi": null,
    "hcaiId": "306334479",
    "businessName": null,
    "contactEmail": null,
    "categoryName": "PRIMARY CARE CLINIC",
    "categoryCode": "FQHC",
    "licenseStatus": null,
    "inService": null,
    "licenseNumber": null,
    "licenseEffectiveDate": null,
    "licenseExpirationDate": null,
    "dataDate": "10/18/2025",
    "capacity": 0,
    "address": "8876 MISSION BLVD",
    "city": "JURUPA VALLEY",
    "zip": "92509",
    "county": "RIVERSIDE",
    "phone": null,
    "lat": 34.011486,
    "lng": -117.477054
  },
  {
    "id": "630016019",
    "name": "JURUPA VALLEY DIALYSIS",
    "npi": null,
    "hcaiId": "306334742",
    "businessName": "NOSTER DIALYSIS LLC",
    "contactEmail": "CAL_C@DAVITA.COM",
    "categoryName": "CHRONIC DIALYSIS CLINIC",
    "categoryCode": "ESRD/CDC",
    "licenseStatus": "ACTIVE",
    "inService": true,
    "licenseNumber": "550003600",
    "licenseEffectiveDate": "07/26/2025",
    "licenseExpirationDate": "07/25/2026",
    "dataDate": "10/18/2025",
    "capacity": 25,
    "address": "8080 LIMONITE AVE",
    "city": "JURUPA VALLEY",
    "zip": "92509",
    "county": "RIVERSIDE",
    "phone": "(951) 361-9405",
    "lat": 33.975891,
    "lng": -117.4611105
  },
  {
    "id": "250000569",
    "name": "KACHINA HOUSE",
    "npi": "1851463483",
    "hcaiId": null,
    "businessName": "INDEPENDENT OPTIONS, INC.",
    "contactEmail": "ENACARIO@INDEPENDENTOPTIONS.ORG",
    "categoryName": "INTERMEDIATE CARE FACILITY-DD/H/N/CN/IID",
    "categoryCode": "ICFDDH",
    "licenseStatus": "ACTIVE",
    "inService": true,
    "licenseNumber": "250000277",
    "licenseEffectiveDate": "03/07/2025",
    "licenseExpirationDate": "03/06/2026",
    "dataDate": "10/18/2025",
    "capacity": 6,
    "address": "5899 KACHINA DR",
    "city": "RIVERSIDE",
    "zip": "92509",
    "county": "RIVERSIDE",
    "phone": "(951) 685-5666",
    "lat": 33.988176,
    "lng": -117.459864
  },
  {
    "id": "250001475",
    "name": "LAKESIDE DIVISION",
    "npi": "1164697199",
    "hcaiId": null,
    "businessName": "BRIGHT EXPECTATIONS, INC.",
    "contactEmail": "BRIGHT.EXPECTATIONS@YAHOO.COM",
    "categoryName": "INTERMEDIATE CARE FACILITY-DD/H/N/CN/IID",
    "categoryCode": "ICFDDH",
    "licenseStatus": "ACTIVE",
    "inService": true,
    "licenseNumber": "250000638",
    "licenseEffectiveDate": "12/22/2024",
    "licenseExpirationDate": "12/21/2025",
    "dataDate": "10/18/2025",
    "capacity": 6,
    "address": "7910 LAKESIDE DR",
    "city": "RIVERSIDE",
    "zip": "92509",
    "county": "RIVERSIDE",
    "phone": "(951) 685-8411",
    "lat": 33.982533,
    "lng": -117.4546575
  },
  {
    "id": "250001710",
    "name": "LINARES DIVISION",
    "npi": "1881869816",
    "hcaiId": null,
    "businessName": "BRIGHT EXPECTATIONS, INC.",
    "contactEmail": "BRIGHT.EXPECTATIONS@YAHOO.COM",
    "categoryName": "INTERMEDIATE CARE FACILITY-DD/H/N/CN/IID",
    "categoryCode": "ICFDDH",
    "licenseStatus": "ACTIVE",
    "inService": true,
    "licenseNumber": "250000741",
    "licenseEffectiveDate": "03/02/2025",
    "licenseExpirationDate": "03/01/2026",
    "dataDate": "10/18/2025",
    "capacity": 6,
    "address": "7256 LINARES AVE",
    "city": "RIVERSIDE",
    "zip": "92509",
    "county": "RIVERSIDE",
    "phone": "(951) 727-4303",
    "lat": 33.976377,
    "lng": -117.441945
  },
  {
    "id": "630016870",
    "name": "MOUNTAIN SHADOWS SPECIAL KIDS HOMES-GARTH",
    "npi": "1104280361",
    "hcaiId": null,
    "businessName": "MOUNTAIN SHADOWS SUPPORT GROUP",
    "contactEmail": "SSULLIVAN@MTNSHADOWS.ORG",
    "categoryName": "INTERMEDIATE CARE FACILITY-DD/H/N/CN/IID",
    "categoryCode": "ICFDDN",
    "licenseStatus": "ACTIVE",
    "inService": true,
    "licenseNumber": "550003888",
    "licenseEffectiveDate": "05/15/2025",
    "licenseExpirationDate": "05/14/2026",
    "dataDate": "10/18/2025",
    "capacity": 6,
    "address": "4287 GARTH STREET",
    "city": "JURUPA VALLEY",
    "zip": "92509",
    "county": "RIVERSIDE",
    "phone": "(760) 743-3714",
    "lat": 34.010226,
    "lng": -117.452493
  },
  {
    "id": "250000985",
    "name": "MOUNTAIN SHADOWS SPECIAL KIDS HOMES-HALBROOK HOUSE",
    "npi": "1922123157",
    "hcaiId": null,
    "businessName": "MOUNTAIN SHADOWS SUPPORT GROUP",
    "contactEmail": "SSULLIVAN@MTNSHADOWS.ORG",
    "categoryName": "INTERMEDIATE CARE FACILITY-DD/H/N/CN/IID",
    "categoryCode": "ICFDDN",
    "licenseStatus": "ACTIVE",
    "inService": true,
    "licenseNumber": "250000418",
    "licenseEffectiveDate": "05/23/2025",
    "licenseExpirationDate": "05/22/2026",
    "dataDate": "10/18/2025",
    "capacity": 6,
    "address": "7989 HALBROOK TERRACE",
    "city": "RIVERSIDE",
    "zip": "92509",
    "county": "RIVERSIDE",
    "phone": "(760) 533-4607",
    "lat": 34.001694,
    "lng": -117.457704
  },
  {
    "id": "630016869",
    "name": "MOUNTAIN SHADOWS SPECIAL KIDS HOMES-JOSHUA",
    "npi": "1932563194",
    "hcaiId": null,
    "businessName": "MOUNTAIN SHADOWS SUPPORT GROUP",
    "contactEmail": "LBRYSON@MTNSHADOWS.ORG",
    "categoryName": "INTERMEDIATE CARE FACILITY-DD/H/N/CN/IID",
    "categoryCode": "ICFDDN",
    "licenseStatus": "ACTIVE",
    "inService": true,
    "licenseNumber": "550003889",
    "licenseEffectiveDate": "05/16/2025",
    "licenseExpirationDate": "05/15/2026",
    "dataDate": "10/18/2025",
    "capacity": 6,
    "address": "7719 JOSHUA ROAD",
    "city": "JURUPA VALLEY",
    "zip": "92509",
    "county": "RIVERSIDE",
    "phone": "(760) 743-3714",
    "lat": 34.00914443,
    "lng": -117.452683
  },
  {
    "id": "250001332",
    "name": "MOUNTAIN SHADOWS SPECIAL KIDS HOMES-JUNIPER HOUSE",
    "npi": "1407971633",
    "hcaiId": null,
    "businessName": "MOUNTAIN SHADOWS SUPPORT GROUP",
    "contactEmail": "SSULLIVAN@MTNSHADOWS.ORG",
    "categoryName": "INTERMEDIATE CARE FACILITY-DD/H/N/CN/IID",
    "categoryCode": "ICFDDN",
    "licenseStatus": "ACTIVE",
    "inService": true,
    "licenseNumber": "250000563",
    "licenseEffectiveDate": "05/23/2025",
    "licenseExpirationDate": "05/22/2026",
    "dataDate": "10/18/2025",
    "capacity": 6,
    "address": "7456 RIVER GLEN DR",
    "city": "RIVERSIDE",
    "zip": "92509",
    "county": "RIVERSIDE",
    "phone": "(760) 743-3714",
    "lat": 34.006716,
    "lng": -117.446319
  },
  {
    "id": "250001290",
    "name": "MOUNTAIN SHADOWS SPECIAL KIDS HOMES-MAVERICK HOUSE",
    "npi": "1053436287",
    "hcaiId": null,
    "businessName": "MOUNTAIN SHADOWS SUPPORT GROUP",
    "contactEmail": "SSULLIVAN@MTNSHADOWS.ORG",
    "categoryName": "INTERMEDIATE CARE FACILITY-DD/H/N/CN/IID",
    "categoryCode": "ICFDDN",
    "licenseStatus": "ACTIVE",
    "inService": true,
    "licenseNumber": "250000539",
    "licenseEffectiveDate": "05/23/2025",
    "licenseExpirationDate": "05/22/2026",
    "dataDate": "10/18/2025",
    "capacity": 6,
    "address": "8163 LAUREL PARK CIR",
    "city": "RIVERSIDE",
    "zip": "92509",
    "county": "RIVERSIDE",
    "phone": "(760) 743-3714",
    "lat": 33.999318,
    "lng": -117.461484
  },
  {
    "id": "250001183",
    "name": "MOUNTAIN SHADOWS SPECIAL KIDS HOMES-MIRAMAR HOUSE",
    "npi": "1154446383",
    "hcaiId": null,
    "businessName": "MOUNTAIN SHADOWS SUPPORT GROUP",
    "contactEmail": "SSULLIVAN@MTNSHADOWS.ORG",
    "categoryName": "INTERMEDIATE CARE FACILITY-DD/H/N/CN/IID",
    "categoryCode": "ICFDDN",
    "licenseStatus": "ACTIVE",
    "inService": true,
    "licenseNumber": "250000492",
    "licenseEffectiveDate": "05/23/2025",
    "licenseExpirationDate": "05/22/2026",
    "dataDate": "10/18/2025",
    "capacity": 6,
    "address": "8266 MIRAMAR CIR",
    "city": "RIVERSIDE",
    "zip": "92509",
    "county": "RIVERSIDE",
    "phone": "(760) 743-3714",
    "lat": 33.9993,
    "lng": -117.463581
  },
  {
    "id": "250000081",
    "name": "RIVERSIDE HEIGHTS HEALTHCARE CENTER, LLC",
    "npi": "1083006712",
    "hcaiId": "206331361",
    "businessName": "RIVERSIDE HEIGHTS HEALTHCARE CENTER, LLC",
    "contactEmail": null,
    "categoryName": "SKILLED NURSING FACILITY",
    "categoryCode": "SNF",
    "licenseStatus": "ACTIVE",
    "inService": true,
    "licenseNumber": "250000213",
    "licenseEffectiveDate": "11/17/2024",
    "licenseExpirationDate": "11/16/2025",
    "dataDate": "10/18/2025",
    "capacity": 70,
    "address": "8951 GRANITE HILL DR",
    "city": "RIVERSIDE",
    "zip": "92509",
    "county": "RIVERSIDE",
    "phone": "(951) 685-7474",
    "lat": 34.020711,
    "lng": -117.4793535
  },
  {
    "id": "250000073",
    "name": "RIVERSIDE POSTACUTE CARE",
    "npi": "1932566189",
    "hcaiId": "206331238",
    "businessName": "RIVERSIDE POSTACUTE CARE, LLC",
    "contactEmail": "ADMINISTRATOR@RIVERSIDEPOSTACUTE.COM",
    "categoryName": "SKILLED NURSING FACILITY",
    "categoryCode": "SNF",
    "licenseStatus": "ACTIVE",
    "inService": true,
    "licenseNumber": "250000163",
    "licenseEffectiveDate": "06/08/2025",
    "licenseExpirationDate": "06/07/2026",
    "dataDate": "10/18/2025",
    "capacity": 188,
    "address": "8781 LAKEVIEW AVE",
    "city": "RIVERSIDE",
    "zip": "92509",
    "county": "RIVERSIDE",
    "phone": "(951) 685-1531",
    "lat": 33.972075,
    "lng": -117.475326
  },
  {
    "id": "630015323",
    "name": "RUBIDOUX FAMILY CARE CENTER",
    "npi": null,
    "hcaiId": null,
    "businessName": null,
    "contactEmail": null,
    "categoryName": "PRIMARY CARE CLINIC",
    "categoryCode": "COMTYC",
    "licenseStatus": null,
    "inService": null,
    "licenseNumber": null,
    "licenseEffectiveDate": null,
    "licenseExpirationDate": null,
    "dataDate": "10/18/2025",
    "capacity": 0,
    "address": "5256 MISSION BLVD",
    "city": "RIVERSIDE",
    "zip": "92509",
    "county": "RIVERSIDE",
    "phone": null,
    "lat": 33.992568,
    "lng": -117.3988845
  },
  {
    "id": "250000116",
    "name": "VILLA WOODS HOUSE",
    "npi": "1851463483",
    "hcaiId": null,
    "businessName": "INDEPENDENT OPTIONS, INC.",
    "contactEmail": "JCOTA@INDEPENDENTOPTIONS.ORG",
    "categoryName": "INTERMEDIATE CARE FACILITY-DD/H/N/CN/IID",
    "categoryCode": "ICFDDH",
    "licenseStatus": "ACTIVE",
    "inService": true,
    "licenseNumber": "250000084",
    "licenseEffectiveDate": "11/20/2024",
    "licenseExpirationDate": "11/19/2025",
    "dataDate": "10/18/2025",
    "capacity": 6,
    "address": "4614 VILLA WOODS DR",
    "city": "RIVERSIDE",
    "zip": "92509",
    "county": "RIVERSIDE",
    "phone": "(951) 681-8727",
    "lat": 34.004088,
    "lng": -117.464058
  },
  {
    "id": "250000155",
    "name": "VISTA PACIFICA CENTER",
    "npi": "1588734164",
    "hcaiId": "206331123",
    "businessName": "VISTA PACIFICA ENTERPRISES, INC.",
    "contactEmail": "AENGELAUF@VISTAPACIFICAENT.COM",
    "categoryName": "SKILLED NURSING FACILITY",
    "categoryCode": "SNF",
    "licenseStatus": "ACTIVE",
    "inService": true,
    "licenseNumber": "250000118",
    "licenseEffectiveDate": "01/01/2025",
    "licenseExpirationDate": "12/31/2025",
    "dataDate": "10/18/2025",
    "capacity": 108,
    "address": "3674 PACIFIC AVE",
    "city": "JURUPA VALLEY",
    "zip": "92509",
    "county": "RIVERSIDE",
    "phone": "(951) 682-4833",
    "lat": 34.0058237,
    "lng": -117.4203191
  },
  {
    "id": "250000154",
    "name": "VISTA PACIFICA CONVALESCENT HOSPITAL",
    "npi": "1609897222",
    "hcaiId": "206331117",
    "businessName": "VISTA PACIFICA ENTERPRISES, INC.",
    "contactEmail": "AENGELAUF@VISTAPACIFICAENT.COM",
    "categoryName": "SKILLED NURSING FACILITY",
    "categoryCode": "SNF",
    "licenseStatus": "ACTIVE",
    "inService": true,
    "licenseNumber": "250000116",
    "licenseEffectiveDate": "01/01/2025",
    "licenseExpirationDate": "12/31/2025",
    "dataDate": "10/18/2025",
    "capacity": 49,
    "address": "3662 PACIFIC AVE",
    "city": "JURUPA VALLEY",
    "zip": "92509",
    "county": "RIVERSIDE",
    "phone": "(951) 682-4833",
    "lat": 34.00539401,
    "lng": -117.418553
  },
  {
    "id": "630026584",
    "name": "VOLTAMED COMMUNITY CLINIC",
    "npi": null,
    "hcaiId": "306330772",
    "businessName": "VOLTA MEDICAL GROUP",
    "contactEmail": "MAXWELL@VOLTAMED.ORG",
    "categoryName": "PRIMARY CARE CLINIC",
    "categoryCode": "COMTYC",
    "licenseStatus": "ACTIVE",
    "inService": true,
    "licenseNumber": "550008233",
    "licenseEffectiveDate": "11/22/2024",
    "licenseExpirationDate": "11/21/2025",
    "dataDate": "10/18/2025",
    "capacity": 0,
    "address": "9415 MISSION BLVD, P",
    "city": "JURUPA VALLEY",
    "zip": "92509",
    "county": "RIVERSIDE",
    "phone": "(833) 865-8263",
    "lat": 34.012386,
    "lng": -117.490419
  }
]