[
  {
    "id": "630014137",
    "name": "A-QUEST HEALTH CARE INC.",
    "npi": "1003180019",
    "hcaiId": "406334666",
    "businessName": "A-QUEST HEALTH CARE, INC.",
    "contactEmail": "AQUESTHEALTHCARE@YAHOO.COM",
    "categoryName": "HOME HEALTH AGENCY",
    "categoryCode": "HHA",
    "licenseStatus": "ACTIVE",
    "inService": true,
    "licenseNumber": "550002341",
    "licenseEffectiveDate": "09/06/2025",
    "licenseExpirationDate": "09/05/2026",
    "dataDate": "10/18/2025",
    "capacity": 0,
    "address": "6560 VAN BUREN BLVD, SUITE H",
    "city": "RIVERSIDE",
    "zip": "92503",
    "county": "RIVERSIDE",
    "phone": "(951) 729-5544",
    "lat": 33.95002575,
    "lng": -117.4540354
  },
  {
    "id": "630022294",
    "name": "ALLIANCE CARE HOSPICE INC",
    "npi": null,
    "hcaiId": "406195716",
    "businessName": "ALLIANCE CARE HOSPICE INC",
    "contactEmail": "ALLIANCECAREHOSPICE@GMAIL.COM",
    "categoryName": "HOSPICE",
    "categoryCode": "HOSPICE",
    "licenseStatus": "ACTIVE",
    "inService": true,
    "licenseNumber": "550007687",
    "licenseEffectiveDate": "12/20/2023",
    "licenseExpirationDate": "12/19/2025",
    "dataDate": "10/18/2025",
    "capacity": 0,
    "address": "6550 VAN BUREN BLVD, SUITE C",
    "city": "RIVERSIDE",
    "zip": "92503",
    "county": "RIVERSIDE",
    "phone": "(302) 531-5006",
    "lat": 33.949935,
    "lng": -117.454347
  },
  {
    "id": "250000010",
    "name": "ALTA VISTA HEALTHCARE & WELLNESS CENTRE",
    "npi": "1659504991",
    "hcaiId": "206331091",
    "businessName": "RIVERSIDE HEALTHCARE & WELLNESS CENTRE, LLC",
    "contactEmail": "ADMINISTRATOR@ALTAVISTAREHAB.COM",
    "categoryName": "SKILLED NURSING FACILITY",
    "categoryCode": "SNF",
    "licenseStatus": "ACTIVE",
    "inService": true,
    "licenseNumber": "250000106",
    "licenseEffectiveDate": "01/21/2025",
    "licenseExpirationDate": "01/20/2026",
    "dataDate": "10/18/2025",
    "capacity": 99,
    "address": "9020 GARFIELD ST",
    "city": "RIVERSIDE",
    "zip": "92503",
    "county": "RIVERSIDE",
    "phone": "(951) 688-8200",
    "lat": 33.928191,
    "lng": -117.4399965
  },
  {
    "id": "630016996",
    "name": "AVEEVA HOSPICE",
    "npi": "1124575618",
    "hcaiId": "406330926",
    "businessName": "AVEEVA HOSPICE",
    "contactEmail": "JESTANISLAO@AVEEVAHOSPICE.COM",
    "categoryName": "HOSPICE",
    "categoryCode": "HOSPICE",
    "licenseStatus": "ACTIVE",
    "inService": true,
    "licenseNumber": "550004069",
    "licenseEffectiveDate": "11/14/2023",
    "licenseExpirationDate": "11/13/2025",
    "dataDate": "10/18/2025",
    "capacity": 0,
    "address": "11860 MAGNOLIA AVE., SUITE I",
    "city": "RIVERSIDE",
    "zip": "92503",
    "county": "RIVERSIDE",
    "phone": "(951) 394-7500",
    "lat": 33.89533465,
    "lng": -117.4901992
  },
  {
    "id": "630021189",
    "name": "AVEEVA HOSPICE - EAST",
    "npi": null,
    "hcaiId": "406333544",
    "businessName": "AVEEVA HOSPICE - EAST",
    "contactEmail": "JESTANISLAO@AVEEVAHOSPICE.COM",
    "categoryName": "HOSPICE",
    "categoryCode": "HOSPICE",
    "licenseStatus": "ACTIVE",
    "inService": true,
    "licenseNumber": "550006591",
    "licenseEffectiveDate": "07/19/2025",
    "licenseExpirationDate": "07/18/2027",
    "dataDate": "10/18/2025",
    "capacity": 0,
    "address": "3741 MERCED DR, SUITE L",
    "city": "RIVERSIDE",
    "zip": "92503",
    "county": "RIVERSIDE",
    "phone": "(951) 405-3013",
    "lat": 33.89503766,
    "lng": -117.4891143
  },
  {
    "id": "630013722",
    "name": "CALIFORNIA HOME HEALTH AGENCY",
    "npi": "1942544812",
    "hcaiId": "406334663",
    "businessName": null,
    "contactEmail": "ADMIN@CALIFORNIAHHA.COM",
    "categoryName": "HOME HEALTH AGENCY",
    "categoryCode": "HHA",
    "licenseStatus": "ACTIVE",
    "inService": true,
    "licenseNumber": "550002252",
    "licenseEffectiveDate": "04/15/2025",
    "licenseExpirationDate": "04/14/2026",
    "dataDate": "10/18/2025",
    "capacity": 0,
    "address": "11860 MAGNOLIA AVE, SUITE #J",
    "city": "RIVERSIDE",
    "zip": "92503",
    "county": "RIVERSIDE",
    "phone": "(951) 352-2300",
    "lat": 33.89533465,
    "lng": -117.4901992
  },
  {
    "id": "630026185",
    "name": "CHSI MOBILE WELLNESS CLINIC #1",
    "npi": null,
    "hcaiId": null,
    "businessName": "COMMUNITY HEALTH SYSTEMS, INC.",
    "contactEmail": null,
    "categoryName": "PRIMARY CARE CLINIC",
    "categoryCode": "COMTYC",
    "licenseStatus": "ACTIVE",
    "inService": true,
    "licenseNumber": "550001876",
    "licenseEffectiveDate": "04/02/2025",
    "licenseExpirationDate": "04/01/2026",
    "dataDate": "10/18/2025",
    "capacity": 0,
    "address": "9380 MAGNOLIA AVE",
    "city": "RIVERSIDE",
    "zip": "92503",
    "county": "RIVERSIDE",
    "phone": null,
    "lat": 33.921315,
    "lng": -117.444105
  },
  {
    "id": "630027689",
    "name": "CHSI MOBILE WELLNESS CLINIC #2",
    "npi": null,
    "hcaiId": null,
    "businessName": "COMMUNITY HEALTH SYSTEMS, INC.",
    "contactEmail": null,
    "categoryName": "PRIMARY CARE CLINIC",
    "categoryCode": "COMTYC",
    "licenseStatus": "ACTIVE",
    "inService": true,
    "licenseNumber": "550001876",
    "licenseEffectiveDate": "04/02/2025",
    "licenseExpirationDate": "04/01/2026",
    "dataDate": "10/18/2025",
    "capacity": 0,
    "address": "9380 MAGNOLIA AVE",
    "city": "RIVERSIDE",
    "zip": "92503",
    "county": "RIVERSIDE",
    "phone": null,
    "lat": 33.92130399,
    "lng": -117.44412
  },
  {
    "id": "250000057",
    "name": "CITRUS GROVE POST ACUTE",
    "npi": "1831748714",
    "hcaiId": "206331159",
    "businessName": "WINDSOR CYPRESS GARDENS HEALTHCARE, LLC",
    "contactEmail": "ADMINISTRATOR@WINDSORCYPRESSGARDENS.COM",
    "categoryName": "SKILLED NURSING FACILITY",
    "categoryCode": "SNF",
    "licenseStatus": "ACTIVE",
    "inService": true,
    "licenseNumber": "250000135",
    "licenseEffectiveDate": "09/10/2025",
    "licenseExpirationDate": "11/21/2025",
    "dataDate": "10/18/2025",
    "capacity": 120,
    "address": "9025 COLORADO AVE",
    "city": "RIVERSIDE",
    "zip": "92503",
    "county": "RIVERSIDE",
    "phone": "(951) 688-3636",
    "lat": 33.938406,
    "lng": -117.4485555
  },
  {
    "id": "250000044",
    "name": "DOCTORS HOSPITAL OF RIVERSIDE",
    "npi": "1124596382",
    "hcaiId": "106331293",
    "businessName": "DOCTORS HOSPITAL OF RIVERSIDE LLC",
    "contactEmail": "LISET.AYALA@AHMCHEALTH.COM",
    "categoryName": "GENERAL ACUTE CARE HOSPITAL",
    "categoryCode": "GACH",
    "licenseStatus": "ACTIVE",
    "inService": true,
    "licenseNumber": "250000186",
    "licenseEffectiveDate": "05/01/2025",
    "licenseExpirationDate": "04/30/2026",
    "dataDate": "10/18/2025",
    "capacity": 193,
    "address": "3865 JACKSON ST",
    "city": "RIVERSIDE",
    "zip": "92503",
    "county": "RIVERSIDE",
    "phone": "(951) 688-2211",
    "lat": 33.926868,
    "lng": -117.439101
  },
  {
    "id": "240001825",
    "name": "FMC DIALYSIS SERVICES RIVERSIDE",
    "npi": "1538271333",
    "hcaiId": "306334501",
    "businessName": "BIO-MEDICAL APPLICATIONS OF CALIFORNIA, INC.",
    "contactEmail": "CLINIC2377@FMC-NA.COM",
    "categoryName": "CHRONIC DIALYSIS CLINIC",
    "categoryCode": "ESRD/CDC",
    "licenseStatus": "ACTIVE",
    "inService": true,
    "licenseNumber": "240000814",
    "licenseEffectiveDate": "04/29/2025",
    "licenseExpirationDate": "04/28/2026",
    "dataDate": "10/18/2025",
    "capacity": 26,
    "address": "3470 LA SIERRA AVE, SUITE E",
    "city": "RIVERSIDE",
    "zip": "92503",
    "county": "RIVERSIDE",
    "phone": "(951) 343-7700",
    "lat": 33.898356,
    "lng": -117.4733235
  },
  {
    "id": "250000248",
    "name": "GLENWOOD SURGICAL CENTER, L.P.",
    "npi": "1083670970",
    "hcaiId": "306334092",
    "businessName": "GLENWOOD SURGICAL CENTER, L.P.",
    "contactEmail": null,
    "categoryName": "SURGICAL CLINIC",
    "categoryCode": "ASC",
    "licenseStatus": "INACTIVE - CAPEN DECISION",
    "inService": false,
    "licenseNumber": "250000491",
    "licenseEffectiveDate": "06/30/2007",
    "licenseExpirationDate": "06/29/2008",
    "dataDate": "10/18/2025",
    "capacity": 0,
    "address": "8945 MAGNOLIA AVE, SUITE 200",
    "city": "RIVERSIDE",
    "zip": "92503",
    "county": "RIVERSIDE",
    "phone": "(951) 688-7270",
    "lat": 33.926814,
    "lng": -117.436113
  },
  {
    "id": "630017477",
    "name": "GOLDEN TOUCH HOSPICE, INC.",
    "npi": null,
    "hcaiId": "406331937",
    "businessName": "GOLDEN TOUCH HOSPICE, INC.",
    "contactEmail": "GOLDENTOUCHHOSPICE@GMAIL.COM",
    "categoryName": "HOSPICE",
    "categoryCode": "HOSPICE",
    "licenseStatus": "ACTIVE",
    "inService": true,
    "licenseNumber": "550004972",
    "licenseEffectiveDate": "09/04/2025",
    "licenseExpirationDate": "09/03/2027",
    "dataDate": "10/18/2025",
    "capacity": 0,
    "address": "11651 STERLING AVE, SUITE J",
    "city": "RIVERSIDE",
    "zip": "92503",
    "county": "RIVERSIDE",
    "phone": "(951) 406-1400",
    "lat": 33.895628,
    "lng": -117.486408
  },
  {
    "id": "250001793",
    "name": "H.O.P.E. PROFESSIONAL SERVICES, INC.",
    "npi": "1992783765",
    "hcaiId": "406334580",
    "businessName": "H.O.P.E. PROFESSIONAL SERVICES, INC.",
    "contactEmail": "HOPEPROFESSIONALS@SBCGLOBAL.NET",
    "categoryName": "HOME HEALTH AGENCY",
    "categoryCode": "HHA",
    "licenseStatus": "ACTIVE",
    "inService": true,
    "licenseNumber": "250000788",
    "licenseEffectiveDate": "04/08/2025",
    "licenseExpirationDate": "04/07/2026",
    "dataDate": "10/18/2025",
    "capacity": 0,
    "address": "11731 STERLING AVE, UNIT C",
    "city": "RIVERSIDE",
    "zip": "92503",
    "county": "RIVERSIDE",
    "phone": "(951) 351-9901",
    "lat": 33.89514339,
    "lng": -117.4864
  },
  {
    "id": "630028100",
    "name": "HEALTH AND WELLNESS CENTER",
    "npi": null,
    "hcaiId": null,
    "businessName": "RIVERSIDE ADHC INC",
    "contactEmail": "RIVERSIDEADHC@GMAIL.COM",
    "categoryName": "ADULT DAY HEALTH CARE",
    "categoryCode": "ADHC",
    "licenseStatus": "ACTIVE",
    "inService": true,
    "licenseNumber": "550009934",
    "licenseEffectiveDate": "09/24/2025",
    "licenseExpirationDate": "08/18/2026",
    "dataDate": "10/18/2025",
    "capacity": 0,
    "address": "9571 MAGNOLIA AVE",
    "city": "RIVERSIDE",
    "zip": "92503",
    "county": "RIVERSIDE",
    "phone": "(805) 728-5492",
    "lat": 33.91995668,
    "lng": -117.4480153
  },
  {
    "id": "060002224",
    "name": "INLAND GRACE ADULT DAY HEALTH CARE CENTER",
    "npi": null,
    "hcaiId": null,
    "businessName": "INLAND GRACE ADULT DAY HEALTH CARE CENTER",
    "contactEmail": "INLANDGRACE@GMAIL.COM",
    "categoryName": "ADULT DAY HEALTH CARE",
    "categoryCode": "ADHC",
    "licenseStatus": "ACTIVE",
    "inService": true,
    "licenseNumber": "060000910",
    "licenseEffectiveDate": "02/05/2025",
    "licenseExpirationDate": "02/04/2026",
    "dataDate": "10/18/2025",
    "capacity": 0,
    "address": "10150 INDIANA AVE",
    "city": "RIVERSIDE",
    "zip": "92503",
    "county": "RIVERSIDE",
    "phone": "(951) 343-1001",
    "lat": 33.9072629,
    "lng": -117.4533813
  },
  {
    "id": "080001650",
    "name": "INLAND VALLEY HOSPICE",
    "npi": null,
    "hcaiId": "406334470",
    "businessName": "ALLEVIATE CARE-INLAND VALLEY, LLC",
    "contactEmail": "SYLVIE.BOAL@ALLEVIATE.CARE",
    "categoryName": "HOSPICE",
    "categoryCode": "HOSPICE",
    "licenseStatus": "ACTIVE",
    "inService": true,
    "licenseNumber": "080000730",
    "licenseEffectiveDate": "03/01/2025",
    "licenseExpirationDate": "02/28/2027",
    "dataDate": "10/18/2025",
    "capacity": 0,
    "address": "3770 MYERS ST",
    "city": "RIVERSIDE",
    "zip": "92503",
    "county": "RIVERSIDE",
    "phone": "(951) 360-5848",
    "lat": 33.917706,
    "lng": -117.450027
  },
  {
    "id": "630013576",
    "name": "MAGNOLIA COMMUNITY HEALTH CENTER",
    "npi": "1548538911",
    "hcaiId": "306334647",
    "businessName": "COMMUNITY HEALTH SYSTEMS, INC.",
    "contactEmail": "V.ORTIZ@CHSICA.ORG",
    "categoryName": "PRIMARY CARE CLINIC",
    "categoryCode": "COMTYC",
    "licenseStatus": "ACTIVE",
    "inService": true,
    "licenseNumber": "550001876",
    "licenseEffectiveDate": "04/02/2025",
    "licenseExpirationDate": "04/01/2026",
    "dataDate": "10/18/2025",
    "capacity": 0,
    "address": "9380 MAGNOLIA AVE",
    "city": "RIVERSIDE",
    "zip": "92503",
    "county": "RIVERSIDE",
    "phone": "(951) 373-5620",
    "lat": 33.921315,
    "lng": -117.444105
  },
  {
    "id": "250001390",
    "name": "MANCHESTER DIVISION",
    "npi": "1215102512",
    "hcaiId": null,
    "businessName": "BRIGHT EXPECTATIONS, INC.",
    "contactEmail": "BRIGHT.EXPECTATIONS@YAHOO.COM",
    "categoryName": "INTERMEDIATE CARE FACILITY-DD/H/N/CN/IID",
    "categoryCode": "ICFDDH",
    "licenseStatus": "ACTIVE",
    "inService": true,
    "licenseNumber": "250000590",
    "licenseEffectiveDate": "04/19/2025",
    "licenseExpirationDate": "04/18/2026",
    "dataDate": "10/18/2025",
    "capacity": 6,
    "address": "3921 MANCHESTER PL",
    "city": "RIVERSIDE",
    "zip": "92503",
    "county": "RIVERSIDE",
    "phone": "(951) 224-7220",
    "lat": 33.928749,
    "lng": -117.436815
  },
  {
    "id": "630027521",
    "name": "MONTELAGO CONGREGATE LIVING LLC",
    "npi": null,
    "hcaiId": null,
    "businessName": "MONTELAGO CONGREGATE LIVING LLC",
    "contactEmail": "EJBONNER@HOTMAIL.COM",
    "categoryName": "CONGREGATE LIVING HEALTH FACILITY",
    "categoryCode": "CLHF",
    "licenseStatus": "ACTIVE",
    "inService": true,
    "licenseNumber": "550009664",
    "licenseEffectiveDate": "09/07/2025",
    "licenseExpirationDate": "03/06/2026",
    "dataDate": "10/18/2025",
    "capacity": 6,
    "address": "12537 POINSETTA DR",
    "city": "RIVERSIDE",
    "zip": "92503",
    "county": "RIVERSIDE",
    "phone": "(909) 992-1080",
    "lat": 33.862846,
    "lng": -117.444044
  },
  {
    "id": "630014005",
    "name": "MORNING STAR PALLIATIVE & HOSPICE INC.",
    "npi": null,
    "hcaiId": "406334673",
    "businessName": "MORNINGSTAR PALLIATIVE & HOSPICE INC.",
    "contactEmail": "MORNINGSTARPALLIATIVEHOSPICE@GMAIL.COM",
    "categoryName": "HOSPICE",
    "categoryCode": "HOSPICE",
    "licenseStatus": "ACTIVE",
    "inService": true,
    "licenseNumber": "550002395",
    "licenseEffectiveDate": "09/06/2025",
    "licenseExpirationDate": "09/05/2027",
    "dataDate": "10/18/2025",
    "capacity": 0,
    "address": "11651 STERLING AVE, SUITE I",
    "city": "RIVERSIDE",
    "zip": "92503",
    "county": "RIVERSIDE",
    "phone": "(951) 351-9905",
    "lat": 33.895476,
    "lng": -117.486342
  },
  {
    "id": "630026897",
    "name": "NEIGHBORHOOD HEALTHCARE- MOBILE DENTAL HEALTH SERVICES",
    "npi": null,
    "hcaiId": null,
    "businessName": "NEIGHBORHOOD HEALTHCARE",
    "contactEmail": null,
    "categoryName": "PRIMARY CARE CLINIC",
    "categoryCode": "COMTYC",
    "licenseStatus": "ACTIVE",
    "inService": true,
    "licenseNumber": "550003562",
    "licenseEffectiveDate": "07/06/2025",
    "licenseExpirationDate": "07/05/2026",
    "dataDate": "10/18/2025",
    "capacity": 0,
    "address": "8856 ARLINGTON AVE, BUILDING REAR",
    "city": "RIVERSIDE",
    "zip": "92503",
    "county": "RIVERSIDE",
    "phone": null,
    "lat": 33.946029,
    "lng": -117.4674015
  },
  {
    "id": "630027607",
    "name": "OPTIMUM CARE IE",
    "npi": null,
    "hcaiId": null,
    "businessName": "OPTIMUM CARE IE, LLC",
    "contactEmail": "OUDINOTNICOLAS@GMAIL.COM",
    "categoryName": "CONGREGATE LIVING HEALTH FACILITY",
    "categoryCode": "CLHF",
    "licenseStatus": "ACTIVE",
    "inService": true,
    "licenseNumber": "550009100",
    "licenseEffectiveDate": "05/01/2025",
    "licenseExpirationDate": "04/30/2026",
    "dataDate": "10/18/2025",
    "capacity": 6,
    "address": "2697 LYON AVE",
    "city": "RIVERSIDE",
    "zip": "92503",
    "county": "RIVERSIDE",
    "phone": "(310) 994-9181",
    "lat": 33.88631298,
    "lng": -117.465525
  },
  {
    "id": "630015000",
    "name": "RIGHT CHOICE HOSPICE CARE",
    "npi": null,
    "hcaiId": "406331368",
    "businessName": "RIGHT CHOICE HOSPICE CARE",
    "contactEmail": "MARKB@RIGHTCHOICEHOSPICE.COM",
    "categoryName": "HOSPICE",
    "categoryCode": "HOSPICE",
    "licenseStatus": "ACTIVE",
    "inService": true,
    "licenseNumber": "550003713",
    "licenseEffectiveDate": "11/09/2024",
    "licenseExpirationDate": "11/08/2026",
    "dataDate": "10/18/2025",
    "capacity": 0,
    "address": "11728 MAGNOLIA AVE, SUITE A",
    "city": "RIVERSIDE",
    "zip": "92503",
    "county": "RIVERSIDE",
    "phone": "(714) 349-6082",
    "lat": 33.895377,
    "lng": -117.488259
  },
  {
    "id": "250000500",
    "name": "RIVERSIDE UNIVERSITY HEALTH SYSTEM - MEDICAL CENTER D/P APH",
    "npi": "1821159195",
    "hcaiId": "106331314",
    "businessName": "COUNTY OF RIVERSIDE",
    "contactEmail": null,
    "categoryName": "ACUTE PSYCHIATRIC HOSPITAL",
    "categoryCode": "APH",
    "licenseStatus": "ACTIVE",
    "inService": true,
    "licenseNumber": "250000195",
    "licenseEffectiveDate": "04/01/2025",
    "licenseExpirationDate": "03/31/2026",
    "dataDate": "10/18/2025",
    "capacity": 77,
    "address": "9990 COUNTY FARM RD",
    "city": "RIVERSIDE",
    "zip": "92503",
    "county": "RIVERSIDE",
    "phone": "(951) 358-4700",
    "lat": 33.9200671,
    "lng": -117.4580716
  },
  {
    "id": "250000091",
    "name": "RIVERWALK POST ACUTE",
    "npi": "1689072977",
    "hcaiId": "206331364",
    "businessName": "ORANGE TREEIDENCE OPCO, LLC",
    "contactEmail": "BEN.WEESE@RIVERWALKPOSTACUTE.COM",
    "categoryName": "SKILLED NURSING FACILITY",
    "categoryCode": "SNF",
    "licenseStatus": "ACTIVE",
    "inService": true,
    "licenseNumber": "250000214",
    "licenseEffectiveDate": "10/07/2025",
    "licenseExpirationDate": "10/06/2026",
    "dataDate": "10/18/2025",
    "capacity": 146,
    "address": "4000 HARRISON ST",
    "city": "RIVERSIDE",
    "zip": "92503",
    "county": "RIVERSIDE",
    "phone": "(951) 785-6060",
    "lat": 33.920604,
    "lng": -117.4549005
  },
  {
    "id": "630018640",
    "name": "ST JOSEPH HOSPICE & PALLIATIVE CARE",
    "npi": null,
    "hcaiId": "406332358",
    "businessName": "ST JOSEPH HEALTHCARE AGENCY, INC.",
    "contactEmail": "ADMIN@STJOSEPHHC.COM",
    "categoryName": "HOSPICE",
    "categoryCode": "HOSPICE",
    "licenseStatus": "ACTIVE",
    "inService": true,
    "licenseNumber": "550005264",
    "licenseEffectiveDate": "10/10/2025",
    "licenseExpirationDate": "10/09/2027",
    "dataDate": "10/18/2025",
    "capacity": 0,
    "address": "6550 VAN BUREN BLVD, SUITE F",
    "city": "RIVERSIDE",
    "zip": "92503",
    "county": "RIVERSIDE",
    "phone": "(951) 977-8666",
    "lat": 33.949944,
    "lng": -117.4542975
  },
  {
    "id": "250000250",
    "name": "THE SURGERY CENTER OF RIVERSIDE",
    "npi": "1225184153",
    "hcaiId": "306334465",
    "businessName": "JEAN CHENG, M.D., INC.",
    "contactEmail": null,
    "categoryName": "SURGICAL CLINIC",
    "categoryCode": "ASC",
    "licenseStatus": "INACTIVE - CAPEN DECISION",
    "inService": false,
    "licenseNumber": "250000625",
    "licenseEffectiveDate": "05/22/2007",
    "licenseExpirationDate": "05/21/2008",
    "dataDate": "10/18/2025",
    "capacity": 0,
    "address": "8990 GARFIELD ST, SUITE 1",
    "city": "RIVERSIDE",
    "zip": "92503",
    "county": "RIVERSIDE",
    "phone": "(951) 785-5421",
    "lat": 33.92879883,
    "lng": -117.4396542
  },
  {
    "id": "630019124",
    "name": "UNICARE COMMUNITY HEALTH CENTER, INC.",
    "npi": "1043777089",
    "hcaiId": "306330651",
    "businessName": "UNICARE COMMUNITY HEALTH CENTER, INC.",
    "contactEmail": "K.VO@UNICAREHC.ORG",
    "categoryName": "PRIMARY CARE CLINIC",
    "categoryCode": "COMTYC",
    "licenseStatus": "ACTIVE",
    "inService": true,
    "licenseNumber": "550006138",
    "licenseEffectiveDate": "02/05/2025",
    "licenseExpirationDate": "02/04/2026",
    "dataDate": "10/18/2025",
    "capacity": 0,
    "address": "5549 VAN BUREN BLVD",
    "city": "RIVERSIDE",
    "zip": "92503",
    "county": "RIVERSIDE",
    "phone": "(951) 324-5901",
    "lat": 33.94015194,
    "lng": -117.4538598
  },
  {
    "id": "630027306",
    "name": "UNICARE COMMUNITY HEALTH CENTER, INC.",
    "npi": "1043777089",
    "hcaiId": null,
    "businessName": "UNICARE COMMUNITY HEALTH CENTER, INC.",
    "contactEmail": null,
    "categoryName": "PRIMARY CARE CLINIC",
    "categoryCode": "COMTYC",
    "licenseStatus": "ACTIVE",
    "inService": true,
    "licenseNumber": "550006138",
    "licenseEffectiveDate": "02/05/2025",
    "licenseExpirationDate": "02/04/2026",
    "dataDate": "10/18/2025",
    "capacity": 0,
    "address": "5549 VAN BUREN BLVD",
    "city": "RIVERSIDE",
    "zip": "92503",
    "county": "RIVERSIDE",
    "phone": null,
    "lat": 33.93921201,
    "lng": -117.453118
  },
  {
    "id": "630012553",
    "name": "VAN BUREN DIALYSIS",
    "npi": "1245567627",
    "hcaiId": "306334623",
    "businessName": "MK DIALYSIS CENTER AT RIVERSIDE, INC.",
    "contactEmail": "SAIJU@CDMSRENAL.COM",
    "categoryName": "CHRONIC DIALYSIS CLINIC",
    "categoryCode": "ESRD/CDC",
    "licenseStatus": "ACTIVE",
    "inService": true,
    "licenseNumber": "550001440",
    "licenseEffectiveDate": "12/20/2024",
    "licenseExpirationDate": "12/19/2025",
    "dataDate": "10/18/2025",
    "capacity": 0,
    "address": "3595 VAN BUREN BLVD, SUITE 101",
    "city": "RIVERSIDE",
    "zip": "92503",
    "county": "RIVERSIDE",
    "phone": "(951) 977-9466",
    "lat": 33.91712458,
    "lng": -117.4436421
  },
  {
    "id": "250000153",
    "name": "VILLA HEALTH CARE CENTER",
    "npi": "1386629889",
    "hcaiId": "206331371",
    "businessName": "VILLA CONVALESCENT HOSPITAL, INC.",
    "contactEmail": "JELLIS-SHERINIAN@NAHSHOLDING.COM",
    "categoryName": "SKILLED NURSING FACILITY",
    "categoryCode": "SNF",
    "licenseStatus": "ACTIVE",
    "inService": true,
    "licenseNumber": "250000219",
    "licenseEffectiveDate": "11/21/2024",
    "licenseExpirationDate": "11/20/2025",
    "dataDate": "10/18/2025",
    "capacity": 59,
    "address": "8965 MAGNOLIA AVE",
    "city": "RIVERSIDE",
    "zip": "92503",
    "county": "RIVERSIDE",
    "phone": "(951) 689-5788",
    "lat": 33.926175,
    "lng": -117.4370895
  },
  {
    "id": "630019882",
    "name": "VISTA DIVISION",
    "npi": null,
    "hcaiId": null,
    "businessName": "BRIGHT EXPECTATIONS, INC.",
    "contactEmail": "BRIGHT.EXPECTATIONS@YAHOO.COM",
    "categoryName": "INTERMEDIATE CARE FACILITY-DD/H/N/CN/IID",
    "categoryCode": "ICFDDN",
    "licenseStatus": "ACTIVE",
    "inService": true,
    "licenseNumber": "550005985",
    "licenseEffectiveDate": "01/20/2025",
    "licenseExpirationDate": "01/19/2026",
    "dataDate": "10/18/2025",
    "capacity": 6,
    "address": "6760 OLYMPIA DR",
    "city": "RIVERSIDE",
    "zip": "92503",
    "county": "RIVERSIDE",
    "phone": "(951) 727-4303",
    "lat": 33.952851,
    "lng": -117.4742415
  }
]