[
  {
    "id": "630025930",
    "name": "ACCENTCARE HOME HEALTH OF CA - RIVERSIDE BRANCH",
    "npi": null,
    "hcaiId": null,
    "businessName": "ACCENTCARE HOME HEALTH OF CALIFORNIA, INC.",
    "contactEmail": "REENECOWAN@ACCENTCARE.COM",
    "categoryName": "HOME HEALTH AGENCY",
    "categoryCode": "HHA",
    "licenseStatus": "ACTIVE",
    "inService": true,
    "licenseNumber": "980000845",
    "licenseEffectiveDate": "12/01/2024",
    "licenseExpirationDate": "11/30/2025",
    "dataDate": "10/18/2025",
    "capacity": 0,
    "address": "2280 MARKET ST, SUITE 220",
    "city": "RIVERSIDE",
    "zip": "92501",
    "county": "RIVERSIDE",
    "phone": "(626) 966-2545",
    "lat": 33.99858099,
    "lng": -117.371865
  },
  {
    "id": "630013289",
    "name": "ADVANTAGE HEALTH SYSTEMS",
    "npi": "1558658864",
    "hcaiId": "406334641",
    "businessName": "EGB HOLDINGS",
    "contactEmail": "INFO.RVHH@ADVHEALTHSYSTEMS.COM",
    "categoryName": "HOME HEALTH AGENCY",
    "categoryCode": "HHA",
    "licenseStatus": "ACTIVE",
    "inService": true,
    "licenseNumber": "550001894",
    "licenseEffectiveDate": "03/20/2025",
    "licenseExpirationDate": "03/19/2026",
    "dataDate": "10/18/2025",
    "capacity": 0,
    "address": "4100 LATHAM ST, SUITE D",
    "city": "RIVERSIDE",
    "zip": "92501",
    "county": "RIVERSIDE",
    "phone": "(951) 686-0003",
    "lat": 34.001037,
    "lng": -117.3724695
  },
  {
    "id": "630017021",
    "name": "ADVANTAGE HEALTH SYSTEMS",
    "npi": null,
    "hcaiId": "406330906",
    "businessName": "EGB HOLDINGS",
    "contactEmail": "INFO.RVHO@ADVHEALTHSYSTEMS.COM",
    "categoryName": "HOSPICE",
    "categoryCode": "HOSPICE",
    "licenseStatus": "ACTIVE",
    "inService": true,
    "licenseNumber": "550004283",
    "licenseEffectiveDate": "05/10/2024",
    "licenseExpirationDate": "05/09/2026",
    "dataDate": "10/18/2025",
    "capacity": 0,
    "address": "4100 LATHAM STREET, SUITE E",
    "city": "RIVERSIDE",
    "zip": "92501",
    "county": "RIVERSIDE",
    "phone": "(858) 361-0445",
    "lat": 34.001037,
    "lng": -117.3724695
  },
  {
    "id": "250000019",
    "name": "COMMUNITY CARE ON PALM",
    "npi": "1619560216",
    "hcaiId": "206331116",
    "businessName": "COMMUNITY CARE ON PALM RIVERSIDE, LLC",
    "contactEmail": "ADMINISTRATOR@CCOPALM.COM",
    "categoryName": "SKILLED NURSING FACILITY",
    "categoryCode": "SNF",
    "licenseStatus": "ACTIVE",
    "inService": true,
    "licenseNumber": "250000115",
    "licenseEffectiveDate": "03/15/2025",
    "licenseExpirationDate": "03/14/2026",
    "dataDate": "10/18/2025",
    "capacity": 51,
    "address": "4768 PALM AVE",
    "city": "RIVERSIDE",
    "zip": "92501",
    "county": "RIVERSIDE",
    "phone": "(714) 292-5292",
    "lat": 33.975729,
    "lng": -117.3908925
  },
  {
    "id": "630012199",
    "name": "INLAND SURGERY CENTER, INC",
    "npi": "1962670687",
    "hcaiId": null,
    "businessName": null,
    "contactEmail": null,
    "categoryName": "SURGICAL CLINIC",
    "categoryCode": "ASC/SURGC",
    "licenseStatus": null,
    "inService": null,
    "licenseNumber": null,
    "licenseEffectiveDate": null,
    "licenseExpirationDate": null,
    "dataDate": "10/18/2025",
    "capacity": 0,
    "address": "4049 ALMOND ST, SUITE 102",
    "city": "RIVERSIDE",
    "zip": "92501",
    "county": "RIVERSIDE",
    "phone": "(951) 781-3945",
    "lat": 33.98067,
    "lng": -117.3787695
  },
  {
    "id": "630022228",
    "name": "NEIGHBORHOOD HEALTHCARE - RIVERSIDE",
    "npi": null,
    "hcaiId": null,
    "businessName": "NEIGHBORHOOD HEALTHCARE",
    "contactEmail": null,
    "categoryName": "PRIMARY CARE CLINIC",
    "categoryCode": "COMTYC",
    "licenseStatus": "ACTIVE",
    "inService": true,
    "licenseNumber": "550009103",
    "licenseEffectiveDate": "05/03/2025",
    "licenseExpirationDate": "05/02/2026",
    "dataDate": "10/18/2025",
    "capacity": 0,
    "address": "4371 LATHAM ST",
    "city": "RIVERSIDE",
    "zip": "92501",
    "county": "RIVERSIDE",
    "phone": "(833) 867-4642",
    "lat": 34.002828,
    "lng": -117.375219
  },
  {
    "id": "630013157",
    "name": "PROMESA HOME CARE, INC.",
    "npi": null,
    "hcaiId": "406334642",
    "businessName": "PROMESA HOME CARE, INC.",
    "contactEmail": "PROMESAHC@LIVE.COM",
    "categoryName": "HOME HEALTH AGENCY",
    "categoryCode": "HHA",
    "licenseStatus": "ACTIVE",
    "inService": true,
    "licenseNumber": "550001804",
    "licenseEffectiveDate": "12/14/2024",
    "licenseExpirationDate": "12/13/2025",
    "dataDate": "10/18/2025",
    "capacity": 0,
    "address": "3978 BROCKTON AVENUE",
    "city": "RIVERSIDE",
    "zip": "92501",
    "county": "RIVERSIDE",
    "phone": "(951) 682-3820",
    "lat": 33.982299,
    "lng": -117.380061
  },
  {
    "id": "250000021",
    "name": "RIVERSIDE BEHAVIORAL HEALTHCARE CENTER",
    "npi": "1245224732",
    "hcaiId": "206331124",
    "businessName": "RIVERSIDE SANITARIUM, LLC",
    "contactEmail": "JESSE.MANDUJANO@RIVERSIDEHCC.COM",
    "categoryName": "SKILLED NURSING FACILITY",
    "categoryCode": "SNF",
    "licenseStatus": "ACTIVE",
    "inService": true,
    "licenseNumber": "250000119",
    "licenseEffectiveDate": "11/01/2025",
    "licenseExpirationDate": "10/31/2026",
    "dataDate": "10/18/2025",
    "capacity": 120,
    "address": "4580 PALM AVE",
    "city": "RIVERSIDE",
    "zip": "92501",
    "county": "RIVERSIDE",
    "phone": "(951) 684-7701",
    "lat": 33.977745,
    "lng": -117.3893985
  },
  {
    "id": "250000049",
    "name": "RIVERSIDE COMMUNITY HOSPITAL",
    "npi": "1114971660",
    "hcaiId": "106331312",
    "businessName": "RIVERSIDE HEALTHCARE SYSTEM, L.P.",
    "contactEmail": "HOURIA.ELASHARI@HCAHEALTHCARE.COM",
    "categoryName": "GENERAL ACUTE CARE HOSPITAL",
    "categoryCode": "GACH",
    "licenseStatus": "ACTIVE",
    "inService": true,
    "licenseNumber": "250000194",
    "licenseEffectiveDate": "05/01/2025",
    "licenseExpirationDate": "04/30/2026",
    "dataDate": "10/18/2025",
    "capacity": 517,
    "address": "4445 MAGNOLIA AVE",
    "city": "RIVERSIDE",
    "zip": "92501",
    "county": "RIVERSIDE",
    "phone": "(951) 788-3683",
    "lat": 33.976368,
    "lng": -117.3814065
  },
  {
    "id": "630025351",
    "name": "RIVERSIDE COMMUNITY HOSPITAL TRANSPLANT",
    "npi": "1114971660",
    "hcaiId": null,
    "businessName": "RIVERSIDE HEALTHCARE SYSTEM, L.P.",
    "contactEmail": null,
    "categoryName": "GENERAL ACUTE CARE HOSPITAL",
    "categoryCode": "TRANS",
    "licenseStatus": "ACTIVE",
    "inService": true,
    "licenseNumber": "250000194",
    "licenseEffectiveDate": "05/01/2025",
    "licenseExpirationDate": "04/30/2026",
    "dataDate": "10/18/2025",
    "capacity": 0,
    "address": "4445 MAGNOLIA AVE",
    "city": "RIVERSIDE",
    "zip": "92501",
    "county": "RIVERSIDE",
    "phone": null,
    "lat": 33.976368,
    "lng": -117.3814065
  },
  {
    "id": "240001813",
    "name": "RIVERSIDE DIALYSIS CENTER",
    "npi": "1033172135",
    "hcaiId": "306331863",
    "businessName": "RENAL TREATMENT CENTERS - CALIFORNIA, INC.",
    "contactEmail": "CAL_C@DAVITA.COM",
    "categoryName": "CHRONIC DIALYSIS CLINIC",
    "categoryCode": "ESRD/CDC",
    "licenseStatus": "ACTIVE",
    "inService": true,
    "licenseNumber": "240000802",
    "licenseEffectiveDate": "03/16/2025",
    "licenseExpirationDate": "03/15/2026",
    "dataDate": "10/18/2025",
    "capacity": 32,
    "address": "4361 LATHAM ST, SUITE 100",
    "city": "RIVERSIDE",
    "zip": "92501",
    "county": "RIVERSIDE",
    "phone": "(951) 682-2700",
    "lat": 34.002693,
    "lng": -117.373923
  },
  {
    "id": "630021926",
    "name": "RIVERSIDE OUTPATIENT SURGICAL INSTITUTE",
    "npi": "1821637984",
    "hcaiId": null,
    "businessName": null,
    "contactEmail": "JORDAN@RIVERSIDEOUTPATIENTSURGICALINSTITUTE.COM",
    "categoryName": "SURGICAL CLINIC",
    "categoryCode": "ASC",
    "licenseStatus": null,
    "inService": null,
    "licenseNumber": null,
    "licenseEffectiveDate": null,
    "licenseExpirationDate": null,
    "dataDate": "10/18/2025",
    "capacity": 0,
    "address": "4500 BROCKTON AVE, SUITE 105",
    "city": "RIVERSIDE",
    "zip": "92501",
    "county": "RIVERSIDE",
    "phone": "(951) 784-4088",
    "lat": 33.976872,
    "lng": -117.383337
  },
  {
    "id": "250000095",
    "name": "THE GROVE CARE AND WELLNESS",
    "npi": "1356588826",
    "hcaiId": "206331300",
    "businessName": "EMPIRECARE HEALTH ASSOCIATES LLC",
    "contactEmail": "RENEWALS@ENSIGNSERVICES.NET",
    "categoryName": "SKILLED NURSING FACILITY",
    "categoryCode": "SNF",
    "licenseStatus": "ACTIVE",
    "inService": true,
    "licenseNumber": "250000188",
    "licenseEffectiveDate": "06/22/2025",
    "licenseExpirationDate": "06/21/2026",
    "dataDate": "10/18/2025",
    "capacity": 38,
    "address": "3401 LEMON ST",
    "city": "RIVERSIDE",
    "zip": "92501",
    "county": "RIVERSIDE",
    "phone": "(951) 686-8202",
    "lat": 33.984594,
    "lng": -117.3700215
  }
]