[
  {
    "id": "250000015",
    "name": "ARLINGTON GARDENS CARE CENTER",
    "npi": "1780982835",
    "hcaiId": "206334559",
    "businessName": "HONEYFLOWER HOLDINGS, LLC",
    "contactEmail": "CARSON.MCCUSKER@ARLINGTONGARDENSCC.COM",
    "categoryName": "SKILLED NURSING FACILITY",
    "categoryCode": "SNF",
    "licenseStatus": "ACTIVE",
    "inService": true,
    "licenseNumber": "250000108",
    "licenseEffectiveDate": "06/07/2025",
    "licenseExpirationDate": "06/06/2026",
    "dataDate": "10/18/2025",
    "capacity": 99,
    "address": "3688 NYE AVE",
    "city": "RIVERSIDE",
    "zip": "92505",
    "county": "RIVERSIDE",
    "phone": "(951) 351-2800",
    "lat": 33.90652522,
    "lng": -117.4660479
  },
  {
    "id": "250001663",
    "name": "BENTLEY HOUSE",
    "npi": "1033259767",
    "hcaiId": null,
    "businessName": null,
    "contactEmail": null,
    "categoryName": "INTERMEDIATE CARE FACILITY-DD/H/N/CN/IID",
    "categoryCode": "ICFDDH",
    "licenseStatus": "ACTIVE",
    "inService": true,
    "licenseNumber": "250000728",
    "licenseEffectiveDate": "02/26/2025",
    "licenseExpirationDate": "02/25/2026",
    "dataDate": "10/18/2025",
    "capacity": 6,
    "address": "11350 BENTLEY ST",
    "city": "RIVERSIDE",
    "zip": "92505",
    "county": "RIVERSIDE",
    "phone": "(951) 343-1107",
    "lat": 33.94935,
    "lng": -117.512694
  },
  {
    "id": "250001632",
    "name": "CARRICK HOUSE",
    "npi": "1396872792",
    "hcaiId": null,
    "businessName": "RSCR INLAND, INC.",
    "contactEmail": "SHAWN.KARIMI@RESCARE.COM",
    "categoryName": "INTERMEDIATE CARE FACILITY-DD/H/N/CN/IID",
    "categoryCode": "ICFDDH",
    "licenseStatus": "ACTIVE",
    "inService": true,
    "licenseNumber": "250000726",
    "licenseEffectiveDate": "04/14/2025",
    "licenseExpirationDate": "04/13/2026",
    "dataDate": "10/18/2025",
    "capacity": 6,
    "address": "3980 CARRICK ST",
    "city": "RIVERSIDE",
    "zip": "92505",
    "county": "RIVERSIDE",
    "phone": "(909) 466-0128",
    "lat": 33.908679,
    "lng": -117.4749795
  },
  {
    "id": "630027199",
    "name": "CENTRO MEDICO COMMUNITY CLINIC",
    "npi": null,
    "hcaiId": null,
    "businessName": "CENTRO MEDICO COMMUNITY CLINIC, INC.",
    "contactEmail": "SMASRI@CENTROMEDLCOCLINIC.COM",
    "categoryName": "PRIMARY CARE CLINIC",
    "categoryCode": "COMTYC",
    "licenseStatus": "ACTIVE",
    "inService": true,
    "licenseNumber": "250000762",
    "licenseEffectiveDate": "11/16/2024",
    "licenseExpirationDate": "11/15/2025",
    "dataDate": "10/18/2025",
    "capacity": 0,
    "address": "10368 ARLINGTON AVE",
    "city": "RIVERSIDE",
    "zip": "92505",
    "county": "RIVERSIDE",
    "phone": "(951) 376-3097",
    "lat": 33.94567701,
    "lng": -117.478837
  },
  {
    "id": "250001821",
    "name": "CNE HOME HEALTH SERVICES, INC.",
    "npi": "1205928439",
    "hcaiId": "406334552",
    "businessName": "CNE HOME HEALTH SERVICES, INC",
    "contactEmail": "JOANNAP.CNEHHS@GMAIL.COM",
    "categoryName": "HOME HEALTH AGENCY",
    "categoryCode": "HHA",
    "licenseStatus": "ACTIVE",
    "inService": true,
    "licenseNumber": "250000806",
    "licenseEffectiveDate": "11/21/2024",
    "licenseExpirationDate": "11/20/2025",
    "dataDate": "10/18/2025",
    "capacity": 0,
    "address": "10600 MAGNOLIA AVE, SUITE G",
    "city": "RIVERSIDE",
    "zip": "92505",
    "county": "RIVERSIDE",
    "phone": "(951) 351-4263",
    "lat": 33.907896,
    "lng": -117.467496
  },
  {
    "id": "250000113",
    "name": "COLLEGE HOUSE",
    "npi": "1760519128",
    "hcaiId": null,
    "businessName": "RSCR INLAND, INC.",
    "contactEmail": "TIMOTHY.HEASLIP@RESCARE.COM",
    "categoryName": "INTERMEDIATE CARE FACILITY-DD/H/N/CN/IID",
    "categoryCode": "ICFDDH",
    "licenseStatus": "ACTIVE",
    "inService": true,
    "licenseNumber": "250000081",
    "licenseEffectiveDate": "11/01/2025",
    "licenseExpirationDate": "10/31/2026",
    "dataDate": "10/18/2025",
    "capacity": 6,
    "address": "5475 COLLEGE AVE",
    "city": "RIVERSIDE",
    "zip": "92505",
    "county": "RIVERSIDE",
    "phone": "(951) 785-9046",
    "lat": 33.926382,
    "lng": -117.5083515
  },
  {
    "id": "630028076",
    "name": "CORNERSTONE SURGERY CENTER & ANESTHESIA NURSING SERVICES, INC",
    "npi": null,
    "hcaiId": null,
    "businessName": null,
    "contactEmail": "ELSA@CSSCIE.ORG",
    "categoryName": "SURGICAL CLINIC",
    "categoryCode": "ASC",
    "licenseStatus": null,
    "inService": null,
    "licenseNumber": null,
    "licenseEffectiveDate": null,
    "licenseExpirationDate": null,
    "dataDate": "10/18/2025",
    "capacity": 0,
    "address": "10694 MAGNOLIA AVE",
    "city": "RIVERSIDE",
    "zip": "92505",
    "county": "RIVERSIDE",
    "phone": "(951) 335-5250",
    "lat": 33.90752745,
    "lng": -117.4682864
  },
  {
    "id": "250001717",
    "name": "GRAMERCY DIVISION",
    "npi": "1265607584",
    "hcaiId": null,
    "businessName": "BRIGHT EXPECTATIONS, INC.",
    "contactEmail": "JANE.BRIGHTEXPECTATIONS@GMAIL.COM",
    "categoryName": "INTERMEDIATE CARE FACILITY-DD/H/N/CN/IID",
    "categoryCode": "ICFDDH",
    "licenseStatus": "ACTIVE",
    "inService": true,
    "licenseNumber": "250000745",
    "licenseEffectiveDate": "01/22/2025",
    "licenseExpirationDate": "01/21/2026",
    "dataDate": "10/18/2025",
    "capacity": 6,
    "address": "10466 GRAMERCY PL",
    "city": "RIVERSIDE",
    "zip": "92505",
    "county": "RIVERSIDE",
    "phone": "(909) 501-1008",
    "lat": 33.929595,
    "lng": -117.482364
  },
  {
    "id": "250001712",
    "name": "GREENTREE HOUSE",
    "npi": "1053452789",
    "hcaiId": null,
    "businessName": null,
    "contactEmail": "GDHIRST@SBCGLOBAL.NET",
    "categoryName": "INTERMEDIATE CARE FACILITY-DD/H/N/CN/IID",
    "categoryCode": "ICFDDN",
    "licenseStatus": "ACTIVE",
    "inService": true,
    "licenseNumber": "250000742",
    "licenseEffectiveDate": "11/06/2024",
    "licenseExpirationDate": "11/05/2025",
    "dataDate": "10/18/2025",
    "capacity": 6,
    "address": "11752 TILDEN PL",
    "city": "RIVERSIDE",
    "zip": "92505",
    "county": "RIVERSIDE",
    "phone": "(951) 734-2576",
    "lat": 33.91912398,
    "lng": -117.505932
  },
  {
    "id": "250001337",
    "name": "JONES DIVISION",
    "npi": "1760600969",
    "hcaiId": null,
    "businessName": "BRIGHT EXPECTATIONS, INC.",
    "contactEmail": "BRIGHT.EXPECTATIONS@YAHOO.COM",
    "categoryName": "INTERMEDIATE CARE FACILITY-DD/H/N/CN/IID",
    "categoryCode": "ICFDDH",
    "licenseStatus": "ACTIVE",
    "inService": true,
    "licenseNumber": "250000565",
    "licenseEffectiveDate": "11/22/2024",
    "licenseExpirationDate": "11/21/2025",
    "dataDate": "10/18/2025",
    "capacity": 6,
    "address": "5523 JONES AVE",
    "city": "RIVERSIDE",
    "zip": "92505",
    "county": "RIVERSIDE",
    "phone": "(951) 224-7220",
    "lat": 33.934806,
    "lng": -117.4815225
  },
  {
    "id": "250000707",
    "name": "KAISER FOUNDATION HOSPITAL RIVERSIDE",
    "npi": "1306991211",
    "hcaiId": "106334025",
    "businessName": "KAISER FOUNDATION HOSPITALS",
    "contactEmail": "MARY.E.DRAYER@KP.ORG",
    "categoryName": "GENERAL ACUTE CARE HOSPITAL",
    "categoryCode": "GACH",
    "licenseStatus": "ACTIVE",
    "inService": true,
    "licenseNumber": "250000327",
    "licenseEffectiveDate": "11/11/2025",
    "licenseExpirationDate": "11/10/2026",
    "dataDate": "10/18/2025",
    "capacity": 225,
    "address": "10800 MAGNOLIA AVE",
    "city": "RIVERSIDE",
    "zip": "92505",
    "county": "RIVERSIDE",
    "phone": "(951) 353-3385",
    "lat": 33.9048,
    "lng": -117.469269
  },
  {
    "id": "630013826",
    "name": "KAISER PERMANENTE RIVERSIDE",
    "npi": "1306991221",
    "hcaiId": null,
    "businessName": null,
    "contactEmail": null,
    "categoryName": "CHRONIC DIALYSIS CLINIC",
    "categoryCode": "ESRD",
    "licenseStatus": null,
    "inService": null,
    "licenseNumber": null,
    "licenseEffectiveDate": null,
    "licenseExpirationDate": null,
    "dataDate": "10/18/2025",
    "capacity": 0,
    "address": "10800 MAGNOLIA AVE",
    "city": "RIVERSIDE",
    "zip": "92505",
    "county": "RIVERSIDE",
    "phone": "(951) 353-4887",
    "lat": 33.9048,
    "lng": -117.469269
  },
  {
    "id": "630010561",
    "name": "MAGNOLIA WEST DIALYSIS",
    "npi": "1316971641",
    "hcaiId": "306334575",
    "businessName": "DAVITA RIVERSIDE II, LLC",
    "contactEmail": "CAL_C@DAVITA.COM",
    "categoryName": "CHRONIC DIALYSIS CLINIC",
    "categoryCode": "ESRD/CDC",
    "licenseStatus": "ACTIVE",
    "inService": true,
    "licenseNumber": "550000177",
    "licenseEffectiveDate": "04/26/2025",
    "licenseExpirationDate": "04/25/2026",
    "dataDate": "10/18/2025",
    "capacity": 30,
    "address": "11161 MAGNOLIA AVE",
    "city": "RIVERSIDE",
    "zip": "92505",
    "county": "RIVERSIDE",
    "phone": "(951) 351-8090",
    "lat": 33.902811,
    "lng": -117.4785525
  },
  {
    "id": "630015031",
    "name": "MLIFE HOSPICE, INC.",
    "npi": "1083033526",
    "hcaiId": "406331352",
    "businessName": "MLIFE HOSPICE, INC.",
    "contactEmail": "MLIFEHOSPICEINC@GMAIL.COM",
    "categoryName": "HOSPICE",
    "categoryCode": "HOSPICE",
    "licenseStatus": "ACTIVE",
    "inService": true,
    "licenseNumber": "550003844",
    "licenseEffectiveDate": "04/26/2023",
    "licenseExpirationDate": "04/25/2025",
    "dataDate": "10/18/2025",
    "capacity": 0,
    "address": "10590 MAGNOLIA AVE, SUITE F",
    "city": "RIVERSIDE",
    "zip": "92505",
    "county": "RIVERSIDE",
    "phone": "(951) 436-5933",
    "lat": 33.908184,
    "lng": -117.466893
  },
  {
    "id": "250000072",
    "name": "PALM TERRACE CARE CENTER",
    "npi": "1467165993",
    "hcaiId": "206331285",
    "businessName": "GOLDENSTAR HEALTHCARE, INC.",
    "contactEmail": "RLEET@ENSIGNSERVICES.NET",
    "categoryName": "SKILLED NURSING FACILITY",
    "categoryCode": "SNF",
    "licenseStatus": "ACTIVE",
    "inService": true,
    "licenseNumber": "250000183",
    "licenseEffectiveDate": "11/15/2024",
    "licenseExpirationDate": "11/14/2025",
    "dataDate": "10/18/2025",
    "capacity": 75,
    "address": "11162 PALM TERRACE LN",
    "city": "RIVERSIDE",
    "zip": "92505",
    "county": "RIVERSIDE",
    "phone": "(951) 687-7330",
    "lat": 33.934941,
    "lng": -117.498501
  },
  {
    "id": "630012178",
    "name": "PARK SIERRA HOME TRAINING",
    "npi": "1215332945",
    "hcaiId": null,
    "businessName": null,
    "contactEmail": null,
    "categoryName": "CHRONIC DIALYSIS CLINIC",
    "categoryCode": "ESRD",
    "licenseStatus": null,
    "inService": null,
    "licenseNumber": null,
    "licenseEffectiveDate": null,
    "licenseExpirationDate": null,
    "dataDate": "10/18/2025",
    "capacity": 0,
    "address": "3660 PARK SIERRA DR, SUITE 103",
    "city": "RIVERSIDE",
    "zip": "92505",
    "county": "RIVERSIDE",
    "phone": "(951) 373-4004",
    "lat": 33.902865,
    "lng": -117.4714335
  },
  {
    "id": "630017050",
    "name": "PRECISION SURGERY CENTER",
    "npi": "1386003390",
    "hcaiId": null,
    "businessName": null,
    "contactEmail": null,
    "categoryName": "SURGICAL CLINIC",
    "categoryCode": "ASC",
    "licenseStatus": null,
    "inService": null,
    "licenseNumber": null,
    "licenseEffectiveDate": null,
    "licenseExpirationDate": null,
    "dataDate": "10/18/2025",
    "capacity": 0,
    "address": "4234 RIVERWALK PARKWAY, SUITE 140",
    "city": "RIVERSIDE",
    "zip": "92505",
    "county": "RIVERSIDE",
    "phone": null,
    "lat": 33.903603,
    "lng": -117.495819
  },
  {
    "id": "630019791",
    "name": "RIVA HOSPICE OF CALIFORNIA",
    "npi": "1669012100",
    "hcaiId": "406335912",
    "businessName": "FAITH KAY HOSPICE, LLC",
    "contactEmail": "ROBLEYW@RIVAHOSPICE.COM",
    "categoryName": "HOSPICE",
    "categoryCode": "HOSPICE",
    "licenseStatus": "ACTIVE",
    "inService": true,
    "licenseNumber": "550005714",
    "licenseEffectiveDate": "08/11/2024",
    "licenseExpirationDate": "08/10/2026",
    "dataDate": "10/18/2025",
    "capacity": 0,
    "address": "10586 MAGNOLIA AVE",
    "city": "RIVERSIDE",
    "zip": "92505",
    "county": "RIVERSIDE",
    "phone": "(833) 268-9633",
    "lat": 33.90857041,
    "lng": -117.4669208
  },
  {
    "id": "630012194",
    "name": "RIVERSIDE MISSION HOME TRAINING",
    "npi": "1306240551",
    "hcaiId": null,
    "businessName": null,
    "contactEmail": null,
    "categoryName": "CHRONIC DIALYSIS CLINIC",
    "categoryCode": "ESRD",
    "licenseStatus": null,
    "inService": null,
    "licenseNumber": null,
    "licenseEffectiveDate": null,
    "licenseExpirationDate": null,
    "dataDate": "10/18/2025",
    "capacity": 0,
    "address": "3660 PARK SIERRA DR, SUITE 108",
    "city": "RIVERSIDE",
    "zip": "92505",
    "county": "RIVERSIDE",
    "phone": "(951) 341-5895",
    "lat": 33.902865,
    "lng": -117.4714335
  },
  {
    "id": "630016421",
    "name": "RIVERSIDE REGIONAL SURGERY CENTER",
    "npi": "1407253446",
    "hcaiId": null,
    "businessName": null,
    "contactEmail": null,
    "categoryName": "SURGICAL CLINIC",
    "categoryCode": "ASC",
    "licenseStatus": null,
    "inService": null,
    "licenseNumber": null,
    "licenseEffectiveDate": null,
    "licenseExpirationDate": null,
    "dataDate": "10/18/2025",
    "capacity": 0,
    "address": "4234 RIVERWALK PARKWAY, UNIT 160",
    "city": "RIVERSIDE",
    "zip": "92505",
    "county": "RIVERSIDE",
    "phone": "(951) 785-7772",
    "lat": 33.903531,
    "lng": -117.495594
  },
  {
    "id": "630013870",
    "name": "RIVERWALK SURGERY CENTER",
    "npi": "1497011308",
    "hcaiId": null,
    "businessName": null,
    "contactEmail": null,
    "categoryName": "SURGICAL CLINIC",
    "categoryCode": "ASC",
    "licenseStatus": null,
    "inService": null,
    "licenseNumber": null,
    "licenseEffectiveDate": null,
    "licenseExpirationDate": null,
    "dataDate": "10/18/2025",
    "capacity": 0,
    "address": "4244 RIVERWALK PKWY, SUITE 210",
    "city": "RIVERSIDE",
    "zip": "92505",
    "county": "RIVERSIDE",
    "phone": "(951) 321-0100",
    "lat": 33.903774,
    "lng": -117.495144
  },
  {
    "id": "630018697",
    "name": "SAVING LIFE HOME HEALTH INC.",
    "npi": null,
    "hcaiId": "406332110",
    "businessName": "SAVING LIFE HOME HEALTH INC.",
    "contactEmail": "SAVINGLIFEHH@GMAIL.COM",
    "categoryName": "HOME HEALTH AGENCY",
    "categoryCode": "HHA",
    "licenseStatus": "ACTIVE",
    "inService": true,
    "licenseNumber": "550005176",
    "licenseEffectiveDate": "12/04/2024",
    "licenseExpirationDate": "12/03/2025",
    "dataDate": "10/18/2025",
    "capacity": 0,
    "address": "10590 MAGNOLIA AVE, SUITE F1",
    "city": "RIVERSIDE",
    "zip": "92505",
    "county": "RIVERSIDE",
    "phone": "(951) 353-9615",
    "lat": 33.908112,
    "lng": -117.466974
  },
  {
    "id": "250001741",
    "name": "TILDEN HOUSE",
    "npi": "1700927373",
    "hcaiId": null,
    "businessName": null,
    "contactEmail": "GDHIRST@SBCGLOBAL.NET",
    "categoryName": "INTERMEDIATE CARE FACILITY-DD/H/N/CN/IID",
    "categoryCode": "ICFDDN",
    "licenseStatus": "ACTIVE",
    "inService": true,
    "licenseNumber": "250000758",
    "licenseEffectiveDate": "11/05/2024",
    "licenseExpirationDate": "11/04/2025",
    "dataDate": "10/18/2025",
    "capacity": 6,
    "address": "11966 TILDEN PL",
    "city": "RIVERSIDE",
    "zip": "92505",
    "county": "RIVERSIDE",
    "phone": "(951) 689-5583",
    "lat": 33.919119,
    "lng": -117.509706
  }
]