[
  {
    "id": "060001765",
    "name": "ADULT DAY SERVICES CENTER OF RIVERSIDE",
    "npi": null,
    "hcaiId": null,
    "businessName": "CARE CONNEXXUS, INC. ADULT DAY SERVICES",
    "contactEmail": "JCHAVEZ@CARECONNEXXUS.ORG",
    "categoryName": "ADULT DAY HEALTH CARE",
    "categoryCode": "ADHC",
    "licenseStatus": "ACTIVE",
    "inService": true,
    "licenseNumber": "060000583",
    "licenseEffectiveDate": "03/30/2025",
    "licenseExpirationDate": "03/29/2026",
    "dataDate": "10/18/2025",
    "capacity": 0,
    "address": "4130 ADAMS ST, SUITE B",
    "city": "RIVERSIDE",
    "zip": "92504",
    "county": "RIVERSIDE",
    "phone": "(951) 509-2500",
    "lat": 33.937911,
    "lng": -117.428922
  },
  {
    "id": "630021487",
    "name": "AMICI HOSPICE, INC.",
    "npi": null,
    "hcaiId": "406335991",
    "businessName": "AMICI HOSPICE, INC.",
    "contactEmail": "AMICIHOSPICEINC@GMAIL.COM",
    "categoryName": "HOSPICE",
    "categoryCode": "HOSPICE",
    "licenseStatus": "ACTIVE",
    "inService": true,
    "licenseNumber": "550007533",
    "licenseEffectiveDate": "12/10/2023",
    "licenseExpirationDate": "12/09/2025",
    "dataDate": "10/18/2025",
    "capacity": 0,
    "address": "7121 MAGNOLIA AVE, SUITE F",
    "city": "RIVERSIDE",
    "zip": "92504",
    "county": "RIVERSIDE",
    "phone": "(951) 335-5537",
    "lat": 33.945546,
    "lng": -117.402705
  },
  {
    "id": "630016193",
    "name": "BELLA VITA CONGREGATE LIVING, LLC",
    "npi": null,
    "hcaiId": "206334752",
    "businessName": "BELLA VITA CONGREGATE LIVING, LLC",
    "contactEmail": "NURSEADMIN@BELLAVITACARE.ORG",
    "categoryName": "CONGREGATE LIVING HEALTH FACILITY",
    "categoryCode": "CLHF",
    "licenseStatus": "ACTIVE",
    "inService": true,
    "licenseNumber": "550003868",
    "licenseEffectiveDate": "04/19/2025",
    "licenseExpirationDate": "04/18/2026",
    "dataDate": "10/18/2025",
    "capacity": 6,
    "address": "16092 CONSTABLE ROAD",
    "city": "RIVERSIDE",
    "zip": "92504",
    "county": "RIVERSIDE",
    "phone": "(951) 800-8435",
    "lat": 33.885909,
    "lng": -117.397305
  },
  {
    "id": "630003041",
    "name": "BIOPATH LAB HOLDINGS, LLC",
    "npi": null,
    "hcaiId": null,
    "businessName": null,
    "contactEmail": null,
    "categoryName": "OTHER",
    "categoryCode": "UNLICEN",
    "licenseStatus": null,
    "inService": null,
    "licenseNumber": null,
    "licenseEffectiveDate": null,
    "licenseExpirationDate": null,
    "dataDate": "10/18/2025",
    "capacity": 0,
    "address": "6951 FLIGHT RD, SUITE 105",
    "city": "RIVERSIDE",
    "zip": "92504",
    "county": "RIVERSIDE",
    "phone": null,
    "lat": 33.950664,
    "lng": -117.4458915
  },
  {
    "id": "630027632",
    "name": "CALIFORNIA BAPTIST UNIVERSITY",
    "npi": null,
    "hcaiId": null,
    "businessName": "CALIFORNIA BAPTIST UNIVERSITY",
    "contactEmail": "ACOASTON@CALBAPTIST.EDU",
    "categoryName": "PRIMARY CARE CLINIC",
    "categoryCode": "COMTYC",
    "licenseStatus": "ACTIVE",
    "inService": true,
    "licenseNumber": "550009471",
    "licenseEffectiveDate": "07/31/2025",
    "licenseExpirationDate": "07/30/2026",
    "dataDate": "10/18/2025",
    "capacity": 0,
    "address": "8432 MAGNOLIA AVE",
    "city": "RIVERSIDE",
    "zip": "92504",
    "county": "RIVERSIDE",
    "phone": "(951) 552-8321",
    "lat": 33.93008998,
    "lng": -117.42564
  },
  {
    "id": "630015409",
    "name": "EMERALD COAST CONGREGATE",
    "npi": null,
    "hcaiId": "206334750",
    "businessName": "EMERALD COAST HEALTHCARE, LLC",
    "contactEmail": "ACG@EMERALDCOASTHC.COM",
    "categoryName": "CONGREGATE LIVING HEALTH FACILITY",
    "categoryCode": "CLHF",
    "licenseStatus": "ACTIVE",
    "inService": true,
    "licenseNumber": "550003774",
    "licenseEffectiveDate": "08/07/2024",
    "licenseExpirationDate": "08/06/2025",
    "dataDate": "10/18/2025",
    "capacity": 6,
    "address": "3495 JEFFERSON ST",
    "city": "RIVERSIDE",
    "zip": "92504",
    "county": "RIVERSIDE",
    "phone": "(949) 397-0658",
    "lat": 33.932619,
    "lng": -117.4126365
  },
  {
    "id": "250000051",
    "name": "EXTENDED CARE HOSPITAL OF RIVERSIDE",
    "npi": "1902902828",
    "hcaiId": "206331251",
    "businessName": "F & B HEALTH CARE",
    "contactEmail": "ADMIN@EXTENDEDCAREHOSPITAL.COM",
    "categoryName": "SKILLED NURSING FACILITY",
    "categoryCode": "SNF",
    "licenseStatus": "ACTIVE",
    "inService": true,
    "licenseNumber": "250000171",
    "licenseEffectiveDate": "02/01/2025",
    "licenseExpirationDate": "01/31/2026",
    "dataDate": "10/18/2025",
    "capacity": 99,
    "address": "8171 MAGNOLIA AVE",
    "city": "RIVERSIDE",
    "zip": "92504",
    "county": "RIVERSIDE",
    "phone": "(951) 687-3842",
    "lat": 33.93504,
    "lng": -117.4223025
  },
  {
    "id": "630018721",
    "name": "MFI RECOVERY CENTER",
    "npi": null,
    "hcaiId": "306330713",
    "businessName": "MFI RECOVERY CENTER",
    "contactEmail": "JASONPOPLAR@MFIRECOVERY.COM",
    "categoryName": "PRIMARY CARE CLINIC",
    "categoryCode": "COMTYC",
    "licenseStatus": "ACTIVE",
    "inService": true,
    "licenseNumber": "550007480",
    "licenseEffectiveDate": "12/06/2023",
    "licenseExpirationDate": "12/05/2024",
    "dataDate": "10/18/2025",
    "capacity": 0,
    "address": "5870 ARLINGTON AVE",
    "city": "RIVERSIDE",
    "zip": "92504",
    "county": "RIVERSIDE",
    "phone": "(951) 683-6596",
    "lat": 33.945579,
    "lng": -117.4312845
  },
  {
    "id": "250000270",
    "name": "MISSION CARE CENTER",
    "npi": "1891950267",
    "hcaiId": "206331203",
    "businessName": "RIVERSIDE EQUITIES, LLC",
    "contactEmail": "ADMIN@MISSIONCARECENTER.COM",
    "categoryName": "SKILLED NURSING FACILITY",
    "categoryCode": "SNF",
    "licenseStatus": "ACTIVE",
    "inService": true,
    "licenseNumber": "250000241",
    "licenseEffectiveDate": "12/19/2024",
    "licenseExpirationDate": "12/18/2025",
    "dataDate": "10/18/2025",
    "capacity": 40,
    "address": "8487 MAGNOLIA AVE",
    "city": "RIVERSIDE",
    "zip": "92504",
    "county": "RIVERSIDE",
    "phone": "(951) 688-2222",
    "lat": 33.931629,
    "lng": -117.428355
  },
  {
    "id": "630027473",
    "name": "PALLIARE HOME CARE, CLHF",
    "npi": null,
    "hcaiId": null,
    "businessName": "PALLIARE HOME CARE, LLC",
    "contactEmail": "PALLIAREHC@GMAIL.COM",
    "categoryName": "CONGREGATE LIVING HEALTH FACILITY",
    "categoryCode": "CLHF",
    "licenseStatus": "ACTIVE",
    "inService": true,
    "licenseNumber": "550009559",
    "licenseEffectiveDate": "06/19/2025",
    "licenseExpirationDate": "12/18/2025",
    "dataDate": "10/18/2025",
    "capacity": 6,
    "address": "7954 STELLA ST",
    "city": "RIVERSIDE",
    "zip": "92504",
    "county": "RIVERSIDE",
    "phone": "(951) 324-1595",
    "lat": 33.9336873,
    "lng": -117.4186005
  },
  {
    "id": "630002424",
    "name": "TOTAL CARE HOME HEALTH AGENCY",
    "npi": "1710913132",
    "hcaiId": "406334561",
    "businessName": "YOUNG TIGERS INC.",
    "contactEmail": "TCHHA@SBCGLOBAL.NET",
    "categoryName": "HOME HEALTH AGENCY",
    "categoryCode": "HHA",
    "licenseStatus": "ACTIVE",
    "inService": true,
    "licenseNumber": "550000028",
    "licenseEffectiveDate": "01/25/2025",
    "licenseExpirationDate": "01/24/2026",
    "dataDate": "10/18/2025",
    "capacity": 0,
    "address": "7130 MAGNOLIA AVE, SUITE A",
    "city": "RIVERSIDE",
    "zip": "92504",
    "county": "RIVERSIDE",
    "phone": "(951) 788-0202",
    "lat": 33.944967,
    "lng": -117.402453
  },
  {
    "id": "630018648",
    "name": "TRICITY RIVERSIDE DIALYSIS",
    "npi": null,
    "hcaiId": "306330516",
    "businessName": "TRICITY RIVERSIDE DIALYSIS",
    "contactEmail": "SAIJU@CDMSRENAL.COM",
    "categoryName": "CHRONIC DIALYSIS CLINIC",
    "categoryCode": "CDC",
    "licenseStatus": "ACTIVE",
    "inService": true,
    "licenseNumber": "550005266",
    "licenseEffectiveDate": "01/14/2025",
    "licenseExpirationDate": "01/13/2026",
    "dataDate": "10/18/2025",
    "capacity": 22,
    "address": "7275 INDIANA AVE, SUITE 100",
    "city": "RIVERSIDE",
    "zip": "92504",
    "county": "RIVERSIDE",
    "phone": "(951) 354-3966",
    "lat": 33.937722,
    "lng": -117.400455
  },
  {
    "id": "250001233",
    "name": "VERBENA HOUSE",
    "npi": "1346376886",
    "hcaiId": null,
    "businessName": "RSCR INLAND, INC.",
    "contactEmail": "SERENA.ROJAS@RESCARE.COM",
    "categoryName": "INTERMEDIATE CARE FACILITY-DD/H/N/CN/IID",
    "categoryCode": "ICFDDH",
    "licenseStatus": "ACTIVE",
    "inService": true,
    "licenseNumber": "250000511",
    "licenseEffectiveDate": "06/22/2025",
    "licenseExpirationDate": "06/21/2026",
    "dataDate": "10/18/2025",
    "capacity": 6,
    "address": "8368 VERBENA DR",
    "city": "RIVERSIDE",
    "zip": "92504",
    "county": "RIVERSIDE",
    "phone": "(951) 687-9231",
    "lat": 33.942447,
    "lng": -117.433818
  },
  {
    "id": "250000077",
    "name": "WOODCREST POST ACUTE & REHABILITATION",
    "npi": "1518942143",
    "hcaiId": "206331250",
    "businessName": "MAGAVE CARE, INC.",
    "contactEmail": "MBHAMBI@WOODCRESTPOSTACUTEREHAB.COM",
    "categoryName": "SKILLED NURSING FACILITY",
    "categoryCode": "SNF",
    "licenseStatus": "ACTIVE",
    "inService": true,
    "licenseNumber": "250000170",
    "licenseEffectiveDate": "12/01/2024",
    "licenseExpirationDate": "11/30/2025",
    "dataDate": "10/18/2025",
    "capacity": 120,
    "address": "8133 MAGNOLIA AVE",
    "city": "RIVERSIDE",
    "zip": "92504",
    "county": "RIVERSIDE",
    "phone": "(951) 688-4321",
    "lat": 33.935193,
    "lng": -117.4218165
  }
]