[
  {
    "id": "630021084",
    "name": "ALPHA HOSPICE LLC",
    "npi": null,
    "hcaiId": "406193188",
    "businessName": "ALPHA HOSPICE LLC",
    "contactEmail": "MFILHART@SUNCRESTCARE.COM",
    "categoryName": "HOSPICE",
    "categoryCode": "HOSPICE",
    "licenseStatus": "ACTIVE",
    "inService": true,
    "licenseNumber": "550006240",
    "licenseEffectiveDate": "04/30/2025",
    "licenseExpirationDate": "04/29/2027",
    "dataDate": "10/18/2025",
    "capacity": 0,
    "address": "6465 SYCAMORE CANYON BLVD, SUITE 150A",
    "city": "RIVERSIDE",
    "zip": "92507",
    "county": "RIVERSIDE",
    "phone": "(951) 400-5260",
    "lat": 33.93295001,
    "lng": -117.298414
  },
  {
    "id": "630016525",
    "name": "BRISTOL HOSPICE - INLAND EMPIRE, LLC",
    "npi": "1043683170",
    "hcaiId": "406332403",
    "businessName": "BRISTOL HOSPICE - INLAND EMPIRE, LLC",
    "contactEmail": "WESLEY.ROGERS@BRISTOLHOSPICE.COM",
    "categoryName": "HOSPICE",
    "categoryCode": "HOSPICE",
    "licenseStatus": "ACTIVE",
    "inService": true,
    "licenseNumber": "550003820",
    "licenseEffectiveDate": "03/20/2025",
    "licenseExpirationDate": "03/19/2027",
    "dataDate": "10/18/2025",
    "capacity": 0,
    "address": "6296 RIVER CREST DR, SUITE L",
    "city": "RIVERSIDE",
    "zip": "92507",
    "county": "RIVERSIDE",
    "phone": "(951) 308-6000",
    "lat": 33.936939,
    "lng": -117.292401
  },
  {
    "id": "630018204",
    "name": "CARELIFE HOSPICE, INC.",
    "npi": "1679068217",
    "hcaiId": "406362791",
    "businessName": "CARELIFE HOSPICE, INC.",
    "contactEmail": "SYLVIEBOAL@REDCUBEMGMT.COM",
    "categoryName": "HOSPICE",
    "categoryCode": "HOSPICE",
    "licenseStatus": "ACTIVE",
    "inService": true,
    "licenseNumber": "550005664",
    "licenseEffectiveDate": "07/14/2024",
    "licenseExpirationDate": "07/13/2026",
    "dataDate": "10/18/2025",
    "capacity": 0,
    "address": "2002 IOWA AVE, SUITE 107",
    "city": "RIVERSIDE",
    "zip": "92507",
    "county": "RIVERSIDE",
    "phone": "(951) 521-2273",
    "lat": 33.993495,
    "lng": -117.3391605
  },
  {
    "id": "630019539",
    "name": "COMFORT CHOICE HOSPICE CARE",
    "npi": "1003451477",
    "hcaiId": "406333746",
    "businessName": "INFINITY HOSPICE AND PALLIATIVE CARE INC.",
    "contactEmail": "DAVID@THEDOCTORSCHOICEAGENCY.COM",
    "categoryName": "HOSPICE",
    "categoryCode": "HOSPICE",
    "licenseStatus": "ACTIVE",
    "inService": true,
    "licenseNumber": "550006023",
    "licenseEffectiveDate": "01/14/2025",
    "licenseExpirationDate": "01/13/2027",
    "dataDate": "10/18/2025",
    "capacity": 0,
    "address": "1700 IOWA AVE, SUITE 250",
    "city": "RIVERSIDE",
    "zip": "92507",
    "county": "RIVERSIDE",
    "phone": "(951) 816-6608",
    "lat": 33.9959578,
    "lng": -117.3397826
  },
  {
    "id": "250000842",
    "name": "CRESCENT HEALTHCARE, INC.",
    "npi": null,
    "hcaiId": "406334599",
    "businessName": "CRESCENT HEALTHCARE, INC.",
    "contactEmail": "OC-PEANDL@OPTIONCARE.COM",
    "categoryName": "HOME HEALTH AGENCY",
    "categoryCode": "HHA",
    "licenseStatus": "ACTIVE",
    "inService": true,
    "licenseNumber": "250000487",
    "licenseEffectiveDate": "02/07/2025",
    "licenseExpirationDate": "02/06/2026",
    "dataDate": "10/18/2025",
    "capacity": 0,
    "address": "2010 IOWA AVE, SUITE 110",
    "city": "RIVERSIDE",
    "zip": "92507",
    "county": "RIVERSIDE",
    "phone": "(951) 774-1844",
    "lat": 33.993459,
    "lng": -117.338292
  },
  {
    "id": "630020554",
    "name": "MOUNT SINAI HOSPICE AND PALLIATIVE CARE INC",
    "npi": null,
    "hcaiId": "406193330",
    "businessName": "MOUNT SINAI HOSPICE AND PALLIATIVE CARE INC",
    "contactEmail": "SAHERCHOUDRY@GMAIL.COM",
    "categoryName": "HOSPICE",
    "categoryCode": "HOSPICE",
    "licenseStatus": "ACTIVE",
    "inService": true,
    "licenseNumber": "550007023",
    "licenseEffectiveDate": "11/12/2025",
    "licenseExpirationDate": "10/12/2027",
    "dataDate": "10/18/2025",
    "capacity": 0,
    "address": "1426 UNIVERSITY AVE, SUITE A",
    "city": "RIVERSIDE",
    "zip": "92507",
    "county": "RIVERSIDE",
    "phone": "(951) 300-8824",
    "lat": 33.974784,
    "lng": -117.3426435
  },
  {
    "id": "630017598",
    "name": "NEIGHBORHOOD HEALTHCARE- EASTSIDE HEALTH CENTER BUILDING B",
    "npi": null,
    "hcaiId": null,
    "businessName": "NEIGHBORHOOD HEALTHCARE",
    "contactEmail": null,
    "categoryName": "PRIMARY CARE CLINIC",
    "categoryCode": "COMTYC",
    "licenseStatus": "ACTIVE",
    "inService": true,
    "licenseNumber": "550003562",
    "licenseEffectiveDate": "07/06/2025",
    "licenseExpirationDate": "07/05/2026",
    "dataDate": "10/18/2025",
    "capacity": 0,
    "address": "1971 UNIVERSITY AVE",
    "city": "RIVERSIDE",
    "zip": "92507",
    "county": "RIVERSIDE",
    "phone": "(760) 767-5051",
    "lat": 33.975954,
    "lng": -117.3546225
  },
  {
    "id": "630011450",
    "name": "OPTIMA HOME HEALTH SERVICES",
    "npi": "1396925103",
    "hcaiId": "406334603",
    "businessName": "OPTIMA HOME HEALTH SERVICES",
    "contactEmail": "ADMIN@OPTIMAHHS.COM",
    "categoryName": "HOME HEALTH AGENCY",
    "categoryCode": "HHA",
    "licenseStatus": "ACTIVE",
    "inService": true,
    "licenseNumber": "550000704",
    "licenseEffectiveDate": "03/07/2025",
    "licenseExpirationDate": "03/06/2026",
    "dataDate": "10/18/2025",
    "capacity": 0,
    "address": "1935 CHICAGO AVE, SUITE C1",
    "city": "RIVERSIDE",
    "zip": "92507",
    "county": "RIVERSIDE",
    "phone": "(951) 682-7555",
    "lat": 33.993783,
    "lng": -117.34956
  },
  {
    "id": "630011195",
    "name": "SACRED HEART HOSPICE",
    "npi": "1326288028",
    "hcaiId": "406334619",
    "businessName": "SACRED HEART HOSPICE INC",
    "contactEmail": "MA.MURILLO@SACREDHOSPICE.COM",
    "categoryName": "HOSPICE",
    "categoryCode": "HOSPICE",
    "licenseStatus": "ACTIVE",
    "inService": true,
    "licenseNumber": "550000479",
    "licenseEffectiveDate": "05/01/2025",
    "licenseExpirationDate": "04/30/2027",
    "dataDate": "10/18/2025",
    "capacity": 0,
    "address": "1935 CHICAGO AVE, SUITE C",
    "city": "RIVERSIDE",
    "zip": "92507",
    "county": "RIVERSIDE",
    "phone": "(951) 682-7022",
    "lat": 33.993783,
    "lng": -117.349821
  },
  {
    "id": "630017419",
    "name": "SUNCREST HOSPICE INLAND EMPIRE",
    "npi": null,
    "hcaiId": "406364766",
    "businessName": "TOWN HOSPICE & PALLIATIVE CARE LLC",
    "contactEmail": "DSAMPSON@SUNCRESTCARE.COM",
    "categoryName": "HOSPICE",
    "categoryCode": "HOSPICE",
    "licenseStatus": "ACTIVE",
    "inService": true,
    "licenseNumber": "550006379",
    "licenseEffectiveDate": "04/05/2025",
    "licenseExpirationDate": "04/04/2027",
    "dataDate": "10/18/2025",
    "capacity": 0,
    "address": "6465 SYCAMORE CANYON BLVD, SUITE 150",
    "city": "RIVERSIDE",
    "zip": "92507",
    "county": "RIVERSIDE",
    "phone": "(712) 887-4002",
    "lat": 33.93295001,
    "lng": -117.298414
  },
  {
    "id": "630010950",
    "name": "THE DOCTORS CHOICE HOME HEALTH",
    "npi": "1639258551",
    "hcaiId": "406334602",
    "businessName": "ARKEN HEALTHCARE SERVICES, INC.",
    "contactEmail": "DAVID@THEDOCTORSCHOICEAGENCY.COM",
    "categoryName": "HOME HEALTH AGENCY",
    "categoryCode": "HHA",
    "licenseStatus": "ACTIVE",
    "inService": true,
    "licenseNumber": "550000701",
    "licenseEffectiveDate": "03/13/2025",
    "licenseExpirationDate": "03/12/2026",
    "dataDate": "10/18/2025",
    "capacity": 0,
    "address": "1700 IOWA AVE, SUITE 240",
    "city": "RIVERSIDE",
    "zip": "92507",
    "county": "RIVERSIDE",
    "phone": "(951) 279-7877",
    "lat": 33.9959578,
    "lng": -117.3397826
  },
  {
    "id": "630013755",
    "name": "UNIVERSITY COMMUNITY HEALTH CENTER",
    "npi": null,
    "hcaiId": "306334650",
    "businessName": "COMMUNITY HEALTH SYSTEMS, INC.",
    "contactEmail": "V.ORTIZ@CHSICA.ORG",
    "categoryName": "PRIMARY CARE CLINIC",
    "categoryCode": "COMTYC",
    "licenseStatus": "ACTIVE",
    "inService": true,
    "licenseNumber": "550001980",
    "licenseEffectiveDate": "11/09/2024",
    "licenseExpirationDate": "11/08/2025",
    "dataDate": "10/18/2025",
    "capacity": 0,
    "address": "2933 UNIVERSITY AVE",
    "city": "RIVERSIDE",
    "zip": "92507",
    "county": "RIVERSIDE",
    "phone": "(951) 214-4217",
    "lat": 33.977844,
    "lng": -117.365031
  }
]