[
  {
    "id": "630011766",
    "name": "AFFINITY HOME HEALTH CARE SERVICES, INC.",
    "npi": "1083883763",
    "hcaiId": "406334595",
    "businessName": "AFFINITY HOME HEALTH CARE SERVICES, INC.",
    "contactEmail": "JHENDERSON@AFFINITYHOMEHEALTH.NET",
    "categoryName": "HOME HEALTH AGENCY",
    "categoryCode": "HHA",
    "licenseStatus": "ACTIVE",
    "inService": true,
    "licenseNumber": "550000703",
    "licenseEffectiveDate": "03/25/2025",
    "licenseExpirationDate": "03/24/2026",
    "dataDate": "10/18/2025",
    "capacity": 0,
    "address": "6960 MAGNOLIA AVENUE, SUITE 201",
    "city": "RIVERSIDE",
    "zip": "92506",
    "county": "RIVERSIDE",
    "phone": "(951) 785-1287",
    "lat": 33.946938,
    "lng": -117.4001805
  },
  {
    "id": "630017992",
    "name": "AFFINITY HOSPICE CARE, INC.",
    "npi": null,
    "hcaiId": "406335739",
    "businessName": "AFFINITY HOSPICE CARE, INC.",
    "contactEmail": "DESI@AFFINITYHOSPICECARE.COM",
    "categoryName": "HOSPICE",
    "categoryCode": "HOSPICE",
    "licenseStatus": "ACTIVE",
    "inService": true,
    "licenseNumber": "550007716",
    "licenseEffectiveDate": "12/28/2023",
    "licenseExpirationDate": "12/27/2025",
    "dataDate": "10/18/2025",
    "capacity": 0,
    "address": "6960 MAGNOLIA AVE, SUITE 204",
    "city": "RIVERSIDE",
    "zip": "92506",
    "county": "RIVERSIDE",
    "phone": "(951) 680-9985",
    "lat": 33.946938,
    "lng": -117.4001805
  },
  {
    "id": "980002541",
    "name": "AMBERCITY HOSPICE, INC.",
    "npi": "1649580929",
    "hcaiId": "406334626",
    "businessName": "AMBERCITY HOSPICE, INC.",
    "contactEmail": "AMBERCITYHOSPICE@YAHOO.COM",
    "categoryName": "HOSPICE",
    "categoryCode": "HOSPICE",
    "licenseStatus": "ACTIVE",
    "inService": true,
    "licenseNumber": "980001629",
    "licenseEffectiveDate": "06/14/2025",
    "licenseExpirationDate": "06/13/2027",
    "dataDate": "10/18/2025",
    "capacity": 0,
    "address": "3590 CENTRAL AVE, SUITE 207",
    "city": "RIVERSIDE",
    "zip": "92506",
    "county": "RIVERSIDE",
    "phone": "(951) 686-8100",
    "lat": 33.953184,
    "lng": -117.390906
  },
  {
    "id": "630022361",
    "name": "AMBIANCE CARE HOSPICE",
    "npi": null,
    "hcaiId": null,
    "businessName": "AMBIANCE CARE HOSPICE",
    "contactEmail": "AMBIANCECAREHOSPICE@GMAIL.COM",
    "categoryName": "HOSPICE",
    "categoryCode": "HOSPICE",
    "licenseStatus": "ACTIVE",
    "inService": true,
    "licenseNumber": "550007644",
    "licenseEffectiveDate": "12/23/2023",
    "licenseExpirationDate": "12/22/2025",
    "dataDate": "10/18/2025",
    "capacity": 0,
    "address": "7177 BROCKTON AVE, SUITE 215G",
    "city": "RIVERSIDE",
    "zip": "92506",
    "county": "RIVERSIDE",
    "phone": "(951) 267-7692",
    "lat": 33.94245601,
    "lng": -117.395133
  },
  {
    "id": "250001422",
    "name": "BETHANY HOME CARE",
    "npi": "1487613147",
    "hcaiId": "406334456",
    "businessName": "FMM HOME CARE CORPORATION",
    "contactEmail": "BECKY@BETHANYHOMECARECA.COM",
    "categoryName": "HOME HEALTH AGENCY",
    "categoryCode": "HHA",
    "licenseStatus": "ACTIVE",
    "inService": true,
    "licenseNumber": "250000608",
    "licenseEffectiveDate": "09/09/2025",
    "licenseExpirationDate": "09/08/2026",
    "dataDate": "10/18/2025",
    "capacity": 0,
    "address": "4649 BROCKTON AVE",
    "city": "RIVERSIDE",
    "zip": "92506",
    "county": "RIVERSIDE",
    "phone": "(951) 924-7751",
    "lat": 33.97603698,
    "lng": -117.3869772
  },
  {
    "id": "630011208",
    "name": "BROCKTON SURGERY CENTER",
    "npi": "1447472659",
    "hcaiId": "306334593",
    "businessName": null,
    "contactEmail": null,
    "categoryName": "SURGICAL CLINIC",
    "categoryCode": "ASC",
    "licenseStatus": "INACTIVE - CAPEN DECISION",
    "inService": false,
    "licenseNumber": "550000597",
    "licenseEffectiveDate": "04/02/2008",
    "licenseExpirationDate": "10/01/2008",
    "dataDate": "10/18/2025",
    "capacity": 0,
    "address": "6958 BROCKTON AVE",
    "city": "RIVERSIDE",
    "zip": "92506",
    "county": "RIVERSIDE",
    "phone": "(951) 741-7712",
    "lat": 33.947226,
    "lng": -117.396432
  },
  {
    "id": "630015606",
    "name": "CARING SHIELD HOSPICE, INC.",
    "npi": "1932502945",
    "hcaiId": "406331476",
    "businessName": "CARING SHIELD HOSPICE, INC.",
    "contactEmail": "CARINGSHIELDHOSPICE@YAHOO.COM",
    "categoryName": "HOSPICE",
    "categoryCode": "HOSPICE",
    "licenseStatus": "ACTIVE",
    "inService": true,
    "licenseNumber": "550003712",
    "licenseEffectiveDate": "11/10/2024",
    "licenseExpirationDate": "11/09/2026",
    "dataDate": "10/18/2025",
    "capacity": 0,
    "address": "3538 CENTRAL AVENUE, SUITE 110",
    "city": "RIVERSIDE",
    "zip": "92506",
    "county": "RIVERSIDE",
    "phone": "(951) 742-7677",
    "lat": 33.953337,
    "lng": -117.389241
  },
  {
    "id": "630020187",
    "name": "CENTRAL NEIGHBORHOOD HEALTH FOUNDATION - RIVERSIDE",
    "npi": "1841437241",
    "hcaiId": null,
    "businessName": "H STREET CLINIC, INC.",
    "contactEmail": null,
    "categoryName": "PRIMARY CARE CLINIC",
    "categoryCode": "COMTYC",
    "licenseStatus": "ACTIVE",
    "inService": true,
    "licenseNumber": "550000837",
    "licenseEffectiveDate": "12/09/2024",
    "licenseExpirationDate": "12/08/2025",
    "dataDate": "10/18/2025",
    "capacity": 0,
    "address": "3750 ARLINGTON AVE",
    "city": "RIVERSIDE",
    "zip": "92506",
    "county": "RIVERSIDE",
    "phone": null,
    "lat": 33.94618508,
    "lng": -117.3989506
  },
  {
    "id": "250000043",
    "name": "COMMUNITY CARE AND REHABILITATION CENTER",
    "npi": "1700186590",
    "hcaiId": "206331151",
    "businessName": "COMMUNITY CARE REHAB CENTER LLC",
    "contactEmail": "ADMIN@COMMCARE.ORG",
    "categoryName": "SKILLED NURSING FACILITY",
    "categoryCode": "SNF",
    "licenseStatus": "ACTIVE",
    "inService": true,
    "licenseNumber": "250000131",
    "licenseEffectiveDate": "12/22/2024",
    "licenseExpirationDate": "12/21/2025",
    "dataDate": "10/18/2025",
    "capacity": 162,
    "address": "4070 JURUPA AVE",
    "city": "RIVERSIDE",
    "zip": "92506",
    "county": "RIVERSIDE",
    "phone": "(951) 680-6500",
    "lat": 33.96082807,
    "lng": -117.3962011
  },
  {
    "id": "250000745",
    "name": "COMMUNITY CARE AND REHABILITATION CENTER",
    "npi": "1700186590",
    "hcaiId": null,
    "businessName": "COMMUNITY CARE REHAB CENTER LLC",
    "contactEmail": null,
    "categoryName": "REHABILITATION CLINIC",
    "categoryCode": "OPT/SP",
    "licenseStatus": "ACTIVE",
    "inService": true,
    "licenseNumber": "250000131",
    "licenseEffectiveDate": "12/22/2024",
    "licenseExpirationDate": "12/21/2025",
    "dataDate": "10/18/2025",
    "capacity": 0,
    "address": "4070 JURUPA AVE",
    "city": "RIVERSIDE",
    "zip": "92506",
    "county": "RIVERSIDE",
    "phone": null,
    "lat": 33.96082807,
    "lng": -117.3962011
  },
  {
    "id": "630019300",
    "name": "COMPASSIONATE CARE HOSPICE",
    "npi": "1073088720",
    "hcaiId": "406362558",
    "businessName": "JMDK HEALTHCARE LLC",
    "contactEmail": "ADMIN@MYCOREHEALTHCARE.COM",
    "categoryName": "HOSPICE",
    "categoryCode": "HOSPICE",
    "licenseStatus": "ACTIVE",
    "inService": true,
    "licenseNumber": "550005354",
    "licenseEffectiveDate": "07/21/2025",
    "licenseExpirationDate": "03/03/2026",
    "dataDate": "10/18/2025",
    "capacity": 0,
    "address": "7177 BROCKTON AVE, SUITE 108",
    "city": "RIVERSIDE",
    "zip": "92506",
    "county": "RIVERSIDE",
    "phone": "(800) 200-7177",
    "lat": 33.94261603,
    "lng": -117.3952825
  },
  {
    "id": "630015968",
    "name": "DESIRE HOME HEALTH",
    "npi": "1154790731",
    "hcaiId": "406334734",
    "businessName": "DESIRE HOME CARE INC.",
    "contactEmail": "YIKHELOWA@DESIRECARE.COM",
    "categoryName": "HOME HEALTH AGENCY",
    "categoryCode": "HHA",
    "licenseStatus": "ACTIVE",
    "inService": true,
    "licenseNumber": "550003690",
    "licenseEffectiveDate": "10/19/2025",
    "licenseExpirationDate": "10/18/2026",
    "dataDate": "10/18/2025",
    "capacity": 0,
    "address": "3742 TIBBETTS ST, SUITE 203",
    "city": "RIVERSIDE",
    "zip": "92506",
    "county": "RIVERSIDE",
    "phone": "(951) 376-8018",
    "lat": 33.947073,
    "lng": -117.398277
  },
  {
    "id": "630022302",
    "name": "FOUNTAIN OF LIFE HOSPICE",
    "npi": null,
    "hcaiId": "406365159",
    "businessName": "FOUNTAIN OF LIFE HOSPICE",
    "contactEmail": "FOUNTAINOFLIFEHC@GMAIL.COM",
    "categoryName": "HOSPICE",
    "categoryCode": "HOSPICE",
    "licenseStatus": "ACTIVE",
    "inService": true,
    "licenseNumber": "550007610",
    "licenseEffectiveDate": "01/02/2025",
    "licenseExpirationDate": "12/20/2025",
    "dataDate": "10/18/2025",
    "capacity": 0,
    "address": "7177 BROCKTON AVE, SUITE 215-E",
    "city": "RIVERSIDE",
    "zip": "92506",
    "county": "RIVERSIDE",
    "phone": "(951) 267-7495",
    "lat": 33.94245601,
    "lng": -117.395133
  },
  {
    "id": "630013907",
    "name": "INLAND HOSPICE CARE",
    "npi": null,
    "hcaiId": "406334720",
    "businessName": "VISION HOME HEALTH CARE, INC.",
    "contactEmail": "JOHNNWOKEABIA@YMAIL.COM",
    "categoryName": "HOSPICE",
    "categoryCode": "HOSPICE",
    "licenseStatus": "ACTIVE",
    "inService": true,
    "licenseNumber": "550003194",
    "licenseEffectiveDate": "08/03/2025",
    "licenseExpirationDate": "08/02/2027",
    "dataDate": "10/18/2025",
    "capacity": 0,
    "address": "5750 DIVISION ST, SUITE 206",
    "city": "RIVERSIDE",
    "zip": "92506",
    "county": "RIVERSIDE",
    "phone": "(951) 787-8903",
    "lat": 33.947676,
    "lng": -117.3806055
  },
  {
    "id": "250001801",
    "name": "INLAND OUTPATIENT SURGERY CENTER",
    "npi": "1861702359",
    "hcaiId": null,
    "businessName": null,
    "contactEmail": null,
    "categoryName": "SURGICAL CLINIC",
    "categoryCode": "ASC",
    "licenseStatus": null,
    "inService": null,
    "licenseNumber": null,
    "licenseEffectiveDate": null,
    "licenseExpirationDate": null,
    "dataDate": "10/18/2025",
    "capacity": 0,
    "address": "4217 LUTHER STREET",
    "city": "RIVERSIDE",
    "zip": "92506",
    "county": "RIVERSIDE",
    "phone": null,
    "lat": 33.949404,
    "lng": -117.399879
  },
  {
    "id": "250000762",
    "name": "KEVIN HOUSE",
    "npi": "1427185883",
    "hcaiId": null,
    "businessName": "RSCR INLAND, INC.",
    "contactEmail": null,
    "categoryName": "INTERMEDIATE CARE FACILITY-DD/H/N/CN/IID",
    "categoryCode": "ICFDDH",
    "licenseStatus": "ACTIVE",
    "inService": true,
    "licenseNumber": "250000370",
    "licenseEffectiveDate": "11/01/2025",
    "licenseExpirationDate": "10/31/2026",
    "dataDate": "10/18/2025",
    "capacity": 6,
    "address": "2662 KEVIN CT",
    "city": "RIVERSIDE",
    "zip": "92506",
    "county": "RIVERSIDE",
    "phone": "(951) 788-6429",
    "lat": 33.934887,
    "lng": -117.378774
  },
  {
    "id": "250001682",
    "name": "LONGMONT DIVISION",
    "npi": "1518132844",
    "hcaiId": null,
    "businessName": "BRIGHT EXPECTATIONS, INC.",
    "contactEmail": "BRIGHT.EXPECTATIONS@YAHOO.COM",
    "categoryName": "INTERMEDIATE CARE FACILITY-DD/H/N/CN/IID",
    "categoryCode": "ICFDDH",
    "licenseStatus": "ACTIVE",
    "inService": true,
    "licenseNumber": "250000733",
    "licenseEffectiveDate": "11/06/2024",
    "licenseExpirationDate": "11/05/2025",
    "dataDate": "10/18/2025",
    "capacity": 6,
    "address": "1970 LONGMONT ST",
    "city": "RIVERSIDE",
    "zip": "92506",
    "county": "RIVERSIDE",
    "phone": "(951) 224-7220",
    "lat": 33.945903,
    "lng": -117.351144
  },
  {
    "id": "630020485",
    "name": "MOUNTAIN TOP HOSPICE CARE, INC",
    "npi": null,
    "hcaiId": "406303979",
    "businessName": "MOUNTAIN TOP HOSPICE CARE INC.",
    "contactEmail": "MOUNTAINTOPHOSPICECARE@GMAIL.COM",
    "categoryName": "HOSPICE",
    "categoryCode": "HOSPICE",
    "licenseStatus": "ACTIVE",
    "inService": true,
    "licenseNumber": "550007233",
    "licenseEffectiveDate": "03/05/2024",
    "licenseExpirationDate": "11/16/2025",
    "dataDate": "10/18/2025",
    "capacity": 0,
    "address": "7177 BROCKTON AVE, SUITE 215D",
    "city": "RIVERSIDE",
    "zip": "92506",
    "county": "RIVERSIDE",
    "phone": "(714) 676-8892",
    "lat": 33.94245601,
    "lng": -117.395133
  },
  {
    "id": "630027985",
    "name": "OPTIMUM CARE CLHF 2",
    "npi": null,
    "hcaiId": null,
    "businessName": "OPTIMUM CARE CLHF 2, LLC",
    "contactEmail": "NICOLAS@OPTIMUM-CARE.NET",
    "categoryName": "CONGREGATE LIVING HEALTH FACILITY",
    "categoryCode": "CLHF",
    "licenseStatus": "ACTIVE",
    "inService": true,
    "licenseNumber": "550009674",
    "licenseEffectiveDate": "09/10/2025",
    "licenseExpirationDate": "03/09/2026",
    "dataDate": "10/18/2025",
    "capacity": 6,
    "address": "155 BRACEBRIDGE RD",
    "city": "RIVERSIDE",
    "zip": "92506",
    "county": "RIVERSIDE",
    "phone": "(310) 994-9181",
    "lat": 33.919788,
    "lng": -117.329326
  },
  {
    "id": "250000048",
    "name": "PACIFIC GROVE HOSPITAL",
    "npi": "1003243577",
    "hcaiId": "106331226",
    "businessName": "VISTA BEHAVIORAL HOSPITAL, LLC",
    "contactEmail": "STEFANIE.MAGALONG@PACIFICGROVEHOSPITAL.COM",
    "categoryName": "ACUTE PSYCHIATRIC HOSPITAL",
    "categoryCode": "APH",
    "licenseStatus": "ACTIVE",
    "inService": true,
    "licenseNumber": "250000476",
    "licenseEffectiveDate": "12/10/2024",
    "licenseExpirationDate": "12/09/2025",
    "dataDate": "10/18/2025",
    "capacity": 68,
    "address": "5900 BROCKTON AVE",
    "city": "RIVERSIDE",
    "zip": "92506",
    "county": "RIVERSIDE",
    "phone": "(951) 275-8400",
    "lat": 33.962283,
    "lng": -117.395316
  },
  {
    "id": "250000210",
    "name": "PLANNED PARENTHOOD - RIVERSIDE CLINIC",
    "npi": "1750316741",
    "hcaiId": "306330135",
    "businessName": "PLANNED PARENTHOOD OF THE PACIFIC SOUTHWEST",
    "contactEmail": "LMANN1@PLANNED.ORG",
    "categoryName": "PRIMARY CARE CLINIC",
    "categoryCode": "COMTYC",
    "licenseStatus": "ACTIVE",
    "inService": true,
    "licenseNumber": "250000054",
    "licenseEffectiveDate": "11/04/2025",
    "licenseExpirationDate": "11/03/2026",
    "dataDate": "10/18/2025",
    "capacity": 0,
    "address": "3772 TIBBETTS ST",
    "city": "RIVERSIDE",
    "zip": "92506",
    "county": "RIVERSIDE",
    "phone": "(619) 881-4500",
    "lat": 33.94717508,
    "lng": -117.3992198
  },
  {
    "id": "630018011",
    "name": "RATTNER VASCULAR MEDICAL CENTER ASC, LLC",
    "npi": "1811438997",
    "hcaiId": null,
    "businessName": null,
    "contactEmail": "ZUNNY.SANTIAGO@AZURACARE.COM",
    "categoryName": "SURGICAL CLINIC",
    "categoryCode": "ASC",
    "licenseStatus": null,
    "inService": null,
    "licenseNumber": null,
    "licenseEffectiveDate": null,
    "licenseExpirationDate": null,
    "dataDate": "10/18/2025",
    "capacity": 0,
    "address": "4334 CENTRAL AVE",
    "city": "RIVERSIDE",
    "zip": "92506",
    "county": "RIVERSIDE",
    "phone": "(484) 615-1315",
    "lat": 33.95313598,
    "lng": -117.399345
  },
  {
    "id": "630013288",
    "name": "RIVERSIDE LIFE SERVICES",
    "npi": "1114288586",
    "hcaiId": "306334644",
    "businessName": "RIVERSIDE LIFE SERVICES",
    "contactEmail": "INFO@RIVERSIDELIFESERVICES.ORG",
    "categoryName": "PRIMARY CARE CLINIC",
    "categoryCode": "COMTYC",
    "licenseStatus": "ACTIVE",
    "inService": true,
    "licenseNumber": "550001851",
    "licenseEffectiveDate": "01/31/2025",
    "licenseExpirationDate": "01/30/2026",
    "dataDate": "10/18/2025",
    "capacity": 0,
    "address": "3727 MCCRAY STREET",
    "city": "RIVERSIDE",
    "zip": "92506",
    "county": "RIVERSIDE",
    "phone": "(951) 784-2422",
    "lat": 33.94860463,
    "lng": -117.39766
  },
  {
    "id": "250000247",
    "name": "RIVERSIDE MEDICAL CLINIC SURGERY CENTER",
    "npi": "1396709077",
    "hcaiId": "306334512",
    "businessName": "RMC SURGERY CENTER LLC",
    "contactEmail": null,
    "categoryName": "SURGICAL CLINIC",
    "categoryCode": "ASC",
    "licenseStatus": "INACTIVE - CAPEN DECISION",
    "inService": false,
    "licenseNumber": "250000763",
    "licenseEffectiveDate": "05/22/2007",
    "licenseExpirationDate": "05/21/2008",
    "dataDate": "10/18/2025",
    "capacity": 0,
    "address": "7160 BROCKTON AVE, FLOOR 1",
    "city": "RIVERSIDE",
    "zip": "92506",
    "county": "RIVERSIDE",
    "phone": "(951) 782-3801",
    "lat": 33.943104,
    "lng": -117.3935565
  },
  {
    "id": "630013509",
    "name": "RIVERSIDE MEDICAL CLINIC SURGERY CENTER",
    "npi": null,
    "hcaiId": null,
    "businessName": null,
    "contactEmail": null,
    "categoryName": "SURGICAL CLINIC",
    "categoryCode": "ASC/SURGC",
    "licenseStatus": null,
    "inService": null,
    "licenseNumber": null,
    "licenseEffectiveDate": null,
    "licenseExpirationDate": null,
    "dataDate": "10/18/2025",
    "capacity": 0,
    "address": "7117 BROCKTON AVE",
    "city": "RIVERSIDE",
    "zip": "92506",
    "county": "RIVERSIDE",
    "phone": null,
    "lat": 33.943005,
    "lng": -117.3958785
  },
  {
    "id": "630021027",
    "name": "STEADFAST HOSPICE, LLC",
    "npi": null,
    "hcaiId": "406193624",
    "businessName": "STEADFAST HOSPICE, LLC",
    "contactEmail": "STEADFASTHOSPICE@GMAIL.COM",
    "categoryName": "HOSPICE",
    "categoryCode": "HOSPICE",
    "licenseStatus": "ACTIVE",
    "inService": true,
    "licenseNumber": "550006931",
    "licenseEffectiveDate": "10/18/2023",
    "licenseExpirationDate": "10/07/2025",
    "dataDate": "10/18/2025",
    "capacity": 0,
    "address": "7177 BROCKTON AVE, SUITE 215-I",
    "city": "RIVERSIDE",
    "zip": "92506",
    "county": "RIVERSIDE",
    "phone": "(747) 777-5994",
    "lat": 33.94245601,
    "lng": -117.395133
  },
  {
    "id": "630022282",
    "name": "SUN LIFE HOSPICE, INC.",
    "npi": "1316531585",
    "hcaiId": "406365108",
    "businessName": "SUN LIFE HOSPICE, INC.",
    "contactEmail": "SUNLIFEHOSPICE@GMAIL.COM",
    "categoryName": "HOSPICE",
    "categoryCode": "HOSPICE",
    "licenseStatus": "ACTIVE",
    "inService": true,
    "licenseNumber": "550007612",
    "licenseEffectiveDate": "01/12/2024",
    "licenseExpirationDate": "12/20/2025",
    "dataDate": "10/18/2025",
    "capacity": 0,
    "address": "7177 BROCKTON ST, SUITE 215-H",
    "city": "RIVERSIDE",
    "zip": "92506",
    "county": "RIVERSIDE",
    "phone": "(951) 220-8997",
    "lat": 33.9429216,
    "lng": -117.3951096
  },
  {
    "id": "630012888",
    "name": "SUPREME HOME HEALTH AGENCY INC",
    "npi": "1073837613",
    "hcaiId": "406334654",
    "businessName": "SUPREME HOME HEALTH AGENCY INC",
    "contactEmail": "SUPREMEHHAMOBILE@GMAIL.COM",
    "categoryName": "HOME HEALTH AGENCY",
    "categoryCode": "HHA",
    "licenseStatus": "ACTIVE",
    "inService": true,
    "licenseNumber": "550001866",
    "licenseEffectiveDate": "03/16/2025",
    "licenseExpirationDate": "03/15/2026",
    "dataDate": "10/18/2025",
    "capacity": 0,
    "address": "7177 BROCKTON AVE, SUITE 451",
    "city": "RIVERSIDE",
    "zip": "92506",
    "county": "RIVERSIDE",
    "phone": "(951) 972-3038",
    "lat": 33.942744,
    "lng": -117.3952215
  },
  {
    "id": "630026595",
    "name": "TRANSGENDER HEALTH AND WELLNESS CENTER",
    "npi": null,
    "hcaiId": null,
    "businessName": "TRANSGENDER HEALTH AND WELLNESS CENTER",
    "contactEmail": null,
    "categoryName": "PRIMARY CARE CLINIC",
    "categoryCode": "COMTYC",
    "licenseStatus": "ACTIVE",
    "inService": true,
    "licenseNumber": "550007799",
    "licenseEffectiveDate": "12/22/2024",
    "licenseExpirationDate": "12/21/2025",
    "dataDate": "10/18/2025",
    "capacity": 0,
    "address": "6840 INDIANA AVE, SUITE 150",
    "city": "RIVERSIDE",
    "zip": "92506",
    "county": "RIVERSIDE",
    "phone": null,
    "lat": 33.942213,
    "lng": -117.3924585
  },
  {
    "id": "630027597",
    "name": "TRANSGENDER HEALTH AND WELLNESS CENTER",
    "npi": null,
    "hcaiId": null,
    "businessName": "TRANSGENDER HEALTH AND WELLNESS CENTER",
    "contactEmail": null,
    "categoryName": "PRIMARY CARE CLINIC",
    "categoryCode": "COMTYC",
    "licenseStatus": "ACTIVE",
    "inService": true,
    "licenseNumber": "550007799",
    "licenseEffectiveDate": "12/22/2024",
    "licenseExpirationDate": "12/21/2025",
    "dataDate": "10/18/2025",
    "capacity": 0,
    "address": "6800 INDIANA AVE, SUITE 290/295",
    "city": "RIVERSIDE",
    "zip": "92506",
    "county": "RIVERSIDE",
    "phone": null,
    "lat": 33.94277201,
    "lng": -117.391583
  },
  {
    "id": "250000036",
    "name": "VALENCIA GARDENS HEALTH CARE CENTER",
    "npi": "1689062838",
    "hcaiId": "206331139",
    "businessName": "RIVERSIDE CARE, INC.",
    "contactEmail": "FHUGHES@VALENCIAGARDENSHEALTH.COM",
    "categoryName": "SKILLED NURSING FACILITY",
    "categoryCode": "SNF",
    "licenseStatus": "ACTIVE",
    "inService": true,
    "licenseNumber": "250000124",
    "licenseEffectiveDate": "08/17/2025",
    "licenseExpirationDate": "08/16/2026",
    "dataDate": "10/18/2025",
    "capacity": 59,
    "address": "4301 CAROLINE CT",
    "city": "RIVERSIDE",
    "zip": "92506",
    "county": "RIVERSIDE",
    "phone": "(951) 598-1704",
    "lat": 33.950592,
    "lng": -117.4000995
  },
  {
    "id": "250001788",
    "name": "VISION HOME HEALTH AND HOSPICE CARE, INC.",
    "npi": "1851343826",
    "hcaiId": "406334526",
    "businessName": "VISION HOME HEALTH CARE, INC.",
    "contactEmail": "JOHNNWOKEABIA@YMAIL.COM",
    "categoryName": "HOME HEALTH AGENCY",
    "categoryCode": "HHA",
    "licenseStatus": "ACTIVE",
    "inService": true,
    "licenseNumber": "250000784",
    "licenseEffectiveDate": "01/06/2025",
    "licenseExpirationDate": "01/05/2026",
    "dataDate": "10/18/2025",
    "capacity": 0,
    "address": "5750 DIVISION ST, SUITE 206",
    "city": "RIVERSIDE",
    "zip": "92506",
    "county": "RIVERSIDE",
    "phone": "(951) 787-8903",
    "lat": 33.947676,
    "lng": -117.3806055
  }
]