[
  {
    "id": "630027048",
    "name": "ACES HOUSE",
    "npi": "1730956608",
    "hcaiId": null,
    "businessName": "SERENITY HOME CARE FACILITIES, LLC",
    "contactEmail": "ADMIN@SERENITYHCF.COM",
    "categoryName": "INTERMEDIATE CARE FACILITY-DD/H/N/CN/IID",
    "categoryCode": "ICFDDN",
    "licenseStatus": "ACTIVE",
    "inService": true,
    "licenseNumber": "550008700",
    "licenseEffectiveDate": "08/23/2025",
    "licenseExpirationDate": "08/22/2026",
    "dataDate": "10/18/2025",
    "capacity": 6,
    "address": "284 MORONI AVE",
    "city": "LAKE ELSINORE",
    "zip": "92530",
    "county": "RIVERSIDE",
    "phone": "(951) 878-7075",
    "lat": 33.6672,
    "lng": -117.322182
  },
  {
    "id": "630025061",
    "name": "CROWN HOME HEALTH AGENCY",
    "npi": null,
    "hcaiId": "406197037",
    "businessName": "CROWN HOME HEALTH AGENCY",
    "contactEmail": "CROWNHOMEHEALTH858@GMAIL.COM",
    "categoryName": "HOME HEALTH AGENCY",
    "categoryCode": "HHA",
    "licenseStatus": "ACTIVE",
    "inService": true,
    "licenseNumber": "550008364",
    "licenseEffectiveDate": "05/06/2025",
    "licenseExpirationDate": "01/25/2026",
    "dataDate": "10/18/2025",
    "capacity": 0,
    "address": "506 W GRAHAM AVE, SUITE 206",
    "city": "LAKE ELSINORE",
    "zip": "92530",
    "county": "RIVERSIDE",
    "phone": "(951) 610-7364",
    "lat": 33.66940001,
    "lng": -117.333599
  },
  {
    "id": "630018736",
    "name": "LAKE ELSINORE CLINICA MEDICA FAMILIAR",
    "npi": null,
    "hcaiId": null,
    "businessName": null,
    "contactEmail": null,
    "categoryName": "PRIMARY CARE CLINIC",
    "categoryCode": "COMTYC",
    "licenseStatus": null,
    "inService": null,
    "licenseNumber": null,
    "licenseEffectiveDate": null,
    "licenseExpirationDate": null,
    "dataDate": "10/18/2025",
    "capacity": 0,
    "address": "31739 RIVERSIDE DR, SUITE A-1",
    "city": "LAKE ELSINORE",
    "zip": "92530",
    "county": "RIVERSIDE",
    "phone": null,
    "lat": 33.6770973,
    "lng": -117.3734052
  },
  {
    "id": "240001878",
    "name": "LAKE ELSINORE DIALYSIS",
    "npi": "1205895869",
    "hcaiId": "306334519",
    "businessName": "DAVITA - RIVERSIDE, LLC",
    "contactEmail": "CAL_C@DAVITA.COM",
    "categoryName": "CHRONIC DIALYSIS CLINIC",
    "categoryCode": "ESRD/CDC",
    "licenseStatus": "ACTIVE",
    "inService": true,
    "licenseNumber": "240000841",
    "licenseEffectiveDate": "11/10/2024",
    "licenseExpirationDate": "11/09/2025",
    "dataDate": "10/18/2025",
    "capacity": 18,
    "address": "32291 MISSION TRL, BUILDING S",
    "city": "LAKE ELSINORE",
    "zip": "92530",
    "county": "RIVERSIDE",
    "phone": "(951) 674-5050",
    "lat": 33.652782,
    "lng": -117.29682
  },
  {
    "id": "630017482",
    "name": "VCC:  MOBILE VAN",
    "npi": "1497203541",
    "hcaiId": "306330939",
    "businessName": "VISTA COMMUNITY CLINIC",
    "contactEmail": "FERNANDO@VCC.ORG",
    "categoryName": "PRIMARY CARE CLINIC",
    "categoryCode": "COMTYC",
    "licenseStatus": "ACTIVE",
    "inService": true,
    "licenseNumber": "550003781",
    "licenseEffectiveDate": "02/06/2025",
    "licenseExpirationDate": "02/05/2026",
    "dataDate": "10/18/2025",
    "capacity": 0,
    "address": "31361 RIVERSIDE DR",
    "city": "LAKE ELSINORE",
    "zip": "92530",
    "county": "RIVERSIDE",
    "phone": "(760) 631-5000",
    "lat": 33.68211498,
    "lng": -117.369403
  },
  {
    "id": "630016511",
    "name": "VCC: LAKE ELSINORE DENTAL AND SPECIALTY CARE",
    "npi": "1497203541",
    "hcaiId": "306334728",
    "businessName": "VISTA COMMUNITY CLINIC",
    "contactEmail": "FERNANDO@VCC.ORG",
    "categoryName": "PRIMARY CARE CLINIC",
    "categoryCode": "FQHC/COMTYC",
    "licenseStatus": "ACTIVE",
    "inService": true,
    "licenseNumber": "550003781",
    "licenseEffectiveDate": "02/06/2025",
    "licenseExpirationDate": "02/05/2026",
    "dataDate": "10/18/2025",
    "capacity": 0,
    "address": "30195 FRASER DRIVE",
    "city": "LAKE ELSINORE",
    "zip": "92530",
    "county": "RIVERSIDE",
    "phone": "(760) 631-5000",
    "lat": 33.684624,
    "lng": -117.368163
  },
  {
    "id": "630027429",
    "name": "VCC: LAKE ELSINORE HEALTH CENTER",
    "npi": "1497203541",
    "hcaiId": null,
    "businessName": "VISTA COMMUNITY CLINIC",
    "contactEmail": null,
    "categoryName": "PRIMARY CARE CLINIC",
    "categoryCode": "FQHC/COMTYC",
    "licenseStatus": "ACTIVE",
    "inService": true,
    "licenseNumber": "550003781",
    "licenseEffectiveDate": "02/06/2025",
    "licenseExpirationDate": "02/05/2026",
    "dataDate": "10/18/2025",
    "capacity": 0,
    "address": "31361 RIVERSIDE DR",
    "city": "LAKE ELSINORE",
    "zip": "92530",
    "county": "RIVERSIDE",
    "phone": null,
    "lat": 33.68211498,
    "lng": -117.369403
  }
]