[
  {
    "id": "630013107",
    "name": "ANZA INDIAN HEALTH CENTER",
    "npi": "1659424885",
    "hcaiId": "306334661",
    "businessName": null,
    "contactEmail": "OTHOMSEN@RSBCIHI.ORG",
    "categoryName": "PRIMARY CARE CLINIC",
    "categoryCode": "COMTYC",
    "licenseStatus": null,
    "inService": null,
    "licenseNumber": null,
    "licenseEffectiveDate": null,
    "licenseExpirationDate": null,
    "dataDate": "10/18/2025",
    "capacity": 0,
    "address": "39-100 CONTRERAS ROAD, SUITE C",
    "city": "ANZA",
    "zip": "92539",
    "county": "RIVERSIDE",
    "phone": "(951) 763-4835",
    "lat": 33.55411,
    "lng": -116.674101
  },
  {
    "id": "630014959",
    "name": "DAP HEALTH - ANZA COMMUNITY HEALTH CENTER",
    "npi": "1942623657",
    "hcaiId": "306334691",
    "businessName": "DAP HEALTH, INC.",
    "contactEmail": "SPRIOR@DAPHEALTH.ORG",
    "categoryName": "PRIMARY CARE CLINIC",
    "categoryCode": "COMTYC",
    "licenseStatus": "ACTIVE",
    "inService": true,
    "licenseNumber": "550002701",
    "licenseEffectiveDate": "04/22/2025",
    "licenseExpirationDate": "12/08/2025",
    "dataDate": "10/18/2025",
    "capacity": 0,
    "address": "58581 US HIGHWAY 371, SUITE F, G, H",
    "city": "ANZA",
    "zip": "92539",
    "county": "RIVERSIDE",
    "phone": "(760) 676-5982",
    "lat": 33.557004,
    "lng": -116.6388435
  },
  {
    "id": "630018768",
    "name": "DAP HEALTH - MOBILE DENTAL UNIT #3",
    "npi": "1942623657",
    "hcaiId": null,
    "businessName": "DAP HEALTH, INC.",
    "contactEmail": null,
    "categoryName": "PRIMARY CARE CLINIC",
    "categoryCode": "COMTYC",
    "licenseStatus": "ACTIVE",
    "inService": true,
    "licenseNumber": "550002701",
    "licenseEffectiveDate": "04/22/2025",
    "licenseExpirationDate": "12/08/2025",
    "dataDate": "10/18/2025",
    "capacity": 0,
    "address": "58581 US HIGHWAY 371, SUITE F, G, H",
    "city": "ANZA",
    "zip": "92539",
    "county": "RIVERSIDE",
    "phone": null,
    "lat": 33.557004,
    "lng": -116.6388435
  },
  {
    "id": "630016931",
    "name": "DAP HEALTH - MOBILE UNIT # 4",
    "npi": "1942623657",
    "hcaiId": null,
    "businessName": "DAP HEALTH, INC.",
    "contactEmail": null,
    "categoryName": "PRIMARY CARE CLINIC",
    "categoryCode": "COMTYC",
    "licenseStatus": "ACTIVE",
    "inService": true,
    "licenseNumber": "550002701",
    "licenseEffectiveDate": "04/22/2025",
    "licenseExpirationDate": "12/08/2025",
    "dataDate": "10/18/2025",
    "capacity": 0,
    "address": "58581 US HIGHWAY 371, SUITE F,G,H",
    "city": "ANZA",
    "zip": "92539",
    "county": "RIVERSIDE",
    "phone": null,
    "lat": 33.55671983,
    "lng": -116.6391568
  },
  {
    "id": "630020470",
    "name": "DAP HEALTH - MOBILE UNIT #8",
    "npi": null,
    "hcaiId": null,
    "businessName": "DAP HEALTH, INC.",
    "contactEmail": null,
    "categoryName": "PRIMARY CARE CLINIC",
    "categoryCode": "COMTYC",
    "licenseStatus": "ACTIVE",
    "inService": true,
    "licenseNumber": "550002701",
    "licenseEffectiveDate": "04/22/2025",
    "licenseExpirationDate": "12/08/2025",
    "dataDate": "10/18/2025",
    "capacity": 0,
    "address": "58581 US HIGHWAY 371, SUITE F,G,H",
    "city": "ANZA",
    "zip": "92539",
    "county": "RIVERSIDE",
    "phone": null,
    "lat": 33.557004,
    "lng": -116.6388435
  },
  {
    "id": "630018769",
    "name": "MOBILE UNIT #6",
    "npi": null,
    "hcaiId": null,
    "businessName": null,
    "contactEmail": null,
    "categoryName": "PRIMARY CARE CLINIC",
    "categoryCode": "COMTYC",
    "licenseStatus": null,
    "inService": null,
    "licenseNumber": null,
    "licenseEffectiveDate": null,
    "licenseExpirationDate": null,
    "dataDate": "10/18/2025",
    "capacity": 0,
    "address": "58581 US HIGHWAY 371, SUITE F, G, H",
    "city": "ANZA",
    "zip": "92539",
    "county": "RIVERSIDE",
    "phone": null,
    "lat": 33.557004,
    "lng": -116.6388435
  },
  {
    "id": "630027134",
    "name": "RIVERSIDE-SAN BERNARDINO COUNTY INDIAN HEALTH INC",
    "npi": null,
    "hcaiId": null,
    "businessName": null,
    "contactEmail": null,
    "categoryName": "PRIMARY CARE CLINIC",
    "categoryCode": "FQHC",
    "licenseStatus": null,
    "inService": null,
    "licenseNumber": null,
    "licenseEffectiveDate": null,
    "licenseExpirationDate": null,
    "dataDate": "10/18/2025",
    "capacity": 0,
    "address": "53000 CAHUILLA RD",
    "city": "ANZA",
    "zip": "92539",
    "county": "RIVERSIDE",
    "phone": "(951) 763-4835",
    "lat": 33.54344332,
    "lng": -116.7356686
  }
]