[
  {
    "id": "240001812",
    "name": "HEMET DIALYSIS CENTER",
    "npi": "1174791883",
    "hcaiId": "306334625",
    "businessName": "DAVITA - RIVERSIDE, LLC",
    "contactEmail": "CAL_C@DAVITA.COM",
    "categoryName": "CHRONIC DIALYSIS CLINIC",
    "categoryCode": "ESRD/CDC",
    "licenseStatus": "ACTIVE",
    "inService": true,
    "licenseNumber": "240000801",
    "licenseEffectiveDate": "05/19/2025",
    "licenseExpirationDate": "05/18/2026",
    "dataDate": "10/18/2025",
    "capacity": 39,
    "address": "3050 W FLORIDA AVE",
    "city": "HEMET",
    "zip": "92545",
    "county": "RIVERSIDE",
    "phone": "(951) 925-9723",
    "lat": 33.747723,
    "lng": -117.0040545
  },
  {
    "id": "250000567",
    "name": "HEMET HILLS POST ACUTE",
    "npi": "1447298138",
    "hcaiId": "206334012",
    "businessName": "HEMET COMMUNITY HEALTHCARE, LLC",
    "contactEmail": "TYLER.GIVEN@HEMETHILLSPA.COM",
    "categoryName": "SKILLED NURSING FACILITY",
    "categoryCode": "SNF",
    "licenseStatus": "ACTIVE",
    "inService": true,
    "licenseNumber": "250000276",
    "licenseEffectiveDate": "04/02/2025",
    "licenseExpirationDate": "04/01/2026",
    "dataDate": "10/18/2025",
    "capacity": 178,
    "address": "1717 W STETSON AVE",
    "city": "HEMET",
    "zip": "92545",
    "county": "RIVERSIDE",
    "phone": "(951) 925-9171",
    "lat": 33.728769,
    "lng": -116.990325
  },
  {
    "id": "250000246",
    "name": "INLAND EYE SPECIALIST",
    "npi": "1386677326",
    "hcaiId": "306334076",
    "businessName": null,
    "contactEmail": null,
    "categoryName": "SURGICAL CLINIC",
    "categoryCode": "ASC",
    "licenseStatus": "INACTIVE - CAPEN DECISION",
    "inService": false,
    "licenseNumber": "250000263",
    "licenseEffectiveDate": "04/10/2008",
    "licenseExpirationDate": "04/09/2009",
    "dataDate": "10/18/2025",
    "capacity": 0,
    "address": "3953 W STETSON AVE",
    "city": "HEMET",
    "zip": "92545",
    "county": "RIVERSIDE",
    "phone": "(951) 652-4343",
    "lat": 33.728166,
    "lng": -117.012627
  },
  {
    "id": "250001303",
    "name": "MANORCARE HEALTH SERVICES-HEMET",
    "npi": null,
    "hcaiId": null,
    "businessName": null,
    "contactEmail": "WALTER.LONG@HCR-MANORCARE.COM",
    "categoryName": "REHABILITATION CLINIC",
    "categoryCode": "OPT/SP",
    "licenseStatus": null,
    "inService": null,
    "licenseNumber": null,
    "licenseEffectiveDate": null,
    "licenseExpirationDate": null,
    "dataDate": "10/18/2025",
    "capacity": 0,
    "address": "1717 W STETSON AVE",
    "city": "HEMET",
    "zip": "92545",
    "county": "RIVERSIDE",
    "phone": "(253) 213-2178",
    "lat": 33.728769,
    "lng": -116.990325
  },
  {
    "id": "630019108",
    "name": "RANCHO VIEJO MIDDLE SCHOOL, ROOM 310",
    "npi": null,
    "hcaiId": null,
    "businessName": "NEIGHBORHOOD HEALTHCARE",
    "contactEmail": null,
    "categoryName": "PRIMARY CARE CLINIC",
    "categoryCode": "COMTYC",
    "licenseStatus": "ACTIVE",
    "inService": true,
    "licenseNumber": "550003562",
    "licenseEffectiveDate": "07/06/2025",
    "licenseExpirationDate": "07/05/2026",
    "dataDate": "10/18/2025",
    "capacity": 0,
    "address": "985 N CAWSTON AVE",
    "city": "HEMET",
    "zip": "92545",
    "county": "RIVERSIDE",
    "phone": null,
    "lat": 33.763743,
    "lng": -117.0163305
  },
  {
    "id": "630019107",
    "name": "TAHQUITZ HIGH SCHOOL, ROOM 721",
    "npi": null,
    "hcaiId": null,
    "businessName": "NEIGHBORHOOD HEALTHCARE",
    "contactEmail": null,
    "categoryName": "PRIMARY CARE CLINIC",
    "categoryCode": "COMTYC",
    "licenseStatus": "ACTIVE",
    "inService": true,
    "licenseNumber": "550003562",
    "licenseEffectiveDate": "07/06/2025",
    "licenseExpirationDate": "07/05/2026",
    "dataDate": "10/18/2025",
    "capacity": 0,
    "address": "4425 TITAN TRL",
    "city": "HEMET",
    "zip": "92545",
    "county": "RIVERSIDE",
    "phone": null,
    "lat": 33.767991,
    "lng": -117.019575
  },
  {
    "id": "250000902",
    "name": "THE VILLAGE HEALTHCARE CENTER",
    "npi": "1588740229",
    "hcaiId": "206334051",
    "businessName": "FREEDOM PROPERTIES HEMET, LLC",
    "contactEmail": "BFREDRICKSEN@THEVILLAGEHEMET.COM",
    "categoryName": "SKILLED NURSING FACILITY",
    "categoryCode": "SNF",
    "licenseStatus": "ACTIVE",
    "inService": true,
    "licenseNumber": "250000405",
    "licenseEffectiveDate": "01/07/2025",
    "licenseExpirationDate": "01/06/2026",
    "dataDate": "10/18/2025",
    "capacity": 54,
    "address": "2400 W ACACIA AVE",
    "city": "HEMET",
    "zip": "92545",
    "county": "RIVERSIDE",
    "phone": "(951) 766-5116",
    "lat": 33.744519,
    "lng": -116.9968725
  }
]