[
  {
    "id": "630019103",
    "name": "ALESSANDRO HIGH SCHOOL",
    "npi": null,
    "hcaiId": null,
    "businessName": "NEIGHBORHOOD HEALTHCARE",
    "contactEmail": null,
    "categoryName": "PRIMARY CARE CLINIC",
    "categoryCode": "COMTYC",
    "licenseStatus": "ACTIVE",
    "inService": true,
    "licenseNumber": "550003562",
    "licenseEffectiveDate": "07/06/2025",
    "licenseExpirationDate": "07/05/2026",
    "dataDate": "10/18/2025",
    "capacity": 0,
    "address": "831 E DEVONSHIRE AVE",
    "city": "HEMET",
    "zip": "92543",
    "county": "RIVERSIDE",
    "phone": null,
    "lat": 33.750756,
    "lng": -116.963613
  },
  {
    "id": "060002228",
    "name": "CAMELOT ADULT DAY HEALTH CARE CENTER",
    "npi": null,
    "hcaiId": null,
    "businessName": "ORCHID COURT, INCORPORATED",
    "contactEmail": "CAMELOTADHC@SISNA.COM",
    "categoryName": "ADULT DAY HEALTH CARE",
    "categoryCode": "ADHC",
    "licenseStatus": "ACTIVE",
    "inService": true,
    "licenseNumber": "060000924",
    "licenseEffectiveDate": "05/17/2025",
    "licenseExpirationDate": "05/16/2026",
    "dataDate": "10/18/2025",
    "capacity": 0,
    "address": "650 CAMINO REAL CIR",
    "city": "HEMET",
    "zip": "92543",
    "county": "RIVERSIDE",
    "phone": "(951) 766-4553",
    "lat": 33.756795,
    "lng": -116.9857755
  },
  {
    "id": "630019102",
    "name": "DIAMOND VALLEY MIDDLE SCHOOL, ROOM 402",
    "npi": null,
    "hcaiId": null,
    "businessName": "NEIGHBORHOOD HEALTHCARE",
    "contactEmail": null,
    "categoryName": "PRIMARY CARE CLINIC",
    "categoryCode": "COMTYC",
    "licenseStatus": "ACTIVE",
    "inService": true,
    "licenseNumber": "550003562",
    "licenseEffectiveDate": "07/06/2025",
    "licenseExpirationDate": "07/05/2026",
    "dataDate": "10/18/2025",
    "capacity": 0,
    "address": "291 W CHAMBERS STREET",
    "city": "HEMET",
    "zip": "92543",
    "county": "RIVERSIDE",
    "phone": null,
    "lat": 33.72156,
    "lng": -116.974503
  },
  {
    "id": "250001056",
    "name": "HEMET ENDOSCOPY CENTER",
    "npi": null,
    "hcaiId": "306334562",
    "businessName": null,
    "contactEmail": null,
    "categoryName": "SURGICAL CLINIC",
    "categoryCode": "ASC",
    "licenseStatus": "INACTIVE - CAPEN DECISION",
    "inService": false,
    "licenseNumber": "250000455",
    "licenseEffectiveDate": "11/11/2007",
    "licenseExpirationDate": "11/10/2008",
    "dataDate": "10/18/2025",
    "capacity": 0,
    "address": "1003 E FLORIDA AVE, SUITE 104",
    "city": "HEMET",
    "zip": "92543",
    "county": "RIVERSIDE",
    "phone": "(951) 652-2252",
    "lat": 33.747273,
    "lng": -116.961552
  },
  {
    "id": "250000012",
    "name": "HEMET GLOBAL MEDICAL CENTER",
    "npi": "1114239068",
    "hcaiId": "106331194",
    "businessName": "KPC GLOBAL MEDICAL CENTERS, INC.",
    "contactEmail": "NDOMINGUE@KPCGM.COM",
    "categoryName": "GENERAL ACUTE CARE HOSPITAL",
    "categoryCode": "GACH",
    "licenseStatus": "ACTIVE",
    "inService": true,
    "licenseNumber": "250000145",
    "licenseEffectiveDate": "11/30/2024",
    "licenseExpirationDate": "11/29/2025",
    "dataDate": "10/18/2025",
    "capacity": 304,
    "address": "1117 E DEVONSHIRE AVE",
    "city": "HEMET",
    "zip": "92543",
    "county": "RIVERSIDE",
    "phone": "(951) 265-9253",
    "lat": 33.75,
    "lng": -116.9601255
  },
  {
    "id": "250001172",
    "name": "HEMET HEALTHCARE SURGICENTER",
    "npi": "1982674065",
    "hcaiId": "306334085",
    "businessName": null,
    "contactEmail": null,
    "categoryName": "SURGICAL CLINIC",
    "categoryCode": "ASC",
    "licenseStatus": "INACTIVE - CAPEN DECISION",
    "inService": false,
    "licenseNumber": "250000486",
    "licenseEffectiveDate": "03/11/2008",
    "licenseExpirationDate": "03/10/2009",
    "dataDate": "10/18/2025",
    "capacity": 0,
    "address": "301 N SAN JACINTO ST",
    "city": "HEMET",
    "zip": "92543",
    "county": "RIVERSIDE",
    "phone": "(951) 765-1717",
    "lat": 33.751557,
    "lng": -116.959104
  },
  {
    "id": "630007344",
    "name": "HEMET HOME HEALTH CARE",
    "npi": "1669693073",
    "hcaiId": "406334584",
    "businessName": "NEW ERA ULTIMATE INVESTMENT, INC.",
    "contactEmail": "JOHN@HEMETHHC.COM",
    "categoryName": "HOME HEALTH AGENCY",
    "categoryCode": "HHA",
    "licenseStatus": "ACTIVE",
    "inService": true,
    "licenseNumber": "550000431",
    "licenseEffectiveDate": "03/19/2025",
    "licenseExpirationDate": "03/18/2026",
    "dataDate": "10/18/2025",
    "capacity": 0,
    "address": "233 S CARMALITA ST",
    "city": "HEMET",
    "zip": "92543",
    "county": "RIVERSIDE",
    "phone": "(951) 766-9966",
    "lat": 33.744726,
    "lng": -116.969769
  },
  {
    "id": "250001502",
    "name": "HEMET VALLEY HEALTHCARE CENTER",
    "npi": "1184936023",
    "hcaiId": "206334032",
    "businessName": "KPC GLOBAL MEDICAL CENTERS, INC.",
    "contactEmail": null,
    "categoryName": "SKILLED NURSING FACILITY",
    "categoryCode": "SNF",
    "licenseStatus": "ACTIVE",
    "inService": true,
    "licenseNumber": "250000145",
    "licenseEffectiveDate": "11/30/2024",
    "licenseExpirationDate": "11/29/2025",
    "dataDate": "10/18/2025",
    "capacity": 90,
    "address": "371 N WESTON PL",
    "city": "HEMET",
    "zip": "92543",
    "county": "RIVERSIDE",
    "phone": "(951) 766-1199",
    "lat": 33.752448,
    "lng": -116.9604405
  },
  {
    "id": "250001363",
    "name": "HEMET VALLEY MEDICAL CENTER D/P SNF",
    "npi": "1114239068",
    "hcaiId": null,
    "businessName": "KPC GLOBAL MEDICAL CENTERS, INC.",
    "contactEmail": null,
    "categoryName": "SKILLED NURSING FACILITY",
    "categoryCode": "SNF",
    "licenseStatus": "ACTIVE",
    "inService": true,
    "licenseNumber": "250000145",
    "licenseEffectiveDate": "11/30/2024",
    "licenseExpirationDate": "11/29/2025",
    "dataDate": "10/18/2025",
    "capacity": 23,
    "address": "1117 E DEVONSHIRE AVE",
    "city": "HEMET",
    "zip": "92543",
    "county": "RIVERSIDE",
    "phone": "(951) 652-2811",
    "lat": 33.75,
    "lng": -116.9601255
  },
  {
    "id": "630019800",
    "name": "INHOME HOSPICE AND PALLIATIVE CARE INC.",
    "npi": null,
    "hcaiId": "406336024",
    "businessName": "INHOME HOSPICE AND PALLIATIVE CARE INC.",
    "contactEmail": "INHOMEHOSPICE@GMAIL.COM",
    "categoryName": "HOSPICE",
    "categoryCode": "HOSPICE",
    "licenseStatus": "ACTIVE",
    "inService": true,
    "licenseNumber": "550005785",
    "licenseEffectiveDate": "10/10/2024",
    "licenseExpirationDate": "10/09/2026",
    "dataDate": "10/18/2025",
    "capacity": 0,
    "address": "1314 W FLORIDA AVE, SUITE 101",
    "city": "HEMET",
    "zip": "92543",
    "county": "RIVERSIDE",
    "phone": "(951) 658-9494",
    "lat": 33.74753976,
    "lng": -116.9849519
  },
  {
    "id": "630016385",
    "name": "INNERCARE - HEMET",
    "npi": "1033593108",
    "hcaiId": "306334727",
    "businessName": "CLINICAS DE SALUD DEL PUEBLO, INC.",
    "contactEmail": "YVONNEB@INNERCARE.ORG",
    "categoryName": "PRIMARY CARE CLINIC",
    "categoryCode": "COMTYC",
    "licenseStatus": "ACTIVE",
    "inService": true,
    "licenseNumber": "550003373",
    "licenseEffectiveDate": "02/04/2025",
    "licenseExpirationDate": "02/03/2026",
    "dataDate": "10/18/2025",
    "capacity": 0,
    "address": "1023 E. FLORIDA AVENUE",
    "city": "HEMET",
    "zip": "92543",
    "county": "RIVERSIDE",
    "phone": "(760) 344-9951",
    "lat": 33.7473,
    "lng": -116.9610975
  },
  {
    "id": "250000078",
    "name": "MEADOWBROOK POST ACUTE",
    "npi": "1912950932",
    "hcaiId": "206331256",
    "businessName": "MEADOWBROOK POST ACUTE,LLC",
    "contactEmail": "ADMINISTRATOR@MEADOWBROOKPOSTACUTE.COM",
    "categoryName": "SKILLED NURSING FACILITY",
    "categoryCode": "SNF",
    "licenseStatus": "ACTIVE",
    "inService": true,
    "licenseNumber": "250000172",
    "licenseEffectiveDate": "05/18/2023",
    "licenseExpirationDate": "05/17/2024",
    "dataDate": "10/18/2025",
    "capacity": 64,
    "address": "461 E JOHNSTON AVE",
    "city": "HEMET",
    "zip": "92543",
    "county": "RIVERSIDE",
    "phone": "(951) 658-6374",
    "lat": 33.732441,
    "lng": -116.9684235
  },
  {
    "id": "630016528",
    "name": "NEIGHBORHOOD HEALTHCARE - DEVONSHIRE AVENUE",
    "npi": "1154786846",
    "hcaiId": "306334722",
    "businessName": "NEIGHBORHOOD HEALTHCARE",
    "contactEmail": "ELIZABETH.GARCIA@NHCARE.ORG",
    "categoryName": "PRIMARY CARE CLINIC",
    "categoryCode": "COMTYC",
    "licenseStatus": "ACTIVE",
    "inService": true,
    "licenseNumber": "550003562",
    "licenseEffectiveDate": "07/06/2025",
    "licenseExpirationDate": "07/05/2026",
    "dataDate": "10/18/2025",
    "capacity": 0,
    "address": "1030 E FLORIDA AVE",
    "city": "HEMET",
    "zip": "92543",
    "county": "RIVERSIDE",
    "phone": "(442) 286-8543",
    "lat": 33.747811,
    "lng": -116.961087
  },
  {
    "id": "630019577",
    "name": "NEIGHBORHOOD HEALTHCARE - DR. KOKA FAMILY HEALTH CENTER",
    "npi": null,
    "hcaiId": null,
    "businessName": "NEIGHBORHOOD HEALTHCARE",
    "contactEmail": null,
    "categoryName": "PRIMARY CARE CLINIC",
    "categoryCode": "COMTYC",
    "licenseStatus": "ACTIVE",
    "inService": true,
    "licenseNumber": "550003562",
    "licenseEffectiveDate": "07/06/2025",
    "licenseExpirationDate": "07/05/2026",
    "dataDate": "10/18/2025",
    "capacity": 0,
    "address": "422 N SAN JACINTO ST, STE A",
    "city": "HEMET",
    "zip": "92543",
    "county": "RIVERSIDE",
    "phone": null,
    "lat": 33.753591,
    "lng": -116.958159
  },
  {
    "id": "250001040",
    "name": "PODIATRIC SURGERY CENTER",
    "npi": "1447341870",
    "hcaiId": "306334081",
    "businessName": null,
    "contactEmail": null,
    "categoryName": "SURGICAL CLINIC",
    "categoryCode": "ASC",
    "licenseStatus": "INACTIVE - CAPEN DECISION",
    "inService": false,
    "licenseNumber": "250000447",
    "licenseEffectiveDate": "06/10/2008",
    "licenseExpirationDate": "06/09/2009",
    "dataDate": "10/18/2025",
    "capacity": 0,
    "address": "255 N GILBERT ST, SUITE B",
    "city": "HEMET",
    "zip": "92543",
    "county": "RIVERSIDE",
    "phone": "(951) 925-2186",
    "lat": 33.750648,
    "lng": -116.976582
  },
  {
    "id": "250000141",
    "name": "RAMONA REHABILITATION AND POST ACUTE CARE CENTER",
    "npi": "1699768879",
    "hcaiId": "206331305",
    "businessName": "RAMONA REHABILITATION AND POST ACUTE CARE, INC.",
    "contactEmail": "BJONES@RAMONA-REHAB.COM",
    "categoryName": "SKILLED NURSING FACILITY",
    "categoryCode": "SNF",
    "licenseStatus": "ACTIVE",
    "inService": true,
    "licenseNumber": "250000190",
    "licenseEffectiveDate": "11/01/2024",
    "licenseExpirationDate": "10/31/2025",
    "dataDate": "10/18/2025",
    "capacity": 104,
    "address": "485 W JOHNSTON AVE",
    "city": "HEMET",
    "zip": "92543",
    "county": "RIVERSIDE",
    "phone": "(951) 652-0011",
    "lat": 33.732522,
    "lng": -116.975178
  },
  {
    "id": "250000695",
    "name": "RAMONA REHABILITATION AND POST ACUTE CARE CENTER",
    "npi": "1699768879",
    "hcaiId": null,
    "businessName": "RAMONA REHABILITATION AND POST ACUTE CARE, INC.",
    "contactEmail": "BJONES@RAMONA-REHAB.COM",
    "categoryName": "REHABILITATION CLINIC",
    "categoryCode": "OPT/SP",
    "licenseStatus": "ACTIVE",
    "inService": true,
    "licenseNumber": "250000190",
    "licenseEffectiveDate": "11/01/2024",
    "licenseExpirationDate": "10/31/2025",
    "dataDate": "10/18/2025",
    "capacity": 0,
    "address": "485 W JOHNSTON AVE",
    "city": "HEMET",
    "zip": "92543",
    "county": "RIVERSIDE",
    "phone": "(951) 652-0011",
    "lat": 33.732522,
    "lng": -116.975178
  },
  {
    "id": "250000283",
    "name": "SAN JACINTO VALLEY POST ACUTE",
    "npi": "1225345614",
    "hcaiId": "206331200",
    "businessName": "HEMET SNF HEALTHCARE, LLC",
    "contactEmail": "BRYCE.LINDSEY@SANJACINTOPA.COM",
    "categoryName": "SKILLED NURSING FACILITY",
    "categoryCode": "SNF",
    "licenseStatus": "ACTIVE",
    "inService": true,
    "licenseNumber": "250000242",
    "licenseEffectiveDate": "12/09/2024",
    "licenseExpirationDate": "12/08/2025",
    "dataDate": "10/18/2025",
    "capacity": 99,
    "address": "275 N SAN JACINTO ST",
    "city": "HEMET",
    "zip": "92543",
    "county": "RIVERSIDE",
    "phone": "(951) 658-9441",
    "lat": 33.750369,
    "lng": -116.9590545
  },
  {
    "id": "250001298",
    "name": "SOUTHLAND ENDOSCOPY CENTER",
    "npi": "1982744231",
    "hcaiId": "306334122",
    "businessName": null,
    "contactEmail": null,
    "categoryName": "SURGICAL CLINIC",
    "categoryCode": "ASC",
    "licenseStatus": "INACTIVE - CAPEN DECISION",
    "inService": false,
    "licenseNumber": "250000545",
    "licenseEffectiveDate": "04/05/2008",
    "licenseExpirationDate": "04/04/2009",
    "dataDate": "10/18/2025",
    "capacity": 0,
    "address": "949 CALHOUN PL, SUITE B",
    "city": "HEMET",
    "zip": "92543",
    "county": "RIVERSIDE",
    "phone": "(951) 929-1177",
    "lat": 33.750063,
    "lng": -116.961642
  },
  {
    "id": "630017792",
    "name": "SUNNY ADULT DAY HEALTH CARE CENTER",
    "npi": null,
    "hcaiId": null,
    "businessName": "LOYAL CONSULTING INC.",
    "contactEmail": "ADMIN@SUNNYADHC.COM",
    "categoryName": "ADULT DAY HEALTH CARE",
    "categoryCode": "ADHC",
    "licenseStatus": "ACTIVE",
    "inService": true,
    "licenseNumber": "550004463",
    "licenseEffectiveDate": "12/31/2024",
    "licenseExpirationDate": "12/10/2025",
    "dataDate": "10/18/2025",
    "capacity": 0,
    "address": "151 N LYON AVE",
    "city": "HEMET",
    "zip": "92543",
    "county": "RIVERSIDE",
    "phone": "(951) 292-7666",
    "lat": 33.748515,
    "lng": -116.99001
  },
  {
    "id": "630028543",
    "name": "TRI-STATE COMMUNITY HEALTHCARE CENTER - HEMET 2",
    "npi": null,
    "hcaiId": null,
    "businessName": "TRI - STATE COMMUNITY HEALTHCARE CENTER",
    "contactEmail": null,
    "categoryName": "PRIMARY CARE CLINIC",
    "categoryCode": "COMTYC",
    "licenseStatus": "ACTIVE",
    "inService": true,
    "licenseNumber": "550004322",
    "licenseEffectiveDate": "08/09/2025",
    "licenseExpirationDate": "08/08/2026",
    "dataDate": "10/18/2025",
    "capacity": 0,
    "address": "540 N SAN JACINTO ST, SUITE I",
    "city": "HEMET",
    "zip": "92543",
    "county": "RIVERSIDE",
    "phone": null,
    "lat": 33.755229,
    "lng": -116.957655
  },
  {
    "id": "630022541",
    "name": "TRI-STATE COMMUNITY HEALTHCARE CENTER- HEMET",
    "npi": null,
    "hcaiId": null,
    "businessName": "TRI - STATE COMMUNITY HEALTHCARE CENTER",
    "contactEmail": null,
    "categoryName": "PRIMARY CARE CLINIC",
    "categoryCode": "COMTYC",
    "licenseStatus": "ACTIVE",
    "inService": true,
    "licenseNumber": "550004322",
    "licenseEffectiveDate": "08/09/2025",
    "licenseExpirationDate": "08/08/2026",
    "dataDate": "10/18/2025",
    "capacity": 0,
    "address": "540 N SAN JACINTO ST, SUITE P",
    "city": "HEMET",
    "zip": "92543",
    "county": "RIVERSIDE",
    "phone": null,
    "lat": 33.755328,
    "lng": -116.957646
  },
  {
    "id": "250001559",
    "name": "VALLEY ENDOSCOPY CENTER",
    "npi": "1477653160",
    "hcaiId": "306334488",
    "businessName": null,
    "contactEmail": null,
    "categoryName": "SURGICAL CLINIC",
    "categoryCode": "ASC",
    "licenseStatus": "INACTIVE - CAPEN DECISION",
    "inService": false,
    "licenseNumber": "250000678",
    "licenseEffectiveDate": "12/18/2007",
    "licenseExpirationDate": "12/17/2008",
    "dataDate": "10/18/2025",
    "capacity": 0,
    "address": "397 N SAN JACINTO ST",
    "city": "HEMET",
    "zip": "92543",
    "county": "RIVERSIDE",
    "phone": "(951) 929-0124",
    "lat": 33.75296433,
    "lng": -116.9587159
  }
]