[
  {
    "id": "630020251",
    "name": "AT AWE CONGREGATE LIVING HEALTH FACILITY",
    "npi": null,
    "hcaiId": "206330316",
    "businessName": "AT AWE LLC",
    "contactEmail": "ATAWEINFO@GMAIL.COM",
    "categoryName": "CONGREGATE LIVING HEALTH FACILITY",
    "categoryCode": "CLHF",
    "licenseStatus": "ACTIVE",
    "inService": true,
    "licenseNumber": "550006876",
    "licenseEffectiveDate": "08/30/2025",
    "licenseExpirationDate": "08/29/2026",
    "dataDate": "10/18/2025",
    "capacity": 6,
    "address": "10876 MORNING RIDGE DR",
    "city": "MORENO VALLEY",
    "zip": "92557",
    "county": "RIVERSIDE",
    "phone": "(951) 214-2234",
    "lat": 33.962967,
    "lng": -117.228375
  },
  {
    "id": "630016661",
    "name": "CONTINUUM LIVING, LLC",
    "npi": null,
    "hcaiId": "206330203",
    "businessName": "CONTINUUM LIVING, LLC",
    "contactEmail": "CONTINUUMLIVINGLLC@GMAIL.COM",
    "categoryName": "CONGREGATE LIVING HEALTH FACILITY",
    "categoryCode": "CLHF",
    "licenseStatus": "ACTIVE",
    "inService": true,
    "licenseNumber": "550004937",
    "licenseEffectiveDate": "07/30/2025",
    "licenseExpirationDate": "07/29/2026",
    "dataDate": "10/18/2025",
    "capacity": 5,
    "address": "24343 PAWNEE TRAIL",
    "city": "MORENO VALLEY",
    "zip": "92557",
    "county": "RIVERSIDE",
    "phone": "(951) 208-2508",
    "lat": 33.959511,
    "lng": -117.237969
  },
  {
    "id": "250001796",
    "name": "DAVIS HOUSE",
    "npi": "1336298280",
    "hcaiId": null,
    "businessName": "DEVELOPMENTAL CLIENT CARE INDUSTRIES, INC.",
    "contactEmail": "HR@ICARE.BZ",
    "categoryName": "INTERMEDIATE CARE FACILITY-DD/H/N/CN/IID",
    "categoryCode": "ICFDDN",
    "licenseStatus": "ACTIVE",
    "inService": true,
    "licenseNumber": "250000790",
    "licenseEffectiveDate": "04/18/2025",
    "licenseExpirationDate": "04/17/2026",
    "dataDate": "10/18/2025",
    "capacity": 6,
    "address": "11751 DAVIS ST",
    "city": "MORENO VALLEY",
    "zip": "92557",
    "county": "RIVERSIDE",
    "phone": "(951) 243-3837",
    "lat": 33.950439,
    "lng": -117.2400795
  },
  {
    "id": "250001814",
    "name": "DESTINY HOME HEALTH AGENCY, INC.",
    "npi": "1750484085",
    "hcaiId": "406334545",
    "businessName": "DESTINY HOME HEALTH AGENCY, INC.",
    "contactEmail": "JEKPO@DESTINYHOMEHEALTH.COM",
    "categoryName": "HOME HEALTH AGENCY",
    "categoryCode": "HHA",
    "licenseStatus": "ACTIVE",
    "inService": true,
    "licenseNumber": "250000800",
    "licenseEffectiveDate": "05/05/2025",
    "licenseExpirationDate": "05/04/2026",
    "dataDate": "10/18/2025",
    "capacity": 0,
    "address": "12370 PERRIS BLVD",
    "city": "MORENO VALLEY",
    "zip": "92557",
    "county": "RIVERSIDE",
    "phone": "(951) 242-1365",
    "lat": 33.941142,
    "lng": -117.224748
  },
  {
    "id": "630013081",
    "name": "DESTINY HOSPICE CARE INC.",
    "npi": null,
    "hcaiId": "406334662",
    "businessName": "DESTINY HOSPICE CARE INC.",
    "contactEmail": "JEKPO@DESTINYHOMEHEALTH.COM",
    "categoryName": "HOSPICE",
    "categoryCode": "HOSPICE",
    "licenseStatus": "ACTIVE",
    "inService": true,
    "licenseNumber": "550001756",
    "licenseEffectiveDate": "11/03/2025",
    "licenseExpirationDate": "11/02/2027",
    "dataDate": "10/18/2025",
    "capacity": 0,
    "address": "12364 PERRIS BLVD",
    "city": "MORENO VALLEY",
    "zip": "92557",
    "county": "RIVERSIDE",
    "phone": "(951) 243-8871",
    "lat": 33.94121157,
    "lng": -117.2263331
  },
  {
    "id": "630025257",
    "name": "MORENO VALLEY CMHC",
    "npi": null,
    "hcaiId": null,
    "businessName": null,
    "contactEmail": "BPENGSON@ELEOSCOGNITIVECENTER.COM",
    "categoryName": "PSYCHOLOGY CLINIC",
    "categoryCode": "CMHC",
    "licenseStatus": null,
    "inService": null,
    "licenseNumber": null,
    "licenseEffectiveDate": null,
    "licenseExpirationDate": null,
    "dataDate": "10/18/2025",
    "capacity": 0,
    "address": "23180 HEMLOCK AVE, SUITE 100",
    "city": "MORENO VALLEY",
    "zip": "92557",
    "county": "RIVERSIDE",
    "phone": "(951) 266-9880",
    "lat": 33.942897,
    "lng": -117.258516
  },
  {
    "id": "630013186",
    "name": "VIP HEALTHCARE SERVICES LLC",
    "npi": "1356647887",
    "hcaiId": "406334649",
    "businessName": "VIP HEALTH CARE SERVICES LLC",
    "contactEmail": "VIOLA@VIPHEALTHCARESERVICES.COM",
    "categoryName": "HOME HEALTH AGENCY",
    "categoryCode": "HHA",
    "licenseStatus": "ACTIVE",
    "inService": true,
    "licenseNumber": "550001969",
    "licenseEffectiveDate": "06/19/2024",
    "licenseExpirationDate": "06/18/2025",
    "dataDate": "10/18/2025",
    "capacity": 0,
    "address": "12125 DAY ST, SUITE H308",
    "city": "MORENO VALLEY",
    "zip": "92557",
    "county": "RIVERSIDE",
    "phone": "(951) 601-9101",
    "lat": 33.94397658,
    "lng": -117.2816946
  },
  {
    "id": "630017331",
    "name": "VISTA HEIGHTS DIALYSIS",
    "npi": null,
    "hcaiId": "306330402",
    "businessName": "ROPHETS DIALYSIS LLC",
    "contactEmail": "CAL_C@DAVITA.COM",
    "categoryName": "CHRONIC DIALYSIS CLINIC",
    "categoryCode": "ESRD/CDC",
    "licenseStatus": "ACTIVE",
    "inService": true,
    "licenseNumber": "550004346",
    "licenseEffectiveDate": "08/14/2025",
    "licenseExpirationDate": "08/13/2026",
    "dataDate": "10/18/2025",
    "capacity": 37,
    "address": "12220 PERRIS BLVD, SUITE A",
    "city": "MORENO VALLEY",
    "zip": "92557",
    "county": "RIVERSIDE",
    "phone": "(951) 242-5112",
    "lat": 33.943194,
    "lng": -117.224622
  }
]