[
  {
    "id": "630016243",
    "name": "FRESENIUS MEDICAL CARE MORENO VALLEY",
    "npi": null,
    "hcaiId": "306334726",
    "businessName": "BIO-MEDICAL APPLICATIONS OF CALIFORNIA, INC.",
    "contactEmail": "CLINIC9075@FMC-NA.COM",
    "categoryName": "CHRONIC DIALYSIS CLINIC",
    "categoryCode": "ESRD/CDC",
    "licenseStatus": "ACTIVE",
    "inService": true,
    "licenseNumber": "550003477",
    "licenseEffectiveDate": "04/11/2025",
    "licenseExpirationDate": "04/10/2026",
    "dataDate": "10/18/2025",
    "capacity": 0,
    "address": "27420 IRIS AVENUE",
    "city": "MORENO VALLEY",
    "zip": "92555",
    "county": "RIVERSIDE",
    "phone": "(951) 242-9196",
    "lat": 33.89557188,
    "lng": -117.1850099
  },
  {
    "id": "630014364",
    "name": "JOYFUL CONGREGATE LIVING",
    "npi": null,
    "hcaiId": "206334707",
    "businessName": "PERSONAL TOUCH ELDER CARE, INC",
    "contactEmail": "JOYFULCLHF@GMAIL.COM",
    "categoryName": "CONGREGATE LIVING HEALTH FACILITY",
    "categoryCode": "CLHF",
    "licenseStatus": "ACTIVE",
    "inService": true,
    "licenseNumber": "550002727",
    "licenseEffectiveDate": "05/28/2025",
    "licenseExpirationDate": "05/27/2026",
    "dataDate": "10/18/2025",
    "capacity": 6,
    "address": "27926 ROCKWOOD AVE",
    "city": "MORENO VALLEY",
    "zip": "92555",
    "county": "RIVERSIDE",
    "phone": "(951) 363-8518",
    "lat": 33.908688,
    "lng": -117.1756035
  },
  {
    "id": "630011959",
    "name": "KAISER FOUNDATION HOSPITAL-MORENO VALLEY",
    "npi": "1174793459",
    "hcaiId": "106334048",
    "businessName": "KAISER FOUNDATION HOSPITALS",
    "contactEmail": "MARY.E.DRAYER@KP.ORG",
    "categoryName": "GENERAL ACUTE CARE HOSPITAL",
    "categoryCode": "GACH",
    "licenseStatus": "ACTIVE",
    "inService": true,
    "licenseNumber": "550000810",
    "licenseEffectiveDate": "11/10/2025",
    "licenseExpirationDate": "11/09/2026",
    "dataDate": "10/18/2025",
    "capacity": 100,
    "address": "27300 IRIS AVE",
    "city": "MORENO VALLEY",
    "zip": "92555",
    "county": "RIVERSIDE",
    "phone": "(951) 353-3385",
    "lat": 33.897105,
    "lng": -117.186003
  },
  {
    "id": "630020740",
    "name": "MAIN CAMPUS COMMUNITY HEALTH CENTER",
    "npi": null,
    "hcaiId": null,
    "businessName": null,
    "contactEmail": null,
    "categoryName": "PRIMARY CARE CLINIC",
    "categoryCode": "FQHC",
    "licenseStatus": null,
    "inService": null,
    "licenseNumber": null,
    "licenseEffectiveDate": null,
    "licenseExpirationDate": null,
    "dataDate": "10/18/2025",
    "capacity": 0,
    "address": "26600 CACTUS AVE, SUITE 300",
    "city": "MORENO VALLEY",
    "zip": "92555",
    "county": "RIVERSIDE",
    "phone": "(951) 988-9500",
    "lat": 33.91056,
    "lng": -117.1933335
  },
  {
    "id": "630028152",
    "name": "MAIN CAMPUS FIRST FLOOR COMMUNITY HEALTH CENTER",
    "npi": null,
    "hcaiId": null,
    "businessName": null,
    "contactEmail": null,
    "categoryName": "PRIMARY CARE CLINIC",
    "categoryCode": "FQHC",
    "licenseStatus": null,
    "inService": null,
    "licenseNumber": null,
    "licenseEffectiveDate": null,
    "licenseExpirationDate": null,
    "dataDate": "10/18/2025",
    "capacity": 0,
    "address": "26600 CACTUS AVE, SUITE 100",
    "city": "MORENO VALLEY",
    "zip": "92555",
    "county": "RIVERSIDE",
    "phone": null,
    "lat": 33.91056396,
    "lng": -117.1933463
  },
  {
    "id": "630019269",
    "name": "OUTPATIENT SERVICES - PERITONEAL DIALYSIS AT KAISER MORENO VALLEY CAPD",
    "npi": null,
    "hcaiId": null,
    "businessName": "KAISER FOUNDATION HOSPITALS",
    "contactEmail": null,
    "categoryName": "CHRONIC DIALYSIS CLINIC",
    "categoryCode": "ESRD",
    "licenseStatus": "ACTIVE",
    "inService": true,
    "licenseNumber": "550000810",
    "licenseEffectiveDate": "11/10/2025",
    "licenseExpirationDate": "11/09/2026",
    "dataDate": "10/18/2025",
    "capacity": 0,
    "address": "27200 IRIS AVE",
    "city": "MORENO VALLEY",
    "zip": "92555",
    "county": "RIVERSIDE",
    "phone": null,
    "lat": 33.89556288,
    "lng": -117.189743
  },
  {
    "id": "630018536",
    "name": "RANCHO BELLAGIO POST ACUTE",
    "npi": null,
    "hcaiId": "206334620",
    "businessName": "MORENO VALLEY SNF, LLC",
    "contactEmail": "CARSON.MCCUSTER@ARLINGTONGARDENSCC.COM",
    "categoryName": "SKILLED NURSING FACILITY",
    "categoryCode": "SNF",
    "licenseStatus": "ACTIVE",
    "inService": true,
    "licenseNumber": "550005405",
    "licenseEffectiveDate": "04/03/2025",
    "licenseExpirationDate": "04/02/2026",
    "dataDate": "10/18/2025",
    "capacity": 99,
    "address": "26940 E. HOSPITAL ROAD",
    "city": "MORENO VALLEY",
    "zip": "92555",
    "county": "RIVERSIDE",
    "phone": "(949) 584-9262",
    "lat": 33.912432,
    "lng": -117.193077
  },
  {
    "id": "250000050",
    "name": "RIVERSIDE UNIVERSITY HEALTH SYSTEM - MEDICAL CENTER",
    "npi": "1821159195",
    "hcaiId": "106334487",
    "businessName": "COUNTY OF RIVERSIDE",
    "contactEmail": "C.GUDINO@RUHEALTH.ORG",
    "categoryName": "GENERAL ACUTE CARE HOSPITAL",
    "categoryCode": "GACH",
    "licenseStatus": "ACTIVE",
    "inService": true,
    "licenseNumber": "250000195",
    "licenseEffectiveDate": "04/01/2025",
    "licenseExpirationDate": "03/31/2026",
    "dataDate": "10/18/2025",
    "capacity": 362,
    "address": "26520 CACTUS AVE",
    "city": "MORENO VALLEY",
    "zip": "92555",
    "county": "RIVERSIDE",
    "phone": "(951) 486-4000",
    "lat": 33.912018,
    "lng": -117.195867
  },
  {
    "id": "240001822",
    "name": "VALLEY VIEW DIALYSIS CENTER",
    "npi": "1407819485",
    "hcaiId": "306334485",
    "businessName": "RENAL TREATMENT CENTERS - CALIFORNIA, INC.",
    "contactEmail": "CAL_C@DAVITA.COM",
    "categoryName": "CHRONIC DIALYSIS CLINIC",
    "categoryCode": "ESRD/CDC",
    "licenseStatus": "ACTIVE",
    "inService": true,
    "licenseNumber": "240000811",
    "licenseEffectiveDate": "05/27/2025",
    "licenseExpirationDate": "05/26/2026",
    "dataDate": "10/18/2025",
    "capacity": 34,
    "address": "26900 CACTUS AVE",
    "city": "MORENO VALLEY",
    "zip": "92555",
    "county": "RIVERSIDE",
    "phone": "(951) 247-2844",
    "lat": 33.91017889,
    "lng": -117.1925294
  }
]