[
  {
    "id": "630017786",
    "name": "ADVANCED ENDOSCOPY CENTER - GASTROENTEROLOGY",
    "npi": "1366857377",
    "hcaiId": null,
    "businessName": null,
    "contactEmail": null,
    "categoryName": "SURGICAL CLINIC",
    "categoryCode": "ASC",
    "licenseStatus": null,
    "inService": null,
    "licenseNumber": null,
    "licenseEffectiveDate": null,
    "licenseExpirationDate": null,
    "dataDate": "10/18/2025",
    "capacity": 0,
    "address": "25495 MEDICAL CENTER DRIVE, SUITE 307",
    "city": "MURRIETA",
    "zip": "92562",
    "county": "RIVERSIDE",
    "phone": null,
    "lat": 33.556716,
    "lng": -117.183213
  },
  {
    "id": "630028362",
    "name": "AVA VASCULAR SURGERY CENTER",
    "npi": null,
    "hcaiId": null,
    "businessName": null,
    "contactEmail": null,
    "categoryName": "SURGICAL CLINIC",
    "categoryCode": "ASC",
    "licenseStatus": null,
    "inService": null,
    "licenseNumber": null,
    "licenseEffectiveDate": null,
    "licenseExpirationDate": null,
    "dataDate": "10/18/2025",
    "capacity": 0,
    "address": "25485 MEDICAL CENTER DR, SUITE 106",
    "city": "MURRIETA",
    "zip": "92562",
    "county": "RIVERSIDE",
    "phone": null,
    "lat": 33.557074,
    "lng": -117.183908
  },
  {
    "id": "630021188",
    "name": "AVEEVA HOSPICE - SOUTH",
    "npi": null,
    "hcaiId": "406333434",
    "businessName": "AVEEVA HOSPICE - SOUTH",
    "contactEmail": "JESTANISLAO@AVEEVAHOSPICE.COM",
    "categoryName": "HOSPICE",
    "categoryCode": "HOSPICE",
    "licenseStatus": "ACTIVE",
    "inService": true,
    "licenseNumber": "550006721",
    "licenseEffectiveDate": "08/23/2025",
    "licenseExpirationDate": "08/22/2027",
    "dataDate": "10/18/2025",
    "capacity": 0,
    "address": "41197 GOLDEN GATE CIR, SUITE 109",
    "city": "MURRIETA",
    "zip": "92562",
    "county": "RIVERSIDE",
    "phone": "(951) 405-3013",
    "lat": 33.53674101,
    "lng": -117.176147
  },
  {
    "id": "250001802",
    "name": "ENDOSCOPY CENTER OF THE INLAND EMPIRE, LLC",
    "npi": "1518984301",
    "hcaiId": "306334535",
    "businessName": null,
    "contactEmail": null,
    "categoryName": "SURGICAL CLINIC",
    "categoryCode": "ASC",
    "licenseStatus": "INACTIVE - CAPEN DECISION",
    "inService": false,
    "licenseNumber": "250000794",
    "licenseEffectiveDate": "11/21/2007",
    "licenseExpirationDate": "11/20/2008",
    "dataDate": "10/18/2025",
    "capacity": 0,
    "address": "40404 CALIFORNIA OAKS RD",
    "city": "MURRIETA",
    "zip": "92562",
    "county": "RIVERSIDE",
    "phone": "(951) 600-0073",
    "lat": 33.578379,
    "lng": -117.1995345
  },
  {
    "id": "630022401",
    "name": "FRESENIUS KIDNEY CARE MURRIETA DIALYSIS",
    "npi": null,
    "hcaiId": "306330742",
    "businessName": "BIO-MEDICAL APPLICATIONS OF CALIFORNIA INC.",
    "contactEmail": "CLINIC100854@FMC-NA.COM",
    "categoryName": "CHRONIC DIALYSIS CLINIC",
    "categoryCode": "ESRD/CDC",
    "licenseStatus": "ACTIVE",
    "inService": true,
    "licenseNumber": "550008182",
    "licenseEffectiveDate": "08/30/2025",
    "licenseExpirationDate": "08/29/2026",
    "dataDate": "10/18/2025",
    "capacity": 29,
    "address": "41549 KALMIA ST",
    "city": "MURRIETA",
    "zip": "92562",
    "county": "RIVERSIDE",
    "phone": "(951) 304-4783",
    "lat": 33.560667,
    "lng": -117.2123235
  },
  {
    "id": "250001013",
    "name": "GOLDEN TRIANGLE  SURGI-CENTER",
    "npi": "1952363368",
    "hcaiId": "306334062",
    "businessName": null,
    "contactEmail": null,
    "categoryName": "SURGICAL CLINIC",
    "categoryCode": "ASC",
    "licenseStatus": "INACTIVE - CAPEN DECISION",
    "inService": false,
    "licenseNumber": "250000434",
    "licenseEffectiveDate": "11/09/2007",
    "licenseExpirationDate": "11/08/2008",
    "dataDate": "10/18/2025",
    "capacity": 0,
    "address": "25405 HANCOCK AVE, SUITE 103",
    "city": "MURRIETA",
    "zip": "92562",
    "county": "RIVERSIDE",
    "phone": "(951) 698-4670",
    "lat": 33.557949,
    "lng": -117.185391
  },
  {
    "id": "080001653",
    "name": "HOSPICE OF THE VALLEYS",
    "npi": "1023011665",
    "hcaiId": "406334609",
    "businessName": "HOSPICE OF THE VALLEYS",
    "contactEmail": "PMATHIAS@HOVSC.ORG",
    "categoryName": "HOSPICE",
    "categoryCode": "HOSPICE",
    "licenseStatus": "ACTIVE",
    "inService": true,
    "licenseNumber": "080000733",
    "licenseEffectiveDate": "11/28/2024",
    "licenseExpirationDate": "11/27/2026",
    "dataDate": "10/18/2025",
    "capacity": 0,
    "address": "25240 HANCOCK AVE, SUITE 120",
    "city": "MURRIETA",
    "zip": "92562",
    "county": "RIVERSIDE",
    "phone": "(951) 200-7800",
    "lat": 33.561414,
    "lng": -117.181998
  },
  {
    "id": "250001809",
    "name": "INLAND SURGERY CENTER MURRIETA",
    "npi": "1871538140",
    "hcaiId": "306334539",
    "businessName": null,
    "contactEmail": null,
    "categoryName": "SURGICAL CLINIC",
    "categoryCode": "ASC",
    "licenseStatus": "INACTIVE - CAPEN DECISION",
    "inService": false,
    "licenseNumber": "250000796",
    "licenseEffectiveDate": "11/03/2007",
    "licenseExpirationDate": "11/02/2008",
    "dataDate": "10/18/2025",
    "capacity": 0,
    "address": "25395 HANCOCK AVE, SUITE 100",
    "city": "MURRIETA",
    "zip": "92562",
    "county": "RIVERSIDE",
    "phone": "(951) 696-5388",
    "lat": 33.5592,
    "lng": -117.1860075
  },
  {
    "id": "630014171",
    "name": "MISSION HOME HEALTH OF MURRIETA - BRANCH",
    "npi": "1063726628",
    "hcaiId": "406334674",
    "businessName": "MISSION HOME HEALTH OF SAN DIEGO, LLC",
    "contactEmail": "MKIMSEY@MISSIONHH.COM",
    "categoryName": "HOME HEALTH AGENCY",
    "categoryCode": "HHA",
    "licenseStatus": "ACTIVE",
    "inService": true,
    "licenseNumber": "080000548",
    "licenseEffectiveDate": "04/05/2025",
    "licenseExpirationDate": "04/04/2026",
    "dataDate": "10/18/2025",
    "capacity": 0,
    "address": "25220 HANCOCK AVENUE, SUITE 330",
    "city": "MURRIETA",
    "zip": "92562",
    "county": "RIVERSIDE",
    "phone": "(951) 461-2800",
    "lat": 33.562809,
    "lng": -117.181881
  },
  {
    "id": "630024671",
    "name": "MURRIETA CENTER FOR PAIN, INC.",
    "npi": "1598372344",
    "hcaiId": null,
    "businessName": null,
    "contactEmail": "BRANDON@CALISHER.COM",
    "categoryName": "SURGICAL CLINIC",
    "categoryCode": "ASC",
    "licenseStatus": null,
    "inService": null,
    "licenseNumber": null,
    "licenseEffectiveDate": null,
    "licenseExpirationDate": null,
    "dataDate": "10/18/2025",
    "capacity": 0,
    "address": "25495 MEDICAL CENTER DR, SUITE 102",
    "city": "MURRIETA",
    "zip": "92562",
    "county": "RIVERSIDE",
    "phone": "(714) 766-5882",
    "lat": 33.556527,
    "lng": -117.1831635
  },
  {
    "id": "240001817",
    "name": "MURRIETA DIALYSIS CENTER",
    "npi": "1003879461",
    "hcaiId": "306334651",
    "businessName": "DAVITA - RIVERSIDE, LLC",
    "contactEmail": "CAL_C@DAVITA.COM",
    "categoryName": "CHRONIC DIALYSIS CLINIC",
    "categoryCode": "ESRD/CDC",
    "licenseStatus": "ACTIVE",
    "inService": true,
    "licenseNumber": "240000806",
    "licenseEffectiveDate": "03/07/2025",
    "licenseExpirationDate": "03/06/2026",
    "dataDate": "10/18/2025",
    "capacity": 24,
    "address": "27602 CLINTON KEITH RD",
    "city": "MURRIETA",
    "zip": "92562",
    "county": "RIVERSIDE",
    "phone": "(951) 679-7914",
    "lat": 33.599241,
    "lng": -117.1794465
  },
  {
    "id": "250001724",
    "name": "MURRIETA HEALTH AND REHABILITATION CENTER",
    "npi": "1174517650",
    "hcaiId": "206334502",
    "businessName": "AG MURRIETA SNF, LLC",
    "contactEmail": "JAMES.WRIGHT@MURRIETAHCC.COM",
    "categoryName": "SKILLED NURSING FACILITY",
    "categoryCode": "SNF",
    "licenseStatus": "ACTIVE",
    "inService": true,
    "licenseNumber": "250000748",
    "licenseEffectiveDate": "11/01/2025",
    "licenseExpirationDate": "10/31/2026",
    "dataDate": "10/18/2025",
    "capacity": 145,
    "address": "24100 MONROE AVE",
    "city": "MURRIETA",
    "zip": "92562",
    "county": "RIVERSIDE",
    "phone": "(951) 600-4640",
    "lat": 33.57666,
    "lng": -117.211203
  },
  {
    "id": "630028414",
    "name": "MURRIETA PAIN MANAGEMENT CENTER",
    "npi": null,
    "hcaiId": null,
    "businessName": null,
    "contactEmail": null,
    "categoryName": "SURGICAL CLINIC",
    "categoryCode": "ASC",
    "licenseStatus": null,
    "inService": null,
    "licenseNumber": null,
    "licenseEffectiveDate": null,
    "licenseExpirationDate": null,
    "dataDate": "10/18/2025",
    "capacity": 0,
    "address": "25495 MEDICAL CENTER DR, SUITE 104",
    "city": "MURRIETA",
    "zip": "92562",
    "county": "RIVERSIDE",
    "phone": null,
    "lat": 33.556577,
    "lng": -117.183096
  },
  {
    "id": "630017307",
    "name": "MURRIETA SPECIALTY SURGERY CENTER",
    "npi": "1902284045",
    "hcaiId": null,
    "businessName": null,
    "contactEmail": null,
    "categoryName": "SURGICAL CLINIC",
    "categoryCode": "ASC",
    "licenseStatus": null,
    "inService": null,
    "licenseNumber": null,
    "licenseEffectiveDate": null,
    "licenseExpirationDate": null,
    "dataDate": "10/18/2025",
    "capacity": 0,
    "address": "40663 MURRIETA HOT SPRINGS RD, SUITE C4",
    "city": "MURRIETA",
    "zip": "92562",
    "county": "RIVERSIDE",
    "phone": null,
    "lat": 33.556491,
    "lng": -117.185796
  },
  {
    "id": "630016576",
    "name": "NIGHTINGALE'S HOSPICE",
    "npi": "1316507031",
    "hcaiId": "406331501",
    "businessName": "ALL STAR HOSPICE, INC.",
    "contactEmail": "ADAVILA@NIGHTINGALESHOSPICE.COM",
    "categoryName": "HOSPICE",
    "categoryCode": "HOSPICE",
    "licenseStatus": "ACTIVE",
    "inService": true,
    "licenseNumber": "550003792",
    "licenseEffectiveDate": "02/13/2025",
    "licenseExpirationDate": "02/12/2027",
    "dataDate": "10/18/2025",
    "capacity": 0,
    "address": "41690 IVY ST, SUITE C5",
    "city": "MURRIETA",
    "zip": "92562",
    "county": "RIVERSIDE",
    "phone": "(951) 200-6695",
    "lat": 33.553224,
    "lng": -117.2059605
  },
  {
    "id": "630027307",
    "name": "PLANNED PARENTHOOD - MURRIETA CENTER",
    "npi": "1275228223",
    "hcaiId": null,
    "businessName": "PLANNED PARENTHOOD OF THE PACIFIC SOUTHWEST",
    "contactEmail": "LMANN1@PLANNED.ORG",
    "categoryName": "PRIMARY CARE CLINIC",
    "categoryCode": "COMTYC",
    "licenseStatus": "ACTIVE",
    "inService": true,
    "licenseNumber": "550009216",
    "licenseEffectiveDate": "07/01/2025",
    "licenseExpirationDate": "06/30/2026",
    "dataDate": "10/18/2025",
    "capacity": 0,
    "address": "25130 HANCOCK AVE, SUITE 100",
    "city": "MURRIETA",
    "zip": "92562",
    "county": "RIVERSIDE",
    "phone": "(619) 881-4500",
    "lat": 33.56841099,
    "lng": -117.181761
  },
  {
    "id": "630020314",
    "name": "RELIABLE HOSPICE",
    "npi": null,
    "hcaiId": "406336094",
    "businessName": "NEXUS HOSPICE CARE, INC.",
    "contactEmail": "RAJIV@NEXUSIPA.COM",
    "categoryName": "HOSPICE",
    "categoryCode": "HOSPICE",
    "licenseStatus": "ACTIVE",
    "inService": true,
    "licenseNumber": "550006416",
    "licenseEffectiveDate": "08/14/2025",
    "licenseExpirationDate": "05/20/2027",
    "dataDate": "10/18/2025",
    "capacity": 0,
    "address": "41880 KALMIA ST, SUITE 165",
    "city": "MURRIETA",
    "zip": "92562",
    "county": "RIVERSIDE",
    "phone": "(714) 883-1604",
    "lat": 33.55671341,
    "lng": -117.2152264
  },
  {
    "id": "250000507",
    "name": "SOUTHWEST HEALTHCARE RANCHO SPRINGS HOSPITAL",
    "npi": "1245221050",
    "hcaiId": "106334068",
    "businessName": "UNIVERSAL HEALTH SERVICES OF RANCHO SPRINGS, INC.",
    "contactEmail": "SANDRA.WACHENHEIMER@UHSINC.COM",
    "categoryName": "GENERAL ACUTE CARE HOSPITAL",
    "categoryCode": "GACH",
    "licenseStatus": "ACTIVE",
    "inService": true,
    "licenseNumber": "250000262",
    "licenseEffectiveDate": "11/07/2025",
    "licenseExpirationDate": "11/06/2026",
    "dataDate": "10/18/2025",
    "capacity": 120,
    "address": "25500 MEDICAL CENTER DR",
    "city": "MURRIETA",
    "zip": "92562",
    "county": "RIVERSIDE",
    "phone": "(951) 696-6112",
    "lat": 33.558912,
    "lng": -117.183681
  },
  {
    "id": "630016198",
    "name": "TALNA HOSPICE CARE",
    "npi": "1306229265",
    "hcaiId": "406331504",
    "businessName": "TALNA HOSPICE CARE",
    "contactEmail": "TALNAHOSPICECARE@GMAIL.COM",
    "categoryName": "HOSPICE",
    "categoryCode": "HOSPICE",
    "licenseStatus": "ACTIVE",
    "inService": true,
    "licenseNumber": "550003751",
    "licenseEffectiveDate": "12/14/2024",
    "licenseExpirationDate": "12/13/2026",
    "dataDate": "10/18/2025",
    "capacity": 0,
    "address": "26323 JEFFERSON AVENUE, SUITE D",
    "city": "MURRIETA",
    "zip": "92562",
    "county": "RIVERSIDE",
    "phone": "(951) 677-5300",
    "lat": 33.53518334,
    "lng": -117.1798078
  },
  {
    "id": "250001050",
    "name": "TEMECULA VALLEY DAY SURGERY & PAIN THERAPY CENTER",
    "npi": "1033282173",
    "hcaiId": "306334075",
    "businessName": null,
    "contactEmail": null,
    "categoryName": "SURGICAL CLINIC",
    "categoryCode": "ASC",
    "licenseStatus": "INACTIVE - CAPEN DECISION",
    "inService": false,
    "licenseNumber": "250000452",
    "licenseEffectiveDate": "01/02/2008",
    "licenseExpirationDate": "01/01/2009",
    "dataDate": "10/18/2025",
    "capacity": 0,
    "address": "25495 MEDICAL CENTER DR, SUITE 101",
    "city": "MURRIETA",
    "zip": "92562",
    "county": "RIVERSIDE",
    "phone": "(951) 698-4710",
    "lat": 33.556671,
    "lng": -117.182736
  },
  {
    "id": "250001779",
    "name": "THE OAKS SURGERY CENTER",
    "npi": "1922104710",
    "hcaiId": "306334520",
    "businessName": null,
    "contactEmail": null,
    "categoryName": "SURGICAL CLINIC",
    "categoryCode": "ASC",
    "licenseStatus": "INACTIVE - CAPEN DECISION",
    "inService": false,
    "licenseNumber": "250000779",
    "licenseEffectiveDate": "11/18/2007",
    "licenseExpirationDate": "11/17/2008",
    "dataDate": "10/18/2025",
    "capacity": 0,
    "address": "40740 CALIFORNIA OAKS RD",
    "city": "MURRIETA",
    "zip": "92562",
    "county": "RIVERSIDE",
    "phone": "(951) 304-2200",
    "lat": 33.569532,
    "lng": -117.20367
  },
  {
    "id": "250001825",
    "name": "UNITED SURGERY CENTER - MURRIETA",
    "npi": "1477527398",
    "hcaiId": "306334555",
    "businessName": null,
    "contactEmail": null,
    "categoryName": "SURGICAL CLINIC",
    "categoryCode": "ASC",
    "licenseStatus": "INACTIVE - CAPEN DECISION",
    "inService": false,
    "licenseNumber": "250000810",
    "licenseEffectiveDate": "11/09/2007",
    "licenseExpirationDate": "11/08/2008",
    "dataDate": "10/18/2025",
    "capacity": 0,
    "address": "25150 HANCOCK AVE, SUITE 208",
    "city": "MURRIETA",
    "zip": "92562",
    "county": "RIVERSIDE",
    "phone": "(951) 698-8805",
    "lat": 33.566292,
    "lng": -117.181746
  },
  {
    "id": "250000921",
    "name": "VNACARE",
    "npi": null,
    "hcaiId": "406334701",
    "businessName": "VNACARE",
    "contactEmail": "REGULATORY@VNACARE.COM",
    "categoryName": "HOSPICE",
    "categoryCode": "HOSPICE",
    "licenseStatus": "ACTIVE",
    "inService": true,
    "licenseNumber": "550002764",
    "licenseEffectiveDate": "07/28/2024",
    "licenseExpirationDate": "07/27/2026",
    "dataDate": "10/18/2025",
    "capacity": 0,
    "address": "25220 HANCOCK AVE, SUITE 100",
    "city": "MURRIETA",
    "zip": "92562",
    "county": "RIVERSIDE",
    "phone": "(909) 538-5546",
    "lat": 33.562746,
    "lng": -117.181746
  }
]