[
  {
    "id": "630018134",
    "name": "ANGELS HOME HEALTH LLC",
    "npi": null,
    "hcaiId": "406331700",
    "businessName": "ANGELS HOME HEALTH LLC",
    "contactEmail": "ANGELSHH2019@GMAIL.COM",
    "categoryName": "HOME HEALTH AGENCY",
    "categoryCode": "HHA",
    "licenseStatus": "ACTIVE",
    "inService": true,
    "licenseNumber": "550004691",
    "licenseEffectiveDate": "04/24/2024",
    "licenseExpirationDate": "04/23/2025",
    "dataDate": "10/18/2025",
    "capacity": 0,
    "address": "29970 TECHNOLOGY DR, SUITE 208",
    "city": "MURRIETA",
    "zip": "92563",
    "county": "RIVERSIDE",
    "phone": "(951) 691-5001",
    "lat": 33.56062176,
    "lng": -117.1374545
  },
  {
    "id": "630018314",
    "name": "BRIDGE HOME HEALTH",
    "npi": "1174092423",
    "hcaiId": "406331594",
    "businessName": "BRIDGE HOME HEALTH RIVERSIDE LLC",
    "contactEmail": "GBOGDAN@BRIDGEHH.COM",
    "categoryName": "HOME HEALTH AGENCY",
    "categoryCode": "HHA",
    "licenseStatus": "ACTIVE",
    "inService": true,
    "licenseNumber": "550004723",
    "licenseEffectiveDate": "04/24/2025",
    "licenseExpirationDate": "04/23/2026",
    "dataDate": "10/18/2025",
    "capacity": 0,
    "address": "38977 SKY CANYON DR, SUITE 115",
    "city": "MURRIETA",
    "zip": "92563",
    "county": "RIVERSIDE",
    "phone": "(708) 218-1661",
    "lat": 33.555105,
    "lng": -117.138924
  },
  {
    "id": "630019965",
    "name": "BRIDGE HOSPICE",
    "npi": null,
    "hcaiId": "406330020",
    "businessName": "BRIDGE HOSPICE RIVERSIDE LLC",
    "contactEmail": "BRIDGEGROUP@BRIDGEHH.COM",
    "categoryName": "HOSPICE",
    "categoryCode": "HOSPICE",
    "licenseStatus": "ACTIVE",
    "inService": true,
    "licenseNumber": "550005952",
    "licenseEffectiveDate": "12/03/2024",
    "licenseExpirationDate": "12/02/2026",
    "dataDate": "10/18/2025",
    "capacity": 0,
    "address": "38977 SKY CANYON DR, SUITE 110",
    "city": "MURRIETA",
    "zip": "92563",
    "county": "RIVERSIDE",
    "phone": "(951) 297-3336",
    "lat": 33.555105,
    "lng": -117.138924
  },
  {
    "id": "630019237",
    "name": "ENCOMPASS HEALTH REHABILITATION HOSPITAL OF MURRIETA",
    "npi": "1306308366",
    "hcaiId": "106334678",
    "businessName": "ENCOMPASS HEALTH REHABILITATION HOSPITAL OF MURRIETA, LLC",
    "contactEmail": "PERRY.EBELTOFT@ENCOMPASSHEALTH.COM",
    "categoryName": "GENERAL ACUTE CARE HOSPITAL",
    "categoryCode": "GACH",
    "licenseStatus": "ACTIVE",
    "inService": true,
    "licenseNumber": "550005282",
    "licenseEffectiveDate": "02/12/2025",
    "licenseExpirationDate": "02/11/2026",
    "dataDate": "10/18/2025",
    "capacity": 50,
    "address": "35470 WHITEWOOD RD",
    "city": "MURRIETA",
    "zip": "92563",
    "county": "RIVERSIDE",
    "phone": "(951) 246-6521",
    "lat": 33.60627855,
    "lng": -117.162796
  },
  {
    "id": "630018169",
    "name": "EXCEL HOSPICE, INC.",
    "npi": "1689122681",
    "hcaiId": "406361798",
    "businessName": "EXCEL HOSPICE, INC.",
    "contactEmail": "EXCELHOSPICE@GMAIL.COM",
    "categoryName": "HOSPICE",
    "categoryCode": "HOSPICE",
    "licenseStatus": "ACTIVE",
    "inService": true,
    "licenseNumber": "550004793",
    "licenseEffectiveDate": "05/08/2025",
    "licenseExpirationDate": "05/07/2027",
    "dataDate": "10/18/2025",
    "capacity": 0,
    "address": "29970 TECHNOLOGY DR, SUITE 211",
    "city": "MURRIETA",
    "zip": "92563",
    "county": "RIVERSIDE",
    "phone": "(909) 999-7004",
    "lat": 33.560939,
    "lng": -117.1376728
  },
  {
    "id": "630012971",
    "name": "LOMA LINDA UNIVERSITY MEDICAL CENTER - MURRIETA",
    "npi": "1588908388",
    "hcaiId": "106334589",
    "businessName": "LOMA LINDA UNIVERSITY MEDICAL CENTER - MURRIETA",
    "contactEmail": "MCLAYTON@LLU.EDU",
    "categoryName": "GENERAL ACUTE CARE HOSPITAL",
    "categoryCode": "GACH",
    "licenseStatus": "ACTIVE",
    "inService": true,
    "licenseNumber": "550001535",
    "licenseEffectiveDate": "07/01/2025",
    "licenseExpirationDate": "06/30/2026",
    "dataDate": "10/18/2025",
    "capacity": 111,
    "address": "28062 BAXTER ROAD",
    "city": "MURRIETA",
    "zip": "92563",
    "county": "RIVERSIDE",
    "phone": "(951) 290-4000",
    "lat": 33.614739,
    "lng": -117.169137
  },
  {
    "id": "630022994",
    "name": "SAC MURRIETA",
    "npi": "1801270137",
    "hcaiId": null,
    "businessName": "SAC HEALTH SYSTEM",
    "contactEmail": "SHNESTRADA@SACHEALTHSYSTEM.ORG",
    "categoryName": "PRIMARY CARE CLINIC",
    "categoryCode": "COMTYC",
    "licenseStatus": "ACTIVE",
    "inService": true,
    "licenseNumber": "550003574",
    "licenseEffectiveDate": "07/15/2025",
    "licenseExpirationDate": "07/14/2026",
    "dataDate": "10/18/2025",
    "capacity": 0,
    "address": "28078 BAXTER RD, SUITE 540",
    "city": "MURRIETA",
    "zip": "92563",
    "county": "RIVERSIDE",
    "phone": "(909) 771-2930",
    "lat": 33.614766,
    "lng": -117.1671255
  },
  {
    "id": "630028332",
    "name": "SAC MURRIETA SUITE 128",
    "npi": null,
    "hcaiId": null,
    "businessName": "SAC HEALTH SYSTEM",
    "contactEmail": null,
    "categoryName": "PRIMARY CARE CLINIC",
    "categoryCode": "COMTYC",
    "licenseStatus": "ACTIVE",
    "inService": true,
    "licenseNumber": "550003574",
    "licenseEffectiveDate": "07/15/2025",
    "licenseExpirationDate": "07/14/2026",
    "dataDate": "10/18/2025",
    "capacity": 0,
    "address": "28078 BAXTER RD, SUITE 128",
    "city": "MURRIETA",
    "zip": "92563",
    "county": "RIVERSIDE",
    "phone": null,
    "lat": 33.61499601,
    "lng": -117.167026
  },
  {
    "id": "630028378",
    "name": "SAC MURRIETA SUITE 430",
    "npi": null,
    "hcaiId": null,
    "businessName": "SAC HEALTH SYSTEM",
    "contactEmail": null,
    "categoryName": "PRIMARY CARE CLINIC",
    "categoryCode": "FQHC/COMTYC",
    "licenseStatus": "ACTIVE",
    "inService": true,
    "licenseNumber": "550003574",
    "licenseEffectiveDate": "07/15/2025",
    "licenseExpirationDate": "07/14/2026",
    "dataDate": "10/18/2025",
    "capacity": 0,
    "address": "28078 BAXTER RD, SUITE 430",
    "city": "MURRIETA",
    "zip": "92563",
    "county": "RIVERSIDE",
    "phone": null,
    "lat": 33.61499601,
    "lng": -117.167026
  },
  {
    "id": "630022219",
    "name": "TEAM SELECT HOME CARE",
    "npi": "1821393489",
    "hcaiId": "406335343",
    "businessName": "LAGUNA HOME HEALTH SERVICES, LLC",
    "contactEmail": "BFROMAN@TSHC.COM",
    "categoryName": "HOME HEALTH AGENCY",
    "categoryCode": "HHA",
    "licenseStatus": "ACTIVE",
    "inService": true,
    "licenseNumber": "550001966",
    "licenseEffectiveDate": "07/09/2025",
    "licenseExpirationDate": "05/01/2026",
    "dataDate": "10/18/2025",
    "capacity": 0,
    "address": "38975 SKY CANYON DR, SUITE 102",
    "city": "MURRIETA",
    "zip": "92563",
    "county": "RIVERSIDE",
    "phone": "(951) 319-4002",
    "lat": 33.55543798,
    "lng": -117.13896
  },
  {
    "id": "630017935",
    "name": "THE SPRINGS HEALTH AND REHABILITATION CENTER",
    "npi": null,
    "hcaiId": "206334688",
    "businessName": "TEMECULA VALLEY SKILLED NURSING AND REHABILITATION CENTER, LP",
    "contactEmail": "WESJONES@THESPRINGSHC.COM",
    "categoryName": "SKILLED NURSING FACILITY",
    "categoryCode": "SNF",
    "licenseStatus": "ACTIVE",
    "inService": true,
    "licenseNumber": "550004835",
    "licenseEffectiveDate": "08/06/2025",
    "licenseExpirationDate": "08/05/2026",
    "dataDate": "10/18/2025",
    "capacity": 170,
    "address": "25924 JACKSON AVE",
    "city": "MURRIETA",
    "zip": "92563",
    "county": "RIVERSIDE",
    "phone": "(951) 417-8200",
    "lat": 33.55626292,
    "lng": -117.1774187
  }
]