[
  {
    "id": "250000079",
    "name": "CENTINELA GRAND, INC.",
    "npi": "1033431374",
    "hcaiId": "206331375",
    "businessName": "CENTINELA GRAND, INC.",
    "contactEmail": "MARICRIS.RIZZO@CENTGRAND.COM",
    "categoryName": "SKILLED NURSING FACILITY",
    "categoryCode": "SNF",
    "licenseStatus": "ACTIVE",
    "inService": true,
    "licenseNumber": "250000222",
    "licenseEffectiveDate": "11/22/2024",
    "licenseExpirationDate": "11/21/2025",
    "dataDate": "10/18/2025",
    "capacity": 109,
    "address": "2225 N PERRIS BLVD",
    "city": "PERRIS",
    "zip": "92571",
    "county": "RIVERSIDE",
    "phone": "(951) 657-2135",
    "lat": 33.812442,
    "lng": -117.225423
  },
  {
    "id": "630015825",
    "name": "CORTLAND CONGREGATE",
    "npi": null,
    "hcaiId": "206330026",
    "businessName": "BRIDGE 2 LIFE - EL NIDO, LLC",
    "contactEmail": "ACG@EMERALDCOASTHC.COM",
    "categoryName": "CONGREGATE LIVING HEALTH FACILITY",
    "categoryCode": "CLHF",
    "licenseStatus": "ACTIVE",
    "inService": true,
    "licenseNumber": "550003911",
    "licenseEffectiveDate": "06/27/2025",
    "licenseExpirationDate": "06/26/2026",
    "dataDate": "10/18/2025",
    "capacity": 6,
    "address": "1637 EL NIDO AVENUE",
    "city": "PERRIS",
    "zip": "92571",
    "county": "RIVERSIDE",
    "phone": "(951) 928-0494",
    "lat": 33.802479,
    "lng": -117.195012
  },
  {
    "id": "250000004",
    "name": "KINDRED HOSPITAL RIVERSIDE",
    "npi": "1013227099",
    "hcaiId": "106332172",
    "businessName": "KND DEVELOPMENT 54, LLC",
    "contactEmail": "TAMRA.HENNIS@KINDRED.COM",
    "categoryName": "GENERAL ACUTE CARE HOSPITAL",
    "categoryCode": "GACH",
    "licenseStatus": "ACTIVE",
    "inService": true,
    "licenseNumber": "250000234",
    "licenseEffectiveDate": "02/08/2025",
    "licenseExpirationDate": "02/07/2026",
    "dataDate": "10/18/2025",
    "capacity": 40,
    "address": "2224 MEDICAL CENTER DR",
    "city": "PERRIS",
    "zip": "92571",
    "county": "RIVERSIDE",
    "phone": "(951) 436-3535",
    "lat": 33.812262,
    "lng": -117.2223315
  },
  {
    "id": "630013704",
    "name": "PANDA WAY",
    "npi": null,
    "hcaiId": "206334659",
    "businessName": "BRIDGE 2 LIFE - ADDISON LLC",
    "contactEmail": "VBAZLEY@BRIDGE2LIFEHC.COM",
    "categoryName": "CONGREGATE LIVING HEALTH FACILITY",
    "categoryCode": "CLHF",
    "licenseStatus": "ACTIVE",
    "inService": true,
    "licenseNumber": "550002029",
    "licenseEffectiveDate": "08/20/2025",
    "licenseExpirationDate": "08/19/2026",
    "dataDate": "10/18/2025",
    "capacity": 6,
    "address": "1331 ADDISON WAY",
    "city": "PERRIS",
    "zip": "92571",
    "county": "RIVERSIDE",
    "phone": "(951) 928-0494",
    "lat": 33.802578,
    "lng": -117.1966275
  },
  {
    "id": "630019785",
    "name": "PERRIS VALLEY COMMUNITY HEALTH CENTER",
    "npi": null,
    "hcaiId": null,
    "businessName": null,
    "contactEmail": null,
    "categoryName": "PRIMARY CARE CLINIC",
    "categoryCode": "FQHC",
    "licenseStatus": null,
    "inService": null,
    "licenseNumber": null,
    "licenseEffectiveDate": null,
    "licenseExpirationDate": null,
    "dataDate": "10/18/2025",
    "capacity": 0,
    "address": "450 E SAN JACINTO AVE",
    "city": "PERRIS",
    "zip": "92571",
    "county": "RIVERSIDE",
    "phone": "(951) 210-1488",
    "lat": 33.786945,
    "lng": -117.2164725
  },
  {
    "id": "630013682",
    "name": "SUN CITY MENIFEE DIALYSIS",
    "npi": "1225302128",
    "hcaiId": "306334652",
    "businessName": "CINCO RIOS DIALYSIS LLC",
    "contactEmail": "CAL_C@DAVITA.COM",
    "categoryName": "CHRONIC DIALYSIS CLINIC",
    "categoryCode": "ESRD/CDC",
    "licenseStatus": "ACTIVE",
    "inService": true,
    "licenseNumber": "550002070",
    "licenseEffectiveDate": "09/25/2025",
    "licenseExpirationDate": "09/24/2026",
    "dataDate": "10/18/2025",
    "capacity": 24,
    "address": "1702 ILLINOIS AVE",
    "city": "PERRIS",
    "zip": "92571",
    "county": "RIVERSIDE",
    "phone": "(951) 928-1369",
    "lat": 33.746859,
    "lng": -117.186912
  },
  {
    "id": "630016622",
    "name": "TRUECARE",
    "npi": "1417321746",
    "hcaiId": "306334730",
    "businessName": "NORTH COUNTY HEALTH PROJECT, INC.",
    "contactEmail": "LICENSING@TRUECARE.ORG",
    "categoryName": "PRIMARY CARE CLINIC",
    "categoryCode": "COMTYC",
    "licenseStatus": "ACTIVE",
    "inService": true,
    "licenseNumber": "550003541",
    "licenseEffectiveDate": "06/15/2025",
    "licenseExpirationDate": "06/14/2026",
    "dataDate": "10/18/2025",
    "capacity": 0,
    "address": "1675 N. PERRIS BLVD., SUITE G1",
    "city": "PERRIS",
    "zip": "92571",
    "county": "RIVERSIDE",
    "phone": "(760) 736-7055",
    "lat": 33.802488,
    "lng": -117.2255535
  }
]