[
  {
    "id": "630017114",
    "name": "DAP HEALTH - SAN JACINTO COMMUNITY HEALTH CENTER",
    "npi": null,
    "hcaiId": null,
    "businessName": "DAP HEALTH, INC.",
    "contactEmail": null,
    "categoryName": "PRIMARY CARE CLINIC",
    "categoryCode": "COMTYC",
    "licenseStatus": "ACTIVE",
    "inService": true,
    "licenseNumber": "550002701",
    "licenseEffectiveDate": "04/22/2025",
    "licenseExpirationDate": "12/08/2025",
    "dataDate": "10/18/2025",
    "capacity": 0,
    "address": "651 N STATE ST",
    "city": "SAN JACINTO",
    "zip": "92583",
    "county": "RIVERSIDE",
    "phone": null,
    "lat": 33.795261,
    "lng": -116.9697465
  },
  {
    "id": "240001821",
    "name": "DIAMOND VALLEY DIALYSIS",
    "npi": "1578524815",
    "hcaiId": "306330437",
    "businessName": "DAVITA - RIVERSIDE, LLC",
    "contactEmail": "CAL_C@DAVITA.COM",
    "categoryName": "CHRONIC DIALYSIS CLINIC",
    "categoryCode": "ESRD/CDC",
    "licenseStatus": "ACTIVE",
    "inService": true,
    "licenseNumber": "240000810",
    "licenseEffectiveDate": "03/16/2025",
    "licenseExpirationDate": "03/15/2026",
    "dataDate": "10/18/2025",
    "capacity": 37,
    "address": "1181 N STATE ST",
    "city": "SAN JACINTO",
    "zip": "92583",
    "county": "RIVERSIDE",
    "phone": "(951) 487-6528",
    "lat": 33.80247,
    "lng": -116.9712405
  },
  {
    "id": "630019104",
    "name": "SAN JACINTO PRESCHOOL",
    "npi": null,
    "hcaiId": null,
    "businessName": "NEIGHBORHOOD HEALTHCARE",
    "contactEmail": null,
    "categoryName": "PRIMARY CARE CLINIC",
    "categoryCode": "COMTYC",
    "licenseStatus": "ACTIVE",
    "inService": true,
    "licenseNumber": "550003562",
    "licenseEffectiveDate": "07/06/2025",
    "licenseExpirationDate": "07/05/2026",
    "dataDate": "10/18/2025",
    "capacity": 0,
    "address": "257 S GRAND ARMY AVE",
    "city": "SAN JACINTO",
    "zip": "92583",
    "county": "RIVERSIDE",
    "phone": null,
    "lat": 33.78670983,
    "lng": -116.9655917
  },
  {
    "id": "630019223",
    "name": "SAN JACINTO PRESCHOOL - HYATT",
    "npi": null,
    "hcaiId": null,
    "businessName": "NEIGHBORHOOD HEALTHCARE",
    "contactEmail": null,
    "categoryName": "PRIMARY CARE CLINIC",
    "categoryCode": "COMTYC",
    "licenseStatus": "ACTIVE",
    "inService": true,
    "licenseNumber": "550003562",
    "licenseEffectiveDate": "07/06/2025",
    "licenseExpirationDate": "07/05/2026",
    "dataDate": "10/18/2025",
    "capacity": 0,
    "address": "465 EL MONTE ST",
    "city": "SAN JACINTO",
    "zip": "92583",
    "county": "RIVERSIDE",
    "phone": null,
    "lat": 33.77573678,
    "lng": -116.9540412
  },
  {
    "id": "250000217",
    "name": "SOBOBA INDIAN HEALTH CLINIC",
    "npi": null,
    "hcaiId": "306330136",
    "businessName": null,
    "contactEmail": null,
    "categoryName": "PRIMARY CARE CLINIC",
    "categoryCode": "COMTYC",
    "licenseStatus": null,
    "inService": null,
    "licenseNumber": null,
    "licenseEffectiveDate": null,
    "licenseExpirationDate": null,
    "dataDate": "10/18/2025",
    "capacity": 0,
    "address": "607 DONNA WAY",
    "city": "SAN JACINTO",
    "zip": "92583",
    "county": "RIVERSIDE",
    "phone": "(951) 849-4761",
    "lat": 33.78195,
    "lng": -116.9366985
  },
  {
    "id": "630027664",
    "name": "ST. JOHN'S COMMUNITY HEALTH-MOBILE 4",
    "npi": "1285874826",
    "hcaiId": null,
    "businessName": "ST. JOHN'S COMMUNITY HEALTH",
    "contactEmail": null,
    "categoryName": "PRIMARY CARE CLINIC",
    "categoryCode": "COMTYC",
    "licenseStatus": "ACTIVE",
    "inService": true,
    "licenseNumber": "550001120",
    "licenseEffectiveDate": "11/03/2025",
    "licenseExpirationDate": "11/02/2026",
    "dataDate": "10/18/2025",
    "capacity": 0,
    "address": "1821 S SAN JACINTO AVE, UNIT D",
    "city": "SAN JACINTO",
    "zip": "92583",
    "county": "RIVERSIDE",
    "phone": null,
    "lat": 33.76806499,
    "lng": -116.958169
  },
  {
    "id": "630027640",
    "name": "ST. JOHNâ€™S COMMUNITY HEALTH-SAN JACINTO HEALTH CENTER",
    "npi": null,
    "hcaiId": null,
    "businessName": "ST. JOHN'S COMMUNITY HEALTH",
    "contactEmail": null,
    "categoryName": "PRIMARY CARE CLINIC",
    "categoryCode": "COMTYC",
    "licenseStatus": "ACTIVE",
    "inService": true,
    "licenseNumber": "550001120",
    "licenseEffectiveDate": "11/03/2025",
    "licenseExpirationDate": "11/02/2026",
    "dataDate": "10/18/2025",
    "capacity": 0,
    "address": "1821 S SAN JACINTO AVE, UNIT D",
    "city": "SAN JACINTO",
    "zip": "92583",
    "county": "RIVERSIDE",
    "phone": null,
    "lat": 33.76806499,
    "lng": -116.958169
  }
]