[
  {
    "id": "630011656",
    "name": "BRIGHTSTAR CARE OF CENTRAL WESTERN RIVERSIDE COUNTY",
    "npi": null,
    "hcaiId": "406334617",
    "businessName": "24-7 HIGHER STANDARD CORPORATION",
    "contactEmail": "SABRINA.CHAVEZ@BRIGHTSTARCARE.COM",
    "categoryName": "HOME HEALTH AGENCY",
    "categoryCode": "HHA",
    "licenseStatus": "ACTIVE",
    "inService": true,
    "licenseNumber": "550001142",
    "licenseEffectiveDate": "10/28/2025",
    "licenseExpirationDate": "10/27/2026",
    "dataDate": "10/18/2025",
    "capacity": 0,
    "address": "29737 NEW HUB DR, SUITE 101",
    "city": "MENIFEE",
    "zip": "92586",
    "county": "RIVERSIDE",
    "phone": "(951) 679-6986",
    "lat": 33.688089,
    "lng": -117.1773495
  },
  {
    "id": "630011027",
    "name": "HOPE HOSPICE & HEALTHCARE, INC.",
    "npi": null,
    "hcaiId": "406334590",
    "businessName": "HOPE HOSPICE & HEALTHCARE, INC",
    "contactEmail": "INFO@THEHOPEHOSPICE.COM",
    "categoryName": "HOSPICE",
    "categoryCode": "HOSPICE",
    "licenseStatus": "ACTIVE",
    "inService": true,
    "licenseNumber": "550000504",
    "licenseEffectiveDate": "05/21/2025",
    "licenseExpirationDate": "05/20/2027",
    "dataDate": "10/18/2025",
    "capacity": 0,
    "address": "29826 HAUN RD, SUITE 108",
    "city": "SUN CITY",
    "zip": "92586",
    "county": "RIVERSIDE",
    "phone": "(951) 679-8872",
    "lat": 33.68709,
    "lng": -117.1736505
  },
  {
    "id": "630016275",
    "name": "MENIFEE HOME DIALYSIS",
    "npi": "1942620976",
    "hcaiId": null,
    "businessName": null,
    "contactEmail": "CYNTHIA.HUTCHISON@DAVITA.COM",
    "categoryName": "CHRONIC DIALYSIS CLINIC",
    "categoryCode": "ESRD",
    "licenseStatus": null,
    "inService": null,
    "licenseNumber": null,
    "licenseEffectiveDate": null,
    "licenseExpirationDate": null,
    "dataDate": "10/18/2025",
    "capacity": 0,
    "address": "29878 HAUN RD, SUITE 100",
    "city": "MENIFEE",
    "zip": "92586",
    "county": "RIVERSIDE",
    "phone": "(951) 679-2396",
    "lat": 33.686118,
    "lng": -117.1748025
  },
  {
    "id": "250000098",
    "name": "MENIFEE LAKES POST ACUTE",
    "npi": "1033844634",
    "hcaiId": "206331346",
    "businessName": "MENIFEE POST ACUTE, LLC",
    "contactEmail": "MOXFORD@SUNMARHEALTHCARE.COM",
    "categoryName": "SKILLED NURSING FACILITY",
    "categoryCode": "SNF",
    "licenseStatus": "ACTIVE",
    "inService": true,
    "licenseNumber": "250000208",
    "licenseEffectiveDate": "06/14/2025",
    "licenseExpirationDate": "06/13/2026",
    "dataDate": "10/18/2025",
    "capacity": 99,
    "address": "27600 ENCANTO DR",
    "city": "MENIFEE",
    "zip": "92586",
    "county": "RIVERSIDE",
    "phone": "(714) 557-3880",
    "lat": 33.72010801,
    "lng": -117.187623
  },
  {
    "id": "250000784",
    "name": "MENIFEE LAKES POST ACUTE",
    "npi": "1033844634",
    "hcaiId": null,
    "businessName": "MENIFEE POST ACUTE, LLC",
    "contactEmail": null,
    "categoryName": "REHABILITATION CLINIC",
    "categoryCode": "OPT/SP",
    "licenseStatus": "ACTIVE",
    "inService": true,
    "licenseNumber": "250000208",
    "licenseEffectiveDate": "06/14/2025",
    "licenseExpirationDate": "06/13/2026",
    "dataDate": "10/18/2025",
    "capacity": 0,
    "address": "27600 ENCANTO DR",
    "city": "MENIFEE",
    "zip": "92586",
    "county": "RIVERSIDE",
    "phone": null,
    "lat": 33.72010801,
    "lng": -117.187623
  },
  {
    "id": "630014992",
    "name": "NEIGHBORHOOD HEALTHCARE - MENIFEE",
    "npi": "1841617958",
    "hcaiId": "306334694",
    "businessName": "NEIGHBORHOOD HEALTHCARE",
    "contactEmail": "NHCARE@NHCARE.ORG",
    "categoryName": "PRIMARY CARE CLINIC",
    "categoryCode": "COMTYC",
    "licenseStatus": "ACTIVE",
    "inService": true,
    "licenseNumber": "550003562",
    "licenseEffectiveDate": "07/06/2025",
    "licenseExpirationDate": "07/05/2026",
    "dataDate": "10/18/2025",
    "capacity": 0,
    "address": "26926 CHERRY HILLS BLVD, STE B",
    "city": "MENIFEE",
    "zip": "92586",
    "county": "RIVERSIDE",
    "phone": "(951) 216-2200",
    "lat": 33.71087031,
    "lng": -117.1900189
  },
  {
    "id": "630019175",
    "name": "NEIGHBORHOOD HEALTHCARE - MENIFEE SUITE C",
    "npi": null,
    "hcaiId": null,
    "businessName": "NEIGHBORHOOD HEALTHCARE",
    "contactEmail": null,
    "categoryName": "PRIMARY CARE CLINIC",
    "categoryCode": "COMTYC",
    "licenseStatus": "ACTIVE",
    "inService": true,
    "licenseNumber": "550003562",
    "licenseEffectiveDate": "07/06/2025",
    "licenseExpirationDate": "07/05/2026",
    "dataDate": "10/18/2025",
    "capacity": 0,
    "address": "26926 CHERRY HILLS BLVD, STE C",
    "city": "MENIFEE",
    "zip": "92586",
    "county": "RIVERSIDE",
    "phone": "(760) 520-8609",
    "lat": 33.71087031,
    "lng": -117.1900189
  }
]