[
  {
    "id": "630019307",
    "name": "BELL HOME CARE, INC.",
    "npi": null,
    "hcaiId": "406335558",
    "businessName": "BELL HOME CARE, INC.",
    "contactEmail": "BELLHOMECAREINC@GMAIL.COM",
    "categoryName": "HOME HEALTH AGENCY",
    "categoryCode": "HHA",
    "licenseStatus": "ACTIVE",
    "inService": true,
    "licenseNumber": "550005732",
    "licenseEffectiveDate": "09/10/2025",
    "licenseExpirationDate": "09/09/2026",
    "dataDate": "10/18/2025",
    "capacity": 0,
    "address": "36330 HIDDEN SPRINGS RD, SUITE E4",
    "city": "WILDOMAR",
    "zip": "92595",
    "county": "RIVERSIDE",
    "phone": "(951) 676-3377",
    "lat": 33.593661,
    "lng": -117.2449305
  },
  {
    "id": "630022088",
    "name": "KINDER CARE HOME HEALTH, INC",
    "npi": null,
    "hcaiId": "406335351",
    "businessName": "KINDER CARE HOME HEALTH, INC",
    "contactEmail": "KINDERCAREH@GMAIL.COM",
    "categoryName": "HOME HEALTH AGENCY",
    "categoryCode": "HHA",
    "licenseStatus": "ACTIVE",
    "inService": true,
    "licenseNumber": "550008033",
    "licenseEffectiveDate": "06/11/2025",
    "licenseExpirationDate": "06/10/2026",
    "dataDate": "10/18/2025",
    "capacity": 0,
    "address": "36330 HIDDEN SPRINGS RD, UNIT F7",
    "city": "WILDOMAR",
    "zip": "92595",
    "county": "RIVERSIDE",
    "phone": "(951) 877-3247",
    "lat": 33.593696,
    "lng": -117.244843
  },
  {
    "id": "630017484",
    "name": "MURRIETA VALLEY SURGERY CENTER, INC",
    "npi": "1144673526",
    "hcaiId": null,
    "businessName": null,
    "contactEmail": null,
    "categoryName": "SURGICAL CLINIC",
    "categoryCode": "ASC",
    "licenseStatus": null,
    "inService": null,
    "licenseNumber": null,
    "licenseEffectiveDate": null,
    "licenseExpirationDate": null,
    "dataDate": "10/18/2025",
    "capacity": 0,
    "address": "36320 INLAND VALLEY DR, SUITE 101 B",
    "city": "WILDOMAR",
    "zip": "92595",
    "county": "RIVERSIDE",
    "phone": null,
    "lat": 33.592392,
    "lng": -117.2361195
  },
  {
    "id": "250000344",
    "name": "SOUTHWEST HEALTHCARE INLAND VALLEY HOSPITAL",
    "npi": "1245221050",
    "hcaiId": "106334001",
    "businessName": "UNIVERSAL HEALTH SERVICES OF RANCHO SPRINGS, INC.",
    "contactEmail": null,
    "categoryName": "GENERAL ACUTE CARE HOSPITAL",
    "categoryCode": "GACH",
    "licenseStatus": "ACTIVE",
    "inService": true,
    "licenseNumber": "250000262",
    "licenseEffectiveDate": "11/07/2025",
    "licenseExpirationDate": "11/06/2026",
    "dataDate": "10/18/2025",
    "capacity": 120,
    "address": "36485 INLAND VALLEY DR",
    "city": "WILDOMAR",
    "zip": "92595",
    "county": "RIVERSIDE",
    "phone": "(951) 677-1111",
    "lat": 33.591519,
    "lng": -117.2382525
  }
]