[
  {
    "id": "630017224",
    "name": "CARE AND SUPPORT HOSPICE, INC",
    "npi": "1912545922",
    "hcaiId": "406361463",
    "businessName": "CARE AND SUPPORT HOSPICE, INC",
    "contactEmail": "CASHOSPICE@GMAIL.COM",
    "categoryName": "HOSPICE",
    "categoryCode": "HOSPICE",
    "licenseStatus": "ACTIVE",
    "inService": true,
    "licenseNumber": "550004494",
    "licenseEffectiveDate": "12/12/2024",
    "licenseExpirationDate": "12/11/2026",
    "dataDate": "10/18/2025",
    "capacity": 0,
    "address": "43920 MARGARITA RD, SUITE H",
    "city": "TEMECULA",
    "zip": "92592",
    "county": "RIVERSIDE",
    "phone": "(909) 471-5287",
    "lat": 33.48547201,
    "lng": -117.102902
  },
  {
    "id": "630025085",
    "name": "FIRST SURGERY CENTER, INC.",
    "npi": "1518592021",
    "hcaiId": null,
    "businessName": null,
    "contactEmail": null,
    "categoryName": "SURGICAL CLINIC",
    "categoryCode": "ASC",
    "licenseStatus": null,
    "inService": null,
    "licenseNumber": null,
    "licenseEffectiveDate": null,
    "licenseExpirationDate": null,
    "dataDate": "10/18/2025",
    "capacity": 0,
    "address": "31625 DE PORTOLA RD, UNIT 102",
    "city": "TEMECULA",
    "zip": "92592",
    "county": "RIVERSIDE",
    "phone": null,
    "lat": 33.482907,
    "lng": -117.104661
  },
  {
    "id": "630020799",
    "name": "NEIGHBORHOOD HEALTHCARE - TEMECULA PARKWAY",
    "npi": null,
    "hcaiId": null,
    "businessName": "NEIGHBORHOOD HEALTHCARE",
    "contactEmail": null,
    "categoryName": "PRIMARY CARE CLINIC",
    "categoryCode": "COMTYC",
    "licenseStatus": "ACTIVE",
    "inService": true,
    "licenseNumber": "550003562",
    "licenseEffectiveDate": "07/06/2025",
    "licenseExpirationDate": "07/05/2026",
    "dataDate": "10/18/2025",
    "capacity": 0,
    "address": "31537 RANCHO PUEBLO RD, SUITE 102",
    "city": "TEMECULA",
    "zip": "92592",
    "county": "RIVERSIDE",
    "phone": null,
    "lat": 33.47913253,
    "lng": -117.1102595
  },
  {
    "id": "630017249",
    "name": "REDHAWK DIALYSIS",
    "npi": "1861949331",
    "hcaiId": "306330385",
    "businessName": "WADDELL DIALYSIS LLC",
    "contactEmail": "CAL_C@DAVITA.COM",
    "categoryName": "CHRONIC DIALYSIS CLINIC",
    "categoryCode": "ESRD/CDC",
    "licenseStatus": "ACTIVE",
    "inService": true,
    "licenseNumber": "550004262",
    "licenseEffectiveDate": "05/23/2025",
    "licenseExpirationDate": "05/22/2026",
    "dataDate": "10/18/2025",
    "capacity": 25,
    "address": "44605 AVENIDA DE MISSIONES, SUITE 100",
    "city": "TEMECULA",
    "zip": "92592",
    "county": "RIVERSIDE",
    "phone": "(951) 302-3675",
    "lat": 33.476652,
    "lng": -117.1120545
  },
  {
    "id": "630021719",
    "name": "TEMECULA HEALTHCARE CENTER",
    "npi": null,
    "hcaiId": "206334689",
    "businessName": "GHC OF TEM-SNF, LLC",
    "contactEmail": "JIMGEDDIE@LIFEGEN.NET",
    "categoryName": "SKILLED NURSING FACILITY",
    "categoryCode": "SNF",
    "licenseStatus": "ACTIVE",
    "inService": true,
    "licenseNumber": "550006177",
    "licenseEffectiveDate": "04/16/2025",
    "licenseExpirationDate": "04/15/2026",
    "dataDate": "10/18/2025",
    "capacity": 116,
    "address": "44280 CAMPANULA WAY",
    "city": "TEMECULA",
    "zip": "92592",
    "county": "RIVERSIDE",
    "phone": "(951) 466-0200",
    "lat": 33.483564,
    "lng": -117.1006785
  },
  {
    "id": "630014442",
    "name": "TEMECULA VALLEY HOSPITAL",
    "npi": "1679816201",
    "hcaiId": "106334564",
    "businessName": "TEMECULA VALLEY HOSPITAL INC.",
    "contactEmail": "HONG.MIN@UHSINC.COM",
    "categoryName": "GENERAL ACUTE CARE HOSPITAL",
    "categoryCode": "GACH",
    "licenseStatus": "ACTIVE",
    "inService": true,
    "licenseNumber": "550002434",
    "licenseEffectiveDate": "10/09/2025",
    "licenseExpirationDate": "10/08/2026",
    "dataDate": "10/18/2025",
    "capacity": 140,
    "address": "31700 TEMECULA PKWY",
    "city": "TEMECULA",
    "zip": "92592",
    "county": "RIVERSIDE",
    "phone": "(951) 331-2200",
    "lat": 33.481134,
    "lng": -117.106056
  },
  {
    "id": "630016471",
    "name": "UNITED SURGERY CENTER - TEMECULA",
    "npi": "1275951196",
    "hcaiId": null,
    "businessName": null,
    "contactEmail": null,
    "categoryName": "SURGICAL CLINIC",
    "categoryCode": "ASC",
    "licenseStatus": null,
    "inService": null,
    "licenseNumber": null,
    "licenseEffectiveDate": null,
    "licenseExpirationDate": null,
    "dataDate": "10/18/2025",
    "capacity": 0,
    "address": "31469 RANCHO PUEBLO RD., #100",
    "city": "TEMECULA",
    "zip": "92592",
    "county": "RIVERSIDE",
    "phone": null,
    "lat": 33.478209,
    "lng": -117.1114875
  }
]