[
  {
    "id": "060002010",
    "name": "BARRANCA SURGERY CENTER, LLC",
    "npi": "1073794855",
    "hcaiId": null,
    "businessName": null,
    "contactEmail": null,
    "categoryName": "SURGICAL CLINIC",
    "categoryCode": "ASC",
    "licenseStatus": null,
    "inService": null,
    "licenseNumber": null,
    "licenseEffectiveDate": null,
    "licenseExpirationDate": null,
    "dataDate": "10/18/2025",
    "capacity": 0,
    "address": "3500 BARRANCA PKWY, SUITE 130",
    "city": "IRVINE",
    "zip": "92606",
    "county": "ORANGE",
    "phone": "(949) 552-6266",
    "lat": 33.686262,
    "lng": -117.814932
  },
  {
    "id": "630008521",
    "name": "CARECHOICES HOSPICE AND PALLIATIVE SERVICES, LLC",
    "npi": "1316168016",
    "hcaiId": "406304518",
    "businessName": "CARECHOICES HOSPICE AND PALLIATIVE SERVICES, LLC",
    "contactEmail": "KIM.HEXIMER@CARECHOICES.NET",
    "categoryName": "HOSPICE",
    "categoryCode": "HOSPICE",
    "licenseStatus": "ACTIVE",
    "inService": true,
    "licenseNumber": "550000207",
    "licenseEffectiveDate": "12/19/2024",
    "licenseExpirationDate": "12/18/2026",
    "dataDate": "10/18/2025",
    "capacity": 0,
    "address": "20 CORPORATE PARK, SUITE 300",
    "city": "IRVINE",
    "zip": "92606",
    "county": "ORANGE",
    "phone": "(949) 777-8600",
    "lat": 33.689817,
    "lng": -117.830151
  },
  {
    "id": "630015969",
    "name": "MISSION HOME HEALTH OF IRVINE, LLC",
    "npi": null,
    "hcaiId": "406304609",
    "businessName": "MISSION HOME HEALTH OF IRVINE, LLC",
    "contactEmail": "LICENSEANDCONTRACTS@MISSIONHH.COM",
    "categoryName": "HOME HEALTH AGENCY",
    "categoryCode": "HHA",
    "licenseStatus": "ACTIVE",
    "inService": true,
    "licenseNumber": "550003633",
    "licenseEffectiveDate": "03/04/2025",
    "licenseExpirationDate": "03/03/2026",
    "dataDate": "10/18/2025",
    "capacity": 0,
    "address": "2860 MICHELLE DRIVE, SUITE 130",
    "city": "IRVINE",
    "zip": "92606",
    "county": "ORANGE",
    "phone": "(949) 387-9950",
    "lat": 33.7179835,
    "lng": -117.7990801
  },
  {
    "id": "630012640",
    "name": "UNIFIED CARE PROVIDERS, INC.",
    "npi": "1689997215",
    "hcaiId": "406304461",
    "businessName": "UNIFIED CARE PROVIDERS, INC.",
    "contactEmail": "FA@UCPHH.COM",
    "categoryName": "HOME HEALTH AGENCY",
    "categoryCode": "HHA",
    "licenseStatus": "ACTIVE",
    "inService": true,
    "licenseNumber": "550001454",
    "licenseEffectiveDate": "11/29/2024",
    "licenseExpirationDate": "11/28/2025",
    "dataDate": "10/18/2025",
    "capacity": 0,
    "address": "1 PETERS CANYON RD, SUITE 160-B",
    "city": "IRVINE",
    "zip": "92606",
    "county": "ORANGE",
    "phone": "(949) 732-8888",
    "lat": 33.711624,
    "lng": -117.7990065
  }
]