[
  {
    "id": "630014982",
    "name": "ACACIA HOSPICE AND PALLIATIVE SERVICES",
    "npi": "1629495742",
    "hcaiId": "406304577",
    "businessName": "ACACIA HOSPICE OF SOUTHERN CALIFORNIA, LLC",
    "contactEmail": "KARA.MOORE@ACACIAHEALTH.NET",
    "categoryName": "HOSPICE",
    "categoryCode": "HOSPICE",
    "licenseStatus": "ACTIVE",
    "inService": true,
    "licenseNumber": "550003139",
    "licenseEffectiveDate": "06/26/2025",
    "licenseExpirationDate": "06/25/2027",
    "dataDate": "10/18/2025",
    "capacity": 0,
    "address": "17780 FITCH, SUITE 202",
    "city": "IRVINE",
    "zip": "92614",
    "county": "ORANGE",
    "phone": "(714) 576-2222",
    "lat": 33.69294599,
    "lng": -117.859809
  },
  {
    "id": "630015713",
    "name": "ATIVA HOME HEALTH",
    "npi": "1124413620",
    "hcaiId": "406304611",
    "businessName": "ATIVA, LLC",
    "contactEmail": "INFO@ATIVAHOMECARE.COM",
    "categoryName": "HOME HEALTH AGENCY",
    "categoryCode": "HHA",
    "licenseStatus": "ACTIVE",
    "inService": true,
    "licenseNumber": "550003238",
    "licenseEffectiveDate": "09/10/2025",
    "licenseExpirationDate": "09/09/2026",
    "dataDate": "10/18/2025",
    "capacity": 0,
    "address": "18022 COWAN, SUITE 215",
    "city": "IRVINE",
    "zip": "92614",
    "county": "ORANGE",
    "phone": "(949) 225-2188",
    "lat": 33.690051,
    "lng": -117.864495
  },
  {
    "id": "630014396",
    "name": "ESSENCE HOSPICE",
    "npi": "1528415494",
    "hcaiId": "406304567",
    "businessName": "ESSENCE HOME CARE LLC",
    "contactEmail": "EDAVIS@ESSENCEHOSPICECARE.COM",
    "categoryName": "HOSPICE",
    "categoryCode": "HOSPICE",
    "licenseStatus": "ACTIVE",
    "inService": true,
    "licenseNumber": "550002714",
    "licenseEffectiveDate": "11/10/2024",
    "licenseExpirationDate": "11/09/2026",
    "dataDate": "10/18/2025",
    "capacity": 0,
    "address": "32 EXECUTIVE PARK, SUITE 150",
    "city": "IRVINE",
    "zip": "92614",
    "county": "ORANGE",
    "phone": "(949) 723-0585",
    "lat": 33.6852,
    "lng": -117.860157
  },
  {
    "id": "630027567",
    "name": "HEALING TO YOU",
    "npi": "1003590357",
    "hcaiId": null,
    "businessName": "HEALING TO YOU",
    "contactEmail": "CARITERAN@HEALINGTOYOU.ORG",
    "categoryName": "PRIMARY CARE CLINIC",
    "categoryCode": "COMTYC",
    "licenseStatus": "ACTIVE",
    "inService": true,
    "licenseNumber": "550009538",
    "licenseEffectiveDate": "05/25/2025",
    "licenseExpirationDate": "11/24/2025",
    "dataDate": "10/18/2025",
    "capacity": 0,
    "address": "17352 DAIMLER ST",
    "city": "IRVINE",
    "zip": "92614",
    "county": "ORANGE",
    "phone": "(562) 715-5672",
    "lat": 33.698801,
    "lng": -117.856611
  },
  {
    "id": "630012326",
    "name": "HEALTHWAYS HOME HEALTH SERVICES, INC.",
    "npi": "1609001767",
    "hcaiId": "406304455",
    "businessName": "HEALTHWAYS HOME HEALTH SERVICES, INC.",
    "contactEmail": "HEALTHWAYSHOMEHEALTH@GMAIL.COM",
    "categoryName": "HOME HEALTH AGENCY",
    "categoryCode": "HHA",
    "licenseStatus": "ACTIVE",
    "inService": true,
    "licenseNumber": "550001285",
    "licenseEffectiveDate": "04/26/2025",
    "licenseExpirationDate": "04/25/2026",
    "dataDate": "10/18/2025",
    "capacity": 0,
    "address": "34 EXECUTIVE PARK, SUITE 212",
    "city": "IRVINE",
    "zip": "92614",
    "county": "ORANGE",
    "phone": "(949) 724-8889",
    "lat": 33.686208,
    "lng": -117.859536
  },
  {
    "id": "630018741",
    "name": "HEARTFORD HOSPICE",
    "npi": "1407317399",
    "hcaiId": "406302538",
    "businessName": "HEARTFORD HOSPICE CARE, INC.",
    "contactEmail": "INFO@HEARTFORDHOSPICE.COM",
    "categoryName": "HOSPICE",
    "categoryCode": "HOSPICE",
    "licenseStatus": "ACTIVE",
    "inService": true,
    "licenseNumber": "550005346",
    "licenseEffectiveDate": "03/03/2024",
    "licenseExpirationDate": "03/02/2026",
    "dataDate": "10/18/2025",
    "capacity": 0,
    "address": "3 PARK PLZ, SUITE 550",
    "city": "IRVINE",
    "zip": "92614",
    "county": "ORANGE",
    "phone": "(949) 868-3800",
    "lat": 33.677469,
    "lng": -117.8385615
  },
  {
    "id": "630018197",
    "name": "OBRIA MEDICAL CLINICS OF SOUTHERN CALIFORNIA, INC.",
    "npi": "1861516809",
    "hcaiId": null,
    "businessName": "OBRIA MEDICAL CLINICS OF SOUTHERN CALIFORNIA, INC.",
    "contactEmail": null,
    "categoryName": "PRIMARY CARE CLINIC",
    "categoryCode": "COMTYC",
    "licenseStatus": "ACTIVE",
    "inService": true,
    "licenseNumber": "550000188",
    "licenseEffectiveDate": "06/12/2025",
    "licenseExpirationDate": "06/11/2026",
    "dataDate": "10/18/2025",
    "capacity": 0,
    "address": "2892 KELVIN AVE",
    "city": "IRVINE",
    "zip": "92614",
    "county": "ORANGE",
    "phone": null,
    "lat": 33.682086,
    "lng": -117.8352045
  },
  {
    "id": "630016084",
    "name": "OPTUM INFUSION SERVICES 402, LLC",
    "npi": null,
    "hcaiId": "406190917",
    "businessName": "OPTUM INFUSION SERVICES 402, LLC",
    "contactEmail": "KIMBERLEY.L.WILLIAMS@OPTUM.COM",
    "categoryName": "HOME HEALTH AGENCY",
    "categoryCode": "HHA",
    "licenseStatus": "ACTIVE",
    "inService": true,
    "licenseNumber": "550004307",
    "licenseEffectiveDate": "06/19/2025",
    "licenseExpirationDate": "06/18/2026",
    "dataDate": "10/18/2025",
    "capacity": 0,
    "address": "2300 MAIN ST, SUITE 150",
    "city": "IRVINE",
    "zip": "92614",
    "county": "ORANGE",
    "phone": "(916) 648-0124",
    "lat": 33.683625,
    "lng": -117.8472915
  },
  {
    "id": "630019763",
    "name": "ORANGE COUNTY DIGESTIVE CENTER, INC.",
    "npi": "1114483492",
    "hcaiId": null,
    "businessName": null,
    "contactEmail": "LAIDY@GILC-OC.COM",
    "categoryName": "SURGICAL CLINIC",
    "categoryCode": "ASC",
    "licenseStatus": null,
    "inService": null,
    "licenseNumber": null,
    "licenseEffectiveDate": null,
    "licenseExpirationDate": null,
    "dataDate": "10/18/2025",
    "capacity": 0,
    "address": "1400 REYNOLDS AVE, SUITE 125",
    "city": "IRVINE",
    "zip": "92614",
    "county": "ORANGE",
    "phone": "(949) 771-9910",
    "lat": 33.695433,
    "lng": -117.8544645
  },
  {
    "id": "630024617",
    "name": "ORANGE COUNTY SURGICAL CENTER, INC.",
    "npi": "1033734728",
    "hcaiId": null,
    "businessName": null,
    "contactEmail": null,
    "categoryName": "SURGICAL CLINIC",
    "categoryCode": "ASC",
    "licenseStatus": null,
    "inService": null,
    "licenseNumber": null,
    "licenseEffectiveDate": null,
    "licenseExpirationDate": null,
    "dataDate": "10/18/2025",
    "capacity": 0,
    "address": "1400 REYNOLDS AVE, SUITE 175",
    "city": "IRVINE",
    "zip": "92614",
    "county": "ORANGE",
    "phone": "(714) 766-5882",
    "lat": 33.69528,
    "lng": -117.8545995
  },
  {
    "id": "060001716",
    "name": "OSO HOME CARE, INC.",
    "npi": "1215966205",
    "hcaiId": "406304268",
    "businessName": "OSO HOME CARE, INC.",
    "contactEmail": "RBOHART@OSOHOMECARE.COM",
    "categoryName": "HOME HEALTH AGENCY",
    "categoryCode": "HHA",
    "licenseStatus": "ACTIVE",
    "inService": true,
    "licenseNumber": "060000543",
    "licenseEffectiveDate": "11/09/2025",
    "licenseExpirationDate": "11/08/2026",
    "dataDate": "10/18/2025",
    "capacity": 0,
    "address": "17175 GILLETTE AVE",
    "city": "IRVINE",
    "zip": "92614",
    "county": "ORANGE",
    "phone": "(949) 660-7126",
    "lat": 33.696981,
    "lng": -117.849537
  },
  {
    "id": "060002171",
    "name": "PROVIDENCE AT HOME WITH COMPASSUS HOME HEALTH, ORANGE COUNTY SOUTH",
    "npi": "1538347646",
    "hcaiId": "406304336",
    "businessName": "CP ORANGE COUNTY SOUTH S-CA HH LLC",
    "contactEmail": "MICHELE.GLOVER@COMPASSUS.COM",
    "categoryName": "HOME HEALTH AGENCY",
    "categoryCode": "HHA",
    "licenseStatus": "ACTIVE",
    "inService": true,
    "licenseNumber": "060000878",
    "licenseEffectiveDate": "10/20/2025",
    "licenseExpirationDate": "11/27/2025",
    "dataDate": "10/18/2025",
    "capacity": 0,
    "address": "38 EXECUTIVE PARK, SUITE 390",
    "city": "IRVINE",
    "zip": "92614",
    "county": "ORANGE",
    "phone": "(949) 490-7760",
    "lat": 33.68529,
    "lng": -117.85932
  },
  {
    "id": "630018278",
    "name": "RADIANT HEALTH CENTERS",
    "npi": null,
    "hcaiId": "306300743",
    "businessName": "AIDS SERVICES FOUNDATION ORANGE COUNTY",
    "contactEmail": "PYAEGER@RADIANTHEALTHCENTERS.ORG",
    "categoryName": "PRIMARY CARE CLINIC",
    "categoryCode": "COMTYC",
    "licenseStatus": "ACTIVE",
    "inService": true,
    "licenseNumber": "550007963",
    "licenseEffectiveDate": "02/05/2025",
    "licenseExpirationDate": "12/23/2025",
    "dataDate": "10/18/2025",
    "capacity": 0,
    "address": "17982 SKY PARK CIR, SUITE J",
    "city": "IRVINE",
    "zip": "92614",
    "county": "ORANGE",
    "phone": "(949) 809-5700",
    "lat": 33.689736,
    "lng": -117.860538
  },
  {
    "id": "630027136",
    "name": "SENIOR SOCIAL CENTER",
    "npi": null,
    "hcaiId": null,
    "businessName": "ADHC IRVINE LLC",
    "contactEmail": "ADHCIRVINE@GMAIL.COM",
    "categoryName": "ADULT DAY HEALTH CARE",
    "categoryCode": "ADHC",
    "licenseStatus": "ACTIVE",
    "inService": true,
    "licenseNumber": "550008843",
    "licenseEffectiveDate": "12/01/2024",
    "licenseExpirationDate": "11/30/2025",
    "dataDate": "10/18/2025",
    "capacity": 0,
    "address": "1882 MCGAW AVE",
    "city": "IRVINE",
    "zip": "92614",
    "county": "ORANGE",
    "phone": "(530) 415-5607",
    "lat": 33.69347598,
    "lng": -117.84667
  },
  {
    "id": "630025767",
    "name": "SOUTH ORANGE COUNTY CBAS",
    "npi": null,
    "hcaiId": null,
    "businessName": "WEST EAST ADVANCED CARE, INC.",
    "contactEmail": "SOUTHOCCBAS@GMAIL.COM",
    "categoryName": "ADULT DAY HEALTH CARE",
    "categoryCode": "ADHC",
    "licenseStatus": "ACTIVE",
    "inService": true,
    "licenseNumber": "550009125",
    "licenseEffectiveDate": "08/22/2025",
    "licenseExpirationDate": "05/12/2026",
    "dataDate": "10/18/2025",
    "capacity": 0,
    "address": "17702 COWAN",
    "city": "IRVINE",
    "zip": "92614",
    "county": "ORANGE",
    "phone": "(714) 914-2038",
    "lat": 33.694452,
    "lng": -117.8580465
  },
  {
    "id": "630020214",
    "name": "UPWM HEALTHCARE LLC",
    "npi": null,
    "hcaiId": "406304756",
    "businessName": "UPWM HEALTHCARE LLC",
    "contactEmail": "UPWMHEALTHCARE@GMAIL.COM",
    "categoryName": "HOSPICE",
    "categoryCode": "HOSPICE",
    "licenseStatus": "ACTIVE",
    "inService": true,
    "licenseNumber": "550006061",
    "licenseEffectiveDate": "02/17/2025",
    "licenseExpirationDate": "02/16/2027",
    "dataDate": "10/18/2025",
    "capacity": 0,
    "address": "2372 MORSE AVE, SUITE 384",
    "city": "IRVINE",
    "zip": "92614",
    "county": "ORANGE",
    "phone": "(800) 970-5518",
    "lat": 33.681582,
    "lng": -117.8489925
  },
  {
    "id": "060000188",
    "name": "VNA OF ORANGE COUNTY LLC",
    "npi": "1932438843",
    "hcaiId": "406302109",
    "businessName": "VNA OF ORANGE COUNTY, LLC",
    "contactEmail": "RWALIA@VNAHHS.COM",
    "categoryName": "HOME HEALTH AGENCY",
    "categoryCode": "HHA",
    "licenseStatus": "ACTIVE",
    "inService": true,
    "licenseNumber": "060000199",
    "licenseEffectiveDate": "11/29/2024",
    "licenseExpirationDate": "11/28/2025",
    "dataDate": "10/18/2025",
    "capacity": 0,
    "address": "17682 MITCHELL N, SUITE 100",
    "city": "IRVINE",
    "zip": "92614",
    "county": "ORANGE",
    "phone": "(949) 263-4700",
    "lat": 33.692841,
    "lng": -117.8585775
  },
  {
    "id": "060001148",
    "name": "VNA OF ORANGE COUNTY LLC - HOSPICE",
    "npi": "1871811422",
    "hcaiId": null,
    "businessName": "VNA OF ORANGE COUNTY, LLC",
    "contactEmail": "RWALIA@VNAHHS.COM",
    "categoryName": "HOSPICE",
    "categoryCode": "HOSPICE",
    "licenseStatus": "ACTIVE",
    "inService": true,
    "licenseNumber": "060000199",
    "licenseEffectiveDate": "11/29/2024",
    "licenseExpirationDate": "11/28/2025",
    "dataDate": "10/18/2025",
    "capacity": 0,
    "address": "17682 MITCHELL N, SUITE 102",
    "city": "IRVINE",
    "zip": "92614",
    "county": "ORANGE",
    "phone": "(949) 263-4700",
    "lat": 33.692742,
    "lng": -117.8586585
  }
]