[
  {
    "id": "630027990",
    "name": "BIOLASE",
    "npi": null,
    "hcaiId": null,
    "businessName": "HEALTHY SMILES FOR KIDS OF ORANGE COUNTY",
    "contactEmail": null,
    "categoryName": "PRIMARY CARE CLINIC",
    "categoryCode": "COMTYC",
    "licenseStatus": "ACTIVE",
    "inService": true,
    "licenseNumber": "550000106",
    "licenseEffectiveDate": "12/07/2024",
    "licenseExpirationDate": "12/06/2025",
    "dataDate": "10/18/2025",
    "capacity": 0,
    "address": "27042 TOWNE CENTRE DR, UNIT 270",
    "city": "FOOTHILL RANCH",
    "zip": "92610",
    "county": "ORANGE",
    "phone": null,
    "lat": 33.672411,
    "lng": -117.659333
  },
  {
    "id": "630016290",
    "name": "GENESIS AMBULATORY SURGERY CENTER INC.",
    "npi": "1609108083",
    "hcaiId": null,
    "businessName": null,
    "contactEmail": null,
    "categoryName": "SURGICAL CLINIC",
    "categoryCode": "ASC",
    "licenseStatus": null,
    "inService": null,
    "licenseNumber": null,
    "licenseEffectiveDate": null,
    "licenseExpirationDate": null,
    "dataDate": "10/18/2025",
    "capacity": 0,
    "address": "26781 PORTOLA PKWY, SUITE 4E",
    "city": "FOOTHILL RANCH",
    "zip": "92610",
    "county": "ORANGE",
    "phone": null,
    "lat": 33.679269,
    "lng": -117.6619635
  },
  {
    "id": "630026880",
    "name": "PRIME SURGICAL CENTER OF FOOTHILL RANCH",
    "npi": null,
    "hcaiId": null,
    "businessName": null,
    "contactEmail": "CAROLINET@PRIME-MSO.COM",
    "categoryName": "SURGICAL CLINIC",
    "categoryCode": "ASC",
    "licenseStatus": null,
    "inService": null,
    "licenseNumber": null,
    "licenseEffectiveDate": null,
    "licenseExpirationDate": null,
    "dataDate": "10/18/2025",
    "capacity": 0,
    "address": "27462 PORTOLA PKWY, SUITE 100",
    "city": "FOOTHILL RANCH",
    "zip": "92610",
    "county": "ORANGE",
    "phone": "(949) 900-1340",
    "lat": 33.670629,
    "lng": -117.6557355
  },
  {
    "id": "630015951",
    "name": "RNPLUS HOME HEALTH, INC.",
    "npi": "1841683141",
    "hcaiId": "406304610",
    "businessName": "RNPLUS HOME HEALTH, INC.",
    "contactEmail": "RNPLUS@YAHOO.COM",
    "categoryName": "HOME HEALTH AGENCY",
    "categoryCode": "HHA",
    "licenseStatus": "ACTIVE",
    "inService": true,
    "licenseNumber": "550003504",
    "licenseEffectiveDate": "04/27/2025",
    "licenseExpirationDate": "04/26/2026",
    "dataDate": "10/18/2025",
    "capacity": 0,
    "address": "26000 TOWNE CENTRE DR, SUITE 230",
    "city": "FOOTHILL RANCH",
    "zip": "92610",
    "county": "ORANGE",
    "phone": "(714) 595-1723",
    "lat": 33.68167401,
    "lng": -117.673031
  }
]