[
  {
    "id": "630027041",
    "name": "AMAZING TOUCH HOME HEALTH, INC.",
    "npi": null,
    "hcaiId": null,
    "businessName": "AMAZING TOUCH HOME HEALTH, INC",
    "contactEmail": "AMAZINGTOUCHHHA@GMAIL.COM",
    "categoryName": "HOME HEALTH AGENCY",
    "categoryCode": "HHA",
    "licenseStatus": "ACTIVE",
    "inService": true,
    "licenseNumber": "550009472",
    "licenseEffectiveDate": "04/16/2025",
    "licenseExpirationDate": "10/15/2025",
    "dataDate": "10/18/2025",
    "capacity": 0,
    "address": "2062 BUSINESS CENTER DR, SUITE 118",
    "city": "IRVINE",
    "zip": "92612",
    "county": "ORANGE",
    "phone": "(949) 208-0924",
    "lat": 33.678351,
    "lng": -117.8566155
  },
  {
    "id": "630019807",
    "name": "KCS HEALTH CENTER - IRVINE",
    "npi": "1861525602",
    "hcaiId": null,
    "businessName": "KOREAN COMMUNITY SERVICES, INCORPORATED",
    "contactEmail": null,
    "categoryName": "PRIMARY CARE CLINIC",
    "categoryCode": "COMTYC",
    "licenseStatus": "ACTIVE",
    "inService": true,
    "licenseNumber": "550001806",
    "licenseEffectiveDate": "11/22/2025",
    "licenseExpirationDate": "11/21/2026",
    "dataDate": "10/18/2025",
    "capacity": 0,
    "address": "19742 MACARTHUR BLVD, SUITE 250",
    "city": "IRVINE",
    "zip": "92612",
    "county": "ORANGE",
    "phone": null,
    "lat": 33.657399,
    "lng": -117.8613495
  },
  {
    "id": "630020366",
    "name": "LOVING TOUCH HOSPICE AND PALLIATIVE CARE INCORPORATED",
    "npi": null,
    "hcaiId": "406300021",
    "businessName": "LOVING TOUCH HOSPICE AND PALLIATIVE CARE INCORPORATED",
    "contactEmail": "LHERRERA@VERDESPRADERASHOSPICE.COM",
    "categoryName": "HOSPICE",
    "categoryCode": "HOSPICE",
    "licenseStatus": "ACTIVE",
    "inService": true,
    "licenseNumber": "550005917",
    "licenseEffectiveDate": "09/30/2025",
    "licenseExpirationDate": "12/22/2026",
    "dataDate": "10/18/2025",
    "capacity": 0,
    "address": "2151 MICHELSON DR, SUITE 265",
    "city": "IRVINE",
    "zip": "92612",
    "county": "ORANGE",
    "phone": "(949) 674-5325",
    "lat": 33.677532,
    "lng": -117.8572635
  },
  {
    "id": "630020486",
    "name": "MORNING BREEZE HOSPICE INC.",
    "npi": null,
    "hcaiId": null,
    "businessName": "MORNING BREEZE HOSPICE INC.",
    "contactEmail": "MORNINGBREEZEHOSPICE@GMAIL.COM",
    "categoryName": "HOSPICE",
    "categoryCode": "HOSPICE",
    "licenseStatus": "ACTIVE",
    "inService": true,
    "licenseNumber": "550006022",
    "licenseEffectiveDate": "01/13/2025",
    "licenseExpirationDate": "01/12/2027",
    "dataDate": "10/18/2025",
    "capacity": 0,
    "address": "2102 BUSINESS CENTER DR, SUITE 237",
    "city": "IRVINE",
    "zip": "92612",
    "county": "ORANGE",
    "phone": "(949) 253-5780",
    "lat": 33.679881,
    "lng": -117.855441
  },
  {
    "id": "630020117",
    "name": "NEWPORT HOSPICE",
    "npi": null,
    "hcaiId": "406304814",
    "businessName": "INFINITE CARE HOSPICE, INC.",
    "contactEmail": "OFFICE@NEWPORTHOSPICE.COM",
    "categoryName": "HOSPICE",
    "categoryCode": "HOSPICE",
    "licenseStatus": "ACTIVE",
    "inService": true,
    "licenseNumber": "550006131",
    "licenseEffectiveDate": "03/08/2025",
    "licenseExpirationDate": "03/07/2027",
    "dataDate": "10/18/2025",
    "capacity": 0,
    "address": "2151 MICHELSON DR, SUITE 263",
    "city": "IRVINE",
    "zip": "92612",
    "county": "ORANGE",
    "phone": "(949) 304-1451",
    "lat": 33.67753498,
    "lng": -117.857262
  },
  {
    "id": "630015176",
    "name": "OASIS HAVEN HOSPICE, INC.",
    "npi": null,
    "hcaiId": "406304620",
    "businessName": "OASIS HAVEN HOSPICE, INC.",
    "contactEmail": "OASISHAVENHOSPICE@GMAIL.COM",
    "categoryName": "HOSPICE",
    "categoryCode": "HOSPICE",
    "licenseStatus": "ACTIVE",
    "inService": true,
    "licenseNumber": "550003223",
    "licenseEffectiveDate": "09/10/2025",
    "licenseExpirationDate": "09/09/2027",
    "dataDate": "10/18/2025",
    "capacity": 0,
    "address": "2081 BUSINESS CENTER DR, SUITE 218",
    "city": "IRVINE",
    "zip": "92612",
    "county": "ORANGE",
    "phone": "(949) 290-6907",
    "lat": 33.679386,
    "lng": -117.8564895
  },
  {
    "id": "630025792",
    "name": "PATIENT'S CHOICE HOME HEALTH, INC.",
    "npi": null,
    "hcaiId": "406300023",
    "businessName": "PATIENT'S CHOICE HOME HEALTH, INC.",
    "contactEmail": "PCHOMEHEALTH22@GMAIL.COM",
    "categoryName": "HOME HEALTH AGENCY",
    "categoryCode": "HHA",
    "licenseStatus": "ACTIVE",
    "inService": true,
    "licenseNumber": "550008872",
    "licenseEffectiveDate": "12/11/2024",
    "licenseExpirationDate": "12/10/2025",
    "dataDate": "10/18/2025",
    "capacity": 0,
    "address": "2102 BUSINESS CENTER DR, SUITE 261",
    "city": "IRVINE",
    "zip": "92612",
    "county": "ORANGE",
    "phone": "(949) 290-6907",
    "lat": 33.679881,
    "lng": -117.855441
  },
  {
    "id": "060000134",
    "name": "REGENTS POINT - WINDCREST",
    "npi": "1568437325",
    "hcaiId": "206300210",
    "businessName": "HUMANGOOD SOCAL",
    "contactEmail": "LANANH.HUYEN@HUMANGOOD.ORG",
    "categoryName": "SKILLED NURSING FACILITY",
    "categoryCode": "SNF",
    "licenseStatus": "ACTIVE",
    "inService": true,
    "licenseNumber": "060000055",
    "licenseEffectiveDate": "04/30/2025",
    "licenseExpirationDate": "04/29/2026",
    "dataDate": "10/18/2025",
    "capacity": 59,
    "address": "19191 HARVARD AVE",
    "city": "IRVINE",
    "zip": "92612",
    "county": "ORANGE",
    "phone": "(949) 854-9500",
    "lat": 33.651873,
    "lng": -117.831816
  }
]