[
  {
    "id": "630028440",
    "name": "CITY OF HOPE ORANGE COUNTY CANCER SPECIALTY HOSPITAL",
    "npi": null,
    "hcaiId": null,
    "businessName": "CITY OF HOPE NATIONAL MEDICAL CENTER",
    "contactEmail": null,
    "categoryName": "GENERAL ACUTE CARE HOSPITAL",
    "categoryCode": "GACH",
    "licenseStatus": "ACTIVE",
    "inService": true,
    "licenseNumber": "550009999",
    "licenseEffectiveDate": "10/23/2025",
    "licenseExpirationDate": "10/22/2026",
    "dataDate": "10/18/2025",
    "capacity": 73,
    "address": "1000 FIVEPOINT, BUILDING A",
    "city": "IRVINE",
    "zip": "92618",
    "county": "ORANGE",
    "phone": null,
    "lat": 33.65188649,
    "lng": -117.7313605
  },
  {
    "id": "630027076",
    "name": "CLCHC- IRVINE FAMILY HEALTH CENTER",
    "npi": null,
    "hcaiId": null,
    "businessName": "CELEBRATING LIFE COMMUNITY HEALTH CENTER",
    "contactEmail": null,
    "categoryName": "PRIMARY CARE CLINIC",
    "categoryCode": "COMTYC",
    "licenseStatus": "ACTIVE",
    "inService": true,
    "licenseNumber": "550005779",
    "licenseEffectiveDate": "10/14/2025",
    "licenseExpirationDate": "10/13/2026",
    "dataDate": "10/18/2025",
    "capacity": 0,
    "address": "15785 LAGUNA CANYON RD, SUITE 250",
    "city": "IRVINE",
    "zip": "92618",
    "county": "ORANGE",
    "phone": null,
    "lat": 33.66574898,
    "lng": -117.762032
  },
  {
    "id": "060001022",
    "name": "HOAG HOSPITAL IRVINE",
    "npi": "1518951300",
    "hcaiId": "106304045",
    "businessName": "HOAG MEMORIAL HOSPITAL PRESBYTERIAN",
    "contactEmail": "MONICA.DANG@HOAG.ORG",
    "categoryName": "GENERAL ACUTE CARE HOSPITAL",
    "categoryCode": "GACH",
    "licenseStatus": "ACTIVE",
    "inService": true,
    "licenseNumber": "060000122",
    "licenseEffectiveDate": "10/15/2025",
    "licenseExpirationDate": "12/09/2025",
    "dataDate": "10/18/2025",
    "capacity": 96,
    "address": "16200 SAND CANYON AVE",
    "city": "IRVINE",
    "zip": "92618",
    "county": "ORANGE",
    "phone": "(949) 764-8030",
    "lat": 33.661377,
    "lng": -117.7722585
  },
  {
    "id": "630012891",
    "name": "HOAG ORTHOPEDIC INSTITUTE",
    "npi": "1982927877",
    "hcaiId": "106304460",
    "businessName": "HOAG ORTHOPEDIC INSTITUTE, LLC",
    "contactEmail": "MONICA.DANG@HOAG.ORG",
    "categoryName": "GENERAL ACUTE CARE HOSPITAL",
    "categoryCode": "GACH",
    "licenseStatus": "ACTIVE",
    "inService": true,
    "licenseNumber": "550001431",
    "licenseEffectiveDate": "11/10/2025",
    "licenseExpirationDate": "11/09/2026",
    "dataDate": "10/18/2025",
    "capacity": 70,
    "address": "16250 SAND CANYON AVE",
    "city": "IRVINE",
    "zip": "92618",
    "county": "ORANGE",
    "phone": "(949) 764-8030",
    "lat": 33.660504,
    "lng": -117.77229
  },
  {
    "id": "630013991",
    "name": "IRVINE DIGESTIVE DISEASE CENTER, INC.",
    "npi": "1700180957",
    "hcaiId": null,
    "businessName": null,
    "contactEmail": null,
    "categoryName": "SURGICAL CLINIC",
    "categoryCode": "ASC",
    "licenseStatus": null,
    "inService": null,
    "licenseNumber": null,
    "licenseEffectiveDate": null,
    "licenseExpirationDate": null,
    "dataDate": "10/18/2025",
    "capacity": 0,
    "address": "113 WATERWORKS WAY, SUITE 315",
    "city": "IRVINE",
    "zip": "92618",
    "county": "ORANGE",
    "phone": "(949) 387-2202",
    "lat": 33.665229,
    "lng": -117.763191
  },
  {
    "id": "630017462",
    "name": "IRVINE ENDOSCOPY PARTNERS, LLC",
    "npi": "1447608088",
    "hcaiId": null,
    "businessName": null,
    "contactEmail": null,
    "categoryName": "SURGICAL CLINIC",
    "categoryCode": "ASC",
    "licenseStatus": null,
    "inService": null,
    "licenseNumber": null,
    "licenseEffectiveDate": null,
    "licenseExpirationDate": null,
    "dataDate": "10/18/2025",
    "capacity": 0,
    "address": "16405 SAND CANYON AVE, SUITE 110",
    "city": "IRVINE",
    "zip": "92618",
    "county": "ORANGE",
    "phone": "(949) 764-4448",
    "lat": 33.661179,
    "lng": -117.7751295
  },
  {
    "id": "630011745",
    "name": "KAISER FOUNDATION HOSPITAL - ORANGE COUNTY - IRVINE",
    "npi": null,
    "hcaiId": "106304306",
    "businessName": "KAISER FOUNDATION HOSPITALS",
    "contactEmail": null,
    "categoryName": "GENERAL ACUTE CARE HOSPITAL",
    "categoryCode": "GACH",
    "licenseStatus": "ACTIVE",
    "inService": true,
    "licenseNumber": "060000091",
    "licenseEffectiveDate": "05/01/2025",
    "licenseExpirationDate": "04/30/2026",
    "dataDate": "10/18/2025",
    "capacity": 269,
    "address": "6640 ALTON PKWY",
    "city": "IRVINE",
    "zip": "92618",
    "county": "ORANGE",
    "phone": "(714) 572-7083",
    "lat": 33.658137,
    "lng": -117.774999
  },
  {
    "id": "630013172",
    "name": "ODYSSEY ASC ENDOSCOPY CENTER",
    "npi": "1093037020",
    "hcaiId": null,
    "businessName": null,
    "contactEmail": null,
    "categoryName": "SURGICAL CLINIC",
    "categoryCode": "ASC",
    "licenseStatus": null,
    "inService": null,
    "licenseNumber": null,
    "licenseEffectiveDate": null,
    "licenseExpirationDate": null,
    "dataDate": "10/18/2025",
    "capacity": 0,
    "address": "22 ODYSSEY, SUITE 175",
    "city": "IRVINE",
    "zip": "92618",
    "county": "ORANGE",
    "phone": "(949) 654-8963",
    "lat": 33.666903,
    "lng": -117.7638255
  },
  {
    "id": "630014024",
    "name": "PAIN CARE PROVIDERS SURGERY CENTER",
    "npi": "1861760670",
    "hcaiId": null,
    "businessName": null,
    "contactEmail": null,
    "categoryName": "SURGICAL CLINIC",
    "categoryCode": "ASC",
    "licenseStatus": null,
    "inService": null,
    "licenseNumber": null,
    "licenseEffectiveDate": null,
    "licenseExpirationDate": null,
    "dataDate": "10/18/2025",
    "capacity": 0,
    "address": "113 WATERWORKS WAY, SUITE 345",
    "city": "IRVINE",
    "zip": "92618",
    "county": "ORANGE",
    "phone": null,
    "lat": 33.665067,
    "lng": -117.7630335
  },
  {
    "id": "060001637",
    "name": "PAINCARE SURGICENTER",
    "npi": "1083691331",
    "hcaiId": null,
    "businessName": null,
    "contactEmail": null,
    "categoryName": "SURGICAL CLINIC",
    "categoryCode": "ASC",
    "licenseStatus": null,
    "inService": null,
    "licenseNumber": null,
    "licenseEffectiveDate": null,
    "licenseExpirationDate": null,
    "dataDate": "10/18/2025",
    "capacity": 0,
    "address": "15701 ROCKFIELD BLVD",
    "city": "IRVINE",
    "zip": "92618",
    "county": "ORANGE",
    "phone": "(949) 457-9900",
    "lat": 33.634998,
    "lng": -117.720207
  },
  {
    "id": "080001722",
    "name": "RAI - LAGUNA CANYON - IRVINE",
    "npi": "1023483328",
    "hcaiId": "306304303",
    "businessName": "FRESENIUS MEDICAL CARE IRVINE, LLC",
    "contactEmail": "CLINIC7179@FMC-NA.COM",
    "categoryName": "CHRONIC DIALYSIS CLINIC",
    "categoryCode": "ESRD/CDC",
    "licenseStatus": "ACTIVE",
    "inService": true,
    "licenseNumber": "080000765",
    "licenseEffectiveDate": "08/23/2025",
    "licenseExpirationDate": "08/22/2026",
    "dataDate": "10/18/2025",
    "capacity": 24,
    "address": "16255 LAGUNA CANYON RD",
    "city": "IRVINE",
    "zip": "92618",
    "county": "ORANGE",
    "phone": "(949) 727-4495",
    "lat": 33.658956,
    "lng": -117.7696215
  },
  {
    "id": "630014383",
    "name": "REPRODUCTIVE SPECIALTY SURGICAL CENTER, INC.",
    "npi": "1184981326",
    "hcaiId": null,
    "businessName": null,
    "contactEmail": "MBAUER@COASTALFERTILITY.COM",
    "categoryName": "SURGICAL CLINIC",
    "categoryCode": "ASC",
    "licenseStatus": null,
    "inService": null,
    "licenseNumber": null,
    "licenseEffectiveDate": null,
    "licenseExpirationDate": null,
    "dataDate": "10/18/2025",
    "capacity": 0,
    "address": "15500 SAND CANYON AVE, SUITE 110",
    "city": "IRVINE",
    "zip": "92618",
    "county": "ORANGE",
    "phone": "(949) 726-0600",
    "lat": 33.668406,
    "lng": -117.765747
  },
  {
    "id": "080001748",
    "name": "SILVERADO HOSPICE INC",
    "npi": "1679570386",
    "hcaiId": "406304398",
    "businessName": "SILVERADO HOSPICE, INC",
    "contactEmail": "JGRIGGS@SILVERADO.COM",
    "categoryName": "HOSPICE",
    "categoryCode": "HOSPICE",
    "licenseStatus": "ACTIVE",
    "inService": true,
    "licenseNumber": "080000784",
    "licenseEffectiveDate": "02/05/2024",
    "licenseExpirationDate": "02/04/2026",
    "dataDate": "10/18/2025",
    "capacity": 0,
    "address": "6400 OAK CYN, SUITE 200",
    "city": "IRVINE",
    "zip": "92618",
    "county": "ORANGE",
    "phone": "(949) 240-7744",
    "lat": 33.676524,
    "lng": -117.768645
  },
  {
    "id": "630011126",
    "name": "ST. BERNARDINE CARE PROVIDERS, INC.",
    "npi": "1831246032",
    "hcaiId": "406305432",
    "businessName": "ST. BERNARDINE CARE PROVIDERS, INC.",
    "contactEmail": "MASOUD@STCONTAET.COM",
    "categoryName": "HOME HEALTH AGENCY",
    "categoryCode": "HHA",
    "licenseStatus": "ACTIVE",
    "inService": false,
    "licenseNumber": "550000591",
    "licenseEffectiveDate": "11/11/2024",
    "licenseExpirationDate": "11/10/2025",
    "dataDate": "10/18/2025",
    "capacity": 0,
    "address": "6 VENTURE, SUITE 375",
    "city": "IRVINE",
    "zip": "92618",
    "county": "ORANGE",
    "phone": "(949) 397-6091",
    "lat": 33.658911,
    "lng": -117.753246
  },
  {
    "id": "630016586",
    "name": "ST. BERNARDINE HOSPICE CARE INC.",
    "npi": "1255714853",
    "hcaiId": "406301552",
    "businessName": "ST. BERNARDINE HOSPICE CARE INC.",
    "contactEmail": "OC@STCONTACT.COM",
    "categoryName": "HOSPICE",
    "categoryCode": "HOSPICE",
    "licenseStatus": "ACTIVE",
    "inService": true,
    "licenseNumber": "550003764",
    "licenseEffectiveDate": "02/21/2025",
    "licenseExpirationDate": "01/11/2027",
    "dataDate": "10/18/2025",
    "capacity": 0,
    "address": "6 VENTURE, SUITE 365",
    "city": "IRVINE",
    "zip": "92618",
    "county": "ORANGE",
    "phone": "(949) 621-3700",
    "lat": 33.658965,
    "lng": -117.753201
  },
  {
    "id": "630024999",
    "name": "UMMA ADULT DAY HEALTH CENTER",
    "npi": null,
    "hcaiId": null,
    "businessName": "UMMA ADULT DAY HEALTH CENTER, LLC",
    "contactEmail": "SHAHDMHA@YAHOO.COM",
    "categoryName": "ADULT DAY HEALTH CARE",
    "categoryCode": "ADHC",
    "licenseStatus": "ACTIVE",
    "inService": true,
    "licenseNumber": "550008728",
    "licenseEffectiveDate": "09/08/2025",
    "licenseExpirationDate": "09/07/2026",
    "dataDate": "10/18/2025",
    "capacity": 0,
    "address": "15791 ROCKFIELD BLVD, SUITE I",
    "city": "IRVINE",
    "zip": "92618",
    "county": "ORANGE",
    "phone": "(949) 322-7811",
    "lat": 33.63285399,
    "lng": -117.71934
  },
  {
    "id": "060002248",
    "name": "UNITED SURGERY CENTER-IRVINE",
    "npi": "1578652152",
    "hcaiId": "306304345",
    "businessName": "IRVINE SURGICAL MEDICAL GROUP CORP.",
    "contactEmail": "SPARKER@UNITEDSURGERY.ORG",
    "categoryName": "SURGICAL CLINIC",
    "categoryCode": "ASC",
    "licenseStatus": "INACTIVE - CAPEN DECISION",
    "inService": false,
    "licenseNumber": "550000008",
    "licenseEffectiveDate": "03/30/2008",
    "licenseExpirationDate": "03/29/2009",
    "dataDate": "10/18/2025",
    "capacity": 0,
    "address": "15825 LAGUNA CANYON RD, SUITE 100",
    "city": "IRVINE",
    "zip": "92618",
    "county": "ORANGE",
    "phone": "(949) 679-6700",
    "lat": 33.664401,
    "lng": -117.7642755
  }
]