[
  {
    "id": "630018384",
    "name": "CLCHC- SANO COMMUNITY HEALTH CENTER, INC.",
    "npi": "1841913951",
    "hcaiId": "306300626",
    "businessName": "CELEBRATING LIFE COMMUNITY HEALTH CENTER",
    "contactEmail": "SSERGEYEV@CLCHC.ORG",
    "categoryName": "PRIMARY CARE CLINIC",
    "categoryCode": "COMTYC",
    "licenseStatus": "ACTIVE",
    "inService": true,
    "licenseNumber": "550005974",
    "licenseEffectiveDate": "09/16/2025",
    "licenseExpirationDate": "09/15/2026",
    "dataDate": "10/18/2025",
    "capacity": 0,
    "address": "700 W 19TH ST, SUITE A & B",
    "city": "COSTA MESA",
    "zip": "92627",
    "county": "ORANGE",
    "phone": "(949) 433-6686",
    "lat": 33.6438,
    "lng": -117.9280035
  },
  {
    "id": "630027075",
    "name": "CLCHC- SANO COSTA MESA",
    "npi": null,
    "hcaiId": null,
    "businessName": "CELEBRATING LIFE COMMUNITY HEALTH CENTER",
    "contactEmail": null,
    "categoryName": "PRIMARY CARE CLINIC",
    "categoryCode": "COMTYC",
    "licenseStatus": "ACTIVE",
    "inService": true,
    "licenseNumber": "550005779",
    "licenseEffectiveDate": "10/14/2025",
    "licenseExpirationDate": "10/13/2026",
    "dataDate": "10/18/2025",
    "capacity": 0,
    "address": "700 W 19TH ST",
    "city": "COSTA MESA",
    "zip": "92627",
    "county": "ORANGE",
    "phone": null,
    "lat": 33.64381702,
    "lng": -117.928034
  },
  {
    "id": "060000008",
    "name": "COLLEGE HOSPITAL COSTA MESA",
    "npi": "1922039205",
    "hcaiId": "106301155",
    "businessName": "CHCM, INC.",
    "contactEmail": "WARRENB@CHCM.US",
    "categoryName": "GENERAL ACUTE CARE HOSPITAL",
    "categoryCode": "GACH",
    "licenseStatus": "ACTIVE",
    "inService": true,
    "licenseNumber": "060000100",
    "licenseEffectiveDate": "11/01/2025",
    "licenseExpirationDate": "10/31/2026",
    "dataDate": "10/18/2025",
    "capacity": 23,
    "address": "301 VICTORIA ST",
    "city": "COSTA MESA",
    "zip": "92627",
    "county": "ORANGE",
    "phone": "(949) 642-2734",
    "lat": 33.651855,
    "lng": -117.91206
  },
  {
    "id": "060000776",
    "name": "COLLEGE HOSPITAL COSTA MESA",
    "npi": "1922039205",
    "hcaiId": null,
    "businessName": "CHCM, INC.",
    "contactEmail": null,
    "categoryName": "OTHER",
    "categoryCode": "PPSPSCH",
    "licenseStatus": "ACTIVE",
    "inService": true,
    "licenseNumber": "060000100",
    "licenseEffectiveDate": "11/01/2025",
    "licenseExpirationDate": "10/31/2026",
    "dataDate": "10/18/2025",
    "capacity": 0,
    "address": "301 VICTORIA ST",
    "city": "COSTA MESA",
    "zip": "92627",
    "county": "ORANGE",
    "phone": null,
    "lat": 33.651855,
    "lng": -117.91206
  },
  {
    "id": "060000777",
    "name": "COLLEGE HOSPITAL COSTA MESA D/P APH",
    "npi": "1922039205",
    "hcaiId": null,
    "businessName": "CHCM, INC.",
    "contactEmail": null,
    "categoryName": "ACUTE PSYCHIATRIC HOSPITAL",
    "categoryCode": "APH",
    "licenseStatus": "ACTIVE",
    "inService": true,
    "licenseNumber": "060000100",
    "licenseEffectiveDate": "11/01/2025",
    "licenseExpirationDate": "10/31/2026",
    "dataDate": "10/18/2025",
    "capacity": 99,
    "address": "301 VICTORIA ST",
    "city": "COSTA MESA",
    "zip": "92627",
    "county": "ORANGE",
    "phone": "(949) 642-2734",
    "lat": 33.651855,
    "lng": -117.91206
  },
  {
    "id": "630027763",
    "name": "COSTA MESA ADULT DAY HEALTH CARE CENTER",
    "npi": null,
    "hcaiId": null,
    "businessName": "LA PALMA ADULT DAY HEALTH CARE CENTER, INC.",
    "contactEmail": "COSTAMESACBAS@GMAIL.COM",
    "categoryName": "ADULT DAY HEALTH CARE",
    "categoryCode": "ADHC",
    "licenseStatus": "ACTIVE",
    "inService": true,
    "licenseNumber": "550009420",
    "licenseEffectiveDate": "10/15/2025",
    "licenseExpirationDate": "10/14/2026",
    "dataDate": "10/18/2025",
    "capacity": 0,
    "address": "1901 NEWPORT BLVD, SUITE 180",
    "city": "COSTA MESA",
    "zip": "92627",
    "county": "ORANGE",
    "phone": "(949) 200-9419",
    "lat": 33.64415598,
    "lng": -117.917261
  },
  {
    "id": "630020096",
    "name": "EVERGREEN CONGREGATE",
    "npi": null,
    "hcaiId": null,
    "businessName": "EVERGREEN CONGREGATE, LLC",
    "contactEmail": "ACG@EMERALDCOASTHC.COM",
    "categoryName": "CONGREGATE LIVING HEALTH FACILITY",
    "categoryCode": "CLHF",
    "licenseStatus": "ACTIVE",
    "inService": true,
    "licenseNumber": "550005686",
    "licenseEffectiveDate": "08/19/2025",
    "licenseExpirationDate": "08/18/2026",
    "dataDate": "10/18/2025",
    "capacity": 6,
    "address": "823 TOWNE ST",
    "city": "COSTA MESA",
    "zip": "92627",
    "county": "ORANGE",
    "phone": "(949) 397-0658",
    "lat": 33.640785,
    "lng": -117.9330525
  },
  {
    "id": "060000122",
    "name": "MESA VERDE POST ACUTE CARE CENTER",
    "npi": "1144324880",
    "hcaiId": "206301259",
    "businessName": "MESA VERDE CONVALESCENT HOSPITAL, INC.",
    "contactEmail": "ADMINISTRATOR@MESAVERDEHEALTHCARE.COM",
    "categoryName": "SKILLED NURSING FACILITY",
    "categoryCode": "SNF",
    "licenseStatus": "ACTIVE",
    "inService": true,
    "licenseNumber": "060000144",
    "licenseEffectiveDate": "11/01/2025",
    "licenseExpirationDate": "10/31/2026",
    "dataDate": "10/18/2025",
    "capacity": 80,
    "address": "661 CENTER ST",
    "city": "COSTA MESA",
    "zip": "92627",
    "county": "ORANGE",
    "phone": "(949) 548-5585",
    "lat": 33.641082,
    "lng": -117.925956
  },
  {
    "id": "630027305",
    "name": "NEWPORT HEIGHTS CONGREGATE LIVING",
    "npi": null,
    "hcaiId": null,
    "businessName": "NEWPORT HEIGHTS CONGREGATE LIVING INC",
    "contactEmail": "NEWPORTHEALTHCARE@GMAIL.COM",
    "categoryName": "CONGREGATE LIVING HEALTH FACILITY",
    "categoryCode": "CLHF",
    "licenseStatus": "ACTIVE",
    "inService": true,
    "licenseNumber": "550009264",
    "licenseEffectiveDate": "08/01/2025",
    "licenseExpirationDate": "07/31/2026",
    "dataDate": "10/18/2025",
    "capacity": 6,
    "address": "466 E 16TH ST",
    "city": "COSTA MESA",
    "zip": "92627",
    "county": "ORANGE",
    "phone": "(949) 538-5186",
    "lat": 33.62658102,
    "lng": -117.912449
  },
  {
    "id": "060002223",
    "name": "NEWPORT PLAZA SURGICAL CENTER",
    "npi": "1003138736",
    "hcaiId": "306304342",
    "businessName": "NEWPORT PLAZA SURGICAL CENTER, L.P.",
    "contactEmail": "LALLEN@SOVEREIGNHEALTHCARE.NET",
    "categoryName": "SURGICAL CLINIC",
    "categoryCode": "ASC",
    "licenseStatus": "INACTIVE - CAPEN DECISION",
    "inService": false,
    "licenseNumber": "060000957",
    "licenseEffectiveDate": "01/19/2008",
    "licenseExpirationDate": "01/18/2009",
    "dataDate": "10/18/2025",
    "capacity": 0,
    "address": "1901 NEWPORT BLVD, SUITE 120",
    "city": "COSTA MESA",
    "zip": "92627",
    "county": "ORANGE",
    "phone": "(949) 515-1040",
    "lat": 33.643737,
    "lng": -117.915543
  },
  {
    "id": "060000131",
    "name": "NEWPORT SUBACUTE HEALTHCARE CENTER",
    "npi": "1396824215",
    "hcaiId": "206301302",
    "businessName": "COSTA MESA HEALTHCARE, INC,",
    "contactEmail": "CHRISTIANS@NEWPORTSUBACUTE.COM",
    "categoryName": "SKILLED NURSING FACILITY",
    "categoryCode": "SNF",
    "licenseStatus": "ACTIVE",
    "inService": true,
    "licenseNumber": "060000158",
    "licenseEffectiveDate": "11/10/2025",
    "licenseExpirationDate": "11/09/2026",
    "dataDate": "10/18/2025",
    "capacity": 137,
    "address": "2570 NEWPORT BLVD",
    "city": "COSTA MESA",
    "zip": "92627",
    "county": "ORANGE",
    "phone": "(949) 631-4282",
    "lat": 33.661485,
    "lng": -117.8969625
  },
  {
    "id": "630026890",
    "name": "SAINT YOUSTINA",
    "npi": null,
    "hcaiId": null,
    "businessName": "SAINT YOUSTINA",
    "contactEmail": null,
    "categoryName": "PRIMARY CARE CLINIC",
    "categoryCode": "COMTYC",
    "licenseStatus": "ACTIVE",
    "inService": true,
    "licenseNumber": "550005540",
    "licenseEffectiveDate": "05/28/2025",
    "licenseExpirationDate": "05/27/2026",
    "dataDate": "10/18/2025",
    "capacity": 0,
    "address": "2200 HARBOR BLVD, SUITE B240",
    "city": "COSTA MESA",
    "zip": "92627",
    "county": "ORANGE",
    "phone": null,
    "lat": 33.6546,
    "lng": -117.9187335
  },
  {
    "id": "630027464",
    "name": "SHARE OUR SELVES AT BESST CENTER",
    "npi": "1295082774",
    "hcaiId": null,
    "businessName": "SHARE OUR SELVES CORPORATION",
    "contactEmail": null,
    "categoryName": "PRIMARY CARE CLINIC",
    "categoryCode": "FQHC/COMTYC",
    "licenseStatus": "ACTIVE",
    "inService": true,
    "licenseNumber": "550003228",
    "licenseEffectiveDate": "09/14/2025",
    "licenseExpirationDate": "09/13/2026",
    "dataDate": "10/18/2025",
    "capacity": 0,
    "address": "2045 MEYER PL, UNIT C",
    "city": "COSTA MESA",
    "zip": "92627",
    "county": "ORANGE",
    "phone": null,
    "lat": 33.64894729,
    "lng": -117.9249089
  },
  {
    "id": "060000738",
    "name": "SHARE OUR SELVES COMMUNITY HEALTH CENTER",
    "npi": null,
    "hcaiId": "306304013",
    "businessName": "SHARE OUR SELVES CORPORATION",
    "contactEmail": "COMPLIANCE@SHAREOURSELVES.ORG",
    "categoryName": "PRIMARY CARE CLINIC",
    "categoryCode": "COMTYC",
    "licenseStatus": "ACTIVE",
    "inService": true,
    "licenseNumber": "060000232",
    "licenseEffectiveDate": "11/03/2024",
    "licenseExpirationDate": "11/02/2025",
    "dataDate": "10/18/2025",
    "capacity": 0,
    "address": "1550 SUPERIOR AVE",
    "city": "COSTA MESA",
    "zip": "92627",
    "county": "ORANGE",
    "phone": "(949) 536-3987",
    "lat": 33.63273,
    "lng": -117.9261675
  },
  {
    "id": "630020706",
    "name": "SOS MOBILE HEALTH UNIT",
    "npi": null,
    "hcaiId": null,
    "businessName": "SHARE OUR SELVES CORPORATION",
    "contactEmail": null,
    "categoryName": "PRIMARY CARE CLINIC",
    "categoryCode": "COMTYC",
    "licenseStatus": "ACTIVE",
    "inService": true,
    "licenseNumber": "060000232",
    "licenseEffectiveDate": "11/03/2024",
    "licenseExpirationDate": "11/02/2025",
    "dataDate": "10/18/2025",
    "capacity": 0,
    "address": "1550 SUPERIOR AVE",
    "city": "COSTA MESA",
    "zip": "92627",
    "county": "ORANGE",
    "phone": null,
    "lat": 33.63273,
    "lng": -117.9261675
  },
  {
    "id": "060000034",
    "name": "VICTORIA HEALTHCARE AND REHABILITATION CENTER",
    "npi": "1568461275",
    "hcaiId": "206301119",
    "businessName": "COSTA VICTORIA HEALTHCARE LLC",
    "contactEmail": "RENEWALS@ENSIGNSERVICES.NET",
    "categoryName": "SKILLED NURSING FACILITY",
    "categoryCode": "SNF",
    "licenseStatus": "ACTIVE",
    "inService": true,
    "licenseNumber": "060000086",
    "licenseEffectiveDate": "11/01/2025",
    "licenseExpirationDate": "10/31/2026",
    "dataDate": "10/18/2025",
    "capacity": 79,
    "address": "340 VICTORIA ST",
    "city": "COSTA MESA",
    "zip": "92627",
    "county": "ORANGE",
    "phone": "(949) 642-0387",
    "lat": 33.653106,
    "lng": -117.913851
  }
]