[
  {
    "id": "630013214",
    "name": "ADVANTAGE HEALTH SYSTEMS",
    "npi": "1023305331",
    "hcaiId": "406304495",
    "businessName": "EGB HOLDINGS",
    "contactEmail": "ETATE@ADVHEALTHSYSTEMS.COM",
    "categoryName": "HOME HEALTH AGENCY",
    "categoryCode": "HHA",
    "licenseStatus": "ACTIVE",
    "inService": true,
    "licenseNumber": "550001885",
    "licenseEffectiveDate": "03/26/2025",
    "licenseExpirationDate": "03/25/2026",
    "dataDate": "10/18/2025",
    "capacity": 0,
    "address": "151 KALMUS DR, SUITE D-101",
    "city": "COSTA MESA",
    "zip": "92626",
    "county": "ORANGE",
    "phone": "(714) 557-5506",
    "lat": 33.67263218,
    "lng": -117.8820647
  },
  {
    "id": "630016752",
    "name": "ADVANTAGE HEALTH SYSTEMS",
    "npi": null,
    "hcaiId": "406301344",
    "businessName": "EGB HOLDINGS",
    "contactEmail": "INFO.CMHO@ADVHEALTHSYSTEMS.COM",
    "categoryName": "HOSPICE",
    "categoryCode": "HOSPICE",
    "licenseStatus": "ACTIVE",
    "inService": true,
    "licenseNumber": "550003807",
    "licenseEffectiveDate": "03/03/2025",
    "licenseExpirationDate": "03/02/2027",
    "dataDate": "10/18/2025",
    "capacity": 0,
    "address": "151 KALMUS DRIVE, SUITE D-104",
    "city": "COSTA MESA",
    "zip": "92626",
    "county": "ORANGE",
    "phone": "(714) 668-9302",
    "lat": 33.67263218,
    "lng": -117.8820647
  },
  {
    "id": "080001727",
    "name": "BRISTOL HOSPICE - ORANGE COUNTY",
    "npi": null,
    "hcaiId": "406304389",
    "businessName": "HOSPICE TOUCH, INC.",
    "contactEmail": "JENNIFER.URTZ@BRISTOLHOSPICE.COM",
    "categoryName": "HOSPICE",
    "categoryCode": "HOSPICE",
    "licenseStatus": "ACTIVE",
    "inService": true,
    "licenseNumber": "080000769",
    "licenseEffectiveDate": "04/28/2025",
    "licenseExpirationDate": "03/16/2027",
    "dataDate": "10/18/2025",
    "capacity": 0,
    "address": "3070 BRISTOL ST, SUITE 100",
    "city": "COSTA MESA",
    "zip": "92626",
    "county": "ORANGE",
    "phone": "(945) 546-2614",
    "lat": 33.684399,
    "lng": -117.884961
  },
  {
    "id": "060001118",
    "name": "COMPETENT CARE, INC. HOME HEALTH NURSING",
    "npi": null,
    "hcaiId": "406304351",
    "businessName": "COMPETENT CARE INC.",
    "contactEmail": "KURT@COMPETENTCARE.COM",
    "categoryName": "HOME HEALTH AGENCY",
    "categoryCode": "HHA",
    "licenseStatus": "ACTIVE",
    "inService": true,
    "licenseNumber": "060000315",
    "licenseEffectiveDate": "01/07/2025",
    "licenseExpirationDate": "01/06/2026",
    "dataDate": "10/18/2025",
    "capacity": 0,
    "address": "2900 BRISTOL ST, SUITE D107",
    "city": "COSTA MESA",
    "zip": "92626",
    "county": "ORANGE",
    "phone": "(714) 545-4818",
    "lat": 33.675786,
    "lng": -117.886752
  },
  {
    "id": "080001737",
    "name": "COSTA MESA DIALYSIS",
    "npi": "1013981455",
    "hcaiId": "306304317",
    "businessName": "DVA HEALTHCARE RENAL CARE, INC.",
    "contactEmail": "CAL_C@DAVITA.COM",
    "categoryName": "CHRONIC DIALYSIS CLINIC",
    "categoryCode": "ESRD/CDC",
    "licenseStatus": "ACTIVE",
    "inService": true,
    "licenseNumber": "080000778",
    "licenseEffectiveDate": "11/17/2024",
    "licenseExpirationDate": "11/16/2025",
    "dataDate": "10/18/2025",
    "capacity": 27,
    "address": "1590 SCENIC AVE",
    "city": "COSTA MESA",
    "zip": "92626",
    "county": "ORANGE",
    "phone": "(714) 540-9401",
    "lat": 33.699762,
    "lng": -117.9251595
  },
  {
    "id": "630019741",
    "name": "COSTA MESA SURGERY CENTER",
    "npi": null,
    "hcaiId": null,
    "businessName": null,
    "contactEmail": "HANA@WAVEPS.COM",
    "categoryName": "SURGICAL CLINIC",
    "categoryCode": "ASC",
    "licenseStatus": null,
    "inService": null,
    "licenseNumber": null,
    "licenseEffectiveDate": null,
    "licenseExpirationDate": null,
    "dataDate": "10/18/2025",
    "capacity": 0,
    "address": "720 PAULARINO AVE, SUITE 100",
    "city": "COSTA MESA",
    "zip": "92626",
    "county": "ORANGE",
    "phone": "(213) 383-4800",
    "lat": 33.682689,
    "lng": -117.8865675
  },
  {
    "id": "060001033",
    "name": "ENRICHING LIVES II",
    "npi": "1669002465",
    "hcaiId": null,
    "businessName": "ENRICHING LIVES INC.",
    "contactEmail": "BRIDGET@ENRICHINGLIVESCA.COM",
    "categoryName": "INTERMEDIATE CARE FACILITY-DD/H/N/CN/IID",
    "categoryCode": "ICFDDN",
    "licenseStatus": "ACTIVE",
    "inService": true,
    "licenseNumber": "060000278",
    "licenseEffectiveDate": "12/01/2024",
    "licenseExpirationDate": "11/30/2025",
    "dataDate": "10/18/2025",
    "capacity": 6,
    "address": "2501 CHRISTOPHER LN",
    "city": "COSTA MESA",
    "zip": "92626",
    "county": "ORANGE",
    "phone": "(562) 331-5055",
    "lat": 33.66455624,
    "lng": -117.9207646
  },
  {
    "id": "060001034",
    "name": "ENRICHING LIVES III",
    "npi": "1669002465",
    "hcaiId": null,
    "businessName": "ENRICHING LIVES INC.",
    "contactEmail": "BRIDGET@ENRICHINGLIVESCA.COM",
    "categoryName": "INTERMEDIATE CARE FACILITY-DD/H/N/CN/IID",
    "categoryCode": "ICFDDH",
    "licenseStatus": "ACTIVE",
    "inService": true,
    "licenseNumber": "060000279",
    "licenseEffectiveDate": "11/27/2024",
    "licenseExpirationDate": "11/26/2025",
    "dataDate": "10/18/2025",
    "capacity": 6,
    "address": "2507 CHRISTOPHER LN",
    "city": "COSTA MESA",
    "zip": "92626",
    "county": "ORANGE",
    "phone": "(562) 331-5055",
    "lat": 33.66453848,
    "lng": -117.9208038
  },
  {
    "id": "170001769",
    "name": "FAIRVIEW DEVELOPMENTAL CENTER D/P ICFDD",
    "npi": "1225089592",
    "hcaiId": "206300206",
    "businessName": "STATE OF CA DEPT OF DEVELOPMENTAL SERVICES",
    "contactEmail": "CAROL.NAYLOR-PECSON@DDS.CA.GOV",
    "categoryName": "INTERMEDIATE CARE FACILITY-DD/H/N/CN/IID",
    "categoryCode": "ICFDD",
    "licenseStatus": "ACTIVE",
    "inService": true,
    "licenseNumber": "170000771",
    "licenseEffectiveDate": "11/17/2024",
    "licenseExpirationDate": "11/16/2025",
    "dataDate": "10/18/2025",
    "capacity": 0,
    "address": "2501 HARBOR BLVD",
    "city": "COSTA MESA",
    "zip": "92626",
    "county": "ORANGE",
    "phone": "(714) 957-5000",
    "lat": 33.663285,
    "lng": -117.921474
  },
  {
    "id": "630024849",
    "name": "FAIRVIEW DEVELOPMENTAL CENTER D/P ICFDD STAR",
    "npi": null,
    "hcaiId": null,
    "businessName": "STATE OF CA DEPT OF DEVELOPMENTAL SERVICES",
    "contactEmail": null,
    "categoryName": "INTERMEDIATE CARE FACILITY-DD/H/N/CN/IID",
    "categoryCode": "ICFDD",
    "licenseStatus": "ACTIVE",
    "inService": true,
    "licenseNumber": "170000771",
    "licenseEffectiveDate": "11/17/2024",
    "licenseExpirationDate": "11/16/2025",
    "dataDate": "10/18/2025",
    "capacity": 10,
    "address": "2501 HARBOR BLVD",
    "city": "COSTA MESA",
    "zip": "92626",
    "county": "ORANGE",
    "phone": null,
    "lat": 33.663285,
    "lng": -117.921474
  },
  {
    "id": "060001076",
    "name": "INDEPENDENT OPTIONS, INC. CHRISTOPHER HOUSE",
    "npi": "1851463483",
    "hcaiId": null,
    "businessName": "INDEPENDENT OPTIONS, INC.",
    "contactEmail": "JPLATERNO@INDEPENDENTOPTIONS.ORG",
    "categoryName": "INTERMEDIATE CARE FACILITY-DD/H/N/CN/IID",
    "categoryCode": "ICFDDH",
    "licenseStatus": "ACTIVE",
    "inService": true,
    "licenseNumber": "060000308",
    "licenseEffectiveDate": "11/30/2024",
    "licenseExpirationDate": "11/29/2025",
    "dataDate": "10/18/2025",
    "capacity": 6,
    "address": "2500 CHRISTOPHER LN",
    "city": "COSTA MESA",
    "zip": "92626",
    "county": "ORANGE",
    "phone": "(714) 494-5583",
    "lat": 33.665013,
    "lng": -117.9205965
  },
  {
    "id": "060000933",
    "name": "INDEPENDENT OPTIONS, INC. HARBOR VILLAGE I",
    "npi": "1851463483",
    "hcaiId": null,
    "businessName": "INDEPENDENT OPTIONS, INC.",
    "contactEmail": "ALIANG@INDEPENDENTOPTIONS.ORG",
    "categoryName": "INTERMEDIATE CARE FACILITY-DD/H/N/CN/IID",
    "categoryCode": "ICFDDH",
    "licenseStatus": "ACTIVE",
    "inService": true,
    "licenseNumber": "060000256",
    "licenseEffectiveDate": "11/13/2024",
    "licenseExpirationDate": "11/12/2025",
    "dataDate": "10/18/2025",
    "capacity": 6,
    "address": "2532 SANTA CATALINA DR, SUITE 101",
    "city": "COSTA MESA",
    "zip": "92626",
    "county": "ORANGE",
    "phone": "(657) 226-5690",
    "lat": 33.665787,
    "lng": -117.922752
  },
  {
    "id": "060000934",
    "name": "INDEPENDENT OPTIONS, INC. HARBOR VILLAGE II",
    "npi": "1851463483",
    "hcaiId": null,
    "businessName": "INDEPENDENT OPTIONS, INC.",
    "contactEmail": "ALIANG@INDEPENDENTOPTIONS.ORG",
    "categoryName": "INTERMEDIATE CARE FACILITY-DD/H/N/CN/IID",
    "categoryCode": "ICFDDH",
    "licenseStatus": "ACTIVE",
    "inService": true,
    "licenseNumber": "060000258",
    "licenseEffectiveDate": "11/13/2025",
    "licenseExpirationDate": "11/12/2026",
    "dataDate": "10/18/2025",
    "capacity": 6,
    "address": "2532 SANTA CATALINA DR # 104",
    "city": "COSTA MESA",
    "zip": "92626",
    "county": "ORANGE",
    "phone": "(657) 226-5690",
    "lat": 33.665787,
    "lng": -117.922752
  },
  {
    "id": "060000971",
    "name": "INDEPENDENT OPTIONS, INC. HARBOR VILLAGE III",
    "npi": "1851463483",
    "hcaiId": null,
    "businessName": "INDEPENDENT OPTIONS, INC.",
    "contactEmail": "ALIANG@INDEPENDENTOPTIONS.ORG",
    "categoryName": "INTERMEDIATE CARE FACILITY-DD/H/N/CN/IID",
    "categoryCode": "ICFDDH",
    "licenseStatus": "ACTIVE",
    "inService": true,
    "licenseNumber": "060000267",
    "licenseEffectiveDate": "04/10/2025",
    "licenseExpirationDate": "04/09/2026",
    "dataDate": "10/18/2025",
    "capacity": 6,
    "address": "2525 SANTA CATALINA DR, SUITE 105",
    "city": "COSTA MESA",
    "zip": "92626",
    "county": "ORANGE",
    "phone": "(657) 226-5690",
    "lat": 33.666327,
    "lng": -117.923058
  },
  {
    "id": "060000970",
    "name": "INDEPENDENT OPTIONS, INC. HARBOR VILLAGE IV",
    "npi": "1851463483",
    "hcaiId": null,
    "businessName": "INDEPENDENT OPTIONS, INC.",
    "contactEmail": "NAGUILAR@INDEPENDENTOPTIONS.ORG",
    "categoryName": "INTERMEDIATE CARE FACILITY-DD/H/N/CN/IID",
    "categoryCode": "ICFDDH",
    "licenseStatus": "ACTIVE",
    "inService": true,
    "licenseNumber": "060000266",
    "licenseEffectiveDate": "04/10/2025",
    "licenseExpirationDate": "04/09/2026",
    "dataDate": "10/18/2025",
    "capacity": 6,
    "address": "2525 SANTA CATALINA DR, 108",
    "city": "COSTA MESA",
    "zip": "92626",
    "county": "ORANGE",
    "phone": "(714) 469-1017",
    "lat": 33.666327,
    "lng": -117.923058
  },
  {
    "id": "060002256",
    "name": "INDEPENDENT OPTIONS, INC. HARBOR VILLAGE V",
    "npi": "1851463483",
    "hcaiId": null,
    "businessName": "INDEPENDENT OPTIONS, INC.",
    "contactEmail": "NAGUILAR@INDEPENDENTOPTIONS.ORG",
    "categoryName": "INTERMEDIATE CARE FACILITY-DD/H/N/CN/IID",
    "categoryCode": "ICFDDH",
    "licenseStatus": "ACTIVE",
    "inService": true,
    "licenseNumber": "060000940",
    "licenseEffectiveDate": "11/21/2024",
    "licenseExpirationDate": "11/20/2025",
    "dataDate": "10/18/2025",
    "capacity": 6,
    "address": "2541 SANTA CATALINA DR, UNIT 108",
    "city": "COSTA MESA",
    "zip": "92626",
    "county": "ORANGE",
    "phone": "(714) 469-1017",
    "lat": 33.66738785,
    "lng": -117.9216607
  },
  {
    "id": "060002257",
    "name": "INDEPENDENT OPTIONS, INC. HARBOR VILLAGE VI",
    "npi": "1851463483",
    "hcaiId": null,
    "businessName": "INDEPENDENT OPTIONS, INC.",
    "contactEmail": "NAGUILAR@INDEPENDENTOPTIONS.ORG",
    "categoryName": "INTERMEDIATE CARE FACILITY-DD/H/N/CN/IID",
    "categoryCode": "ICFDDH",
    "licenseStatus": "ACTIVE",
    "inService": true,
    "licenseNumber": "060000941",
    "licenseEffectiveDate": "11/21/2024",
    "licenseExpirationDate": "11/20/2025",
    "dataDate": "10/18/2025",
    "capacity": 6,
    "address": "2541 SANTA CATALINA DR # 105",
    "city": "COSTA MESA",
    "zip": "92626",
    "county": "ORANGE",
    "phone": "(714) 469-1017",
    "lat": 33.665778,
    "lng": -117.923283
  },
  {
    "id": "060001078",
    "name": "INDEPENDENT OPTIONS, INC. MARK LANE I",
    "npi": "1851463483",
    "hcaiId": null,
    "businessName": "INDEPENDENT OPTIONS, INC.",
    "contactEmail": "JPLATERO@INDEPENDENTOPTIONS.ORG",
    "categoryName": "INTERMEDIATE CARE FACILITY-DD/H/N/CN/IID",
    "categoryCode": "ICFDDH",
    "licenseStatus": "ACTIVE",
    "inService": true,
    "licenseNumber": "060000306",
    "licenseEffectiveDate": "11/30/2024",
    "licenseExpirationDate": "11/29/2025",
    "dataDate": "10/18/2025",
    "capacity": 6,
    "address": "2500 MARK LN",
    "city": "COSTA MESA",
    "zip": "92626",
    "county": "ORANGE",
    "phone": "(714) 494-5583",
    "lat": 33.66539122,
    "lng": -117.9208383
  },
  {
    "id": "060001077",
    "name": "INDEPENDENT OPTIONS, INC. MARK LANE II",
    "npi": "1851463483",
    "hcaiId": null,
    "businessName": "INDEPENDENT OPTIONS, INC.",
    "contactEmail": "JPLATERNO@INDEPENDENTOPTIONS.ORG",
    "categoryName": "INTERMEDIATE CARE FACILITY-DD/H/N/CN/IID",
    "categoryCode": "ICFDDH",
    "licenseStatus": "ACTIVE",
    "inService": true,
    "licenseNumber": "060000307",
    "licenseEffectiveDate": "11/30/2024",
    "licenseExpirationDate": "11/29/2025",
    "dataDate": "10/18/2025",
    "capacity": 6,
    "address": "2516 MARK LN",
    "city": "COSTA MESA",
    "zip": "92626",
    "county": "ORANGE",
    "phone": "(714) 494-5583",
    "lat": 33.66577629,
    "lng": -117.92163
  },
  {
    "id": "630027629",
    "name": "MESA HOME",
    "npi": "1922840644",
    "hcaiId": null,
    "businessName": "SALEM CHRISTIAN HOMES, INC.",
    "contactEmail": "MESAHOME@SALEMCHRISTIANHOMES.ORG",
    "categoryName": "INTERMEDIATE CARE FACILITY-DD/H/N/CN/IID",
    "categoryCode": "ICFDDN",
    "licenseStatus": "ACTIVE",
    "inService": true,
    "licenseNumber": "550009283",
    "licenseEffectiveDate": "08/07/2025",
    "licenseExpirationDate": "08/06/2026",
    "dataDate": "10/18/2025",
    "capacity": 6,
    "address": "2520 MARK LN",
    "city": "COSTA MESA",
    "zip": "92626",
    "county": "ORANGE",
    "phone": "(657) 900-2424",
    "lat": 33.66560209,
    "lng": -117.9217982
  },
  {
    "id": "630012141",
    "name": "NEWPORT MESA DIALYSIS SERVICES",
    "npi": "1730337536",
    "hcaiId": "306304366",
    "businessName": "NEWPORT MESA DIALYSIS SERVICES LLC",
    "contactEmail": "CLINIC6213@FMC-NA.COM",
    "categoryName": "CHRONIC DIALYSIS CLINIC",
    "categoryCode": "ESRD/CDC",
    "licenseStatus": "ACTIVE",
    "inService": true,
    "licenseNumber": "550001175",
    "licenseEffectiveDate": "11/08/2025",
    "licenseExpirationDate": "11/07/2026",
    "dataDate": "10/18/2025",
    "capacity": 16,
    "address": "1175 BAKER ST, SUITE B",
    "city": "COSTA MESA",
    "zip": "92626",
    "county": "ORANGE",
    "phone": "(714) 641-5808",
    "lat": 33.679755,
    "lng": -117.906561
  },
  {
    "id": "060000879",
    "name": "OPTUM WOMEN'S AND CHILDREN'S HEALTH, LLC",
    "npi": null,
    "hcaiId": "406304424",
    "businessName": "OPTUM WOMEN'S AND CHILDREN'S HEALTH, LLC",
    "contactEmail": "TINA.TUBB@OPTUM.COM",
    "categoryName": "HOME HEALTH AGENCY",
    "categoryCode": "HHA",
    "licenseStatus": "ACTIVE",
    "inService": true,
    "licenseNumber": "060000257",
    "licenseEffectiveDate": "04/24/2025",
    "licenseExpirationDate": "11/17/2025",
    "dataDate": "10/18/2025",
    "capacity": 0,
    "address": "3420 BRISTOL ST, SUITE 525",
    "city": "COSTA MESA",
    "zip": "92626",
    "county": "ORANGE",
    "phone": "(602) 366-5585",
    "lat": 33.693904,
    "lng": -117.884998
  },
  {
    "id": "630021660",
    "name": "ORANGE COAST HOME HEALTH, INC.",
    "npi": null,
    "hcaiId": "406195758",
    "businessName": "ORANGE COAST HOME HEALTH, INC",
    "contactEmail": "ORANGECOASTHOMEHEALTH@GMAIL.COM",
    "categoryName": "HOME HEALTH AGENCY",
    "categoryCode": "HHA",
    "licenseStatus": "ACTIVE",
    "inService": true,
    "licenseNumber": "550007780",
    "licenseEffectiveDate": "07/18/2025",
    "licenseExpirationDate": "12/10/2025",
    "dataDate": "10/18/2025",
    "capacity": 0,
    "address": "555 ANTON BLVD, SUITE 150 UNIT #350",
    "city": "COSTA MESA",
    "zip": "92626",
    "county": "ORANGE",
    "phone": "(714) 465-2172",
    "lat": 33.68833402,
    "lng": -117.876918
  },
  {
    "id": "630021662",
    "name": "ORANGE COAST HOSPICE SERVICES, INC.",
    "npi": null,
    "hcaiId": "406300032",
    "businessName": "ORANGE COAST HOSPICE SERVICES, INC",
    "contactEmail": "ORANGECOASTHOSPICESVCS@GMAIL.COM",
    "categoryName": "HOSPICE",
    "categoryCode": "HOSPICE",
    "licenseStatus": "ACTIVE",
    "inService": true,
    "licenseNumber": "550007642",
    "licenseEffectiveDate": "09/23/2025",
    "licenseExpirationDate": "12/02/2025",
    "dataDate": "10/18/2025",
    "capacity": 0,
    "address": "555 ANTON BLVD, SUITE 150, UNIT 351",
    "city": "COSTA MESA",
    "zip": "92626",
    "county": "ORANGE",
    "phone": "(714) 369-6137",
    "lat": 33.68829521,
    "lng": -117.8780336
  },
  {
    "id": "060000160",
    "name": "PLANNED PARENTHOOD/ORANGE & SAN BERNARDINO CO.",
    "npi": null,
    "hcaiId": "306300428",
    "businessName": "PLANNED PARENTHOOD/ORANGE & SAN BERNARDINO CO.,INC",
    "contactEmail": "SAMANTHA.ORTEGA@PPOSBC.ORG",
    "categoryName": "PRIMARY CARE CLINIC",
    "categoryCode": "COMTYC",
    "licenseStatus": "ACTIVE",
    "inService": true,
    "licenseNumber": "060000019",
    "licenseEffectiveDate": "11/08/2025",
    "licenseExpirationDate": "11/07/2026",
    "dataDate": "10/18/2025",
    "capacity": 0,
    "address": "1520 NUTMEG PL, SUITE 101",
    "city": "COSTA MESA",
    "zip": "92626",
    "county": "ORANGE",
    "phone": "(714) 633-6373",
    "lat": 33.682392,
    "lng": -117.9202995
  },
  {
    "id": "630022000",
    "name": "SEACLIFF HOSPICE INC.",
    "npi": null,
    "hcaiId": "406305014",
    "businessName": "SEACLIFF HOSPICE INC",
    "contactEmail": "SEACLIFFHOSPICEINC@GMAIL.COM",
    "categoryName": "HOSPICE",
    "categoryCode": "HOSPICE",
    "licenseStatus": "ACTIVE",
    "inService": true,
    "licenseNumber": "550007218",
    "licenseEffectiveDate": "11/17/2023",
    "licenseExpirationDate": "11/16/2025",
    "dataDate": "10/18/2025",
    "capacity": 0,
    "address": "1055 EL CAMINO DR, SUITE F109",
    "city": "COSTA MESA",
    "zip": "92626",
    "county": "ORANGE",
    "phone": "(949) 304-1447",
    "lat": 33.675426,
    "lng": -117.901341
  },
  {
    "id": "630028223",
    "name": "SHARE OURSELVES AT COSTA MESA",
    "npi": null,
    "hcaiId": null,
    "businessName": "SHARE OUR SELVES CORPORATION",
    "contactEmail": null,
    "categoryName": "PRIMARY CARE CLINIC",
    "categoryCode": "COMTYC",
    "licenseStatus": "ACTIVE",
    "inService": true,
    "licenseNumber": "550003228",
    "licenseEffectiveDate": "09/14/2025",
    "licenseExpirationDate": "09/13/2026",
    "dataDate": "10/18/2025",
    "capacity": 0,
    "address": "1650 ADAMS AVE",
    "city": "COSTA MESA",
    "zip": "92626",
    "county": "ORANGE",
    "phone": null,
    "lat": 33.67328113,
    "lng": -117.9251121
  },
  {
    "id": "980002360",
    "name": "SPECIALIZED HOME HEALTH SERVICES",
    "npi": null,
    "hcaiId": "406301347",
    "businessName": "SPECIALIZED HEALTH CARE SERVICES, INC.",
    "contactEmail": "SPECIALIZED@SPECIALIZEDHH.COM",
    "categoryName": "HOME HEALTH AGENCY",
    "categoryCode": "HHA",
    "licenseStatus": "ACTIVE",
    "inService": true,
    "licenseNumber": "980001470",
    "licenseEffectiveDate": "05/21/2025",
    "licenseExpirationDate": "05/20/2026",
    "dataDate": "10/18/2025",
    "capacity": 0,
    "address": "2755 BRISTOL ST, SUITE 115",
    "city": "COSTA MESA",
    "zip": "92626",
    "county": "ORANGE",
    "phone": "(818) 500-3929",
    "lat": 33.673581,
    "lng": -117.889641
  }
]