[
  {
    "id": "630011631",
    "name": "SALUS HOME HEALTH",
    "npi": null,
    "hcaiId": "406304481",
    "businessName": "PROFESSIONAL SERVICES STAFFING, LLC",
    "contactEmail": "MMORTENSEN@SALUSHOMECARE.COM",
    "categoryName": "HOME HEALTH AGENCY",
    "categoryCode": "HHA",
    "licenseStatus": "ACTIVE",
    "inService": true,
    "licenseNumber": "550001073",
    "licenseEffectiveDate": "11/03/2024",
    "licenseExpirationDate": "11/02/2025",
    "dataDate": "10/18/2025",
    "capacity": 0,
    "address": "630 ROOSEVELT, SUITE D",
    "city": "IRVINE",
    "zip": "92620",
    "county": "ORANGE",
    "phone": "(949) 707-5641",
    "lat": 33.694848,
    "lng": -117.7672635
  },
  {
    "id": "980002327",
    "name": "SALUS HOME HEALTH",
    "npi": "1659543957",
    "hcaiId": "406302067",
    "businessName": "SALUS HOME HEALTH AND HOSPICE, INC.",
    "contactEmail": "MMORTENSEN@SALUSHOMECARE.COM",
    "categoryName": "HOME HEALTH AGENCY",
    "categoryCode": "HHA",
    "licenseStatus": "ACTIVE",
    "inService": true,
    "licenseNumber": "980001437",
    "licenseEffectiveDate": "08/10/2025",
    "licenseExpirationDate": "08/09/2026",
    "dataDate": "10/18/2025",
    "capacity": 0,
    "address": "630 ROOSEVELT, SUITE A",
    "city": "IRVINE",
    "zip": "92620",
    "county": "ORANGE",
    "phone": "(562) 888-6363",
    "lat": 33.694848,
    "lng": -117.7672635
  },
  {
    "id": "630014905",
    "name": "SALUS HOSPICE",
    "npi": null,
    "hcaiId": "406304579",
    "businessName": "SALUS HOME HEALTH AND HOSPICE, INC.",
    "contactEmail": "DROBSON@SALUSHOMECARE.COM",
    "categoryName": "HOSPICE",
    "categoryCode": "HOSPICE",
    "licenseStatus": "ACTIVE",
    "inService": true,
    "licenseNumber": "550002972",
    "licenseEffectiveDate": "02/05/2025",
    "licenseExpirationDate": "02/04/2027",
    "dataDate": "10/18/2025",
    "capacity": 0,
    "address": "630 ROOSEVELT, SUITE B",
    "city": "IRVINE",
    "zip": "92620",
    "county": "ORANGE",
    "phone": "(949) 390-7308",
    "lat": 33.694848,
    "lng": -117.7672635
  }
]