[
  {
    "id": "630017106",
    "name": "CAMINO HEALTH CENTER - LAKE FOREST",
    "npi": null,
    "hcaiId": "306304613",
    "businessName": "CAMINO HEALTH CENTER",
    "contactEmail": "JMGARCIA@CAMINOHC.ORG",
    "categoryName": "PRIMARY CARE CLINIC",
    "categoryCode": "COMTYC",
    "licenseStatus": "ACTIVE",
    "inService": true,
    "licenseNumber": "550003921",
    "licenseEffectiveDate": "06/19/2025",
    "licenseExpirationDate": "06/18/2026",
    "dataDate": "10/18/2025",
    "capacity": 0,
    "address": "22481 ASPAN ST, SUITE A",
    "city": "LAKE FOREST",
    "zip": "92630",
    "county": "ORANGE",
    "phone": "(949) 240-2030",
    "lat": 33.636267,
    "lng": -117.7129395
  },
  {
    "id": "630021588",
    "name": "FIRSTHAND HOSPICE INC.",
    "npi": null,
    "hcaiId": "406300026",
    "businessName": "FIRSTHAND HOSPICE INC.",
    "contactEmail": "FIRSTHANDHOSPICE@GMAIL.COM",
    "categoryName": "HOSPICE",
    "categoryCode": "HOSPICE",
    "licenseStatus": "ACTIVE",
    "inService": true,
    "licenseNumber": "550007197",
    "licenseEffectiveDate": "10/25/2025",
    "licenseExpirationDate": "10/24/2027",
    "dataDate": "10/18/2025",
    "capacity": 0,
    "address": "23361 EL TORO RD, SUITE 116",
    "city": "LAKE FOREST",
    "zip": "92630",
    "county": "ORANGE",
    "phone": "(714) 582-3123",
    "lat": 33.62396201,
    "lng": -117.697098
  },
  {
    "id": "630027637",
    "name": "FOOTHILL SURGICAL INSTITUTE, LLC",
    "npi": null,
    "hcaiId": null,
    "businessName": null,
    "contactEmail": null,
    "categoryName": "SURGICAL CLINIC",
    "categoryCode": "ASC",
    "licenseStatus": null,
    "inService": null,
    "licenseNumber": null,
    "licenseEffectiveDate": null,
    "licenseExpirationDate": null,
    "dataDate": "10/18/2025",
    "capacity": 0,
    "address": "29300 PORTOLA PKWY, UNIT A",
    "city": "LAKE FOREST",
    "zip": "92630",
    "county": "ORANGE",
    "phone": null,
    "lat": 33.660906,
    "lng": -117.653456
  },
  {
    "id": "060000839",
    "name": "FREEDOM VILLAGE HEALTHCARE CENTER",
    "npi": "1841354354",
    "hcaiId": "206304020",
    "businessName": "CASA PACIFICA, A CALIFORNIA PARTNERSHIP",
    "contactEmail": "HBEKERIAN@FREEDOMVILLAGE.ORG",
    "categoryName": "SKILLED NURSING FACILITY",
    "categoryCode": "SNF",
    "licenseStatus": "ACTIVE",
    "inService": true,
    "licenseNumber": "060000246",
    "licenseEffectiveDate": "11/02/2025",
    "licenseExpirationDate": "11/01/2026",
    "dataDate": "10/18/2025",
    "capacity": 52,
    "address": "23442 EL TORO RD",
    "city": "LAKE FOREST",
    "zip": "92630",
    "county": "ORANGE",
    "phone": "(949) 472-4733",
    "lat": 33.621606,
    "lng": -117.697131
  },
  {
    "id": "630019180",
    "name": "HOSPICE & PALLIATIVE CARE OF CALIFORNIA",
    "npi": null,
    "hcaiId": "406302721",
    "businessName": "OC SENIOR CARE RESOURCES INC",
    "contactEmail": "HOSPICEOFCALIFORNIA@GMAIL.COM",
    "categoryName": "HOSPICE",
    "categoryCode": "HOSPICE",
    "licenseStatus": "ACTIVE",
    "inService": true,
    "licenseNumber": "550005525",
    "licenseEffectiveDate": "05/29/2024",
    "licenseExpirationDate": "05/28/2026",
    "dataDate": "10/18/2025",
    "capacity": 0,
    "address": "23201 LAKE CENTER DR, SUITE 110",
    "city": "LAKE FOREST",
    "zip": "92630",
    "county": "ORANGE",
    "phone": "(949) 289-1746",
    "lat": 33.625226,
    "lng": -117.716588
  },
  {
    "id": "630017353",
    "name": "LAKE FOREST HOSPICE",
    "npi": "1174059513",
    "hcaiId": "406301542",
    "businessName": "LAKE FOREST HOSPICE",
    "contactEmail": "ADMIN@LAKEFORESTHOSPICE.COM",
    "categoryName": "HOSPICE",
    "categoryCode": "HOSPICE",
    "licenseStatus": "ACTIVE",
    "inService": true,
    "licenseNumber": "550004515",
    "licenseEffectiveDate": "01/23/2025",
    "licenseExpirationDate": "01/22/2027",
    "dataDate": "10/18/2025",
    "capacity": 0,
    "address": "22772 CENTRE DR, SUITE 200",
    "city": "LAKE FOREST",
    "zip": "92630",
    "county": "ORANGE",
    "phone": "(949) 305-0057",
    "lat": 33.631272,
    "lng": -117.7166115
  },
  {
    "id": "060002158",
    "name": "ROBIN DALE HOME",
    "npi": "1790875441",
    "hcaiId": null,
    "businessName": "MARGARET'S VILLA, INC.",
    "contactEmail": "LILIBETH.BEAH@YAHOO.COM",
    "categoryName": "INTERMEDIATE CARE FACILITY-DD/H/N/CN/IID",
    "categoryCode": "ICFDDN",
    "licenseStatus": "ACTIVE",
    "inService": true,
    "licenseNumber": "060000877",
    "licenseEffectiveDate": "11/24/2024",
    "licenseExpirationDate": "11/23/2025",
    "dataDate": "10/18/2025",
    "capacity": 6,
    "address": "23052 DUNE MEAR RD",
    "city": "LAKE FOREST",
    "zip": "92630",
    "county": "ORANGE",
    "phone": "(951) 231-8805",
    "lat": 33.627357,
    "lng": -117.6999255
  },
  {
    "id": "630013765",
    "name": "SEASONS OF LIFE HOSPICE, LLC",
    "npi": null,
    "hcaiId": "406304527",
    "businessName": "SEASONS OF LIFE HOSPICE, LLC",
    "contactEmail": "ADMIN@SEASONSOFLIFEHOSPICE.COM",
    "categoryName": "HOSPICE",
    "categoryCode": "HOSPICE",
    "licenseStatus": "ACTIVE",
    "inService": true,
    "licenseNumber": "550002192",
    "licenseEffectiveDate": "01/22/2025",
    "licenseExpirationDate": "01/21/2027",
    "dataDate": "10/18/2025",
    "capacity": 0,
    "address": "23832 ROCKFIELD BLVD, SUITE 135",
    "city": "LAKE FOREST",
    "zip": "92630",
    "county": "ORANGE",
    "phone": "(949) 743-2588",
    "lat": 33.625935,
    "lng": -117.714483
  },
  {
    "id": "630014904",
    "name": "SENIOR HOSPICE",
    "npi": null,
    "hcaiId": "406304601",
    "businessName": "MLSG CORP.",
    "contactEmail": "SENIORHOSPICE1@GMAIL.COM",
    "categoryName": "HOSPICE",
    "categoryCode": "HOSPICE",
    "licenseStatus": "ACTIVE",
    "inService": true,
    "licenseNumber": "550002924",
    "licenseEffectiveDate": "12/15/2024",
    "licenseExpirationDate": "12/14/2026",
    "dataDate": "10/18/2025",
    "capacity": 0,
    "address": "23331 EL TORO RD, SUITE 217-B",
    "city": "LAKE FOREST",
    "zip": "92630",
    "county": "ORANGE",
    "phone": "(949) 707-5059",
    "lat": 33.624153,
    "lng": -117.696726
  },
  {
    "id": "630021424",
    "name": "SOUTH COUNTY HOME HEALTH, INC.",
    "npi": null,
    "hcaiId": "406306336",
    "businessName": "SOUTH COUNTY HOME HEALTH, INC.",
    "contactEmail": "INFO@SCHOMEHEALTH.COM",
    "categoryName": "HOME HEALTH AGENCY",
    "categoryCode": "HHA",
    "licenseStatus": "ACTIVE",
    "inService": true,
    "licenseNumber": "550008471",
    "licenseEffectiveDate": "03/21/2025",
    "licenseExpirationDate": "03/20/2026",
    "dataDate": "10/18/2025",
    "capacity": 0,
    "address": "2 S POINTE DR, SUITE 135",
    "city": "LAKE FOREST",
    "zip": "92630",
    "county": "ORANGE",
    "phone": "(855) 474-7244",
    "lat": 33.659105,
    "lng": -117.698235
  },
  {
    "id": "630011759",
    "name": "ST. ROSE OF LIMA HEALTHCARE PROVIDER, INC.",
    "npi": "1417198110",
    "hcaiId": "406304437",
    "businessName": "ST. ROSE OF LIMA HEALTHCARE PROVIDER, INC.",
    "contactEmail": "CONTACT@SAINTROSEOFLIMAHCP.COM",
    "categoryName": "HOME HEALTH AGENCY",
    "categoryCode": "HHA",
    "licenseStatus": "ACTIVE",
    "inService": true,
    "licenseNumber": "550001074",
    "licenseEffectiveDate": "10/15/2025",
    "licenseExpirationDate": "10/14/2026",
    "dataDate": "10/18/2025",
    "capacity": 0,
    "address": "23361 EL TORO RD, SUITE 218A",
    "city": "LAKE FOREST",
    "zip": "92630",
    "county": "ORANGE",
    "phone": "(714) 777-5931",
    "lat": 33.623784,
    "lng": -117.6969825
  },
  {
    "id": "060000715",
    "name": "TRABUCO HILLS POST ACUTE",
    "npi": "1114652617",
    "hcaiId": "206304007",
    "businessName": "LAKE FOREST POST ACUTE, LLC",
    "contactEmail": "ADMIN@TRABUCOHILLSPOSTACUTE.COM",
    "categoryName": "SKILLED NURSING FACILITY",
    "categoryCode": "SNF",
    "licenseStatus": "ACTIVE",
    "inService": true,
    "licenseNumber": "060000230",
    "licenseEffectiveDate": "06/26/2025",
    "licenseExpirationDate": "06/25/2026",
    "dataDate": "10/18/2025",
    "capacity": 175,
    "address": "25652 OLD TRABUCO RD",
    "city": "LAKE FOREST",
    "zip": "92630",
    "county": "ORANGE",
    "phone": "(949) 380-9380",
    "lat": 33.645663,
    "lng": -117.682488
  },
  {
    "id": "630016506",
    "name": "WESTERN HORIZON HOSPICE AND PALLIATIVE CARE INC.",
    "npi": "1063881951",
    "hcaiId": "406301345",
    "businessName": "WESTERN HORIZON HOSPICE AND PALLIATIVE CARE, INC.",
    "contactEmail": "INFO@WESTERNHORIZONHOSPICE.COM",
    "categoryName": "HOSPICE",
    "categoryCode": "HOSPICE",
    "licenseStatus": "ACTIVE",
    "inService": true,
    "licenseNumber": "550003731",
    "licenseEffectiveDate": "12/07/2024",
    "licenseExpirationDate": "12/06/2026",
    "dataDate": "10/18/2025",
    "capacity": 0,
    "address": "2 S POINTE DR, SUITE 130",
    "city": "LAKE FOREST",
    "zip": "92630",
    "county": "ORANGE",
    "phone": "(855) 611-4677",
    "lat": 33.659181,
    "lng": -117.6980265
  }
]