[
  {
    "id": "630016938",
    "name": "EL TORO ADULT DAY SERVICES",
    "npi": null,
    "hcaiId": null,
    "businessName": "THE ALDER CORPORATION",
    "contactEmail": "CONTACT@THEALDERCORP.COM",
    "categoryName": "ADULT DAY HEALTH CARE",
    "categoryCode": "ADHC",
    "licenseStatus": "ACTIVE",
    "inService": true,
    "licenseNumber": "550003811",
    "licenseEffectiveDate": "03/01/2025",
    "licenseExpirationDate": "02/28/2026",
    "dataDate": "10/18/2025",
    "capacity": 0,
    "address": "24300 EL TORO ROAD",
    "city": "LAGUNA WOODS",
    "zip": "92637",
    "county": "ORANGE",
    "phone": "(949) 457-2275",
    "lat": 33.608709,
    "lng": -117.7336575
  },
  {
    "id": "060000574",
    "name": "HEALTHY AGING CENTER: LAGUNA WOODS",
    "npi": null,
    "hcaiId": null,
    "businessName": "SOCAL SENIOR SERVICES LLC",
    "contactEmail": "KAY.LEE@HEALTHYAGINGLW.ORG",
    "categoryName": "ADULT DAY HEALTH CARE",
    "categoryCode": "ADHC",
    "licenseStatus": "ACTIVE",
    "inService": true,
    "licenseNumber": "060000229",
    "licenseEffectiveDate": "05/02/2025",
    "licenseExpirationDate": "05/01/2026",
    "dataDate": "10/18/2025",
    "capacity": 0,
    "address": "24260 EL TORO RD",
    "city": "LAGUNA WOODS",
    "zip": "92637",
    "county": "ORANGE",
    "phone": "(949) 855-9444",
    "lat": 33.61090729,
    "lng": -117.7235993
  },
  {
    "id": "060002120",
    "name": "LAGUNA HILLS SURGERY CENTER",
    "npi": "1245575919",
    "hcaiId": "306304313",
    "businessName": "LAGUNA WOODS AMBULATORY SURGERY CENTER, L.P.",
    "contactEmail": "RJBRAUCHLER@YAHOO.COM",
    "categoryName": "SURGICAL CLINIC",
    "categoryCode": "ASC",
    "licenseStatus": "INACTIVE - CAPEN DECISION",
    "inService": false,
    "licenseNumber": "060000879",
    "licenseEffectiveDate": "12/01/2007",
    "licenseExpirationDate": "11/30/2008",
    "dataDate": "10/18/2025",
    "capacity": 0,
    "address": "24331 EL TORO RD, SUITE 150",
    "city": "LAGUNA WOODS",
    "zip": "92637",
    "county": "ORANGE",
    "phone": "(949) 855-0562",
    "lat": 33.609519,
    "lng": -117.729549
  },
  {
    "id": "060002094",
    "name": "LAGUNA WOODS REHABILITATION CENTER",
    "npi": null,
    "hcaiId": null,
    "businessName": null,
    "contactEmail": null,
    "categoryName": "REHABILITATION CLINIC",
    "categoryCode": "OPT/SP",
    "licenseStatus": null,
    "inService": null,
    "licenseNumber": null,
    "licenseEffectiveDate": null,
    "licenseExpirationDate": null,
    "dataDate": "10/18/2025",
    "capacity": 0,
    "address": "24361 EL TORO RD, SUITE 120",
    "city": "LAGUNA WOODS",
    "zip": "92637",
    "county": "ORANGE",
    "phone": "(949) 916-6321",
    "lat": 33.60925158,
    "lng": -117.731803
  },
  {
    "id": "060000255",
    "name": "PALM TERRACE HEALTHCARE & REHABILITATION CENTER",
    "npi": "1639164361",
    "hcaiId": "206304002",
    "businessName": "GATE THREE HEALTHCARE LLC",
    "contactEmail": "RENEWALS@ENSIGNSERVICES.NET",
    "categoryName": "SKILLED NURSING FACILITY",
    "categoryCode": "SNF",
    "licenseStatus": "ACTIVE",
    "inService": true,
    "licenseNumber": "060000226",
    "licenseEffectiveDate": "11/02/2025",
    "licenseExpirationDate": "11/01/2026",
    "dataDate": "10/18/2025",
    "capacity": 99,
    "address": "24962 CALLE ARAGON",
    "city": "LAGUNA WOODS",
    "zip": "92637",
    "county": "ORANGE",
    "phone": "(949) 587-9000",
    "lat": 33.599286,
    "lng": -117.715914
  }
]