[
  {
    "id": "630028311",
    "name": "ALTAMED MEDICAL AND DENTAL GROUP - HUNTINGTON BEACH, MAIN",
    "npi": null,
    "hcaiId": null,
    "businessName": "ALTAMED HEALTH SERVICES CORPORATION",
    "contactEmail": "NIDURAN@ALTAMED.ORG",
    "categoryName": "PRIMARY CARE CLINIC",
    "categoryCode": "COMTYC",
    "licenseStatus": "ACTIVE",
    "inService": true,
    "licenseNumber": "550009885",
    "licenseEffectiveDate": "07/21/2025",
    "licenseExpirationDate": "07/20/2026",
    "dataDate": "10/18/2025",
    "capacity": 0,
    "address": "2100 MAIN ST, SUITE 150 & 250",
    "city": "HUNTINGTON BEACH",
    "zip": "92648",
    "county": "ORANGE",
    "phone": "(323) 893-6323",
    "lat": 33.68012801,
    "lng": -118.000365
  },
  {
    "id": "630006661",
    "name": "AMERICAN NURSING HOME HEALTH CARE",
    "npi": "1396739421",
    "hcaiId": "406304375",
    "businessName": "AMERICAN NURSING MANAGEMENT & CONSULTING, INC",
    "contactEmail": null,
    "categoryName": "HOME HEALTH AGENCY",
    "categoryCode": "HHA",
    "licenseStatus": "ACTIVE",
    "inService": true,
    "licenseNumber": "980000939",
    "licenseEffectiveDate": "01/04/2025",
    "licenseExpirationDate": "01/03/2026",
    "dataDate": "10/18/2025",
    "capacity": 0,
    "address": "18600 MAIN ST, SUITE 155",
    "city": "HUNTINGTON BEACH",
    "zip": "92648",
    "county": "ORANGE",
    "phone": "(714) 842-3399",
    "lat": 33.69231719,
    "lng": -117.9909186
  },
  {
    "id": "060000045",
    "name": "BEACHSIDE NURSING CENTER",
    "npi": "1275246704",
    "hcaiId": "206301184",
    "businessName": "DESERT MALLOW HEALTHCARE, INC.",
    "contactEmail": "SBRAITHWAITE@ENSIGNSERVICES.NET",
    "categoryName": "SKILLED NURSING FACILITY",
    "categoryCode": "SNF",
    "licenseStatus": "ACTIVE",
    "inService": true,
    "licenseNumber": "060000113",
    "licenseEffectiveDate": "04/17/2025",
    "licenseExpirationDate": "04/16/2026",
    "dataDate": "10/18/2025",
    "capacity": 59,
    "address": "7781 GARFIELD AVE",
    "city": "HUNTINGTON BEACH",
    "zip": "92648",
    "county": "ORANGE",
    "phone": "(714) 847-9671",
    "lat": 33.687126,
    "lng": -117.992358
  },
  {
    "id": "060000053",
    "name": "SEA CLIFF HEALTHCARE CENTER",
    "npi": "1154316933",
    "hcaiId": "206301208",
    "businessName": "HB HEALTHCARE ASSOCIATES LLC",
    "contactEmail": "RENEWALS@ENSIGNSERVICES.NET",
    "categoryName": "SKILLED NURSING FACILITY",
    "categoryCode": "SNF",
    "licenseStatus": "ACTIVE",
    "inService": true,
    "licenseNumber": "060000123",
    "licenseEffectiveDate": "11/02/2025",
    "licenseExpirationDate": "11/01/2026",
    "dataDate": "10/18/2025",
    "capacity": 182,
    "address": "18811 FLORIDA ST",
    "city": "HUNTINGTON BEACH",
    "zip": "92648",
    "county": "ORANGE",
    "phone": "(714) 847-3515",
    "lat": 33.689016,
    "lng": -117.9911475
  },
  {
    "id": "060000547",
    "name": "SEA CLIFF HEALTHCARE CENTER D/P ICF",
    "npi": "1154316933",
    "hcaiId": null,
    "businessName": "HB HEALTHCARE ASSOCIATES LLC",
    "contactEmail": "MIHARRISON@ENSIGNSERVICES.NET",
    "categoryName": "INTERMEDIATE CARE FACILITY",
    "categoryCode": "ICF",
    "licenseStatus": "ACTIVE",
    "inService": true,
    "licenseNumber": "060000123",
    "licenseEffectiveDate": "11/02/2025",
    "licenseExpirationDate": "11/01/2026",
    "dataDate": "10/18/2025",
    "capacity": 0,
    "address": "18811 FLORIDA ST",
    "city": "HUNTINGTON BEACH",
    "zip": "92648",
    "county": "ORANGE",
    "phone": "(714) 847-3515",
    "lat": 33.689016,
    "lng": -117.9911475
  }
]