[
  {
    "id": "630011191",
    "name": "A-1 HOME HEALTH CARE",
    "npi": "1568635811",
    "hcaiId": "406304408",
    "businessName": "A-1 HEALTHCARE MANAGEMENT",
    "contactEmail": "BINITA@A1HOMEHEALTHANDHOSPICE.COM",
    "categoryName": "HOME HEALTH AGENCY",
    "categoryCode": "HHA",
    "licenseStatus": "ACTIVE",
    "inService": true,
    "licenseNumber": "550000589",
    "licenseEffectiveDate": "11/20/2024",
    "licenseExpirationDate": "11/19/2025",
    "dataDate": "10/18/2025",
    "capacity": 0,
    "address": "5011 ARGOSY AVE, SUITE 4",
    "city": "HUNTINGTON BEACH",
    "zip": "92649",
    "county": "ORANGE",
    "phone": "(714) 650-8519",
    "lat": 33.741243,
    "lng": -118.04094
  },
  {
    "id": "630013308",
    "name": "A-1 HOSPICE",
    "npi": "1083969711",
    "hcaiId": "406301666",
    "businessName": "A-1 HEALTHCARE MANAGEMENT",
    "contactEmail": "BINITA@A1HOMEHEALTHANDHOSPICE.COM",
    "categoryName": "HOSPICE",
    "categoryCode": "HOSPICE",
    "licenseStatus": "ACTIVE",
    "inService": true,
    "licenseNumber": "550002129",
    "licenseEffectiveDate": "11/05/2024",
    "licenseExpirationDate": "11/04/2026",
    "dataDate": "10/18/2025",
    "capacity": 0,
    "address": "5011 ARGOSY AVE, SUITE 5",
    "city": "HUNTINGTON BEACH",
    "zip": "92649",
    "county": "ORANGE",
    "phone": "(714) 379-3074",
    "lat": 33.741243,
    "lng": -118.040796
  },
  {
    "id": "630013382",
    "name": "HORIZON PREGNANCY CENTER",
    "npi": "1801879093",
    "hcaiId": "306304502",
    "businessName": "HORIZON PREGNANCY CENTER",
    "contactEmail": "DIRECTOR@HORIZONPC.ORG",
    "categoryName": "PRIMARY CARE CLINIC",
    "categoryCode": "COMTYC",
    "licenseStatus": "ACTIVE",
    "inService": true,
    "licenseNumber": "550001902",
    "licenseEffectiveDate": "02/09/2025",
    "licenseExpirationDate": "02/08/2026",
    "dataDate": "10/18/2025",
    "capacity": 0,
    "address": "15061 SPRINGDALE ST, SUITE 109",
    "city": "HUNTINGTON BEACH",
    "zip": "92649",
    "county": "ORANGE",
    "phone": "(714) 897-7500",
    "lat": 33.743727,
    "lng": -118.0248975
  },
  {
    "id": "630018128",
    "name": "HORIZON PREGNANCY MOBILE CLINIC",
    "npi": "1801879093",
    "hcaiId": null,
    "businessName": "HORIZON PREGNANCY CENTER",
    "contactEmail": null,
    "categoryName": "PRIMARY CARE CLINIC",
    "categoryCode": "COMTYC",
    "licenseStatus": "ACTIVE",
    "inService": true,
    "licenseNumber": "550001902",
    "licenseEffectiveDate": "02/09/2025",
    "licenseExpirationDate": "02/08/2026",
    "dataDate": "10/18/2025",
    "capacity": 0,
    "address": "15061 SPRINGDALE ST, SUITE 109",
    "city": "HUNTINGTON BEACH",
    "zip": "92649",
    "county": "ORANGE",
    "phone": null,
    "lat": 33.743727,
    "lng": -118.0248975
  },
  {
    "id": "080001594",
    "name": "HUNTINGTON BEACH DIALYSIS",
    "npi": "1972577914",
    "hcaiId": "306300227",
    "businessName": "DVA RENAL HEALTHCARE, INC.",
    "contactEmail": "CAL_C@DAVITA.COM",
    "categoryName": "CHRONIC DIALYSIS CLINIC",
    "categoryCode": "ESRD/CDC",
    "licenseStatus": "ACTIVE",
    "inService": true,
    "licenseNumber": "080000686",
    "licenseEffectiveDate": "06/11/2025",
    "licenseExpirationDate": "06/10/2026",
    "dataDate": "10/18/2025",
    "capacity": 10,
    "address": "16892 BOLSA CHICA ST, SUITE 100",
    "city": "HUNTINGTON BEACH",
    "zip": "92649",
    "county": "ORANGE",
    "phone": "(714) 846-2102",
    "lat": 33.716601,
    "lng": -118.040418
  },
  {
    "id": "630016184",
    "name": "LUCENT HOSPICE",
    "npi": "1275913758",
    "hcaiId": "406301469",
    "businessName": "FIRSTCARE HOSPICE, INC.",
    "contactEmail": "ARTHURDTNGUYEN@ICHOSPICE.COM",
    "categoryName": "HOSPICE",
    "categoryCode": "HOSPICE",
    "licenseStatus": "ACTIVE",
    "inService": true,
    "licenseNumber": "550003639",
    "licenseEffectiveDate": "09/07/2024",
    "licenseExpirationDate": "09/06/2026",
    "dataDate": "10/18/2025",
    "capacity": 0,
    "address": "5500 BOLSA AVE, SUITE 222",
    "city": "HUNTINGTON BEACH",
    "zip": "92649",
    "county": "ORANGE",
    "phone": "(714) 732-6290",
    "lat": 33.743934,
    "lng": -118.0324035
  }
]