[
  {
    "id": "060000153",
    "name": "ALTAMED MEDICAL GROUP - HUNTINGTON BEACH COMMUNITY CLINIC",
    "npi": "1306015425",
    "hcaiId": "306301807",
    "businessName": "ALTAMED HEALTH SERVICES CORPORATION",
    "contactEmail": "PAMALDONADO@ALTAMED.ORG",
    "categoryName": "PRIMARY CARE CLINIC",
    "categoryCode": "COMTYC",
    "licenseStatus": "ACTIVE",
    "inService": true,
    "licenseNumber": "060000194",
    "licenseEffectiveDate": "02/13/2025",
    "licenseExpirationDate": "02/12/2026",
    "dataDate": "10/18/2025",
    "capacity": 0,
    "address": "8041 NEWMAN AVE",
    "city": "HUNTINGTON BEACH",
    "zip": "92647",
    "county": "ORANGE",
    "phone": "(714) 500-0226",
    "lat": 33.705054,
    "lng": -117.988299
  },
  {
    "id": "630013137",
    "name": "BRIGHTSTAR HOME HEALTH",
    "npi": null,
    "hcaiId": "406304485",
    "businessName": "CLARA HEALTH CARE INC.",
    "contactEmail": "LORI.KEWALRAM@BRIGHTSTARCARE.COM",
    "categoryName": "HOME HEALTH AGENCY",
    "categoryCode": "HHA",
    "licenseStatus": "ACTIVE",
    "inService": true,
    "licenseNumber": "550001818",
    "licenseEffectiveDate": "11/07/2025",
    "licenseExpirationDate": "11/06/2026",
    "dataDate": "10/18/2025",
    "capacity": 0,
    "address": "16052 BEACH BLVD, SUITE 160",
    "city": "HUNTINGTON BEACH",
    "zip": "92647",
    "county": "ORANGE",
    "phone": "(714) 861-4101",
    "lat": 33.729498,
    "lng": -117.98775
  },
  {
    "id": "630017514",
    "name": "FRESENIUS KIDNEY CARE HUNTINGTON BEACH",
    "npi": null,
    "hcaiId": "306300430",
    "businessName": "FRESENIUS MEDICAL CARE MEMORIAL, LLC",
    "contactEmail": "CLINIC100225@FMC-NA.COM",
    "categoryName": "CHRONIC DIALYSIS CLINIC",
    "categoryCode": "ESRD/CDC",
    "licenseStatus": "ACTIVE",
    "inService": true,
    "licenseNumber": "550004517",
    "licenseEffectiveDate": "01/24/2025",
    "licenseExpirationDate": "01/23/2026",
    "dataDate": "10/18/2025",
    "capacity": 25,
    "address": "17762 BEACH BLVD, SUITE 120",
    "city": "HUNTINGTON BEACH",
    "zip": "92647",
    "county": "ORANGE",
    "phone": "(714) 848-0021",
    "lat": 33.70413567,
    "lng": -117.9890314
  },
  {
    "id": "060000015",
    "name": "HUNTINGTON BEACH HOSPITAL",
    "npi": "1083622120",
    "hcaiId": "106301209",
    "businessName": "PRIME HEALTHCARE HUNTINGTON BEACH, LLC",
    "contactEmail": "PCODY@PRIMEHEALTHCARE.COM",
    "categoryName": "GENERAL ACUTE CARE HOSPITAL",
    "categoryCode": "GACH",
    "licenseStatus": "ACTIVE",
    "inService": true,
    "licenseNumber": "060000124",
    "licenseEffectiveDate": "11/30/2024",
    "licenseExpirationDate": "11/29/2025",
    "dataDate": "10/18/2025",
    "capacity": 82,
    "address": "17772 BEACH BLVD",
    "city": "HUNTINGTON BEACH",
    "zip": "92647",
    "county": "ORANGE",
    "phone": "(714) 392-2721",
    "lat": 33.70365,
    "lng": -117.9865305
  },
  {
    "id": "060000925",
    "name": "HUNTINGTON BEACH HOSPITAL",
    "npi": "1083622120",
    "hcaiId": null,
    "businessName": "PRIME HEALTHCARE HUNTINGTON BEACH, LLC",
    "contactEmail": null,
    "categoryName": "OTHER",
    "categoryCode": "PPSPSCH",
    "licenseStatus": "ACTIVE",
    "inService": true,
    "licenseNumber": "060000124",
    "licenseEffectiveDate": "11/30/2024",
    "licenseExpirationDate": "11/29/2025",
    "dataDate": "10/18/2025",
    "capacity": 0,
    "address": "17772 BEACH BLVD",
    "city": "HUNTINGTON BEACH",
    "zip": "92647",
    "county": "ORANGE",
    "phone": null,
    "lat": 33.70365,
    "lng": -117.9865305
  },
  {
    "id": "060000543",
    "name": "HUNTINGTON BEACH HOSPITAL D/P APH",
    "npi": "1083622120",
    "hcaiId": null,
    "businessName": "PRIME HEALTHCARE HUNTINGTON BEACH, LLC",
    "contactEmail": null,
    "categoryName": "ACUTE PSYCHIATRIC HOSPITAL",
    "categoryCode": "APH",
    "licenseStatus": "ACTIVE",
    "inService": true,
    "licenseNumber": "060000124",
    "licenseEffectiveDate": "11/30/2024",
    "licenseExpirationDate": "11/29/2025",
    "dataDate": "10/18/2025",
    "capacity": 49,
    "address": "17772 BEACH BLVD",
    "city": "HUNTINGTON BEACH",
    "zip": "92647",
    "county": "ORANGE",
    "phone": "(714) 842-1473",
    "lat": 33.70365,
    "lng": -117.9865305
  },
  {
    "id": "060000054",
    "name": "HUNTINGTON VALLEY HEALTHCARE CENTER",
    "npi": "1821027632",
    "hcaiId": "206301210",
    "businessName": "DOUGLAS FIR HOLDINGS, LLC",
    "contactEmail": "ANDREW.STEPHENSON@HVHCC.COM",
    "categoryName": "SKILLED NURSING FACILITY",
    "categoryCode": "SNF",
    "licenseStatus": "ACTIVE",
    "inService": true,
    "licenseNumber": "060000206",
    "licenseEffectiveDate": "11/17/2024",
    "licenseExpirationDate": "11/16/2025",
    "dataDate": "10/18/2025",
    "capacity": 144,
    "address": "8382 NEWMAN AVE",
    "city": "HUNTINGTON BEACH",
    "zip": "92647",
    "county": "ORANGE",
    "phone": "(714) 842-5551",
    "lat": 33.70437,
    "lng": -117.9820395
  },
  {
    "id": "630023453",
    "name": "LOUISE HOME HEALTH CARE, INC.",
    "npi": null,
    "hcaiId": "406195470",
    "businessName": "LOUISE HOME HEALTH CARE, INC.",
    "contactEmail": "VINHBUU@GMAIL.COM",
    "categoryName": "HOME HEALTH AGENCY",
    "categoryCode": "HHA",
    "licenseStatus": "ACTIVE",
    "inService": true,
    "licenseNumber": "550007883",
    "licenseEffectiveDate": "03/01/2025",
    "licenseExpirationDate": "02/28/2026",
    "dataDate": "10/18/2025",
    "capacity": 0,
    "address": "16541 GOTHARD ST, SUITE 106",
    "city": "HUNTINGTON BEACH",
    "zip": "92647",
    "county": "ORANGE",
    "phone": "(657) 204-9255",
    "lat": 33.72255201,
    "lng": -118.000636
  },
  {
    "id": "630013185",
    "name": "NEW LIFE HOME HEALTH SERVICES",
    "npi": "1619266749",
    "hcaiId": "406304493",
    "businessName": "AXIOM REHABILITATION, INC.",
    "contactEmail": "NEWLIFEHOMEHEALTH@GMAIL.COM",
    "categoryName": "HOME HEALTH AGENCY",
    "categoryCode": "HHA",
    "licenseStatus": "ACTIVE",
    "inService": true,
    "licenseNumber": "550001845",
    "licenseEffectiveDate": "12/12/2024",
    "licenseExpirationDate": "12/11/2025",
    "dataDate": "10/18/2025",
    "capacity": 0,
    "address": "17111 BEACH BLVD, SUITE 210",
    "city": "HUNTINGTON BEACH",
    "zip": "92647",
    "county": "ORANGE",
    "phone": "(714) 596-7456",
    "lat": 33.713937,
    "lng": -117.989559
  },
  {
    "id": "630012076",
    "name": "PACIFIC COAST SPINE INSTITUTE AND PAIN CENTER",
    "npi": "1245393602",
    "hcaiId": null,
    "businessName": null,
    "contactEmail": null,
    "categoryName": "SURGICAL CLINIC",
    "categoryCode": "ASC",
    "licenseStatus": null,
    "inService": null,
    "licenseNumber": null,
    "licenseEffectiveDate": null,
    "licenseExpirationDate": null,
    "dataDate": "10/18/2025",
    "capacity": 0,
    "address": "17822 BEACH BLVD, SUITE 101",
    "city": "HUNTINGTON BEACH",
    "zip": "92647",
    "county": "ORANGE",
    "phone": "(714) 847-3666",
    "lat": 33.703308,
    "lng": -117.987885
  },
  {
    "id": "630028246",
    "name": "SEA SURGICAL INSTITUTE LLC",
    "npi": null,
    "hcaiId": null,
    "businessName": null,
    "contactEmail": null,
    "categoryName": "SURGICAL CLINIC",
    "categoryCode": "ASC",
    "licenseStatus": null,
    "inService": null,
    "licenseNumber": null,
    "licenseEffectiveDate": null,
    "licenseExpirationDate": null,
    "dataDate": "10/18/2025",
    "capacity": 0,
    "address": "7801 CENTER AVE, SUITE 102",
    "city": "HUNTINGTON BEACH",
    "zip": "92647",
    "county": "ORANGE",
    "phone": null,
    "lat": 33.734207,
    "lng": -117.99403
  },
  {
    "id": "630017811",
    "name": "SUN SURGERY CENTER HUNTINGTON, LLC",
    "npi": "1528572815",
    "hcaiId": null,
    "businessName": null,
    "contactEmail": "JEFF.REICHMAN@SRMCONSULTS.COM",
    "categoryName": "SURGICAL CLINIC",
    "categoryCode": "ASC",
    "licenseStatus": null,
    "inService": null,
    "licenseNumber": null,
    "licenseEffectiveDate": null,
    "licenseExpirationDate": null,
    "dataDate": "10/18/2025",
    "capacity": 0,
    "address": "7801 CENTER AVENUE, SUITE 102",
    "city": "HUNTINGTON BEACH",
    "zip": "92647",
    "county": "ORANGE",
    "phone": "(513) 697-8557",
    "lat": 33.734178,
    "lng": -117.994077
  },
  {
    "id": "630011674",
    "name": "TALBERT SURGICAL ASSOCIATES",
    "npi": "1205076593",
    "hcaiId": null,
    "businessName": null,
    "contactEmail": null,
    "categoryName": "SURGICAL CLINIC",
    "categoryCode": "ASC",
    "licenseStatus": null,
    "inService": null,
    "licenseNumber": null,
    "licenseEffectiveDate": null,
    "licenseExpirationDate": null,
    "dataDate": "10/18/2025",
    "capacity": 0,
    "address": "7677 CENTER AVE, SUITE 104",
    "city": "HUNTINGTON BEACH",
    "zip": "92647",
    "county": "ORANGE",
    "phone": "(714) 897-5396",
    "lat": 33.736221,
    "lng": -117.995517
  }
]