[
  {
    "id": "630024438",
    "name": "ALISO RIDGE BEHAVIORAL HEALTH, LLC",
    "npi": null,
    "hcaiId": "106304589",
    "businessName": "ALISO RIDGE BEHAVIORAL HEALTH, LLC",
    "contactEmail": "HANA.ATTAR@SIGNATUREHC.COM",
    "categoryName": "ACUTE PSYCHIATRIC HOSPITAL",
    "categoryCode": "APH",
    "licenseStatus": "ACTIVE",
    "inService": true,
    "licenseNumber": "550007782",
    "licenseEffectiveDate": "01/14/2025",
    "licenseExpirationDate": "01/13/2026",
    "dataDate": "10/18/2025",
    "capacity": 119,
    "address": "200 FREEDOM LN",
    "city": "ALISO VIEJO",
    "zip": "92656",
    "county": "ORANGE",
    "phone": "(248) 839-5378",
    "lat": 33.562926,
    "lng": -117.7279245
  },
  {
    "id": "630027507",
    "name": "HOAG ORTHOPEDIC INSTITUTE SURGERY CENTER",
    "npi": null,
    "hcaiId": null,
    "businessName": null,
    "contactEmail": "KEVIN@CALISHER.COM",
    "categoryName": "SURGICAL CLINIC",
    "categoryCode": "ASC",
    "licenseStatus": null,
    "inService": null,
    "licenseNumber": null,
    "licenseEffectiveDate": null,
    "licenseExpirationDate": null,
    "dataDate": "10/18/2025",
    "capacity": 0,
    "address": "15 MAREBLU, SUITE 100",
    "city": "ALISO VIEJO",
    "zip": "92656",
    "county": "ORANGE",
    "phone": "(714) 766-5883",
    "lat": 33.573282,
    "lng": -117.703759
  },
  {
    "id": "630018330",
    "name": "JOURNEY SURGERY CENTER, LLC",
    "npi": "1942659917",
    "hcaiId": null,
    "businessName": null,
    "contactEmail": "VALERIE.HUFFER@EXCELSURGERY.COM",
    "categoryName": "SURGICAL CLINIC",
    "categoryCode": "ASC",
    "licenseStatus": null,
    "inService": null,
    "licenseNumber": null,
    "licenseEffectiveDate": null,
    "licenseExpirationDate": null,
    "dataDate": "10/18/2025",
    "capacity": 0,
    "address": "2 JOURNEY, SUITE 200-202",
    "city": "ALISO VIEJO",
    "zip": "92656",
    "county": "ORANGE",
    "phone": "(717) 223-7000",
    "lat": 33.569199,
    "lng": -117.7267545
  },
  {
    "id": "630016708",
    "name": "LAGUNA TREATMENT CENTER, LLC",
    "npi": null,
    "hcaiId": "106304583",
    "businessName": "LAGUNA TREATMENT HOSPITAL, LLC",
    "contactEmail": "TSWARTZFAGER@CONTACTAAC.COM",
    "categoryName": "CHEMICAL DEPENDENCY RECOVERY HOSPITAL",
    "categoryCode": "CDRH",
    "licenseStatus": "ACTIVE",
    "inService": true,
    "licenseNumber": "550003560",
    "licenseEffectiveDate": "06/15/2025",
    "licenseExpirationDate": "06/14/2026",
    "dataDate": "10/18/2025",
    "capacity": 93,
    "address": "24552 PACIFIC PARK DRIVE",
    "city": "ALISO VIEJO",
    "zip": "92656",
    "county": "ORANGE",
    "phone": "(949) 446-0077",
    "lat": 33.571134,
    "lng": -117.701226
  }
]