[
  {
    "id": "060000076",
    "name": "ABLELIGHT INC. - CHARLEMAGNE",
    "npi": "1417010604",
    "hcaiId": null,
    "businessName": "ABLELIGHT INC.",
    "contactEmail": "JEROME.MARQUEZ@ABLELIGHT.ORG",
    "categoryName": "INTERMEDIATE CARE FACILITY-DD/H/N/CN/IID",
    "categoryCode": "ICFDDH",
    "licenseStatus": "ACTIVE",
    "inService": true,
    "licenseNumber": "060000056",
    "licenseEffectiveDate": "06/02/2025",
    "licenseExpirationDate": "06/01/2026",
    "dataDate": "10/18/2025",
    "capacity": 6,
    "address": "25552 CHARLEMAGNE",
    "city": "LAGUNA HILLS",
    "zip": "92653",
    "county": "ORANGE",
    "phone": "(714) 225-3145",
    "lat": 33.597189,
    "lng": -117.683955
  },
  {
    "id": "060001197",
    "name": "ABLELIGHT INC. - MAWSON",
    "npi": "1417010604",
    "hcaiId": null,
    "businessName": "ABLELIGHT INC.",
    "contactEmail": "STEVEN.MARTINEZ@ABLELIGHT.ORG",
    "categoryName": "INTERMEDIATE CARE FACILITY-DD/H/N/CN/IID",
    "categoryCode": "ICFDDH",
    "licenseStatus": "ACTIVE",
    "inService": true,
    "licenseNumber": "060000357",
    "licenseEffectiveDate": "01/29/2025",
    "licenseExpirationDate": "01/28/2026",
    "dataDate": "10/18/2025",
    "capacity": 6,
    "address": "25281 MAWSON DR",
    "city": "LAGUNA HILLS",
    "zip": "92653",
    "county": "ORANGE",
    "phone": "(951) 374-9311",
    "lat": 33.59511,
    "lng": -117.688401
  },
  {
    "id": "630027159",
    "name": "ACCESS COMMUNITY HEALTH CENTER",
    "npi": null,
    "hcaiId": null,
    "businessName": "ACCESS COMMUNITY HEALTH CENTER",
    "contactEmail": null,
    "categoryName": "PRIMARY CARE CLINIC",
    "categoryCode": "COMTYC",
    "licenseStatus": "ACTIVE",
    "inService": true,
    "licenseNumber": "550007868",
    "licenseEffectiveDate": "10/18/2025",
    "licenseExpirationDate": "10/17/2026",
    "dataDate": "10/18/2025",
    "capacity": 0,
    "address": "24953 PASEO DE VALENCIA, SUITE 7C",
    "city": "LAGUNA HILLS",
    "zip": "92653",
    "county": "ORANGE",
    "phone": null,
    "lat": 33.60067201,
    "lng": -117.701236
  },
  {
    "id": "630012578",
    "name": "ALICIA SURGERY CENTER, LLC",
    "npi": "1518107937",
    "hcaiId": null,
    "businessName": null,
    "contactEmail": "FRANCINE@ALICIASURGERY.COM",
    "categoryName": "SURGICAL CLINIC",
    "categoryCode": "ASC",
    "licenseStatus": null,
    "inService": null,
    "licenseNumber": null,
    "licenseEffectiveDate": null,
    "licenseExpirationDate": null,
    "dataDate": "10/18/2025",
    "capacity": 0,
    "address": "25211 PASEO DE ALICIA, SUITE 100",
    "city": "LAGUNA HILLS",
    "zip": "92653",
    "county": "ORANGE",
    "phone": "(949) 900-3498",
    "lat": 33.601878,
    "lng": -117.6899895
  },
  {
    "id": "060001476",
    "name": "ANCONA HOME",
    "npi": "1285722876",
    "hcaiId": null,
    "businessName": "HARRIS CARE CENTERS, INC.",
    "contactEmail": "ASR.ANCONAHOME@GMAIL.COM",
    "categoryName": "INTERMEDIATE CARE FACILITY-DD/H/N/CN/IID",
    "categoryCode": "ICFDDH",
    "licenseStatus": "ACTIVE",
    "inService": true,
    "licenseNumber": "060000460",
    "licenseEffectiveDate": "11/17/2025",
    "licenseExpirationDate": "11/16/2026",
    "dataDate": "10/18/2025",
    "capacity": 6,
    "address": "22682 ANCONA",
    "city": "LAGUNA HILLS",
    "zip": "92653",
    "county": "ORANGE",
    "phone": "(714) 232-9242",
    "lat": 33.620121,
    "lng": -117.734076
  },
  {
    "id": "630013940",
    "name": "CALIFORNIA MISSION HOSPICE, LLC",
    "npi": "1457609380",
    "hcaiId": "406304534",
    "businessName": "CALIFORNIA MISSION HOSPICE, LLC",
    "contactEmail": "ADMIN@CALIFORNIAMISSIONHOSPICE.COM",
    "categoryName": "HOSPICE",
    "categoryCode": "HOSPICE",
    "licenseStatus": "ACTIVE",
    "inService": true,
    "licenseNumber": "550002317",
    "licenseEffectiveDate": "05/09/2025",
    "licenseExpirationDate": "05/08/2027",
    "dataDate": "10/18/2025",
    "capacity": 0,
    "address": "23441 S POINTE DR, SUITE 245",
    "city": "LAGUNA HILLS",
    "zip": "92653",
    "county": "ORANGE",
    "phone": "(949) 829-9888",
    "lat": 33.626322,
    "lng": -117.7209585
  },
  {
    "id": "630011893",
    "name": "CARE PLUS HOME HEALTH",
    "npi": "1528385143",
    "hcaiId": "406304451",
    "businessName": "CARE PLUS NURSING SERVICES, INC.",
    "contactEmail": "CARL@CAREPLUSNURSING.COM",
    "categoryName": "HOME HEALTH AGENCY",
    "categoryCode": "HHA",
    "licenseStatus": "ACTIVE",
    "inService": true,
    "licenseNumber": "550001209",
    "licenseEffectiveDate": "02/08/2025",
    "licenseExpirationDate": "02/07/2026",
    "dataDate": "10/18/2025",
    "capacity": 0,
    "address": "22931 TRITON WAY, SUITE 236",
    "city": "LAGUNA HILLS",
    "zip": "92653",
    "county": "ORANGE",
    "phone": "(949) 297-3828",
    "lat": 33.629382,
    "lng": -117.733788
  },
  {
    "id": "630013485",
    "name": "CARE PLUS HOSPICE",
    "npi": null,
    "hcaiId": "406304505",
    "businessName": "CARE PLUS HOSPICE, INC.",
    "contactEmail": "CARL@CAREPLUSNURSING.COM",
    "categoryName": "HOSPICE",
    "categoryCode": "HOSPICE",
    "licenseStatus": "ACTIVE",
    "inService": true,
    "licenseNumber": "550001967",
    "licenseEffectiveDate": "05/04/2024",
    "licenseExpirationDate": "05/03/2026",
    "dataDate": "10/18/2025",
    "capacity": 0,
    "address": "22931 TRITON WAY, SUITE 131",
    "city": "LAGUNA HILLS",
    "zip": "92653",
    "county": "ORANGE",
    "phone": "(949) 305-4599",
    "lat": 33.629598,
    "lng": -117.73368
  },
  {
    "id": "630027511",
    "name": "COMPASSION RECOVERY CENTERS",
    "npi": null,
    "hcaiId": null,
    "businessName": null,
    "contactEmail": null,
    "categoryName": "PSYCHOLOGY CLINIC",
    "categoryCode": "CMHC",
    "licenseStatus": null,
    "inService": null,
    "licenseNumber": null,
    "licenseEffectiveDate": null,
    "licenseExpirationDate": null,
    "dataDate": "10/18/2025",
    "capacity": 0,
    "address": "23141 MOULTON PKWY, SUITE 207",
    "city": "LAGUNA HILLS",
    "zip": "92653",
    "county": "ORANGE",
    "phone": null,
    "lat": 33.62631699,
    "lng": -117.732071
  },
  {
    "id": "060000865",
    "name": "DIGESTIVE DISEASE CENTER",
    "npi": "1417935206",
    "hcaiId": "306304203",
    "businessName": "DIGESTIVE DISEASE CENTER, LP",
    "contactEmail": null,
    "categoryName": "SURGICAL CLINIC",
    "categoryCode": "ASC",
    "licenseStatus": "INACTIVE - CAPEN DECISION",
    "inService": false,
    "licenseNumber": "060000442",
    "licenseEffectiveDate": "02/15/2008",
    "licenseExpirationDate": "02/14/2009",
    "dataDate": "10/18/2025",
    "capacity": 0,
    "address": "24411 HEALTH CENTER DR, SUITE 450",
    "city": "LAGUNA HILLS",
    "zip": "92653",
    "county": "ORANGE",
    "phone": "(949) 586-9386",
    "lat": 33.60969,
    "lng": -117.709308
  },
  {
    "id": "630017917",
    "name": "ETHICS AMERICA, INC",
    "npi": null,
    "hcaiId": "406302612",
    "businessName": "ETHICS AMERICA, INC",
    "contactEmail": "INFO@ETHICSAMERICA.COM",
    "categoryName": "HOME HEALTH AGENCY",
    "categoryCode": "HHA",
    "licenseStatus": "ACTIVE",
    "inService": true,
    "licenseNumber": "550004974",
    "licenseEffectiveDate": "10/03/2025",
    "licenseExpirationDate": "10/02/2026",
    "dataDate": "10/18/2025",
    "capacity": 0,
    "address": "23151 ALCALDE DR, SUITE C-2",
    "city": "LAGUNA HILLS",
    "zip": "92653",
    "county": "ORANGE",
    "phone": "(949) 382-2662",
    "lat": 33.623424,
    "lng": -117.7258005
  },
  {
    "id": "630018822",
    "name": "HOSPICE OF HOPE",
    "npi": "1174081640",
    "hcaiId": "406301944",
    "businessName": "HOSPICE OF HOPE",
    "contactEmail": "LTF92@YAHOO.COM",
    "categoryName": "HOSPICE",
    "categoryCode": "HOSPICE",
    "licenseStatus": "ACTIVE",
    "inService": true,
    "licenseNumber": "550004975",
    "licenseEffectiveDate": "10/17/2025",
    "licenseExpirationDate": "10/16/2027",
    "dataDate": "10/18/2025",
    "capacity": 0,
    "address": "25301 CABOT RD, SUITE 116",
    "city": "LAGUNA HILLS",
    "zip": "92653",
    "county": "ORANGE",
    "phone": "(949) 350-1604",
    "lat": 33.593976,
    "lng": -117.675522
  },
  {
    "id": "630015261",
    "name": "INTERVENTIONAL SPINE CENTER, INC.",
    "npi": "1639498579",
    "hcaiId": null,
    "businessName": null,
    "contactEmail": null,
    "categoryName": "SURGICAL CLINIC",
    "categoryCode": "ASC",
    "licenseStatus": null,
    "inService": null,
    "licenseNumber": null,
    "licenseEffectiveDate": null,
    "licenseExpirationDate": null,
    "dataDate": "10/18/2025",
    "capacity": 0,
    "address": "24012 CALLE DE LA PLATA, SUITE 130",
    "city": "LAGUNA HILLS",
    "zip": "92653",
    "county": "ORANGE",
    "phone": null,
    "lat": 33.609789,
    "lng": -117.711477
  },
  {
    "id": "630019324",
    "name": "LAGUNA ADULT DAY HEALTH CENTER",
    "npi": null,
    "hcaiId": null,
    "businessName": "ANGELIAN MANAGEMENT GROUP LLC",
    "contactEmail": "MONA.YACKO@LAGUNAADHC.ORG",
    "categoryName": "ADULT DAY HEALTH CARE",
    "categoryCode": "ADHC",
    "licenseStatus": "ACTIVE",
    "inService": true,
    "licenseNumber": "550005862",
    "licenseEffectiveDate": "06/06/2025",
    "licenseExpirationDate": "11/30/2025",
    "dataDate": "10/18/2025",
    "capacity": 0,
    "address": "23551 MOULTON PKWY",
    "city": "LAGUNA HILLS",
    "zip": "92653",
    "county": "ORANGE",
    "phone": "(949) 309-1900",
    "lat": 33.620409,
    "lng": -117.7329375
  },
  {
    "id": "060000042",
    "name": "LAGUNA HILLS HEALTH AND REHABILITATION CENTER",
    "npi": "1720072374",
    "hcaiId": "206301115",
    "businessName": "AG LAGUNA HILLS, LLC",
    "contactEmail": "KDALTON@LAGUNAHILLSHEALTH.COM",
    "categoryName": "SKILLED NURSING FACILITY",
    "categoryCode": "SNF",
    "licenseStatus": "ACTIVE",
    "inService": true,
    "licenseNumber": "060000084",
    "licenseEffectiveDate": "11/01/2024",
    "licenseExpirationDate": "10/31/2025",
    "dataDate": "10/18/2025",
    "capacity": 208,
    "address": "24452 HEALTH CENTER DR",
    "city": "LAGUNA HILLS",
    "zip": "92653",
    "county": "ORANGE",
    "phone": "(949) 837-8000",
    "lat": 33.60735,
    "lng": -117.7070355
  },
  {
    "id": "630018757",
    "name": "LAGUNA HILLS HOSPICE",
    "npi": "1104387901",
    "hcaiId": "406302539",
    "businessName": "LAGUNA HILLS HOSPICE",
    "contactEmail": "HOSPICELAGUNAHILLS@GMAIL.COM",
    "categoryName": "HOSPICE",
    "categoryCode": "HOSPICE",
    "licenseStatus": "ACTIVE",
    "inService": true,
    "licenseNumber": "550005313",
    "licenseEffectiveDate": "02/20/2024",
    "licenseExpirationDate": "02/19/2026",
    "dataDate": "10/18/2025",
    "capacity": 0,
    "address": "23232 PERALTA DR, SUITE 200",
    "city": "LAGUNA HILLS",
    "zip": "92653",
    "county": "ORANGE",
    "phone": "(949) 424-2717",
    "lat": 33.625089,
    "lng": -117.7245045
  },
  {
    "id": "060001188",
    "name": "MEMORIALCARE HOSPICE AND PALLIATIVE SERVICES",
    "npi": null,
    "hcaiId": "406304550",
    "businessName": "SADDLEBACK MEMORIAL MEDICAL CENTER",
    "contactEmail": "LDAMORE@MEMORIALCARE.ORG",
    "categoryName": "HOSPICE",
    "categoryCode": "HOSPICE",
    "licenseStatus": "ACTIVE",
    "inService": true,
    "licenseNumber": "550002597",
    "licenseEffectiveDate": "02/27/2024",
    "licenseExpirationDate": "02/26/2026",
    "dataDate": "10/18/2025",
    "capacity": 0,
    "address": "24431 CALLE DE LA LOUISA, SUITE 100",
    "city": "LAGUNA HILLS",
    "zip": "92653",
    "county": "ORANGE",
    "phone": "(949) 452-3000",
    "lat": 33.60954798,
    "lng": -117.7084728
  },
  {
    "id": "060000063",
    "name": "MEMORIALCARE SADDLEBACK MEDICAL CENTER",
    "npi": "1275576381",
    "hcaiId": "106301317",
    "businessName": "SADDLEBACK MEMORIAL MEDICAL CENTER",
    "contactEmail": "NCARLSON@MEMORIALCARE.ORG",
    "categoryName": "GENERAL ACUTE CARE HOSPITAL",
    "categoryCode": "GACH",
    "licenseStatus": "ACTIVE",
    "inService": true,
    "licenseNumber": "060000166",
    "licenseEffectiveDate": "10/20/2025",
    "licenseExpirationDate": "05/31/2026",
    "dataDate": "10/18/2025",
    "capacity": 248,
    "address": "24451 HEALTH CENTER DR",
    "city": "LAGUNA HILLS",
    "zip": "92653",
    "county": "ORANGE",
    "phone": "(714) 943-4072",
    "lat": 33.609024,
    "lng": -117.709119
  },
  {
    "id": "630017694",
    "name": "NAVEN HEALTH, INC.",
    "npi": null,
    "hcaiId": "406302357",
    "businessName": "NAVEN HEALTH, INC.",
    "contactEmail": "OC-PEANDL@OPTIONCARE.COM",
    "categoryName": "HOME HEALTH AGENCY",
    "categoryCode": "HHA",
    "licenseStatus": "ACTIVE",
    "inService": true,
    "licenseNumber": "550004840",
    "licenseEffectiveDate": "08/15/2025",
    "licenseExpirationDate": "08/14/2026",
    "dataDate": "10/18/2025",
    "capacity": 0,
    "address": "23046 AVENIDA DE LA CARLOTA, SUITE 600",
    "city": "LAGUNA HILLS",
    "zip": "92653",
    "county": "ORANGE",
    "phone": "(312) 940-2528",
    "lat": 33.627618,
    "lng": -117.722205
  },
  {
    "id": "630019690",
    "name": "PACIFIC ANESTHESIA SURGICAL SERVICES",
    "npi": null,
    "hcaiId": null,
    "businessName": null,
    "contactEmail": "MOBIURG@GMAIL.COM",
    "categoryName": "SURGICAL CLINIC",
    "categoryCode": "ASC",
    "licenseStatus": null,
    "inService": null,
    "licenseNumber": null,
    "licenseEffectiveDate": null,
    "licenseExpirationDate": null,
    "dataDate": "10/18/2025",
    "capacity": 0,
    "address": "23025 MILL CREEK DR",
    "city": "LAGUNA HILLS",
    "zip": "92653",
    "county": "ORANGE",
    "phone": "(949) 367-0800",
    "lat": 33.627888,
    "lng": -117.735453
  },
  {
    "id": "060000259",
    "name": "PACIFIC HILLS SURGERY CENTER, LLC",
    "npi": "1306993464",
    "hcaiId": "306304082",
    "businessName": "PACIFIC HILLS SURGERY CENTER, INC.",
    "contactEmail": "GSEXTON@TLCVISION.COM",
    "categoryName": "SURGICAL CLINIC",
    "categoryCode": "ASC",
    "licenseStatus": "INACTIVE - CAPEN DECISION",
    "inService": false,
    "licenseNumber": "060000309",
    "licenseEffectiveDate": "11/05/2008",
    "licenseExpirationDate": "11/04/2009",
    "dataDate": "10/18/2025",
    "capacity": 0,
    "address": "24022 CALLE DE LA PLATA, SUITE 180",
    "city": "LAGUNA HILLS",
    "zip": "92653",
    "county": "ORANGE",
    "phone": "(949) 458-3551",
    "lat": 33.610311,
    "lng": -117.710937
  },
  {
    "id": "630016131",
    "name": "PARENTIS HOME HEALTH",
    "npi": "1740699180",
    "hcaiId": "406304605",
    "businessName": "PARENTIS HOME HEALTH CARE, INC.",
    "contactEmail": "CECILLE.RECIO@PARENTISHEALTH.COM",
    "categoryName": "HOME HEALTH AGENCY",
    "categoryCode": "HHA",
    "licenseStatus": "ACTIVE",
    "inService": true,
    "licenseNumber": "550003448",
    "licenseEffectiveDate": "03/30/2025",
    "licenseExpirationDate": "03/29/2026",
    "dataDate": "10/18/2025",
    "capacity": 0,
    "address": "24012 CALLE DE LA PLATA, SUITE 405",
    "city": "LAGUNA HILLS",
    "zip": "92653",
    "county": "ORANGE",
    "phone": "(949) 305-2739",
    "lat": 33.609834,
    "lng": -117.7113555
  },
  {
    "id": "630016177",
    "name": "PARENTIS HOSPICE",
    "npi": "1851708853",
    "hcaiId": "406301968",
    "businessName": "PARENTIS HOSPICE AND HEALTH CARE, INC.",
    "contactEmail": "JACKIE.LLEVERINO@PARENTISHEALTH.COM",
    "categoryName": "HOSPICE",
    "categoryCode": "HOSPICE",
    "licenseStatus": "ACTIVE",
    "inService": true,
    "licenseNumber": "550003689",
    "licenseEffectiveDate": "10/17/2024",
    "licenseExpirationDate": "10/16/2026",
    "dataDate": "10/18/2025",
    "capacity": 0,
    "address": "24012 CALLE DE LA PLATA, SUITE 400",
    "city": "LAGUNA HILLS",
    "zip": "92653",
    "county": "ORANGE",
    "phone": "(949) 305-2716",
    "lat": 33.609825,
    "lng": -117.7113825
  },
  {
    "id": "630013994",
    "name": "REHABCARE",
    "npi": null,
    "hcaiId": null,
    "businessName": null,
    "contactEmail": null,
    "categoryName": "REHABILITATION CLINIC",
    "categoryCode": "OPT/SP",
    "licenseStatus": null,
    "inService": null,
    "licenseNumber": null,
    "licenseEffectiveDate": null,
    "licenseExpirationDate": null,
    "dataDate": "10/18/2025",
    "capacity": 0,
    "address": "24422 AVENIDA DE LA CARLOTA, SUITE 165",
    "city": "LAGUNA HILLS",
    "zip": "92653",
    "county": "ORANGE",
    "phone": "(949) 951-2770",
    "lat": 33.608043,
    "lng": -117.6993945
  },
  {
    "id": "080001601",
    "name": "SADDLEBACK DIALYSIS",
    "npi": "1962476606",
    "hcaiId": "306304231",
    "businessName": "DVA RENAL HEALTHCARE, INC.",
    "contactEmail": "CAL_C@DAVITA.COM",
    "categoryName": "CHRONIC DIALYSIS CLINIC",
    "categoryCode": "ESRD/CDC",
    "licenseStatus": "ACTIVE",
    "inService": true,
    "licenseNumber": "080000693",
    "licenseEffectiveDate": "06/11/2025",
    "licenseExpirationDate": "06/10/2026",
    "dataDate": "10/18/2025",
    "capacity": 25,
    "address": "23141 PLAZA POINTE DR",
    "city": "LAGUNA HILLS",
    "zip": "92653",
    "county": "ORANGE",
    "phone": "(949) 588-9211",
    "lat": 33.626133,
    "lng": -117.722853
  },
  {
    "id": "630012210",
    "name": "SADDLEBACK PAIN AND SURGICAL CENTER",
    "npi": "1942469226",
    "hcaiId": null,
    "businessName": null,
    "contactEmail": null,
    "categoryName": "SURGICAL CLINIC",
    "categoryCode": "ASC",
    "licenseStatus": null,
    "inService": null,
    "licenseNumber": null,
    "licenseEffectiveDate": null,
    "licenseExpirationDate": null,
    "dataDate": "10/18/2025",
    "capacity": 0,
    "address": "23521 PASEO DE VALENCIA, SUITE 204",
    "city": "LAGUNA HILLS",
    "zip": "92653",
    "county": "ORANGE",
    "phone": "(949) 458-2026",
    "lat": 33.611031,
    "lng": -117.7121205
  },
  {
    "id": "630013611",
    "name": "SATELLITE HEALTHCARE LAGUNA HILLS",
    "npi": "1649555707",
    "hcaiId": "306304507",
    "businessName": "SATELLITE DIALYSIS OF LAGUNA HILLS LLC",
    "contactEmail": "LICENSING@SATELLITEHEALTH.COM",
    "categoryName": "CHRONIC DIALYSIS CLINIC",
    "categoryCode": "ESRD/CDC",
    "licenseStatus": "ACTIVE",
    "inService": true,
    "licenseNumber": "550002012",
    "licenseEffectiveDate": "06/24/2025",
    "licenseExpirationDate": "06/23/2026",
    "dataDate": "10/18/2025",
    "capacity": 17,
    "address": "25251 PASEO DE ALICIA, SUITE 105",
    "city": "LAGUNA HILLS",
    "zip": "92653",
    "county": "ORANGE",
    "phone": "(562) 674-2600",
    "lat": 33.60168,
    "lng": -117.6887295
  },
  {
    "id": "630013388",
    "name": "TEAM SELECT HOME CARE",
    "npi": "1821393489",
    "hcaiId": "406304506",
    "businessName": "LAGUNA HOME HEALTH SERVICES, LLC",
    "contactEmail": "BFROMAN@TSHC.COM",
    "categoryName": "HOME HEALTH AGENCY",
    "categoryCode": "HHA",
    "licenseStatus": "ACTIVE",
    "inService": true,
    "licenseNumber": "550001966",
    "licenseEffectiveDate": "07/09/2025",
    "licenseExpirationDate": "05/01/2026",
    "dataDate": "10/18/2025",
    "capacity": 0,
    "address": "25411 CABOT RD, SUITE 205",
    "city": "LAGUNA HILLS",
    "zip": "92653",
    "county": "ORANGE",
    "phone": "(949) 707-5023",
    "lat": 33.59196,
    "lng": -117.6749415
  },
  {
    "id": "630011228",
    "name": "THE SURGICAL CENTER AT SADDLEBACK",
    "npi": "1356480099",
    "hcaiId": "306304509",
    "businessName": "MEMORIAL CARE SURGICAL CENTER AT SADDLEBACK, LLC",
    "contactEmail": null,
    "categoryName": "SURGICAL CLINIC",
    "categoryCode": "ASC",
    "licenseStatus": "INACTIVE - CAPEN DECISION",
    "inService": false,
    "licenseNumber": "550001862",
    "licenseEffectiveDate": "07/25/2012",
    "licenseExpirationDate": "01/24/2013",
    "dataDate": "10/18/2025",
    "capacity": 0,
    "address": "24411 HEALTH CENTER DR, SUITE 104",
    "city": "LAGUNA HILLS",
    "zip": "92653",
    "county": "ORANGE",
    "phone": "(949) 458-5600",
    "lat": 33.609735,
    "lng": -117.709254
  },
  {
    "id": "060000876",
    "name": "VILLA VALENCIA HEALTHCARE CENTER",
    "npi": "1346293750",
    "hcaiId": "206304068",
    "businessName": "ALHV, LLC",
    "contactEmail": "SPENCERN@ASPENHEALTH.COM",
    "categoryName": "SKILLED NURSING FACILITY",
    "categoryCode": "SNF",
    "licenseStatus": "ACTIVE",
    "inService": true,
    "licenseNumber": "060000296",
    "licenseEffectiveDate": "11/01/2025",
    "licenseExpirationDate": "10/31/2026",
    "dataDate": "10/18/2025",
    "capacity": 59,
    "address": "25000 CALLE DE LOS CABALLEROS",
    "city": "LAGUNA HILLS",
    "zip": "92653",
    "county": "ORANGE",
    "phone": "(949) 609-7540",
    "lat": 33.6077382,
    "lng": -117.7049051
  }
]