[
  {
    "id": "630017521",
    "name": "ASTER PALLIATIVE AND HOSPICE CARE",
    "npi": "1235676552",
    "hcaiId": "406191915",
    "businessName": "ALTAIR HOSPICE CARE, INC.",
    "contactEmail": "ALTAIR.HOSPICE.CARE@GMAIL.COM",
    "categoryName": "HOSPICE",
    "categoryCode": "HOSPICE",
    "licenseStatus": "ACTIVE",
    "inService": true,
    "licenseNumber": "550004867",
    "licenseEffectiveDate": "09/17/2025",
    "licenseExpirationDate": "08/01/2027",
    "dataDate": "10/18/2025",
    "capacity": 0,
    "address": "471 OLD NEWPORT BLVD, SUITE 101",
    "city": "NEWPORT BEACH",
    "zip": "92663",
    "county": "ORANGE",
    "phone": "(818) 766-2306",
    "lat": 33.62795184,
    "lng": -117.9263297
  },
  {
    "id": "060000129",
    "name": "CRYSTAL COVE CARE CENTER",
    "npi": "1720273576",
    "hcaiId": "206301290",
    "businessName": "NORWAY MAPLE HOLDINGS, LLC",
    "contactEmail": "MATT.SISCO@CRYSTALCOVECC.COM",
    "categoryName": "SKILLED NURSING FACILITY",
    "categoryCode": "SNF",
    "licenseStatus": "ACTIVE",
    "inService": true,
    "licenseNumber": "060000155",
    "licenseEffectiveDate": "06/01/2025",
    "licenseExpirationDate": "05/31/2026",
    "dataDate": "10/18/2025",
    "capacity": 96,
    "address": "1445 SUPERIOR AVE",
    "city": "NEWPORT BEACH",
    "zip": "92663",
    "county": "ORANGE",
    "phone": "(949) 515-3930",
    "lat": 33.62715,
    "lng": -117.9331605
  },
  {
    "id": "630013458",
    "name": "HOAG ENDOSCOPY CENTER",
    "npi": "1730466483",
    "hcaiId": "306304494",
    "businessName": "HOAG OUTPATIENT CENTERS, LLC",
    "contactEmail": null,
    "categoryName": "SURGICAL CLINIC",
    "categoryCode": "ASC",
    "licenseStatus": "INACTIVE - CAPEN DECISION",
    "inService": false,
    "licenseNumber": "550001859",
    "licenseEffectiveDate": "01/27/2013",
    "licenseExpirationDate": "01/26/2014",
    "dataDate": "10/18/2025",
    "capacity": 0,
    "address": "500 SUPERIOR AVE, SUITE 120",
    "city": "NEWPORT BEACH",
    "zip": "92663",
    "county": "ORANGE",
    "phone": "(949) 764-7580",
    "lat": 33.630435,
    "lng": -117.9283185
  },
  {
    "id": "060000014",
    "name": "HOAG MEMORIAL HOSPITAL PRESBYTERIAN",
    "npi": "1518951300",
    "hcaiId": "106301205",
    "businessName": "HOAG MEMORIAL HOSPITAL PRESBYTERIAN",
    "contactEmail": "MONICA.DANG@HOAG.ORG",
    "categoryName": "GENERAL ACUTE CARE HOSPITAL",
    "categoryCode": "GACH",
    "licenseStatus": "ACTIVE",
    "inService": true,
    "licenseNumber": "060000122",
    "licenseEffectiveDate": "10/15/2025",
    "licenseExpirationDate": "12/09/2025",
    "dataDate": "10/18/2025",
    "capacity": 440,
    "address": "ONE HOAG DR",
    "city": "NEWPORT BEACH",
    "zip": "92663",
    "county": "ORANGE",
    "phone": "(949) 764-8030",
    "lat": 33.625233,
    "lng": -117.931329
  },
  {
    "id": "630011316",
    "name": "NEWPORT BAY SURGERY CENTER, LLC",
    "npi": "1245372531",
    "hcaiId": null,
    "businessName": null,
    "contactEmail": "RBOORE@SAN.RR.COM",
    "categoryName": "SURGICAL CLINIC",
    "categoryCode": "ASC",
    "licenseStatus": null,
    "inService": null,
    "licenseNumber": null,
    "licenseEffectiveDate": null,
    "licenseExpirationDate": null,
    "dataDate": "10/18/2025",
    "capacity": 0,
    "address": "3333 W COAST HWY, SUITE 100",
    "city": "NEWPORT BEACH",
    "zip": "92663",
    "county": "ORANGE",
    "phone": "(858) 487-7517",
    "lat": 33.621048,
    "lng": -117.926775
  },
  {
    "id": "060001318",
    "name": "NEWPORT BEACH ORANGE COAST ENDOSCOPY CENTER",
    "npi": "1558328096",
    "hcaiId": "306304166",
    "businessName": "NEWPORT BEACH ORANGE COAST ENDOSOCOPY CENTER",
    "contactEmail": "KIMBERLY.MENDOZA@SCASURGERY.COM",
    "categoryName": "SURGICAL CLINIC",
    "categoryCode": "ASC",
    "licenseStatus": "INACTIVE - CAPEN DECISION",
    "inService": false,
    "licenseNumber": "060000399",
    "licenseEffectiveDate": "11/11/2008",
    "licenseExpirationDate": "11/10/2009",
    "dataDate": "10/18/2025",
    "capacity": 0,
    "address": "1525 SUPERIOR AVE, SUITE 114",
    "city": "NEWPORT BEACH",
    "zip": "92663",
    "county": "ORANGE",
    "phone": "(949) 646-6999",
    "lat": 33.629877,
    "lng": -117.930573
  },
  {
    "id": "060001183",
    "name": "NEWPORT BEACH SURGERY CENTER",
    "npi": null,
    "hcaiId": "306304110",
    "businessName": "NEWPORT BEACH SURGERY CENTER, LLC",
    "contactEmail": null,
    "categoryName": "SURGICAL CLINIC",
    "categoryCode": "ASC",
    "licenseStatus": "INACTIVE - CAPEN DECISION",
    "inService": false,
    "licenseNumber": "060000339",
    "licenseEffectiveDate": "12/17/2007",
    "licenseExpirationDate": "12/16/2008",
    "dataDate": "10/18/2025",
    "capacity": 0,
    "address": "361 HOSPITAL RD, SUITE 124",
    "city": "NEWPORT BEACH",
    "zip": "92663",
    "county": "ORANGE",
    "phone": "(949) 631-0988",
    "lat": 33.626196,
    "lng": -117.929466
  },
  {
    "id": "060000123",
    "name": "NEWPORT NURSING AND REHABILITATION CENTER",
    "npi": "1942204318",
    "hcaiId": "206301187",
    "businessName": "GHC OF NEWPORT BEACH, LLC",
    "contactEmail": "ROBGERKEN@LIFEGEN.NET",
    "categoryName": "SKILLED NURSING FACILITY",
    "categoryCode": "SNF",
    "licenseStatus": "ACTIVE",
    "inService": true,
    "licenseNumber": "060000116",
    "licenseEffectiveDate": "05/27/2025",
    "licenseExpirationDate": "11/30/2025",
    "dataDate": "10/18/2025",
    "capacity": 61,
    "address": "1555 SUPERIOR AVE",
    "city": "NEWPORT BEACH",
    "zip": "92663",
    "county": "ORANGE",
    "phone": "(949) 646-7764",
    "lat": 33.630957,
    "lng": -117.929313
  },
  {
    "id": "630014743",
    "name": "NEWPORT SUPERIOR DIALYSIS",
    "npi": "1275876351",
    "hcaiId": "306304546",
    "businessName": "NEWPORT SUPERIOR DIALYSIS, LLC",
    "contactEmail": "CLINIC8640@FMC-NA.COM",
    "categoryName": "CHRONIC DIALYSIS CLINIC",
    "categoryCode": "ESRD/CDC",
    "licenseStatus": "ACTIVE",
    "inService": true,
    "licenseNumber": "550002544",
    "licenseEffectiveDate": "12/26/2024",
    "licenseExpirationDate": "12/25/2025",
    "dataDate": "10/18/2025",
    "capacity": 18,
    "address": "510 SUPERIOR AVE, SUITE 150",
    "city": "NEWPORT BEACH",
    "zip": "92663",
    "county": "ORANGE",
    "phone": "(949) 309-8121",
    "lat": 33.630435,
    "lng": -117.9283185
  },
  {
    "id": "060000033",
    "name": "PELICAN RIDGE POST ACUTE",
    "npi": "1558938431",
    "hcaiId": "206301289",
    "businessName": "FLAGSHIP POST ACUTE LLC",
    "contactEmail": "ADMIN@PELICANRIDGEPOSTACUTE.COM",
    "categoryName": "SKILLED NURSING FACILITY",
    "categoryCode": "SNF",
    "licenseStatus": "ACTIVE",
    "inService": true,
    "licenseNumber": "060000154",
    "licenseEffectiveDate": "11/01/2025",
    "licenseExpirationDate": "10/31/2026",
    "dataDate": "10/18/2025",
    "capacity": 167,
    "address": "466 FLAGSHIP RD",
    "city": "NEWPORT BEACH",
    "zip": "92663",
    "county": "ORANGE",
    "phone": "(949) 642-8044",
    "lat": 33.627897,
    "lng": -117.928116
  },
  {
    "id": "630026741",
    "name": "PRIME SURGICAL CENTER OF NEWPORT BEACH, LLC",
    "npi": null,
    "hcaiId": null,
    "businessName": null,
    "contactEmail": "CAROLINET@PRIME-MSO.COM",
    "categoryName": "SURGICAL CLINIC",
    "categoryCode": "ASC",
    "licenseStatus": null,
    "inService": null,
    "licenseNumber": null,
    "licenseEffectiveDate": null,
    "licenseExpirationDate": null,
    "dataDate": "10/18/2025",
    "capacity": 0,
    "address": "351 HOSPITAL RD, SUITE 110",
    "city": "NEWPORT BEACH",
    "zip": "92663",
    "county": "ORANGE",
    "phone": "(949) 903-3210",
    "lat": 33.626313,
    "lng": -117.9286605
  },
  {
    "id": "630028117",
    "name": "QHC ADVISORS",
    "npi": null,
    "hcaiId": null,
    "businessName": "QHC LLC",
    "contactEmail": "BRENT@QHCADVISORS.COM",
    "categoryName": "REFERRAL AGENCY",
    "categoryCode": "REFRLAG",
    "licenseStatus": "ACTIVE",
    "inService": true,
    "licenseNumber": "550009998",
    "licenseEffectiveDate": "11/03/2025",
    "licenseExpirationDate": "11/02/2026",
    "dataDate": "10/18/2025",
    "capacity": 0,
    "address": "103 VIA RAVENNA",
    "city": "NEWPORT BEACH",
    "zip": "92663",
    "county": "ORANGE",
    "phone": "(949) 701-6477",
    "lat": 33.61058868,
    "lng": -117.915294
  },
  {
    "id": "630015392",
    "name": "REPRODUCTIVE SURGICAL ASSOCIATES",
    "npi": "1093046559",
    "hcaiId": null,
    "businessName": null,
    "contactEmail": null,
    "categoryName": "SURGICAL CLINIC",
    "categoryCode": "ASC",
    "licenseStatus": null,
    "inService": null,
    "licenseNumber": null,
    "licenseEffectiveDate": null,
    "licenseExpirationDate": null,
    "dataDate": "10/18/2025",
    "capacity": 0,
    "address": "500 SUPERIOR AVE, SUITE 130",
    "city": "NEWPORT BEACH",
    "zip": "92663",
    "county": "ORANGE",
    "phone": "(949) 287-5600",
    "lat": 33.630435,
    "lng": -117.9283185
  },
  {
    "id": "630016414",
    "name": "SOS BEAUCHAMP DENTAL CENTER",
    "npi": "1649648817",
    "hcaiId": "306304588",
    "businessName": "SHARE OUR SELVES CORPORATION",
    "contactEmail": "COMPLIANCE@SHAREOURSELVES.ORG",
    "categoryName": "PRIMARY CARE CLINIC",
    "categoryCode": "COMTYC",
    "licenseStatus": "ACTIVE",
    "inService": true,
    "licenseNumber": "550003359",
    "licenseEffectiveDate": "01/11/2025",
    "licenseExpirationDate": "01/10/2026",
    "dataDate": "10/18/2025",
    "capacity": 0,
    "address": "307 PLACENTIA AVENUE, SUITE 202",
    "city": "NEWPORT BEACH",
    "zip": "92663",
    "county": "ORANGE",
    "phone": "(949) 536-3987",
    "lat": 33.626178,
    "lng": -117.931464
  },
  {
    "id": "630015466",
    "name": "SOS CHILDREN AND FAMILY HEALTH CENTER",
    "npi": "1033514708",
    "hcaiId": "306304561",
    "businessName": "SHARE OUR SELVES CORPORATION",
    "contactEmail": "COMPLIANCE@SHAREOURSELVES.ORG",
    "categoryName": "PRIMARY CARE CLINIC",
    "categoryCode": "COMTYC",
    "licenseStatus": "ACTIVE",
    "inService": true,
    "licenseNumber": "550002878",
    "licenseEffectiveDate": "11/14/2024",
    "licenseExpirationDate": "11/13/2025",
    "dataDate": "10/18/2025",
    "capacity": 0,
    "address": "307 PLACENTIA AVENUE, SUITE 107",
    "city": "NEWPORT BEACH",
    "zip": "92663",
    "county": "ORANGE",
    "phone": "(949) 536-3987",
    "lat": 33.626178,
    "lng": -117.931464
  },
  {
    "id": "630027828",
    "name": "SUPERIOR SURGERY CENTER",
    "npi": null,
    "hcaiId": null,
    "businessName": null,
    "contactEmail": null,
    "categoryName": "SURGICAL CLINIC",
    "categoryCode": "ASC",
    "licenseStatus": null,
    "inService": null,
    "licenseNumber": null,
    "licenseEffectiveDate": null,
    "licenseExpirationDate": null,
    "dataDate": "10/18/2025",
    "capacity": 0,
    "address": "1501 SUPERIOR AVE, SUITE 301",
    "city": "NEWPORT BEACH",
    "zip": "92663",
    "county": "ORANGE",
    "phone": null,
    "lat": 33.629469,
    "lng": -117.930963
  }
]