[
  {
    "id": "060000090",
    "name": "ACCENTCARE HOME HEALTH OF CALIFORNIA, INC.",
    "npi": "1528014982",
    "hcaiId": "406300117",
    "businessName": "ACCENTCARE HOME HEALTH OF CALIFORNIA, INC.",
    "contactEmail": "JASONHOBBS@ACCENTCARE.COM",
    "categoryName": "HOME HEALTH AGENCY",
    "categoryCode": "HHA",
    "licenseStatus": "ACTIVE",
    "inService": true,
    "licenseNumber": "060000027",
    "licenseEffectiveDate": "12/01/2024",
    "licenseExpirationDate": "11/30/2025",
    "dataDate": "10/18/2025",
    "capacity": 0,
    "address": "3636 BIRCH ST, SUITE 195",
    "city": "NEWPORT BEACH",
    "zip": "92660",
    "county": "ORANGE",
    "phone": "(800) 249-9308",
    "lat": 33.662502,
    "lng": -117.871461
  },
  {
    "id": "630019157",
    "name": "AHPC ORANGE COUNTY, INC.",
    "npi": null,
    "hcaiId": "406306699",
    "businessName": "AHPC ORANGE COUNTY, INC.",
    "contactEmail": "AHPCORANGECOUNTY@GMAIL.COM",
    "categoryName": "HOSPICE",
    "categoryCode": "HOSPICE",
    "licenseStatus": "ACTIVE",
    "inService": true,
    "licenseNumber": "550006183",
    "licenseEffectiveDate": "04/12/2023",
    "licenseExpirationDate": "04/11/2025",
    "dataDate": "10/18/2025",
    "capacity": 0,
    "address": "5000 BIRCH ST, SUITE 3000",
    "city": "NEWPORT BEACH",
    "zip": "92660",
    "county": "ORANGE",
    "phone": "(714) 584-5805",
    "lat": 33.665157,
    "lng": -117.859509
  },
  {
    "id": "630022027",
    "name": "FIRST SOCAL HOME HEALTH",
    "npi": null,
    "hcaiId": "406195861",
    "businessName": "FIRST SOCAL HOME HEALTH",
    "contactEmail": "HHASOCAL@GMAIL.COM",
    "categoryName": "HOME HEALTH AGENCY",
    "categoryCode": "HHA",
    "licenseStatus": "ACTIVE",
    "inService": true,
    "licenseNumber": "550008016",
    "licenseEffectiveDate": "05/23/2025",
    "licenseExpirationDate": "05/22/2026",
    "dataDate": "10/18/2025",
    "capacity": 0,
    "address": "5000 BIRCH ST, SUITE STE 360",
    "city": "NEWPORT BEACH",
    "zip": "92660",
    "county": "ORANGE",
    "phone": "(949) 475-6890",
    "lat": 33.665157,
    "lng": -117.859509
  },
  {
    "id": "630019352",
    "name": "GALEA CENTER FOR ADVANCED SURGERY",
    "npi": "1912412420",
    "hcaiId": null,
    "businessName": null,
    "contactEmail": null,
    "categoryName": "SURGICAL CLINIC",
    "categoryCode": "ASC",
    "licenseStatus": null,
    "inService": null,
    "licenseNumber": null,
    "licenseEffectiveDate": null,
    "licenseExpirationDate": null,
    "dataDate": "10/18/2025",
    "capacity": 0,
    "address": "20360 SW BIRCH ST, SUITE 160",
    "city": "NEWPORT BEACH",
    "zip": "92660",
    "county": "ORANGE",
    "phone": null,
    "lat": 33.65654652,
    "lng": -117.8778839
  },
  {
    "id": "060001304",
    "name": "HOAG HOME HEALTH, LLC",
    "npi": "1689622490",
    "hcaiId": "406304394",
    "businessName": "HOAG HOME HEALTH, LLC",
    "contactEmail": "JEFF.HAMMOND@HOAG.ORG",
    "categoryName": "HOME HEALTH AGENCY",
    "categoryCode": "HHA",
    "licenseStatus": "ACTIVE",
    "inService": true,
    "licenseNumber": "060000386",
    "licenseEffectiveDate": "06/14/2025",
    "licenseExpirationDate": "06/13/2026",
    "dataDate": "10/18/2025",
    "capacity": 0,
    "address": "4041 MACARTHUR BLVD, SUITE 100",
    "city": "NEWPORT BEACH",
    "zip": "92660",
    "county": "ORANGE",
    "phone": "(949) 736-6100",
    "lat": 33.661881,
    "lng": -117.8644365
  },
  {
    "id": "630013410",
    "name": "HOAG HOSPICE, LLC",
    "npi": null,
    "hcaiId": "406304497",
    "businessName": "HOAG HOSPICE, LLC",
    "contactEmail": "ERICA.NICHOLAS@HOAG.ORG",
    "categoryName": "HOSPICE",
    "categoryCode": "HOSPICE",
    "licenseStatus": "ACTIVE",
    "inService": true,
    "licenseNumber": "550001887",
    "licenseEffectiveDate": "02/28/2024",
    "licenseExpirationDate": "02/27/2026",
    "dataDate": "10/18/2025",
    "capacity": 0,
    "address": "4041 MACARTHUR BLVD, SUITE 105",
    "city": "NEWPORT BEACH",
    "zip": "92660",
    "county": "ORANGE",
    "phone": "(949) 763-6114",
    "lat": 33.661881,
    "lng": -117.8644365
  },
  {
    "id": "060002225",
    "name": "NEWPORT CENTER SURGICAL",
    "npi": "1982880829",
    "hcaiId": "306304403",
    "businessName": "THE SURGERY CENTER OF NEWPORT COAST, LLC",
    "contactEmail": null,
    "categoryName": "SURGICAL CLINIC",
    "categoryCode": "ASC",
    "licenseStatus": "INACTIVE - CAPEN DECISION",
    "inService": false,
    "licenseNumber": "550000610",
    "licenseEffectiveDate": "10/15/2007",
    "licenseExpirationDate": "04/14/2008",
    "dataDate": "10/18/2025",
    "capacity": 0,
    "address": "17 CORPORATE PLAZA DR, SUITE 120",
    "city": "NEWPORT BEACH",
    "zip": "92660",
    "county": "ORANGE",
    "phone": "(949) 203-6088",
    "lat": 33.609402,
    "lng": -117.876348
  },
  {
    "id": "060001681",
    "name": "NEWPORT COAST SURGERY CENTER, L.P.",
    "npi": "1457324857",
    "hcaiId": "306304264",
    "businessName": "NEWPORT COAST SURGERY CENTER, L.P.",
    "contactEmail": "RCABULA@OCPAIN.COM",
    "categoryName": "SURGICAL CLINIC",
    "categoryCode": "ASC",
    "licenseStatus": "INACTIVE - CAPEN DECISION",
    "inService": false,
    "licenseNumber": "060000533",
    "licenseEffectiveDate": "02/18/2008",
    "licenseExpirationDate": "02/17/2009",
    "dataDate": "10/18/2025",
    "capacity": 0,
    "address": "1441 AVOCADO AVE, SUITE 103",
    "city": "NEWPORT BEACH",
    "zip": "92660",
    "county": "ORANGE",
    "phone": "(949) 718-3600",
    "lat": 33.613515,
    "lng": -117.869616
  },
  {
    "id": "630026437",
    "name": "NEWPORT COAST SURGICAL INSTITUTE",
    "npi": null,
    "hcaiId": null,
    "businessName": null,
    "contactEmail": "ISIDA.PHELPS@SCASURGERY.COM",
    "categoryName": "SURGICAL CLINIC",
    "categoryCode": "ASC",
    "licenseStatus": null,
    "inService": null,
    "licenseNumber": null,
    "licenseEffectiveDate": null,
    "licenseExpirationDate": null,
    "dataDate": "10/18/2025",
    "capacity": 0,
    "address": "20360 SW BIRCH ST, SUITE 110",
    "city": "NEWPORT BEACH",
    "zip": "92660",
    "county": "ORANGE",
    "phone": "(562) 292-8705",
    "lat": 33.65654652,
    "lng": -117.8778839
  },
  {
    "id": "630015773",
    "name": "NEWPORT IRVINE DIALYSIS",
    "npi": null,
    "hcaiId": "306304624",
    "businessName": "WALCOTT DIALYSIS LLC",
    "contactEmail": "CAL_C@DAVITA.COM",
    "categoryName": "CHRONIC DIALYSIS CLINIC",
    "categoryCode": "ESRD/CDC",
    "licenseStatus": "ACTIVE",
    "inService": true,
    "licenseNumber": "550003126",
    "licenseEffectiveDate": "06/23/2025",
    "licenseExpirationDate": "06/22/2026",
    "dataDate": "10/18/2025",
    "capacity": 17,
    "address": "4300 VON KARMAN AVE",
    "city": "NEWPORT BEACH",
    "zip": "92660",
    "county": "ORANGE",
    "phone": "(949) 863-1382",
    "lat": 33.663375,
    "lng": -117.861291
  },
  {
    "id": "060002121",
    "name": "NEWPORT MULTISPECIALTY SURGERY CENTER, LLC.",
    "npi": "1285664466",
    "hcaiId": null,
    "businessName": null,
    "contactEmail": "KJONES@UNITEDSURGERY.ORG",
    "categoryName": "SURGICAL CLINIC",
    "categoryCode": "ASC",
    "licenseStatus": null,
    "inService": null,
    "licenseNumber": null,
    "licenseEffectiveDate": null,
    "licenseExpirationDate": null,
    "dataDate": "10/18/2025",
    "capacity": 0,
    "address": "400 NEWPORT CENTER DR, SUITE 102",
    "city": "NEWPORT BEACH",
    "zip": "92660",
    "county": "ORANGE",
    "phone": "(949) 644-1641",
    "lat": 33.614154,
    "lng": -117.872379
  },
  {
    "id": "630011309",
    "name": "ORANGE COAST SURGICAL CENTER, INC.",
    "npi": "1598791923",
    "hcaiId": null,
    "businessName": null,
    "contactEmail": null,
    "categoryName": "SURGICAL CLINIC",
    "categoryCode": "ASC",
    "licenseStatus": null,
    "inService": null,
    "licenseNumber": null,
    "licenseEffectiveDate": null,
    "licenseExpirationDate": null,
    "dataDate": "10/18/2025",
    "capacity": 0,
    "address": "240 NEWPORT CENTER DR, SUITE 105",
    "city": "NEWPORT BEACH",
    "zip": "92660",
    "county": "ORANGE",
    "phone": "(949) 544-2450",
    "lat": 33.611211,
    "lng": -117.8741745
  },
  {
    "id": "060001655",
    "name": "ORTHOPEDIC SURGERY CENTER OF ORANGE COUNTY, LLC",
    "npi": "1386647527",
    "hcaiId": "306304379",
    "businessName": "ORTHOPEDIC SURGERY CENTER OF OC, LLC",
    "contactEmail": "GWHITE@OSCOC.COM",
    "categoryName": "SURGICAL CLINIC",
    "categoryCode": "ASC",
    "licenseStatus": "INACTIVE - CAPEN DECISION",
    "inService": false,
    "licenseNumber": "060000520",
    "licenseEffectiveDate": "05/07/2008",
    "licenseExpirationDate": "05/06/2009",
    "dataDate": "10/18/2025",
    "capacity": 0,
    "address": "22 CORPORATE PLAZA DR, SUITE 150",
    "city": "NEWPORT BEACH",
    "zip": "92660",
    "county": "ORANGE",
    "phone": "(949) 515-0708",
    "lat": 33.60762,
    "lng": -117.8764425
  },
  {
    "id": "630025019",
    "name": "PEGASUS SURGERY CENTER, LLC",
    "npi": null,
    "hcaiId": null,
    "businessName": null,
    "contactEmail": "MTASSOS@PEGASUSSURGERYCENTER.COM",
    "categoryName": "SURGICAL CLINIC",
    "categoryCode": "ASC",
    "licenseStatus": null,
    "inService": null,
    "licenseNumber": null,
    "licenseEffectiveDate": null,
    "licenseExpirationDate": null,
    "dataDate": "10/18/2025",
    "capacity": 0,
    "address": "20162 SW BIRCH ST, SUITE 100",
    "city": "NEWPORT BEACH",
    "zip": "92660",
    "county": "ORANGE",
    "phone": "(949) 508-1198",
    "lat": 33.658614,
    "lng": -117.87534
  },
  {
    "id": "630024820",
    "name": "PRECISION SURGICAL ARTS",
    "npi": "1811501661",
    "hcaiId": null,
    "businessName": null,
    "contactEmail": null,
    "categoryName": "SURGICAL CLINIC",
    "categoryCode": "ASC",
    "licenseStatus": null,
    "inService": null,
    "licenseNumber": null,
    "licenseEffectiveDate": null,
    "licenseExpirationDate": null,
    "dataDate": "10/18/2025",
    "capacity": 0,
    "address": "20311 SW BIRCH ST, SUITE 210",
    "city": "NEWPORT BEACH",
    "zip": "92660",
    "county": "ORANGE",
    "phone": null,
    "lat": 33.657219,
    "lng": -117.877941
  },
  {
    "id": "630015732",
    "name": "RECONSTRUCTIVE SURGERY CENTER OF NEWPORT BEACH, INC",
    "npi": "1437592169",
    "hcaiId": null,
    "businessName": null,
    "contactEmail": null,
    "categoryName": "SURGICAL CLINIC",
    "categoryCode": "ASC",
    "licenseStatus": null,
    "inService": null,
    "licenseNumber": null,
    "licenseEffectiveDate": null,
    "licenseExpirationDate": null,
    "dataDate": "10/18/2025",
    "capacity": 0,
    "address": "180 NEWPORT CENTER DRIVE, SUITE 150",
    "city": "NEWPORT BEACH",
    "zip": "92660",
    "county": "ORANGE",
    "phone": "(949) 719-1800",
    "lat": 33.610761,
    "lng": -117.875466
  },
  {
    "id": "630012516",
    "name": "SKIN CANCER AND RECONSTRUCTIVE SURGERY CENTER, LLC",
    "npi": "1265676993",
    "hcaiId": null,
    "businessName": null,
    "contactEmail": null,
    "categoryName": "SURGICAL CLINIC",
    "categoryCode": "ASC",
    "licenseStatus": null,
    "inService": null,
    "licenseNumber": null,
    "licenseEffectiveDate": null,
    "licenseExpirationDate": null,
    "dataDate": "10/18/2025",
    "capacity": 0,
    "address": "180 NEWPORT CENTER DR, SUITE 180",
    "city": "NEWPORT BEACH",
    "zip": "92660",
    "county": "ORANGE",
    "phone": "(949) 220-1600",
    "lat": 33.610761,
    "lng": -117.875466
  },
  {
    "id": "060001043",
    "name": "STARPOINT HEALTH",
    "npi": "1669660817",
    "hcaiId": "306304056",
    "businessName": "SPH - IRVINE, LLC",
    "contactEmail": null,
    "categoryName": "SURGICAL CLINIC",
    "categoryCode": "ASC",
    "licenseStatus": "INACTIVE - CAPEN DECISION",
    "inService": false,
    "licenseNumber": "060000281",
    "licenseEffectiveDate": "12/01/2007",
    "licenseExpirationDate": "11/30/2008",
    "dataDate": "10/18/2025",
    "capacity": 0,
    "address": "20360 SW BIRCH ST, SUITE 110",
    "city": "NEWPORT BEACH",
    "zip": "92660",
    "county": "ORANGE",
    "phone": "(949) 833-1432",
    "lat": 33.65654652,
    "lng": -117.8778839
  }
]