[
  {
    "id": "060001315",
    "name": "CALLE SONORA PLACE",
    "npi": "1689714214",
    "hcaiId": null,
    "businessName": "C.L.O., INC.",
    "contactEmail": "CLO-INC@COX.NET",
    "categoryName": "INTERMEDIATE CARE FACILITY-DD/H/N/CN/IID",
    "categoryCode": "ICFDDN",
    "licenseStatus": "ACTIVE",
    "inService": true,
    "licenseNumber": "060000395",
    "licenseEffectiveDate": "11/28/2024",
    "licenseExpirationDate": "11/27/2025",
    "dataDate": "10/18/2025",
    "capacity": 6,
    "address": "201 CALLE SONORA",
    "city": "SAN CLEMENTE",
    "zip": "92672",
    "county": "ORANGE",
    "phone": "(949) 292-5851",
    "lat": 33.431742,
    "lng": -117.6057045
  },
  {
    "id": "630014916",
    "name": "PREGNANCY RESOURCE CENTER",
    "npi": null,
    "hcaiId": "306304556",
    "businessName": "AGAPE PREGNANCY CENTERS, INC.",
    "contactEmail": "ADMIN@PRCMEDICALCLINIC.COM",
    "categoryName": "PRIMARY CARE CLINIC",
    "categoryCode": "COMTYC",
    "licenseStatus": "ACTIVE",
    "inService": true,
    "licenseNumber": "550002835",
    "licenseEffectiveDate": "10/08/2025",
    "licenseExpirationDate": "10/07/2026",
    "dataDate": "10/18/2025",
    "capacity": 0,
    "address": "416 AVENIDA DE LA ESTRELLA",
    "city": "SAN CLEMENTE",
    "zip": "92672",
    "county": "ORANGE",
    "phone": "(949) 218-5777",
    "lat": 33.429726,
    "lng": -117.614376
  },
  {
    "id": "630017345",
    "name": "PREGNANCY RESOURCE CENTER MOBILE MEDICAL UNIT",
    "npi": null,
    "hcaiId": null,
    "businessName": "AGAPE PREGNANCY CENTERS, INC.",
    "contactEmail": null,
    "categoryName": "PRIMARY CARE CLINIC",
    "categoryCode": "COMTYC",
    "licenseStatus": "ACTIVE",
    "inService": true,
    "licenseNumber": "550002835",
    "licenseEffectiveDate": "10/08/2025",
    "licenseExpirationDate": "10/07/2026",
    "dataDate": "10/18/2025",
    "capacity": 0,
    "address": "416 AVENIDA DE LA ESTRELLA",
    "city": "SAN CLEMENTE",
    "zip": "92672",
    "county": "ORANGE",
    "phone": null,
    "lat": 33.429726,
    "lng": -117.614376
  }
]