[
  {
    "id": "060001021",
    "name": "AESTHETICARE OUTPATIENT SURGERY CENTER",
    "npi": "1427275429",
    "hcaiId": "306304093",
    "businessName": "AESTHETICARE MEDICAL CORPORATION",
    "contactEmail": "INFO@AESTHETICARE.COM",
    "categoryName": "SURGICAL CLINIC",
    "categoryCode": "ASC/SURGC",
    "licenseStatus": "ACTIVE",
    "inService": true,
    "licenseNumber": "060000321",
    "licenseEffectiveDate": "04/03/2025",
    "licenseExpirationDate": "04/02/2026",
    "dataDate": "10/18/2025",
    "capacity": 0,
    "address": "30260 RANCHO VIEJO RD",
    "city": "SAN JUAN CAPISTRANO",
    "zip": "92675",
    "county": "ORANGE",
    "phone": "(949) 661-1700",
    "lat": 33.523218,
    "lng": -117.6650505
  },
  {
    "id": "630016516",
    "name": "CABRILLO HOSPICE",
    "npi": "1518322593",
    "hcaiId": "406301554",
    "businessName": "SOUTH COUNTY HOSPICE, INC.",
    "contactEmail": "DSPENCER@CABRILLOGROUP.COM",
    "categoryName": "HOSPICE",
    "categoryCode": "HOSPICE",
    "licenseStatus": "ACTIVE",
    "inService": true,
    "licenseNumber": "550003755",
    "licenseEffectiveDate": "01/05/2025",
    "licenseExpirationDate": "01/04/2027",
    "dataDate": "10/18/2025",
    "capacity": 0,
    "address": "32332 CAMINO CAPISTRANO, SUITE 201",
    "city": "SAN JUAN CAPISTRANO",
    "zip": "92675",
    "county": "ORANGE",
    "phone": "(858) 345-3267",
    "lat": 33.492987,
    "lng": -117.662283
  },
  {
    "id": "060000497",
    "name": "CAMINO HEALTH CENTER",
    "npi": "1366560393",
    "hcaiId": "306304335",
    "businessName": "CAMINO HEALTH CENTER",
    "contactEmail": "JELKINS@CAMINOHC.ORG",
    "categoryName": "PRIMARY CARE CLINIC",
    "categoryCode": "COMTYC",
    "licenseStatus": "ACTIVE",
    "inService": true,
    "licenseNumber": "060000060",
    "licenseEffectiveDate": "11/01/2025",
    "licenseExpirationDate": "10/31/2026",
    "dataDate": "10/18/2025",
    "capacity": 0,
    "address": "30300 CAMINO CAPISTRANO",
    "city": "SAN JUAN CAPISTRANO",
    "zip": "92675",
    "county": "ORANGE",
    "phone": "(949) 240-2030",
    "lat": 33.523029,
    "lng": -117.668025
  },
  {
    "id": "630017736",
    "name": "FRESENIUS MEDICAL CARE SAN JUAN CAPISTRANO",
    "npi": null,
    "hcaiId": "306300433",
    "businessName": "FRESENIUS MEDICAL CARE SAN JUAN CAPISTRANO, LLC",
    "contactEmail": "CLINIC100171@FMC-NA.COM",
    "categoryName": "CHRONIC DIALYSIS CLINIC",
    "categoryCode": "ESRD/CDC",
    "licenseStatus": "ACTIVE",
    "inService": true,
    "licenseNumber": "550004595",
    "licenseEffectiveDate": "03/21/2025",
    "licenseExpirationDate": "03/20/2026",
    "dataDate": "10/18/2025",
    "capacity": 16,
    "address": "31001 RANCHO VIEJO RD, SUITE 100",
    "city": "SAN JUAN CAPISTRANO",
    "zip": "92675",
    "county": "ORANGE",
    "phone": "(949) 240-0221",
    "lat": 33.509529,
    "lng": -117.6600195
  },
  {
    "id": "080001588",
    "name": "SAN JUAN CAPISTRANO SOUTH DIALYSIS",
    "npi": "1447226204",
    "hcaiId": "306300232",
    "businessName": "DVA RENAL HEALTHCARE, INC.",
    "contactEmail": "CAL_C@DAVITA.COM",
    "categoryName": "CHRONIC DIALYSIS CLINIC",
    "categoryCode": "ESRD/CDC",
    "licenseStatus": "ACTIVE",
    "inService": true,
    "licenseNumber": "080000680",
    "licenseEffectiveDate": "06/11/2025",
    "licenseExpirationDate": "06/10/2026",
    "dataDate": "10/18/2025",
    "capacity": 18,
    "address": "31736 RANCHO VIEJO RD, SUITE D",
    "city": "SAN JUAN CAPISTRANO",
    "zip": "92675",
    "county": "ORANGE",
    "phone": "(949) 240-1454",
    "lat": 33.502563,
    "lng": -117.652545
  },
  {
    "id": "060001680",
    "name": "SAN JUAN HILLS HEALTHCARE CENTER",
    "npi": null,
    "hcaiId": "206304158",
    "businessName": "ASRV, LLC",
    "contactEmail": "SPENCERN@VILLAVALENCIAREHAB.COM",
    "categoryName": "SKILLED NURSING FACILITY",
    "categoryCode": "SNF",
    "licenseStatus": "ACTIVE",
    "inService": true,
    "licenseNumber": "060000526",
    "licenseEffectiveDate": "01/30/2025",
    "licenseExpirationDate": "01/29/2026",
    "dataDate": "10/18/2025",
    "capacity": 45,
    "address": "31741 RANCHO VIEJO RD",
    "city": "SAN JUAN CAPISTRANO",
    "zip": "92675",
    "county": "ORANGE",
    "phone": "(949) 248-8855",
    "lat": 33.501105,
    "lng": -117.653724
  },
  {
    "id": "630020408",
    "name": "TRANSITION CARE TELEMETRY, INC.",
    "npi": null,
    "hcaiId": "406303108",
    "businessName": "TRANSITION CARE TELEMETRY, INC",
    "contactEmail": "PAMELA.MANGEN@TCTHEALTH.COM",
    "categoryName": "HOME HEALTH AGENCY",
    "categoryCode": "HHA",
    "licenseStatus": "ACTIVE",
    "inService": true,
    "licenseNumber": "550006146",
    "licenseEffectiveDate": "03/31/2025",
    "licenseExpirationDate": "03/30/2026",
    "dataDate": "10/18/2025",
    "capacity": 0,
    "address": "30320 RANCHO VIEJO RD, SUITE 13",
    "city": "SAN JUAN CAPISTRANO",
    "zip": "92675",
    "county": "ORANGE",
    "phone": "(888) 757-2018",
    "lat": 33.522033,
    "lng": -117.6669866
  },
  {
    "id": "630020738",
    "name": "TRANSITION CARE TELEMETRY, INC.",
    "npi": null,
    "hcaiId": "406307426",
    "businessName": "TRANSITION CARE TELEMETRY, INC",
    "contactEmail": "PAMELA.MANGEN@TCTHEALTH.COM",
    "categoryName": "HOSPICE",
    "categoryCode": "HOSPICE",
    "licenseStatus": "ACTIVE",
    "inService": true,
    "licenseNumber": "550007175",
    "licenseEffectiveDate": "11/11/2023",
    "licenseExpirationDate": "11/10/2025",
    "dataDate": "10/18/2025",
    "capacity": 0,
    "address": "30320 RANCHO VIEJO RD, SUITE 12",
    "city": "SAN JUAN CAPISTRANO",
    "zip": "92675",
    "county": "ORANGE",
    "phone": "(888) 757-2018",
    "lat": 33.521761,
    "lng": -117.665208
  },
  {
    "id": "630014320",
    "name": "WEST COAST HEALTHCARE, LLC",
    "npi": null,
    "hcaiId": "406304545",
    "businessName": "WEST COAST HEALTHCARE, LLC",
    "contactEmail": "DEREK.COLLETTE@WESTCOASTHOSPICECARE.COM",
    "categoryName": "HOSPICE",
    "categoryCode": "HOSPICE",
    "licenseStatus": "ACTIVE",
    "inService": true,
    "licenseNumber": "550002542",
    "licenseEffectiveDate": "01/16/2024",
    "licenseExpirationDate": "01/15/2026",
    "dataDate": "10/18/2025",
    "capacity": 0,
    "address": "29222 RANCHO VIEJO ROAD, SUITE 102",
    "city": "SAN JUAN CAPISTRANO",
    "zip": "92675",
    "county": "ORANGE",
    "phone": "(714) 464-2850",
    "lat": 33.539058,
    "lng": -117.672921
  },
  {
    "id": "630015639",
    "name": "WEST COAST HOME HEALTH",
    "npi": null,
    "hcaiId": "406300930",
    "businessName": "WEST COAST HOME HEALTH LLC",
    "contactEmail": "DEREKCOLLETTE@GMAIL.COM",
    "categoryName": "HOME HEALTH AGENCY",
    "categoryCode": "HHA",
    "licenseStatus": "ACTIVE",
    "inService": true,
    "licenseNumber": "550003295",
    "licenseEffectiveDate": "12/07/2024",
    "licenseExpirationDate": "12/06/2025",
    "dataDate": "10/18/2025",
    "capacity": 0,
    "address": "29222 RANCHO VIEJO RD, SUITE 201",
    "city": "SAN JUAN CAPISTRANO",
    "zip": "92675",
    "county": "ORANGE",
    "phone": "(949) 535-0566",
    "lat": 33.53888598,
    "lng": -117.672739
  }
]