[
  {
    "id": "630027303",
    "name": "ALL FOR HEALTH, HEALTH FOR ALL, INC.",
    "npi": null,
    "hcaiId": null,
    "businessName": "ALL FOR HEALTH, HEALTH FOR ALL, INC.",
    "contactEmail": "AEBRAHIMIAN@ALL4HEALTH.ORG",
    "categoryName": "PRIMARY CARE CLINIC",
    "categoryCode": "FQHC/COMTYC",
    "licenseStatus": "ACTIVE",
    "inService": true,
    "licenseNumber": "550008780",
    "licenseEffectiveDate": "10/26/2025",
    "licenseExpirationDate": "10/25/2026",
    "dataDate": "10/18/2025",
    "capacity": 0,
    "address": "25500 RANCHO NIGUEL RD, SUITE 250",
    "city": "LAGUNA NIGUEL",
    "zip": "92677",
    "county": "ORANGE",
    "phone": "(818) 433-2449",
    "lat": 33.5554525,
    "lng": -117.6870701
  },
  {
    "id": "630011878",
    "name": "LAGUNA NIGUEL SURGERY CENTER",
    "npi": "1134318983",
    "hcaiId": null,
    "businessName": null,
    "contactEmail": null,
    "categoryName": "SURGICAL CLINIC",
    "categoryCode": "ASC",
    "licenseStatus": null,
    "inService": null,
    "licenseNumber": null,
    "licenseEffectiveDate": null,
    "licenseExpirationDate": null,
    "dataDate": "10/18/2025",
    "capacity": 0,
    "address": "27882 FORBES RD, SUITE 203",
    "city": "LAGUNA NIGUEL",
    "zip": "92677",
    "county": "ORANGE",
    "phone": "(949) 347-2400",
    "lat": 33.557499,
    "lng": -117.675657
  },
  {
    "id": "060001313",
    "name": "VIA LARGA PLACE",
    "npi": "1689714214",
    "hcaiId": null,
    "businessName": "C.L.O., INC.",
    "contactEmail": "CLO-INC@COX.NET",
    "categoryName": "INTERMEDIATE CARE FACILITY-DD/H/N/CN/IID",
    "categoryCode": "ICFDDN",
    "licenseStatus": "ACTIVE",
    "inService": true,
    "licenseNumber": "060000403",
    "licenseEffectiveDate": "12/29/2024",
    "licenseExpirationDate": "12/28/2025",
    "dataDate": "10/18/2025",
    "capacity": 6,
    "address": "24761 VIA LARGA",
    "city": "LAGUNA NIGUEL",
    "zip": "92677",
    "county": "ORANGE",
    "phone": "(949) 292-5851",
    "lat": 33.532299,
    "lng": -117.697788
  }
]