[
  {
    "id": "630013902",
    "name": "AMADA HOME HEALTH",
    "npi": null,
    "hcaiId": "406304566",
    "businessName": "AMADA HOME HEALTH, INC.",
    "contactEmail": "LYNN@AMADACONCIERGECARE.COM",
    "categoryName": "HOME HEALTH AGENCY",
    "categoryCode": "HHA",
    "licenseStatus": "ACTIVE",
    "inService": true,
    "licenseNumber": "550002954",
    "licenseEffectiveDate": "08/25/2025",
    "licenseExpirationDate": "08/24/2026",
    "dataDate": "10/18/2025",
    "capacity": 0,
    "address": "901 CALLE AMANECER, SUITE 360",
    "city": "SAN CLEMENTE",
    "zip": "92673",
    "county": "ORANGE",
    "phone": "(949) 544-1538",
    "lat": 33.449184,
    "lng": -117.6083505
  },
  {
    "id": "630023828",
    "name": "CAMINO HEALTH CENTER - SAN CLEMENTE",
    "npi": "1366560393",
    "hcaiId": null,
    "businessName": "CAMINO HEALTH CENTER",
    "contactEmail": "RSMITH@CAMINOHC.ORG",
    "categoryName": "PRIMARY CARE CLINIC",
    "categoryCode": "COMTYC",
    "licenseStatus": "ACTIVE",
    "inService": true,
    "licenseNumber": "060000060",
    "licenseEffectiveDate": "11/01/2025",
    "licenseExpirationDate": "10/31/2026",
    "dataDate": "10/18/2025",
    "capacity": 0,
    "address": "1300 AVENIDA VISTA HERMOSA, SUITE 250",
    "city": "SAN CLEMENTE",
    "zip": "92673",
    "county": "ORANGE",
    "phone": "(949) 240-2030",
    "lat": 33.458157,
    "lng": -117.592254
  },
  {
    "id": "060001482",
    "name": "PACIFICOAST AMBULATORY SURGICENTER",
    "npi": "1669405684",
    "hcaiId": null,
    "businessName": null,
    "contactEmail": null,
    "categoryName": "SURGICAL CLINIC",
    "categoryCode": "ASC",
    "licenseStatus": null,
    "inService": null,
    "licenseNumber": null,
    "licenseEffectiveDate": null,
    "licenseExpirationDate": null,
    "dataDate": "10/18/2025",
    "capacity": 0,
    "address": "665 CAMINO DE LOS MARES, SUITE 100C",
    "city": "SAN CLEMENTE",
    "zip": "92673",
    "county": "ORANGE",
    "phone": "(949) 496-2202",
    "lat": 33.457419,
    "lng": -117.6482115
  },
  {
    "id": "630011900",
    "name": "WEST COAST CENTER FOR SURGERIES",
    "npi": "1295918977",
    "hcaiId": null,
    "businessName": null,
    "contactEmail": null,
    "categoryName": "SURGICAL CLINIC",
    "categoryCode": "ASC",
    "licenseStatus": null,
    "inService": null,
    "licenseNumber": null,
    "licenseEffectiveDate": null,
    "licenseExpirationDate": null,
    "dataDate": "10/18/2025",
    "capacity": 0,
    "address": "653 CAMINO DE LOS MARES, SUITE 101",
    "city": "SAN CLEMENTE",
    "zip": "92673",
    "county": "ORANGE",
    "phone": "(949) 489-2218",
    "lat": 33.457914,
    "lng": -117.649323
  }
]