[
  {
    "id": "630014271",
    "name": "1 & 1 HOME HEALTH, INC.",
    "npi": "1962743146",
    "hcaiId": "406304538",
    "businessName": "1 & 1 HOME HEALTH, INC.",
    "contactEmail": "INFO@1AND1HC.COM",
    "categoryName": "HOME HEALTH AGENCY",
    "categoryCode": "HHA",
    "licenseStatus": "ACTIVE",
    "inService": true,
    "licenseNumber": "550002347",
    "licenseEffectiveDate": "07/30/2025",
    "licenseExpirationDate": "07/29/2026",
    "dataDate": "10/18/2025",
    "capacity": 0,
    "address": "8291 WESTMINSTER BLVD, SUITE 250A",
    "city": "WESTMINSTER",
    "zip": "92683",
    "county": "ORANGE",
    "phone": "(800) 940-7659",
    "lat": 33.75987,
    "lng": -117.9843
  },
  {
    "id": "630011756",
    "name": "24/7 CARE AT HOME - HOME HEALTH",
    "npi": "1447448519",
    "hcaiId": "406304434",
    "businessName": "VINA HOLDINGS, INC.",
    "contactEmail": "INFO@HHA247.COM",
    "categoryName": "HOME HEALTH AGENCY",
    "categoryCode": "HHA",
    "licenseStatus": "ACTIVE",
    "inService": true,
    "licenseNumber": "550000864",
    "licenseEffectiveDate": "01/16/2025",
    "licenseExpirationDate": "01/15/2026",
    "dataDate": "10/18/2025",
    "capacity": 0,
    "address": "13800 ARIZONA ST, SUITE 200",
    "city": "WESTMINSTER",
    "zip": "92683",
    "county": "ORANGE",
    "phone": "(714) 622-5334",
    "lat": 33.761808,
    "lng": -117.9950985
  },
  {
    "id": "630014282",
    "name": "24/7 CARE AT HOME - HOSPICE",
    "npi": "1366782484",
    "hcaiId": "406304541",
    "businessName": "247 HOSPICE - ORANGE COUNTY, INC.",
    "contactEmail": "OC@247HOSPICE.COM",
    "categoryName": "HOSPICE",
    "categoryCode": "HOSPICE",
    "licenseStatus": "ACTIVE",
    "inService": true,
    "licenseNumber": "550002430",
    "licenseEffectiveDate": "09/24/2025",
    "licenseExpirationDate": "09/23/2027",
    "dataDate": "10/18/2025",
    "capacity": 0,
    "address": "8291 WESTMINSTER BLVD, SUITE 250B",
    "city": "WESTMINSTER",
    "zip": "92683",
    "county": "ORANGE",
    "phone": "(714) 464-7777",
    "lat": 33.75987,
    "lng": -117.9843
  },
  {
    "id": "060002072",
    "name": "ABC WESTMINSTER DAY HEALTH CENTER",
    "npi": null,
    "hcaiId": null,
    "businessName": "MAGNOLIA ADULT DAY HEALTH CARE, INC.",
    "contactEmail": "GINATRUONG@GMAIL.COM",
    "categoryName": "ADULT DAY HEALTH CARE",
    "categoryCode": "ADHC",
    "licenseStatus": "ACTIVE",
    "inService": true,
    "licenseNumber": "060000890",
    "licenseEffectiveDate": "04/01/2025",
    "licenseExpirationDate": "03/31/2026",
    "dataDate": "10/18/2025",
    "capacity": 0,
    "address": "202 HOSPITAL CIR",
    "city": "WESTMINSTER",
    "zip": "92683",
    "county": "ORANGE",
    "phone": "(714) 894-5880",
    "lat": 33.762123,
    "lng": -117.9951255
  },
  {
    "id": "630027372",
    "name": "ALTAMED DENTAL GROUP AT JOHN MARSHALL ELEMENTARY SCHOOL",
    "npi": "1306015425",
    "hcaiId": null,
    "businessName": "ALTAMED HEALTH SERVICES CORPORATION",
    "contactEmail": null,
    "categoryName": "PRIMARY CARE CLINIC",
    "categoryCode": "COMTYC",
    "licenseStatus": "ACTIVE",
    "inService": true,
    "licenseNumber": "060000194",
    "licenseEffectiveDate": "02/13/2025",
    "licenseExpirationDate": "02/12/2026",
    "dataDate": "10/18/2025",
    "capacity": 0,
    "address": "15791 BUSHARD ST",
    "city": "WESTMINSTER",
    "zip": "92683",
    "county": "ORANGE",
    "phone": null,
    "lat": 33.73308299,
    "lng": -117.964071
  },
  {
    "id": "060001487",
    "name": "BOLSA OUT-PATIENT SURGERY CENTER",
    "npi": "1962500454",
    "hcaiId": null,
    "businessName": null,
    "contactEmail": null,
    "categoryName": "SURGICAL CLINIC",
    "categoryCode": "ASC",
    "licenseStatus": null,
    "inService": null,
    "licenseNumber": null,
    "licenseEffectiveDate": null,
    "licenseExpirationDate": null,
    "dataDate": "10/18/2025",
    "capacity": 0,
    "address": "10362 BOLSA AVE",
    "city": "WESTMINSTER",
    "zip": "92683",
    "county": "ORANGE",
    "phone": "(714) 531-2091",
    "lat": 33.744699,
    "lng": -117.9479925
  },
  {
    "id": "630014868",
    "name": "COMPASSIONATE HEALTH HOSPICE, INC.",
    "npi": "1518398221",
    "hcaiId": "406304565",
    "businessName": "COMPASSIONATE HEALTH HOSPICE, INC.",
    "contactEmail": "INFO@COMPASSIONATEHEALTHHOSPICE.COM",
    "categoryName": "HOSPICE",
    "categoryCode": "HOSPICE",
    "licenseStatus": "ACTIVE",
    "inService": true,
    "licenseNumber": "550002757",
    "licenseEffectiveDate": "07/02/2025",
    "licenseExpirationDate": "06/22/2026",
    "dataDate": "10/18/2025",
    "capacity": 0,
    "address": "7838 WESTMINSTER BLVD",
    "city": "WESTMINSTER",
    "zip": "92683",
    "county": "ORANGE",
    "phone": "(714) 740-7188",
    "lat": 33.758949,
    "lng": -117.992327
  },
  {
    "id": "060000167",
    "name": "EXTENDED CARE HOSPITAL OF WESTMINSTER",
    "npi": "1700987922",
    "hcaiId": "206300212",
    "businessName": "EXTENDED CARE HOSPITAL OF WESTMINSTER",
    "contactEmail": null,
    "categoryName": "SKILLED NURSING FACILITY",
    "categoryCode": "SNF",
    "licenseStatus": "ACTIVE",
    "inService": true,
    "licenseNumber": "060000057",
    "licenseEffectiveDate": "03/01/2025",
    "licenseExpirationDate": "02/28/2026",
    "dataDate": "10/18/2025",
    "capacity": 99,
    "address": "206 HOSPITAL CIR",
    "city": "WESTMINSTER",
    "zip": "92683",
    "county": "ORANGE",
    "phone": "(714) 891-2769",
    "lat": 33.761592,
    "lng": -117.9946125
  },
  {
    "id": "630027384",
    "name": "GOLDEN LIFE CBAS",
    "npi": null,
    "hcaiId": null,
    "businessName": "GOLDEN LIFE ADULT DAY CARE SERVICES",
    "contactEmail": "GOLDENLIFEADCS@GMAIL.COM",
    "categoryName": "ADULT DAY HEALTH CARE",
    "categoryCode": "ADHC",
    "licenseStatus": "ACTIVE",
    "inService": true,
    "licenseNumber": "550009148",
    "licenseEffectiveDate": "05/21/2025",
    "licenseExpirationDate": "05/20/2026",
    "dataDate": "10/18/2025",
    "capacity": 0,
    "address": "14361 BEACH BLVD, SUITE 108",
    "city": "WESTMINSTER",
    "zip": "92683",
    "county": "ORANGE",
    "phone": "(714) 767-5566",
    "lat": 33.753363,
    "lng": -117.9902
  },
  {
    "id": "630014876",
    "name": "HOSPITAL CIRCLE SURGERY CENTER",
    "npi": "1275883514",
    "hcaiId": null,
    "businessName": null,
    "contactEmail": null,
    "categoryName": "SURGICAL CLINIC",
    "categoryCode": "ASC",
    "licenseStatus": null,
    "inService": null,
    "licenseNumber": null,
    "licenseEffectiveDate": null,
    "licenseExpirationDate": null,
    "dataDate": "10/18/2025",
    "capacity": 0,
    "address": "210 HOSPITAL CIR, SUITE D",
    "city": "WESTMINSTER",
    "zip": "92683",
    "county": "ORANGE",
    "phone": "(714) 478-2525",
    "lat": 33.762105,
    "lng": -117.994455
  },
  {
    "id": "630028087",
    "name": "HOUSE OF HOPES",
    "npi": null,
    "hcaiId": null,
    "businessName": "HOUSE OF HOPES LLC",
    "contactEmail": "DUKENGO2603@GMAIL.COM",
    "categoryName": "CONGREGATE LIVING HEALTH FACILITY",
    "categoryCode": "CLHF",
    "licenseStatus": "ACTIVE",
    "inService": true,
    "licenseNumber": "550009894",
    "licenseEffectiveDate": "07/21/2025",
    "licenseExpirationDate": "01/20/2026",
    "dataDate": "10/18/2025",
    "capacity": 6,
    "address": "9621 WESTWOOD DR",
    "city": "WESTMINSTER",
    "zip": "92683",
    "county": "ORANGE",
    "phone": "(714) 808-3539",
    "lat": 33.73323307,
    "lng": -117.9610037
  },
  {
    "id": "630018403",
    "name": "INTEGRATED COMMUNITY SERVICES - WESTMINSTER",
    "npi": null,
    "hcaiId": null,
    "businessName": null,
    "contactEmail": null,
    "categoryName": "PRIMARY CARE CLINIC",
    "categoryCode": "FQHC",
    "licenseStatus": null,
    "inService": null,
    "licenseNumber": null,
    "licenseEffectiveDate": null,
    "licenseExpirationDate": null,
    "dataDate": "10/18/2025",
    "capacity": 0,
    "address": "14140 BEACH BLVD, SUITE 223",
    "city": "WESTMINSTER",
    "zip": "92683",
    "county": "ORANGE",
    "phone": null,
    "lat": 33.756822,
    "lng": -117.9879345
  },
  {
    "id": "630015922",
    "name": "KAGA HOME HEALTH, INC.",
    "npi": null,
    "hcaiId": "406304596",
    "businessName": "KAGA HOME HEALTH, INC.",
    "contactEmail": "KAGAHOMEHEALTH@GMAIL.COM",
    "categoryName": "HOME HEALTH AGENCY",
    "categoryCode": "HHA",
    "licenseStatus": "ACTIVE",
    "inService": true,
    "licenseNumber": "550003532",
    "licenseEffectiveDate": "05/23/2025",
    "licenseExpirationDate": "05/22/2026",
    "dataDate": "10/18/2025",
    "capacity": 0,
    "address": "13950 MILTON AVE, SUITE 405",
    "city": "WESTMINSTER",
    "zip": "92683",
    "county": "ORANGE",
    "phone": "(657) 227-7500",
    "lat": 33.759432,
    "lng": -118.0199115
  },
  {
    "id": "060000017",
    "name": "KINDRED HOSPITAL WESTMINSTER",
    "npi": "1528143179",
    "hcaiId": "106301380",
    "businessName": "THC - ORANGE COUNTY, LLC",
    "contactEmail": "PHILLIP.WOLFE@KINDRED.COM",
    "categoryName": "GENERAL ACUTE CARE HOSPITAL",
    "categoryCode": "GACH",
    "licenseStatus": "ACTIVE",
    "inService": true,
    "licenseNumber": "060000183",
    "licenseEffectiveDate": "11/01/2025",
    "licenseExpirationDate": "10/31/2026",
    "dataDate": "10/18/2025",
    "capacity": 109,
    "address": "200 HOSPITAL CIR",
    "city": "WESTMINSTER",
    "zip": "92683",
    "county": "ORANGE",
    "phone": "(714) 893-4541",
    "lat": 33.763716,
    "lng": -117.9953145
  },
  {
    "id": "060001719",
    "name": "MAGNOLIA SURGERY CENTER",
    "npi": "1538159397",
    "hcaiId": "306304279",
    "businessName": "MAGNOLIA SURGERY CENTER, LIMITED PARTNERSHIP",
    "contactEmail": "JEANETTE.RASMUSSEN@UHSSC.COM",
    "categoryName": "SURGICAL CLINIC",
    "categoryCode": "ASC",
    "licenseStatus": "INACTIVE - CAPEN DECISION",
    "inService": false,
    "licenseNumber": "060000773",
    "licenseEffectiveDate": "04/06/2008",
    "licenseExpirationDate": "04/05/2009",
    "dataDate": "10/18/2025",
    "capacity": 0,
    "address": "14571 MAGNOLIA ST, SUITE 107",
    "city": "WESTMINSTER",
    "zip": "92683",
    "county": "ORANGE",
    "phone": "(714) 903-9039",
    "lat": 33.750882,
    "lng": -117.9729
  },
  {
    "id": "630013166",
    "name": "MAXCARE HOSPICE",
    "npi": "1679879993",
    "hcaiId": "406304488",
    "businessName": "MAXCARE HOSPICE",
    "contactEmail": "INFO@MAXCAREHOSPICE.COM",
    "categoryName": "HOSPICE",
    "categoryCode": "HOSPICE",
    "licenseStatus": "ACTIVE",
    "inService": true,
    "licenseNumber": "550001817",
    "licenseEffectiveDate": "11/24/2023",
    "licenseExpirationDate": "11/23/2025",
    "dataDate": "10/18/2025",
    "capacity": 0,
    "address": "13800 ARIZONA ST, SUITE 201",
    "city": "WESTMINSTER",
    "zip": "92683",
    "county": "ORANGE",
    "phone": "(714) 844-7777",
    "lat": 33.761808,
    "lng": -117.9950985
  },
  {
    "id": "060000055",
    "name": "MISSION PALMS HEALTHCARE CENTER",
    "npi": "1538492830",
    "hcaiId": "206301212",
    "businessName": "AWHC, LLC",
    "contactEmail": "ABEGAILIT@ASPENHEALTH.COM",
    "categoryName": "SKILLED NURSING FACILITY",
    "categoryCode": "SNF",
    "licenseStatus": "ACTIVE",
    "inService": true,
    "licenseNumber": "060000127",
    "licenseEffectiveDate": "01/14/2025",
    "licenseExpirationDate": "01/13/2026",
    "dataDate": "10/18/2025",
    "capacity": 99,
    "address": "240 HOSPITAL CIR",
    "city": "WESTMINSTER",
    "zip": "92683",
    "county": "ORANGE",
    "phone": "(714) 892-6682",
    "lat": 33.7644,
    "lng": -117.9946395
  },
  {
    "id": "630016155",
    "name": "ORANGE COUNTY SURGERY CENTER A MEDICAL CORPORATION",
    "npi": "1043636038",
    "hcaiId": null,
    "businessName": null,
    "contactEmail": null,
    "categoryName": "SURGICAL CLINIC",
    "categoryCode": "ASC",
    "licenseStatus": null,
    "inService": null,
    "licenseNumber": null,
    "licenseEffectiveDate": null,
    "licenseExpirationDate": null,
    "dataDate": "10/18/2025",
    "capacity": 0,
    "address": "8070 WESTMINSTER BLVD, SUITE C",
    "city": "WESTMINSTER",
    "zip": "92683",
    "county": "ORANGE",
    "phone": null,
    "lat": 33.758982,
    "lng": -117.98829
  },
  {
    "id": "060000161",
    "name": "PLANNED PARENTHOOD/ORANGE & SAN BERNARDINO CO.",
    "npi": null,
    "hcaiId": "306304338",
    "businessName": "PLANNED PARENTHOOD/ORANGE & SAN BERNARDINO CO.,INC",
    "contactEmail": "SAMANTHA.ORTEGA@PPOSBC.ORG",
    "categoryName": "PRIMARY CARE CLINIC",
    "categoryCode": "COMTYC",
    "licenseStatus": "ACTIVE",
    "inService": true,
    "licenseNumber": "060000021",
    "licenseEffectiveDate": "06/15/2025",
    "licenseExpirationDate": "06/14/2026",
    "dataDate": "10/18/2025",
    "capacity": 0,
    "address": "14372 BEACH BLVD",
    "city": "WESTMINSTER",
    "zip": "92683",
    "county": "ORANGE",
    "phone": "(714) 922-4100",
    "lat": 33.75288,
    "lng": -117.988956
  },
  {
    "id": "630011732",
    "name": "RAI - GOLDENWEST - WESTMINSTER",
    "npi": "1629275383",
    "hcaiId": "306304418",
    "businessName": "RAI CARE CENTERS OF GOLDENWEST, LLC",
    "contactEmail": "CLINIC7180@FMC-NA.COM",
    "categoryName": "CHRONIC DIALYSIS CLINIC",
    "categoryCode": "ESRD/CDC",
    "licenseStatus": "ACTIVE",
    "inService": true,
    "licenseNumber": "550000709",
    "licenseEffectiveDate": "04/01/2025",
    "licenseExpirationDate": "03/31/2026",
    "dataDate": "10/18/2025",
    "capacity": 24,
    "address": "15330 GOLDENWEST ST",
    "city": "WESTMINSTER",
    "zip": "92683",
    "county": "ORANGE",
    "phone": "(714) 373-1543",
    "lat": 33.739533,
    "lng": -118.006074
  },
  {
    "id": "080001600",
    "name": "RAI - HOSPITAL CIRCLE - WESTMINSTER",
    "npi": "1376616045",
    "hcaiId": "306304199",
    "businessName": "FRESENIUS MEDICAL CARE ORANGE COUNTY, LLC",
    "contactEmail": "CLINIC7171@FMC-NA.COM",
    "categoryName": "CHRONIC DIALYSIS CLINIC",
    "categoryCode": "ESRD/CDC",
    "licenseStatus": "ACTIVE",
    "inService": true,
    "licenseNumber": "080000692",
    "licenseEffectiveDate": "08/26/2025",
    "licenseExpirationDate": "08/25/2026",
    "dataDate": "10/18/2025",
    "capacity": 16,
    "address": "290 HOSPITAL CIR",
    "city": "WESTMINSTER",
    "zip": "92683",
    "county": "ORANGE",
    "phone": "(714) 895-3698",
    "lat": 33.762159,
    "lng": -117.995634
  },
  {
    "id": "060000151",
    "name": "STANLEY HEALTHCARE CENTER",
    "npi": "1164495156",
    "hcaiId": "206301344",
    "businessName": "STANLEY HEALTHCARE CENTER OPERATING COMPANY, LLC",
    "contactEmail": null,
    "categoryName": "SKILLED NURSING FACILITY",
    "categoryCode": "SNF",
    "licenseStatus": "ACTIVE",
    "inService": true,
    "licenseNumber": "060000174",
    "licenseEffectiveDate": "12/01/2024",
    "licenseExpirationDate": "11/30/2025",
    "dataDate": "10/18/2025",
    "capacity": 30,
    "address": "14102 SPRINGDALE ST",
    "city": "WESTMINSTER",
    "zip": "92683",
    "county": "ORANGE",
    "phone": "(714) 893-0026",
    "lat": 33.757353,
    "lng": -118.024209
  },
  {
    "id": "630026517",
    "name": "U.S. RENAL CARE BEACH DIALYSIS",
    "npi": "1255081329",
    "hcaiId": "306300718",
    "businessName": "UBD PARTNERS, LLC",
    "contactEmail": "SANDRA.BARAJAS@USRENALCARE.COM",
    "categoryName": "CHRONIC DIALYSIS CLINIC",
    "categoryCode": "ESRD/CDC",
    "licenseStatus": "ACTIVE",
    "inService": true,
    "licenseNumber": "550008194",
    "licenseEffectiveDate": "10/18/2025",
    "licenseExpirationDate": "10/17/2026",
    "dataDate": "10/18/2025",
    "capacity": 14,
    "address": "16364 BEACH BLVD",
    "city": "WESTMINSTER",
    "zip": "92683",
    "county": "ORANGE",
    "phone": "(657) 334-6213",
    "lat": 33.726429,
    "lng": -117.9871695
  },
  {
    "id": "080001599",
    "name": "WESTMINSTER SOUTH DIALYSIS",
    "npi": "1932174844",
    "hcaiId": "306304463",
    "businessName": "DVA HEALTHCARE RENAL CARE, INC.",
    "contactEmail": "CAL_C@DAVITA.COM",
    "categoryName": "CHRONIC DIALYSIS CLINIC",
    "categoryCode": "ESRD/CDC",
    "licenseStatus": "ACTIVE",
    "inService": true,
    "licenseNumber": "080000691",
    "licenseEffectiveDate": "11/02/2025",
    "licenseExpirationDate": "11/01/2026",
    "dataDate": "10/18/2025",
    "capacity": 23,
    "address": "14014 MAGNOLIA ST",
    "city": "WESTMINSTER",
    "zip": "92683",
    "county": "ORANGE",
    "phone": "(714) 894-8712",
    "lat": 33.758982,
    "lng": -117.9715545
  }
]