[
  {
    "id": "060001366",
    "name": "ABLELIGHT INC. - FERROCARRIL",
    "npi": "1417010604",
    "hcaiId": null,
    "businessName": "ABLELIGHT INC.",
    "contactEmail": "ALMA.SHAKERI@BETHESDALC.ORG",
    "categoryName": "INTERMEDIATE CARE FACILITY-DD/H/N/CN/IID",
    "categoryCode": "ICFDDH",
    "licenseStatus": "ACTIVE",
    "inService": true,
    "licenseNumber": "060000410",
    "licenseEffectiveDate": "01/28/2025",
    "licenseExpirationDate": "01/27/2026",
    "dataDate": "10/18/2025",
    "capacity": 6,
    "address": "24472 FERROCARRIL",
    "city": "MISSION VIEJO",
    "zip": "92691",
    "county": "ORANGE",
    "phone": "(949) 793-5600",
    "lat": 33.607602,
    "lng": -117.6760485
  },
  {
    "id": "060000078",
    "name": "ABLELIGHT INC. - MITHRA",
    "npi": "1417010604",
    "hcaiId": null,
    "businessName": "ABLELIGHT INC.",
    "contactEmail": "MARIA.AMEDI@ABLELIGHT.ORG",
    "categoryName": "INTERMEDIATE CARE FACILITY-DD/H/N/CN/IID",
    "categoryCode": "ICFDDH",
    "licenseStatus": "ACTIVE",
    "inService": true,
    "licenseNumber": "060000050",
    "licenseEffectiveDate": "11/15/2024",
    "licenseExpirationDate": "11/14/2025",
    "dataDate": "10/18/2025",
    "capacity": 6,
    "address": "24842 MITHRA AVE",
    "city": "MISSION VIEJO",
    "zip": "92691",
    "county": "ORANGE",
    "phone": "(949) 600-6130",
    "lat": 33.601185,
    "lng": -117.681993
  },
  {
    "id": "060000561",
    "name": "ABLELIGHT INC. - MOSQUERO",
    "npi": "1417010604",
    "hcaiId": null,
    "businessName": "ABLELIGHT INC.",
    "contactEmail": "ALMA.SHAKERI@ABLELIGHT.ORG",
    "categoryName": "INTERMEDIATE CARE FACILITY-DD/H/N/CN/IID",
    "categoryCode": "ICFDDH",
    "licenseStatus": "ACTIVE",
    "inService": true,
    "licenseNumber": "060000220",
    "licenseEffectiveDate": "01/20/2025",
    "licenseExpirationDate": "01/19/2026",
    "dataDate": "10/18/2025",
    "capacity": 6,
    "address": "24575 MOSQUERO LN",
    "city": "MISSION VIEJO",
    "zip": "92691",
    "county": "ORANGE",
    "phone": "(949) 837-5385",
    "lat": 33.606171,
    "lng": -117.663795
  },
  {
    "id": "060000079",
    "name": "ABLELIGHT INC. - PARTHENON",
    "npi": "1417010604",
    "hcaiId": null,
    "businessName": "ABLELIGHT INC.",
    "contactEmail": "STEVEN.MARTINEZ@ABLELIGHT.ORG",
    "categoryName": "INTERMEDIATE CARE FACILITY-DD/H/N/CN/IID",
    "categoryCode": "ICFDDH",
    "licenseStatus": "ACTIVE",
    "inService": true,
    "licenseNumber": "060000062",
    "licenseEffectiveDate": "06/02/2025",
    "licenseExpirationDate": "06/01/2026",
    "dataDate": "10/18/2025",
    "capacity": 6,
    "address": "25315 PARTHENON AVE",
    "city": "MISSION VIEJO",
    "zip": "92691",
    "county": "ORANGE",
    "phone": "(714) 321-8860",
    "lat": 33.611076,
    "lng": -117.688365
  },
  {
    "id": "060000080",
    "name": "ABLELIGHT INC. - REGINA",
    "npi": "1417010604",
    "hcaiId": null,
    "businessName": "ABLELIGHT INC.",
    "contactEmail": "ALMA.SHAKERI@ABLELIGHT.ORG",
    "categoryName": "INTERMEDIATE CARE FACILITY-DD/H/N/CN/IID",
    "categoryCode": "ICFDDH",
    "licenseStatus": "ACTIVE",
    "inService": true,
    "licenseNumber": "060000061",
    "licenseEffectiveDate": "06/02/2025",
    "licenseExpirationDate": "06/01/2026",
    "dataDate": "10/18/2025",
    "capacity": 6,
    "address": "24431 REGINA ST",
    "city": "MISSION VIEJO",
    "zip": "92691",
    "county": "ORANGE",
    "phone": "(949) 793-5500",
    "lat": 33.607602,
    "lng": -117.682605
  },
  {
    "id": "630026560",
    "name": "ADVANCED NURSING AND THERAPY SERVICES",
    "npi": null,
    "hcaiId": null,
    "businessName": "HOMESTEAD MEDICAL GROUP INC.",
    "contactEmail": "SALEH.M@HMGCORP.NET",
    "categoryName": "HOME HEALTH AGENCY",
    "categoryCode": "HHA",
    "licenseStatus": "ACTIVE",
    "inService": true,
    "licenseNumber": "550009170",
    "licenseEffectiveDate": "06/02/2025",
    "licenseExpirationDate": "04/04/2026",
    "dataDate": "10/18/2025",
    "capacity": 0,
    "address": "26040 ACERO, SUITE 108",
    "city": "MISSION VIEJO",
    "zip": "92691",
    "county": "ORANGE",
    "phone": "(310) 666-3359",
    "lat": 33.61790001,
    "lng": -117.676029
  },
  {
    "id": "060001246",
    "name": "ALICIA PARKWAY GUEST HOME",
    "npi": "1821182817",
    "hcaiId": null,
    "businessName": "ORPAS CORPORATION",
    "contactEmail": "THEORPAS123@GMAIL.COM",
    "categoryName": "INTERMEDIATE CARE FACILITY-DD/H/N/CN/IID",
    "categoryCode": "ICFDDH",
    "licenseStatus": "ACTIVE",
    "inService": true,
    "licenseNumber": "060000376",
    "licenseEffectiveDate": "12/17/2024",
    "licenseExpirationDate": "12/16/2025",
    "dataDate": "10/18/2025",
    "capacity": 6,
    "address": "24152 ADONIS ST",
    "city": "MISSION VIEJO",
    "zip": "92691",
    "county": "ORANGE",
    "phone": "(949) 374-6127",
    "lat": 33.611337,
    "lng": -117.6851475
  },
  {
    "id": "060001688",
    "name": "ARGUS HOME",
    "npi": "1588730881",
    "hcaiId": null,
    "businessName": "LRC HOMES, INC.",
    "contactEmail": "DEWRANCEPORTIA@GMAIL.COM",
    "categoryName": "INTERMEDIATE CARE FACILITY-DD/H/N/CN/IID",
    "categoryCode": "ICFDDH",
    "licenseStatus": "ACTIVE",
    "inService": true,
    "licenseNumber": "060000534",
    "licenseEffectiveDate": "04/04/2025",
    "licenseExpirationDate": "04/03/2026",
    "dataDate": "10/18/2025",
    "capacity": 6,
    "address": "24821 ARGUS DR",
    "city": "MISSION VIEJO",
    "zip": "92691",
    "county": "ORANGE",
    "phone": "(562) 405-4241",
    "lat": 33.601716,
    "lng": -117.67959
  },
  {
    "id": "060001375",
    "name": "ARTEMIA HOUSE",
    "npi": "1588730881",
    "hcaiId": null,
    "businessName": "LRC HOMES, INC.",
    "contactEmail": "LORI.DISTOR@GMAIL.COM",
    "categoryName": "INTERMEDIATE CARE FACILITY-DD/H/N/CN/IID",
    "categoryCode": "ICFDDN",
    "licenseStatus": "ACTIVE",
    "inService": true,
    "licenseNumber": "060000414",
    "licenseEffectiveDate": "03/13/2025",
    "licenseExpirationDate": "03/12/2026",
    "dataDate": "10/18/2025",
    "capacity": 6,
    "address": "24531 ARTEMIA AVE",
    "city": "MISSION VIEJO",
    "zip": "92691",
    "county": "ORANGE",
    "phone": "(949) 510-6342",
    "lat": 33.606063,
    "lng": -117.6831225
  },
  {
    "id": "630012939",
    "name": "BRIGHTSTAR CARE OF SOUTH ORANGE COUNTY",
    "npi": null,
    "hcaiId": "406304473",
    "businessName": "FORESIDE MANAGEMENT COMPANY",
    "contactEmail": "MARK.WOODSUM@BRIGHTSTARCARE.COM",
    "categoryName": "HOME HEALTH AGENCY",
    "categoryCode": "HHA",
    "licenseStatus": "ACTIVE",
    "inService": true,
    "licenseNumber": "550001632",
    "licenseEffectiveDate": "06/12/2025",
    "licenseExpirationDate": "06/11/2026",
    "dataDate": "10/18/2025",
    "capacity": 0,
    "address": "26023 ACERO",
    "city": "MISSION VIEJO",
    "zip": "92691",
    "county": "ORANGE",
    "phone": "(949) 837-7000",
    "lat": 33.61801899,
    "lng": -117.677593
  },
  {
    "id": "060001989",
    "name": "CALIFORNIA SPECIALTY SURGERY CENTER",
    "npi": "1497749667",
    "hcaiId": "306304289",
    "businessName": "CALIFORNIA SPECIALTY SURGERY CENTER. L.P.",
    "contactEmail": "NENET@CALSPECIALTY.COM",
    "categoryName": "SURGICAL CLINIC",
    "categoryCode": "ASC",
    "licenseStatus": "INACTIVE - CAPEN DECISION",
    "inService": false,
    "licenseNumber": "060000798",
    "licenseEffectiveDate": "01/17/2008",
    "licenseExpirationDate": "01/16/2009",
    "dataDate": "10/18/2025",
    "capacity": 0,
    "address": "26371 CROWN VALLEY PKWY",
    "city": "MISSION VIEJO",
    "zip": "92691",
    "county": "ORANGE",
    "phone": "(949) 348-0544",
    "lat": 33.564636,
    "lng": -117.658296
  },
  {
    "id": "060001672",
    "name": "CAMPINA HOME",
    "npi": "1851485908",
    "hcaiId": null,
    "businessName": "ORPAS CORPORATION",
    "contactEmail": "SDIEDERICK.ORPAS@OUTLOOK.COM",
    "categoryName": "INTERMEDIATE CARE FACILITY-DD/H/N/CN/IID",
    "categoryCode": "ICFDDN",
    "licenseStatus": "ACTIVE",
    "inService": true,
    "licenseNumber": "060000531",
    "licenseEffectiveDate": "02/04/2025",
    "licenseExpirationDate": "02/03/2026",
    "dataDate": "10/18/2025",
    "capacity": 6,
    "address": "25242 CAMPINA DR",
    "city": "MISSION VIEJO",
    "zip": "92691",
    "county": "ORANGE",
    "phone": "(949) 374-6127",
    "lat": 33.596451,
    "lng": -117.6621525
  },
  {
    "id": "630025164",
    "name": "CLCHC FAMILY HEALTH CENTER",
    "npi": null,
    "hcaiId": null,
    "businessName": "CELEBRATING LIFE COMMUNITY HEALTH CENTER",
    "contactEmail": null,
    "categoryName": "PRIMARY CARE CLINIC",
    "categoryCode": "COMTYC",
    "licenseStatus": "ACTIVE",
    "inService": true,
    "licenseNumber": "550005779",
    "licenseEffectiveDate": "10/14/2025",
    "licenseExpirationDate": "10/13/2026",
    "dataDate": "10/18/2025",
    "capacity": 0,
    "address": "27800 MEDICAL CENTER RD, SUITE 108/109",
    "city": "MISSION VIEJO",
    "zip": "92691",
    "county": "ORANGE",
    "phone": null,
    "lat": 33.560802,
    "lng": -117.6639075
  },
  {
    "id": "630011461",
    "name": "FRESENIUS MEDICAL CARE MISSION VIEJO",
    "npi": "1912043985",
    "hcaiId": "306304416",
    "businessName": "BIO-MEDICAL APPLICATIONS OF CALIFORNIA, INC.",
    "contactEmail": "CLINIC4194@FMC-NA.COM",
    "categoryName": "CHRONIC DIALYSIS CLINIC",
    "categoryCode": "ESRD/CDC",
    "licenseStatus": "ACTIVE",
    "inService": true,
    "licenseNumber": "550000668",
    "licenseEffectiveDate": "02/08/2025",
    "licenseExpirationDate": "02/07/2026",
    "dataDate": "10/18/2025",
    "capacity": 18,
    "address": "23681 VIA LINDA, SUITE E",
    "city": "MISSION VIEJO",
    "zip": "92691",
    "county": "ORANGE",
    "phone": "(949) 587-0163",
    "lat": 33.61905,
    "lng": -117.6753375
  },
  {
    "id": "630017048",
    "name": "GENEZEN HOME HEALTH CARE SERVICES, INC.",
    "npi": "1073974911",
    "hcaiId": "406305627",
    "businessName": "GENEZEN HOME HEALTH CARE SERVICES INC.",
    "contactEmail": "TEAMGENEZEN@GENEZENHOMEHEALTH.NET",
    "categoryName": "HOME HEALTH AGENCY",
    "categoryCode": "HHA",
    "licenseStatus": "ACTIVE",
    "inService": true,
    "licenseNumber": "550004382",
    "licenseEffectiveDate": "08/09/2025",
    "licenseExpirationDate": "08/08/2026",
    "dataDate": "10/18/2025",
    "capacity": 0,
    "address": "25910 ACERO, SUITE 110",
    "city": "MISSION VIEJO",
    "zip": "92691",
    "county": "ORANGE",
    "phone": "(949) 380-6930",
    "lat": 33.616377,
    "lng": -117.6786135
  },
  {
    "id": "630027735",
    "name": "INTELLICARE HOME HEALTH LLC",
    "npi": null,
    "hcaiId": null,
    "businessName": "INTELLICARE HOME HEALTH LLC",
    "contactEmail": "INFO@INTELLICAREHHPC.COM",
    "categoryName": "HOME HEALTH AGENCY",
    "categoryCode": "HHA",
    "licenseStatus": "ACTIVE",
    "inService": true,
    "licenseNumber": "550009721",
    "licenseEffectiveDate": "09/13/2025",
    "licenseExpirationDate": "03/12/2026",
    "dataDate": "10/18/2025",
    "capacity": 0,
    "address": "27001 LA PAZ RD, SUITE 466",
    "city": "MISSION VIEJO",
    "zip": "92691",
    "county": "ORANGE",
    "phone": "(949) 393-7007",
    "lat": 33.59769099,
    "lng": -117.658434
  },
  {
    "id": "630020151",
    "name": "KRISTINA SERGEYEVA FAMILY HEALTH CENTER",
    "npi": null,
    "hcaiId": "306300596",
    "businessName": "CELEBRATING LIFE COMMUNITY HEALTH CENTER",
    "contactEmail": "SSERGEYEV@CLCHC.ORG",
    "categoryName": "PRIMARY CARE CLINIC",
    "categoryCode": "COMTYC",
    "licenseStatus": "ACTIVE",
    "inService": true,
    "licenseNumber": "550005779",
    "licenseEffectiveDate": "10/14/2025",
    "licenseExpirationDate": "10/13/2026",
    "dataDate": "10/18/2025",
    "capacity": 0,
    "address": "27800 MEDICAL CENTER RD, SUITE 110",
    "city": "MISSION VIEJO",
    "zip": "92691",
    "county": "ORANGE",
    "phone": "(949) 433-6686",
    "lat": 33.561234,
    "lng": -117.663714
  },
  {
    "id": "060002269",
    "name": "LONIKA HOME APHENA",
    "npi": "1457428427",
    "hcaiId": null,
    "businessName": "LONIKA'S HOME, INC.",
    "contactEmail": "N.KEALEY.QMRP@GMAIL.COM",
    "categoryName": "INTERMEDIATE CARE FACILITY-DD/H/N/CN/IID",
    "categoryCode": "ICFDDH",
    "licenseStatus": "ACTIVE",
    "inService": true,
    "licenseNumber": "060000944",
    "licenseEffectiveDate": "11/29/2024",
    "licenseExpirationDate": "11/28/2025",
    "dataDate": "10/18/2025",
    "capacity": 6,
    "address": "24336 APHENA AVE",
    "city": "MISSION VIEJO",
    "zip": "92691",
    "county": "ORANGE",
    "phone": "(714) 852-7571",
    "lat": 33.608565,
    "lng": -117.686376
  },
  {
    "id": "630011297",
    "name": "LONIKA HOME DORIA",
    "npi": "1457428427",
    "hcaiId": null,
    "businessName": "LONIKA'S HOME, INC.",
    "contactEmail": "PYDEWRANCE@GMAIL.COM",
    "categoryName": "INTERMEDIATE CARE FACILITY-DD/H/N/CN/IID",
    "categoryCode": "ICFDDN",
    "licenseStatus": "ACTIVE",
    "inService": true,
    "licenseNumber": "550000646",
    "licenseEffectiveDate": "01/03/2025",
    "licenseExpirationDate": "01/02/2026",
    "dataDate": "10/18/2025",
    "capacity": 6,
    "address": "24652 DORIA AVE",
    "city": "MISSION VIEJO",
    "zip": "92691",
    "county": "ORANGE",
    "phone": "(556) 240-5424",
    "lat": 33.603939,
    "lng": -117.682029
  },
  {
    "id": "630011296",
    "name": "LONIKA HOME MINOS",
    "npi": "1457428427",
    "hcaiId": null,
    "businessName": "LONIKA'S HOME, INC.",
    "contactEmail": "N.KEALEY.QMRP@GMAIL.COM",
    "categoryName": "INTERMEDIATE CARE FACILITY-DD/H/N/CN/IID",
    "categoryCode": "ICFDDN",
    "licenseStatus": "ACTIVE",
    "inService": true,
    "licenseNumber": "550000647",
    "licenseEffectiveDate": "01/03/2025",
    "licenseExpirationDate": "01/02/2026",
    "dataDate": "10/18/2025",
    "capacity": 6,
    "address": "25622 MINOS ST",
    "city": "MISSION VIEJO",
    "zip": "92691",
    "county": "ORANGE",
    "phone": "(714) 852-7571",
    "lat": 33.602364,
    "lng": -117.683145
  },
  {
    "id": "060002181",
    "name": "LONIKA'S HOME",
    "npi": "1457428427",
    "hcaiId": null,
    "businessName": "LONIKA'S HOME, INC.",
    "contactEmail": "N.KEALEY.QMRP@GMAIL.COM",
    "categoryName": "INTERMEDIATE CARE FACILITY-DD/H/N/CN/IID",
    "categoryCode": "ICFDDN",
    "licenseStatus": "ACTIVE",
    "inService": true,
    "licenseNumber": "060000880",
    "licenseEffectiveDate": "11/26/2025",
    "licenseExpirationDate": "11/25/2026",
    "dataDate": "10/18/2025",
    "capacity": 6,
    "address": "24371 SPARTAN ST",
    "city": "MISSION VIEJO",
    "zip": "92691",
    "county": "ORANGE",
    "phone": "(714) 852-7571",
    "lat": 33.608448,
    "lng": -117.684504
  },
  {
    "id": "630004641",
    "name": "LORI'S HOME",
    "npi": "1588730881",
    "hcaiId": null,
    "businessName": "LRC HOMES, INC.",
    "contactEmail": "N.KEALEY.QMRP@GMAIL.COM",
    "categoryName": "INTERMEDIATE CARE FACILITY-DD/H/N/CN/IID",
    "categoryCode": "ICFDDN",
    "licenseStatus": "ACTIVE",
    "inService": true,
    "licenseNumber": "550000142",
    "licenseEffectiveDate": "04/11/2025",
    "licenseExpirationDate": "04/10/2026",
    "dataDate": "10/18/2025",
    "capacity": 6,
    "address": "24402 APHENA AVE",
    "city": "MISSION VIEJO",
    "zip": "92691",
    "county": "ORANGE",
    "phone": "(714) 852-7571",
    "lat": 33.607728,
    "lng": -117.6871005
  },
  {
    "id": "060001970",
    "name": "MARGARET'S HOME",
    "npi": "1790875441",
    "hcaiId": null,
    "businessName": "MARGARET'S VILLA, INC.",
    "contactEmail": null,
    "categoryName": "INTERMEDIATE CARE FACILITY-DD/H/N/CN/IID",
    "categoryCode": "ICFDDN",
    "licenseStatus": "ACTIVE",
    "inService": true,
    "licenseNumber": "060000783",
    "licenseEffectiveDate": "11/09/2025",
    "licenseExpirationDate": "11/08/2026",
    "dataDate": "10/18/2025",
    "capacity": 6,
    "address": "24091 VIA LUISA",
    "city": "MISSION VIEJO",
    "zip": "92691",
    "county": "ORANGE",
    "phone": "(949) 292-8261",
    "lat": 33.613101,
    "lng": -117.6599475
  },
  {
    "id": "630010910",
    "name": "MISSION HILLS PAIN TREATMENT CENTER",
    "npi": "1164534400",
    "hcaiId": null,
    "businessName": null,
    "contactEmail": null,
    "categoryName": "SURGICAL CLINIC",
    "categoryCode": "ASC",
    "licenseStatus": null,
    "inService": null,
    "licenseNumber": null,
    "licenseEffectiveDate": null,
    "licenseExpirationDate": null,
    "dataDate": "10/18/2025",
    "capacity": 0,
    "address": "25982 PALA, SUITE 280",
    "city": "MISSION VIEJO",
    "zip": "92691",
    "county": "ORANGE",
    "phone": "(949) 855-7560",
    "lat": 33.619644,
    "lng": -117.677187
  },
  {
    "id": "060001208",
    "name": "MISSION HOSPITAL REGIONAL MEDICAL CENTER",
    "npi": "1992752315",
    "hcaiId": null,
    "businessName": "MISSION HOSPITAL REGIONAL MEDICAL CENTER",
    "contactEmail": null,
    "categoryName": "OTHER",
    "categoryCode": "PPSREHB",
    "licenseStatus": "ACTIVE",
    "inService": true,
    "licenseNumber": "060000146",
    "licenseEffectiveDate": "02/21/2025",
    "licenseExpirationDate": "11/30/2025",
    "dataDate": "10/18/2025",
    "capacity": 0,
    "address": "27700 MEDICAL CENTER RD",
    "city": "MISSION VIEJO",
    "zip": "92691",
    "county": "ORANGE",
    "phone": null,
    "lat": 33.560955,
    "lng": -117.665442
  },
  {
    "id": "060001003",
    "name": "MISSION SURGERY CENTER",
    "npi": "1497705883",
    "hcaiId": "306304041",
    "businessName": "MISSION AMBULATORY SURGICENTER, LTD.",
    "contactEmail": "EILEEN.HAUBL@STJOE.ORG",
    "categoryName": "SURGICAL CLINIC",
    "categoryCode": "ASC",
    "licenseStatus": "INACTIVE - CAPEN DECISION",
    "inService": false,
    "licenseNumber": "060000265",
    "licenseEffectiveDate": "04/23/2007",
    "licenseExpirationDate": "04/22/2008",
    "dataDate": "10/18/2025",
    "capacity": 0,
    "address": "26730 CROWN VALLEY PKWY, FLOOR 1",
    "city": "MISSION VIEJO",
    "zip": "92691",
    "county": "ORANGE",
    "phone": "(949) 364-2201",
    "lat": 33.563403,
    "lng": -117.664875
  },
  {
    "id": "060000258",
    "name": "OPHTHALMOLOGY MEDICAL CENTER",
    "npi": "1558511881",
    "hcaiId": null,
    "businessName": null,
    "contactEmail": null,
    "categoryName": "SURGICAL CLINIC",
    "categoryCode": "ASC",
    "licenseStatus": null,
    "inService": null,
    "licenseNumber": null,
    "licenseEffectiveDate": null,
    "licenseExpirationDate": null,
    "dataDate": "10/18/2025",
    "capacity": 0,
    "address": "26701 CROWN VALLEY PKWY",
    "city": "MISSION VIEJO",
    "zip": "92691",
    "county": "ORANGE",
    "phone": "(949) 582-2642",
    "lat": 33.564186,
    "lng": -117.664551
  },
  {
    "id": "630019370",
    "name": "OSO SURGERY CENTER",
    "npi": "1518524552",
    "hcaiId": null,
    "businessName": null,
    "contactEmail": null,
    "categoryName": "SURGICAL CLINIC",
    "categoryCode": "ASC",
    "licenseStatus": null,
    "inService": null,
    "licenseNumber": null,
    "licenseEffectiveDate": null,
    "licenseExpirationDate": null,
    "dataDate": "10/18/2025",
    "capacity": 0,
    "address": "26932 OSO PKWY, SUITE 277",
    "city": "MISSION VIEJO",
    "zip": "92691",
    "county": "ORANGE",
    "phone": null,
    "lat": 33.582915,
    "lng": -117.6604965
  },
  {
    "id": "060002101",
    "name": "PACIFIC GASTROENTEROLOGY ENDOSCOPY CENTER",
    "npi": "1720129893",
    "hcaiId": "306304310",
    "businessName": "PACIFIC GASTROENTEROLOGY ENDOSCOPY CENTER",
    "contactEmail": "OM@PACIFICGASTRO.COM",
    "categoryName": "SURGICAL CLINIC",
    "categoryCode": "ASC",
    "licenseStatus": "INACTIVE - CAPEN DECISION",
    "inService": false,
    "licenseNumber": "060000855",
    "licenseEffectiveDate": "04/22/2008",
    "licenseExpirationDate": "04/21/2009",
    "dataDate": "10/18/2025",
    "capacity": 0,
    "address": "26421 CROWN VALLEY PKWY, SUITE 140B",
    "city": "MISSION VIEJO",
    "zip": "92691",
    "county": "ORANGE",
    "phone": "(949) 365-8836",
    "lat": 33.564267,
    "lng": -117.659025
  },
  {
    "id": "630023251",
    "name": "PACIFIC SOLSTICE INTEGRATIVE CLINIC",
    "npi": null,
    "hcaiId": null,
    "businessName": null,
    "contactEmail": "BRITTEN@PACIFICSOLSTICE.COM",
    "categoryName": "PSYCHOLOGY CLINIC",
    "categoryCode": "CMHC",
    "licenseStatus": null,
    "inService": null,
    "licenseNumber": null,
    "licenseEffectiveDate": null,
    "licenseExpirationDate": null,
    "dataDate": "10/18/2025",
    "capacity": 0,
    "address": "26732 CROWN VALLEY PKWY, SUITE 443",
    "city": "MISSION VIEJO",
    "zip": "92691",
    "county": "ORANGE",
    "phone": "(949) 402-9520",
    "lat": 33.562773,
    "lng": -117.6650055
  },
  {
    "id": "060000162",
    "name": "PLANNED PARENTHOOD/ORANGE & SAN BERNARDINO CO.",
    "npi": null,
    "hcaiId": "306304411",
    "businessName": "PLANNED PARENTHOOD/ORANGE & SAN BERNARDINO CO.,INC",
    "contactEmail": "SAMANTHA.ORTEGA@PPOSBC.ORG",
    "categoryName": "PRIMARY CARE CLINIC",
    "categoryCode": "COMTYC",
    "licenseStatus": "ACTIVE",
    "inService": true,
    "licenseNumber": "060000018",
    "licenseEffectiveDate": "11/08/2025",
    "licenseExpirationDate": "11/07/2026",
    "dataDate": "10/18/2025",
    "capacity": 0,
    "address": "26137 LA PAZ RD, SUITE 200",
    "city": "MISSION VIEJO",
    "zip": "92691",
    "county": "ORANGE",
    "phone": "(714) 633-6373",
    "lat": 33.60114,
    "lng": -117.673695
  },
  {
    "id": "630028371",
    "name": "PREGNANCY RESOURCE CENTER MEDICAL CLINIC",
    "npi": null,
    "hcaiId": null,
    "businessName": "AGAPE PREGNANCY CENTERS, INC.",
    "contactEmail": null,
    "categoryName": "PRIMARY CARE CLINIC",
    "categoryCode": "COMTYC",
    "licenseStatus": "ACTIVE",
    "inService": true,
    "licenseNumber": "550002835",
    "licenseEffectiveDate": "10/08/2025",
    "licenseExpirationDate": "10/07/2026",
    "dataDate": "10/18/2025",
    "capacity": 0,
    "address": "24896 CHRISANTA DR, SUITE 130",
    "city": "MISSION VIEJO",
    "zip": "92691",
    "county": "ORANGE",
    "phone": null,
    "lat": 33.60152298,
    "lng": -117.672717
  },
  {
    "id": "060001643",
    "name": "PROVIDENCE AT HOME WITH COMPASSUS HOME HEALTH ORANGE COUNTY MV",
    "npi": null,
    "hcaiId": "406304254",
    "businessName": "CP ORANGE COUNTY S-CA HH, LLC",
    "contactEmail": null,
    "categoryName": "HOME HEALTH AGENCY",
    "categoryCode": "HHA",
    "licenseStatus": "ACTIVE",
    "inService": true,
    "licenseNumber": "060000099",
    "licenseEffectiveDate": "10/20/2025",
    "licenseExpirationDate": "03/30/2026",
    "dataDate": "10/18/2025",
    "capacity": 0,
    "address": "26522 LA ALAMEDA, SUITE 120",
    "city": "MISSION VIEJO",
    "zip": "92691",
    "county": "ORANGE",
    "phone": "(949) 582-1906",
    "lat": 33.563988,
    "lng": -117.666954
  },
  {
    "id": "630013394",
    "name": "PROVIDENCE AT HOME WITH COMPASSUS HOSPICE CARE ORANGE COUNTY SOUTH",
    "npi": "1578840260",
    "hcaiId": "406304491",
    "businessName": "CP ORANGE CO SOUTH S-CA HOSPICE, LLC",
    "contactEmail": "SHAYNA.STILES@PROVIDENCE.ORG",
    "categoryName": "HOSPICE",
    "categoryCode": "HOSPICE",
    "licenseStatus": "ACTIVE",
    "inService": true,
    "licenseNumber": "550001846",
    "licenseEffectiveDate": "10/10/2025",
    "licenseExpirationDate": "12/20/2025",
    "dataDate": "10/18/2025",
    "capacity": 0,
    "address": "26522 LA ALAMEDA, SUITE 120-A",
    "city": "MISSION VIEJO",
    "zip": "92691",
    "county": "ORANGE",
    "phone": "(800) 850-2631",
    "lat": 33.56373099,
    "lng": -117.666968
  },
  {
    "id": "060000060",
    "name": "PROVIDENCE MISSION HOSPITAL",
    "npi": "1992752315",
    "hcaiId": "106301262",
    "businessName": "MISSION HOSPITAL REGIONAL MEDICAL CENTER",
    "contactEmail": "TERESA.TORRES2@PROVIDENCE.ORG",
    "categoryName": "GENERAL ACUTE CARE HOSPITAL",
    "categoryCode": "GACH",
    "licenseStatus": "ACTIVE",
    "inService": true,
    "licenseNumber": "060000146",
    "licenseEffectiveDate": "02/21/2025",
    "licenseExpirationDate": "11/30/2025",
    "dataDate": "10/18/2025",
    "capacity": 345,
    "address": "27700 MEDICAL CENTER RD",
    "city": "MISSION VIEJO",
    "zip": "92691",
    "county": "ORANGE",
    "phone": "(949) 201-0585",
    "lat": 33.5610153,
    "lng": -117.6653937
  },
  {
    "id": "060001440",
    "name": "QUALITY CARE HOME",
    "npi": "1790872059",
    "hcaiId": null,
    "businessName": "ORPAS CORPORATION",
    "contactEmail": "BESCOBAR.ORPAS@OUTLOOK.COM",
    "categoryName": "INTERMEDIATE CARE FACILITY-DD/H/N/CN/IID",
    "categoryCode": "ICFDDN",
    "licenseStatus": "ACTIVE",
    "inService": true,
    "licenseNumber": "060000446",
    "licenseEffectiveDate": "05/13/2025",
    "licenseExpirationDate": "05/12/2026",
    "dataDate": "10/18/2025",
    "capacity": 6,
    "address": "26242 AVENIDA CALIDAD",
    "city": "MISSION VIEJO",
    "zip": "92691",
    "county": "ORANGE",
    "phone": "(657) 384-6103",
    "lat": 33.615027,
    "lng": -117.672111
  },
  {
    "id": "060001207",
    "name": "RADY CHILDREN'S HOSPITAL",
    "npi": "1699868398",
    "hcaiId": "106304113",
    "businessName": "CHILDREN'S HOSPITAL AT MISSION",
    "contactEmail": "CZUNIGA@CHOC.ORG",
    "categoryName": "GENERAL ACUTE CARE HOSPITAL",
    "categoryCode": "GACH",
    "licenseStatus": "ACTIVE",
    "inService": true,
    "licenseNumber": "060000348",
    "licenseEffectiveDate": "09/16/2025",
    "licenseExpirationDate": "12/31/2025",
    "dataDate": "10/18/2025",
    "capacity": 54,
    "address": "27700 MEDICAL CENTER RD, FLOOR 5",
    "city": "MISSION VIEJO",
    "zip": "92691",
    "county": "ORANGE",
    "phone": "(714) 509-3289",
    "lat": 33.560955,
    "lng": -117.665442
  },
  {
    "id": "630013009",
    "name": "RECODO LANE HOME",
    "npi": "1336444629",
    "hcaiId": null,
    "businessName": "NUZON CORPORATION",
    "contactEmail": "LILIBETH@MVINUZONCORP.COM",
    "categoryName": "INTERMEDIATE CARE FACILITY-DD/H/N/CN/IID",
    "categoryCode": "ICFDDN",
    "licenseStatus": "ACTIVE",
    "inService": true,
    "licenseNumber": "550001634",
    "licenseEffectiveDate": "11/14/2024",
    "licenseExpirationDate": "11/13/2025",
    "dataDate": "10/18/2025",
    "capacity": 6,
    "address": "26961 RECODO LN",
    "city": "MISSION VIEJO",
    "zip": "92691",
    "county": "ORANGE",
    "phone": "(951) 231-8805",
    "lat": 33.572547,
    "lng": -117.6589485
  },
  {
    "id": "630012826",
    "name": "ROYAL HOME HEALTH SERVICES",
    "npi": "1427375534",
    "hcaiId": "406304512",
    "businessName": "TENGORA CORPORATION",
    "contactEmail": "ROYALHHS@YAHOO.COM",
    "categoryName": "HOME HEALTH AGENCY",
    "categoryCode": "HHA",
    "licenseStatus": "ACTIVE",
    "inService": true,
    "licenseNumber": "550002086",
    "licenseEffectiveDate": "10/08/2025",
    "licenseExpirationDate": "10/07/2026",
    "dataDate": "10/18/2025",
    "capacity": 0,
    "address": "26522 LA ALAMEDA, SUITE 205",
    "city": "MISSION VIEJO",
    "zip": "92691",
    "county": "ORANGE",
    "phone": "(949) 770-5050",
    "lat": 33.563925,
    "lng": -117.6669225
  },
  {
    "id": "630021471",
    "name": "SILVERSTONE HOSPICE CARE INC",
    "npi": null,
    "hcaiId": "406193774",
    "businessName": "SILVERSTONE HOSPICE CARE INC",
    "contactEmail": "SILVERSTONEHOSPICECARE@GMAIL.COM",
    "categoryName": "HOSPICE",
    "categoryCode": "HOSPICE",
    "licenseStatus": "ACTIVE",
    "inService": true,
    "licenseNumber": "550006671",
    "licenseEffectiveDate": "08/06/2025",
    "licenseExpirationDate": "08/05/2027",
    "dataDate": "10/18/2025",
    "capacity": 0,
    "address": "26522 LA ALAMEDA, SUITE 200",
    "city": "MISSION VIEJO",
    "zip": "92691",
    "county": "ORANGE",
    "phone": "(949) 446-9960",
    "lat": 33.56373099,
    "lng": -117.666968
  },
  {
    "id": "630020705",
    "name": "SOS COMMUNITY HEALTH CENTER - MISSION VIEJO",
    "npi": null,
    "hcaiId": null,
    "businessName": "SHARE OUR SELVES CORPORATION",
    "contactEmail": null,
    "categoryName": "PRIMARY CARE CLINIC",
    "categoryCode": "COMTYC",
    "licenseStatus": "ACTIVE",
    "inService": true,
    "licenseNumber": "060000232",
    "licenseEffectiveDate": "11/03/2024",
    "licenseExpirationDate": "11/02/2025",
    "dataDate": "10/18/2025",
    "capacity": 0,
    "address": "27725 SANTA MARGARITA PKWY, SUITE 101",
    "city": "MISSION VIEJO",
    "zip": "92691",
    "county": "ORANGE",
    "phone": null,
    "lat": 33.654609,
    "lng": -117.646839
  },
  {
    "id": "060000877",
    "name": "UNITED SURGERY CENTER MISSION VIEJO",
    "npi": "1154413102",
    "hcaiId": "306304174",
    "businessName": null,
    "contactEmail": "KJONES@UNITEDSURGERY.ORG",
    "categoryName": "SURGICAL CLINIC",
    "categoryCode": "ASC",
    "licenseStatus": "INACTIVE - CAPEN DECISION",
    "inService": false,
    "licenseNumber": "060000405",
    "licenseEffectiveDate": "12/14/2008",
    "licenseExpirationDate": "12/13/2009",
    "dataDate": "10/18/2025",
    "capacity": 0,
    "address": "26732 CROWN VALLEY PKWY, SUITE 241",
    "city": "MISSION VIEJO",
    "zip": "92691",
    "county": "ORANGE",
    "phone": "(951) 764-9396",
    "lat": 33.562836,
    "lng": -117.665235
  },
  {
    "id": "630016430",
    "name": "VISION VIEJO HOSPICE SERVICES",
    "npi": "1922478791",
    "hcaiId": "406301553",
    "businessName": "VISION VIEJO HOSPICE SERVICES",
    "contactEmail": "GEMMA@VISIONVIEJOHOSPICE.COM",
    "categoryName": "HOSPICE",
    "categoryCode": "HOSPICE",
    "licenseStatus": "ACTIVE",
    "inService": true,
    "licenseNumber": "550003754",
    "licenseEffectiveDate": "01/04/2025",
    "licenseExpirationDate": "01/03/2027",
    "dataDate": "10/18/2025",
    "capacity": 0,
    "address": "27281 LAS RAMBLAS, SUITE 209",
    "city": "MISSION VIEJO",
    "zip": "92691",
    "county": "ORANGE",
    "phone": "(949) 231-9226",
    "lat": 33.566877,
    "lng": -117.669519
  }
]