[
  {
    "id": "630017186",
    "name": "ABC SANTA ANA DAY HEALTH CENTER",
    "npi": null,
    "hcaiId": null,
    "businessName": "MAGNOLIA ADULT DAY HEALTH CARE, INC.",
    "contactEmail": "GINATRUONG@GMAIL.COM",
    "categoryName": "ADULT DAY HEALTH CARE",
    "categoryCode": "ADHC",
    "licenseStatus": "ACTIVE",
    "inService": true,
    "licenseNumber": "550004252",
    "licenseEffectiveDate": "04/26/2025",
    "licenseExpirationDate": "04/25/2026",
    "dataDate": "10/18/2025",
    "capacity": 0,
    "address": "206 W 15TH ST",
    "city": "SANTA ANA",
    "zip": "92701",
    "county": "ORANGE",
    "phone": "(657) 210-2379",
    "lat": 33.757686,
    "lng": -117.8688465
  },
  {
    "id": "630021891",
    "name": "ACCESS COMMUNITY HEALTH CENTER",
    "npi": null,
    "hcaiId": "306300703",
    "businessName": "ACCESS COMMUNITY HEALTH CENTER",
    "contactEmail": "RUTH.FLETCHER@ACCESSFQHC.COM",
    "categoryName": "PRIMARY CARE CLINIC",
    "categoryCode": "FQHC/COMTYC",
    "licenseStatus": "ACTIVE",
    "inService": true,
    "licenseNumber": "550007868",
    "licenseEffectiveDate": "10/18/2025",
    "licenseExpirationDate": "10/17/2026",
    "dataDate": "10/18/2025",
    "capacity": 0,
    "address": "520 N MAIN ST, SUITE 120",
    "city": "SANTA ANA",
    "zip": "92701",
    "county": "ORANGE",
    "phone": "(949) 989-4265",
    "lat": 33.74928,
    "lng": -117.8677755
  },
  {
    "id": "630027879",
    "name": "ALTAMED BEHAVIORAL HEALTH AT CIRCULOS ADVANCED LEARNING ACADEMY",
    "npi": null,
    "hcaiId": null,
    "businessName": "ALTAMED HEALTH SERVICES CORPORATION",
    "contactEmail": "RYOUNG@ALTAMED.ORG",
    "categoryName": "PRIMARY CARE CLINIC",
    "categoryCode": "COMTYC",
    "licenseStatus": "ACTIVE",
    "inService": true,
    "licenseNumber": "550001008",
    "licenseEffectiveDate": "04/01/2025",
    "licenseExpirationDate": "03/31/2026",
    "dataDate": "10/18/2025",
    "capacity": 0,
    "address": "811 E BISHOP ST",
    "city": "SANTA ANA",
    "zip": "92701",
    "county": "ORANGE",
    "phone": "(923) 622-2429",
    "lat": 33.74040001,
    "lng": -117.857524
  },
  {
    "id": "630027770",
    "name": "ALTAMED DENTAL GROUP AT EDWARD B. COLE ELEMENTARY SCHOOL",
    "npi": null,
    "hcaiId": null,
    "businessName": "ALTAMED HEALTH SERVICES CORPORATION",
    "contactEmail": null,
    "categoryName": "PRIMARY CARE CLINIC",
    "categoryCode": "COMTYC",
    "licenseStatus": "ACTIVE",
    "inService": true,
    "licenseNumber": "550001008",
    "licenseEffectiveDate": "04/01/2025",
    "licenseExpirationDate": "03/31/2026",
    "dataDate": "10/18/2025",
    "capacity": 0,
    "address": "333 W WALNUT ST",
    "city": "SANTA ANA",
    "zip": "92701",
    "county": "ORANGE",
    "phone": null,
    "lat": 33.7444621,
    "lng": -117.8705731
  },
  {
    "id": "630027403",
    "name": "ALTAMED DENTAL GROUP AT EL SOL ACADEMY",
    "npi": "1740427657",
    "hcaiId": null,
    "businessName": "ALTAMED HEALTH SERVICES CORPORATION",
    "contactEmail": null,
    "categoryName": "PRIMARY CARE CLINIC",
    "categoryCode": "COMTYC",
    "licenseStatus": "ACTIVE",
    "inService": true,
    "licenseNumber": "550001008",
    "licenseEffectiveDate": "04/01/2025",
    "licenseExpirationDate": "03/31/2026",
    "dataDate": "10/18/2025",
    "capacity": 0,
    "address": "1010 N BROADWAY",
    "city": "SANTA ANA",
    "zip": "92701",
    "county": "ORANGE",
    "phone": null,
    "lat": 33.75402501,
    "lng": -117.870318
  },
  {
    "id": "630012109",
    "name": "ALTAMED MEDICAL AND DENTAL GROUP - SANTA ANA, MAIN",
    "npi": "1740427657",
    "hcaiId": "306304440",
    "businessName": "ALTAMED HEALTH SERVICES CORPORATION",
    "contactEmail": "OEVERO@ALTAMED.ORG",
    "categoryName": "PRIMARY CARE CLINIC",
    "categoryCode": "COMTYC",
    "licenseStatus": "ACTIVE",
    "inService": true,
    "licenseNumber": "550001008",
    "licenseEffectiveDate": "04/01/2025",
    "licenseExpirationDate": "03/31/2026",
    "dataDate": "10/18/2025",
    "capacity": 0,
    "address": "1400 N MAIN ST",
    "city": "SANTA ANA",
    "zip": "92701",
    "county": "ORANGE",
    "phone": "(714) 352-7301",
    "lat": 33.756921,
    "lng": -117.8680455
  },
  {
    "id": "060002277",
    "name": "APEX HOME HEALTH CARE SERVICES",
    "npi": "1669524831",
    "hcaiId": "406304417",
    "businessName": "PINNACLE HEALTH CORPORATION",
    "contactEmail": "ANGELAP@APEXHOMEHEALTH.COM",
    "categoryName": "HOME HEALTH AGENCY",
    "categoryCode": "HHA",
    "licenseStatus": "ACTIVE",
    "inService": true,
    "licenseNumber": "060000951",
    "licenseEffectiveDate": "02/10/2025",
    "licenseExpirationDate": "02/09/2026",
    "dataDate": "10/18/2025",
    "capacity": 0,
    "address": "520 N MAIN ST, SUITE 200",
    "city": "SANTA ANA",
    "zip": "92701",
    "county": "ORANGE",
    "phone": "(714) 527-0887",
    "lat": 33.74928,
    "lng": -117.8677755
  },
  {
    "id": "630013972",
    "name": "APEX HOSPICE CARE, INC.",
    "npi": null,
    "hcaiId": "406304526",
    "businessName": "APEX HOSPICE CARE, INC.",
    "contactEmail": "ANGELA@APEXHOSPICE.COM",
    "categoryName": "HOSPICE",
    "categoryCode": "HOSPICE",
    "licenseStatus": "ACTIVE",
    "inService": true,
    "licenseNumber": "550002191",
    "licenseEffectiveDate": "02/12/2025",
    "licenseExpirationDate": "02/11/2027",
    "dataDate": "10/18/2025",
    "capacity": 0,
    "address": "520 N MAIN ST, SUITE 250",
    "city": "SANTA ANA",
    "zip": "92701",
    "county": "ORANGE",
    "phone": "(800) 601-9657",
    "lat": 33.74928,
    "lng": -117.8677755
  },
  {
    "id": "630021725",
    "name": "AUHC BRANCH OFFICE - ORANGE COUNTY",
    "npi": "1740752997",
    "hcaiId": null,
    "businessName": "PINE STREET HEALTHCARE PARTNERS, LLC",
    "contactEmail": "JSASSOVER@AMERICANUNITEDHOMECARE.COM",
    "categoryName": "HOME HEALTH AGENCY",
    "categoryCode": "HHA",
    "licenseStatus": "ACTIVE",
    "inService": true,
    "licenseNumber": "980000988",
    "licenseEffectiveDate": "11/23/2024",
    "licenseExpirationDate": "11/22/2025",
    "dataDate": "10/18/2025",
    "capacity": 0,
    "address": "1633 E 4TH ST, SUITE 152",
    "city": "SANTA ANA",
    "zip": "92701",
    "county": "ORANGE",
    "phone": "(818) 366-6358",
    "lat": 33.748488,
    "lng": -117.846432
  },
  {
    "id": "060001259",
    "name": "CLINICA CHOC PARA NINOS",
    "npi": null,
    "hcaiId": "306304155",
    "businessName": "CHILDREN'S HOSPITAL OF ORANGE COUNTY",
    "contactEmail": "CNAMENEK@CHOC.ORG",
    "categoryName": "PRIMARY CARE CLINIC",
    "categoryCode": "COMTYC",
    "licenseStatus": "ACTIVE",
    "inService": true,
    "licenseNumber": "060000375",
    "licenseEffectiveDate": "03/01/2025",
    "licenseExpirationDate": "02/28/2026",
    "dataDate": "10/18/2025",
    "capacity": 0,
    "address": "406 S MAIN ST",
    "city": "SANTA ANA",
    "zip": "92701",
    "county": "ORANGE",
    "phone": "(714) 509-4897",
    "lat": 33.742134,
    "lng": -117.868149
  },
  {
    "id": "630023309",
    "name": "COMMUNITY MEDICINE INC.",
    "npi": "1457744476",
    "hcaiId": null,
    "businessName": "COMMUNITY MEDICINE INC.",
    "contactEmail": "HABIB@CMINC.ORG",
    "categoryName": "PRIMARY CARE CLINIC",
    "categoryCode": "COMTYC",
    "licenseStatus": "ACTIVE",
    "inService": true,
    "licenseNumber": "550003676",
    "licenseEffectiveDate": "09/01/2025",
    "licenseExpirationDate": "08/31/2026",
    "dataDate": "10/18/2025",
    "capacity": 0,
    "address": "301 N MAIN ST",
    "city": "SANTA ANA",
    "zip": "92701",
    "county": "ORANGE",
    "phone": "(310) 418-6076",
    "lat": 33.747237,
    "lng": -117.867483
  },
  {
    "id": "060000164",
    "name": "FRENCH PARK CARE CENTER",
    "npi": "1245323088",
    "hcaiId": "206300039",
    "businessName": "BARTLETT CARE CENTER, LLC",
    "contactEmail": "ADMIN@FRENCHPARKCARECENTER.COM",
    "categoryName": "SKILLED NURSING FACILITY",
    "categoryCode": "SNF",
    "licenseStatus": "ACTIVE",
    "inService": true,
    "licenseNumber": "060000013",
    "licenseEffectiveDate": "04/08/2025",
    "licenseExpirationDate": "04/07/2026",
    "dataDate": "10/18/2025",
    "capacity": 202,
    "address": "600 E WASHINGTON AVE",
    "city": "SANTA ANA",
    "zip": "92701",
    "county": "ORANGE",
    "phone": "(714) 973-1656",
    "lat": 33.755175,
    "lng": -117.8618265
  },
  {
    "id": "630027090",
    "name": "HEAL HOME HEALTH",
    "npi": null,
    "hcaiId": null,
    "businessName": "HEAL HOME HEALTH",
    "contactEmail": "HEALHHS@GMAIL.COM",
    "categoryName": "HOME HEALTH AGENCY",
    "categoryCode": "HHA",
    "licenseStatus": "ACTIVE",
    "inService": true,
    "licenseNumber": "550009864",
    "licenseEffectiveDate": "06/24/2025",
    "licenseExpirationDate": "12/23/2025",
    "dataDate": "10/18/2025",
    "capacity": 0,
    "address": "1600 E 4TH ST, SUITE 320",
    "city": "SANTA ANA",
    "zip": "92701",
    "county": "ORANGE",
    "phone": "(209) 813-3458",
    "lat": 33.74780903,
    "lng": -117.8471771
  },
  {
    "id": "630018405",
    "name": "INTEGRATED COMMUNITY SERVICES - SANTA ANA",
    "npi": null,
    "hcaiId": null,
    "businessName": null,
    "contactEmail": null,
    "categoryName": "PRIMARY CARE CLINIC",
    "categoryCode": "FQHC",
    "licenseStatus": null,
    "inService": null,
    "licenseNumber": null,
    "licenseEffectiveDate": null,
    "licenseExpirationDate": null,
    "dataDate": "10/18/2025",
    "capacity": 0,
    "address": "1200 N MAIN ST, SUITE 300",
    "city": "SANTA ANA",
    "zip": "92701",
    "county": "ORANGE",
    "phone": null,
    "lat": 33.755175,
    "lng": -117.868131
  },
  {
    "id": "630024984",
    "name": "NEW HORIZONS COMMUNITY WELLNESS CENTER",
    "npi": null,
    "hcaiId": null,
    "businessName": "NEW HORIZONS COMMUNITY WELLNESS CENTER",
    "contactEmail": "DANIEL.NUNEZ@NEWHORIZONSCWC.ORG",
    "categoryName": "PSYCHOLOGY CLINIC",
    "categoryCode": "PSYCHC",
    "licenseStatus": "ACTIVE",
    "inService": true,
    "licenseNumber": "550008836",
    "licenseEffectiveDate": "12/04/2024",
    "licenseExpirationDate": "12/03/2025",
    "dataDate": "10/18/2025",
    "capacity": 0,
    "address": "600 W SANTA ANA BLVD, SUITE 1140",
    "city": "SANTA ANA",
    "zip": "92701",
    "county": "ORANGE",
    "phone": "(714) 426-9311",
    "lat": 33.747705,
    "lng": -117.8737335
  },
  {
    "id": "630019364",
    "name": "SAINT YOUSTINA",
    "npi": null,
    "hcaiId": "306300569",
    "businessName": "SAINT YOUSTINA",
    "contactEmail": "FAMILYDOCTORSONLINE@GMAIL.COM",
    "categoryName": "PRIMARY CARE CLINIC",
    "categoryCode": "COMTYC",
    "licenseStatus": "ACTIVE",
    "inService": true,
    "licenseNumber": "550005540",
    "licenseEffectiveDate": "05/28/2025",
    "licenseExpirationDate": "05/27/2026",
    "dataDate": "10/18/2025",
    "capacity": 0,
    "address": "809 S MAIN ST, SUITE A",
    "city": "SANTA ANA",
    "zip": "92701",
    "county": "ORANGE",
    "phone": "(714) 973-7770",
    "lat": 33.737904,
    "lng": -117.8674695
  },
  {
    "id": "630019635",
    "name": "SERVE THE PEOPLE BEHAVIORAL HEALTH CENTER",
    "npi": null,
    "hcaiId": null,
    "businessName": "SERVE THE PEOPLE, INC.",
    "contactEmail": null,
    "categoryName": "PRIMARY CARE CLINIC",
    "categoryCode": "COMTYC",
    "licenseStatus": "ACTIVE",
    "inService": true,
    "licenseNumber": "550001441",
    "licenseEffectiveDate": "12/22/2024",
    "licenseExpirationDate": "12/21/2025",
    "dataDate": "10/18/2025",
    "capacity": 0,
    "address": "1206 E 17TH ST, SUITE 201",
    "city": "SANTA ANA",
    "zip": "92701",
    "county": "ORANGE",
    "phone": null,
    "lat": 33.75963,
    "lng": -117.8540595
  },
  {
    "id": "630012701",
    "name": "SERVE THE PEOPLE COMMUNITY HEALTH CENTER",
    "npi": null,
    "hcaiId": "306304470",
    "businessName": "SERVE THE PEOPLE, INC.",
    "contactEmail": "DBECERRA@SERVETHEPEOPLECHC.ORG",
    "categoryName": "PRIMARY CARE CLINIC",
    "categoryCode": "COMTYC",
    "licenseStatus": "ACTIVE",
    "inService": true,
    "licenseNumber": "550001441",
    "licenseEffectiveDate": "12/22/2024",
    "licenseExpirationDate": "12/21/2025",
    "dataDate": "10/18/2025",
    "capacity": 0,
    "address": "1206 E 17TH ST, SUITE 101",
    "city": "SANTA ANA",
    "zip": "92701",
    "county": "ORANGE",
    "phone": "(714) 352-2911",
    "lat": 33.759702,
    "lng": -117.854028
  },
  {
    "id": "630019634",
    "name": "SERVE THE PEOPLE DENTAL CLINIC",
    "npi": null,
    "hcaiId": null,
    "businessName": "SERVE THE PEOPLE, INC.",
    "contactEmail": null,
    "categoryName": "PRIMARY CARE CLINIC",
    "categoryCode": "COMTYC",
    "licenseStatus": "ACTIVE",
    "inService": true,
    "licenseNumber": "550001441",
    "licenseEffectiveDate": "12/22/2024",
    "licenseExpirationDate": "12/21/2025",
    "dataDate": "10/18/2025",
    "capacity": 0,
    "address": "1206 E 17TH ST, SUITE 104",
    "city": "SANTA ANA",
    "zip": "92701",
    "county": "ORANGE",
    "phone": null,
    "lat": 33.759351,
    "lng": -117.8540145
  },
  {
    "id": "630019630",
    "name": "SERVE THE PEOPLE MOBILE DENTAL CLINIC",
    "npi": null,
    "hcaiId": null,
    "businessName": "SERVE THE PEOPLE, INC.",
    "contactEmail": null,
    "categoryName": "PRIMARY CARE CLINIC",
    "categoryCode": "COMTYC",
    "licenseStatus": "ACTIVE",
    "inService": true,
    "licenseNumber": "550001441",
    "licenseEffectiveDate": "12/22/2024",
    "licenseExpirationDate": "12/21/2025",
    "dataDate": "10/18/2025",
    "capacity": 0,
    "address": "1206 E 17TH ST",
    "city": "SANTA ANA",
    "zip": "92701",
    "county": "ORANGE",
    "phone": null,
    "lat": 33.759504,
    "lng": -117.8539785
  },
  {
    "id": "630027201",
    "name": "SERVE THE PEOPLE MOBILE DENTAL CLINIC 2",
    "npi": null,
    "hcaiId": null,
    "businessName": "SERVE THE PEOPLE, INC.",
    "contactEmail": null,
    "categoryName": "PRIMARY CARE CLINIC",
    "categoryCode": "COMTYC",
    "licenseStatus": "ACTIVE",
    "inService": true,
    "licenseNumber": "550001441",
    "licenseEffectiveDate": "12/22/2024",
    "licenseExpirationDate": "12/21/2025",
    "dataDate": "10/18/2025",
    "capacity": 0,
    "address": "1206 E 17TH ST",
    "city": "SANTA ANA",
    "zip": "92701",
    "county": "ORANGE",
    "phone": null,
    "lat": 33.75921202,
    "lng": -117.853944
  },
  {
    "id": "630019633",
    "name": "SERVE THE PEOPLE MOBILE MEDICAL CLINIC",
    "npi": null,
    "hcaiId": null,
    "businessName": "SERVE THE PEOPLE, INC.",
    "contactEmail": null,
    "categoryName": "PRIMARY CARE CLINIC",
    "categoryCode": "COMTYC",
    "licenseStatus": "ACTIVE",
    "inService": true,
    "licenseNumber": "550001441",
    "licenseEffectiveDate": "12/22/2024",
    "licenseExpirationDate": "12/21/2025",
    "dataDate": "10/18/2025",
    "capacity": 0,
    "address": "1206 E 17TH ST, SUITE 101",
    "city": "SANTA ANA",
    "zip": "92701",
    "county": "ORANGE",
    "phone": null,
    "lat": 33.759702,
    "lng": -117.854028
  },
  {
    "id": "630019632",
    "name": "SERVE THE PEOPLE MOBILE VISION CLINIC",
    "npi": null,
    "hcaiId": null,
    "businessName": "SERVE THE PEOPLE, INC.",
    "contactEmail": null,
    "categoryName": "PRIMARY CARE CLINIC",
    "categoryCode": "COMTYC",
    "licenseStatus": "ACTIVE",
    "inService": true,
    "licenseNumber": "550001441",
    "licenseEffectiveDate": "12/22/2024",
    "licenseExpirationDate": "12/21/2025",
    "dataDate": "10/18/2025",
    "capacity": 0,
    "address": "1206 E 17TH ST",
    "city": "SANTA ANA",
    "zip": "92701",
    "county": "ORANGE",
    "phone": null,
    "lat": 33.759504,
    "lng": -117.8539785
  },
  {
    "id": "630027317",
    "name": "SERVE THE PEOPLE MOBILE VISION CLINIC 2",
    "npi": null,
    "hcaiId": null,
    "businessName": "SERVE THE PEOPLE, INC.",
    "contactEmail": null,
    "categoryName": "PRIMARY CARE CLINIC",
    "categoryCode": "COMTYC",
    "licenseStatus": "ACTIVE",
    "inService": true,
    "licenseNumber": "550001441",
    "licenseEffectiveDate": "12/22/2024",
    "licenseExpirationDate": "12/21/2025",
    "dataDate": "10/18/2025",
    "capacity": 0,
    "address": "1206 E 17TH ST",
    "city": "SANTA ANA",
    "zip": "92701",
    "county": "ORANGE",
    "phone": null,
    "lat": 33.75921202,
    "lng": -117.853944
  },
  {
    "id": "630015958",
    "name": "SOS-EL SOL WELLNESS CENTER",
    "npi": "1295082774",
    "hcaiId": "306304571",
    "businessName": "SHARE OUR SELVES CORPORATION",
    "contactEmail": "COMPLIANCE@SHAREOURSELVES.ORG",
    "categoryName": "PRIMARY CARE CLINIC",
    "categoryCode": "COMTYC",
    "licenseStatus": "ACTIVE",
    "inService": true,
    "licenseNumber": "550003228",
    "licenseEffectiveDate": "09/14/2025",
    "licenseExpirationDate": "09/13/2026",
    "dataDate": "10/18/2025",
    "capacity": 0,
    "address": "1014 NORTH BROADWAY STREET",
    "city": "SANTA ANA",
    "zip": "92701",
    "county": "ORANGE",
    "phone": "(949) 270-2154",
    "lat": 33.754041,
    "lng": -117.8700705
  },
  {
    "id": "630025037",
    "name": "STP COMMUNITY HEALTH CENTER",
    "npi": null,
    "hcaiId": null,
    "businessName": "SERVE THE PEOPLE, INC.",
    "contactEmail": null,
    "categoryName": "PRIMARY CARE CLINIC",
    "categoryCode": "COMTYC",
    "licenseStatus": "ACTIVE",
    "inService": true,
    "licenseNumber": "550001441",
    "licenseEffectiveDate": "12/22/2024",
    "licenseExpirationDate": "12/21/2025",
    "dataDate": "10/18/2025",
    "capacity": 0,
    "address": "1206 E 17TH ST, SUITE 105",
    "city": "SANTA ANA",
    "zip": "92701",
    "county": "ORANGE",
    "phone": null,
    "lat": 33.759504,
    "lng": -117.8539785
  },
  {
    "id": "060000496",
    "name": "UCI FAMILY HLTH CTR - SANTA ANA",
    "npi": null,
    "hcaiId": null,
    "businessName": null,
    "contactEmail": null,
    "categoryName": "PRIMARY CARE CLINIC",
    "categoryCode": "FQHC",
    "licenseStatus": null,
    "inService": null,
    "licenseNumber": null,
    "licenseEffectiveDate": null,
    "licenseExpirationDate": null,
    "dataDate": "10/18/2025",
    "capacity": 0,
    "address": "800 N. MAIN STREET",
    "city": "SANTA ANA",
    "zip": "92701",
    "county": "ORANGE",
    "phone": null,
    "lat": 33.75132,
    "lng": -117.868161
  }
]