[
  {
    "id": "630017990",
    "name": "ADELANTE HEALTH CENTER",
    "npi": "1548659105",
    "hcaiId": null,
    "businessName": "BEHAVIORAL HEALTH SERVICES, INC.",
    "contactEmail": null,
    "categoryName": "PRIMARY CARE CLINIC",
    "categoryCode": "COMTYC",
    "licenseStatus": "ACTIVE",
    "inService": true,
    "licenseNumber": "550003493",
    "licenseEffectiveDate": "04/11/2025",
    "licenseExpirationDate": "04/10/2026",
    "dataDate": "10/18/2025",
    "capacity": 0,
    "address": "2015 WEST 1ST STREET, SUITE L",
    "city": "SANTA ANA",
    "zip": "92703",
    "county": "ORANGE",
    "phone": null,
    "lat": 33.746157,
    "lng": -117.8970075
  },
  {
    "id": "630027889",
    "name": "ALTAMED DENTAL GROUP AT FREMONT ELEMENTARY SCHOOL",
    "npi": null,
    "hcaiId": null,
    "businessName": "ALTAMED HEALTH SERVICES CORPORATION",
    "contactEmail": null,
    "categoryName": "PRIMARY CARE CLINIC",
    "categoryCode": "COMTYC",
    "licenseStatus": "ACTIVE",
    "inService": true,
    "licenseNumber": "550001008",
    "licenseEffectiveDate": "04/01/2025",
    "licenseExpirationDate": "03/31/2026",
    "dataDate": "10/18/2025",
    "capacity": 0,
    "address": "1930 W 10TH ST",
    "city": "SANTA ANA",
    "zip": "92703",
    "county": "ORANGE",
    "phone": null,
    "lat": 33.75276001,
    "lng": -117.896067
  },
  {
    "id": "630027401",
    "name": "ALTAMED DENTAL GROUP AT HEROES ELEMENTARY SCHOOL",
    "npi": "1740427657",
    "hcaiId": null,
    "businessName": "ALTAMED HEALTH SERVICES CORPORATION",
    "contactEmail": null,
    "categoryName": "PRIMARY CARE CLINIC",
    "categoryCode": "COMTYC",
    "licenseStatus": "ACTIVE",
    "inService": true,
    "licenseNumber": "550001008",
    "licenseEffectiveDate": "04/01/2025",
    "licenseExpirationDate": "03/31/2026",
    "dataDate": "10/18/2025",
    "capacity": 0,
    "address": "1111 W CIVIC CENTER DR",
    "city": "SANTA ANA",
    "zip": "92703",
    "county": "ORANGE",
    "phone": null,
    "lat": 33.751845,
    "lng": -117.881497
  },
  {
    "id": "630027392",
    "name": "ALTAMED DENTAL GROUP AT LOWELL ELEMENTARY SCHOOL",
    "npi": "1740427657",
    "hcaiId": null,
    "businessName": "ALTAMED HEALTH SERVICES CORPORATION",
    "contactEmail": null,
    "categoryName": "PRIMARY CARE CLINIC",
    "categoryCode": "COMTYC",
    "licenseStatus": "ACTIVE",
    "inService": true,
    "licenseNumber": "550001008",
    "licenseEffectiveDate": "04/01/2025",
    "licenseExpirationDate": "03/31/2026",
    "dataDate": "10/18/2025",
    "capacity": 0,
    "address": "700 S FLOWER ST",
    "city": "SANTA ANA",
    "zip": "92703",
    "county": "ORANGE",
    "phone": null,
    "lat": 33.73847699,
    "lng": -117.878405
  },
  {
    "id": "630027402",
    "name": "ALTAMED DENTAL GROUP AT VISTA HERITAGE GLOBAL ACADEMY",
    "npi": "1740427657",
    "hcaiId": null,
    "businessName": "ALTAMED HEALTH SERVICES CORPORATION",
    "contactEmail": null,
    "categoryName": "PRIMARY CARE CLINIC",
    "categoryCode": "COMTYC",
    "licenseStatus": "ACTIVE",
    "inService": true,
    "licenseNumber": "550001008",
    "licenseEffectiveDate": "04/01/2025",
    "licenseExpirationDate": "03/31/2026",
    "dataDate": "10/18/2025",
    "capacity": 0,
    "address": "2609 W 5TH ST",
    "city": "SANTA ANA",
    "zip": "92703",
    "county": "ORANGE",
    "phone": null,
    "lat": 33.74931702,
    "lng": -117.902943
  },
  {
    "id": "060001964",
    "name": "CHOC CLINIC AT THE BOYS & GIRLS CLUB OF SANTA ANA",
    "npi": null,
    "hcaiId": "306304272",
    "businessName": "CHILDREN'S HOSPITAL OF ORANGE COUNTY",
    "contactEmail": "CNAMENEK@CHOC.ORG",
    "categoryName": "PRIMARY CARE CLINIC",
    "categoryCode": "COMTYC",
    "licenseStatus": "ACTIVE",
    "inService": true,
    "licenseNumber": "060000765",
    "licenseEffectiveDate": "02/19/2025",
    "licenseExpirationDate": "02/18/2026",
    "dataDate": "10/18/2025",
    "capacity": 0,
    "address": "1000 HIGHLAND ST",
    "city": "SANTA ANA",
    "zip": "92703",
    "county": "ORANGE",
    "phone": "(714) 509-4897",
    "lat": 33.736923,
    "lng": -117.8790885
  },
  {
    "id": "630025745",
    "name": "D&M HOME HEALTH, INC.",
    "npi": null,
    "hcaiId": null,
    "businessName": "D&M HOME HEALTH, INC.",
    "contactEmail": "DMHOMEHEALTHINC@GMAIL.COM",
    "categoryName": "HOME HEALTH AGENCY",
    "categoryCode": "HHA",
    "licenseStatus": "ACTIVE",
    "inService": true,
    "licenseNumber": "550008961",
    "licenseEffectiveDate": "08/23/2024",
    "licenseExpirationDate": "02/22/2025",
    "dataDate": "10/18/2025",
    "capacity": 0,
    "address": "901 W CIVIC CENTER DR, SUITE 200AV",
    "city": "SANTA ANA",
    "zip": "92703",
    "county": "ORANGE",
    "phone": "(213) 784-7178",
    "lat": 33.751719,
    "lng": -117.8767845
  },
  {
    "id": "630023772",
    "name": "HOPEFUL HOME HEALTH, INC.",
    "npi": null,
    "hcaiId": "406305510",
    "businessName": "HOPEFUL HOME HEALTH, INC.",
    "contactEmail": "HOPEFULHOMEHEALTH@YAHOO.COM",
    "categoryName": "HOME HEALTH AGENCY",
    "categoryCode": "HHA",
    "licenseStatus": "ACTIVE",
    "inService": true,
    "licenseNumber": "550008143",
    "licenseEffectiveDate": "02/25/2023",
    "licenseExpirationDate": "08/24/2023",
    "dataDate": "10/18/2025",
    "capacity": 0,
    "address": "901 W CIVIC CENTER DR, SUITE 200AQ",
    "city": "SANTA ANA",
    "zip": "92703",
    "county": "ORANGE",
    "phone": "(657) 294-5066",
    "lat": 33.751719,
    "lng": -117.8767845
  },
  {
    "id": "630023769",
    "name": "OC GLOBAL HOME HEALTH, INC.",
    "npi": null,
    "hcaiId": "406305635",
    "businessName": "OC GLOBAL HOME HEALTH, INC.",
    "contactEmail": "OCGLOBALHOMEHEALTH@YAHOO.COM",
    "categoryName": "HOME HEALTH AGENCY",
    "categoryCode": "HHA",
    "licenseStatus": "ACTIVE",
    "inService": true,
    "licenseNumber": "550008185",
    "licenseEffectiveDate": "03/08/2023",
    "licenseExpirationDate": "09/07/2023",
    "dataDate": "10/18/2025",
    "capacity": 0,
    "address": "901 W CIVIC CENTER DR, SUITE 200AJ",
    "city": "SANTA ANA",
    "zip": "92703",
    "county": "ORANGE",
    "phone": "(657) 247-5911",
    "lat": 33.751719,
    "lng": -117.8767845
  },
  {
    "id": "060001617",
    "name": "PUENTE A LA SALUD MOBILE VISION CLINIC",
    "npi": "1689070716",
    "hcaiId": "306300023",
    "businessName": "ST. JUDE NEIGHBORHOOD HEALTH CENTERS",
    "contactEmail": "TIMOTHY.BROWN@STJOE.ORG",
    "categoryName": "PRIMARY CARE CLINIC",
    "categoryCode": "COMTYC",
    "licenseStatus": "ACTIVE",
    "inService": true,
    "licenseNumber": "060000513",
    "licenseEffectiveDate": "05/04/2025",
    "licenseExpirationDate": "05/03/2026",
    "dataDate": "10/18/2025",
    "capacity": 0,
    "address": "280 N SULLIVAN ST",
    "city": "SANTA ANA",
    "zip": "92703",
    "county": "ORANGE",
    "phone": "(714) 771-8005",
    "lat": 33.746913,
    "lng": -117.902853
  },
  {
    "id": "630027578",
    "name": "WELLNESS CARE HOME HEALTH LLC",
    "npi": null,
    "hcaiId": null,
    "businessName": "WELLNESS CARE HOME HEALTH LLC",
    "contactEmail": "WELLNESSCARE.HH@GMAIL.COM",
    "categoryName": "HOME HEALTH AGENCY",
    "categoryCode": "HHA",
    "licenseStatus": "ACTIVE",
    "inService": true,
    "licenseNumber": "550009682",
    "licenseEffectiveDate": "09/03/2025",
    "licenseExpirationDate": "03/02/2026",
    "dataDate": "10/18/2025",
    "capacity": 0,
    "address": "901 W CIVIC CENTER DR, UNIT AD2",
    "city": "SANTA ANA",
    "zip": "92703",
    "county": "ORANGE",
    "phone": "(949) 547-3232",
    "lat": 33.75186101,
    "lng": -117.877807
  }
]