[
  {
    "id": "630027888",
    "name": "ALTAMED DENTAL GROUP AT ESQUEDA ELEMENTARY SCHOOL",
    "npi": null,
    "hcaiId": null,
    "businessName": "ALTAMED HEALTH SERVICES CORPORATION",
    "contactEmail": null,
    "categoryName": "PRIMARY CARE CLINIC",
    "categoryCode": "COMTYC",
    "licenseStatus": "ACTIVE",
    "inService": true,
    "licenseNumber": "550001008",
    "licenseEffectiveDate": "04/01/2025",
    "licenseExpirationDate": "03/31/2026",
    "dataDate": "10/18/2025",
    "capacity": 0,
    "address": "2240 S MAIN ST",
    "city": "SANTA ANA",
    "zip": "92707",
    "county": "ORANGE",
    "phone": null,
    "lat": 33.71660501,
    "lng": -117.870199
  },
  {
    "id": "630027378",
    "name": "ALTAMED DENTAL GROUP AT GLEN MARTIN ELEMENTARY SCHOOL",
    "npi": "1740427657",
    "hcaiId": null,
    "businessName": "ALTAMED HEALTH SERVICES CORPORATION",
    "contactEmail": null,
    "categoryName": "PRIMARY CARE CLINIC",
    "categoryCode": "COMTYC",
    "licenseStatus": "ACTIVE",
    "inService": true,
    "licenseNumber": "550001008",
    "licenseEffectiveDate": "04/01/2025",
    "licenseExpirationDate": "03/31/2026",
    "dataDate": "10/18/2025",
    "capacity": 0,
    "address": "1008 W RUSSELL AVE",
    "city": "SANTA ANA",
    "zip": "92707",
    "county": "ORANGE",
    "phone": null,
    "lat": 33.7326027,
    "lng": -117.8785711
  },
  {
    "id": "630027393",
    "name": "ALTAMED DENTAL GROUP AT WASHINGTON ELEMENTARY SCHOOL",
    "npi": "1740427657",
    "hcaiId": null,
    "businessName": "ALTAMED HEALTH SERVICES CORPORATION",
    "contactEmail": null,
    "categoryName": "PRIMARY CARE CLINIC",
    "categoryCode": "COMTYC",
    "licenseStatus": "ACTIVE",
    "inService": true,
    "licenseNumber": "550001008",
    "licenseEffectiveDate": "04/01/2025",
    "licenseExpirationDate": "03/31/2026",
    "dataDate": "10/18/2025",
    "capacity": 0,
    "address": "910 W ANAHURST PL",
    "city": "SANTA ANA",
    "zip": "92707",
    "county": "ORANGE",
    "phone": null,
    "lat": 33.717093,
    "lng": -117.875525
  },
  {
    "id": "630027901",
    "name": "ALTAMED MEDICAL GROUP - SANTA ANA, BROADWAY",
    "npi": null,
    "hcaiId": null,
    "businessName": "ALTAMED HEALTH SERVICES CORPORATION",
    "contactEmail": null,
    "categoryName": "PRIMARY CARE CLINIC",
    "categoryCode": "COMTYC",
    "licenseStatus": "ACTIVE",
    "inService": true,
    "licenseNumber": "550003268",
    "licenseEffectiveDate": "10/29/2025",
    "licenseExpirationDate": "10/28/2026",
    "dataDate": "10/18/2025",
    "capacity": 0,
    "address": "1515 S BROADWAY",
    "city": "SANTA ANA",
    "zip": "92707",
    "county": "ORANGE",
    "phone": null,
    "lat": 33.72651401,
    "lng": -117.869525
  },
  {
    "id": "630014008",
    "name": "ARIAS HEALTH CARE, INC.",
    "npi": null,
    "hcaiId": "406304544",
    "businessName": "ARIAS HEALTH CARE, INC.",
    "contactEmail": "SHIRLEYYU@ARIASHEALTH.COM",
    "categoryName": "HOSPICE",
    "categoryCode": "HOSPICE",
    "licenseStatus": "ACTIVE",
    "inService": true,
    "licenseNumber": "550002346",
    "licenseEffectiveDate": "07/29/2025",
    "licenseExpirationDate": "07/28/2027",
    "dataDate": "10/18/2025",
    "capacity": 0,
    "address": "1220 HEMLOCK WAY, SUITE 202A",
    "city": "SANTA ANA",
    "zip": "92707",
    "county": "ORANGE",
    "phone": "(949) 777-3022",
    "lat": 33.709374,
    "lng": -117.884592
  },
  {
    "id": "630027074",
    "name": "CLCHC- SANO SANTA ANA",
    "npi": null,
    "hcaiId": null,
    "businessName": "CELEBRATING LIFE COMMUNITY HEALTH CENTER",
    "contactEmail": null,
    "categoryName": "PRIMARY CARE CLINIC",
    "categoryCode": "COMTYC",
    "licenseStatus": "ACTIVE",
    "inService": true,
    "licenseNumber": "550005779",
    "licenseEffectiveDate": "10/14/2025",
    "licenseExpirationDate": "10/13/2026",
    "dataDate": "10/18/2025",
    "capacity": 0,
    "address": "1444 S MAIN ST",
    "city": "SANTA ANA",
    "zip": "92707",
    "county": "ORANGE",
    "phone": null,
    "lat": 33.72739901,
    "lng": -117.868102
  },
  {
    "id": "630018390",
    "name": "GEISS MED HOSPICE LLC",
    "npi": "1962978429",
    "hcaiId": "406301843",
    "businessName": "GEISS MED HOSPICE LLC",
    "contactEmail": "JOSE@SENIORDOC.COM",
    "categoryName": "HOSPICE",
    "categoryCode": "HOSPICE",
    "licenseStatus": "ACTIVE",
    "inService": true,
    "licenseNumber": "550004968",
    "licenseEffectiveDate": "03/13/2025",
    "licenseExpirationDate": "10/08/2025",
    "dataDate": "10/18/2025",
    "capacity": 0,
    "address": "5 HUTTON CENTRE DR, SUITE 740",
    "city": "SANTA ANA",
    "zip": "92707",
    "county": "ORANGE",
    "phone": "(855) 919-9393",
    "lat": 33.69645801,
    "lng": -117.864876
  },
  {
    "id": "060001549",
    "name": "KINDNESS CARE HOME HEALTH",
    "npi": "1700987971",
    "hcaiId": "406304385",
    "businessName": "KINDNESS-CARE HOME HEALTH",
    "contactEmail": "SHIRLEYYU@KINDNESSCARE.COM",
    "categoryName": "HOME HEALTH AGENCY",
    "categoryCode": "HHA",
    "licenseStatus": "ACTIVE",
    "inService": true,
    "licenseNumber": "060000482",
    "licenseEffectiveDate": "11/01/2025",
    "licenseExpirationDate": "10/31/2026",
    "dataDate": "10/18/2025",
    "capacity": 0,
    "address": "1220 HEMLOCK WAY, SUITE 202",
    "city": "SANTA ANA",
    "zip": "92707",
    "county": "ORANGE",
    "phone": "(949) 777-9500",
    "lat": 33.709482,
    "lng": -117.884466
  },
  {
    "id": "060000020",
    "name": "PLAZA HEALTHCARE CENTER",
    "npi": "1336549500",
    "hcaiId": "206301327",
    "businessName": "SANTA ANA HEALTHCARE & WELLNESS CENTRE, LP",
    "contactEmail": "ADMINISTRATOR@CVPLAZANC.COM",
    "categoryName": "SKILLED NURSING FACILITY",
    "categoryCode": "SNF",
    "licenseStatus": "ACTIVE",
    "inService": true,
    "licenseNumber": "060000168",
    "licenseEffectiveDate": "11/06/2025",
    "licenseExpirationDate": "11/05/2026",
    "dataDate": "10/18/2025",
    "capacity": 145,
    "address": "1209 HEMLOCK WAY",
    "city": "SANTA ANA",
    "zip": "92707",
    "county": "ORANGE",
    "phone": "(714) 546-1966",
    "lat": 33.709932,
    "lng": -117.884205
  },
  {
    "id": "060000143",
    "name": "SOUTH COAST POST ACUTE",
    "npi": "1508565987",
    "hcaiId": "206301316",
    "businessName": "1030 WARNER AVENUE I OPCO LLC",
    "contactEmail": "ADMINISTRATOR@SOUTHCOASTPA.COM",
    "categoryName": "SKILLED NURSING FACILITY",
    "categoryCode": "SNF",
    "licenseStatus": "ACTIVE",
    "inService": true,
    "licenseNumber": "060000165",
    "licenseEffectiveDate": "11/01/2025",
    "licenseExpirationDate": "10/31/2026",
    "dataDate": "10/18/2025",
    "capacity": 255,
    "address": "1030 W WARNER AVE",
    "city": "SANTA ANA",
    "zip": "92707",
    "county": "ORANGE",
    "phone": "(714) 546-6450",
    "lat": 33.714963,
    "lng": -117.8825715
  }
]