[
  {
    "id": "630016676",
    "name": "ACACIA HOME HEALTH AND PALLIATIVE INC.",
    "npi": "1285096198",
    "hcaiId": "406304619",
    "businessName": "ACACIA HOME HEALTH AND PALLIATIVE",
    "contactEmail": "BRYAN.LATTERMAN@ACACIAHEALTH.NET",
    "categoryName": "HOME HEALTH AGENCY",
    "categoryCode": "HHA",
    "licenseStatus": "ACTIVE",
    "inService": true,
    "licenseNumber": "550003947",
    "licenseEffectiveDate": "06/26/2025",
    "licenseExpirationDate": "06/25/2026",
    "dataDate": "10/18/2025",
    "capacity": 0,
    "address": "11770 WARNER AVENUE, SUITE 102",
    "city": "FOUNTAIN VALLEY",
    "zip": "92708",
    "county": "ORANGE",
    "phone": "(949) 335-5515",
    "lat": 33.715728,
    "lng": -117.9243315
  },
  {
    "id": "630017125",
    "name": "ALLIANCE HOSPICE AND PALLIATIVE CARE, INC",
    "npi": "1992154074",
    "hcaiId": "406301360",
    "businessName": "ALLIANCE HOSPICE AND PALLIATIVE CARE, INC.",
    "contactEmail": "ALLIANCE11770@GMAIL.COM",
    "categoryName": "HOSPICE",
    "categoryCode": "HOSPICE",
    "licenseStatus": "ACTIVE",
    "inService": true,
    "licenseNumber": "550004527",
    "licenseEffectiveDate": "11/15/2024",
    "licenseExpirationDate": "11/14/2026",
    "dataDate": "10/18/2025",
    "capacity": 0,
    "address": "11770 WARNER AVE, SUITE 203",
    "city": "FOUNTAIN VALLEY",
    "zip": "92708",
    "county": "ORANGE",
    "phone": "(657) 231-6910",
    "lat": 33.715575,
    "lng": -117.9240705
  },
  {
    "id": "630014107",
    "name": "BEST GOLDEN CARE HOSPICE, INC.",
    "npi": null,
    "hcaiId": "406304569",
    "businessName": "BEST GOLDEN CARE HOSPICE, INC.",
    "contactEmail": "KNGO@BESTGOLDENCAREHOSPICE.COM",
    "categoryName": "HOSPICE",
    "categoryCode": "HOSPICE",
    "licenseStatus": "ACTIVE",
    "inService": true,
    "licenseNumber": "550002483",
    "licenseEffectiveDate": "10/30/2025",
    "licenseExpirationDate": "10/29/2027",
    "dataDate": "10/18/2025",
    "capacity": 0,
    "address": "11745 EDINGER AVE",
    "city": "FOUNTAIN VALLEY",
    "zip": "92708",
    "county": "ORANGE",
    "phone": "(714) 880-2672",
    "lat": 33.72923526,
    "lng": -117.9241459
  },
  {
    "id": "630028089",
    "name": "CAMDSON",
    "npi": null,
    "hcaiId": null,
    "businessName": null,
    "contactEmail": "NGA.LY@OCVASCULAR.COM",
    "categoryName": "SURGICAL CLINIC",
    "categoryCode": "ASC",
    "licenseStatus": null,
    "inService": null,
    "licenseNumber": null,
    "licenseEffectiveDate": null,
    "licenseExpirationDate": null,
    "dataDate": "10/18/2025",
    "capacity": 0,
    "address": "11190 WARNER AVE, SUITE 400",
    "city": "FOUNTAIN VALLEY",
    "zip": "92708",
    "county": "ORANGE",
    "phone": "(714) 716-2202",
    "lat": 33.71396919,
    "lng": -117.9333633
  },
  {
    "id": "630025960",
    "name": "COMFORT CARE ALLIANCE HEALTH PROVIDERS",
    "npi": null,
    "hcaiId": null,
    "businessName": "COMFORT CARE ALLIANCE HEALTH PROVIDERS",
    "contactEmail": "COMFORTCAREALLIANCEHP@GMAIL.COM",
    "categoryName": "HOME HEALTH AGENCY",
    "categoryCode": "HHA",
    "licenseStatus": "ACTIVE",
    "inService": true,
    "licenseNumber": "550009722",
    "licenseEffectiveDate": "09/13/2025",
    "licenseExpirationDate": "03/12/2026",
    "dataDate": "10/18/2025",
    "capacity": 0,
    "address": "9550 WARNER AVE, SUITE 250-16",
    "city": "FOUNTAIN VALLEY",
    "zip": "92708",
    "county": "ORANGE",
    "phone": "(714) 593-2316",
    "lat": 33.715728,
    "lng": -117.962469
  },
  {
    "id": "630013128",
    "name": "COMPASSIONATE CARE HOME HEALTH",
    "npi": "1639463946",
    "hcaiId": "406304490",
    "businessName": "UNITED CARE, LLC.",
    "contactEmail": "COMPASSIONATECAREHH1@GMAIL.COM",
    "categoryName": "HOME HEALTH AGENCY",
    "categoryCode": "HHA",
    "licenseStatus": "ACTIVE",
    "inService": true,
    "licenseNumber": "550001847",
    "licenseEffectiveDate": "01/30/2025",
    "licenseExpirationDate": "01/29/2026",
    "dataDate": "10/18/2025",
    "capacity": 0,
    "address": "17220 NEWHOPE ST, SUITE 122",
    "city": "FOUNTAIN VALLEY",
    "zip": "92708",
    "county": "ORANGE",
    "phone": "(562) 598-1888",
    "lat": 33.713246,
    "lng": -117.923877
  },
  {
    "id": "630015175",
    "name": "COMPASSIONATE CARE HOSPICE, LLC.",
    "npi": "1730506742",
    "hcaiId": "406301359",
    "businessName": "COMPASSIONATE CARE HOSPICE, LLC.",
    "contactEmail": "COMPASSIONATECAREHOSPICE@YAHOO.COM",
    "categoryName": "HOSPICE",
    "categoryCode": "HOSPICE",
    "licenseStatus": "ACTIVE",
    "inService": true,
    "licenseNumber": "550003102",
    "licenseEffectiveDate": "06/15/2025",
    "licenseExpirationDate": "06/14/2027",
    "dataDate": "10/18/2025",
    "capacity": 0,
    "address": "17220 NEWHOPE ST, SUITE 124",
    "city": "FOUNTAIN VALLEY",
    "zip": "92708",
    "county": "ORANGE",
    "phone": "(800) 801-0307",
    "lat": 33.714297,
    "lng": -117.925497
  },
  {
    "id": "630027208",
    "name": "COMPLETE CARE COMMUNITY HEALTH CENTER - FOUNTAIN VALLEY",
    "npi": "1215113964",
    "hcaiId": null,
    "businessName": "COMPLETE CARE COMMUNITY HEALTH CENTER, INC.",
    "contactEmail": null,
    "categoryName": "PRIMARY CARE CLINIC",
    "categoryCode": "COMTYC",
    "licenseStatus": "ACTIVE",
    "inService": true,
    "licenseNumber": "550000639",
    "licenseEffectiveDate": "12/10/2024",
    "licenseExpirationDate": "12/09/2025",
    "dataDate": "10/18/2025",
    "capacity": 0,
    "address": "11100 WARNER AVE, SUITE 200",
    "city": "FOUNTAIN VALLEY",
    "zip": "92708",
    "county": "ORANGE",
    "phone": null,
    "lat": 33.71586199,
    "lng": -117.935413
  },
  {
    "id": "630025586",
    "name": "DELTA HEALTH SERVICES INC",
    "npi": null,
    "hcaiId": "406190042",
    "businessName": "DELTA HEALTH SERVICES, INC.",
    "contactEmail": "DELTAHEALTHSERVICESINC@GMAIL.COM",
    "categoryName": "HOME HEALTH AGENCY",
    "categoryCode": "HHA",
    "licenseStatus": "ACTIVE",
    "inService": true,
    "licenseNumber": "550008677",
    "licenseEffectiveDate": "07/27/2025",
    "licenseExpirationDate": "07/26/2026",
    "dataDate": "10/18/2025",
    "capacity": 0,
    "address": "18430 BROOKHURST ST, SUITE 201-J",
    "city": "FOUNTAIN VALLEY",
    "zip": "92708",
    "county": "ORANGE",
    "phone": "(714) 494-4192",
    "lat": 33.69499952,
    "lng": -117.954042
  },
  {
    "id": "060000075",
    "name": "ENRICHING, INC.",
    "npi": "1114068509",
    "hcaiId": null,
    "businessName": "ENRICHING, INC.",
    "contactEmail": "TOMNG43@YAHOO.COM",
    "categoryName": "INTERMEDIATE CARE FACILITY-DD/H/N/CN/IID",
    "categoryCode": "ICFDDH",
    "licenseStatus": "ACTIVE",
    "inService": true,
    "licenseNumber": "060000207",
    "licenseEffectiveDate": "05/30/2025",
    "licenseExpirationDate": "05/29/2026",
    "dataDate": "10/18/2025",
    "capacity": 6,
    "address": "9514 SMOKE TREE AVE",
    "city": "FOUNTAIN VALLEY",
    "zip": "92708",
    "county": "ORANGE",
    "phone": "(714) 785-9555",
    "lat": 33.687873,
    "lng": -117.9624555
  },
  {
    "id": "630027805",
    "name": "FAMILIES TOGETHER OF ORANGE COUNTY",
    "npi": null,
    "hcaiId": null,
    "businessName": "FAMILIES TOGETHER OF ORANGE COUNTY",
    "contactEmail": null,
    "categoryName": "PRIMARY CARE CLINIC",
    "categoryCode": "COMTYC",
    "licenseStatus": "ACTIVE",
    "inService": true,
    "licenseNumber": "550003128",
    "licenseEffectiveDate": "06/11/2025",
    "licenseExpirationDate": "06/10/2026",
    "dataDate": "10/18/2025",
    "capacity": 0,
    "address": "11180 WARNER AVE, SUITE 353",
    "city": "FOUNTAIN VALLEY",
    "zip": "92708",
    "county": "ORANGE",
    "phone": null,
    "lat": 33.71547802,
    "lng": -117.933457
  },
  {
    "id": "630026090",
    "name": "FIRST LIGHT HEALTHCARE SERVICES",
    "npi": null,
    "hcaiId": null,
    "businessName": "FIRST LIGHT HEALTHCARE SERVICES",
    "contactEmail": "FIRSTLIGHTHEALTHCARESERVICES@GMAIL.COM",
    "categoryName": "HOME HEALTH AGENCY",
    "categoryCode": "HHA",
    "licenseStatus": "ACTIVE",
    "inService": true,
    "licenseNumber": "550009335",
    "licenseEffectiveDate": "02/21/2025",
    "licenseExpirationDate": "08/20/2025",
    "dataDate": "10/18/2025",
    "capacity": 0,
    "address": "9550 WARNER AVE, SUITE 250-07",
    "city": "FOUNTAIN VALLEY",
    "zip": "92708",
    "county": "ORANGE",
    "phone": "(714) 593-2307",
    "lat": 33.715728,
    "lng": -117.962469
  },
  {
    "id": "630012140",
    "name": "FOUNTAIN VALLEY DIALYSIS",
    "npi": "1427307206",
    "hcaiId": "306304450",
    "businessName": "TOTAL RENAL CARE, INC.",
    "contactEmail": "CAL_C@DAVITA.COM",
    "categoryName": "CHRONIC DIALYSIS CLINIC",
    "categoryCode": "ESRD/CDC",
    "licenseStatus": "ACTIVE",
    "inService": true,
    "licenseNumber": "550001153",
    "licenseEffectiveDate": "12/01/2024",
    "licenseExpirationDate": "11/30/2025",
    "dataDate": "10/18/2025",
    "capacity": 21,
    "address": "17150 EUCLID ST, SUITE 111",
    "city": "FOUNTAIN VALLEY",
    "zip": "92708",
    "county": "ORANGE",
    "phone": "(714) 966-1595",
    "lat": 33.714063,
    "lng": -117.936729
  },
  {
    "id": "060000837",
    "name": "FOUNTAIN VALLEY POST ACUTE",
    "npi": "1992407779",
    "hcaiId": "206304010",
    "businessName": "FOUNTAIN VALLEY COMMUNITY HEALTHCARE, LLC",
    "contactEmail": "DARREN.GALLAUGHER@FOUNTAINVALLEYPA.COM",
    "categoryName": "SKILLED NURSING FACILITY",
    "categoryCode": "SNF",
    "licenseStatus": "ACTIVE",
    "inService": true,
    "licenseNumber": "060000249",
    "licenseEffectiveDate": "04/01/2025",
    "licenseExpirationDate": "03/31/2026",
    "dataDate": "10/18/2025",
    "capacity": 151,
    "address": "11680 WARNER AVE",
    "city": "FOUNTAIN VALLEY",
    "zip": "92708",
    "county": "ORANGE",
    "phone": "(714) 241-9800",
    "lat": 33.715134,
    "lng": -117.9255105
  },
  {
    "id": "630023122",
    "name": "GIFT OF LIFE HOME HEALTH INC",
    "npi": null,
    "hcaiId": null,
    "businessName": "GIFT OF LIFE HOME HEALTH INC",
    "contactEmail": "ANGELTRUSS84@GMAIL.COM",
    "categoryName": "HOME HEALTH AGENCY",
    "categoryCode": "HHA",
    "licenseStatus": "ACTIVE",
    "inService": true,
    "licenseNumber": "550009186",
    "licenseEffectiveDate": "05/28/2025",
    "licenseExpirationDate": "05/27/2026",
    "dataDate": "10/18/2025",
    "capacity": 0,
    "address": "11770 WARNER AVE, SUITE 201",
    "city": "FOUNTAIN VALLEY",
    "zip": "92708",
    "county": "ORANGE",
    "phone": "(949) 293-9907",
    "lat": 33.715899,
    "lng": -117.924507
  },
  {
    "id": "630025899",
    "name": "LIFE SOLUTION HEALTHCARE SERVICES",
    "npi": null,
    "hcaiId": null,
    "businessName": "LIFE SOLUTION HEALTHCARE SERVICES",
    "contactEmail": "LIFESOLUTIONHCS@GMAIL.COM",
    "categoryName": "HOME HEALTH AGENCY",
    "categoryCode": "HHA",
    "licenseStatus": "ACTIVE",
    "inService": true,
    "licenseNumber": "550009252",
    "licenseEffectiveDate": "07/17/2025",
    "licenseExpirationDate": "07/16/2026",
    "dataDate": "10/18/2025",
    "capacity": 0,
    "address": "9550 WARNER AVE, SUITE 250-20",
    "city": "FOUNTAIN VALLEY",
    "zip": "92708",
    "county": "ORANGE",
    "phone": "(714) 593-2320",
    "lat": 33.715728,
    "lng": -117.962469
  },
  {
    "id": "630019266",
    "name": "LULY HOME HEALTH INC.",
    "npi": null,
    "hcaiId": "406302906",
    "businessName": "LULY HOME HEALTH INC",
    "contactEmail": "LULYHOMEHEALTH@GMAIL.COM",
    "categoryName": "HOME HEALTH AGENCY",
    "categoryCode": "HHA",
    "licenseStatus": "ACTIVE",
    "inService": true,
    "licenseNumber": "550005791",
    "licenseEffectiveDate": "09/03/2025",
    "licenseExpirationDate": "09/02/2026",
    "dataDate": "10/18/2025",
    "capacity": 0,
    "address": "11749 EDINGER AVE",
    "city": "FOUNTAIN VALLEY",
    "zip": "92708",
    "county": "ORANGE",
    "phone": "(714) 332-7093",
    "lat": 33.72913716,
    "lng": -117.924068
  },
  {
    "id": "630014663",
    "name": "MARY, QUEEN OF ANGELS HOSPICE",
    "npi": null,
    "hcaiId": "406301376",
    "businessName": "MARY, QUEEN OF ANGELS HOSPICE",
    "contactEmail": "KATRINA.LING@MARYQUEENOFANGELSINC.COM",
    "categoryName": "HOSPICE",
    "categoryCode": "HOSPICE",
    "licenseStatus": "ACTIVE",
    "inService": true,
    "licenseNumber": "550002897",
    "licenseEffectiveDate": "11/26/2024",
    "licenseExpirationDate": "11/25/2026",
    "dataDate": "10/18/2025",
    "capacity": 0,
    "address": "10990 WARNER AVE, UNIT E",
    "city": "FOUNTAIN VALLEY",
    "zip": "92708",
    "county": "ORANGE",
    "phone": "(800) 240-6167",
    "lat": 33.71607,
    "lng": -117.9374535
  },
  {
    "id": "060000208",
    "name": "MEMORIALCARE ORANGE COAST MEDICAL CENTER",
    "npi": "1497702575",
    "hcaiId": "106300225",
    "businessName": "ORANGE COAST MEMORIAL MEDICAL CENTER",
    "contactEmail": "NCARLSON@MEMORIALCARE.ORG",
    "categoryName": "GENERAL ACUTE CARE HOSPITAL",
    "categoryCode": "GACH",
    "licenseStatus": "ACTIVE",
    "inService": true,
    "licenseNumber": "060000066",
    "licenseEffectiveDate": "01/14/2025",
    "licenseExpirationDate": "01/13/2026",
    "dataDate": "10/18/2025",
    "capacity": 221,
    "address": "9920 TALBERT AVE",
    "city": "FOUNTAIN VALLEY",
    "zip": "92708",
    "county": "ORANGE",
    "phone": "(714) 943-4072",
    "lat": 33.701139,
    "lng": -117.956259
  },
  {
    "id": "630012695",
    "name": "MEMORIALCARE SURGICAL CENTER AT ORANGE COAST LLC",
    "npi": "1114168309",
    "hcaiId": null,
    "businessName": null,
    "contactEmail": null,
    "categoryName": "SURGICAL CLINIC",
    "categoryCode": "ASC",
    "licenseStatus": null,
    "inService": null,
    "licenseNumber": null,
    "licenseEffectiveDate": null,
    "licenseExpirationDate": null,
    "dataDate": "10/18/2025",
    "capacity": 0,
    "address": "18111 BROOKHURST ST, SUITE 3200",
    "city": "FOUNTAIN VALLEY",
    "zip": "92708",
    "county": "ORANGE",
    "phone": "(915) 378-3738",
    "lat": 33.6997756,
    "lng": -117.9544264
  },
  {
    "id": "060001725",
    "name": "MILE SQUARE SURGERY CENTER, INC.",
    "npi": "1447255435",
    "hcaiId": "306304286",
    "businessName": "MILE SQUARE SURERY CENTER",
    "contactEmail": "DOUGMSSC@YAHOO.COM",
    "categoryName": "SURGICAL CLINIC",
    "categoryCode": "ASC",
    "licenseStatus": "INACTIVE - CAPEN DECISION",
    "inService": false,
    "licenseNumber": "060000784",
    "licenseEffectiveDate": "11/10/2009",
    "licenseExpirationDate": "11/09/2010",
    "dataDate": "10/18/2025",
    "capacity": 0,
    "address": "10760 WARNER AVE, SUITE 102",
    "city": "FOUNTAIN VALLEY",
    "zip": "92708",
    "county": "ORANGE",
    "phone": "(714) 274-0388",
    "lat": 33.715998,
    "lng": -117.940941
  },
  {
    "id": "630014643",
    "name": "MORECARE PALLIATIVE AND HOSPICE, INC.",
    "npi": null,
    "hcaiId": "406304554",
    "businessName": "MORECARE PALLIATIVE AND HOSPICE, INC.",
    "contactEmail": "INFO@MORECAREHOSPICE.COM",
    "categoryName": "HOSPICE",
    "categoryCode": "HOSPICE",
    "licenseStatus": "ACTIVE",
    "inService": true,
    "licenseNumber": "550002811",
    "licenseEffectiveDate": "09/04/2024",
    "licenseExpirationDate": "09/03/2026",
    "dataDate": "10/18/2025",
    "capacity": 0,
    "address": "11770 WARNER AVE, SUITE 210",
    "city": "FOUNTAIN VALLEY",
    "zip": "92708",
    "county": "ORANGE",
    "phone": "(657) 600-8901",
    "lat": 33.715044,
    "lng": -117.9240615
  },
  {
    "id": "630019599",
    "name": "NEXT CARE HOSPICE, INC.",
    "npi": "1184274805",
    "hcaiId": "406305651",
    "businessName": "NEXT CARE HOSPICE, INC.",
    "contactEmail": "NEXTCAREHOSPICE@GMAIL.COM",
    "categoryName": "HOSPICE",
    "categoryCode": "HOSPICE",
    "licenseStatus": "ACTIVE",
    "inService": true,
    "licenseNumber": "550005489",
    "licenseEffectiveDate": "05/23/2024",
    "licenseExpirationDate": "05/22/2026",
    "dataDate": "10/18/2025",
    "capacity": 0,
    "address": "16480 HARBOR BLVD, SUITE 205",
    "city": "FOUNTAIN VALLEY",
    "zip": "92708",
    "county": "ORANGE",
    "phone": "(323) 230-0026",
    "lat": 33.72354,
    "lng": -117.9191925
  },
  {
    "id": "630020506",
    "name": "OAKWOOD HEALTHCARE SERVICES INC.",
    "npi": null,
    "hcaiId": "406197121",
    "businessName": "OAKWOOD HEALTHCARE SERVICES INC.",
    "contactEmail": "OAKWOODHCS@YAHOO.COM",
    "categoryName": "HOSPICE",
    "categoryCode": "HOSPICE",
    "licenseStatus": "ACTIVE",
    "inService": true,
    "licenseNumber": "550006554",
    "licenseEffectiveDate": "06/01/2025",
    "licenseExpirationDate": "05/31/2027",
    "dataDate": "10/18/2025",
    "capacity": 0,
    "address": "17220 NEWHOPE ST, SUITE 204",
    "city": "FOUNTAIN VALLEY",
    "zip": "92708",
    "county": "ORANGE",
    "phone": "(818) 839-8879",
    "lat": 33.713246,
    "lng": -117.923877
  },
  {
    "id": "630011162",
    "name": "PACIFIC ENDOSCOPY CENTER",
    "npi": "1104006006",
    "hcaiId": null,
    "businessName": null,
    "contactEmail": null,
    "categoryName": "SURGICAL CLINIC",
    "categoryCode": "ASC",
    "licenseStatus": null,
    "inService": null,
    "licenseNumber": null,
    "licenseEffectiveDate": null,
    "licenseExpirationDate": null,
    "dataDate": "10/18/2025",
    "capacity": 0,
    "address": "17815 NEWHOPE ST, SUITE R",
    "city": "FOUNTAIN VALLEY",
    "zip": "92708",
    "county": "ORANGE",
    "phone": "(714) 429-5800",
    "lat": 33.705945,
    "lng": -117.9341235
  },
  {
    "id": "630024365",
    "name": "PERFECT ALLIANCE HOME HEALTH, INC.",
    "npi": null,
    "hcaiId": "406195350",
    "businessName": "PERFECT ALLIANCE HOME HEALTH, INC.",
    "contactEmail": "PERFECTALLIANCEHH@GMAIL.COM",
    "categoryName": "HOME HEALTH AGENCY",
    "categoryCode": "HHA",
    "licenseStatus": "ACTIVE",
    "inService": true,
    "licenseNumber": "550007983",
    "licenseEffectiveDate": "05/13/2025",
    "licenseExpirationDate": "05/12/2026",
    "dataDate": "10/18/2025",
    "capacity": 0,
    "address": "17151 NEWHOPE ST, SUITE 110",
    "city": "FOUNTAIN VALLEY",
    "zip": "92708",
    "county": "ORANGE",
    "phone": "(714) 788-5689",
    "lat": 33.71423301,
    "lng": -117.928984
  },
  {
    "id": "630025862",
    "name": "PRESTIGE HEALTHCARE SERVICES",
    "npi": null,
    "hcaiId": null,
    "businessName": "PRESTIGE HEALTHCARE SERVICES",
    "contactEmail": "PRESTIGEHEALTHCARESERVICES1@GMAIL.COM",
    "categoryName": "HOME HEALTH AGENCY",
    "categoryCode": "HHA",
    "licenseStatus": "ACTIVE",
    "inService": true,
    "licenseNumber": "550009053",
    "licenseEffectiveDate": "04/02/2025",
    "licenseExpirationDate": "04/01/2026",
    "dataDate": "10/18/2025",
    "capacity": 0,
    "address": "9550 WARNER AVE, SUITE 250-22",
    "city": "FOUNTAIN VALLEY",
    "zip": "92708",
    "county": "ORANGE",
    "phone": "(714) 593-2322",
    "lat": 33.715728,
    "lng": -117.962469
  },
  {
    "id": "630025369",
    "name": "QUALITY HEALTH PROVIDERS",
    "npi": null,
    "hcaiId": "406300024",
    "businessName": "QUALITY HEALTH PROVIDERS",
    "contactEmail": "QUALITYHEALTH.PROVIDERS@GMAIL.COM",
    "categoryName": "HOME HEALTH AGENCY",
    "categoryCode": "HHA",
    "licenseStatus": "ACTIVE",
    "inService": true,
    "licenseNumber": "550008696",
    "licenseEffectiveDate": "08/22/2025",
    "licenseExpirationDate": "08/21/2026",
    "dataDate": "10/18/2025",
    "capacity": 0,
    "address": "9550 WARNER AVE, SUITE 250-12",
    "city": "FOUNTAIN VALLEY",
    "zip": "92708",
    "county": "ORANGE",
    "phone": "(714) 593-2312",
    "lat": 33.715728,
    "lng": -117.962469
  },
  {
    "id": "630013292",
    "name": "RAI - FOUNTAIN VALLEY HOME",
    "npi": "1033575246",
    "hcaiId": null,
    "businessName": null,
    "contactEmail": null,
    "categoryName": "CHRONIC DIALYSIS CLINIC",
    "categoryCode": "ESRD",
    "licenseStatus": null,
    "inService": null,
    "licenseNumber": null,
    "licenseEffectiveDate": null,
    "licenseExpirationDate": null,
    "dataDate": "10/18/2025",
    "capacity": 0,
    "address": "17197 NEWHOPE ST, SUITE E",
    "city": "FOUNTAIN VALLEY",
    "zip": "92708",
    "county": "ORANGE",
    "phone": "(714) 435-0276",
    "lat": 33.713559,
    "lng": -117.929664
  },
  {
    "id": "080001584",
    "name": "RAI - NEWHOPE - FOUNTAIN VALLEY",
    "npi": "1477928901",
    "hcaiId": "306300133",
    "businessName": "FRESENIUS MEDICAL CARE ORANGE COUNTY, LLC",
    "contactEmail": "CLINIC7170@FMC-NA.COM",
    "categoryName": "CHRONIC DIALYSIS CLINIC",
    "categoryCode": "ESRD/CDC",
    "licenseStatus": "ACTIVE",
    "inService": true,
    "licenseNumber": "080000676",
    "licenseEffectiveDate": "08/17/2025",
    "licenseExpirationDate": "08/16/2026",
    "dataDate": "10/18/2025",
    "capacity": 24,
    "address": "17197 NEWHOPE ST, SUITE A",
    "city": "FOUNTAIN VALLEY",
    "zip": "92708",
    "county": "ORANGE",
    "phone": "(714) 241-0196",
    "lat": 33.713559,
    "lng": -117.929664
  },
  {
    "id": "630025961",
    "name": "ST CATHERINE HEALTH CARE PROVIDERS",
    "npi": null,
    "hcaiId": null,
    "businessName": "ST CATHERINE HEALTH CARE PROVIDERS",
    "contactEmail": "STCATHERINEHCP@GMAIL.COM",
    "categoryName": "HOME HEALTH AGENCY",
    "categoryCode": "HHA",
    "licenseStatus": "ACTIVE",
    "inService": true,
    "licenseNumber": "550009711",
    "licenseEffectiveDate": "09/13/2025",
    "licenseExpirationDate": "03/12/2026",
    "dataDate": "10/18/2025",
    "capacity": 0,
    "address": "9550 WARNER AVE, SUITE 250-25",
    "city": "FOUNTAIN VALLEY",
    "zip": "92708",
    "county": "ORANGE",
    "phone": "(714) 593-2325",
    "lat": 33.715728,
    "lng": -117.962469
  },
  {
    "id": "630017740",
    "name": "STABLE HOME HEALTH, INC.",
    "npi": null,
    "hcaiId": "406302667",
    "businessName": "STABLE HOME HEALTH, INC",
    "contactEmail": "STABLEHOMEHEALTH@GMAIL.COM",
    "categoryName": "HOME HEALTH AGENCY",
    "categoryCode": "HHA",
    "licenseStatus": "ACTIVE",
    "inService": true,
    "licenseNumber": "550005615",
    "licenseEffectiveDate": "07/16/2025",
    "licenseExpirationDate": "07/15/2026",
    "dataDate": "10/18/2025",
    "capacity": 0,
    "address": "17155 NEWHOPE ST, SUITE E",
    "city": "FOUNTAIN VALLEY",
    "zip": "92708",
    "county": "ORANGE",
    "phone": "(714) 248-1269",
    "lat": 33.71497378,
    "lng": -117.9284845
  },
  {
    "id": "630021677",
    "name": "TOUCH OF LOVE HOSPICE CARE, INC.",
    "npi": null,
    "hcaiId": null,
    "businessName": "TOUCH OF LOVE HOSPICE CARE, INC.",
    "contactEmail": "TOUCHOFLOVEHOSPICECARE@YAHOO.COM",
    "categoryName": "HOSPICE",
    "categoryCode": "HOSPICE",
    "licenseStatus": "ACTIVE",
    "inService": true,
    "licenseNumber": "550007461",
    "licenseEffectiveDate": "12/15/2023",
    "licenseExpirationDate": "12/14/2025",
    "dataDate": "10/18/2025",
    "capacity": 0,
    "address": "10231 SLATER AVE, SUITE 218",
    "city": "FOUNTAIN VALLEY",
    "zip": "92708",
    "county": "ORANGE",
    "phone": "(657) 464-9070",
    "lat": 33.710058,
    "lng": -117.950787
  },
  {
    "id": "060000011",
    "name": "UCI HEALTH-FOUNTAIN VALLEY",
    "npi": "1821002007",
    "hcaiId": "106301175",
    "businessName": "UNIVERSITY OF CALIFORNIA IRVINE",
    "contactEmail": "MARIASONYA.STEVENS@TENETHEALTH.COM",
    "categoryName": "GENERAL ACUTE CARE HOSPITAL",
    "categoryCode": "GACH",
    "licenseStatus": "ACTIVE",
    "inService": true,
    "licenseNumber": "060000148",
    "licenseEffectiveDate": "11/01/2025",
    "licenseExpirationDate": "10/31/2026",
    "dataDate": "10/18/2025",
    "capacity": 293,
    "address": "17100 EUCLID ST",
    "city": "FOUNTAIN VALLEY",
    "zip": "92708",
    "county": "ORANGE",
    "phone": "(714) 966-7279",
    "lat": 33.714882,
    "lng": -117.936396
  },
  {
    "id": "060000936",
    "name": "UCI HEALTH-FOUNTAIN VALLEY",
    "npi": null,
    "hcaiId": "106304039",
    "businessName": "UNIVERSITY OF CALIFORNIA IRVINE",
    "contactEmail": "CHRISTOPHER1.ATKINS@TENETHHEALTH.COM",
    "categoryName": "GENERAL ACUTE CARE HOSPITAL",
    "categoryCode": "GACH",
    "licenseStatus": "ACTIVE",
    "inService": true,
    "licenseNumber": "060000148",
    "licenseEffectiveDate": "11/01/2025",
    "licenseExpirationDate": "10/31/2026",
    "dataDate": "10/18/2025",
    "capacity": 107,
    "address": "11250 WARNER AVE",
    "city": "FOUNTAIN VALLEY",
    "zip": "92708",
    "county": "ORANGE",
    "phone": "(714) 966-7279",
    "lat": 33.71328,
    "lng": -117.9323055
  }
]