[
  {
    "id": "630027409",
    "name": "AAA COMPREHENSIVE HEALTHCARE SANTA ANA",
    "npi": "1396067500",
    "hcaiId": null,
    "businessName": "AAA COMPREHENSIVE HEALTHCARE, INC.",
    "contactEmail": "MILA.DUENAS@WIPFLI.COM",
    "categoryName": "PRIMARY CARE CLINIC",
    "categoryCode": "FQHC/COMTYC",
    "licenseStatus": "ACTIVE",
    "inService": true,
    "licenseNumber": "550001275",
    "licenseEffectiveDate": "04/30/2025",
    "licenseExpirationDate": "04/29/2026",
    "dataDate": "10/18/2025",
    "capacity": 0,
    "address": "2740 S BRISTOL ST, SUITE 222",
    "city": "SANTA ANA",
    "zip": "92704",
    "county": "ORANGE",
    "phone": "(510) 404-3329",
    "lat": 33.710003,
    "lng": -117.88593
  },
  {
    "id": "630027254",
    "name": "ALTAMED BEHAVIORAL HEALTH AT GODINEZ FUNDAMENTAL HIGH SCHOOL",
    "npi": "1760651814",
    "hcaiId": null,
    "businessName": "ALTAMED HEALTH SERVICES CORPORATION",
    "contactEmail": null,
    "categoryName": "PRIMARY CARE CLINIC",
    "categoryCode": "COMTYC",
    "licenseStatus": "ACTIVE",
    "inService": true,
    "licenseNumber": "550000862",
    "licenseEffectiveDate": "07/23/2025",
    "licenseExpirationDate": "07/22/2026",
    "dataDate": "10/18/2025",
    "capacity": 0,
    "address": "3002 W CENTENNIAL RD",
    "city": "SANTA ANA",
    "zip": "92704",
    "county": "ORANGE",
    "phone": null,
    "lat": 33.7230655,
    "lng": -117.9120831
  },
  {
    "id": "630027898",
    "name": "ALTAMED BEHAVIORAL HEALTH AT MCFADDEN INSTITUTE OF TECHNOLOGY",
    "npi": null,
    "hcaiId": null,
    "businessName": "ALTAMED HEALTH SERVICES CORPORATION",
    "contactEmail": null,
    "categoryName": "PRIMARY CARE CLINIC",
    "categoryCode": "COMTYC",
    "licenseStatus": "ACTIVE",
    "inService": true,
    "licenseNumber": "550000862",
    "licenseEffectiveDate": "07/23/2025",
    "licenseExpirationDate": "07/22/2026",
    "dataDate": "10/18/2025",
    "capacity": 0,
    "address": "2701 S RAITT ST",
    "city": "SANTA ANA",
    "zip": "92704",
    "county": "ORANGE",
    "phone": null,
    "lat": 33.71110698,
    "lng": -117.895769
  },
  {
    "id": "630027253",
    "name": "ALTAMED BEHAVIORAL HEALTH AT SEGERSTROM HIGH SCHOOL",
    "npi": "1760651814",
    "hcaiId": null,
    "businessName": "ALTAMED HEALTH SERVICES CORPORATION",
    "contactEmail": null,
    "categoryName": "PRIMARY CARE CLINIC",
    "categoryCode": "COMTYC",
    "licenseStatus": "ACTIVE",
    "inService": true,
    "licenseNumber": "550000862",
    "licenseEffectiveDate": "07/23/2025",
    "licenseExpirationDate": "07/22/2026",
    "dataDate": "10/18/2025",
    "capacity": 0,
    "address": "2301 W MACARTHUR BLVD",
    "city": "SANTA ANA",
    "zip": "92704",
    "county": "ORANGE",
    "phone": null,
    "lat": 33.70175701,
    "lng": -117.900184
  },
  {
    "id": "630027862",
    "name": "ALTAMED DENTAL GROUP - SANTA ANA, SUNFLOWER",
    "npi": null,
    "hcaiId": null,
    "businessName": "ALTAMED HEALTH SERVICES CORPORATION",
    "contactEmail": "JESUHERNANDEZ@ALTAMED.ORG",
    "categoryName": "PRIMARY CARE CLINIC",
    "categoryCode": "COMTYC",
    "licenseStatus": "ACTIVE",
    "inService": true,
    "licenseNumber": "550009519",
    "licenseEffectiveDate": "11/26/2025",
    "licenseExpirationDate": "11/25/2026",
    "dataDate": "10/18/2025",
    "capacity": 0,
    "address": "3601 W SUNFLOWER AVE, ROOM 200-242, 245-251, 253 & 255-261",
    "city": "SANTA ANA",
    "zip": "92704",
    "county": "ORANGE",
    "phone": "(323) 246-0753",
    "lat": 33.69640998,
    "lng": -117.918074
  },
  {
    "id": "630027968",
    "name": "ALTAMED DENTAL GROUP - SUNFLOWER GA",
    "npi": null,
    "hcaiId": null,
    "businessName": "ALTAMED HEALTH SERVICES CORPORATION",
    "contactEmail": "MIGONZALES@ALTAMED.ORG",
    "categoryName": "PRIMARY CARE CLINIC",
    "categoryCode": "COMTYC",
    "licenseStatus": "ACTIVE",
    "inService": true,
    "licenseNumber": "550009597",
    "licenseEffectiveDate": "01/17/2025",
    "licenseExpirationDate": "01/16/2026",
    "dataDate": "10/18/2025",
    "capacity": 0,
    "address": "3601 W SUNFLOWER AVE, SUITE 243-244, 252, 254",
    "city": "SANTA ANA",
    "zip": "92704",
    "county": "ORANGE",
    "phone": "(323) 622-2480",
    "lat": 33.6954878,
    "lng": -117.9243876
  },
  {
    "id": "630027376",
    "name": "ALTAMED DENTAL GROUP AT ABRAHAM LINCOLN ELEMENTARY SCHOOL",
    "npi": "1740427657",
    "hcaiId": null,
    "businessName": "ALTAMED HEALTH SERVICES CORPORATION",
    "contactEmail": null,
    "categoryName": "PRIMARY CARE CLINIC",
    "categoryCode": "COMTYC",
    "licenseStatus": "ACTIVE",
    "inService": true,
    "licenseNumber": "550001008",
    "licenseEffectiveDate": "04/01/2025",
    "licenseExpirationDate": "03/31/2026",
    "dataDate": "10/18/2025",
    "capacity": 0,
    "address": "425 S SULLIVAN ST",
    "city": "SANTA ANA",
    "zip": "92704",
    "county": "ORANGE",
    "phone": null,
    "lat": 33.74085201,
    "lng": -117.901404
  },
  {
    "id": "630027377",
    "name": "ALTAMED DENTAL GROUP AT ADAMS ELEMENTARY SCHOOL",
    "npi": "1740427657",
    "hcaiId": null,
    "businessName": "ALTAMED HEALTH SERVICES CORPORATION",
    "contactEmail": null,
    "categoryName": "PRIMARY CARE CLINIC",
    "categoryCode": "COMTYC",
    "licenseStatus": "ACTIVE",
    "inService": true,
    "licenseNumber": "550001008",
    "licenseEffectiveDate": "04/01/2025",
    "licenseExpirationDate": "03/31/2026",
    "dataDate": "10/18/2025",
    "capacity": 0,
    "address": "2130 S RAITT ST",
    "city": "SANTA ANA",
    "zip": "92704",
    "county": "ORANGE",
    "phone": null,
    "lat": 33.717697,
    "lng": -117.89707
  },
  {
    "id": "630027884",
    "name": "ALTAMED DENTAL GROUP AT DIAMOND ELEMENTARY SCHOOL",
    "npi": null,
    "hcaiId": null,
    "businessName": "ALTAMED HEALTH SERVICES CORPORATION",
    "contactEmail": null,
    "categoryName": "PRIMARY CARE CLINIC",
    "categoryCode": "COMTYC",
    "licenseStatus": "ACTIVE",
    "inService": true,
    "licenseNumber": "550001008",
    "licenseEffectiveDate": "04/01/2025",
    "licenseExpirationDate": "03/31/2026",
    "dataDate": "10/18/2025",
    "capacity": 0,
    "address": "1450 S CENTER ST",
    "city": "SANTA ANA",
    "zip": "92704",
    "county": "ORANGE",
    "phone": null,
    "lat": 33.72792502,
    "lng": -117.899941
  },
  {
    "id": "630027249",
    "name": "ALTAMED DENTAL GROUP- MOBILE UNIT #3",
    "npi": null,
    "hcaiId": null,
    "businessName": "ALTAMED HEALTH SERVICES CORPORATION",
    "contactEmail": null,
    "categoryName": "PRIMARY CARE CLINIC",
    "categoryCode": "COMTYC",
    "licenseStatus": "ACTIVE",
    "inService": true,
    "licenseNumber": "550005158",
    "licenseEffectiveDate": "12/20/2024",
    "licenseExpirationDate": "12/19/2025",
    "dataDate": "10/18/2025",
    "capacity": 0,
    "address": "3601 W SUNFLOWER AVE, SUITE 100",
    "city": "SANTA ANA",
    "zip": "92704",
    "county": "ORANGE",
    "phone": null,
    "lat": 33.69640998,
    "lng": -117.918074
  },
  {
    "id": "630027250",
    "name": "ALTAMED DENTAL GROUP- MOBILE UNIT #4",
    "npi": null,
    "hcaiId": null,
    "businessName": "ALTAMED HEALTH SERVICES CORPORATION",
    "contactEmail": null,
    "categoryName": "PRIMARY CARE CLINIC",
    "categoryCode": "COMTYC",
    "licenseStatus": "ACTIVE",
    "inService": true,
    "licenseNumber": "550005158",
    "licenseEffectiveDate": "12/20/2024",
    "licenseExpirationDate": "12/19/2025",
    "dataDate": "10/18/2025",
    "capacity": 0,
    "address": "3601 W SUNFLOWER AVE, SUITE 100",
    "city": "SANTA ANA",
    "zip": "92704",
    "county": "ORANGE",
    "phone": null,
    "lat": 33.69640998,
    "lng": -117.918074
  },
  {
    "id": "630011742",
    "name": "ALTAMED MEDICAL GROUP - SANTA ANA, BRISTOL",
    "npi": "1760651814",
    "hcaiId": "306304543",
    "businessName": "ALTAMED HEALTH SERVICES CORPORATION",
    "contactEmail": "RYOUNG@ALTAMED.ORG",
    "categoryName": "PRIMARY CARE CLINIC",
    "categoryCode": "COMTYC",
    "licenseStatus": "ACTIVE",
    "inService": true,
    "licenseNumber": "550000862",
    "licenseEffectiveDate": "07/23/2025",
    "licenseExpirationDate": "07/22/2026",
    "dataDate": "10/18/2025",
    "capacity": 0,
    "address": "2720 S BRISTOL ST, SUITE 110",
    "city": "SANTA ANA",
    "zip": "92704",
    "county": "ORANGE",
    "phone": "(323) 622-2429",
    "lat": 33.710292,
    "lng": -117.8857575
  },
  {
    "id": "630018035",
    "name": "BRISTOL DIALYSIS",
    "npi": null,
    "hcaiId": "306300434",
    "businessName": "SAUNDERS DIALYSIS, LLC",
    "contactEmail": "CAL_C@DAVITA.COM",
    "categoryName": "CHRONIC DIALYSIS CLINIC",
    "categoryCode": "ESRD/CDC",
    "licenseStatus": "ACTIVE",
    "inService": true,
    "licenseNumber": "550004606",
    "licenseEffectiveDate": "04/02/2025",
    "licenseExpirationDate": "04/01/2026",
    "dataDate": "10/18/2025",
    "capacity": 25,
    "address": "1232 S BRISTOL ST",
    "city": "SANTA ANA",
    "zip": "92704",
    "county": "ORANGE",
    "phone": "(714) 557-2337",
    "lat": 33.73177054,
    "lng": -117.8852479
  },
  {
    "id": "060002233",
    "name": "CARE DIMENSIONS, LLC",
    "npi": "1629023056",
    "hcaiId": "406304362",
    "businessName": "CARE DIMENSIONS, LLC",
    "contactEmail": "LPHAN@CAREDIMENSIONS.NET",
    "categoryName": "HOME HEALTH AGENCY",
    "categoryCode": "HHA",
    "licenseStatus": "ACTIVE",
    "inService": true,
    "licenseNumber": "060000912",
    "licenseEffectiveDate": "11/01/2025",
    "licenseExpirationDate": "10/31/2026",
    "dataDate": "10/18/2025",
    "capacity": 0,
    "address": "3401 W SUNFLOWER AVE, SUITE 200",
    "city": "SANTA ANA",
    "zip": "92704",
    "county": "ORANGE",
    "phone": "(714) 619-8766",
    "lat": 33.696072,
    "lng": -117.914418
  },
  {
    "id": "060002123",
    "name": "CHILDREN'S DENTAL SURGERY CENTER",
    "npi": "1518995109",
    "hcaiId": null,
    "businessName": null,
    "contactEmail": null,
    "categoryName": "SURGICAL CLINIC",
    "categoryCode": "ASC",
    "licenseStatus": null,
    "inService": null,
    "licenseNumber": null,
    "licenseEffectiveDate": null,
    "licenseExpirationDate": null,
    "dataDate": "10/18/2025",
    "capacity": 0,
    "address": "1610 W EDINGER AVE, SUITE C",
    "city": "SANTA ANA",
    "zip": "92704",
    "county": "ORANGE",
    "phone": "(714) 432-7337",
    "lat": 33.727023,
    "lng": -117.889416
  },
  {
    "id": "630015008",
    "name": "COASTLINE SURGERY CENTER",
    "npi": "1790916096",
    "hcaiId": null,
    "businessName": null,
    "contactEmail": null,
    "categoryName": "SURGICAL CLINIC",
    "categoryCode": "ASC",
    "licenseStatus": null,
    "inService": null,
    "licenseNumber": null,
    "licenseEffectiveDate": null,
    "licenseExpirationDate": null,
    "dataDate": "10/18/2025",
    "capacity": 0,
    "address": "3200 S BRISTOL ST",
    "city": "SANTA ANA",
    "zip": "92704",
    "county": "ORANGE",
    "phone": null,
    "lat": 33.705216,
    "lng": -117.8858925
  },
  {
    "id": "630015401",
    "name": "FRESENIUS MEDICAL CARE SANTA ANA DIALYSIS",
    "npi": "1174940712",
    "hcaiId": "306304560",
    "businessName": "RAI CARE CENTERS OF SANTA ANA, LLC",
    "contactEmail": "FILOMENO.PUMAREN@FRESENIUSMEDICALCARE.COM",
    "categoryName": "CHRONIC DIALYSIS CLINIC",
    "categoryCode": "ESRD/CDC",
    "licenseStatus": "ACTIVE",
    "inService": true,
    "licenseNumber": "550002915",
    "licenseEffectiveDate": "11/05/2025",
    "licenseExpirationDate": "11/04/2026",
    "dataDate": "10/18/2025",
    "capacity": 24,
    "address": "2740 S BRISTOL ST, SUITE 110",
    "city": "SANTA ANA",
    "zip": "92704",
    "county": "ORANGE",
    "phone": "(714) 754-1670",
    "lat": 33.709932,
    "lng": -117.8859825
  },
  {
    "id": "630016345",
    "name": "PUENTE A LA SALUD DENTAL CLINIC - VALLEY HIGH SCHOOL",
    "npi": null,
    "hcaiId": null,
    "businessName": "ST. JUDE NEIGHBORHOOD HEALTH CENTERS",
    "contactEmail": null,
    "categoryName": "PRIMARY CARE CLINIC",
    "categoryCode": "COMTYC",
    "licenseStatus": "ACTIVE",
    "inService": true,
    "licenseNumber": "550000408",
    "licenseEffectiveDate": "11/01/2025",
    "licenseExpirationDate": "10/31/2026",
    "dataDate": "10/18/2025",
    "capacity": 0,
    "address": "1801 S. GREENVILLE ST.",
    "city": "SANTA ANA",
    "zip": "92704",
    "county": "ORANGE",
    "phone": "(714) 771-8006",
    "lat": 33.722937,
    "lng": -117.901071
  },
  {
    "id": "060000021",
    "name": "SOUTH COAST GLOBAL MEDICAL CENTER",
    "npi": "1558354258",
    "hcaiId": "106301258",
    "businessName": "SOUTH COAST GLOBAL MEDICAL CENTER, INC.",
    "contactEmail": "PBARONOFF@KPCGM.COM",
    "categoryName": "GENERAL ACUTE CARE HOSPITAL",
    "categoryCode": "GACH",
    "licenseStatus": "ACTIVE",
    "inService": true,
    "licenseNumber": "060000143",
    "licenseEffectiveDate": "03/08/2025",
    "licenseExpirationDate": "03/07/2026",
    "dataDate": "10/18/2025",
    "capacity": 109,
    "address": "2701 S BRISTOL ST",
    "city": "SANTA ANA",
    "zip": "92704",
    "county": "ORANGE",
    "phone": "(561) 302-6813",
    "lat": 33.711084,
    "lng": -117.884268
  },
  {
    "id": "060001093",
    "name": "SOUTH COAST GLOBAL MEDICAL CENTER, INC.",
    "npi": "1558354258",
    "hcaiId": null,
    "businessName": "SOUTH COAST GLOBAL MEDICAL CENTER, INC.",
    "contactEmail": null,
    "categoryName": "OTHER",
    "categoryCode": "PPSPSCH",
    "licenseStatus": "ACTIVE",
    "inService": true,
    "licenseNumber": "060000143",
    "licenseEffectiveDate": "03/08/2025",
    "licenseExpirationDate": "03/07/2026",
    "dataDate": "10/18/2025",
    "capacity": 0,
    "address": "2701 S BRISTOL ST",
    "city": "SANTA ANA",
    "zip": "92704",
    "county": "ORANGE",
    "phone": null,
    "lat": 33.711084,
    "lng": -117.884268
  },
  {
    "id": "060001378",
    "name": "SOUTH COAST GLOBAL MEDICAL CENTER, INC. D/P APH",
    "npi": "1558354258",
    "hcaiId": null,
    "businessName": "SOUTH COAST GLOBAL MEDICAL CENTER, INC.",
    "contactEmail": null,
    "categoryName": "ACUTE PSYCHIATRIC HOSPITAL",
    "categoryCode": "APH",
    "licenseStatus": "ACTIVE",
    "inService": true,
    "licenseNumber": "060000143",
    "licenseEffectiveDate": "03/08/2025",
    "licenseExpirationDate": "03/07/2026",
    "dataDate": "10/18/2025",
    "capacity": 23,
    "address": "2701 S BRISTOL ST",
    "city": "SANTA ANA",
    "zip": "92704",
    "county": "ORANGE",
    "phone": "(714) 754-5454",
    "lat": 33.711084,
    "lng": -117.884268
  },
  {
    "id": "060001255",
    "name": "SOUTH COAST GLOBAL MEDICAL CENTER, INC. D/P SNF",
    "npi": "1972622371",
    "hcaiId": null,
    "businessName": "SOUTH COAST GLOBAL MEDICAL CENTER, INC.",
    "contactEmail": "MIN.BALBA-DIZON@KPCHEALTH.COM",
    "categoryName": "SKILLED NURSING FACILITY",
    "categoryCode": "SNF",
    "licenseStatus": "ACTIVE",
    "inService": true,
    "licenseNumber": "060000143",
    "licenseEffectiveDate": "03/08/2025",
    "licenseExpirationDate": "03/07/2026",
    "dataDate": "10/18/2025",
    "capacity": 46,
    "address": "2701 S BRISTOL ST",
    "city": "SANTA ANA",
    "zip": "92704",
    "county": "ORANGE",
    "phone": "(714) 754-5596",
    "lat": 33.711084,
    "lng": -117.884268
  }
]