[
  {
    "id": "630020253",
    "name": "360 ADULT DAYCARE CENTER",
    "npi": null,
    "hcaiId": null,
    "businessName": "360 ADULT DAYCARE CENTER",
    "contactEmail": "360ADULTDAYCARE@GMAIL.COM",
    "categoryName": "ADULT DAY HEALTH CARE",
    "categoryCode": "ADHC",
    "licenseStatus": "ACTIVE",
    "inService": true,
    "licenseNumber": "550008371",
    "licenseEffectiveDate": "03/19/2025",
    "licenseExpirationDate": "02/02/2026",
    "dataDate": "10/18/2025",
    "capacity": 0,
    "address": "1800 N BUSH ST",
    "city": "SANTA ANA",
    "zip": "92706",
    "county": "ORANGE",
    "phone": "(657) 231-9059",
    "lat": 33.761511,
    "lng": -117.866412
  },
  {
    "id": "630027847",
    "name": "ALTAMED BEHAVIORAL HEALTH AT MIDDLE COLLEGE HIGH SCHOOL",
    "npi": null,
    "hcaiId": null,
    "businessName": "ALTAMED HEALTH SERVICES CORPORATION",
    "contactEmail": null,
    "categoryName": "PRIMARY CARE CLINIC",
    "categoryCode": "COMTYC",
    "licenseStatus": "ACTIVE",
    "inService": true,
    "licenseNumber": "550001008",
    "licenseEffectiveDate": "04/01/2025",
    "licenseExpirationDate": "03/31/2026",
    "dataDate": "10/18/2025",
    "capacity": 0,
    "address": "1530 W 17TH ST",
    "city": "SANTA ANA",
    "zip": "92706",
    "county": "ORANGE",
    "phone": null,
    "lat": 33.75779699,
    "lng": -117.888822
  },
  {
    "id": "630027774",
    "name": "ALTAMED DENTAL GROUP AT ADVANCE LEARNING ACADEMY",
    "npi": null,
    "hcaiId": null,
    "businessName": "ALTAMED HEALTH SERVICES CORPORATION",
    "contactEmail": null,
    "categoryName": "PRIMARY CARE CLINIC",
    "categoryCode": "COMTYC",
    "licenseStatus": "ACTIVE",
    "inService": true,
    "licenseNumber": "550001008",
    "licenseEffectiveDate": "04/01/2025",
    "licenseExpirationDate": "03/31/2026",
    "dataDate": "10/18/2025",
    "capacity": 0,
    "address": "408 E SANTA CLARA AVE",
    "city": "SANTA ANA",
    "zip": "92706",
    "county": "ORANGE",
    "phone": null,
    "lat": 33.76600899,
    "lng": -117.863306
  },
  {
    "id": "630027404",
    "name": "ALTAMED DENTAL GROUP AT SCHOLARSHIP PREP SCHOOL",
    "npi": "1740427657",
    "hcaiId": null,
    "businessName": "ALTAMED HEALTH SERVICES CORPORATION",
    "contactEmail": null,
    "categoryName": "PRIMARY CARE CLINIC",
    "categoryCode": "COMTYC",
    "licenseStatus": "ACTIVE",
    "inService": true,
    "licenseNumber": "550001008",
    "licenseEffectiveDate": "04/01/2025",
    "licenseExpirationDate": "03/31/2026",
    "dataDate": "10/18/2025",
    "capacity": 0,
    "address": "1010 W 17TH ST",
    "city": "SANTA ANA",
    "zip": "92706",
    "county": "ORANGE",
    "phone": null,
    "lat": 33.75913399,
    "lng": -117.87796
  },
  {
    "id": "630021620",
    "name": "CARE CHOICE HOSPICE, INC.",
    "npi": null,
    "hcaiId": "406304907",
    "businessName": "CARE CHOICE HOSPICE, INC.",
    "contactEmail": "CARECHOICEHOSPICE@GMAIL.COM",
    "categoryName": "HOSPICE",
    "categoryCode": "HOSPICE",
    "licenseStatus": "ACTIVE",
    "inService": true,
    "licenseNumber": "550007210",
    "licenseEffectiveDate": "11/19/2023",
    "licenseExpirationDate": "11/18/2025",
    "dataDate": "10/18/2025",
    "capacity": 0,
    "address": "2112 N MAIN ST, SUITE 290",
    "city": "SANTA ANA",
    "zip": "92706",
    "county": "ORANGE",
    "phone": "(714) 494-9206",
    "lat": 33.764706,
    "lng": -117.8677215
  },
  {
    "id": "060000145",
    "name": "CITRUS POST-ACUTE",
    "npi": "1831187848",
    "hcaiId": "206301170",
    "businessName": "ORKOS BEACH HOLDINGS, LLC",
    "contactEmail": "MICHAEL.ANDRASZCZYK@LINKSHEALTH.COM",
    "categoryName": "SKILLED NURSING FACILITY",
    "categoryCode": "SNF",
    "licenseStatus": "ACTIVE",
    "inService": true,
    "licenseNumber": "060000105",
    "licenseEffectiveDate": "08/01/2025",
    "licenseExpirationDate": "02/28/2026",
    "dataDate": "10/18/2025",
    "capacity": 144,
    "address": "1929 N FAIRVIEW ST",
    "city": "SANTA ANA",
    "zip": "92706",
    "county": "ORANGE",
    "phone": "(714) 554-9700",
    "lat": 33.763698,
    "lng": -117.9022185
  },
  {
    "id": "630027363",
    "name": "FLORAL PARK CARE",
    "npi": null,
    "hcaiId": null,
    "businessName": "FLORAL PARK CARE",
    "contactEmail": "FLORALPARKCARE@GMAIL.COM",
    "categoryName": "INTERMEDIATE CARE FACILITY-DD/H/N/CN/IID",
    "categoryCode": "ICFDDN",
    "licenseStatus": "ACTIVE",
    "inService": true,
    "licenseNumber": "550009602",
    "licenseEffectiveDate": "07/16/2025",
    "licenseExpirationDate": "01/15/2026",
    "dataDate": "10/18/2025",
    "capacity": 6,
    "address": "2615 N GREENBRIER ST",
    "city": "SANTA ANA",
    "zip": "92706",
    "county": "ORANGE",
    "phone": "(818) 203-7779",
    "lat": 33.77281199,
    "lng": -117.883796
  },
  {
    "id": "930001607",
    "name": "KINDRED HOSPITAL - SANTA ANA",
    "npi": null,
    "hcaiId": "106301167",
    "businessName": "THC - ORANGE COUNTY, LLC",
    "contactEmail": "MEYERS.MARK@KINDREDHEALTH.COM",
    "categoryName": "GENERAL ACUTE CARE HOSPITAL",
    "categoryCode": "GACH",
    "licenseStatus": "ACTIVE",
    "inService": true,
    "licenseNumber": "060000407",
    "licenseEffectiveDate": "09/01/2025",
    "licenseExpirationDate": "03/02/2026",
    "dataDate": "10/18/2025",
    "capacity": 54,
    "address": "1901 COLLEGE AVE",
    "city": "SANTA ANA",
    "zip": "92706",
    "county": "ORANGE",
    "phone": "(714) 564-7800",
    "lat": 33.761799,
    "lng": -117.891396
  },
  {
    "id": "060001591",
    "name": "OLIVE STREET NORTH HOME",
    "npi": "1861528804",
    "hcaiId": null,
    "businessName": "RSCR CALIFORNIA, INC.",
    "contactEmail": "HARRY.NOEL@RESCARE.COM",
    "categoryName": "INTERMEDIATE CARE FACILITY-DD/H/N/CN/IID",
    "categoryCode": "ICFDDH",
    "licenseStatus": "ACTIVE",
    "inService": true,
    "licenseNumber": "060000499",
    "licenseEffectiveDate": "01/23/2025",
    "licenseExpirationDate": "01/22/2026",
    "dataDate": "10/18/2025",
    "capacity": 6,
    "address": "2034 NORTH OLIVE STREET",
    "city": "SANTA ANA",
    "zip": "92706",
    "county": "ORANGE",
    "phone": "(562) 469-1189",
    "lat": 33.764049,
    "lng": -117.877707
  },
  {
    "id": "630019916",
    "name": "SCHOLARSHIP PREP - SANTA ANA (VCC: COMMUNITY SMILES ORANGE COUNTY)",
    "npi": "1497203541",
    "hcaiId": null,
    "businessName": "VISTA COMMUNITY CLINIC",
    "contactEmail": null,
    "categoryName": "PRIMARY CARE CLINIC",
    "categoryCode": "COMTYC",
    "licenseStatus": "ACTIVE",
    "inService": true,
    "licenseNumber": "550003781",
    "licenseEffectiveDate": "02/06/2025",
    "licenseExpirationDate": "02/05/2026",
    "dataDate": "10/18/2025",
    "capacity": 0,
    "address": "1010 W 17TH ST, ROOM EXECUTIVE SUITE",
    "city": "SANTA ANA",
    "zip": "92706",
    "county": "ORANGE",
    "phone": "(714) 795-3498",
    "lat": 33.759648,
    "lng": -117.878184
  },
  {
    "id": "060000159",
    "name": "TOWN & COUNTRY",
    "npi": "1376532051",
    "hcaiId": "206301754",
    "businessName": "TOWN AND COUNTRY MANOR OF THE CHRISTIAN AND MISSIONARY ALLIANCE",
    "contactEmail": "MPRECIADO@TCMANOR.COM",
    "categoryName": "SKILLED NURSING FACILITY",
    "categoryCode": "SNF",
    "licenseStatus": "ACTIVE",
    "inService": true,
    "licenseNumber": "060000191",
    "licenseEffectiveDate": "11/14/2025",
    "licenseExpirationDate": "11/13/2026",
    "dataDate": "10/18/2025",
    "capacity": 95,
    "address": "555 E MEMORY LN",
    "city": "SANTA ANA",
    "zip": "92706",
    "county": "ORANGE",
    "phone": "(714) 547-7157",
    "lat": 33.773652,
    "lng": -117.8628885
  }
]