[
  {
    "id": "060000051",
    "name": "ADVANCED REHAB CENTER OF TUSTIN",
    "npi": "1548684467",
    "hcaiId": "206301202",
    "businessName": "2210 SANTA ANA OPCO, LLC",
    "contactEmail": "EMAYOL@REHABTUSTIN.COM",
    "categoryName": "SKILLED NURSING FACILITY",
    "categoryCode": "SNF",
    "licenseStatus": "ACTIVE",
    "inService": true,
    "licenseNumber": "060000121",
    "licenseEffectiveDate": "05/06/2025",
    "licenseExpirationDate": "05/05/2026",
    "dataDate": "10/18/2025",
    "capacity": 99,
    "address": "2210 E 1ST ST",
    "city": "SANTA ANA",
    "zip": "92705",
    "county": "ORANGE",
    "phone": "(714) 547-7091",
    "lat": 33.744825,
    "lng": -117.835335
  },
  {
    "id": "630027395",
    "name": "ALTAMED DENTAL GROUP AT FAIRHAVEN ELEMENTARY SCHOOL",
    "npi": "1740427657",
    "hcaiId": null,
    "businessName": "ALTAMED HEALTH SERVICES CORPORATION",
    "contactEmail": null,
    "categoryName": "PRIMARY CARE CLINIC",
    "categoryCode": "COMTYC",
    "licenseStatus": "ACTIVE",
    "inService": true,
    "licenseNumber": "550001008",
    "licenseEffectiveDate": "04/01/2025",
    "licenseExpirationDate": "03/31/2026",
    "dataDate": "10/18/2025",
    "capacity": 0,
    "address": "1415 FAIRHAVEN AVE",
    "city": "SANTA ANA",
    "zip": "92705",
    "county": "ORANGE",
    "phone": null,
    "lat": 33.77413298,
    "lng": -117.850155
  },
  {
    "id": "630027885",
    "name": "ALTAMED DENTAL GROUP AT JOHN MUIR ELEMENTARY SCHOOL",
    "npi": null,
    "hcaiId": null,
    "businessName": "ALTAMED HEALTH SERVICES CORPORATION",
    "contactEmail": null,
    "categoryName": "PRIMARY CARE CLINIC",
    "categoryCode": "COMTYC",
    "licenseStatus": "ACTIVE",
    "inService": true,
    "licenseNumber": "550001008",
    "licenseEffectiveDate": "04/01/2025",
    "licenseExpirationDate": "03/31/2026",
    "dataDate": "10/18/2025",
    "capacity": 0,
    "address": "1951 MABURY ST",
    "city": "SANTA ANA",
    "zip": "92705",
    "county": "ORANGE",
    "phone": null,
    "lat": 33.76344601,
    "lng": -117.843054
  },
  {
    "id": "630027773",
    "name": "ALTAMED DENTAL GROUP AT LOMA VISTA ELEMENTARY SCHOOL",
    "npi": null,
    "hcaiId": null,
    "businessName": "ALTAMED HEALTH SERVICES CORPORATION",
    "contactEmail": null,
    "categoryName": "PRIMARY CARE CLINIC",
    "categoryCode": "COMTYC",
    "licenseStatus": "ACTIVE",
    "inService": true,
    "licenseNumber": "550001008",
    "licenseEffectiveDate": "04/01/2025",
    "licenseExpirationDate": "03/31/2026",
    "dataDate": "10/18/2025",
    "capacity": 0,
    "address": "13822 PROSPECT AVE",
    "city": "SANTA ANA",
    "zip": "92705",
    "county": "ORANGE",
    "phone": null,
    "lat": 33.76207398,
    "lng": -117.819028
  },
  {
    "id": "630015369",
    "name": "AMERICAN STELLAR HOME HEALTH SERVICES INC.",
    "npi": null,
    "hcaiId": "406304574",
    "businessName": "AMERICAN STELLAR HOME HEALTH SERVICES INC.",
    "contactEmail": "MARIERT04@YAHOO.COM",
    "categoryName": "HOME HEALTH AGENCY",
    "categoryCode": "HHA",
    "licenseStatus": "ACTIVE",
    "inService": true,
    "licenseNumber": "550003101",
    "licenseEffectiveDate": "06/11/2025",
    "licenseExpirationDate": "06/10/2026",
    "dataDate": "10/18/2025",
    "capacity": 0,
    "address": "2700 N MAIN ST, SUITE 506",
    "city": "SANTA ANA",
    "zip": "92705",
    "county": "ORANGE",
    "phone": "(714) 948-0124",
    "lat": 33.773346,
    "lng": -117.8675235
  },
  {
    "id": "630013442",
    "name": "BUENA PARK COMMUNITY CLINIC",
    "npi": "1609153436",
    "hcaiId": "306304582",
    "businessName": "INTEGRATED COMMUNITY HEALTHCARE SOLUTIONS",
    "contactEmail": "BPCC@IFHOMELESS.ORG",
    "categoryName": "PRIMARY CARE CLINIC",
    "categoryCode": "COMTYC",
    "licenseStatus": "ACTIVE",
    "inService": true,
    "licenseNumber": "550001903",
    "licenseEffectiveDate": "04/10/2022",
    "licenseExpirationDate": "04/09/2023",
    "dataDate": "10/18/2025",
    "capacity": 0,
    "address": "1505 E 17TH ST, SUITE 209",
    "city": "SANTA ANA",
    "zip": "92705",
    "county": "ORANGE",
    "phone": "(714) 503-0772",
    "lat": 33.760449,
    "lng": -117.8470395
  },
  {
    "id": "630013475",
    "name": "COMMUNITY OUTREACH MEDICAL SERVICES",
    "npi": "1487947842",
    "hcaiId": "306304616",
    "businessName": "COMMUNITY OUTREACH MEDICAL SERVICES",
    "contactEmail": "JACOBFLORES@COMSHEALTHCLINICS.ORG",
    "categoryName": "PRIMARY CARE CLINIC",
    "categoryCode": "COMTYC",
    "licenseStatus": "ACTIVE",
    "inService": true,
    "licenseNumber": "550002046",
    "licenseEffectiveDate": "08/03/2022",
    "licenseExpirationDate": "08/02/2023",
    "dataDate": "10/18/2025",
    "capacity": 0,
    "address": "1200 N TUSTIN AVE, SUITE 130",
    "city": "SANTA ANA",
    "zip": "92705",
    "county": "ORANGE",
    "phone": "(657) 600-9077",
    "lat": 33.755409,
    "lng": -117.834768
  },
  {
    "id": "630012694",
    "name": "FIRST STREET SURGERY CENTER, INC",
    "npi": "1194966051",
    "hcaiId": null,
    "businessName": null,
    "contactEmail": null,
    "categoryName": "SURGICAL CLINIC",
    "categoryCode": "ASC",
    "licenseStatus": null,
    "inService": null,
    "licenseNumber": null,
    "licenseEffectiveDate": null,
    "licenseExpirationDate": null,
    "dataDate": "10/18/2025",
    "capacity": 0,
    "address": "2010 E 1ST ST, SUITE 110",
    "city": "SANTA ANA",
    "zip": "92705",
    "county": "ORANGE",
    "phone": "(714) 556-7246",
    "lat": 33.745311,
    "lng": -117.83889
  },
  {
    "id": "630028339",
    "name": "GENESIS AMBULATORY SURGERY CENTER INC",
    "npi": null,
    "hcaiId": null,
    "businessName": null,
    "contactEmail": "PHILLIE@GENESISASC.COM",
    "categoryName": "SURGICAL CLINIC",
    "categoryCode": "ASC",
    "licenseStatus": null,
    "inService": null,
    "licenseNumber": null,
    "licenseEffectiveDate": null,
    "licenseExpirationDate": null,
    "dataDate": "10/18/2025",
    "capacity": 0,
    "address": "1401 N TUSTIN AVE, SUITE 105",
    "city": "SANTA ANA",
    "zip": "92705",
    "county": "ORANGE",
    "phone": "(714) 462-1240",
    "lat": 33.757253,
    "lng": -117.833337
  },
  {
    "id": "630013069",
    "name": "GREEN MEADOWS HOME HEALTH CARE, INC.",
    "npi": "1457656332",
    "hcaiId": "406304492",
    "businessName": "GREEN MEADOWS HOME HEALTH CARE, INC.",
    "contactEmail": "GREENMEADOWSHHC@GMAIL.COM",
    "categoryName": "HOME HEALTH AGENCY",
    "categoryCode": "HHA",
    "licenseStatus": "ACTIVE",
    "inService": true,
    "licenseNumber": "550001848",
    "licenseEffectiveDate": "01/19/2025",
    "licenseExpirationDate": "01/18/2026",
    "dataDate": "10/18/2025",
    "capacity": 0,
    "address": "2204 E 4TH ST, SUITE 200",
    "city": "SANTA ANA",
    "zip": "92705",
    "county": "ORANGE",
    "phone": "(714) 838-1055",
    "lat": 33.74792001,
    "lng": -117.8356
  },
  {
    "id": "630016187",
    "name": "GREEN MEADOWS HOSPICE CARE",
    "npi": null,
    "hcaiId": "406301006",
    "businessName": "ONE STOP HOSPICE, INC.",
    "contactEmail": "GM@GREENMEADOWSHHC.COM",
    "categoryName": "HOSPICE",
    "categoryCode": "HOSPICE",
    "licenseStatus": "ACTIVE",
    "inService": true,
    "licenseNumber": "550003634",
    "licenseEffectiveDate": "03/11/2025",
    "licenseExpirationDate": "08/28/2026",
    "dataDate": "10/18/2025",
    "capacity": 0,
    "address": "2204 E 4TH ST, SUITE 100",
    "city": "SANTA ANA",
    "zip": "92705",
    "county": "ORANGE",
    "phone": "(714) 808-1912",
    "lat": 33.74792001,
    "lng": -117.8356
  },
  {
    "id": "630012733",
    "name": "GUARDIAN ANGEL HOME CARE OF SANTA ANA, LLC",
    "npi": "1538482633",
    "hcaiId": "406304467",
    "businessName": "GUARDIAN ANGEL HOME CARE OF SANTA ANA, LLC",
    "contactEmail": "K.ANDERSON@GAHC94.COM",
    "categoryName": "HOME HEALTH AGENCY",
    "categoryCode": "HHA",
    "licenseStatus": "ACTIVE",
    "inService": true,
    "licenseNumber": "550001471",
    "licenseEffectiveDate": "01/04/2025",
    "licenseExpirationDate": "01/03/2026",
    "dataDate": "10/18/2025",
    "capacity": 0,
    "address": "2030 E 4TH ST, SUITE 132",
    "city": "SANTA ANA",
    "zip": "92705",
    "county": "ORANGE",
    "phone": "(714) 542-7700",
    "lat": 33.747606,
    "lng": -117.837639
  },
  {
    "id": "630020995",
    "name": "HEALING HANDS HEALTH CARE CORP",
    "npi": "1992312243",
    "hcaiId": "406565179",
    "businessName": "HEALING HANDS HEALTH CARE CORP",
    "contactEmail": "HEALINGHANDSHEALTHCARECORP@GMAIL.COM",
    "categoryName": "HOSPICE",
    "categoryCode": "HOSPICE",
    "licenseStatus": "ACTIVE",
    "inService": true,
    "licenseNumber": "550007557",
    "licenseEffectiveDate": "12/10/2023",
    "licenseExpirationDate": "12/09/2025",
    "dataDate": "10/18/2025",
    "capacity": 0,
    "address": "1905 E 17TH ST, SUITE 312",
    "city": "SANTA ANA",
    "zip": "92705",
    "county": "ORANGE",
    "phone": "(818) 369-0002",
    "lat": 33.76044001,
    "lng": -117.840577
  },
  {
    "id": "630027907",
    "name": "HORIZON PREGNANCY CLINIC SANTA ANA",
    "npi": null,
    "hcaiId": null,
    "businessName": "HORIZON PREGNANCY CENTER",
    "contactEmail": null,
    "categoryName": "PRIMARY CARE CLINIC",
    "categoryCode": "COMTYC",
    "licenseStatus": "ACTIVE",
    "inService": true,
    "licenseNumber": "550001902",
    "licenseEffectiveDate": "02/09/2025",
    "licenseExpirationDate": "02/08/2026",
    "dataDate": "10/18/2025",
    "capacity": 0,
    "address": "1913 E 17TH ST, SUITE 101",
    "city": "SANTA ANA",
    "zip": "92705",
    "county": "ORANGE",
    "phone": null,
    "lat": 33.76043301,
    "lng": -117.839991
  },
  {
    "id": "630014819",
    "name": "HURTT FAMILY HEALTH CLINIC - SANTA ANA",
    "npi": "1003250093",
    "hcaiId": "306304555",
    "businessName": "HURTT FAMILY HEALTH CLINIC, INC.",
    "contactEmail": "INFO@HURTTCLINIC.ORG",
    "categoryName": "PRIMARY CARE CLINIC",
    "categoryCode": "COMTYC",
    "licenseStatus": "ACTIVE",
    "inService": false,
    "licenseNumber": "550002749",
    "licenseEffectiveDate": "07/02/2025",
    "licenseExpirationDate": "07/01/2026",
    "dataDate": "10/18/2025",
    "capacity": 0,
    "address": "1100-B N TUSTIN AVE, SUITE A, D & F",
    "city": "SANTA ANA",
    "zip": "92705",
    "county": "ORANGE",
    "phone": "(714) 247-0300",
    "lat": 33.754743,
    "lng": -117.834561
  },
  {
    "id": "060002145",
    "name": "NEURORESTORATIVE CALIFORNIA",
    "npi": null,
    "hcaiId": "206304307",
    "businessName": "CAREMERIDIAN, LLC",
    "contactEmail": "AIDA.TORRES@SEVITAHEALTH.COM",
    "categoryName": "CONGREGATE LIVING HEALTH FACILITY",
    "categoryCode": "CLHF",
    "licenseStatus": "ACTIVE",
    "inService": true,
    "licenseNumber": "060000874",
    "licenseEffectiveDate": "12/24/2024",
    "licenseExpirationDate": "12/23/2025",
    "dataDate": "10/18/2025",
    "capacity": 14,
    "address": "18792 E 17TH ST",
    "city": "SANTA ANA",
    "zip": "92705",
    "county": "ORANGE",
    "phone": "(714) 832-1060",
    "lat": 33.758766,
    "lng": -117.805482
  },
  {
    "id": "630008321",
    "name": "OBRIA MEDICAL CLINICS OF SOUTHERN CALIFORNIA, INC.",
    "npi": "1861516809",
    "hcaiId": "306300633",
    "businessName": "OBRIA MEDICAL CLINICS OF SOUTHERN CALIFORNIA, INC.",
    "contactEmail": "RSMITH@OBRIA.ORG",
    "categoryName": "PRIMARY CARE CLINIC",
    "categoryCode": "COMTYC",
    "licenseStatus": "ACTIVE",
    "inService": true,
    "licenseNumber": "550000188",
    "licenseEffectiveDate": "06/12/2025",
    "licenseExpirationDate": "06/11/2026",
    "dataDate": "10/18/2025",
    "capacity": 0,
    "address": "2001 E 1ST ST, SUITE 209",
    "city": "SANTA ANA",
    "zip": "92705",
    "county": "ORANGE",
    "phone": "(310) 499-3075",
    "lat": 33.746094,
    "lng": -117.83871
  },
  {
    "id": "630025839",
    "name": "OLIVET HOME HEALTH, INC.",
    "npi": null,
    "hcaiId": null,
    "businessName": "OLIVET HOME HEALTH INC.",
    "contactEmail": "OLIVETHOSPICE@GMAIL.COM",
    "categoryName": "HOME HEALTH AGENCY",
    "categoryCode": "HHA",
    "licenseStatus": "ACTIVE",
    "inService": true,
    "licenseNumber": "550009367",
    "licenseEffectiveDate": "03/20/2025",
    "licenseExpirationDate": "09/19/2025",
    "dataDate": "10/18/2025",
    "capacity": 0,
    "address": "1905 E 17TH ST, SUITE 209",
    "city": "SANTA ANA",
    "zip": "92705",
    "county": "ORANGE",
    "phone": "(888) 470-9979",
    "lat": 33.76044001,
    "lng": -117.840577
  },
  {
    "id": "630016876",
    "name": "ORANGE ASC, LLC",
    "npi": "1780059014",
    "hcaiId": null,
    "businessName": null,
    "contactEmail": null,
    "categoryName": "SURGICAL CLINIC",
    "categoryCode": "ASC",
    "licenseStatus": null,
    "inService": null,
    "licenseNumber": null,
    "licenseEffectiveDate": null,
    "licenseExpirationDate": null,
    "dataDate": "10/18/2025",
    "capacity": 0,
    "address": "1403 N TUSTIN AVE, SUITE 100",
    "city": "SANTA ANA",
    "zip": "92705",
    "county": "ORANGE",
    "phone": "(714) 633-1338",
    "lat": 33.75743699,
    "lng": -117.832338
  },
  {
    "id": "060000073",
    "name": "ORANGE COUNTY GLOBAL MEDICAL CENTER",
    "npi": "1982697678",
    "hcaiId": "106301566",
    "businessName": "ORANGE COUNTY GLOBAL MEDICAL CENTER, INC.",
    "contactEmail": "MYRNA.CHANG@KPCHEALTH.COM",
    "categoryName": "GENERAL ACUTE CARE HOSPITAL",
    "categoryCode": "GACH",
    "licenseStatus": "ACTIVE",
    "inService": true,
    "licenseNumber": "060000188",
    "licenseEffectiveDate": "03/08/2025",
    "licenseExpirationDate": "03/07/2026",
    "dataDate": "10/18/2025",
    "capacity": 254,
    "address": "1001 N TUSTIN AVE",
    "city": "SANTA ANA",
    "zip": "92705",
    "county": "ORANGE",
    "phone": "(714) 953-3610",
    "lat": 33.754131,
    "lng": -117.8329005
  },
  {
    "id": "060001302",
    "name": "ORANGE COUNTY GLOBAL MEDICAL CENTER  D/P APH",
    "npi": "1982697678",
    "hcaiId": null,
    "businessName": "ORANGE COUNTY GLOBAL MEDICAL CENTER, INC.",
    "contactEmail": null,
    "categoryName": "ACUTE PSYCHIATRIC HOSPITAL",
    "categoryCode": "APH",
    "licenseStatus": "ACTIVE",
    "inService": true,
    "licenseNumber": "060000188",
    "licenseEffectiveDate": "03/08/2025",
    "licenseExpirationDate": "03/07/2026",
    "dataDate": "10/18/2025",
    "capacity": 28,
    "address": "1001 N TUSTIN AVE",
    "city": "SANTA ANA",
    "zip": "92705",
    "county": "ORANGE",
    "phone": null,
    "lat": 33.754131,
    "lng": -117.8329005
  },
  {
    "id": "060000264",
    "name": "PLANNED PARENTHOOD/ORANGE & SAN BERNARDINO CO.",
    "npi": null,
    "hcaiId": "306304334",
    "businessName": "PLANNED PARENTHOOD/ORANGE & SAN BERNARDINO CO.,INC",
    "contactEmail": "SAMANTHA.ORTEGA@PPOSBC.ORG",
    "categoryName": "PRIMARY CARE CLINIC",
    "categoryCode": "COMTYC",
    "licenseStatus": "ACTIVE",
    "inService": true,
    "licenseNumber": "060000008",
    "licenseEffectiveDate": "02/17/2025",
    "licenseExpirationDate": "02/16/2026",
    "dataDate": "10/18/2025",
    "capacity": 0,
    "address": "1421 E 17TH ST",
    "city": "SANTA ANA",
    "zip": "92705",
    "county": "ORANGE",
    "phone": "(714) 922-4100",
    "lat": 33.760089,
    "lng": -117.847809
  },
  {
    "id": "060001230",
    "name": "REIMAGINE NETWORK",
    "npi": null,
    "hcaiId": null,
    "businessName": "REIMAGINE NETWORK",
    "contactEmail": "JGARCIA@REIMAGINEOC.ORG",
    "categoryName": "ADULT DAY HEALTH CARE",
    "categoryCode": "ADHC",
    "licenseStatus": "ACTIVE",
    "inService": true,
    "licenseNumber": "060000362",
    "licenseEffectiveDate": "11/28/2024",
    "licenseExpirationDate": "11/27/2025",
    "dataDate": "10/18/2025",
    "capacity": 0,
    "address": "1601 E SAINT ANDREW PL",
    "city": "SANTA ANA",
    "zip": "92705",
    "county": "ORANGE",
    "phone": "(714) 633-7400",
    "lat": 33.723459,
    "lng": -117.8480655
  },
  {
    "id": "630018239",
    "name": "ST. JOSEPH SATELLITE HEALTHCARE",
    "npi": "1174067706",
    "hcaiId": "306300457",
    "businessName": "ST. JOSEPH SATELLITE DIALYSIS CENTERS, LLC",
    "contactEmail": "RUMBAOAJ@SATELLITEHEALTH.COM",
    "categoryName": "CHRONIC DIALYSIS CLINIC",
    "categoryCode": "ESRD/CDC",
    "licenseStatus": "ACTIVE",
    "inService": true,
    "licenseNumber": "550004811",
    "licenseEffectiveDate": "06/26/2025",
    "licenseExpirationDate": "06/25/2026",
    "dataDate": "10/18/2025",
    "capacity": 30,
    "address": "2212 E 4TH ST, SUITE 101",
    "city": "SANTA ANA",
    "zip": "92705",
    "county": "ORANGE",
    "phone": "(949) 420-5713",
    "lat": 33.747714,
    "lng": -117.83493
  },
  {
    "id": "080001536",
    "name": "THE HILLS POST ACUTE",
    "npi": "1609865583",
    "hcaiId": "206301134",
    "businessName": "TUSTIN HILLS HEALTHCARE, INC.",
    "contactEmail": "BALLEN@ENSIGNSERVICES.NET",
    "categoryName": "SKILLED NURSING FACILITY",
    "categoryCode": "SNF",
    "licenseStatus": "ACTIVE",
    "inService": true,
    "licenseNumber": "080000645",
    "licenseEffectiveDate": "11/15/2024",
    "licenseExpirationDate": "11/14/2025",
    "dataDate": "10/18/2025",
    "capacity": 174,
    "address": "1800 OLD TUSTIN AVE",
    "city": "SANTA ANA",
    "zip": "92705",
    "county": "ORANGE",
    "phone": "(714) 835-4900",
    "lat": 33.761385,
    "lng": -117.8363925
  },
  {
    "id": "080001723",
    "name": "TUSTIN DIALYSIS",
    "npi": "1174586226",
    "hcaiId": "306304304",
    "businessName": "TUSTIN DIALYSIS CENTER, LLC",
    "contactEmail": "CAL_C@DAVITA.COM",
    "categoryName": "CHRONIC DIALYSIS CLINIC",
    "categoryCode": "ESRD/CDC",
    "licenseStatus": "ACTIVE",
    "inService": true,
    "licenseNumber": "080000766",
    "licenseEffectiveDate": "01/21/2025",
    "licenseExpirationDate": "01/20/2026",
    "dataDate": "10/18/2025",
    "capacity": 24,
    "address": "2090 N TUSTIN AVE, SUITE 100",
    "city": "SANTA ANA",
    "zip": "92705",
    "county": "ORANGE",
    "phone": "(714) 835-2450",
    "lat": 33.764391,
    "lng": -117.836289
  },
  {
    "id": "630025158",
    "name": "VITAS HOSPICE HOUSE OF ORANGE COUNTY",
    "npi": null,
    "hcaiId": "206300392",
    "businessName": "VITAS HEALTHCARE CORPORATION OF CALIFORNIA",
    "contactEmail": "JENNIFER.MELAD1@VITAS.COM",
    "categoryName": "HOSPICE FACILITY",
    "categoryCode": "HOFA",
    "licenseStatus": "ACTIVE",
    "inService": true,
    "licenseNumber": "550008503",
    "licenseEffectiveDate": "04/12/2025",
    "licenseExpirationDate": "04/11/2026",
    "dataDate": "10/18/2025",
    "capacity": 6,
    "address": "18582 VANDERLIP AVE",
    "city": "SANTA ANA",
    "zip": "92705",
    "county": "ORANGE",
    "phone": "(657) 660-6500",
    "lat": 33.7563,
    "lng": -117.808704
  }
]