[
  {
    "id": "060001097",
    "name": "ENCOMPASS HEALTH REHABILITATION HOSPITAL OF TUSTIN",
    "npi": "1043284706",
    "hcaiId": "106304585",
    "businessName": "ENCOMPASS HEALTH REHABILITATION HOSPITAL OF TUSTIN, L.P.",
    "contactEmail": "DAVID.BAUER@ENCOMPASSHEALTH.COM",
    "categoryName": "GENERAL ACUTE CARE HOSPITAL",
    "categoryCode": "GACH",
    "licenseStatus": "ACTIVE",
    "inService": true,
    "licenseNumber": "060000303",
    "licenseEffectiveDate": "06/06/2025",
    "licenseExpirationDate": "06/05/2026",
    "dataDate": "10/18/2025",
    "capacity": 65,
    "address": "15120 KENSINGTON PARK DR",
    "city": "TUSTIN",
    "zip": "92782",
    "county": "ORANGE",
    "phone": "(714) 823-9200",
    "lat": 33.712614,
    "lng": -117.8156295
  },
  {
    "id": "630027906",
    "name": "FOR EVERY WOMEN MEDICAL MOBILE CLINIC",
    "npi": null,
    "hcaiId": null,
    "businessName": "HORIZON PREGNANCY CENTER",
    "contactEmail": null,
    "categoryName": "PRIMARY CARE CLINIC",
    "categoryCode": "COMTYC",
    "licenseStatus": "ACTIVE",
    "inService": true,
    "licenseNumber": "550001902",
    "licenseEffectiveDate": "02/09/2025",
    "licenseExpirationDate": "02/08/2026",
    "dataDate": "10/18/2025",
    "capacity": 0,
    "address": "1 HOPE DR",
    "city": "TUSTIN",
    "zip": "92782",
    "county": "ORANGE",
    "phone": null,
    "lat": 33.71542198,
    "lng": -117.832398
  },
  {
    "id": "060001677",
    "name": "HURTT FAMILY HEALTH CLINIC",
    "npi": "1306965587",
    "hcaiId": "306304423",
    "businessName": "HURTT FAMILY HEALTH CLINIC, INC.",
    "contactEmail": "INFO@HURTTCLINIC.ORG",
    "categoryName": "PRIMARY CARE CLINIC",
    "categoryCode": "FQHC/COMTYC",
    "licenseStatus": "ACTIVE",
    "inService": true,
    "licenseNumber": "060000772",
    "licenseEffectiveDate": "04/01/2025",
    "licenseExpirationDate": "03/31/2026",
    "dataDate": "10/18/2025",
    "capacity": 0,
    "address": "1 HOPE DR",
    "city": "TUSTIN",
    "zip": "92782",
    "county": "ORANGE",
    "phone": "(714) 247-0300",
    "lat": 33.715152,
    "lng": -117.8321985
  },
  {
    "id": "630013204",
    "name": "HURTT FAMILY HEALTH CLINIC-MOBILE",
    "npi": "1306965587",
    "hcaiId": "306304482",
    "businessName": "HURTT FAMILY HEALTH CLINIC, INC.",
    "contactEmail": "INFO@HURTTCLINIC.ORG",
    "categoryName": "PRIMARY CARE CLINIC",
    "categoryCode": "COMTYC",
    "licenseStatus": "ACTIVE",
    "inService": true,
    "licenseNumber": "550001809",
    "licenseEffectiveDate": "12/07/2024",
    "licenseExpirationDate": "12/06/2025",
    "dataDate": "10/18/2025",
    "capacity": 0,
    "address": "1 HOPE DR",
    "city": "TUSTIN",
    "zip": "92782",
    "county": "ORANGE",
    "phone": "(714) 247-0300",
    "lat": 33.715152,
    "lng": -117.8321985
  },
  {
    "id": "060002168",
    "name": "HURTT FAMILY MOBILE CLINIC",
    "npi": "1306965587",
    "hcaiId": "306304431",
    "businessName": "HURTT FAMILY HEALTH CLINIC, INC.",
    "contactEmail": "INFO@HURTTCLINIC.ORG",
    "categoryName": "PRIMARY CARE CLINIC",
    "categoryCode": "COMTYC",
    "licenseStatus": "ACTIVE",
    "inService": true,
    "licenseNumber": "060000873",
    "licenseEffectiveDate": "04/25/2025",
    "licenseExpirationDate": "04/24/2026",
    "dataDate": "10/18/2025",
    "capacity": 0,
    "address": "1 HOPE DR",
    "city": "TUSTIN",
    "zip": "92782",
    "county": "ORANGE",
    "phone": "(714) 247-0300",
    "lat": 33.715152,
    "lng": -117.8321985
  }
]