[
  {
    "id": "630027160",
    "name": "ACCESS COMMUNITY HEALTH CENTER",
    "npi": null,
    "hcaiId": null,
    "businessName": "ACCESS COMMUNITY HEALTH CENTER",
    "contactEmail": null,
    "categoryName": "PRIMARY CARE CLINIC",
    "categoryCode": "COMTYC",
    "licenseStatus": "ACTIVE",
    "inService": true,
    "licenseNumber": "550007868",
    "licenseEffectiveDate": "10/18/2025",
    "licenseExpirationDate": "10/17/2026",
    "dataDate": "10/18/2025",
    "capacity": 0,
    "address": "14642 NEWPORT AVE, SUITE 101,",
    "city": "TUSTIN",
    "zip": "92780",
    "county": "ORANGE",
    "phone": null,
    "lat": 33.730546,
    "lng": -117.829019
  },
  {
    "id": "630014384",
    "name": "ALLIED SURGERY CENTER",
    "npi": "1699077842",
    "hcaiId": null,
    "businessName": null,
    "contactEmail": "ALLIEDSURGERYCENTER@YAHOO.COM",
    "categoryName": "SURGICAL CLINIC",
    "categoryCode": "ASC",
    "licenseStatus": null,
    "inService": null,
    "licenseNumber": null,
    "licenseEffectiveDate": null,
    "licenseExpirationDate": null,
    "dataDate": "10/18/2025",
    "capacity": 0,
    "address": "13132 NEWPORT AVE, SUITE 210",
    "city": "TUSTIN",
    "zip": "92780",
    "county": "ORANGE",
    "phone": "(714) 919-5883",
    "lat": 33.74685,
    "lng": -117.8114985
  },
  {
    "id": "630027769",
    "name": "ALTAMED DENTAL GROUP AT BARBARA BENSON ELEMENTARY SCHOOL",
    "npi": null,
    "hcaiId": null,
    "businessName": "ALTAMED HEALTH SERVICES CORPORATION",
    "contactEmail": null,
    "categoryName": "PRIMARY CARE CLINIC",
    "categoryCode": "COMTYC",
    "licenseStatus": "ACTIVE",
    "inService": true,
    "licenseNumber": "550001008",
    "licenseEffectiveDate": "04/01/2025",
    "licenseExpirationDate": "03/31/2026",
    "dataDate": "10/18/2025",
    "capacity": 0,
    "address": "12712 ELIZABETH WAY",
    "city": "TUSTIN",
    "zip": "92780",
    "county": "ORANGE",
    "phone": null,
    "lat": 33.75092999,
    "lng": -117.804747
  },
  {
    "id": "630027772",
    "name": "ALTAMED DENTAL GROUP AT HELEN ESTOCK ELEMENTARY SCHOOL",
    "npi": null,
    "hcaiId": null,
    "businessName": "ALTAMED HEALTH SERVICES CORPORATION",
    "contactEmail": null,
    "categoryName": "PRIMARY CARE CLINIC",
    "categoryCode": "COMTYC",
    "licenseStatus": "ACTIVE",
    "inService": true,
    "licenseNumber": "550001008",
    "licenseEffectiveDate": "04/01/2025",
    "licenseExpirationDate": "03/31/2026",
    "dataDate": "10/18/2025",
    "capacity": 0,
    "address": "14741 N B ST",
    "city": "TUSTIN",
    "zip": "92780",
    "county": "ORANGE",
    "phone": null,
    "lat": 33.750307,
    "lng": -117.826146
  },
  {
    "id": "630023924",
    "name": "AMERICANA ADULT DAY CENTER",
    "npi": null,
    "hcaiId": null,
    "businessName": "111 FASHION LANE INC.",
    "contactEmail": "INFO@AMERICANASENIORCARE.COM",
    "categoryName": "ADULT DAY HEALTH CARE",
    "categoryCode": "ADHC",
    "licenseStatus": "ACTIVE",
    "inService": true,
    "licenseNumber": "550007911",
    "licenseEffectiveDate": "07/07/2025",
    "licenseExpirationDate": "02/23/2026",
    "dataDate": "10/18/2025",
    "capacity": 0,
    "address": "111 FASHION LN, SUITE 100",
    "city": "TUSTIN",
    "zip": "92780",
    "county": "ORANGE",
    "phone": "(714) 408-2081",
    "lat": 33.746013,
    "lng": -117.817542
  },
  {
    "id": "630020029",
    "name": "ANGENIDA HOSPICE LLC",
    "npi": null,
    "hcaiId": "406306160",
    "businessName": "ANGENIDA HOSPICE LLC",
    "contactEmail": "ANGENIDAHOSPICELLC@GMAIL.COM",
    "categoryName": "HOSPICE",
    "categoryCode": "HOSPICE",
    "licenseStatus": "ACTIVE",
    "inService": true,
    "licenseNumber": "550006051",
    "licenseEffectiveDate": "01/30/2025",
    "licenseExpirationDate": "01/29/2027",
    "dataDate": "10/18/2025",
    "capacity": 0,
    "address": "14081 YORBA ST, SUITE 201",
    "city": "TUSTIN",
    "zip": "92780",
    "county": "ORANGE",
    "phone": "(714) 442-3853",
    "lat": 33.758361,
    "lng": -117.8300565
  },
  {
    "id": "630020175",
    "name": "APOLLO HOME HEALTH CARE, INC",
    "npi": null,
    "hcaiId": "406195671",
    "businessName": "APOLLO HOME HEALTH CARE, INC",
    "contactEmail": "APOLLOHHC@YAHOO.COM",
    "categoryName": "HOME HEALTH AGENCY",
    "categoryCode": "HHA",
    "licenseStatus": "ACTIVE",
    "inService": true,
    "licenseNumber": "550005950",
    "licenseEffectiveDate": "12/28/2024",
    "licenseExpirationDate": "12/27/2025",
    "dataDate": "10/18/2025",
    "capacity": 0,
    "address": "14081 YORBA ST, SUITE 109",
    "city": "TUSTIN",
    "zip": "92780",
    "county": "ORANGE",
    "phone": "(818) 358-3388",
    "lat": 33.758446,
    "lng": -117.829969
  },
  {
    "id": "630020469",
    "name": "ATHOME HEALTHCARE",
    "npi": null,
    "hcaiId": "406303112",
    "businessName": "ATHOME HEALTHCARE",
    "contactEmail": "ATHOMEHEALTHCARE2020@GMAIL.COM",
    "categoryName": "HOME HEALTH AGENCY",
    "categoryCode": "HHA",
    "licenseStatus": "ACTIVE",
    "inService": true,
    "licenseNumber": "550006112",
    "licenseEffectiveDate": "03/22/2025",
    "licenseExpirationDate": "03/21/2026",
    "dataDate": "10/18/2025",
    "capacity": 0,
    "address": "18002 IRVINE BLVD, SUITE 208",
    "city": "TUSTIN",
    "zip": "92780",
    "county": "ORANGE",
    "phone": "(626) 589-1349",
    "lat": 33.747948,
    "lng": -117.8181495
  },
  {
    "id": "630019683",
    "name": "CALSTRO HOSPICE ORANGE COUNTY",
    "npi": null,
    "hcaiId": "406304789",
    "businessName": "GREEN RIVER HOSPICE",
    "contactEmail": "ADMIN.OC@CALTROHOSPICE.COM",
    "categoryName": "HOSPICE",
    "categoryCode": "HOSPICE",
    "licenseStatus": "ACTIVE",
    "inService": true,
    "licenseNumber": "550005922",
    "licenseEffectiveDate": "11/30/2024",
    "licenseExpirationDate": "11/29/2026",
    "dataDate": "10/18/2025",
    "capacity": 0,
    "address": "17332 IRVINE BLVD, SUITE 201",
    "city": "TUSTIN",
    "zip": "92780",
    "county": "ORANGE",
    "phone": "(714) 908-7877",
    "lat": 33.747912,
    "lng": -117.829359
  },
  {
    "id": "630015777",
    "name": "FAMILIES TOGETHER OF ORANGE COUNTY",
    "npi": "1194122457",
    "hcaiId": "306304576",
    "businessName": "FAMILIES TOGETHER OF ORANGE COUNTY",
    "contactEmail": "ALEXROSSEL@FTOC.US",
    "categoryName": "PRIMARY CARE CLINIC",
    "categoryCode": "COMTYC",
    "licenseStatus": "ACTIVE",
    "inService": true,
    "licenseNumber": "550003128",
    "licenseEffectiveDate": "06/11/2025",
    "licenseExpirationDate": "06/10/2026",
    "dataDate": "10/18/2025",
    "capacity": 0,
    "address": "661 W. FIRST STREET, SUITE G",
    "city": "TUSTIN",
    "zip": "92780",
    "county": "ORANGE",
    "phone": "(714) 658-3000",
    "lat": 33.74622,
    "lng": -117.831168
  },
  {
    "id": "630027806",
    "name": "FAMILIES TOGETHER OF ORANGE COUNTY",
    "npi": null,
    "hcaiId": null,
    "businessName": "FAMILIES TOGETHER OF ORANGE COUNTY",
    "contactEmail": null,
    "categoryName": "PRIMARY CARE CLINIC",
    "categoryCode": "COMTYC",
    "licenseStatus": "ACTIVE",
    "inService": true,
    "licenseNumber": "550003128",
    "licenseEffectiveDate": "06/11/2025",
    "licenseExpirationDate": "06/10/2026",
    "dataDate": "10/18/2025",
    "capacity": 0,
    "address": "621 W 1ST ST",
    "city": "TUSTIN",
    "zip": "92780",
    "county": "ORANGE",
    "phone": null,
    "lat": 33.74600298,
    "lng": -117.830524
  },
  {
    "id": "630020309",
    "name": "FAMILIES TOGETHER OF ORANGE COUNTY - MOBILE CLINIC",
    "npi": null,
    "hcaiId": "306300667",
    "businessName": "FAMILIES TOGETHER OF ORANGE COUNTY",
    "contactEmail": "ALEXROSSEL@FAMILIESTOGETHEROC.ORG",
    "categoryName": "PRIMARY CARE CLINIC",
    "categoryCode": "COMTYC",
    "licenseStatus": "ACTIVE",
    "inService": true,
    "licenseNumber": "550005902",
    "licenseEffectiveDate": "12/18/2024",
    "licenseExpirationDate": "12/17/2025",
    "dataDate": "10/18/2025",
    "capacity": 0,
    "address": "621 W 1ST ST",
    "city": "TUSTIN",
    "zip": "92780",
    "county": "ORANGE",
    "phone": "(714) 665-9890",
    "lat": 33.745995,
    "lng": -117.8305245
  },
  {
    "id": "060000013",
    "name": "FOOTHILL REGIONAL MEDICAL CENTER",
    "npi": "1043632938",
    "hcaiId": "106301357",
    "businessName": "ALTA NEWPORT HOSPITAL, LLC.",
    "contactEmail": "ARACELI.LONERGAN@FOOTHILLMEDCENTER.COM",
    "categoryName": "GENERAL ACUTE CARE HOSPITAL",
    "categoryCode": "GACH",
    "licenseStatus": "ACTIVE",
    "inService": true,
    "licenseNumber": "060000178",
    "licenseEffectiveDate": "11/03/2025",
    "licenseExpirationDate": "05/05/2026",
    "dataDate": "10/18/2025",
    "capacity": 135,
    "address": "14662 NEWPORT AVE",
    "city": "TUSTIN",
    "zip": "92780",
    "county": "ORANGE",
    "phone": "(714) 619-7700",
    "lat": 33.730281,
    "lng": -117.8284365
  },
  {
    "id": "060001166",
    "name": "FOOTHILL REGIONAL MEDICAL CENTER D/P SNF",
    "npi": "1689096406",
    "hcaiId": null,
    "businessName": "ALTA NEWPORT HOSPITAL, LLC.",
    "contactEmail": "DRBORAH.TENER@ALTAHOSPITALS.COM",
    "categoryName": "SKILLED NURSING FACILITY",
    "categoryCode": "SNF",
    "licenseStatus": "ACTIVE",
    "inService": true,
    "licenseNumber": "060000178",
    "licenseEffectiveDate": "11/03/2025",
    "licenseExpirationDate": "05/05/2026",
    "dataDate": "10/18/2025",
    "capacity": 42,
    "address": "14662 NEWPORT AVE",
    "city": "TUSTIN",
    "zip": "92780",
    "county": "ORANGE",
    "phone": "(714) 619-7700",
    "lat": 33.730281,
    "lng": -117.8284365
  },
  {
    "id": "630016340",
    "name": "FRIENDS OF FAMILY HEALTH CENTER",
    "npi": "1922489665",
    "hcaiId": "306304608",
    "businessName": "FRIENDS OF FAMILY HEALTH CENTER",
    "contactEmail": "BBAHREMAND@FOFHEALTHCENTER.ORG",
    "categoryName": "PRIMARY CARE CLINIC",
    "categoryCode": "COMTYC",
    "licenseStatus": "ACTIVE",
    "inService": true,
    "licenseNumber": "550003485",
    "licenseEffectiveDate": "05/04/2025",
    "licenseExpirationDate": "05/03/2026",
    "dataDate": "10/18/2025",
    "capacity": 0,
    "address": "13152 NEWPORT AVENUE, SUITE B",
    "city": "TUSTIN",
    "zip": "92780",
    "county": "ORANGE",
    "phone": "(714) 263-8600",
    "lat": 33.747048,
    "lng": -117.8121825
  },
  {
    "id": "630020427",
    "name": "GOLDEN STAR HOSPICE AND PALLIATIVE CARE",
    "npi": null,
    "hcaiId": "406307324",
    "businessName": "GOLDEN STAR HOSPICE AND PALLIATIVE CARE",
    "contactEmail": "GOLDENSTARHOSPICE@GMAIL.COM",
    "categoryName": "HOSPICE",
    "categoryCode": "HOSPICE",
    "licenseStatus": "ACTIVE",
    "inService": true,
    "licenseNumber": "550006607",
    "licenseEffectiveDate": "07/14/2025",
    "licenseExpirationDate": "07/13/2027",
    "dataDate": "10/18/2025",
    "capacity": 0,
    "address": "1442 IRVINE BLVD, SUITE 119",
    "city": "TUSTIN",
    "zip": "92780",
    "county": "ORANGE",
    "phone": "(714) 858-2742",
    "lat": 33.74467298,
    "lng": -117.805315
  },
  {
    "id": "630023811",
    "name": "HURTT FAMILY HEALTH CLINIC-TUSTIN 2",
    "npi": null,
    "hcaiId": null,
    "businessName": "HURTT FAMILY HEALTH CLINIC, INC.",
    "contactEmail": "INFO@HURTTCLINIC.ORG",
    "categoryName": "PRIMARY CARE CLINIC",
    "categoryCode": "FQHC/COMTYC",
    "licenseStatus": "ACTIVE",
    "inService": true,
    "licenseNumber": "550004157",
    "licenseEffectiveDate": "03/06/2025",
    "licenseExpirationDate": "03/05/2026",
    "dataDate": "10/18/2025",
    "capacity": 0,
    "address": "14642 NEWPORT AVE, SUITE 200",
    "city": "TUSTIN",
    "zip": "92780",
    "county": "ORANGE",
    "phone": "(714) 441-8044",
    "lat": 33.730641,
    "lng": -117.829341
  },
  {
    "id": "630021989",
    "name": "IN HOME COMFORT",
    "npi": null,
    "hcaiId": null,
    "businessName": "IN HOME COMFORT",
    "contactEmail": "INHOMECOMFORT3@GMAIL.COM",
    "categoryName": "HOSPICE",
    "categoryCode": "HOSPICE",
    "licenseStatus": "ACTIVE",
    "inService": true,
    "licenseNumber": "550007655",
    "licenseEffectiveDate": "12/22/2023",
    "licenseExpirationDate": "12/21/2025",
    "dataDate": "10/18/2025",
    "capacity": 0,
    "address": "14772 PLAZA DR, SUITE 202",
    "city": "TUSTIN",
    "zip": "92780",
    "county": "ORANGE",
    "phone": "(657) 699-3232",
    "lat": 33.749307,
    "lng": -117.812556
  },
  {
    "id": "060000105",
    "name": "KAISER FOUNDATION HOSPITAL ANAHEIM HOME HEALTH AGENCY",
    "npi": "1588719579",
    "hcaiId": "406300050",
    "businessName": "KAISER FOUNDATION HOSPITALS",
    "contactEmail": "JASON.P.THOMAS@KP.ORG",
    "categoryName": "HOME HEALTH AGENCY",
    "categoryCode": "HHA",
    "licenseStatus": "ACTIVE",
    "inService": true,
    "licenseNumber": "060000015",
    "licenseEffectiveDate": "12/03/2025",
    "licenseExpirationDate": "12/02/2026",
    "dataDate": "10/18/2025",
    "capacity": 0,
    "address": "17542 17TH ST",
    "city": "TUSTIN",
    "zip": "92780",
    "county": "ORANGE",
    "phone": "(619) 249-1003",
    "lat": 33.759162,
    "lng": -117.825921
  },
  {
    "id": "630013678",
    "name": "KAISER FOUNDATION HOSPITAL ANAHEIM HOSPICE",
    "npi": null,
    "hcaiId": null,
    "businessName": "KAISER FOUNDATION HOSPITALS",
    "contactEmail": null,
    "categoryName": "HOSPICE",
    "categoryCode": "HOSPICE",
    "licenseStatus": "ACTIVE",
    "inService": true,
    "licenseNumber": "060000015",
    "licenseEffectiveDate": "12/03/2025",
    "licenseExpirationDate": "12/02/2026",
    "dataDate": "10/18/2025",
    "capacity": 0,
    "address": "17542 17TH ST, SUITE 300",
    "city": "TUSTIN",
    "zip": "92780",
    "county": "ORANGE",
    "phone": "(714) 734-5464",
    "lat": 33.759189,
    "lng": -117.825921
  },
  {
    "id": "630028070",
    "name": "LOS ALTOS SURGERY CENTER, LLC",
    "npi": null,
    "hcaiId": null,
    "businessName": null,
    "contactEmail": "BARB@BAASC.COM",
    "categoryName": "SURGICAL CLINIC",
    "categoryCode": "ASC",
    "licenseStatus": null,
    "inService": null,
    "licenseNumber": null,
    "licenseEffectiveDate": null,
    "licenseExpirationDate": null,
    "dataDate": "10/18/2025",
    "capacity": 0,
    "address": "14642 NEWPORT AVE, SUITE 100",
    "city": "TUSTIN",
    "zip": "92780",
    "county": "ORANGE",
    "phone": "(408) 761-5847",
    "lat": 33.73069578,
    "lng": -117.8288962
  },
  {
    "id": "630013941",
    "name": "OC HOSPICE",
    "npi": null,
    "hcaiId": "406304525",
    "businessName": "ORANGE COUNTY HOSPICE, LLC",
    "contactEmail": "LYN@OCHOSPICE.COM",
    "categoryName": "HOSPICE",
    "categoryCode": "HOSPICE",
    "licenseStatus": "ACTIVE",
    "inService": true,
    "licenseNumber": "550002206",
    "licenseEffectiveDate": "03/11/2025",
    "licenseExpirationDate": "03/10/2027",
    "dataDate": "10/18/2025",
    "capacity": 0,
    "address": "13522 NEWPORT AVE, SUITE 200",
    "city": "TUSTIN",
    "zip": "92780",
    "county": "ORANGE",
    "phone": "(714) 838-1542",
    "lat": 33.743223,
    "lng": -117.8163675
  },
  {
    "id": "630019663",
    "name": "PRISTINE HOSPICE AND PALLIATIVE CARE",
    "npi": "1437701646",
    "hcaiId": "406302834",
    "businessName": "PRISTINE HOSPICE AND PALLIATIVE CARE",
    "contactEmail": "INFO@PRISTINEHOSPICE.NET",
    "categoryName": "HOSPICE",
    "categoryCode": "HOSPICE",
    "licenseStatus": "ACTIVE",
    "inService": true,
    "licenseNumber": "550005643",
    "licenseEffectiveDate": "08/08/2024",
    "licenseExpirationDate": "08/07/2026",
    "dataDate": "10/18/2025",
    "capacity": 0,
    "address": "14081 YORBA ST, SUITE 106",
    "city": "TUSTIN",
    "zip": "92780",
    "county": "ORANGE",
    "phone": "(714) 603-7451",
    "lat": 33.758447,
    "lng": -117.829969
  },
  {
    "id": "080001721",
    "name": "RAI - EAST FIRST STREET - TUSTIN",
    "npi": "1285707984",
    "hcaiId": "306304305",
    "businessName": "FRESENIUS MEDICAL CARE ORANGE COUNTY, LLC",
    "contactEmail": "GITTY.TAMADON@FRESNIUSMEDICALCARE.COM",
    "categoryName": "CHRONIC DIALYSIS CLINIC",
    "categoryCode": "ESRD/CDC",
    "licenseStatus": "ACTIVE",
    "inService": true,
    "licenseNumber": "080000764",
    "licenseEffectiveDate": "11/01/2025",
    "licenseExpirationDate": "10/31/2026",
    "dataDate": "10/18/2025",
    "capacity": 25,
    "address": "535 E 1ST ST",
    "city": "TUSTIN",
    "zip": "92780",
    "county": "ORANGE",
    "phone": "(714) 730-1428",
    "lat": 33.745959,
    "lng": -117.8183835
  },
  {
    "id": "630019365",
    "name": "SISTERS HOSPICE CARE LLC",
    "npi": null,
    "hcaiId": "406303777",
    "businessName": "SISTERS HOSPICE CARE LLC",
    "contactEmail": "SHAHIDMHA@YAHOO.COM",
    "categoryName": "HOSPICE",
    "categoryCode": "HOSPICE",
    "licenseStatus": "ACTIVE",
    "inService": true,
    "licenseNumber": "550006918",
    "licenseEffectiveDate": "07/08/2023",
    "licenseExpirationDate": "07/07/2025",
    "dataDate": "10/18/2025",
    "capacity": 0,
    "address": "1442 IRVINE BLVD, SUITE 140",
    "city": "TUSTIN",
    "zip": "92780",
    "county": "ORANGE",
    "phone": "(949) 322-7811",
    "lat": 33.744888,
    "lng": -117.8052075
  },
  {
    "id": "060001843",
    "name": "TUSTIN ADHC",
    "npi": null,
    "hcaiId": null,
    "businessName": "TUSTIN ADHC, LLC",
    "contactEmail": "LIU.BOYU@HOTMAIL.COM",
    "categoryName": "ADULT DAY HEALTH CARE",
    "categoryCode": "ADHC",
    "licenseStatus": "ACTIVE",
    "inService": true,
    "licenseNumber": "060000660",
    "licenseEffectiveDate": "09/16/2025",
    "licenseExpirationDate": "04/04/2026",
    "dataDate": "10/18/2025",
    "capacity": 0,
    "address": "14511 FRANKLIN AVE, SUITE 100",
    "city": "TUSTIN",
    "zip": "92780",
    "county": "ORANGE",
    "phone": "(949) 419-6243",
    "lat": 33.71717321,
    "lng": -117.8079194
  },
  {
    "id": "630016209",
    "name": "TUSTIN RANCH DIALYSIS",
    "npi": null,
    "hcaiId": "306304607",
    "businessName": "PRAIRIE DIALYSIS LLC",
    "contactEmail": "CAL_C@DAVITA.COM",
    "categoryName": "CHRONIC DIALYSIS CLINIC",
    "categoryCode": "ESRD/CDC",
    "licenseStatus": "ACTIVE",
    "inService": true,
    "licenseNumber": "550003434",
    "licenseEffectiveDate": "03/16/2025",
    "licenseExpirationDate": "03/15/2026",
    "dataDate": "10/18/2025",
    "capacity": 25,
    "address": "721 W 1ST STREET",
    "city": "TUSTIN",
    "zip": "92780",
    "county": "ORANGE",
    "phone": "(714) 544-0079",
    "lat": 33.745986,
    "lng": -117.831789
  },
  {
    "id": "630015675",
    "name": "VALLEY OAKS HOSPICE, INC.",
    "npi": "1063817096",
    "hcaiId": "406301509",
    "businessName": "VALLEY OAKS HOSPICE, INC",
    "contactEmail": "ASAFARIAN@VALLEYOAKSHOSPICE.COM",
    "categoryName": "HOSPICE",
    "categoryCode": "HOSPICE",
    "licenseStatus": "ACTIVE",
    "inService": true,
    "licenseNumber": "550003356",
    "licenseEffectiveDate": "12/30/2023",
    "licenseExpirationDate": "12/29/2025",
    "dataDate": "10/18/2025",
    "capacity": 0,
    "address": "560 W 1ST ST, SUITE 3",
    "city": "TUSTIN",
    "zip": "92780",
    "county": "ORANGE",
    "phone": "(626) 593-5166",
    "lat": 33.74535401,
    "lng": -117.829525
  },
  {
    "id": "630018919",
    "name": "WHITE DOVE HOSPICE, INC.",
    "npi": "1881250702",
    "hcaiId": "406300025",
    "businessName": "WHITE DOVE HOSPICE, INC.",
    "contactEmail": "WHITEDOVEHOSPICE@GMAIL.COM",
    "categoryName": "HOSPICE",
    "categoryCode": "HOSPICE",
    "licenseStatus": "ACTIVE",
    "inService": true,
    "licenseNumber": "550004980",
    "licenseEffectiveDate": "10/21/2023",
    "licenseExpirationDate": "10/20/2025",
    "dataDate": "10/18/2025",
    "capacity": 0,
    "address": "14351 RED HILL AVE, SUITE A",
    "city": "TUSTIN",
    "zip": "92780",
    "county": "ORANGE",
    "phone": "(805) 500-0012",
    "lat": 33.729672,
    "lng": -117.8222556
  }
]