[
  {
    "id": "060001966",
    "name": "AGMG ENDOSCOPY CENTER",
    "npi": "1104822808",
    "hcaiId": null,
    "businessName": null,
    "contactEmail": null,
    "categoryName": "SURGICAL CLINIC",
    "categoryCode": "ASC",
    "licenseStatus": null,
    "inService": null,
    "licenseNumber": null,
    "licenseEffectiveDate": null,
    "licenseExpirationDate": null,
    "dataDate": "10/18/2025",
    "capacity": 0,
    "address": "1211 W LA PALMA AVE, SUITE 301",
    "city": "ANAHEIM",
    "zip": "92801",
    "county": "ORANGE",
    "phone": "(714) 284-0737",
    "lat": 33.847299,
    "lng": -117.93456
  },
  {
    "id": "060000002",
    "name": "AHMC ANAHEIM REGIONAL MEDICAL CENTER",
    "npi": "1891938122",
    "hcaiId": "106301098",
    "businessName": "AHMC ANAHEIM REGIONAL MEDICAL CENTER, LP",
    "contactEmail": "RICHARD.GIRON@AHMCHEALTH.COM",
    "categoryName": "GENERAL ACUTE CARE HOSPITAL",
    "categoryCode": "GACH",
    "licenseStatus": "ACTIVE",
    "inService": true,
    "licenseNumber": "060000080",
    "licenseEffectiveDate": "11/01/2025",
    "licenseExpirationDate": "10/31/2026",
    "dataDate": "10/18/2025",
    "capacity": 223,
    "address": "1111 W LA PALMA AVE",
    "city": "ANAHEIM",
    "zip": "92801",
    "county": "ORANGE",
    "phone": "(714) 999-3895",
    "lat": 33.847587,
    "lng": -117.9338445
  },
  {
    "id": "630019219",
    "name": "AL-SHIFA HOME HEALTH CARE AGENCY",
    "npi": "1457916819",
    "hcaiId": "406302727",
    "businessName": "AL-SHIFA HOME HEALTH CARE AGENCY",
    "contactEmail": "SENTIENTSMS@GMAIL.COM",
    "categoryName": "HOME HEALTH AGENCY",
    "categoryCode": "HHA",
    "licenseStatus": "ACTIVE",
    "inService": true,
    "licenseNumber": "550005528",
    "licenseEffectiveDate": "06/10/2025",
    "licenseExpirationDate": "06/09/2026",
    "dataDate": "10/18/2025",
    "capacity": 0,
    "address": "501 N BROOKHURST ST, SUITE 300-A",
    "city": "ANAHEIM",
    "zip": "92801",
    "county": "ORANGE",
    "phone": "(714) 687-1912",
    "lat": 33.838416,
    "lng": -117.959256
  },
  {
    "id": "630027368",
    "name": "ALTAMED DENTAL GROUP AT CENTRALIA ELEMENTARY SCHOOL",
    "npi": null,
    "hcaiId": null,
    "businessName": "ALTAMED HEALTH SERVICES CORPORATION",
    "contactEmail": null,
    "categoryName": "PRIMARY CARE CLINIC",
    "categoryCode": "COMTYC",
    "licenseStatus": "ACTIVE",
    "inService": true,
    "licenseNumber": "550005158",
    "licenseEffectiveDate": "12/20/2024",
    "licenseExpirationDate": "12/19/2025",
    "dataDate": "10/18/2025",
    "capacity": 0,
    "address": "195 N WESTERN AVE",
    "city": "ANAHEIM",
    "zip": "92801",
    "county": "ORANGE",
    "phone": null,
    "lat": 33.833394,
    "lng": -118.004909
  },
  {
    "id": "630027247",
    "name": "ALTAMED DENTAL GROUP- MOBILE UNIT #1",
    "npi": null,
    "hcaiId": null,
    "businessName": "ALTAMED HEALTH SERVICES CORPORATION",
    "contactEmail": null,
    "categoryName": "PRIMARY CARE CLINIC",
    "categoryCode": "COMTYC",
    "licenseStatus": "ACTIVE",
    "inService": true,
    "licenseNumber": "550005158",
    "licenseEffectiveDate": "12/20/2024",
    "licenseExpirationDate": "12/19/2025",
    "dataDate": "10/18/2025",
    "capacity": 0,
    "address": "1325 N ANAHEIM BLVD, SUITE 200",
    "city": "ANAHEIM",
    "zip": "92801",
    "county": "ORANGE",
    "phone": null,
    "lat": 33.853298,
    "lng": -117.920802
  },
  {
    "id": "630027248",
    "name": "ALTAMED DENTAL GROUP- MOBILE UNIT #2",
    "npi": null,
    "hcaiId": null,
    "businessName": "ALTAMED HEALTH SERVICES CORPORATION",
    "contactEmail": null,
    "categoryName": "PRIMARY CARE CLINIC",
    "categoryCode": "COMTYC",
    "licenseStatus": "ACTIVE",
    "inService": true,
    "licenseNumber": "550005158",
    "licenseEffectiveDate": "12/20/2024",
    "licenseExpirationDate": "12/19/2025",
    "dataDate": "10/18/2025",
    "capacity": 0,
    "address": "1325 N ANAHEIM BLVD, SUITE 200",
    "city": "ANAHEIM",
    "zip": "92801",
    "county": "ORANGE",
    "phone": null,
    "lat": 33.853298,
    "lng": -117.920802
  },
  {
    "id": "630019284",
    "name": "ALTAMED MEDICAL AND DENTAL GROUP - ANAHEIM",
    "npi": null,
    "hcaiId": "306300541",
    "businessName": "ALTAMED HEALTH SERVICES CORPORATION",
    "contactEmail": "SMCLEAN@ALTAMED.ORG",
    "categoryName": "PRIMARY CARE CLINIC",
    "categoryCode": "COMTYC",
    "licenseStatus": "ACTIVE",
    "inService": true,
    "licenseNumber": "550005158",
    "licenseEffectiveDate": "12/20/2024",
    "licenseExpirationDate": "12/19/2025",
    "dataDate": "10/18/2025",
    "capacity": 0,
    "address": "1325 N ANAHEIM BLVD, SUITE 200",
    "city": "ANAHEIM",
    "zip": "92801",
    "county": "ORANGE",
    "phone": "(714) 383-3909",
    "lat": 33.85292436,
    "lng": -117.9199755
  },
  {
    "id": "630019285",
    "name": "ALTAMED URGENT CARE - ANAHEIM",
    "npi": null,
    "hcaiId": "306300556",
    "businessName": "ALTAMED HEALTH SERVICES CORPORATION",
    "contactEmail": "SMCLEAN@ALTAMED.ORG",
    "categoryName": "PRIMARY CARE CLINIC",
    "categoryCode": "COMTYC",
    "licenseStatus": "ACTIVE",
    "inService": true,
    "licenseNumber": "550005157",
    "licenseEffectiveDate": "12/20/2024",
    "licenseExpirationDate": "12/19/2025",
    "dataDate": "10/18/2025",
    "capacity": 0,
    "address": "1325 N ANAHEIM BLVD, SUITE 101",
    "city": "ANAHEIM",
    "zip": "92801",
    "county": "ORANGE",
    "phone": "(714) 383-3909",
    "lat": 33.85292436,
    "lng": -117.9199755
  },
  {
    "id": "630024978",
    "name": "ALVIAN HOME HEALTH CARE",
    "npi": null,
    "hcaiId": "406307785",
    "businessName": "ALVIAN HOME HEALTH CARE",
    "contactEmail": "ALVIANHOMEHEALTHCARE@YAHOO.COM",
    "categoryName": "HOME HEALTH AGENCY",
    "categoryCode": "HHA",
    "licenseStatus": "ACTIVE",
    "inService": true,
    "licenseNumber": "550008372",
    "licenseEffectiveDate": "02/02/2025",
    "licenseExpirationDate": "02/01/2026",
    "dataDate": "10/18/2025",
    "capacity": 0,
    "address": "421 N BROOKHURST ST, SUITE 228C",
    "city": "ANAHEIM",
    "zip": "92801",
    "county": "ORANGE",
    "phone": "(714) 765-2978",
    "lat": 33.837543,
    "lng": -117.959247
  },
  {
    "id": "080001596",
    "name": "ANAHEIM DIALYSIS",
    "npi": "1073587697",
    "hcaiId": "306304614",
    "businessName": "DVA RENAL HEALTHCARE, INC.",
    "contactEmail": "CAL_C@DAVITA.COM",
    "categoryName": "CHRONIC DIALYSIS CLINIC",
    "categoryCode": "ESRD/CDC",
    "licenseStatus": "ACTIVE",
    "inService": true,
    "licenseNumber": "080000688",
    "licenseEffectiveDate": "06/11/2025",
    "licenseExpirationDate": "06/10/2026",
    "dataDate": "10/18/2025",
    "capacity": 37,
    "address": "1341 W. LA PALMA AVE.",
    "city": "ANAHEIM",
    "zip": "92801",
    "county": "ORANGE",
    "phone": "(714) 254-1484",
    "lat": 33.847605,
    "lng": -117.936972
  },
  {
    "id": "630014185",
    "name": "ANAHEIM HOSPICE, INC.",
    "npi": null,
    "hcaiId": "406304623",
    "businessName": "ANAHEIM HOSPICE, INC.",
    "contactEmail": "ANAHEIMHOSPICE@GMAIL.COM",
    "categoryName": "HOSPICE",
    "categoryCode": "HOSPICE",
    "licenseStatus": "ACTIVE",
    "inService": true,
    "licenseNumber": "550002510",
    "licenseEffectiveDate": "12/05/2023",
    "licenseExpirationDate": "12/04/2025",
    "dataDate": "10/18/2025",
    "capacity": 0,
    "address": "2301 W LINCOLN AVE, SUITE 124C",
    "city": "ANAHEIM",
    "zip": "92801",
    "county": "ORANGE",
    "phone": "(714) 952-0090",
    "lat": 33.832926,
    "lng": -117.96374
  },
  {
    "id": "060000835",
    "name": "ANAHEIM V.I.P. ADULT DAY HEALTH CARE CENTER",
    "npi": null,
    "hcaiId": null,
    "businessName": "COMMUNITY SENIORSERV, INC.",
    "contactEmail": "GCORZO@MEALSONWHEELSOC.ORG",
    "categoryName": "ADULT DAY HEALTH CARE",
    "categoryCode": "ADHC",
    "licenseStatus": "ACTIVE",
    "inService": true,
    "licenseNumber": "060000244",
    "licenseEffectiveDate": "11/22/2024",
    "licenseExpirationDate": "11/21/2025",
    "dataDate": "10/18/2025",
    "capacity": 0,
    "address": "1156 N KNOLLWOOD CIR, SUITE 1158",
    "city": "ANAHEIM",
    "zip": "92801",
    "county": "ORANGE",
    "phone": "(714) 220-2114",
    "lat": 33.848685,
    "lng": -117.978408
  },
  {
    "id": "630012857",
    "name": "ANAHEIM WEST DIALYSIS",
    "npi": "1033449459",
    "hcaiId": "306304436",
    "businessName": "HART DIALYSIS, LLC",
    "contactEmail": "CAL_C@DAVITA.COM",
    "categoryName": "CHRONIC DIALYSIS CLINIC",
    "categoryCode": "ESRD/CDC",
    "licenseStatus": "ACTIVE",
    "inService": true,
    "licenseNumber": "550001458",
    "licenseEffectiveDate": "11/19/2024",
    "licenseExpirationDate": "11/18/2025",
    "dataDate": "10/18/2025",
    "capacity": 20,
    "address": "1821 W. LINCOLN AVE.",
    "city": "ANAHEIM",
    "zip": "92801",
    "county": "ORANGE",
    "phone": "(714) 765-6510",
    "lat": 33.833016,
    "lng": -117.94644
  },
  {
    "id": "630020818",
    "name": "BLUE WAVE HOSPICE, INC.",
    "npi": null,
    "hcaiId": null,
    "businessName": "BLUE WAVE HOSPICE, INC.",
    "contactEmail": "BLUEWAVEHOSPICE@GMAIL.COM",
    "categoryName": "HOSPICE",
    "categoryCode": "HOSPICE",
    "licenseStatus": "ACTIVE",
    "inService": true,
    "licenseNumber": "550006432",
    "licenseEffectiveDate": "06/14/2021",
    "licenseExpirationDate": "06/13/2023",
    "dataDate": "10/18/2025",
    "capacity": 0,
    "address": "2323 W LINCOLN AVE, SUITE 207A",
    "city": "ANAHEIM",
    "zip": "92801",
    "county": "ORANGE",
    "phone": "(714) 333-4889",
    "lat": 33.832926,
    "lng": -117.964278
  },
  {
    "id": "630021410",
    "name": "CAREBEST HOSPICE",
    "npi": null,
    "hcaiId": "406306567",
    "businessName": "CAREBEST HOSPICE",
    "contactEmail": "HOSPICECAREBEST@YAHOO.COM",
    "categoryName": "HOSPICE",
    "categoryCode": "HOSPICE",
    "licenseStatus": "ACTIVE",
    "inService": true,
    "licenseNumber": "550006623",
    "licenseEffectiveDate": "07/30/2023",
    "licenseExpirationDate": "07/29/2025",
    "dataDate": "10/18/2025",
    "capacity": 0,
    "address": "780 N EUCLID ST, SUITE 204L",
    "city": "ANAHEIM",
    "zip": "92801",
    "county": "ORANGE",
    "phone": "(714) 333-2209",
    "lat": 33.842852,
    "lng": -117.941574
  },
  {
    "id": "630026536",
    "name": "CENTRAL CITY COMMUNITY HEALTH CENTER, INC. (LINCOLN 1)",
    "npi": null,
    "hcaiId": null,
    "businessName": null,
    "contactEmail": null,
    "categoryName": "PRIMARY CARE CLINIC",
    "categoryCode": "COMTYC",
    "licenseStatus": null,
    "inService": null,
    "licenseNumber": null,
    "licenseEffectiveDate": null,
    "licenseExpirationDate": null,
    "dataDate": "10/18/2025",
    "capacity": 0,
    "address": "1820 W LINCOLN AVE",
    "city": "ANAHEIM",
    "zip": "92801",
    "county": "ORANGE",
    "phone": null,
    "lat": 33.832323,
    "lng": -117.9467055
  },
  {
    "id": "630026537",
    "name": "CENTRAL CITY COMMUNITY HEALTH CENTER, INC. (LINCOLN 2)",
    "npi": "1285788059",
    "hcaiId": null,
    "businessName": "CENTRAL CITY COMMUNITY HEALTH CENTER, INC.",
    "contactEmail": null,
    "categoryName": "PRIMARY CARE CLINIC",
    "categoryCode": "COMTYC",
    "licenseStatus": "ACTIVE",
    "inService": true,
    "licenseNumber": "550000184",
    "licenseEffectiveDate": "05/25/2025",
    "licenseExpirationDate": "05/24/2026",
    "dataDate": "10/18/2025",
    "capacity": 0,
    "address": "1814 W LINCOLN AVE",
    "city": "ANAHEIM",
    "zip": "92801",
    "county": "ORANGE",
    "phone": null,
    "lat": 33.832161,
    "lng": -117.946305
  },
  {
    "id": "630027043",
    "name": "CENTRAL CITY COMMUNITY HEALTH CENTER, INC. - LINCOLN 1",
    "npi": null,
    "hcaiId": "306300021",
    "businessName": "CENTRAL CITY COMMUNITY HEALTH CENTER, INC.",
    "contactEmail": "KAREN.RODRIGUEZ@CENTRALCITYHEALTH.ORG",
    "categoryName": "PRIMARY CARE CLINIC",
    "categoryCode": "COMTYC",
    "licenseStatus": "ACTIVE",
    "inService": true,
    "licenseNumber": "550008950",
    "licenseEffectiveDate": "02/05/2025",
    "licenseExpirationDate": "02/04/2026",
    "dataDate": "10/18/2025",
    "capacity": 0,
    "address": "1820 W LINCOLN AVE",
    "city": "ANAHEIM",
    "zip": "92801",
    "county": "ORANGE",
    "phone": "(714) 805-7719",
    "lat": 33.832323,
    "lng": -117.9467055
  },
  {
    "id": "630026541",
    "name": "CENTRAL CITY COMMUNITY HEALTH CENTER-MOBILE #2",
    "npi": "1285788059",
    "hcaiId": null,
    "businessName": "CENTRAL CITY COMMUNITY HEALTH CENTER, INC.",
    "contactEmail": null,
    "categoryName": "PRIMARY CARE CLINIC",
    "categoryCode": "COMTYC",
    "licenseStatus": "ACTIVE",
    "inService": true,
    "licenseNumber": "550000184",
    "licenseEffectiveDate": "05/25/2025",
    "licenseExpirationDate": "05/24/2026",
    "dataDate": "10/18/2025",
    "capacity": 0,
    "address": "1820 W LINCOLN AVE",
    "city": "ANAHEIM",
    "zip": "92801",
    "county": "ORANGE",
    "phone": null,
    "lat": 33.832323,
    "lng": -117.9467055
  },
  {
    "id": "630011968",
    "name": "COVENANT HOSPICE",
    "npi": "1346413473",
    "hcaiId": "406304462",
    "businessName": "COVENANT HOSPICE",
    "contactEmail": "COVENANTHOSPICE240@GMAIL.COM",
    "categoryName": "HOSPICE",
    "categoryCode": "HOSPICE",
    "licenseStatus": "ACTIVE",
    "inService": true,
    "licenseNumber": "550001455",
    "licenseEffectiveDate": "02/04/2025",
    "licenseExpirationDate": "11/17/2026",
    "dataDate": "10/18/2025",
    "capacity": 0,
    "address": "1661 N RAYMOND AVE, SUITE 260",
    "city": "ANAHEIM",
    "zip": "92801",
    "county": "ORANGE",
    "phone": "(714) 670-7334",
    "lat": 33.85823054,
    "lng": -117.9075289
  },
  {
    "id": "630012563",
    "name": "CRESCENT HOME",
    "npi": "1881926806",
    "hcaiId": null,
    "businessName": "C & R GUEST HOMES, INC.",
    "contactEmail": "MALUZ.ESPEJO@GMAIL.COM",
    "categoryName": "INTERMEDIATE CARE FACILITY-DD/H/N/CN/IID",
    "categoryCode": "ICFDDN",
    "licenseStatus": "ACTIVE",
    "inService": true,
    "licenseNumber": "550001319",
    "licenseEffectiveDate": "06/29/2025",
    "licenseExpirationDate": "06/28/2026",
    "dataDate": "10/18/2025",
    "capacity": 6,
    "address": "2423 W CRESCENT AVE",
    "city": "ANAHEIM",
    "zip": "92801",
    "county": "ORANGE",
    "phone": "(562) 674-8331",
    "lat": 33.839919,
    "lng": -117.968967
  },
  {
    "id": "630020123",
    "name": "CROWN CARE HOSPICE, INC.",
    "npi": "1811517261",
    "hcaiId": "406306121",
    "businessName": "CROWN CARE HOSPICE INC",
    "contactEmail": "CROWNCAREHOSPICE@GMAIL.COM",
    "categoryName": "HOSPICE",
    "categoryCode": "HOSPICE",
    "licenseStatus": "ACTIVE",
    "inService": true,
    "licenseNumber": "550006004",
    "licenseEffectiveDate": "01/18/2025",
    "licenseExpirationDate": "01/17/2027",
    "dataDate": "10/18/2025",
    "capacity": 0,
    "address": "2301 W LINCOLN AVE, SUITE 249B",
    "city": "ANAHEIM",
    "zip": "92801",
    "county": "ORANGE",
    "phone": "(714) 325-5037",
    "lat": 33.832935,
    "lng": -117.9637065
  },
  {
    "id": "630026331",
    "name": "FAIR CARE HOME HEALTH LLC",
    "npi": null,
    "hcaiId": null,
    "businessName": "FAIR CARE HOME HEALTH LLC",
    "contactEmail": "FAIRHOMEHEALTHCARE@GMAIL.COM",
    "categoryName": "HOME HEALTH AGENCY",
    "categoryCode": "HHA",
    "licenseStatus": "ACTIVE",
    "inService": true,
    "licenseNumber": "550009261",
    "licenseEffectiveDate": "07/17/2025",
    "licenseExpirationDate": "07/16/2026",
    "dataDate": "10/18/2025",
    "capacity": 0,
    "address": "2301 W LINCOLN AVE, SUITE 124D",
    "city": "ANAHEIM",
    "zip": "92801",
    "county": "ORANGE",
    "phone": "(714) 202-2646",
    "lat": 33.832935,
    "lng": -117.9637065
  },
  {
    "id": "630011970",
    "name": "FAMILY HEALTH MATTERS COMMUNITY HEALTH CENTER",
    "npi": null,
    "hcaiId": "306300668",
    "businessName": "NORTH ORANGE COUNTY REGIONAL HEALTH FOUNDATION",
    "contactEmail": "JANET.TIXTHA@NOCRHF.ORG",
    "categoryName": "PRIMARY CARE CLINIC",
    "categoryCode": "COMTYC",
    "licenseStatus": "ACTIVE",
    "inService": true,
    "licenseNumber": "550000830",
    "licenseEffectiveDate": "12/10/2024",
    "licenseExpirationDate": "12/09/2025",
    "dataDate": "10/18/2025",
    "capacity": 0,
    "address": "1182 N EUCLID ST",
    "city": "ANAHEIM",
    "zip": "92801",
    "county": "ORANGE",
    "phone": "(714) 441-0411",
    "lat": 33.8498685,
    "lng": -117.9415811
  },
  {
    "id": "630020392",
    "name": "FAMILY HEALTH MATTERS MOBILE MEDICAL CLINIC",
    "npi": null,
    "hcaiId": null,
    "businessName": "NORTH ORANGE COUNTY REGIONAL HEALTH FOUNDATION",
    "contactEmail": null,
    "categoryName": "PRIMARY CARE CLINIC",
    "categoryCode": "COMTYC",
    "licenseStatus": "ACTIVE",
    "inService": true,
    "licenseNumber": "550000830",
    "licenseEffectiveDate": "12/10/2024",
    "licenseExpirationDate": "12/09/2025",
    "dataDate": "10/18/2025",
    "capacity": 0,
    "address": "1182 N EUCLID ST",
    "city": "ANAHEIM",
    "zip": "92801",
    "county": "ORANGE",
    "phone": "(714) 441-0411",
    "lat": 33.8498685,
    "lng": -117.9415811
  },
  {
    "id": "630015121",
    "name": "FELLOWSHIP HOSPICE SERVICES INC.",
    "npi": "1861818718",
    "hcaiId": "406198371",
    "businessName": "FELLOWSHIP HOSPICE SERVICES INC.",
    "contactEmail": "FELLOWSHIPHOSPICESERVICES@GMAIL.COM",
    "categoryName": "HOSPICE",
    "categoryCode": "HOSPICE",
    "licenseStatus": "ACTIVE",
    "inService": true,
    "licenseNumber": "550003124",
    "licenseEffectiveDate": "06/12/2025",
    "licenseExpirationDate": "06/11/2027",
    "dataDate": "10/18/2025",
    "capacity": 0,
    "address": "520 N BROOKHURST ST, SUITE 214",
    "city": "ANAHEIM",
    "zip": "92801",
    "county": "ORANGE",
    "phone": "(562) 462-0044",
    "lat": 33.838956,
    "lng": -117.958707
  },
  {
    "id": "080001603",
    "name": "FMC DIALYSIS SERVICES NORTH ORANGE COUNTY",
    "npi": "1447362249",
    "hcaiId": "306304267",
    "businessName": "BIO-MEDICAL APPLICATIONS OF CALIFORNIA, INC.",
    "contactEmail": "HERZHEL.ORZAL@FRESENIUSMEDICALCARE.COM",
    "categoryName": "CHRONIC DIALYSIS CLINIC",
    "categoryCode": "ESRD/CDC",
    "licenseStatus": "ACTIVE",
    "inService": true,
    "licenseNumber": "080000695",
    "licenseEffectiveDate": "06/27/2025",
    "licenseExpirationDate": "06/26/2026",
    "dataDate": "10/18/2025",
    "capacity": 18,
    "address": "511 N BROOKHURST ST, SUITE 100",
    "city": "ANAHEIM",
    "zip": "92801",
    "county": "ORANGE",
    "phone": "(714) 778-0488",
    "lat": 33.839226,
    "lng": -117.959706
  },
  {
    "id": "630018864",
    "name": "FORTITUDE HOME HEALTH, INC.",
    "npi": null,
    "hcaiId": "406302482",
    "businessName": "FORTITUDE HOME HEALTH, INC.",
    "contactEmail": "FORTITUDEHOMEHEALTH@GMAIL.COM",
    "categoryName": "HOME HEALTH AGENCY",
    "categoryCode": "HHA",
    "licenseStatus": "ACTIVE",
    "inService": true,
    "licenseNumber": "550005403",
    "licenseEffectiveDate": "03/16/2025",
    "licenseExpirationDate": "03/15/2026",
    "dataDate": "10/18/2025",
    "capacity": 0,
    "address": "520 N BROOKHURST ST, SUITE 230",
    "city": "ANAHEIM",
    "zip": "92801",
    "county": "ORANGE",
    "phone": "(562) 352-6244",
    "lat": 33.838956,
    "lng": -117.958707
  },
  {
    "id": "630015762",
    "name": "FRESENIUS MEDICAL CARE ANAHEIM DIALYSIS",
    "npi": null,
    "hcaiId": "306304572",
    "businessName": "FRESENIUS MEDICAL CARE ANAHEIM, LLC",
    "contactEmail": "CLINIC8665@FMC-NA.COM",
    "categoryName": "CHRONIC DIALYSIS CLINIC",
    "categoryCode": "ESRD/CDC",
    "licenseStatus": "ACTIVE",
    "inService": true,
    "licenseNumber": "550003125",
    "licenseEffectiveDate": "06/09/2025",
    "licenseExpirationDate": "06/08/2026",
    "dataDate": "10/18/2025",
    "capacity": 29,
    "address": "3150 W. LINCOLN AVE., SUITE 100",
    "city": "ANAHEIM",
    "zip": "92801",
    "county": "ORANGE",
    "phone": "(714) 816-3529",
    "lat": 33.831783,
    "lng": -118.000881
  },
  {
    "id": "630011273",
    "name": "GLENOAKS HOME",
    "npi": "1285722876",
    "hcaiId": null,
    "businessName": "HARRIS CARE CENTERS, INC.",
    "contactEmail": "ROSE.MARIEGARCIA@YAHOO.COM",
    "categoryName": "INTERMEDIATE CARE FACILITY-DD/H/N/CN/IID",
    "categoryCode": "ICFDDH",
    "licenseStatus": "ACTIVE",
    "inService": true,
    "licenseNumber": "550000644",
    "licenseEffectiveDate": "12/26/2024",
    "licenseExpirationDate": "12/25/2025",
    "dataDate": "10/18/2025",
    "capacity": 6,
    "address": "2420 W GLENOAKS AVE",
    "city": "ANAHEIM",
    "zip": "92801",
    "county": "ORANGE",
    "phone": "(714) 948-3352",
    "lat": 33.843006,
    "lng": -117.9688365
  },
  {
    "id": "630025908",
    "name": "GREENLEAF HOME CARE",
    "npi": null,
    "hcaiId": null,
    "businessName": null,
    "contactEmail": "MSJANEBANSIL@YAHOO.COM",
    "categoryName": "INTERMEDIATE CARE FACILITY-DD/H/N/CN/IID",
    "categoryCode": "ICFDDN",
    "licenseStatus": "ACTIVE",
    "inService": true,
    "licenseNumber": "550009398",
    "licenseEffectiveDate": "09/10/2025",
    "licenseExpirationDate": "09/09/2026",
    "dataDate": "10/18/2025",
    "capacity": 6,
    "address": "800 N AURORA ST",
    "city": "ANAHEIM",
    "zip": "92801",
    "county": "ORANGE",
    "phone": "(714) 761-9126",
    "lat": 33.841638,
    "lng": -117.978876
  },
  {
    "id": "630024001",
    "name": "HIGH QUALITY HOME HEALTH OC INC",
    "npi": null,
    "hcaiId": "406305948",
    "businessName": "HIGH QUALITY HOME HEALTH OC INC",
    "contactEmail": "HIGHQUALITYHHOC@YAHOO.COM",
    "categoryName": "HOME HEALTH AGENCY",
    "categoryCode": "HHA",
    "licenseStatus": "ACTIVE",
    "inService": true,
    "licenseNumber": "550008191",
    "licenseEffectiveDate": "10/12/2024",
    "licenseExpirationDate": "10/11/2025",
    "dataDate": "10/18/2025",
    "capacity": 0,
    "address": "1100 E ORANGETHORPE AVE, SUITE 200-Q",
    "city": "ANAHEIM",
    "zip": "92801",
    "county": "ORANGE",
    "phone": "(657) 443-6500",
    "lat": 33.859134,
    "lng": -117.907551
  },
  {
    "id": "630018304",
    "name": "KARA HEALTH",
    "npi": "1982177697",
    "hcaiId": "406191865",
    "businessName": "ORANGE COUNTY HOSPICE SERVICES, INC.",
    "contactEmail": "DWALIA@KARA.HEALTH",
    "categoryName": "HOSPICE",
    "categoryCode": "HOSPICE",
    "licenseStatus": "ACTIVE",
    "inService": true,
    "licenseNumber": "550004829",
    "licenseEffectiveDate": "08/01/2025",
    "licenseExpirationDate": "07/31/2027",
    "dataDate": "10/18/2025",
    "capacity": 0,
    "address": "1100 E ORANGETHORPE AVE, SUITE 200Z2",
    "city": "ANAHEIM",
    "zip": "92801",
    "county": "ORANGE",
    "phone": "(310) 422-5484",
    "lat": 33.858963,
    "lng": -117.9075195
  },
  {
    "id": "060000050",
    "name": "LA PALMA NURSING CENTER",
    "npi": "1881681559",
    "hcaiId": "206301201",
    "businessName": "1130 W. LA PALMA AVE, INC.",
    "contactEmail": "SARAHL@LAPALMANC.NET",
    "categoryName": "SKILLED NURSING FACILITY",
    "categoryCode": "SNF",
    "licenseStatus": "ACTIVE",
    "inService": true,
    "licenseNumber": "060000227",
    "licenseEffectiveDate": "11/02/2025",
    "licenseExpirationDate": "11/01/2026",
    "dataDate": "10/18/2025",
    "capacity": 72,
    "address": "1130 W LA PALMA AVE",
    "city": "ANAHEIM",
    "zip": "92801",
    "county": "ORANGE",
    "phone": "(714) 772-7480",
    "lat": 33.845985,
    "lng": -117.9327195
  },
  {
    "id": "060000048",
    "name": "LEISURE COURT NURSING CENTER",
    "npi": "1033106703",
    "hcaiId": "206301192",
    "businessName": "1135 N. LEISURE CT., INC.",
    "contactEmail": "ADMINISTRATOR@LEISURECOURTNC.COM",
    "categoryName": "SKILLED NURSING FACILITY",
    "categoryCode": "SNF",
    "licenseStatus": "ACTIVE",
    "inService": true,
    "licenseNumber": "060000119",
    "licenseEffectiveDate": "06/01/2025",
    "licenseExpirationDate": "05/31/2026",
    "dataDate": "10/18/2025",
    "capacity": 115,
    "address": "1135 N LEISURE CT",
    "city": "ANAHEIM",
    "zip": "92801",
    "county": "ORANGE",
    "phone": "(714) 772-1353",
    "lat": 33.84828,
    "lng": -117.9311805
  },
  {
    "id": "630027468",
    "name": "LIFETOUCH HOME HEALTH",
    "npi": null,
    "hcaiId": null,
    "businessName": "LIFETOUCH HOME HEALTH",
    "contactEmail": "LIFETOUCHHOMEHEALTH@YAHOO.COM",
    "categoryName": "HOME HEALTH AGENCY",
    "categoryCode": "HHA",
    "licenseStatus": "ACTIVE",
    "inService": true,
    "licenseNumber": "550009681",
    "licenseEffectiveDate": "08/28/2025",
    "licenseExpirationDate": "02/27/2026",
    "dataDate": "10/18/2025",
    "capacity": 0,
    "address": "780 N EUCLID ST, SUITE 204I",
    "city": "ANAHEIM",
    "zip": "92801",
    "county": "ORANGE",
    "phone": "(714) 837-0003",
    "lat": 33.842669,
    "lng": -117.939715
  },
  {
    "id": "630027261",
    "name": "LOS ALTOS SURGERY CENTER",
    "npi": null,
    "hcaiId": null,
    "businessName": null,
    "contactEmail": "BARB@BAASC.COM",
    "categoryName": "SURGICAL CLINIC",
    "categoryCode": "ASC",
    "licenseStatus": null,
    "inService": null,
    "licenseNumber": null,
    "licenseEffectiveDate": null,
    "licenseExpirationDate": null,
    "dataDate": "10/18/2025",
    "capacity": 0,
    "address": "1154 N EUCLID ST",
    "city": "ANAHEIM",
    "zip": "92801",
    "county": "ORANGE",
    "phone": "(657) 505-1515",
    "lat": 33.84900199,
    "lng": -117.941198
  },
  {
    "id": "060000963",
    "name": "MAGNOLIA RESIDENTIAL HOME",
    "npi": "1316021942",
    "hcaiId": null,
    "businessName": "PILAR M. DE CASTRO & CO., INC.",
    "contactEmail": "EDUVENTUREINC@YAHOO.COM",
    "categoryName": "INTERMEDIATE CARE FACILITY-DD/H/N/CN/IID",
    "categoryCode": "ICFDDH",
    "licenseStatus": "ACTIVE",
    "inService": true,
    "licenseNumber": "060000271",
    "licenseEffectiveDate": "06/08/2025",
    "licenseExpirationDate": "06/07/2026",
    "dataDate": "10/18/2025",
    "capacity": 6,
    "address": "804 N MAGNOLIA AVE",
    "city": "ANAHEIM",
    "zip": "92801",
    "county": "ORANGE",
    "phone": "(714) 906-6064",
    "lat": 33.841728,
    "lng": -117.9757395
  },
  {
    "id": "060000083",
    "name": "MALBORO HOME",
    "npi": "1285722876",
    "hcaiId": null,
    "businessName": "HARRIS CARE CENTERS, INC.",
    "contactEmail": "ASR.ANCONAHOME@GMAIL.COM",
    "categoryName": "INTERMEDIATE CARE FACILITY-DD/H/N/CN/IID",
    "categoryCode": "ICFDDH",
    "licenseStatus": "ACTIVE",
    "inService": true,
    "licenseNumber": "060000046",
    "licenseEffectiveDate": "11/18/2025",
    "licenseExpirationDate": "11/17/2026",
    "dataDate": "10/18/2025",
    "capacity": 6,
    "address": "1327 W MALBORO AVE",
    "city": "ANAHEIM",
    "zip": "92801",
    "county": "ORANGE",
    "phone": "(714) 232-9242",
    "lat": 33.851655,
    "lng": -117.9369855
  },
  {
    "id": "630026794",
    "name": "MARVELLE HOME HEALTH CARE",
    "npi": null,
    "hcaiId": null,
    "businessName": "MARVELLE HOME HEALTH CARE",
    "contactEmail": "WWAHOME.MARVELLEHHC@GMAIL.COM",
    "categoryName": "HOME HEALTH AGENCY",
    "categoryCode": "HHA",
    "licenseStatus": "ACTIVE",
    "inService": true,
    "licenseNumber": "550009191",
    "licenseEffectiveDate": "06/08/2025",
    "licenseExpirationDate": "06/07/2026",
    "dataDate": "10/18/2025",
    "capacity": 0,
    "address": "2301 W LINCOLN AVE, SUITE 124B",
    "city": "ANAHEIM",
    "zip": "92801",
    "county": "ORANGE",
    "phone": "(714) 844-2078",
    "lat": 33.832935,
    "lng": -117.9637065
  },
  {
    "id": "060002282",
    "name": "MJJ HOMES / BEL AIR",
    "npi": "1275265647",
    "hcaiId": null,
    "businessName": "MJJ HOMES, LLC",
    "contactEmail": "HOMES.MJJ.LLC@GMAIL.COM",
    "categoryName": "INTERMEDIATE CARE FACILITY-DD/H/N/CN/IID",
    "categoryCode": "ICFDDN",
    "licenseStatus": "ACTIVE",
    "inService": true,
    "licenseNumber": "060000956",
    "licenseEffectiveDate": "02/01/2025",
    "licenseExpirationDate": "01/31/2026",
    "dataDate": "10/18/2025",
    "capacity": 6,
    "address": "207 N BEL AIR ST",
    "city": "ANAHEIM",
    "zip": "92801",
    "county": "ORANGE",
    "phone": "(714) 315-4031",
    "lat": 33.833736,
    "lng": -117.9889965
  },
  {
    "id": "630019684",
    "name": "NOBLE CARE HOSPICE",
    "npi": null,
    "hcaiId": "406303003",
    "businessName": "NOBLE CARE HOSPICE",
    "contactEmail": "NOBLECAREHOSPICE@GMAIL.COM",
    "categoryName": "HOSPICE",
    "categoryCode": "HOSPICE",
    "licenseStatus": "ACTIVE",
    "inService": true,
    "licenseNumber": "550005895",
    "licenseEffectiveDate": "11/30/2024",
    "licenseExpirationDate": "11/29/2026",
    "dataDate": "10/18/2025",
    "capacity": 0,
    "address": "2301 W LINCOLN AVE, SUITE 249A",
    "city": "ANAHEIM",
    "zip": "92801",
    "county": "ORANGE",
    "phone": "(714) 603-7617",
    "lat": 33.832935,
    "lng": -117.9637065
  },
  {
    "id": "630011573",
    "name": "NORTH ORANGE COUNTY SURGERY CENTER",
    "npi": "1962695122",
    "hcaiId": null,
    "businessName": null,
    "contactEmail": "WTR2DRT@AOL.COM",
    "categoryName": "SURGICAL CLINIC",
    "categoryCode": "ASC",
    "licenseStatus": null,
    "inService": null,
    "licenseNumber": null,
    "licenseEffectiveDate": null,
    "licenseExpirationDate": null,
    "dataDate": "10/18/2025",
    "capacity": 0,
    "address": "1741 W ROMNEYA DR, SUITE F",
    "city": "ANAHEIM",
    "zip": "92801",
    "county": "ORANGE",
    "phone": "(714) 772-2891",
    "lat": 33.850827,
    "lng": -117.9433755
  },
  {
    "id": "630024161",
    "name": "OC ANAHEIM ADULT DAY HEALTH CARE",
    "npi": null,
    "hcaiId": null,
    "businessName": "OC HEALTH, INC",
    "contactEmail": "CHIAPING@OUTLOOK.COM",
    "categoryName": "ADULT DAY HEALTH CARE",
    "categoryCode": "ADHC",
    "licenseStatus": "ACTIVE",
    "inService": true,
    "licenseNumber": "550008267",
    "licenseEffectiveDate": "03/12/2025",
    "licenseExpirationDate": "12/14/2025",
    "dataDate": "10/18/2025",
    "capacity": 0,
    "address": "2000 W CORPORATE WAY",
    "city": "ANAHEIM",
    "zip": "92801",
    "county": "ORANGE",
    "phone": "(714) 215-4386",
    "lat": 33.837093,
    "lng": -117.9520335
  },
  {
    "id": "630021739",
    "name": "SAFE HAVEN HOSPICE CARE INC.",
    "npi": null,
    "hcaiId": "406307676",
    "businessName": "SAFE HAVEN HOSPICE CARE INC.",
    "contactEmail": "SAFEHAVENHOSPICE1@GMAIL.COM",
    "categoryName": "HOSPICE",
    "categoryCode": "HOSPICE",
    "licenseStatus": "ACTIVE",
    "inService": true,
    "licenseNumber": "550007524",
    "licenseEffectiveDate": "12/08/2023",
    "licenseExpirationDate": "12/07/2025",
    "dataDate": "10/18/2025",
    "capacity": 0,
    "address": "2115 W CRESCENT AVE, SUITE 255",
    "city": "ANAHEIM",
    "zip": "92801",
    "county": "ORANGE",
    "phone": "(714) 215-4322",
    "lat": 33.83983483,
    "lng": -117.9573811
  },
  {
    "id": "060001605",
    "name": "SAN ALTO HOME",
    "npi": "1316021942",
    "hcaiId": null,
    "businessName": "PILAR M. DE CASTRO & CO., INC.",
    "contactEmail": "EDUVENTUREINC@YAHOO.COM",
    "categoryName": "INTERMEDIATE CARE FACILITY-DD/H/N/CN/IID",
    "categoryCode": "ICFDDH",
    "licenseStatus": "ACTIVE",
    "inService": true,
    "licenseNumber": "060000506",
    "licenseEffectiveDate": "01/18/2025",
    "licenseExpirationDate": "01/17/2026",
    "dataDate": "10/18/2025",
    "capacity": 6,
    "address": "2540 W GRAMERCY AVE",
    "city": "ANAHEIM",
    "zip": "92801",
    "county": "ORANGE",
    "phone": "(714) 906-6064",
    "lat": 33.840783,
    "lng": -117.973701
  },
  {
    "id": "630017808",
    "name": "SHANGRILA HOSPICE",
    "npi": null,
    "hcaiId": "406193002",
    "businessName": "APOLLO QUEST, INC.",
    "contactEmail": "INFO@SHANGRILAHOSPICE.NET",
    "categoryName": "HOSPICE",
    "categoryCode": "HOSPICE",
    "licenseStatus": "ACTIVE",
    "inService": true,
    "licenseNumber": "550005893",
    "licenseEffectiveDate": "09/14/2024",
    "licenseExpirationDate": "09/13/2026",
    "dataDate": "10/18/2025",
    "capacity": 0,
    "address": "401 N BROOKHURST ST, SUITE 114",
    "city": "ANAHEIM",
    "zip": "92801",
    "county": "ORANGE",
    "phone": "(714) 603-7209",
    "lat": 33.836805,
    "lng": -117.959238
  },
  {
    "id": "630017288",
    "name": "SOUTHERN STAR HOME HEALTHCARE, INC.",
    "npi": "1760921746",
    "hcaiId": "406301564",
    "businessName": "SOUTHERN STAR HOME HEALTHCARE, INC.",
    "contactEmail": "A1@SOUTHERNSTARHEALTH.COM",
    "categoryName": "HOME HEALTH AGENCY",
    "categoryCode": "HHA",
    "licenseStatus": "ACTIVE",
    "inService": true,
    "licenseNumber": "550004553",
    "licenseEffectiveDate": "02/14/2025",
    "licenseExpirationDate": "02/13/2026",
    "dataDate": "10/18/2025",
    "capacity": 0,
    "address": "1011 W LA PALMA AVE, SUITE 102",
    "city": "ANAHEIM",
    "zip": "92801",
    "county": "ORANGE",
    "phone": "(818) 446-2265",
    "lat": 33.847326,
    "lng": -117.930753
  },
  {
    "id": "630020219",
    "name": "STANDARD CARE HOSPICE INC.",
    "npi": null,
    "hcaiId": "406303329",
    "businessName": "STANDARD CARE HOSPICE, INC.",
    "contactEmail": "STANDARDCAREHOSPICE@GMAIL.COM",
    "categoryName": "HOSPICE",
    "categoryCode": "HOSPICE",
    "licenseStatus": "ACTIVE",
    "inService": true,
    "licenseNumber": "550006956",
    "licenseEffectiveDate": "09/30/2025",
    "licenseExpirationDate": "09/29/2027",
    "dataDate": "10/18/2025",
    "capacity": 0,
    "address": "2323 W LINCOLN AVE, SUITE 207B",
    "city": "ANAHEIM",
    "zip": "92801",
    "county": "ORANGE",
    "phone": "(714) 230-6351",
    "lat": 33.832926,
    "lng": -117.964278
  },
  {
    "id": "060001454",
    "name": "SUNRISE HOME CARE",
    "npi": null,
    "hcaiId": null,
    "businessName": null,
    "contactEmail": "EVAUNQMRP@SBCGLOBAL.NET",
    "categoryName": "INTERMEDIATE CARE FACILITY-DD/H/N/CN/IID",
    "categoryCode": "ICFDDH",
    "licenseStatus": "ACTIVE",
    "inService": true,
    "licenseNumber": "060000470",
    "licenseEffectiveDate": "11/26/2025",
    "licenseExpirationDate": "11/25/2026",
    "dataDate": "10/18/2025",
    "capacity": 6,
    "address": "306 N SIESTA ST",
    "city": "ANAHEIM",
    "zip": "92801",
    "county": "ORANGE",
    "phone": "(714) 609-5209",
    "lat": 33.835392,
    "lng": -117.9613485
  },
  {
    "id": "630017126",
    "name": "TLC HOSPICE INC",
    "npi": "1952845687",
    "hcaiId": "406300896",
    "businessName": "TLC HOSPICE, INC.",
    "contactEmail": "TLCHOSPICE2@GMAIL.COM",
    "categoryName": "HOSPICE",
    "categoryCode": "HOSPICE",
    "licenseStatus": "ACTIVE",
    "inService": true,
    "licenseNumber": "550004290",
    "licenseEffectiveDate": "07/09/2024",
    "licenseExpirationDate": "07/08/2026",
    "dataDate": "10/18/2025",
    "capacity": 0,
    "address": "2323 W LINCOLN AVE, SUITE 209",
    "city": "ANAHEIM",
    "zip": "92801",
    "county": "ORANGE",
    "phone": "(714) 767-7270",
    "lat": 33.832926,
    "lng": -117.964278
  },
  {
    "id": "630016630",
    "name": "UNICARE SURGERY CENTER, INC.",
    "npi": "1528473030",
    "hcaiId": null,
    "businessName": null,
    "contactEmail": null,
    "categoryName": "SURGICAL CLINIC",
    "categoryCode": "ASC",
    "licenseStatus": null,
    "inService": null,
    "licenseNumber": null,
    "licenseEffectiveDate": null,
    "licenseExpirationDate": null,
    "dataDate": "10/18/2025",
    "capacity": 0,
    "address": "1741 W ROMNEYA DR, SUITE B",
    "city": "ANAHEIM",
    "zip": "92801",
    "county": "ORANGE",
    "phone": "(714) 778-0775",
    "lat": 33.850827,
    "lng": -117.9433755
  }
]