[
  {
    "id": "630015860",
    "name": "ANACAPA",
    "npi": null,
    "hcaiId": null,
    "businessName": "RSCR CALIFORNIA, INC.",
    "contactEmail": "SERENA.ROJAS@RESCARE.COM",
    "categoryName": "INTERMEDIATE CARE FACILITY-DD/H/N/CN/IID",
    "categoryCode": "ICFDDN",
    "licenseStatus": "ACTIVE",
    "inService": true,
    "licenseNumber": "550003293",
    "licenseEffectiveDate": "12/07/2024",
    "licenseExpirationDate": "12/06/2025",
    "dataDate": "10/18/2025",
    "capacity": 6,
    "address": "2918 E GREENHEDGE AVE",
    "city": "ANAHEIM",
    "zip": "92806",
    "county": "ORANGE",
    "phone": "(714) 666-6680",
    "lat": 33.842169,
    "lng": -117.86607
  },
  {
    "id": "630018681",
    "name": "CHANTILLY STREET",
    "npi": "1255974275",
    "hcaiId": null,
    "businessName": "RSCR CALIFORNIA, INC.",
    "contactEmail": "SERENA.ROJAS@RESCARE.COM",
    "categoryName": "INTERMEDIATE CARE FACILITY-DD/H/N/CN/IID",
    "categoryCode": "ICFDDN",
    "licenseStatus": "ACTIVE",
    "inService": true,
    "licenseNumber": "550005306",
    "licenseEffectiveDate": "02/12/2025",
    "licenseExpirationDate": "02/11/2026",
    "dataDate": "10/18/2025",
    "capacity": 6,
    "address": "932 S CHANTILLY ST",
    "city": "ANAHEIM",
    "zip": "92806",
    "county": "ORANGE",
    "phone": "(714) 305-4773",
    "lat": 33.826428,
    "lng": -117.8749395
  },
  {
    "id": "630021816",
    "name": "COMPASSIONATE TOUCH HOSPICE, INC.",
    "npi": null,
    "hcaiId": "406307744",
    "businessName": "COMPASSIONATE TOUCH HOSPICE, INC.",
    "contactEmail": "COMPASSIONATETOUCHH@GMAIL.COM",
    "categoryName": "HOSPICE",
    "categoryCode": "HOSPICE",
    "licenseStatus": "ACTIVE",
    "inService": true,
    "licenseNumber": "550007624",
    "licenseEffectiveDate": "12/13/2023",
    "licenseExpirationDate": "12/12/2025",
    "dataDate": "10/18/2025",
    "capacity": 0,
    "address": "121 N STATE COLLEGE BLVD, #11-A",
    "city": "ANAHEIM",
    "zip": "92806",
    "county": "ORANGE",
    "phone": "(714) 603-7264",
    "lat": 33.841845,
    "lng": -117.8898615
  },
  {
    "id": "630024107",
    "name": "DIVINE PEARL HOME HEALTH",
    "npi": null,
    "hcaiId": "406307314",
    "businessName": "DIVINE PEARL HOME HEALTH",
    "contactEmail": "EBJACELA@DIVINEPEARLHOMEHEALTH.COM",
    "categoryName": "HOME HEALTH AGENCY",
    "categoryCode": "HHA",
    "licenseStatus": "ACTIVE",
    "inService": true,
    "licenseNumber": "550008175",
    "licenseEffectiveDate": "08/31/2025",
    "licenseExpirationDate": "08/30/2026",
    "dataDate": "10/18/2025",
    "capacity": 0,
    "address": "121 N STATE COLLEGE BLVD, SUITE 12A",
    "city": "ANAHEIM",
    "zip": "92806",
    "county": "ORANGE",
    "phone": "(714) 603-7415",
    "lat": 33.841845,
    "lng": -117.8898615
  },
  {
    "id": "630018400",
    "name": "INTEGRATED COMMUNITY SERVICES - ANAHEIM",
    "npi": null,
    "hcaiId": null,
    "businessName": null,
    "contactEmail": null,
    "categoryName": "PRIMARY CARE CLINIC",
    "categoryCode": "FQHC",
    "licenseStatus": null,
    "inService": null,
    "licenseNumber": null,
    "licenseEffectiveDate": null,
    "licenseExpirationDate": null,
    "dataDate": "10/18/2025",
    "capacity": 0,
    "address": "2035 E BALL RD, SUITE 100A",
    "city": "ANAHEIM",
    "zip": "92806",
    "county": "ORANGE",
    "phone": null,
    "lat": 33.819075,
    "lng": -117.887958
  },
  {
    "id": "060001694",
    "name": "KAISER FOUNDATION HOSPITAL - ORANGE COUNTY - ANAHEIM",
    "npi": "1922153865",
    "hcaiId": null,
    "businessName": "KAISER FOUNDATION HOSPITALS",
    "contactEmail": null,
    "categoryName": "CHRONIC DIALYSIS CLINIC",
    "categoryCode": "ESRD",
    "licenseStatus": "ACTIVE",
    "inService": true,
    "licenseNumber": "060000091",
    "licenseEffectiveDate": "05/01/2025",
    "licenseExpirationDate": "04/30/2026",
    "dataDate": "10/18/2025",
    "capacity": 0,
    "address": "3460 E LA PALMA AVE",
    "city": "ANAHEIM",
    "zip": "92806",
    "county": "ORANGE",
    "phone": null,
    "lat": 33.85464926,
    "lng": -117.8430855
  },
  {
    "id": "630013929",
    "name": "KAISER FOUNDATION HOSPITAL - ORANGE COUNTY - ANAHEIM",
    "npi": "1144375056",
    "hcaiId": "106304409",
    "businessName": "KAISER FOUNDATION HOSPITALS",
    "contactEmail": "TORAL.H.PATEL@KP.ORG",
    "categoryName": "GENERAL ACUTE CARE HOSPITAL",
    "categoryCode": "GACH",
    "licenseStatus": "ACTIVE",
    "inService": true,
    "licenseNumber": "060000091",
    "licenseEffectiveDate": "05/01/2025",
    "licenseExpirationDate": "04/30/2026",
    "dataDate": "10/18/2025",
    "capacity": 262,
    "address": "3440 E LA PALMA AVE",
    "city": "ANAHEIM",
    "zip": "92806",
    "county": "ORANGE",
    "phone": "(714) 319-6289",
    "lat": 33.852357,
    "lng": -117.844272
  },
  {
    "id": "060001971",
    "name": "OLMSTEAD HOME",
    "npi": "1245957190",
    "hcaiId": null,
    "businessName": "COMPASSIONATE HOME INC",
    "contactEmail": "DBAOLMSTEADHOME@GMAIL.COM",
    "categoryName": "INTERMEDIATE CARE FACILITY-DD/H/N/CN/IID",
    "categoryCode": "ICFDDH",
    "licenseStatus": "ACTIVE",
    "inService": true,
    "licenseNumber": "060000780",
    "licenseEffectiveDate": "05/30/2025",
    "licenseExpirationDate": "05/29/2026",
    "dataDate": "10/18/2025",
    "capacity": 6,
    "address": "2208 E OLMSTEAD WAY",
    "city": "ANAHEIM",
    "zip": "92806",
    "county": "ORANGE",
    "phone": "(714) 833-5229",
    "lat": 33.829155,
    "lng": -117.8862705
  },
  {
    "id": "630017553",
    "name": "QUEENSBURY HOME",
    "npi": "1972081651",
    "hcaiId": null,
    "businessName": "OC CARE CENTERS, INC.",
    "contactEmail": "CMS549@EARTHLINK.NET",
    "categoryName": "INTERMEDIATE CARE FACILITY-DD/H/N/CN/IID",
    "categoryCode": "ICFDDH",
    "licenseStatus": "ACTIVE",
    "inService": true,
    "licenseNumber": "550004611",
    "licenseEffectiveDate": "04/02/2025",
    "licenseExpirationDate": "04/01/2026",
    "dataDate": "10/18/2025",
    "capacity": 6,
    "address": "127 N QUEENSBURY ST",
    "city": "ANAHEIM",
    "zip": "92806",
    "county": "ORANGE",
    "phone": "(951) 315-4747",
    "lat": 33.842574,
    "lng": -117.8629605
  },
  {
    "id": "630019484",
    "name": "SOS BRIDGES HEALTH CENTER",
    "npi": null,
    "hcaiId": null,
    "businessName": "SHARE OUR SELVES CORPORATION",
    "contactEmail": null,
    "categoryName": "PRIMARY CARE CLINIC",
    "categoryCode": "COMTYC",
    "licenseStatus": "ACTIVE",
    "inService": true,
    "licenseNumber": "060000232",
    "licenseEffectiveDate": "11/03/2024",
    "licenseExpirationDate": "11/02/2025",
    "dataDate": "10/18/2025",
    "capacity": 0,
    "address": "1000 N KRAEMER PL",
    "city": "ANAHEIM",
    "zip": "92806",
    "county": "ORANGE",
    "phone": null,
    "lat": 33.848406,
    "lng": -117.857529
  },
  {
    "id": "630015791",
    "name": "ST. JUDE HOSPICE & PALLIATIVE CARE",
    "npi": "1770986994",
    "hcaiId": "406301335",
    "businessName": "ORANGECOAST PARTNERS",
    "contactEmail": "ADMIN@STJUDEHOSPICECARE.COM",
    "categoryName": "HOSPICE",
    "categoryCode": "HOSPICE",
    "licenseStatus": "ACTIVE",
    "inService": true,
    "licenseNumber": "550003409",
    "licenseEffectiveDate": "03/01/2024",
    "licenseExpirationDate": "02/28/2026",
    "dataDate": "10/18/2025",
    "capacity": 0,
    "address": "121 N STATE COLLEGE BLVD, SUITE 1A",
    "city": "ANAHEIM",
    "zip": "92806",
    "county": "ORANGE",
    "phone": "(818) 983-2412",
    "lat": 33.841845,
    "lng": -117.8898615
  },
  {
    "id": "060001661",
    "name": "SUNKIST HOUSE",
    "npi": "1922187772",
    "hcaiId": null,
    "businessName": "SNCH, INC.",
    "contactEmail": "LORENZANALOPEZ3@GMAIL.COM",
    "categoryName": "INTERMEDIATE CARE FACILITY-DD/H/N/CN/IID",
    "categoryCode": "ICFDDH",
    "licenseStatus": "ACTIVE",
    "inService": true,
    "licenseNumber": "060000545",
    "licenseEffectiveDate": "11/01/2025",
    "licenseExpirationDate": "10/31/2026",
    "dataDate": "10/18/2025",
    "capacity": 6,
    "address": "327 N SUNKIST ST",
    "city": "ANAHEIM",
    "zip": "92806",
    "county": "ORANGE",
    "phone": "(714) 491-0455",
    "lat": 33.844716,
    "lng": -117.880803
  }
]