[
  {
    "id": "060000074",
    "name": "ANAHEIM GLOBAL MEDICAL CENTER",
    "npi": "1790778488",
    "hcaiId": "106301188",
    "businessName": "ANAHEIM GLOBAL MEDICAL CENTER, INC.",
    "contactEmail": "ROBERT.METCALFE@KPCHEALTH.COM",
    "categoryName": "GENERAL ACUTE CARE HOSPITAL",
    "categoryCode": "GACH",
    "licenseStatus": "ACTIVE",
    "inService": true,
    "licenseNumber": "060000117",
    "licenseEffectiveDate": "03/08/2024",
    "licenseExpirationDate": "03/07/2025",
    "dataDate": "10/18/2025",
    "capacity": 99,
    "address": "1025 S ANAHEIM BLVD",
    "city": "ANAHEIM",
    "zip": "92805",
    "county": "ORANGE",
    "phone": "(714) 563-2875",
    "lat": 33.819876,
    "lng": -117.909414
  },
  {
    "id": "060000920",
    "name": "ANAHEIM GLOBAL MEDICAL CENTER",
    "npi": "1790778488",
    "hcaiId": null,
    "businessName": "ANAHEIM GLOBAL MEDICAL CENTER, INC.",
    "contactEmail": null,
    "categoryName": "OTHER",
    "categoryCode": "PPSPSCH",
    "licenseStatus": "ACTIVE",
    "inService": true,
    "licenseNumber": "060000117",
    "licenseEffectiveDate": "03/08/2024",
    "licenseExpirationDate": "03/07/2025",
    "dataDate": "10/18/2025",
    "capacity": 0,
    "address": "1025 S ANAHEIM BLVD",
    "city": "ANAHEIM",
    "zip": "92805",
    "county": "ORANGE",
    "phone": null,
    "lat": 33.819876,
    "lng": -117.909414
  },
  {
    "id": "060000655",
    "name": "ANAHEIM GLOBAL MEDICAL CENTER D/P APH",
    "npi": "1790778488",
    "hcaiId": null,
    "businessName": "ANAHEIM GLOBAL MEDICAL CENTER, INC.",
    "contactEmail": null,
    "categoryName": "ACUTE PSYCHIATRIC HOSPITAL",
    "categoryCode": "APH",
    "licenseStatus": "ACTIVE",
    "inService": true,
    "licenseNumber": "060000117",
    "licenseEffectiveDate": "03/08/2024",
    "licenseExpirationDate": "03/07/2025",
    "dataDate": "10/18/2025",
    "capacity": 90,
    "address": "1025 S ANAHEIM BLVD",
    "city": "ANAHEIM",
    "zip": "92805",
    "county": "ORANGE",
    "phone": "(714) 533-6220",
    "lat": 33.819876,
    "lng": -117.909414
  },
  {
    "id": "630016371",
    "name": "BENEVOLENCE HEALTH CENTER",
    "npi": null,
    "hcaiId": "306304586",
    "businessName": "BENEVOLENCE INDUSTRIES INCORPORATED",
    "contactEmail": "GDANQUAH@BHCHEALTH.ORG",
    "categoryName": "PRIMARY CARE CLINIC",
    "categoryCode": "COMTYC",
    "licenseStatus": "ACTIVE",
    "inService": true,
    "licenseNumber": "550003539",
    "licenseEffectiveDate": "06/15/2025",
    "licenseExpirationDate": "06/14/2026",
    "dataDate": "10/18/2025",
    "capacity": 0,
    "address": "303 N. EAST STREET",
    "city": "ANAHEIM",
    "zip": "92805",
    "county": "ORANGE",
    "phone": "(714) 491-1771",
    "lat": 33.840351,
    "lng": -117.9036675
  },
  {
    "id": "980001866",
    "name": "BRIGHT HORIZONS HOME HEALTH SERVICES, INC.",
    "npi": "1548280480",
    "hcaiId": "406196630",
    "businessName": "BRIGHT HORIZONS HOME HEALTH SERVICES, INC.",
    "contactEmail": "HENRY@BHHOMEHEALTH.COM",
    "categoryName": "HOME HEALTH AGENCY",
    "categoryCode": "HHA",
    "licenseStatus": "ACTIVE",
    "inService": true,
    "licenseNumber": "980001128",
    "licenseEffectiveDate": "04/02/2025",
    "licenseExpirationDate": "02/13/2026",
    "dataDate": "10/18/2025",
    "capacity": 0,
    "address": "1910 S UNION ST, UNIT 1082",
    "city": "ANAHEIM",
    "zip": "92805",
    "county": "ORANGE",
    "phone": "(323) 600-1100",
    "lat": 33.7921797,
    "lng": -117.9031283
  },
  {
    "id": "060001574",
    "name": "ELM STREET HOME",
    "npi": "1467588822",
    "hcaiId": null,
    "businessName": "RSCR CALIFORNIA, INC.",
    "contactEmail": "SERENA.ROJAS@RESCARE.COM",
    "categoryName": "INTERMEDIATE CARE FACILITY-DD/H/N/CN/IID",
    "categoryCode": "ICFDDH",
    "licenseStatus": "ACTIVE",
    "inService": true,
    "licenseNumber": "060000497",
    "licenseEffectiveDate": "01/10/2025",
    "licenseExpirationDate": "01/09/2026",
    "dataDate": "10/18/2025",
    "capacity": 6,
    "address": "1414 E ELM ST",
    "city": "ANAHEIM",
    "zip": "92805",
    "county": "ORANGE",
    "phone": "(213) 298-7276",
    "lat": 33.835716,
    "lng": -117.898209
  },
  {
    "id": "080001759",
    "name": "FRIENDLY HOSPICE CARE, INC.",
    "npi": null,
    "hcaiId": "406304327",
    "businessName": "FRIENDLY HOSPICE CARE, INC.",
    "contactEmail": "FRIENDLYHOSPICECARE@GMAIL.COM",
    "categoryName": "HOSPICE",
    "categoryCode": "HOSPICE",
    "licenseStatus": "ACTIVE",
    "inService": true,
    "licenseNumber": "080000792",
    "licenseEffectiveDate": "04/24/2025",
    "licenseExpirationDate": "05/31/2026",
    "dataDate": "10/18/2025",
    "capacity": 0,
    "address": "1700 E LINCOLN AVE, SUITE 202-A",
    "city": "ANAHEIM",
    "zip": "92805",
    "county": "ORANGE",
    "phone": "(714) 774-2498",
    "lat": 33.839847,
    "lng": -117.8936325
  },
  {
    "id": "630026411",
    "name": "GRACEFUL CARE HOME HEALTH SERVICES INC.",
    "npi": null,
    "hcaiId": null,
    "businessName": "GRACEFUL CARE HOME HEALTH SERVICES INC.",
    "contactEmail": "GRACEFULCAREHOMEHEALTHSERVICES@GMAIL.COM",
    "categoryName": "HOME HEALTH AGENCY",
    "categoryCode": "HHA",
    "licenseStatus": "ACTIVE",
    "inService": true,
    "licenseNumber": "550009469",
    "licenseEffectiveDate": "09/13/2025",
    "licenseExpirationDate": "09/12/2026",
    "dataDate": "10/18/2025",
    "capacity": 0,
    "address": "1775 E LINCOLN AVE, SUITE 203A",
    "city": "ANAHEIM",
    "zip": "92805",
    "county": "ORANGE",
    "phone": "(714) 860-4425",
    "lat": 33.840774,
    "lng": -117.8924535
  },
  {
    "id": "060001578",
    "name": "GROVE STREET HOME",
    "npi": "1275669376",
    "hcaiId": null,
    "businessName": "RSCR CALIFORNIA, INC.",
    "contactEmail": "SOLEDAD.ESCOBAR@RESCARE.COM",
    "categoryName": "INTERMEDIATE CARE FACILITY-DD/H/N/CN/IID",
    "categoryCode": "ICFDDH",
    "licenseStatus": "ACTIVE",
    "inService": true,
    "licenseNumber": "060000494",
    "licenseEffectiveDate": "12/20/2024",
    "licenseExpirationDate": "12/19/2025",
    "dataDate": "10/18/2025",
    "capacity": 6,
    "address": "509 S GROVE AVE",
    "city": "ANAHEIM",
    "zip": "92805",
    "county": "ORANGE",
    "phone": "(213) 298-7276",
    "lat": 33.833727,
    "lng": -117.897903
  },
  {
    "id": "060000113",
    "name": "HARBOR VILLA CARE CENTER",
    "npi": "1902891641",
    "hcaiId": "206301138",
    "businessName": "CASA PACIFICA NURSING CENTER, LLC",
    "contactEmail": "RKOONTZ@HARBORVILLACARES.COM",
    "categoryName": "SKILLED NURSING FACILITY",
    "categoryCode": "SNF",
    "licenseStatus": "ACTIVE",
    "inService": true,
    "licenseNumber": "060000096",
    "licenseEffectiveDate": "11/23/2024",
    "licenseExpirationDate": "11/22/2025",
    "dataDate": "10/18/2025",
    "capacity": 99,
    "address": "861 S HARBOR BLVD",
    "city": "ANAHEIM",
    "zip": "92805",
    "county": "ORANGE",
    "phone": "(714) 635-8131",
    "lat": 33.823269,
    "lng": -117.9167895
  },
  {
    "id": "630021183",
    "name": "HEALING HANDS HOSPICE CARE, INC.",
    "npi": null,
    "hcaiId": "406303667",
    "businessName": "HEALING HANDS HOSPICE CARE, INC.",
    "contactEmail": "HEALINGHANDSHOSPICECARE@GMAIL.COM",
    "categoryName": "HOSPICE",
    "categoryCode": "HOSPICE",
    "licenseStatus": "ACTIVE",
    "inService": true,
    "licenseNumber": "550006867",
    "licenseEffectiveDate": "09/10/2025",
    "licenseExpirationDate": "09/09/2027",
    "dataDate": "10/18/2025",
    "capacity": 0,
    "address": "1775 E LINCOLN AVE, SUITE 203",
    "city": "ANAHEIM",
    "zip": "92805",
    "county": "ORANGE",
    "phone": "(714) 803-7884",
    "lat": 33.840774,
    "lng": -117.8924535
  },
  {
    "id": "630017574",
    "name": "HURTT FAMILY HEALTH CLINIC-ANAHEIM",
    "npi": null,
    "hcaiId": "306301325",
    "businessName": "HURTT FAMILY HEALTH CLINIC, INC.",
    "contactEmail": "JINA.LAWLER@HURTTCLINIC.ORG",
    "categoryName": "PRIMARY CARE CLINIC",
    "categoryCode": "COMTYC",
    "licenseStatus": "ACTIVE",
    "inService": true,
    "licenseNumber": "550004157",
    "licenseEffectiveDate": "03/06/2025",
    "licenseExpirationDate": "03/05/2026",
    "dataDate": "10/18/2025",
    "capacity": 0,
    "address": "947 S ANAHEIM BLVD, SUITE 260",
    "city": "ANAHEIM",
    "zip": "92805",
    "county": "ORANGE",
    "phone": "(714) 259-1364",
    "lat": 33.821523,
    "lng": -117.9099405
  },
  {
    "id": "630027650",
    "name": "INTERVENTIONAL SPINE CENTER, LLC",
    "npi": null,
    "hcaiId": null,
    "businessName": null,
    "contactEmail": "STEFANII.TRAUTVETTER@SURGERYPARTNERS.COM",
    "categoryName": "SURGICAL CLINIC",
    "categoryCode": "ASC",
    "licenseStatus": null,
    "inService": null,
    "licenseNumber": null,
    "licenseEffectiveDate": null,
    "licenseExpirationDate": null,
    "dataDate": "10/18/2025",
    "capacity": 0,
    "address": "947 S ANAHEIM BLVD, SUITE 215",
    "city": "ANAHEIM",
    "zip": "92805",
    "county": "ORANGE",
    "phone": "(615) 234-5924",
    "lat": 33.82152598,
    "lng": -117.909956
  },
  {
    "id": "630020072",
    "name": "KCS HEALTH CENTER - ANAHEIM",
    "npi": "1861525602",
    "hcaiId": null,
    "businessName": "KOREAN COMMUNITY SERVICES, INCORPORATED",
    "contactEmail": null,
    "categoryName": "PRIMARY CARE CLINIC",
    "categoryCode": "COMTYC",
    "licenseStatus": "ACTIVE",
    "inService": true,
    "licenseNumber": "550001806",
    "licenseEffectiveDate": "11/22/2025",
    "licenseExpirationDate": "11/21/2026",
    "dataDate": "10/18/2025",
    "capacity": 0,
    "address": "451 W LINCOLN AVE, SUITE 100",
    "city": "ANAHEIM",
    "zip": "92805",
    "county": "ORANGE",
    "phone": null,
    "lat": 33.834753,
    "lng": -117.9187065
  },
  {
    "id": "060002271",
    "name": "LOMITA PLACE HOME ICF/DD-H",
    "npi": "1285722876",
    "hcaiId": null,
    "businessName": "HARRIS CARE CENTERS, INC.",
    "contactEmail": "ROSE.MARIEGARCIA@YAHOO.COM",
    "categoryName": "INTERMEDIATE CARE FACILITY-DD/H/N/CN/IID",
    "categoryCode": "ICFDDH",
    "licenseStatus": "ACTIVE",
    "inService": true,
    "licenseNumber": "060000950",
    "licenseEffectiveDate": "11/23/2025",
    "licenseExpirationDate": "11/22/2026",
    "dataDate": "10/18/2025",
    "capacity": 6,
    "address": "1429 E LAMBDA PL",
    "city": "ANAHEIM",
    "zip": "92805",
    "county": "ORANGE",
    "phone": "(714) 948-3352",
    "lat": 33.831306,
    "lng": -117.895482
  },
  {
    "id": "630019093",
    "name": "LOYALTY HOSPICE SERVICES, INC.",
    "npi": null,
    "hcaiId": null,
    "businessName": "LOYALTY HOSPICE SERVICES, INC.",
    "contactEmail": "ADMIN@LOYALTYHOSPICESERVICES.COM",
    "categoryName": "HOSPICE",
    "categoryCode": "HOSPICE",
    "licenseStatus": "ACTIVE",
    "inService": true,
    "licenseNumber": "550006007",
    "licenseEffectiveDate": "01/27/2025",
    "licenseExpirationDate": "01/26/2027",
    "dataDate": "10/18/2025",
    "capacity": 0,
    "address": "1700 E LINCOLN AVE, SUITE 204",
    "city": "ANAHEIM",
    "zip": "92805",
    "county": "ORANGE",
    "phone": "(657) 208-1813",
    "lat": 33.839847,
    "lng": -117.8936325
  },
  {
    "id": "630015881",
    "name": "MD ANAHEIM SURGERY CENTER INC",
    "npi": "1376885400",
    "hcaiId": null,
    "businessName": null,
    "contactEmail": null,
    "categoryName": "SURGICAL CLINIC",
    "categoryCode": "ASC",
    "licenseStatus": null,
    "inService": null,
    "licenseNumber": null,
    "licenseEffectiveDate": null,
    "licenseExpirationDate": null,
    "dataDate": "10/18/2025",
    "capacity": 0,
    "address": "1000 S. ANAHEIM BLVD., SUITE 300",
    "city": "ANAHEIM",
    "zip": "92805",
    "county": "ORANGE",
    "phone": "(714) 833-5558",
    "lat": 33.82056,
    "lng": -117.9082935
  },
  {
    "id": "060000130",
    "name": "PARKVIEW HEALTHCARE CENTER",
    "npi": "1912970906",
    "hcaiId": "206301294",
    "businessName": "PARKVIEW HEALTHCARE CENTER OPERATING COMPANY, LLC",
    "contactEmail": "D.BASTONEVH@PROGRESSIVECARECENTERS.COM",
    "categoryName": "SKILLED NURSING FACILITY",
    "categoryCode": "SNF",
    "licenseStatus": "ACTIVE",
    "inService": true,
    "licenseNumber": "060000156",
    "licenseEffectiveDate": "04/01/2025",
    "licenseExpirationDate": "03/31/2026",
    "dataDate": "10/18/2025",
    "capacity": 41,
    "address": "1514 E LINCOLN AVE",
    "city": "ANAHEIM",
    "zip": "92805",
    "county": "ORANGE",
    "phone": "(714) 397-2282",
    "lat": 33.838947,
    "lng": -117.8967015
  },
  {
    "id": "060000972",
    "name": "PLANNED PARENTHOOD/ORANGE & SAN BERNARDINO CO.",
    "npi": null,
    "hcaiId": "306304038",
    "businessName": "PLANNED PARENTHOOD/ORANGE & SAN BERNARDINO CO.,INC",
    "contactEmail": "SHANNON.HAINES@PPOSBC.ORG",
    "categoryName": "PRIMARY CARE CLINIC",
    "categoryCode": "COMTYC",
    "licenseStatus": "ACTIVE",
    "inService": true,
    "licenseNumber": "060000264",
    "licenseEffectiveDate": "02/23/2025",
    "licenseExpirationDate": "02/22/2026",
    "dataDate": "10/18/2025",
    "capacity": 0,
    "address": "303 W LINCOLN AVE, SUITE 105",
    "city": "ANAHEIM",
    "zip": "92805",
    "county": "ORANGE",
    "phone": "(714) 922-4100",
    "lat": 33.835248,
    "lng": -117.917928
  },
  {
    "id": "060001038",
    "name": "PROVIDENCE AT HOME WITH COMPASSUS HOME HEALTH ANAHEIM",
    "npi": null,
    "hcaiId": "406304044",
    "businessName": "CP ORANGE COUNTY S-CA HOSPICE, LLC",
    "contactEmail": "SHAYNA.STILES@COMPASSUS.COM",
    "categoryName": "HOME HEALTH AGENCY",
    "categoryCode": "HHA",
    "licenseStatus": "ACTIVE",
    "inService": true,
    "licenseNumber": "060000277",
    "licenseEffectiveDate": "10/20/2025",
    "licenseExpirationDate": "11/20/2025",
    "dataDate": "10/18/2025",
    "capacity": 0,
    "address": "200 W CENTER STREET PROMENADE, SUITE 200A",
    "city": "ANAHEIM",
    "zip": "92805",
    "county": "ORANGE",
    "phone": "(800) 850-2631",
    "lat": 33.8332764,
    "lng": -117.9176778
  },
  {
    "id": "060000116",
    "name": "PROVIDENCE AT HOME WITH COMPASSUS HOME HEALTH ORANGE COUNTY",
    "npi": "1730162579",
    "hcaiId": "406300149",
    "businessName": "CP ORANGE COUNTY S-CA HH, LLC",
    "contactEmail": "MICHELE.GLOVER@COMPASSUS.COM",
    "categoryName": "HOME HEALTH AGENCY",
    "categoryCode": "HHA",
    "licenseStatus": "ACTIVE",
    "inService": true,
    "licenseNumber": "060000099",
    "licenseEffectiveDate": "10/20/2025",
    "licenseExpirationDate": "03/30/2026",
    "dataDate": "10/18/2025",
    "capacity": 0,
    "address": "200 W CENTER STREET PROMENADE, SUITE 200C",
    "city": "ANAHEIM",
    "zip": "92805",
    "county": "ORANGE",
    "phone": "(657) 640-8090",
    "lat": 33.833544,
    "lng": -117.915904
  },
  {
    "id": "630011603",
    "name": "PROVIDENCE AT HOME WITH COMPASSUS HOSPICE CARE ORANGE COUNTY",
    "npi": "1083697833",
    "hcaiId": null,
    "businessName": "CP ORANGE COUNTY S-CA HOSPICE, LLC",
    "contactEmail": null,
    "categoryName": "HOSPICE",
    "categoryCode": "HOSPICE",
    "licenseStatus": "ACTIVE",
    "inService": true,
    "licenseNumber": "060000277",
    "licenseEffectiveDate": "10/20/2025",
    "licenseExpirationDate": "11/20/2025",
    "dataDate": "10/18/2025",
    "capacity": 0,
    "address": "200 W.CENTER STREET PROMENADE, SUITE 200B",
    "city": "ANAHEIM",
    "zip": "92805",
    "county": "ORANGE",
    "phone": "(714) 712-9559",
    "lat": 33.8332764,
    "lng": -117.9176778
  },
  {
    "id": "630019096",
    "name": "SINCERITY HOSPICE SERVICES, INC",
    "npi": null,
    "hcaiId": "406300020",
    "businessName": "SINCERITY HOSPICE SERVICES, INC.",
    "contactEmail": "SINCERITYHOSPICESERVICESINC@GMAIL.COM",
    "categoryName": "HOSPICE",
    "categoryCode": "HOSPICE",
    "licenseStatus": "ACTIVE",
    "inService": true,
    "licenseNumber": "550006046",
    "licenseEffectiveDate": "02/20/2025",
    "licenseExpirationDate": "02/19/2027",
    "dataDate": "10/18/2025",
    "capacity": 0,
    "address": "1700 E LINCOLN AVE, SUITE 201",
    "city": "ANAHEIM",
    "zip": "92805",
    "county": "ORANGE",
    "phone": "(657) 220-5153",
    "lat": 33.839847,
    "lng": -117.8936325
  },
  {
    "id": "630023207",
    "name": "TRUECARE HOME HEALTH INC",
    "npi": null,
    "hcaiId": "406305851",
    "businessName": "TRUECARE HOME HEALTH INC",
    "contactEmail": "HHADMIN@PREMIERHCS.COM",
    "categoryName": "HOME HEALTH AGENCY",
    "categoryCode": "HHA",
    "licenseStatus": "ACTIVE",
    "inService": true,
    "licenseNumber": "550007999",
    "licenseEffectiveDate": "04/04/2025",
    "licenseExpirationDate": "04/03/2026",
    "dataDate": "10/18/2025",
    "capacity": 0,
    "address": "1020 S ANAHEIM BLVD, SUITE 306",
    "city": "ANAHEIM",
    "zip": "92805",
    "county": "ORANGE",
    "phone": "(866) 365-2525",
    "lat": 33.820092,
    "lng": -117.908415
  }
]