[
  {
    "id": "630019883",
    "name": "ETERNAL PEACE HOSPICE INC",
    "npi": null,
    "hcaiId": "406304792",
    "businessName": "ETERNAL PEACE HOSPICE INC",
    "contactEmail": "ETERNALPEACEHOSPICE@GMAIL.COM",
    "categoryName": "HOSPICE",
    "categoryCode": "HOSPICE",
    "licenseStatus": "ACTIVE",
    "inService": true,
    "licenseNumber": "550006129",
    "licenseEffectiveDate": "03/05/2025",
    "licenseExpirationDate": "03/04/2027",
    "dataDate": "10/18/2025",
    "capacity": 0,
    "address": "160 S OLD SPRINGS RD, SUITE 104",
    "city": "ANAHEIM",
    "zip": "92808",
    "county": "ORANGE",
    "phone": "(949) 705-6744",
    "lat": 33.86495199,
    "lng": -117.741591
  },
  {
    "id": "630020371",
    "name": "KIND HEART HOSPICE AND PALLIATIVE CARE INCORPORATED",
    "npi": null,
    "hcaiId": "406307162",
    "businessName": "KIND HEART HOSPICE AND PALLIATIVE CARE INCORPORATED",
    "contactEmail": "KINDHEARTHOSPICECARE@GMAIL.COM",
    "categoryName": "HOSPICE",
    "categoryCode": "HOSPICE",
    "licenseStatus": "ACTIVE",
    "inService": true,
    "licenseNumber": "550006586",
    "licenseEffectiveDate": "07/17/2025",
    "licenseExpirationDate": "07/16/2027",
    "dataDate": "10/18/2025",
    "capacity": 0,
    "address": "160 S OLD SPRINGS RD, SUITE 280",
    "city": "ANAHEIM",
    "zip": "92808",
    "county": "ORANGE",
    "phone": "(949) 674-5326",
    "lat": 33.86495199,
    "lng": -117.741591
  },
  {
    "id": "630026154",
    "name": "LIAHONA HOME HEALTH SERVICES INC.",
    "npi": null,
    "hcaiId": null,
    "businessName": "LIAHONA HOME HEALTH SERVICES INC.",
    "contactEmail": "LIAHONAHHS@GMAIL.COM",
    "categoryName": "HOME HEALTH AGENCY",
    "categoryCode": "HHA",
    "licenseStatus": "ACTIVE",
    "inService": true,
    "licenseNumber": "550009179",
    "licenseEffectiveDate": "06/05/2025",
    "licenseExpirationDate": "06/04/2026",
    "dataDate": "10/18/2025",
    "capacity": 0,
    "address": "155 N RIVERVIEW DR, UNIT 121",
    "city": "ANAHEIM",
    "zip": "92808",
    "county": "ORANGE",
    "phone": "(714) 202-4665",
    "lat": 33.869052,
    "lng": -117.74151
  }
]