[
  {
    "id": "630003181",
    "name": "ANAHEIM HILLS DIALYSIS",
    "npi": "1699025460",
    "hcaiId": "306304355",
    "businessName": "TOTAL RENAL CARE, INC.",
    "contactEmail": "CAL_C@DAVITA.COM",
    "categoryName": "CHRONIC DIALYSIS CLINIC",
    "categoryCode": "ESRD/CDC",
    "licenseStatus": "ACTIVE",
    "inService": true,
    "licenseNumber": "550000052",
    "licenseEffectiveDate": "12/01/2024",
    "licenseExpirationDate": "11/30/2025",
    "dataDate": "10/18/2025",
    "capacity": 21,
    "address": "4201 & 4211 E LA PALMA AVE",
    "city": "ANAHEIM",
    "zip": "92807",
    "county": "ORANGE",
    "phone": "(714) 996-2900",
    "lat": 33.859479,
    "lng": -117.825529
  },
  {
    "id": "630018453",
    "name": "AT HOME CARE 24/7 BECAUSE WE CARE, INC.",
    "npi": null,
    "hcaiId": "406302675",
    "businessName": "AT HOME CARE 24/7 BECAUSE WE CARE, INC.",
    "contactEmail": "BRIAN@ATHOMECARE247.COM",
    "categoryName": "HOME HEALTH AGENCY",
    "categoryCode": "HHA",
    "licenseStatus": "ACTIVE",
    "inService": true,
    "licenseNumber": "550005519",
    "licenseEffectiveDate": "06/05/2025",
    "licenseExpirationDate": "06/04/2026",
    "dataDate": "10/18/2025",
    "capacity": 0,
    "address": "1250 N LAKEVIEW AVE, SUITE M",
    "city": "ANAHEIM",
    "zip": "92807",
    "county": "ORANGE",
    "phone": "(714) 366-2817",
    "lat": 33.860799,
    "lng": -117.8167995
  },
  {
    "id": "630020350",
    "name": "GOLDING CARE HOSPICE, INC.",
    "npi": null,
    "hcaiId": "406305278",
    "businessName": "GOLDING CARE HOSPICE INC",
    "contactEmail": "GOLDCAREHOSPICE@GMAIL.COM",
    "categoryName": "HOSPICE",
    "categoryCode": "HOSPICE",
    "licenseStatus": "ACTIVE",
    "inService": true,
    "licenseNumber": "550006440",
    "licenseEffectiveDate": "06/09/2025",
    "licenseExpirationDate": "06/08/2027",
    "dataDate": "10/18/2025",
    "capacity": 0,
    "address": "1240 N VAN BUREN ST, SUITE 202",
    "city": "ANAHEIM",
    "zip": "92807",
    "county": "ORANGE",
    "phone": "(714) 576-7210",
    "lat": 33.86068301,
    "lng": -117.830743
  },
  {
    "id": "630018670",
    "name": "HEART OF HOME HEALTH",
    "npi": null,
    "hcaiId": "406303032",
    "businessName": "CMBP HOLDINGS INC",
    "contactEmail": "HEARTOFHOMEHEALTH@GMAIL.COM",
    "categoryName": "HOME HEALTH AGENCY",
    "categoryCode": "HHA",
    "licenseStatus": "ACTIVE",
    "inService": true,
    "licenseNumber": "550006099",
    "licenseEffectiveDate": "03/01/2025",
    "licenseExpirationDate": "02/28/2026",
    "dataDate": "10/18/2025",
    "capacity": 0,
    "address": "5101 E LA PALMA AVE, SUITE 202-G",
    "city": "ANAHEIM",
    "zip": "92807",
    "county": "ORANGE",
    "phone": "(714) 202-9886",
    "lat": 33.86184801,
    "lng": -117.805658
  },
  {
    "id": "630017231",
    "name": "KAREMORE HOSPICE, INC",
    "npi": "1962941203",
    "hcaiId": "406301474",
    "businessName": "KAREMORE HOSPICE, INC.",
    "contactEmail": "KAREMOREHOSPICE@GMAIL.COM",
    "categoryName": "HOSPICE",
    "categoryCode": "HOSPICE",
    "licenseStatus": "ACTIVE",
    "inService": true,
    "licenseNumber": "550004394",
    "licenseEffectiveDate": "10/16/2024",
    "licenseExpirationDate": "10/15/2026",
    "dataDate": "10/18/2025",
    "capacity": 0,
    "address": "505 S VILLA REAL, SUITE 211",
    "city": "ANAHEIM",
    "zip": "92807",
    "county": "ORANGE",
    "phone": "(949) 535-2076",
    "lat": 33.83722119,
    "lng": -117.8220554
  },
  {
    "id": "630018137",
    "name": "LIFE HOSPICE, INC.",
    "npi": "1588158893",
    "hcaiId": "406301663",
    "businessName": "LIFE HOSPICE, INC.",
    "contactEmail": "LIFEHOSPICE@YAHOO.COM",
    "categoryName": "HOSPICE",
    "categoryCode": "HOSPICE",
    "licenseStatus": "ACTIVE",
    "inService": true,
    "licenseNumber": "550004663",
    "licenseEffectiveDate": "05/15/2025",
    "licenseExpirationDate": "05/14/2027",
    "dataDate": "10/18/2025",
    "capacity": 0,
    "address": "5101 E LA PALMA AVE, SUITE 100-P",
    "city": "ANAHEIM",
    "zip": "92807",
    "county": "ORANGE",
    "phone": "(714) 464-2018",
    "lat": 33.859953,
    "lng": -117.805986
  },
  {
    "id": "630021314",
    "name": "MISSION BAY HOSPICE, INC.",
    "npi": null,
    "hcaiId": "406373245",
    "businessName": "MISSION BAY HOSPICE, INC.",
    "contactEmail": "HOSPICEMISSIONBAY@GMAIL.COM",
    "categoryName": "HOSPICE",
    "categoryCode": "HOSPICE",
    "licenseStatus": "ACTIVE",
    "inService": true,
    "licenseNumber": "550006643",
    "licenseEffectiveDate": "08/03/2025",
    "licenseExpirationDate": "08/02/2027",
    "dataDate": "10/18/2025",
    "capacity": 0,
    "address": "5101 E LA PALMA AVE, SUITE 110",
    "city": "ANAHEIM",
    "zip": "92807",
    "county": "ORANGE",
    "phone": "(424) 430-0333",
    "lat": 33.86184801,
    "lng": -117.805658
  },
  {
    "id": "630018104",
    "name": "SURGERY CENTER OF ANAHEIM HILLS",
    "npi": "1053852236",
    "hcaiId": null,
    "businessName": null,
    "contactEmail": null,
    "categoryName": "SURGICAL CLINIC",
    "categoryCode": "ASC",
    "licenseStatus": null,
    "inService": null,
    "licenseNumber": null,
    "licenseEffectiveDate": null,
    "licenseExpirationDate": null,
    "dataDate": "10/18/2025",
    "capacity": 0,
    "address": "500 S ANAHEIM HILLS RD, SUITE 128",
    "city": "ANAHEIM",
    "zip": "92807",
    "county": "ORANGE",
    "phone": "(714) 790-3463",
    "lat": 33.843348,
    "lng": -117.776772
  },
  {
    "id": "080001754",
    "name": "ULTRACARE HOSPICE",
    "npi": null,
    "hcaiId": "406304420",
    "businessName": "ULTRACARE HOSPICE & PALLIATIVE CARE INC.",
    "contactEmail": "ULTRACAREHOSPICE@GMAIL.COM",
    "categoryName": "HOSPICE",
    "categoryCode": "HOSPICE",
    "licenseStatus": "ACTIVE",
    "inService": true,
    "licenseNumber": "080000788",
    "licenseEffectiveDate": "05/06/2024",
    "licenseExpirationDate": "05/05/2026",
    "dataDate": "10/18/2025",
    "capacity": 0,
    "address": "970 N. TUSTIN AVE., SUITE 101",
    "city": "ANAHEIM",
    "zip": "92807",
    "county": "ORANGE",
    "phone": "(714) 886-0542",
    "lat": 33.850377,
    "lng": -117.8375085
  }
]