[
  {
    "id": "630015107",
    "name": "ANAHEIM SPRINGS DIALYSIS",
    "npi": "1407270804",
    "hcaiId": "306304562",
    "businessName": "MERIDIAN DIALYSIS, LLC",
    "contactEmail": "CAL_C@DAVITA.COM",
    "categoryName": "CHRONIC DIALYSIS CLINIC",
    "categoryCode": "ESRD/CDC",
    "licenseStatus": "ACTIVE",
    "inService": true,
    "licenseNumber": "550002744",
    "licenseEffectiveDate": "07/08/2025",
    "licenseExpirationDate": "07/07/2026",
    "dataDate": "10/18/2025",
    "capacity": 25,
    "address": "1324 S EUCLID ST",
    "city": "ANAHEIM",
    "zip": "92802",
    "county": "ORANGE",
    "phone": "(714) 774-1518",
    "lat": 33.815169,
    "lng": -117.940941
  },
  {
    "id": "630014984",
    "name": "BRIGHTON HOSPICE AND PALLIATIVE CARE, INC.",
    "npi": null,
    "hcaiId": "406301426",
    "businessName": "BRIGHTON HOSPICE AND PALLIATIVE CARE, INC.",
    "contactEmail": "BRIGHTONHOSPICE@GMAIL.COM",
    "categoryName": "HOSPICE",
    "categoryCode": "HOSPICE",
    "licenseStatus": "ACTIVE",
    "inService": true,
    "licenseNumber": "550002787",
    "licenseEffectiveDate": "07/21/2024",
    "licenseExpirationDate": "07/20/2026",
    "dataDate": "10/18/2025",
    "capacity": 0,
    "address": "434 S EUCLID ST, SUITE 184",
    "city": "ANAHEIM",
    "zip": "92802",
    "county": "ORANGE",
    "phone": "(714) 300-9530",
    "lat": 33.82640601,
    "lng": -117.941129
  },
  {
    "id": "060000089",
    "name": "BUENA VISTA CARE CENTER",
    "npi": "1740275486",
    "hcaiId": "206301130",
    "businessName": "1440 SOUTH EUCLID STREET LLC",
    "contactEmail": "PSAHEBIFARD@BUENAVISTACARECENTER.COM",
    "categoryName": "SKILLED NURSING FACILITY",
    "categoryCode": "SNF",
    "licenseStatus": "ACTIVE",
    "inService": true,
    "licenseNumber": "060000090",
    "licenseEffectiveDate": "11/09/2025",
    "licenseExpirationDate": "11/08/2026",
    "dataDate": "10/18/2025",
    "capacity": 99,
    "address": "1440 S EUCLID ST",
    "city": "ANAHEIM",
    "zip": "92802",
    "county": "ORANGE",
    "phone": "(714) 535-7264",
    "lat": 33.811533,
    "lng": -117.940626
  },
  {
    "id": "060000047",
    "name": "COVENTRY COURT HEALTH CENTER",
    "npi": "1265145791",
    "hcaiId": "206301190",
    "businessName": "MANZANITA HEALTHCARE, INC.",
    "contactEmail": "RENEWALS@ENSIGNSERVICES.NET",
    "categoryName": "SKILLED NURSING FACILITY",
    "categoryCode": "SNF",
    "licenseStatus": "ACTIVE",
    "inService": true,
    "licenseNumber": "060000002",
    "licenseEffectiveDate": "11/01/2025",
    "licenseExpirationDate": "10/31/2026",
    "dataDate": "10/18/2025",
    "capacity": 97,
    "address": "2040 S EUCLID ST",
    "city": "ANAHEIM",
    "zip": "92802",
    "county": "ORANGE",
    "phone": "(714) 636-2800",
    "lat": 33.797484,
    "lng": -117.9411165
  },
  {
    "id": "060001575",
    "name": "CRIS AVENUE HOME",
    "npi": "1538295993",
    "hcaiId": null,
    "businessName": "RSCR CALIFORNIA, INC.",
    "contactEmail": "SERENA.ROJAS@RESCARE.COM",
    "categoryName": "INTERMEDIATE CARE FACILITY-DD/H/N/CN/IID",
    "categoryCode": "ICFDDH",
    "licenseStatus": "ACTIVE",
    "inService": true,
    "licenseNumber": "060000493",
    "licenseEffectiveDate": "12/20/2024",
    "licenseExpirationDate": "12/19/2025",
    "dataDate": "10/18/2025",
    "capacity": 6,
    "address": "1603 W CRIS AVE",
    "city": "ANAHEIM",
    "zip": "92802",
    "county": "ORANGE",
    "phone": "(213) 298-7276",
    "lat": 33.809247,
    "lng": -117.937224
  },
  {
    "id": "630027982",
    "name": "FINAMORE PLACE HEALTH CENTER",
    "npi": null,
    "hcaiId": null,
    "businessName": "ST. JUDE NEIGHBORHOOD HEALTH CENTERS",
    "contactEmail": null,
    "categoryName": "PRIMARY CARE CLINIC",
    "categoryCode": "COMTYC",
    "licenseStatus": "ACTIVE",
    "inService": true,
    "licenseNumber": "550000408",
    "licenseEffectiveDate": "11/01/2025",
    "licenseExpirationDate": "10/31/2026",
    "dataDate": "10/18/2025",
    "capacity": 0,
    "address": "915 E ORANGEWOOD AVE, SUITE 200",
    "city": "ANAHEIM",
    "zip": "92802",
    "county": "ORANGE",
    "phone": null,
    "lat": 33.796664,
    "lng": -117.897136
  },
  {
    "id": "060001577",
    "name": "GILBUCK DRIVE HOME",
    "npi": "1801922802",
    "hcaiId": null,
    "businessName": "RSCR CALIFORNIA, INC.",
    "contactEmail": "SERENA.ROJAS@RESCARE.COM",
    "categoryName": "INTERMEDIATE CARE FACILITY-DD/H/N/CN/IID",
    "categoryCode": "ICFDDH",
    "licenseStatus": "ACTIVE",
    "inService": true,
    "licenseNumber": "060000496",
    "licenseEffectiveDate": "01/06/2025",
    "licenseExpirationDate": "01/05/2026",
    "dataDate": "10/18/2025",
    "capacity": 6,
    "address": "818 S GILBUCK DR",
    "city": "ANAHEIM",
    "zip": "92802",
    "county": "ORANGE",
    "phone": "(213) 298-7276",
    "lat": 33.821064,
    "lng": -117.933084
  },
  {
    "id": "630018680",
    "name": "LORANE WAY",
    "npi": "1467095935",
    "hcaiId": null,
    "businessName": "RSCR CALIFORNIA, INC.",
    "contactEmail": "SERENA.ROJAS@RESCARE.COM",
    "categoryName": "INTERMEDIATE CARE FACILITY-DD/H/N/CN/IID",
    "categoryCode": "ICFDDN",
    "licenseStatus": "ACTIVE",
    "inService": true,
    "licenseNumber": "550006659",
    "licenseEffectiveDate": "06/15/2025",
    "licenseExpirationDate": "06/14/2026",
    "dataDate": "10/18/2025",
    "capacity": 6,
    "address": "1592 W LORANE WAY",
    "city": "ANAHEIM",
    "zip": "92802",
    "county": "ORANGE",
    "phone": "(909) 305-9663",
    "lat": 33.794271,
    "lng": -117.9364365
  },
  {
    "id": "630017454",
    "name": "MISSION CITY COMMUNITY NETWORK, INC. - ANAHEIM",
    "npi": null,
    "hcaiId": null,
    "businessName": "MISSION CITY COMMUNITY NETWORK, INC.",
    "contactEmail": "NIKG@MCCN.ORG",
    "categoryName": "PRIMARY CARE CLINIC",
    "categoryCode": "COMTYC",
    "licenseStatus": "ACTIVE",
    "inService": true,
    "licenseNumber": "550001802",
    "licenseEffectiveDate": "01/06/2025",
    "licenseExpirationDate": "01/05/2026",
    "dataDate": "10/18/2025",
    "capacity": 0,
    "address": "1661 W BROADWAY, UNIT 11",
    "city": "ANAHEIM",
    "zip": "92802",
    "county": "ORANGE",
    "phone": "(818) 895-3100",
    "lat": 33.82938,
    "lng": -117.939825
  },
  {
    "id": "630025799",
    "name": "PONDEROSA HEALTH CENTER",
    "npi": null,
    "hcaiId": null,
    "businessName": "ST. JUDE NEIGHBORHOOD HEALTH CENTERS",
    "contactEmail": null,
    "categoryName": "PRIMARY CARE CLINIC",
    "categoryCode": "COMTYC",
    "licenseStatus": "ACTIVE",
    "inService": true,
    "licenseNumber": "550000408",
    "licenseEffectiveDate": "11/01/2025",
    "licenseExpirationDate": "10/31/2026",
    "dataDate": "10/18/2025",
    "capacity": 0,
    "address": "330 E ORANGEWOOD AVE",
    "city": "ANAHEIM",
    "zip": "92802",
    "county": "ORANGE",
    "phone": "(714) 716-2584",
    "lat": 33.795828,
    "lng": -117.9039015
  }
]