[
  {
    "id": "630016683",
    "name": "AMBERKARE HOME HEALTH, INC.",
    "npi": "1811358823",
    "hcaiId": "406304622",
    "businessName": "AMBERKARE HOME HEALTH, INC",
    "contactEmail": "HEALTH@AMBERKARE.COM",
    "categoryName": "HOME HEALTH AGENCY",
    "categoryCode": "HHA",
    "licenseStatus": "ACTIVE",
    "inService": true,
    "licenseNumber": "550003886",
    "licenseEffectiveDate": "05/22/2025",
    "licenseExpirationDate": "05/21/2026",
    "dataDate": "10/18/2025",
    "capacity": 0,
    "address": "595 W LAMBERT RD, SUITE 201",
    "city": "BREA",
    "zip": "92821",
    "county": "ORANGE",
    "phone": "(714) 447-9300",
    "lat": 33.924924,
    "lng": -117.9061335
  },
  {
    "id": "630021639",
    "name": "BETA CARING HANDS HOSPICE, INC.",
    "npi": null,
    "hcaiId": "406303177",
    "businessName": "BETA CARING HANDS HOSPICE, INC.",
    "contactEmail": "BETACARING@GMAIL.COM",
    "categoryName": "HOSPICE",
    "categoryCode": "HOSPICE",
    "licenseStatus": "ACTIVE",
    "inService": true,
    "licenseNumber": "550007029",
    "licenseEffectiveDate": "10/21/2023",
    "licenseExpirationDate": "10/20/2025",
    "dataDate": "10/18/2025",
    "capacity": 0,
    "address": "110 W FIR ST, SUITE 4",
    "city": "BREA",
    "zip": "92821",
    "county": "ORANGE",
    "phone": "(714) 784-6114",
    "lat": 33.909894,
    "lng": -117.9046125
  },
  {
    "id": "080001586",
    "name": "BREA DIALYSIS CENTER",
    "npi": "1134188923",
    "hcaiId": "306300209",
    "businessName": "RENAL TREATMENT CENTERS - CALIFORNIA, INC.",
    "contactEmail": "CAL_C@DAVITA.COM",
    "categoryName": "CHRONIC DIALYSIS CLINIC",
    "categoryCode": "ESRD/CDC",
    "licenseStatus": "ACTIVE",
    "inService": true,
    "licenseNumber": "080000678",
    "licenseEffectiveDate": "12/02/2024",
    "licenseExpirationDate": "12/01/2025",
    "dataDate": "10/18/2025",
    "capacity": 21,
    "address": "595 TAMARACK AVE, SUITE A",
    "city": "BREA",
    "zip": "92821",
    "county": "ORANGE",
    "phone": "(714) 990-0110",
    "lat": 33.927993,
    "lng": -117.900612
  },
  {
    "id": "630020613",
    "name": "GABRIELLE HOSPICE CARE, INC.",
    "npi": null,
    "hcaiId": "406303591",
    "businessName": "GABRIELLE HOSPICE CARE, INC.",
    "contactEmail": "GABRIELLE.HOSPICE@GMAIL.COM",
    "categoryName": "HOSPICE",
    "categoryCode": "HOSPICE",
    "licenseStatus": "ACTIVE",
    "inService": true,
    "licenseNumber": "550006496",
    "licenseEffectiveDate": "06/30/2025",
    "licenseExpirationDate": "06/29/2027",
    "dataDate": "10/18/2025",
    "capacity": 0,
    "address": "238 S ORANGE AVE, SUITE 201",
    "city": "BREA",
    "zip": "92821",
    "county": "ORANGE",
    "phone": "(714) 798-2522",
    "lat": 33.91656339,
    "lng": -117.8989138
  },
  {
    "id": "060002085",
    "name": "HEALTHCARE SOLUTIONS SERVICES, INC.",
    "npi": "1548257108",
    "hcaiId": "406304396",
    "businessName": "HEALTHCARE SOLUTIONS SERVICES, INC.",
    "contactEmail": "OFFICE.HSSI@GMAIL.COM",
    "categoryName": "HOME HEALTH AGENCY",
    "categoryCode": "HHA",
    "licenseStatus": "ACTIVE",
    "inService": true,
    "licenseNumber": "060000838",
    "licenseEffectiveDate": "12/19/2024",
    "licenseExpirationDate": "12/18/2025",
    "dataDate": "10/18/2025",
    "capacity": 0,
    "address": "265 S RANDOLPH AVE, SUITE 280",
    "city": "BREA",
    "zip": "92821",
    "county": "ORANGE",
    "phone": "(714) 674-7403",
    "lat": 33.914673,
    "lng": -117.890847
  },
  {
    "id": "980001302",
    "name": "HOME CARE NURSES AND HOME CARE PROVIDERS",
    "npi": null,
    "hcaiId": "406304552",
    "businessName": "WESTERN HEALTHCARE SERVICES, LLC",
    "contactEmail": "SHUBER@HOMECAREPROVIDERS.COM",
    "categoryName": "HOME HEALTH AGENCY",
    "categoryCode": "HHA",
    "licenseStatus": "ACTIVE",
    "inService": true,
    "licenseNumber": "980000776",
    "licenseEffectiveDate": "04/20/2025",
    "licenseExpirationDate": "04/19/2026",
    "dataDate": "10/18/2025",
    "capacity": 0,
    "address": "259 S RANDOLPH AVE, SUITE 180K",
    "city": "BREA",
    "zip": "92821",
    "county": "ORANGE",
    "phone": "(714) 671-6877",
    "lat": 33.914673,
    "lng": -117.890847
  },
  {
    "id": "060001360",
    "name": "KINDRED HOSPITAL BREA",
    "npi": "1780768416",
    "hcaiId": "106301127",
    "businessName": "THC - ORANGE COUNTY, LLC",
    "contactEmail": "LINDA.ROMAN@KINDRED.COM",
    "categoryName": "GENERAL ACUTE CARE HOSPITAL",
    "categoryCode": "GACH",
    "licenseStatus": "ACTIVE",
    "inService": true,
    "licenseNumber": "060000407",
    "licenseEffectiveDate": "09/01/2025",
    "licenseExpirationDate": "03/02/2026",
    "dataDate": "10/18/2025",
    "capacity": 48,
    "address": "875 N BREA BLVD",
    "city": "BREA",
    "zip": "92821",
    "county": "ORANGE",
    "phone": "(562) 599-8544",
    "lat": 33.934464,
    "lng": -117.894024
  },
  {
    "id": "630012080",
    "name": "KINDRED HOSPITAL BREA D/P SNF",
    "npi": "1629240577",
    "hcaiId": null,
    "businessName": "THC - ORANGE COUNTY, LLC",
    "contactEmail": "LALA.GHARIBIAN@KINDRED.COM",
    "categoryName": "SKILLED NURSING FACILITY",
    "categoryCode": "SNF",
    "licenseStatus": "ACTIVE",
    "inService": true,
    "licenseNumber": "060000407",
    "licenseEffectiveDate": "09/01/2025",
    "licenseExpirationDate": "03/02/2026",
    "dataDate": "10/18/2025",
    "capacity": 38,
    "address": "875 N BREA BLVD",
    "city": "BREA",
    "zip": "92821",
    "county": "ORANGE",
    "phone": "(714) 672-7223",
    "lat": 33.934464,
    "lng": -117.894024
  },
  {
    "id": "630014283",
    "name": "SAINT VERENA HOSPICE CARE, INC.",
    "npi": "1386985265",
    "hcaiId": "406304548",
    "businessName": "SAINT VERENA HOSPICE CARE, INC.",
    "contactEmail": "SAINTVERENAHOSPICE@YAHOO.COM",
    "categoryName": "HOSPICE",
    "categoryCode": "HOSPICE",
    "licenseStatus": "ACTIVE",
    "inService": true,
    "licenseNumber": "550002591",
    "licenseEffectiveDate": "02/24/2024",
    "licenseExpirationDate": "02/23/2026",
    "dataDate": "10/18/2025",
    "capacity": 0,
    "address": "500 S KRAEMER BLVD",
    "city": "BREA",
    "zip": "92821",
    "county": "ORANGE",
    "phone": "(714) 528-8856",
    "lat": 33.91089856,
    "lng": -117.8636726
  },
  {
    "id": "630021747",
    "name": "WECARE HOSPICE AND PALLIATIVE SERVICES INC.",
    "npi": null,
    "hcaiId": "406300033",
    "businessName": "WECARE HOSPICE AND PALLIATIVE SERVICES INC",
    "contactEmail": "WECAREHOSPICEANDPALLIATIVE@GMAIL.COM",
    "categoryName": "HOSPICE",
    "categoryCode": "HOSPICE",
    "licenseStatus": "ACTIVE",
    "inService": true,
    "licenseNumber": "550007297",
    "licenseEffectiveDate": "04/12/2024",
    "licenseExpirationDate": "12/01/2025",
    "dataDate": "10/18/2025",
    "capacity": 0,
    "address": "405 S STATE COLLEGE BLVD, SUITE 206",
    "city": "BREA",
    "zip": "92821",
    "county": "ORANGE",
    "phone": "(714) 784-0983",
    "lat": 33.91030299,
    "lng": -117.889092
  }
]