[
  {
    "id": "630013151",
    "name": "AID & CARE HOSPICE, INC.",
    "npi": null,
    "hcaiId": "406304480",
    "businessName": "AID & CARE HOSPICE, INC.",
    "contactEmail": "AIDENCAREHOSPICE@GMAIL.COM",
    "categoryName": "HOSPICE",
    "categoryCode": "HOSPICE",
    "licenseStatus": "ACTIVE",
    "inService": true,
    "licenseNumber": "550001779",
    "licenseEffectiveDate": "09/02/2025",
    "licenseExpirationDate": "10/24/2025",
    "dataDate": "10/18/2025",
    "capacity": 0,
    "address": "140 E COMMONWEALTH AVE, SUITE 207",
    "city": "FULLERTON",
    "zip": "92832",
    "county": "ORANGE",
    "phone": "(714) 869-3736",
    "lat": 33.8701173,
    "lng": -117.9222485
  },
  {
    "id": "630027096",
    "name": "AT HOME DIALYSIS LLC",
    "npi": "1790401677",
    "hcaiId": null,
    "businessName": null,
    "contactEmail": "MIKE@STATEWIDERE.NET",
    "categoryName": "CHRONIC DIALYSIS CLINIC",
    "categoryCode": "ESRD",
    "licenseStatus": null,
    "inService": null,
    "licenseNumber": null,
    "licenseEffectiveDate": null,
    "licenseExpirationDate": null,
    "dataDate": "10/18/2025",
    "capacity": 0,
    "address": "340 E COMMONWEALTH AVE",
    "city": "FULLERTON",
    "zip": "92832",
    "county": "ORANGE",
    "phone": "(714) 654-0465",
    "lat": 33.87016499,
    "lng": -117.918102
  },
  {
    "id": "080001590",
    "name": "FULLERTON DIALYSIS",
    "npi": "1881668093",
    "hcaiId": "306301675",
    "businessName": "DVA RENAL HEALTHCARE, INC.",
    "contactEmail": "CAL_C@DAVITA.COM",
    "categoryName": "CHRONIC DIALYSIS CLINIC",
    "categoryCode": "ESRD/CDC",
    "licenseStatus": "ACTIVE",
    "inService": true,
    "licenseNumber": "080000682",
    "licenseEffectiveDate": "06/11/2025",
    "licenseExpirationDate": "06/10/2026",
    "dataDate": "10/18/2025",
    "capacity": 25,
    "address": "238 ORANGEFAIR MALL",
    "city": "FULLERTON",
    "zip": "92832",
    "county": "ORANGE",
    "phone": "(714) 447-3045",
    "lat": 33.857901,
    "lng": -117.921006
  },
  {
    "id": "630018942",
    "name": "FULLERTON UNION HIGH SCHOOL, ADMIN BLDG.",
    "npi": "1497203541",
    "hcaiId": null,
    "businessName": "VISTA COMMUNITY CLINIC",
    "contactEmail": null,
    "categoryName": "PRIMARY CARE CLINIC",
    "categoryCode": "COMTYC",
    "licenseStatus": "ACTIVE",
    "inService": true,
    "licenseNumber": "550003781",
    "licenseEffectiveDate": "02/06/2025",
    "licenseExpirationDate": "02/05/2026",
    "dataDate": "10/18/2025",
    "capacity": 0,
    "address": "201 E CHAPMAN AVE",
    "city": "FULLERTON",
    "zip": "92832",
    "county": "ORANGE",
    "phone": null,
    "lat": 33.874479,
    "lng": -117.920277
  },
  {
    "id": "630028540",
    "name": "LESTONNAC FREE CLINIC (FULLERTON)",
    "npi": null,
    "hcaiId": null,
    "businessName": "ST JEANNE DE LESTONNAC FREE CLINIC",
    "contactEmail": null,
    "categoryName": "PRIMARY CARE CLINIC",
    "categoryCode": "FREEC",
    "licenseStatus": "ACTIVE",
    "inService": true,
    "licenseNumber": "060000070",
    "licenseEffectiveDate": "12/18/2024",
    "licenseExpirationDate": "12/17/2025",
    "dataDate": "10/18/2025",
    "capacity": 0,
    "address": "505 E COMMONWEALTH AVE",
    "city": "FULLERTON",
    "zip": "92832",
    "county": "ORANGE",
    "phone": null,
    "lat": 33.87078,
    "lng": -117.915183
  },
  {
    "id": "060000168",
    "name": "ST. CATHERINE HEALTHCARE",
    "npi": "1578656427",
    "hcaiId": "206301381",
    "businessName": "SANTA CATALINA HEALTHCARE, INC",
    "contactEmail": "RLOOPER@ENSIGNSERVICES.NET",
    "categoryName": "SKILLED NURSING FACILITY",
    "categoryCode": "SNF",
    "licenseStatus": "ACTIVE",
    "inService": true,
    "licenseNumber": "060000184",
    "licenseEffectiveDate": "12/26/2024",
    "licenseExpirationDate": "12/25/2025",
    "dataDate": "10/18/2025",
    "capacity": 99,
    "address": "245 E WILSHIRE AVE",
    "city": "FULLERTON",
    "zip": "92832",
    "county": "ORANGE",
    "phone": "(714) 871-6020",
    "lat": 33.872697,
    "lng": -117.9204525
  },
  {
    "id": "630007241",
    "name": "ST. JUDE NEIGHBORHOOD HEALTH CENTER",
    "npi": "1316206592",
    "hcaiId": "306304388",
    "businessName": "ST. JUDE NEIGHBORHOOD HEALTH CENTERS",
    "contactEmail": "TIMOTHY.BROWN@STJOE.ORG",
    "categoryName": "PRIMARY CARE CLINIC",
    "categoryCode": "COMTYC",
    "licenseStatus": "ACTIVE",
    "inService": true,
    "licenseNumber": "550000408",
    "licenseEffectiveDate": "11/01/2025",
    "licenseExpirationDate": "10/31/2026",
    "dataDate": "10/18/2025",
    "capacity": 0,
    "address": "731 S HIGHLAND AVE",
    "city": "FULLERTON",
    "zip": "92832",
    "county": "ORANGE",
    "phone": "(714) 446-5100",
    "lat": 33.863607,
    "lng": -117.929565
  },
  {
    "id": "630016442",
    "name": "ST. JUDE NEIGHBORHOOD HEALTH CENTERS MOBILE VAN",
    "npi": "1316206592",
    "hcaiId": null,
    "businessName": "ST. JUDE NEIGHBORHOOD HEALTH CENTERS",
    "contactEmail": null,
    "categoryName": "PRIMARY CARE CLINIC",
    "categoryCode": "COMTYC",
    "licenseStatus": "ACTIVE",
    "inService": true,
    "licenseNumber": "550000408",
    "licenseEffectiveDate": "11/01/2025",
    "licenseExpirationDate": "10/31/2026",
    "dataDate": "10/18/2025",
    "capacity": 0,
    "address": "731 S. HIGHLAND AVE.",
    "city": "FULLERTON",
    "zip": "92832",
    "county": "ORANGE",
    "phone": null,
    "lat": 33.863607,
    "lng": -117.929565
  },
  {
    "id": "060001586",
    "name": "WASHINGTON AVENUE HOME",
    "npi": "1821124868",
    "hcaiId": null,
    "businessName": "RSCR CALIFORNIA, INC.",
    "contactEmail": "SERENA.ROJAS@RESCARE.COM",
    "categoryName": "INTERMEDIATE CARE FACILITY-DD/H/N/CN/IID",
    "categoryCode": "ICFDDN",
    "licenseStatus": "ACTIVE",
    "inService": true,
    "licenseNumber": "060000500",
    "licenseEffectiveDate": "01/22/2025",
    "licenseExpirationDate": "01/21/2026",
    "dataDate": "10/18/2025",
    "capacity": 6,
    "address": "604 S WASHINGTON AVE",
    "city": "FULLERTON",
    "zip": "92832",
    "county": "ORANGE",
    "phone": "(714) 870-5018",
    "lat": 33.865254,
    "lng": -117.937602
  }
]