[
  {
    "id": "060001660",
    "name": "CHERUB HOME",
    "npi": "1316021942",
    "hcaiId": null,
    "businessName": "PILAR M. DE CASTRO & CO., INC.",
    "contactEmail": "EDUVENTUREINC@YAHOO.COM",
    "categoryName": "INTERMEDIATE CARE FACILITY-DD/H/N/CN/IID",
    "categoryCode": "ICFDDH",
    "licenseStatus": "ACTIVE",
    "inService": true,
    "licenseNumber": "060000529",
    "licenseEffectiveDate": "01/12/2025",
    "licenseExpirationDate": "01/11/2026",
    "dataDate": "10/18/2025",
    "capacity": 6,
    "address": "2100 CAROL DR",
    "city": "FULLERTON",
    "zip": "92833",
    "county": "ORANGE",
    "phone": "(714) 906-6064",
    "lat": 33.868575,
    "lng": -117.96651
  },
  {
    "id": "060001497",
    "name": "CRISTINA'S HOME",
    "npi": "1790874659",
    "hcaiId": null,
    "businessName": "CERIJON'S HOMES, INC.",
    "contactEmail": "MPAINTER@ATT.NET",
    "categoryName": "INTERMEDIATE CARE FACILITY-DD/H/N/CN/IID",
    "categoryCode": "ICFDDH",
    "licenseStatus": "ACTIVE",
    "inService": true,
    "licenseNumber": "060000472",
    "licenseEffectiveDate": "03/24/2025",
    "licenseExpirationDate": "03/23/2026",
    "dataDate": "10/18/2025",
    "capacity": 6,
    "address": "1455 W WOODCREST AVE",
    "city": "FULLERTON",
    "zip": "92833",
    "county": "ORANGE",
    "phone": "(714) 343-7898",
    "lat": 33.858648,
    "lng": -117.9519705
  },
  {
    "id": "630024227",
    "name": "GOOD PEOPLE HOME HEALTH, INC",
    "npi": null,
    "hcaiId": "406305616",
    "businessName": "GOOD PEOPLE HOME HEALTH, INC",
    "contactEmail": "GOODPEOPLEHHA@GMAIL.COM",
    "categoryName": "HOME HEALTH AGENCY",
    "categoryCode": "HHA",
    "licenseStatus": "ACTIVE",
    "inService": true,
    "licenseNumber": "550008116",
    "licenseEffectiveDate": "08/08/2025",
    "licenseExpirationDate": "08/07/2026",
    "dataDate": "10/18/2025",
    "capacity": 0,
    "address": "1309 W VALENCIA DR, SUITE H",
    "city": "FULLERTON",
    "zip": "92833",
    "county": "ORANGE",
    "phone": "(714) 750-9980",
    "lat": 33.866802,
    "lng": -117.9487305
  },
  {
    "id": "630018879",
    "name": "REDAN MEDICAL, INC.",
    "npi": null,
    "hcaiId": "406302484",
    "businessName": "REDAN MEDICAL, INC.",
    "contactEmail": "INFO@REDANMEDICAL.COM",
    "categoryName": "HOME HEALTH AGENCY",
    "categoryCode": "HHA",
    "licenseStatus": "ACTIVE",
    "inService": true,
    "licenseNumber": "550005477",
    "licenseEffectiveDate": "03/30/2025",
    "licenseExpirationDate": "03/29/2026",
    "dataDate": "10/18/2025",
    "capacity": 0,
    "address": "2736 W ORANGETHORPE AVE, UNIT 21",
    "city": "FULLERTON",
    "zip": "92833",
    "county": "ORANGE",
    "phone": "(949) 666-2233",
    "lat": 33.85832899,
    "lng": -117.975404
  },
  {
    "id": "060000140",
    "name": "SIERRA HEALTH CENTER",
    "npi": null,
    "hcaiId": "306300052",
    "businessName": "REPRODUCTIVE HEALTH CARE CENTER, INC.",
    "contactEmail": "SIERRA@SHCENTER.ORG",
    "categoryName": "PRIMARY CARE CLINIC",
    "categoryCode": "COMTYC",
    "licenseStatus": "ACTIVE",
    "inService": true,
    "licenseNumber": "060000016",
    "licenseEffectiveDate": "11/24/2024",
    "licenseExpirationDate": "11/23/2025",
    "dataDate": "10/18/2025",
    "capacity": 0,
    "address": "501 S BROOKHURST RD",
    "city": "FULLERTON",
    "zip": "92833",
    "county": "ORANGE",
    "phone": "(714) 870-0717",
    "lat": 33.865047,
    "lng": -117.95985
  },
  {
    "id": "630019010",
    "name": "SUNNY HILLS HIGH SCHOOL (VCC: COMMUNITY SMILES ORANG COUNTY)",
    "npi": "1497203541",
    "hcaiId": null,
    "businessName": "VISTA COMMUNITY CLINIC",
    "contactEmail": null,
    "categoryName": "PRIMARY CARE CLINIC",
    "categoryCode": "COMTYC",
    "licenseStatus": "ACTIVE",
    "inService": true,
    "licenseNumber": "550003781",
    "licenseEffectiveDate": "02/06/2025",
    "licenseExpirationDate": "02/05/2026",
    "dataDate": "10/18/2025",
    "capacity": 0,
    "address": "1801 WARBURTON WAY, ROOM 1",
    "city": "FULLERTON",
    "zip": "92833",
    "county": "ORANGE",
    "phone": null,
    "lat": 33.88261646,
    "lng": -117.9530505
  }
]