[
  {
    "id": "630021791",
    "name": "BROOKSIDE HOSPICE",
    "npi": null,
    "hcaiId": "406305201",
    "businessName": "BROOKSIDE HOSPICE",
    "contactEmail": "BROOKSIDEHOSPICE@GMAIL.COM",
    "categoryName": "HOSPICE",
    "categoryCode": "HOSPICE",
    "licenseStatus": "ACTIVE",
    "inService": true,
    "licenseNumber": "550007496",
    "licenseEffectiveDate": "12/17/2023",
    "licenseExpirationDate": "12/16/2025",
    "dataDate": "10/18/2025",
    "capacity": 0,
    "address": "2461 E ORANGETHORPE AVE, SUITE 220",
    "city": "FULLERTON",
    "zip": "92831",
    "county": "ORANGE",
    "phone": "(626) 784-5788",
    "lat": 33.860232,
    "lng": -117.8866665
  },
  {
    "id": "630011248",
    "name": "CALIFORNIA'S BEST HOME HEALTH SERVICES, INC.",
    "npi": "1841329273",
    "hcaiId": "406304430",
    "businessName": "CALIFORNIA'S BEST HOME HEALTH SERVICES, INC.",
    "contactEmail": "CALBESTHOMEHEALTH@SBCGLOBAL.NET",
    "categoryName": "HOME HEALTH AGENCY",
    "categoryCode": "HHA",
    "licenseStatus": "ACTIVE",
    "inService": true,
    "licenseNumber": "550000771",
    "licenseEffectiveDate": "11/28/2024",
    "licenseExpirationDate": "11/27/2025",
    "dataDate": "10/18/2025",
    "capacity": 0,
    "address": "2495 E ORANGETHORPE AVE, SUITE 101",
    "city": "FULLERTON",
    "zip": "92831",
    "county": "ORANGE",
    "phone": "(714) 991-0996",
    "lat": 33.860205,
    "lng": -117.885753
  },
  {
    "id": "630014423",
    "name": "CALIFORNIA'S BEST HOSPICE SERVICES, INC.",
    "npi": "1396180402",
    "hcaiId": "406304604",
    "businessName": "CALIFORNIA'S BEST HOSPICE SERVICES, INC.",
    "contactEmail": "CALBESTHOSPICE@YAHOO.COM",
    "categoryName": "HOSPICE",
    "categoryCode": "HOSPICE",
    "licenseStatus": "ACTIVE",
    "inService": true,
    "licenseNumber": "550002686",
    "licenseEffectiveDate": "05/28/2024",
    "licenseExpirationDate": "05/27/2026",
    "dataDate": "10/18/2025",
    "capacity": 0,
    "address": "2495 E ORANGETHORPE AVE, SUITE 100",
    "city": "FULLERTON",
    "zip": "92831",
    "county": "ORANGE",
    "phone": "(714) 991-0909",
    "lat": 33.860205,
    "lng": -117.885753
  },
  {
    "id": "980002262",
    "name": "CARECHOICES HOME HEALTH SERVICES, LLC.",
    "npi": "1992943161",
    "hcaiId": "406304517",
    "businessName": "CARECHOICES HOME HEALTH SERVICES, LLC.",
    "contactEmail": "TOM.ROTH@CARECHOICES.NET",
    "categoryName": "HOME HEALTH AGENCY",
    "categoryCode": "HHA",
    "licenseStatus": "ACTIVE",
    "inService": true,
    "licenseNumber": "980001378",
    "licenseEffectiveDate": "01/20/2025",
    "licenseExpirationDate": "01/19/2026",
    "dataDate": "10/18/2025",
    "capacity": 0,
    "address": "1501 E ORANGETHORPE AVE, SUITE 220",
    "city": "FULLERTON",
    "zip": "92831",
    "county": "ORANGE",
    "phone": "(714) 515-7650",
    "lat": 33.85998,
    "lng": -117.9022275
  },
  {
    "id": "630020610",
    "name": "CHAPMAN HOME TRAINING",
    "npi": null,
    "hcaiId": null,
    "businessName": null,
    "contactEmail": "SELMA.SAUCERMAN@DAVITA.COM",
    "categoryName": "CHRONIC DIALYSIS CLINIC",
    "categoryCode": "ESRD",
    "licenseStatus": null,
    "inService": null,
    "licenseNumber": null,
    "licenseEffectiveDate": null,
    "licenseExpirationDate": null,
    "dataDate": "10/18/2025",
    "capacity": 0,
    "address": "172 N RAYMOND AVE",
    "city": "FULLERTON",
    "zip": "92831",
    "county": "ORANGE",
    "phone": "(657) 378-6899",
    "lat": 33.872301,
    "lng": -117.906795
  },
  {
    "id": "630003161",
    "name": "CROSSROADS DIALYSIS",
    "npi": "1891756276",
    "hcaiId": "306304354",
    "businessName": "FULLERTON DIALYSIS CENTER, LLC",
    "contactEmail": "CAL_C@DAVITA.COM",
    "categoryName": "CHRONIC DIALYSIS CLINIC",
    "categoryCode": "ESRD/CDC",
    "licenseStatus": "ACTIVE",
    "inService": true,
    "licenseNumber": "550000051",
    "licenseEffectiveDate": "06/29/2025",
    "licenseExpirationDate": "06/28/2026",
    "dataDate": "10/18/2025",
    "capacity": 24,
    "address": "3214 YORBA LINDA BLVD",
    "city": "FULLERTON",
    "zip": "92831",
    "county": "ORANGE",
    "phone": "(714) 577-6940",
    "lat": 33.888537,
    "lng": -117.869823
  },
  {
    "id": "060000046",
    "name": "GORDON LANE CARE CENTER",
    "npi": "1205932126",
    "hcaiId": "206301189",
    "businessName": "GORDON LANE HEALTHCARE, LLC",
    "contactEmail": "ADMIN@GORDONLANECARECENTER.COM",
    "categoryName": "SKILLED NURSING FACILITY",
    "categoryCode": "SNF",
    "licenseStatus": "ACTIVE",
    "inService": true,
    "licenseNumber": "060000118",
    "licenseEffectiveDate": "12/02/2024",
    "licenseExpirationDate": "12/01/2025",
    "dataDate": "10/18/2025",
    "capacity": 99,
    "address": "1821 E CHAPMAN AVE",
    "city": "FULLERTON",
    "zip": "92831",
    "county": "ORANGE",
    "phone": "(714) 879-7301",
    "lat": 33.874533,
    "lng": -117.897201
  },
  {
    "id": "630019549",
    "name": "HOSPICE OF PEACE INC",
    "npi": null,
    "hcaiId": "406305171",
    "businessName": "HOSPICE OF PEACE INC",
    "contactEmail": "CHET.KHAY@HOSPICEPEACE.COM",
    "categoryName": "HOSPICE",
    "categoryCode": "HOSPICE",
    "licenseStatus": "ACTIVE",
    "inService": true,
    "licenseNumber": "550005909",
    "licenseEffectiveDate": "12/01/2024",
    "licenseExpirationDate": "11/30/2026",
    "dataDate": "10/18/2025",
    "capacity": 0,
    "address": "2461 E ORANGETHORPE AVE, SUITE 209",
    "city": "FULLERTON",
    "zip": "92831",
    "county": "ORANGE",
    "phone": "(562) 714-3383",
    "lat": 33.860088,
    "lng": -117.886563
  },
  {
    "id": "060001481",
    "name": "INDEPENDENT OPTIONS, INC. SHERWOOD HOUSE",
    "npi": "1851463483",
    "hcaiId": null,
    "businessName": "INDEPENDENT OPTIONS, INC.",
    "contactEmail": "HHILLMAN@INDEPENDENTOPTIONS.ORG",
    "categoryName": "INTERMEDIATE CARE FACILITY-DD/H/N/CN/IID",
    "categoryCode": "ICFDDN",
    "licenseStatus": "ACTIVE",
    "inService": true,
    "licenseNumber": "060000468",
    "licenseEffectiveDate": "11/02/2024",
    "licenseExpirationDate": "11/01/2025",
    "dataDate": "10/18/2025",
    "capacity": 6,
    "address": "2625 SHERWOOD AVE",
    "city": "FULLERTON",
    "zip": "92831",
    "county": "ORANGE",
    "phone": "(714) 349-0568",
    "lat": 33.893253,
    "lng": -117.882882
  },
  {
    "id": "630016441",
    "name": "TOPAZ CLINIC",
    "npi": "1316206592",
    "hcaiId": null,
    "businessName": "ST. JUDE NEIGHBORHOOD HEALTH CENTERS",
    "contactEmail": null,
    "categoryName": "PRIMARY CARE CLINIC",
    "categoryCode": "COMTYC",
    "licenseStatus": "ACTIVE",
    "inService": true,
    "licenseNumber": "550000408",
    "licenseEffectiveDate": "11/01/2025",
    "licenseExpirationDate": "10/31/2026",
    "dataDate": "10/18/2025",
    "capacity": 0,
    "address": "3232 TOPAZ LANE",
    "city": "FULLERTON",
    "zip": "92831",
    "county": "ORANGE",
    "phone": null,
    "lat": 33.885396,
    "lng": -117.86967
  },
  {
    "id": "630019011",
    "name": "TROY HIGH SCHOOL (VCC: COMMUNITY SMILES ORANGE COUNTY)",
    "npi": "1497203541",
    "hcaiId": null,
    "businessName": "VISTA COMMUNITY CLINIC",
    "contactEmail": null,
    "categoryName": "PRIMARY CARE CLINIC",
    "categoryCode": "COMTYC",
    "licenseStatus": "ACTIVE",
    "inService": true,
    "licenseNumber": "550003781",
    "licenseEffectiveDate": "02/06/2025",
    "licenseExpirationDate": "02/05/2026",
    "dataDate": "10/18/2025",
    "capacity": 0,
    "address": "2200 DOROTHY LN, ROOM 106",
    "city": "FULLERTON",
    "zip": "92831",
    "county": "ORANGE",
    "phone": null,
    "lat": 33.880977,
    "lng": -117.892836
  }
]