[
  {
    "id": "630019045",
    "name": "ADJUSTABLE CARE LIFE INC.",
    "npi": null,
    "hcaiId": "406302204",
    "businessName": "ADJUSTABLE CARE LIFE INC.",
    "contactEmail": "RONAK.VAZA@CC-HOSPICE.COM",
    "categoryName": "HOSPICE",
    "categoryCode": "HOSPICE",
    "licenseStatus": "ACTIVE",
    "inService": true,
    "licenseNumber": "550005174",
    "licenseEffectiveDate": "11/13/2025",
    "licenseExpirationDate": "12/15/2025",
    "dataDate": "10/18/2025",
    "capacity": 0,
    "address": "1440 N HARBOR BLVD, SUITE 600B",
    "city": "FULLERTON",
    "zip": "92835",
    "county": "ORANGE",
    "phone": "(657) 378-9020",
    "lat": 33.885351,
    "lng": -117.925281
  },
  {
    "id": "630011701",
    "name": "ALLIANCE SURGERY CENTER INC",
    "npi": "1275638413",
    "hcaiId": null,
    "businessName": null,
    "contactEmail": "TLAWSON@PHYSICIANPARTNERSOA.COM",
    "categoryName": "SURGICAL CLINIC",
    "categoryCode": "ASC",
    "licenseStatus": null,
    "inService": null,
    "licenseNumber": null,
    "licenseEffectiveDate": null,
    "licenseExpirationDate": null,
    "dataDate": "10/18/2025",
    "capacity": 0,
    "address": "295 IMPERIAL HWY, SUITE 200B",
    "city": "FULLERTON",
    "zip": "92835",
    "county": "ORANGE",
    "phone": "(714) 770-8400",
    "lat": 33.917877,
    "lng": -117.929223
  },
  {
    "id": "630014808",
    "name": "BASTANCHURY DIALYSIS",
    "npi": "1154755163",
    "hcaiId": "306304553",
    "businessName": "HAZELTON DIALYSIS LLC",
    "contactEmail": "CAL_C@DAVITA.COM",
    "categoryName": "CHRONIC DIALYSIS CLINIC",
    "categoryCode": "ESRD/CDC",
    "licenseStatus": "ACTIVE",
    "inService": true,
    "licenseNumber": "550002663",
    "licenseEffectiveDate": "04/08/2025",
    "licenseExpirationDate": "04/07/2026",
    "dataDate": "10/18/2025",
    "capacity": 25,
    "address": "1950 SUNNY CREST DR, SUITE 1300",
    "city": "FULLERTON",
    "zip": "92835",
    "county": "ORANGE",
    "phone": "(714) 578-0015",
    "lat": 33.893046,
    "lng": -117.9312345
  },
  {
    "id": "630027915",
    "name": "BRIGHTSTAR CARE OF CA-ANAHEIM/YORBA LINDA",
    "npi": null,
    "hcaiId": null,
    "businessName": "CNST HEALTH CARE",
    "contactEmail": "PETER.NGIN@BRIGHTSTARCARE.COM",
    "categoryName": "HOME HEALTH AGENCY",
    "categoryCode": "HHA",
    "licenseStatus": "ACTIVE",
    "inService": true,
    "licenseNumber": "550009851",
    "licenseEffectiveDate": "05/17/2025",
    "licenseExpirationDate": "11/16/2025",
    "dataDate": "10/18/2025",
    "capacity": 0,
    "address": "1440 N HARBOR BLVD, SUITE 721",
    "city": "FULLERTON",
    "zip": "92835",
    "county": "ORANGE",
    "phone": "(714) 361-5586",
    "lat": 33.88535401,
    "lng": -117.925279
  },
  {
    "id": "630026412",
    "name": "CARDINAL HOME HEALTHCARE SERVICES, INC.",
    "npi": null,
    "hcaiId": null,
    "businessName": "CARDINAL HOME HEALTHCARE SERVICES, INC.",
    "contactEmail": "HELENAKOPYAN@YAHOO.COM",
    "categoryName": "HOME HEALTH AGENCY",
    "categoryCode": "HHA",
    "licenseStatus": "ACTIVE",
    "inService": true,
    "licenseNumber": "550009464",
    "licenseEffectiveDate": "04/21/2025",
    "licenseExpirationDate": "10/20/2025",
    "dataDate": "10/18/2025",
    "capacity": 0,
    "address": "1440 N HARBOR BLVD, SUITE 100G",
    "city": "FULLERTON",
    "zip": "92835",
    "county": "ORANGE",
    "phone": "(760) 996-3171",
    "lat": 33.88535401,
    "lng": -117.925279
  },
  {
    "id": "630025050",
    "name": "ELITE INFUSION CARE LLC",
    "npi": null,
    "hcaiId": "406305936",
    "businessName": "ELITE INFUSION CARE LLC",
    "contactEmail": "ADMIN@ELITEINFUSIONCARE.COM",
    "categoryName": "HOME HEALTH AGENCY",
    "categoryCode": "HHA",
    "licenseStatus": "ACTIVE",
    "inService": true,
    "licenseNumber": "550008231",
    "licenseEffectiveDate": "11/15/2024",
    "licenseExpirationDate": "11/14/2025",
    "dataDate": "10/18/2025",
    "capacity": 0,
    "address": "1440 N HARBOR BLVD, SUITE 916",
    "city": "FULLERTON",
    "zip": "92835",
    "county": "ORANGE",
    "phone": "(714) 519-6993",
    "lat": 33.88563,
    "lng": -117.9252405
  },
  {
    "id": "060002272",
    "name": "FULLERTON SURGICAL CENTER",
    "npi": "1962423574",
    "hcaiId": "306304346",
    "businessName": "FULLETON SURGICAL CENTER, A CA LIMITED PARTNERSHIP",
    "contactEmail": null,
    "categoryName": "SURGICAL CLINIC",
    "categoryCode": "ASC",
    "licenseStatus": "INACTIVE - CAPEN DECISION",
    "inService": false,
    "licenseNumber": "550000031",
    "licenseEffectiveDate": "06/01/2007",
    "licenseExpirationDate": "05/31/2008",
    "dataDate": "10/18/2025",
    "capacity": 0,
    "address": "2240 N HARBOR BLVD, SUITE 100",
    "city": "FULLERTON",
    "zip": "92835",
    "county": "ORANGE",
    "phone": "(310) 414-8200",
    "lat": 33.897717,
    "lng": -117.928854
  },
  {
    "id": "060000156",
    "name": "GREENFIELD CARE CENTER OF FULLERTON, LLC",
    "npi": "1871580480",
    "hcaiId": "206301348",
    "businessName": "GREENFIELD CARE CENTER OF FULLERTON, LLC",
    "contactEmail": "ADMIN@GCCFULLERTON.COM",
    "categoryName": "SKILLED NURSING FACILITY",
    "categoryCode": "SNF",
    "licenseStatus": "ACTIVE",
    "inService": true,
    "licenseNumber": "060000177",
    "licenseEffectiveDate": "01/23/2025",
    "licenseExpirationDate": "01/22/2026",
    "dataDate": "10/18/2025",
    "capacity": 99,
    "address": "330 W BASTANCHURY RD",
    "city": "FULLERTON",
    "zip": "92835",
    "county": "ORANGE",
    "phone": "(562) 340-7863",
    "lat": 33.893271,
    "lng": -117.9325395
  },
  {
    "id": "630014645",
    "name": "HOSPICE OF ORANGE COUNTY, INC.",
    "npi": "1417381336",
    "hcaiId": "406304557",
    "businessName": "HOSPICE OF ORANGE COUNTY, INC.",
    "contactEmail": "E.SOTERO@BUTTERFLYCARE.COM",
    "categoryName": "HOSPICE",
    "categoryCode": "HOSPICE",
    "licenseStatus": "ACTIVE",
    "inService": true,
    "licenseNumber": "550002850",
    "licenseEffectiveDate": "10/08/2024",
    "licenseExpirationDate": "10/07/2026",
    "dataDate": "10/18/2025",
    "capacity": 0,
    "address": "1440 N HARBOR BLVD, SUITE 305A",
    "city": "FULLERTON",
    "zip": "92835",
    "county": "ORANGE",
    "phone": "(714) 587-9077",
    "lat": 33.88563,
    "lng": -117.9252405
  },
  {
    "id": "630015880",
    "name": "LAGUNA SC",
    "npi": "1124441852",
    "hcaiId": null,
    "businessName": null,
    "contactEmail": null,
    "categoryName": "SURGICAL CLINIC",
    "categoryCode": "ASC",
    "licenseStatus": null,
    "inService": null,
    "licenseNumber": null,
    "licenseEffectiveDate": null,
    "licenseExpirationDate": null,
    "dataDate": "10/18/2025",
    "capacity": 0,
    "address": "150 LAGUNA ROAD, SUITE B",
    "city": "FULLERTON",
    "zip": "92835",
    "county": "ORANGE",
    "phone": "(714) 571-9785",
    "lat": 33.893604,
    "lng": -117.930483
  },
  {
    "id": "630025346",
    "name": "MATISA, INC.",
    "npi": null,
    "hcaiId": "406306917",
    "businessName": "MATISA, INC.",
    "contactEmail": "MATISAINC.HH@YAHOO.COM",
    "categoryName": "HOME HEALTH AGENCY",
    "categoryCode": "HHA",
    "licenseStatus": "ACTIVE",
    "inService": true,
    "licenseNumber": "550008625",
    "licenseEffectiveDate": "12/21/2023",
    "licenseExpirationDate": "06/20/2024",
    "dataDate": "10/18/2025",
    "capacity": 0,
    "address": "1440 N HARBOR BLVD, SUITE 103C",
    "city": "FULLERTON",
    "zip": "92835",
    "county": "ORANGE",
    "phone": "(818) 306-7374",
    "lat": 33.88535401,
    "lng": -117.925279
  },
  {
    "id": "060001154",
    "name": "PARK VISTA AT MORNINGSIDE",
    "npi": null,
    "hcaiId": "206304100",
    "businessName": "CORECARE V",
    "contactEmail": "OAKESONC@MSRETIREMENT.COM",
    "categoryName": "SKILLED NURSING FACILITY",
    "categoryCode": "SNF",
    "licenseStatus": "ACTIVE",
    "inService": true,
    "licenseNumber": "060000329",
    "licenseEffectiveDate": "06/24/2025",
    "licenseExpirationDate": "06/23/2026",
    "dataDate": "10/18/2025",
    "capacity": 59,
    "address": "2525 BREA BLVD",
    "city": "FULLERTON",
    "zip": "92835",
    "county": "ORANGE",
    "phone": "(714) 256-1000",
    "lat": 33.897096,
    "lng": -117.9117135
  },
  {
    "id": "060000068",
    "name": "PROVIDENCE ST. JUDE MEDICAL CENTER",
    "npi": "1891904942",
    "hcaiId": "106301342",
    "businessName": "ST. JUDE HOSPITAL",
    "contactEmail": "LAURA.RAMOS@STJOE.ORG",
    "categoryName": "GENERAL ACUTE CARE HOSPITAL",
    "categoryCode": "GACH",
    "licenseStatus": "ACTIVE",
    "inService": true,
    "licenseNumber": "060000173",
    "licenseEffectiveDate": "04/01/2025",
    "licenseExpirationDate": "03/31/2026",
    "dataDate": "10/18/2025",
    "capacity": 320,
    "address": "101 E VALENCIA MESA DR",
    "city": "FULLERTON",
    "zip": "92835",
    "county": "ORANGE",
    "phone": "(714) 992-3909",
    "lat": 33.894594,
    "lng": -117.927333
  },
  {
    "id": "060001507",
    "name": "REIMAGINE NETWORK",
    "npi": null,
    "hcaiId": null,
    "businessName": "REIMAGINE NETWORK",
    "contactEmail": "VPEREZ@REIMAGINEOC.ORG",
    "categoryName": "ADULT DAY HEALTH CARE",
    "categoryCode": "ADHC",
    "licenseStatus": "ACTIVE",
    "inService": true,
    "licenseNumber": "060000475",
    "licenseEffectiveDate": "11/08/2025",
    "licenseExpirationDate": "11/07/2026",
    "dataDate": "10/18/2025",
    "capacity": 0,
    "address": "130 LAGUNA RD",
    "city": "FULLERTON",
    "zip": "92835",
    "county": "ORANGE",
    "phone": "(714) 680-6060",
    "lat": 33.893199,
    "lng": -117.9303255
  },
  {
    "id": "060000029",
    "name": "ST. ELIZABETH HEALTHCARE CENTER",
    "npi": "1285198192",
    "hcaiId": "206301185",
    "businessName": "FULLERTON HEALTHCARE, INC.",
    "contactEmail": "JHYON@ENSIGNSERVICES.NET",
    "categoryName": "SKILLED NURSING FACILITY",
    "categoryCode": "SNF",
    "licenseStatus": "ACTIVE",
    "inService": true,
    "licenseNumber": "060000114",
    "licenseEffectiveDate": "11/02/2025",
    "licenseExpirationDate": "11/01/2026",
    "dataDate": "10/18/2025",
    "capacity": 59,
    "address": "2800 N HARBOR BLVD",
    "city": "FULLERTON",
    "zip": "92835",
    "county": "ORANGE",
    "phone": "(714) 871-9202",
    "lat": 33.902712,
    "lng": -117.928845
  },
  {
    "id": "060001011",
    "name": "ST. JUDE MEDICAL CENTER",
    "npi": "1891904942",
    "hcaiId": null,
    "businessName": "ST. JUDE HOSPITAL",
    "contactEmail": null,
    "categoryName": "OTHER",
    "categoryCode": "PPSREHB",
    "licenseStatus": "ACTIVE",
    "inService": true,
    "licenseNumber": "060000173",
    "licenseEffectiveDate": "04/01/2025",
    "licenseExpirationDate": "03/31/2026",
    "dataDate": "10/18/2025",
    "capacity": 0,
    "address": "101 E VALENCIA MESA DR",
    "city": "FULLERTON",
    "zip": "92835",
    "county": "ORANGE",
    "phone": null,
    "lat": 33.894594,
    "lng": -117.927333
  },
  {
    "id": "060000155",
    "name": "TERRACE VIEW CARE CENTER",
    "npi": "1740265248",
    "hcaiId": "206301347",
    "businessName": "SUN HAVEN CARE, INC.",
    "contactEmail": "BDAHL@TERRACEVIEWCARE.COM",
    "categoryName": "SKILLED NURSING FACILITY",
    "categoryCode": "SNF",
    "licenseStatus": "ACTIVE",
    "inService": true,
    "licenseNumber": "060000176",
    "licenseEffectiveDate": "03/10/2025",
    "licenseExpirationDate": "03/09/2026",
    "dataDate": "10/18/2025",
    "capacity": 59,
    "address": "201 E BASTANCHURY RD",
    "city": "FULLERTON",
    "zip": "92835",
    "county": "ORANGE",
    "phone": "(714) 870-0060",
    "lat": 33.896196,
    "lng": -117.9275625
  },
  {
    "id": "060000041",
    "name": "THE PAVILION AT SUNNY HILLS",
    "npi": "1073944450",
    "hcaiId": "206301107",
    "businessName": "FULLERTON HEALTHCARE & WELLNESS CENTRE, LP",
    "contactEmail": "JOHN.LYNCH@SUNNYHILLSHC.COM",
    "categoryName": "SKILLED NURSING FACILITY",
    "categoryCode": "SNF",
    "licenseStatus": "ACTIVE",
    "inService": true,
    "licenseNumber": "060000205",
    "licenseEffectiveDate": "10/31/2025",
    "licenseExpirationDate": "04/13/2026",
    "dataDate": "10/18/2025",
    "capacity": 228,
    "address": "2222 N HARBOR BLVD",
    "city": "FULLERTON",
    "zip": "92835",
    "county": "ORANGE",
    "phone": "(714) 992-5701",
    "lat": 33.89706,
    "lng": -117.9285795
  }
]