[
  {
    "id": "630027895",
    "name": "ALTAMED DENTAL GROUP AT GILBERT ELEMENTARY SCHOOL",
    "npi": null,
    "hcaiId": null,
    "businessName": "ALTAMED HEALTH SERVICES CORPORATION",
    "contactEmail": null,
    "categoryName": "PRIMARY CARE CLINIC",
    "categoryCode": "COMTYC",
    "licenseStatus": "ACTIVE",
    "inService": true,
    "licenseNumber": "550001008",
    "licenseEffectiveDate": "04/01/2025",
    "licenseExpirationDate": "03/31/2026",
    "dataDate": "10/18/2025",
    "capacity": 0,
    "address": "9551 ORANGEWOOD AVE",
    "city": "GARDEN GROVE",
    "zip": "92841",
    "county": "ORANGE",
    "phone": null,
    "lat": 33.79676001,
    "lng": -117.966388
  },
  {
    "id": "630021469",
    "name": "CAREWELL HOSPICE",
    "npi": null,
    "hcaiId": "406306195",
    "businessName": "CAREWELL HOSPICE",
    "contactEmail": "CAREWELLHOSPICE@YAHOO.COM",
    "categoryName": "HOSPICE",
    "categoryCode": "HOSPICE",
    "licenseStatus": "ACTIVE",
    "inService": true,
    "licenseNumber": "550007273",
    "licenseEffectiveDate": "09/16/2024",
    "licenseExpirationDate": "11/16/2025",
    "dataDate": "10/18/2025",
    "capacity": 0,
    "address": "12656 HOOVER ST",
    "city": "GARDEN GROVE",
    "zip": "92841",
    "county": "ORANGE",
    "phone": "(800) 387-9042",
    "lat": 33.77576618,
    "lng": -117.9978141
  },
  {
    "id": "060000043",
    "name": "GARDEN GROVE POST ACUTE",
    "npi": "1295722809",
    "hcaiId": "206301181",
    "businessName": "GARDEN GROVE CONVALESCENT, INC.",
    "contactEmail": "JAKE95NGUYEN@GMAIL.COM",
    "categoryName": "SKILLED NURSING FACILITY",
    "categoryCode": "SNF",
    "licenseStatus": "ACTIVE",
    "inService": true,
    "licenseNumber": "060000112",
    "licenseEffectiveDate": "05/01/2025",
    "licenseExpirationDate": "04/30/2026",
    "dataDate": "10/18/2025",
    "capacity": 99,
    "address": "12882 SHACKELFORD LN",
    "city": "GARDEN GROVE",
    "zip": "92841",
    "county": "ORANGE",
    "phone": "(714) 638-9470",
    "lat": 33.775605,
    "lng": -117.9715635
  },
  {
    "id": "630011343",
    "name": "GRACIOUS CARE HOME HEALTH SERVICES",
    "npi": null,
    "hcaiId": "406304427",
    "businessName": "GRACIOUS CARE HOME HEALTH SERVICES",
    "contactEmail": "GRACIOUSCAREHOMEHEALTH@GMAIL.COM",
    "categoryName": "HOME HEALTH AGENCY",
    "categoryCode": "HHA",
    "licenseStatus": "ACTIVE",
    "inService": true,
    "licenseNumber": "550000775",
    "licenseEffectiveDate": "11/29/2024",
    "licenseExpirationDate": "11/28/2025",
    "dataDate": "10/18/2025",
    "capacity": 0,
    "address": "7111 GARDEN GROVE BLVD, SUITE 207",
    "city": "GARDEN GROVE",
    "zip": "92841",
    "county": "ORANGE",
    "phone": "(714) 799-1200",
    "lat": 33.774093,
    "lng": -118.00881
  },
  {
    "id": "630016495",
    "name": "KAGA HOSPICE, INC",
    "npi": null,
    "hcaiId": "406304597",
    "businessName": "KAGA HOSPICE, INC",
    "contactEmail": "KAGAHOSPICEINC@GMAIL.COM",
    "categoryName": "HOSPICE",
    "categoryCode": "HOSPICE",
    "licenseStatus": "ACTIVE",
    "inService": true,
    "licenseNumber": "550003732",
    "licenseEffectiveDate": "12/07/2024",
    "licenseExpirationDate": "12/06/2026",
    "dataDate": "10/18/2025",
    "capacity": 0,
    "address": "12660 HOOVER ST",
    "city": "GARDEN GROVE",
    "zip": "92841",
    "county": "ORANGE",
    "phone": "(714) 622-4496",
    "lat": 33.77583,
    "lng": -117.997299
  },
  {
    "id": "630021419",
    "name": "MBS HOSPICE CARE, INC.",
    "npi": null,
    "hcaiId": "406306099",
    "businessName": "MBS HOSPICE CARE, INC.",
    "contactEmail": "MBSHOSPICE@YAHOO.COM",
    "categoryName": "HOSPICE",
    "categoryCode": "HOSPICE",
    "licenseStatus": "ACTIVE",
    "inService": true,
    "licenseNumber": "550006768",
    "licenseEffectiveDate": "09/01/2023",
    "licenseExpirationDate": "08/31/2025",
    "dataDate": "10/18/2025",
    "capacity": 0,
    "address": "12644 HOOVER ST",
    "city": "GARDEN GROVE",
    "zip": "92841",
    "county": "ORANGE",
    "phone": "(714) 248-9657",
    "lat": 33.775791,
    "lng": -117.997885
  },
  {
    "id": "060001159",
    "name": "NHAN HOA COMPREHENSIVE HEALTH CARE CLINIC INC.",
    "npi": "1497889158",
    "hcaiId": "306304465",
    "businessName": "NHAN HOA COMPREHENSIVE HEALTH CARE CLINIC INC.",
    "contactEmail": "DUNG.NGUYEN@NHANHOA.ORG",
    "categoryName": "PRIMARY CARE CLINIC",
    "categoryCode": "COMTYC",
    "licenseStatus": "ACTIVE",
    "inService": true,
    "licenseNumber": "060000324",
    "licenseEffectiveDate": "06/18/2025",
    "licenseExpirationDate": "06/17/2026",
    "dataDate": "10/18/2025",
    "capacity": 0,
    "address": "7761 GARDEN GROVE BLVD",
    "city": "GARDEN GROVE",
    "zip": "92841",
    "county": "ORANGE",
    "phone": "(714) 898-8888",
    "lat": 33.774228,
    "lng": -117.996633
  },
  {
    "id": "630018527",
    "name": "SINCERE HOSPICE AND PALLIATIVE CARE, INC.",
    "npi": null,
    "hcaiId": "406302172",
    "businessName": "SINCERE HOSPICE AND PALLIATIVE CARE, INC.",
    "contactEmail": "SINCEREHOSPICE@YAHOO.COM",
    "categoryName": "HOSPICE",
    "categoryCode": "HOSPICE",
    "licenseStatus": "ACTIVE",
    "inService": true,
    "licenseNumber": "550005191",
    "licenseEffectiveDate": "12/17/2023",
    "licenseExpirationDate": "12/16/2025",
    "dataDate": "10/18/2025",
    "capacity": 0,
    "address": "12881 KNOTT ST, SUITE 234",
    "city": "GARDEN GROVE",
    "zip": "92841",
    "county": "ORANGE",
    "phone": "(657) 799-0787",
    "lat": 33.7752,
    "lng": -118.0084275
  },
  {
    "id": "060001572",
    "name": "SOUTHLAND INTEGRATED SERVICES, INC.",
    "npi": "1285708818",
    "hcaiId": "306304484",
    "businessName": "SOUTHLAND INTEGRATED SERVICES, INC.",
    "contactEmail": "TNGUYEN@SOUTHLANDINTEGRATED.ORG",
    "categoryName": "PRIMARY CARE CLINIC",
    "categoryCode": "COMTYC",
    "licenseStatus": "ACTIVE",
    "inService": true,
    "licenseNumber": "060000508",
    "licenseEffectiveDate": "06/04/2025",
    "licenseExpirationDate": "06/03/2026",
    "dataDate": "10/18/2025",
    "capacity": 0,
    "address": "9862 CHAPMAN AVE",
    "city": "GARDEN GROVE",
    "zip": "92841",
    "county": "ORANGE",
    "phone": "(714) 620-7007",
    "lat": 33.788412,
    "lng": -117.9607635
  },
  {
    "id": "630026712",
    "name": "TOP-LEVEL CARE HOME HEALTH, INC.",
    "npi": null,
    "hcaiId": null,
    "businessName": "TOP-LEVEL CARE HOME HEALTH, INC.",
    "contactEmail": "TOPLEVELCAREHH@GMAIL.COM",
    "categoryName": "HOME HEALTH AGENCY",
    "categoryCode": "HHA",
    "licenseStatus": "ACTIVE",
    "inService": true,
    "licenseNumber": "550009510",
    "licenseEffectiveDate": "05/17/2025",
    "licenseExpirationDate": "11/16/2025",
    "dataDate": "10/18/2025",
    "capacity": 0,
    "address": "12881 KNOTT ST, SUITE 103",
    "city": "GARDEN GROVE",
    "zip": "92841",
    "county": "ORANGE",
    "phone": "(714) 814-5119",
    "lat": 33.7752,
    "lng": -118.0084275
  }
]