[
  {
    "id": "080001542",
    "name": "ALTA GARDENS CARE CENTER",
    "npi": "1326037847",
    "hcaiId": "206301287",
    "businessName": "ALTA CARE CENTER, LLC",
    "contactEmail": "TRIET.KIEU@ALTAGARDENSCC.COM",
    "categoryName": "SKILLED NURSING FACILITY",
    "categoryCode": "SNF",
    "licenseStatus": "ACTIVE",
    "inService": true,
    "licenseNumber": "080000648",
    "licenseEffectiveDate": "11/15/2024",
    "licenseExpirationDate": "11/14/2025",
    "dataDate": "10/18/2025",
    "capacity": 129,
    "address": "13075 BLACKBIRD ST",
    "city": "GARDEN GROVE",
    "zip": "92843",
    "county": "ORANGE",
    "phone": "(714) 530-6322",
    "lat": 33.773517,
    "lng": -117.913545
  },
  {
    "id": "630027893",
    "name": "ALTAMED DENTAL GROUP AT CLINTON ELEMENTARY SCHOOL",
    "npi": null,
    "hcaiId": null,
    "businessName": "ALTAMED HEALTH SERVICES CORPORATION",
    "contactEmail": null,
    "categoryName": "PRIMARY CARE CLINIC",
    "categoryCode": "COMTYC",
    "licenseStatus": "ACTIVE",
    "inService": true,
    "licenseNumber": "550001008",
    "licenseEffectiveDate": "04/01/2025",
    "licenseExpirationDate": "03/31/2026",
    "dataDate": "10/18/2025",
    "capacity": 0,
    "address": "13641 CLINTON ST",
    "city": "GARDEN GROVE",
    "zip": "92843",
    "county": "ORANGE",
    "phone": null,
    "lat": 33.76449099,
    "lng": -117.912752
  },
  {
    "id": "630019143",
    "name": "ARC ANGEL HOSPICE & PALLIATIVE CARE INC",
    "npi": "1992359129",
    "hcaiId": "406302405",
    "businessName": "ARC ANGEL HOSPICE & PALLIATIVE CARE INC",
    "contactEmail": "ARCANGELHOSPICE@GMAIL.COM",
    "categoryName": "HOSPICE",
    "categoryCode": "HOSPICE",
    "licenseStatus": "ACTIVE",
    "inService": true,
    "licenseNumber": "550005305",
    "licenseEffectiveDate": "02/26/2024",
    "licenseExpirationDate": "02/25/2026",
    "dataDate": "10/18/2025",
    "capacity": 0,
    "address": "11752 GARDEN GROVE BLVD, SUITE 212",
    "city": "GARDEN GROVE",
    "zip": "92843",
    "county": "ORANGE",
    "phone": "(714) 714-7908",
    "lat": 33.773886,
    "lng": -117.927945
  },
  {
    "id": "630009841",
    "name": "COMFORT HOSPICE CARE, INC",
    "npi": null,
    "hcaiId": "406304382",
    "businessName": "COMFORT HOSPICE CARE, INC.",
    "contactEmail": "TODDMAN1@GMAIL.COM",
    "categoryName": "HOSPICE",
    "categoryCode": "HOSPICE",
    "licenseStatus": "ACTIVE",
    "inService": true,
    "licenseNumber": "550000236",
    "licenseEffectiveDate": "11/02/2024",
    "licenseExpirationDate": "11/01/2026",
    "dataDate": "10/18/2025",
    "capacity": 0,
    "address": "12900 GARDEN GROVE BLVD, SUITE 130",
    "city": "GARDEN GROVE",
    "zip": "92843",
    "county": "ORANGE",
    "phone": "(714) 638-8846",
    "lat": 33.773922,
    "lng": -117.907569
  },
  {
    "id": "630015514",
    "name": "GARDEN GROVE HARBOR DIALYSIS",
    "npi": "1619397700",
    "hcaiId": "306304617",
    "businessName": "EDISTO DIALYSIS LLC",
    "contactEmail": "CAL_C@DAVITA.COM",
    "categoryName": "CHRONIC DIALYSIS CLINIC",
    "categoryCode": "ESRD/CDC",
    "licenseStatus": "ACTIVE",
    "inService": true,
    "licenseNumber": "550002921",
    "licenseEffectiveDate": "12/11/2024",
    "licenseExpirationDate": "12/10/2025",
    "dataDate": "10/18/2025",
    "capacity": 25,
    "address": "13054 N. HARBOR BLVD.",
    "city": "GARDEN GROVE",
    "zip": "92843",
    "county": "ORANGE",
    "phone": "(714) 539-3395",
    "lat": 33.773472,
    "lng": -117.9185985
  },
  {
    "id": "060000058",
    "name": "GARDEN GROVE HOSPITAL AND MEDICAL CENTER",
    "npi": "1659538858",
    "hcaiId": "106301283",
    "businessName": "PRIME HEALTHCARE SERVICES - GARDEN GROVE, LLC",
    "contactEmail": "MSAVRIC@PRIMEHEALTHCARE.COM",
    "categoryName": "GENERAL ACUTE CARE HOSPITAL",
    "categoryCode": "GACH",
    "licenseStatus": "ACTIVE",
    "inService": true,
    "licenseNumber": "060000152",
    "licenseEffectiveDate": "11/01/2025",
    "licenseExpirationDate": "10/31/2026",
    "dataDate": "10/18/2025",
    "capacity": 141,
    "address": "12601 GARDEN GROVE BLVD",
    "city": "GARDEN GROVE",
    "zip": "92843",
    "county": "ORANGE",
    "phone": "(714) 741-2704",
    "lat": 33.774705,
    "lng": -117.913014
  },
  {
    "id": "630028528",
    "name": "GARDEN GROVE HOSPITAL AND MEDICAL CENTER D/P APH",
    "npi": null,
    "hcaiId": null,
    "businessName": "PRIME HEALTHCARE SERVICES - GARDEN GROVE, LLC",
    "contactEmail": null,
    "categoryName": "ACUTE PSYCHIATRIC HOSPITAL",
    "categoryCode": "APH",
    "licenseStatus": "ACTIVE",
    "inService": true,
    "licenseNumber": "060000152",
    "licenseEffectiveDate": "11/01/2025",
    "licenseExpirationDate": "10/31/2026",
    "dataDate": "10/18/2025",
    "capacity": 26,
    "address": "12601 GARDEN GROVE BLVD, FLOOR 6TH",
    "city": "GARDEN GROVE",
    "zip": "92843",
    "county": "ORANGE",
    "phone": null,
    "lat": 33.775083,
    "lng": -117.913014
  },
  {
    "id": "630020455",
    "name": "KAMILA HOME HEALTH, INC",
    "npi": null,
    "hcaiId": "406193800",
    "businessName": "KAMILA HOME HEALTH, INC",
    "contactEmail": "THEPRESTIGEHEALTHCARE@GMAIL.COM",
    "categoryName": "HOME HEALTH AGENCY",
    "categoryCode": "HHA",
    "licenseStatus": "ACTIVE",
    "inService": true,
    "licenseNumber": "550006269",
    "licenseEffectiveDate": "06/12/2025",
    "licenseExpirationDate": "05/03/2026",
    "dataDate": "10/18/2025",
    "capacity": 0,
    "address": "12900A GARDEN GROVE BLVD, SUITE 214B",
    "city": "GARDEN GROVE",
    "zip": "92843",
    "county": "ORANGE",
    "phone": "(657) 251-0541",
    "lat": 33.77397498,
    "lng": -117.90728
  },
  {
    "id": "630024147",
    "name": "MASTER HOME HEALTH, INC",
    "npi": null,
    "hcaiId": "406197832",
    "businessName": "MASTER HOME HEALTH, INC",
    "contactEmail": "CONTACT@MASTERHOMEHEALTH.COM",
    "categoryName": "HOME HEALTH AGENCY",
    "categoryCode": "HHA",
    "licenseStatus": "ACTIVE",
    "inService": true,
    "licenseNumber": "550008420",
    "licenseEffectiveDate": "02/23/2025",
    "licenseExpirationDate": "02/22/2026",
    "dataDate": "10/18/2025",
    "capacity": 0,
    "address": "13071 BROOKHURST ST, SUITE 160A",
    "city": "GARDEN GROVE",
    "zip": "92843",
    "county": "ORANGE",
    "phone": "(714) 594-6987",
    "lat": 33.77317501,
    "lng": -117.956091
  },
  {
    "id": "060000260",
    "name": "ORANGE COUNTY EYE SURGICAL CENTER",
    "npi": "1194803320",
    "hcaiId": null,
    "businessName": null,
    "contactEmail": null,
    "categoryName": "SURGICAL CLINIC",
    "categoryCode": "ASC",
    "licenseStatus": null,
    "inService": null,
    "licenseNumber": null,
    "licenseEffectiveDate": null,
    "licenseExpirationDate": null,
    "dataDate": "10/18/2025",
    "capacity": 0,
    "address": "12665 GARDEN GROVE BLVD",
    "city": "GARDEN GROVE",
    "zip": "92843",
    "county": "ORANGE",
    "phone": "(714) 534-8373",
    "lat": 33.775308,
    "lng": -117.912285
  },
  {
    "id": "060000127",
    "name": "PACIFIC HAVEN SUBACUTE AND HEALTHCARE CENTER",
    "npi": "1811923303",
    "hcaiId": "206301334",
    "businessName": "STRAWBERRY POND HEALTHCARE LLC",
    "contactEmail": "SBURNAM@ENSIGNSERVICES.NET",
    "categoryName": "SKILLED NURSING FACILITY",
    "categoryCode": "SNF",
    "licenseStatus": "ACTIVE",
    "inService": true,
    "licenseNumber": "060000170",
    "licenseEffectiveDate": "11/01/2025",
    "licenseExpirationDate": "01/01/2026",
    "dataDate": "10/18/2025",
    "capacity": 99,
    "address": "12072 TRASK AVE",
    "city": "GARDEN GROVE",
    "zip": "92843",
    "county": "ORANGE",
    "phone": "(949) 540-1249",
    "lat": 33.76656,
    "lng": -117.918468
  },
  {
    "id": "060000111",
    "name": "PEC HEALTHCARE",
    "npi": "1558369603",
    "hcaiId": "406300134",
    "businessName": "DAIAN CORPORATION",
    "contactEmail": "ROSALIE@PECHC.COM",
    "categoryName": "HOME HEALTH AGENCY",
    "categoryCode": "HHA",
    "licenseStatus": "ACTIVE",
    "inService": true,
    "licenseNumber": "060000034",
    "licenseEffectiveDate": "05/10/2025",
    "licenseExpirationDate": "05/09/2026",
    "dataDate": "10/18/2025",
    "capacity": 0,
    "address": "10507 GARDEN GROVE BLVD",
    "city": "GARDEN GROVE",
    "zip": "92843",
    "county": "ORANGE",
    "phone": "(714) 689-2300",
    "lat": 33.775092,
    "lng": -117.949167
  },
  {
    "id": "630012735",
    "name": "PEC HOSPICE",
    "npi": null,
    "hcaiId": "406304464",
    "businessName": "DAIAN CORPORATION",
    "contactEmail": "FAXHOSPICE@PECHC.COM",
    "categoryName": "HOSPICE",
    "categoryCode": "HOSPICE",
    "licenseStatus": "ACTIVE",
    "inService": true,
    "licenseNumber": "550001495",
    "licenseEffectiveDate": "11/11/2024",
    "licenseExpirationDate": "11/10/2026",
    "dataDate": "10/18/2025",
    "capacity": 0,
    "address": "10507 GARDEN GROVE BLVD, SUITE F",
    "city": "GARDEN GROVE",
    "zip": "92843",
    "county": "ORANGE",
    "phone": "(714) 260-0226",
    "lat": 33.775092,
    "lng": -117.949167
  },
  {
    "id": "080001593",
    "name": "RAI - GARDEN GROVE BLVD - GARDEN GROVE",
    "npi": "1235202961",
    "hcaiId": "306304023",
    "businessName": "FRESENIUS MEDICAL CARE ORANGE COUNTY, LLC",
    "contactEmail": "CLINIC7176@FRESENIUSMEDICALCARE.COM",
    "categoryName": "CHRONIC DIALYSIS CLINIC",
    "categoryCode": "ESRD/CDC",
    "licenseStatus": "ACTIVE",
    "inService": true,
    "licenseNumber": "080000685",
    "licenseEffectiveDate": "08/23/2025",
    "licenseExpirationDate": "08/22/2026",
    "dataDate": "10/18/2025",
    "capacity": 13,
    "address": "12555 GARDEN GROVE BLVD, SUITE 100",
    "city": "GARDEN GROVE",
    "zip": "92843",
    "county": "ORANGE",
    "phone": "(714) 741-7255",
    "lat": 33.774966,
    "lng": -117.9138105
  },
  {
    "id": "060000125",
    "name": "THE GROVE POST ACUTE",
    "npi": "1245277334",
    "hcaiId": "206301363",
    "businessName": "GARDEN GROVE POST ACUTE LLC",
    "contactEmail": "ADMIN@GROVEPOSTACUTE.COM",
    "categoryName": "SKILLED NURSING FACILITY",
    "categoryCode": "SNF",
    "licenseStatus": "ACTIVE",
    "inService": true,
    "licenseNumber": "060000180",
    "licenseEffectiveDate": "05/01/2025",
    "licenseExpirationDate": "04/30/2026",
    "dataDate": "10/18/2025",
    "capacity": 97,
    "address": "12332 GARDEN GROVE BLVD",
    "city": "GARDEN GROVE",
    "zip": "92843",
    "county": "ORANGE",
    "phone": "(714) 534-1041",
    "lat": 33.774219,
    "lng": -117.91737
  },
  {
    "id": "630011058",
    "name": "UNITED INTEGRITY HOME HEALTH INC.",
    "npi": "1912029943",
    "hcaiId": "406304384",
    "businessName": "UNITED INTEGRITY HOME HEALTH INC",
    "contactEmail": "UNITEDINTEGRITYHOMEHEALTH@YAHOO.COM",
    "categoryName": "HOME HEALTH AGENCY",
    "categoryCode": "HHA",
    "licenseStatus": "ACTIVE",
    "inService": true,
    "licenseNumber": "550000337",
    "licenseEffectiveDate": "12/11/2024",
    "licenseExpirationDate": "12/10/2025",
    "dataDate": "10/18/2025",
    "capacity": 0,
    "address": "12900A GARDEN GROVE BLVD, SUITE 116",
    "city": "GARDEN GROVE",
    "zip": "92843",
    "county": "ORANGE",
    "phone": "(714) 539-5249",
    "lat": 33.77429422,
    "lng": -117.9076536
  }
]