[
  {
    "id": "630024670",
    "name": "ALTA HOME HEALTH CARE SERVICES, INC.",
    "npi": null,
    "hcaiId": "406306890",
    "businessName": "ALTA HOME HEALTH CARE SERVICES, INC.",
    "contactEmail": "ALTAHHCS@GMAIL.COM",
    "categoryName": "HOME HEALTH AGENCY",
    "categoryCode": "HHA",
    "licenseStatus": "ACTIVE",
    "inService": true,
    "licenseNumber": "550008358",
    "licenseEffectiveDate": "01/17/2025",
    "licenseExpirationDate": "01/16/2026",
    "dataDate": "10/18/2025",
    "capacity": 0,
    "address": "9140 TRASK AVE, SUITE 202",
    "city": "GARDEN GROVE",
    "zip": "92844",
    "county": "ORANGE",
    "phone": "(833) 856-1431",
    "lat": 33.766362,
    "lng": -117.9698895
  },
  {
    "id": "630027899",
    "name": "ALTAMED DENTAL GROUP AT ANDERSON ELEMENTARY SCHOOL",
    "npi": null,
    "hcaiId": null,
    "businessName": "ALTAMED HEALTH SERVICES CORPORATION",
    "contactEmail": null,
    "categoryName": "PRIMARY CARE CLINIC",
    "categoryCode": "COMTYC",
    "licenseStatus": "ACTIVE",
    "inService": true,
    "licenseNumber": "060000194",
    "licenseEffectiveDate": "02/13/2025",
    "licenseExpirationDate": "02/12/2026",
    "dataDate": "10/18/2025",
    "capacity": 0,
    "address": "8902 HEWITT PL",
    "city": "GARDEN GROVE",
    "zip": "92844",
    "county": "ORANGE",
    "phone": null,
    "lat": 33.76104699,
    "lng": -117.973349
  },
  {
    "id": "630027235",
    "name": "BEST CARE HOMES",
    "npi": "1730800459",
    "hcaiId": null,
    "businessName": "BEST CARE HOMES, INC.",
    "contactEmail": "JCONCE3581@AOL.COM",
    "categoryName": "INTERMEDIATE CARE FACILITY-DD/H/N/CN/IID",
    "categoryCode": "ICFDDN",
    "licenseStatus": "ACTIVE",
    "inService": true,
    "licenseNumber": "550008831",
    "licenseEffectiveDate": "11/27/2024",
    "licenseExpirationDate": "11/26/2025",
    "dataDate": "10/18/2025",
    "capacity": 6,
    "address": "13551 YOCKEY ST",
    "city": "GARDEN GROVE",
    "zip": "92844",
    "county": "ORANGE",
    "phone": "(657) 227-7472",
    "lat": 33.765715,
    "lng": -117.977035
  },
  {
    "id": "060002229",
    "name": "EVERGREEN WORLD ADHC",
    "npi": null,
    "hcaiId": null,
    "businessName": "EVERGREEN WORLD, INC.",
    "contactEmail": "EVERGREENWORLDINC@GMAIL.COM",
    "categoryName": "ADULT DAY HEALTH CARE",
    "categoryCode": "ADHC",
    "licenseStatus": "ACTIVE",
    "inService": true,
    "licenseNumber": "060000911",
    "licenseEffectiveDate": "01/29/2025",
    "licenseExpirationDate": "01/28/2026",
    "dataDate": "10/18/2025",
    "capacity": 0,
    "address": "9856 WESTMINSTER AVE",
    "city": "GARDEN GROVE",
    "zip": "92844",
    "county": "ORANGE",
    "phone": "(714) 638-1818",
    "lat": 33.75936,
    "lng": -117.956772
  },
  {
    "id": "630019197",
    "name": "GARDEN GROVE ADHC",
    "npi": null,
    "hcaiId": null,
    "businessName": "OC LIFE, INC.",
    "contactEmail": "7006989@GMAIL.COM",
    "categoryName": "ADULT DAY HEALTH CARE",
    "categoryCode": "ADHC",
    "licenseStatus": "ACTIVE",
    "inService": true,
    "licenseNumber": "550008269",
    "licenseEffectiveDate": "12/14/2024",
    "licenseExpirationDate": "12/13/2025",
    "dataDate": "10/18/2025",
    "capacity": 0,
    "address": "8100 GARDEN GROVE BLVD",
    "city": "GARDEN GROVE",
    "zip": "92844",
    "county": "ORANGE",
    "phone": "(714) 799-0306",
    "lat": 33.773713,
    "lng": -117.990889
  },
  {
    "id": "630018664",
    "name": "GREEN TREE HOME HEALTH",
    "npi": null,
    "hcaiId": "406302466",
    "businessName": "GREEN TREE HOME HEALTH LLC",
    "contactEmail": "GREENTREEHOMEHEALTH@GMAIL.COM",
    "categoryName": "HOME HEALTH AGENCY",
    "categoryCode": "HHA",
    "licenseStatus": "ACTIVE",
    "inService": true,
    "licenseNumber": "550005408",
    "licenseEffectiveDate": "03/23/2025",
    "licenseExpirationDate": "03/22/2026",
    "dataDate": "10/18/2025",
    "capacity": 0,
    "address": "8862 GARDEN GROVE BLVD, SUITE 206",
    "city": "GARDEN GROVE",
    "zip": "92844",
    "county": "ORANGE",
    "phone": "(877) 259-7577",
    "lat": 33.773499,
    "lng": -117.9775485
  },
  {
    "id": "060002054",
    "name": "REGENT WEST ADULT DAY HEALTH CARE CENTER",
    "npi": null,
    "hcaiId": null,
    "businessName": "WEST EAST ADVANCED CARE, INC.",
    "contactEmail": "REGENTWESTADHC@GMAIL.COM",
    "categoryName": "ADULT DAY HEALTH CARE",
    "categoryCode": "ADHC",
    "licenseStatus": "ACTIVE",
    "inService": true,
    "licenseNumber": "060000917",
    "licenseEffectiveDate": "03/17/2025",
    "licenseExpirationDate": "03/16/2026",
    "dataDate": "10/18/2025",
    "capacity": 0,
    "address": "8341 GARDEN GROVE BLVD",
    "city": "GARDEN GROVE",
    "zip": "92844",
    "county": "ORANGE",
    "phone": "(714) 914-2038",
    "lat": 33.77397278,
    "lng": -117.9864248
  }
]