[
  {
    "id": "630016974",
    "name": "FIRST TOUCH HOME HEALTH CARE, INC.",
    "npi": null,
    "hcaiId": "406300936",
    "businessName": "FIRST TOUCH HOME HEALTH CARE INC.",
    "contactEmail": "A@FIRSTTOUCHHOMEHEALTH.COM",
    "categoryName": "HOME HEALTH AGENCY",
    "categoryCode": "HHA",
    "licenseStatus": "ACTIVE",
    "inService": true,
    "licenseNumber": "550003915",
    "licenseEffectiveDate": "07/11/2025",
    "licenseExpirationDate": "07/10/2026",
    "dataDate": "10/18/2025",
    "capacity": 0,
    "address": "12062 VALLEY VIEW STREET, SUITE 224A",
    "city": "GARDEN GROVE",
    "zip": "92845",
    "county": "ORANGE",
    "phone": "(657) 227-3867",
    "lat": 33.787197,
    "lng": -118.0273365
  },
  {
    "id": "630016889",
    "name": "GOOD HEART HOSPICE & PALLIATIVE CARE GARDEN GROVE",
    "npi": null,
    "hcaiId": "406300934",
    "businessName": "COMMITTED HOSPICE CARE, INC.",
    "contactEmail": "COMMITTEDHOSPICE@GMAIL.COM",
    "categoryName": "HOSPICE",
    "categoryCode": "HOSPICE",
    "licenseStatus": "ACTIVE",
    "inService": true,
    "licenseNumber": "550003790",
    "licenseEffectiveDate": "02/13/2025",
    "licenseExpirationDate": "02/12/2027",
    "dataDate": "10/18/2025",
    "capacity": 0,
    "address": "12062 VALLEY VIEW ST., SUITE 235",
    "city": "GARDEN GROVE",
    "zip": "92845",
    "county": "ORANGE",
    "phone": "(657) 227-3847",
    "lat": 33.787188,
    "lng": -118.027521
  },
  {
    "id": "630012596",
    "name": "NEURORESTORATIVE CALIFORNIA",
    "npi": null,
    "hcaiId": "206304456",
    "businessName": "CAREMERIDIAN, LLC",
    "contactEmail": "AIDA.TORRES@SEVITAHEALTH.COM",
    "categoryName": "CONGREGATE LIVING HEALTH FACILITY",
    "categoryCode": "CLHF",
    "licenseStatus": "ACTIVE",
    "inService": true,
    "licenseNumber": "550001247",
    "licenseEffectiveDate": "02/10/2025",
    "licenseExpirationDate": "02/09/2026",
    "dataDate": "10/18/2025",
    "capacity": 15,
    "address": "12461 SPRINGDALE ST",
    "city": "GARDEN GROVE",
    "zip": "92845",
    "county": "ORANGE",
    "phone": "(714) 933-7560",
    "lat": 33.781374,
    "lng": -118.020249
  }
]