[
  {
    "id": "630027394",
    "name": "ALTAMED DENTAL GROUP AT ESPLANADE ELEMENTARY SCHOOL",
    "npi": "1740427657",
    "hcaiId": null,
    "businessName": "ALTAMED HEALTH SERVICES CORPORATION",
    "contactEmail": null,
    "categoryName": "PRIMARY CARE CLINIC",
    "categoryCode": "COMTYC",
    "licenseStatus": "ACTIVE",
    "inService": true,
    "licenseNumber": "550001008",
    "licenseEffectiveDate": "04/01/2025",
    "licenseExpirationDate": "03/31/2026",
    "dataDate": "10/18/2025",
    "capacity": 0,
    "address": "381 N ESPLANADE ST",
    "city": "ORANGE",
    "zip": "92869",
    "county": "ORANGE",
    "phone": null,
    "lat": 33.79333102,
    "lng": -117.80858
  },
  {
    "id": "630009501",
    "name": "ALTAMED MEDICAL GROUP - ORANGE, CHAPMAN",
    "npi": "1316116221",
    "hcaiId": "306304372",
    "businessName": "ALTAMED HEALTH SERVICES CORPORATION",
    "contactEmail": "JENDOMINGUEZ@ALTAMED.ORG",
    "categoryName": "PRIMARY CARE CLINIC",
    "categoryCode": "COMTYC",
    "licenseStatus": "ACTIVE",
    "inService": true,
    "licenseNumber": "550000160",
    "licenseEffectiveDate": "02/11/2025",
    "licenseExpirationDate": "02/10/2026",
    "dataDate": "10/18/2025",
    "capacity": 0,
    "address": "4010 E CHAPMAN AVE",
    "city": "ORANGE",
    "zip": "92869",
    "county": "ORANGE",
    "phone": "(714) 500-0357",
    "lat": 33.787593,
    "lng": -117.8110125
  },
  {
    "id": "060000006",
    "name": "CHAPMAN GLOBAL MEDICAL CENTER",
    "npi": "1427041110",
    "hcaiId": "106301140",
    "businessName": "CHAPMAN GLOBAL MEDICAL CENTER, INC.",
    "contactEmail": "THERESA.BERTON@KPCHEALTH.COM",
    "categoryName": "GENERAL ACUTE CARE HOSPITAL",
    "categoryCode": "GACH",
    "licenseStatus": "ACTIVE",
    "inService": true,
    "licenseNumber": "060000097",
    "licenseEffectiveDate": "03/08/2025",
    "licenseExpirationDate": "03/07/2026",
    "dataDate": "10/18/2025",
    "capacity": 75,
    "address": "2601 E CHAPMAN AVE",
    "city": "ORANGE",
    "zip": "92869",
    "county": "ORANGE",
    "phone": "(714) 450-1810",
    "lat": 33.788511,
    "lng": -117.826335
  },
  {
    "id": "060001717",
    "name": "CHAPMAN GLOBAL MEDICAL CENTER D/P APH",
    "npi": "1427041110",
    "hcaiId": null,
    "businessName": "CHAPMAN GLOBAL MEDICAL CENTER, INC.",
    "contactEmail": null,
    "categoryName": "ACUTE PSYCHIATRIC HOSPITAL",
    "categoryCode": "APH",
    "licenseStatus": "ACTIVE",
    "inService": true,
    "licenseNumber": "060000097",
    "licenseEffectiveDate": "03/08/2025",
    "licenseExpirationDate": "03/07/2026",
    "dataDate": "10/18/2025",
    "capacity": 12,
    "address": "2601 E CHAPMAN AVE",
    "city": "ORANGE",
    "zip": "92869",
    "county": "ORANGE",
    "phone": "(714) 633-0011",
    "lat": 33.788511,
    "lng": -117.826335
  },
  {
    "id": "060001568",
    "name": "CHAPMAN GLOBAL MEDICAL CENTER D/P SNF",
    "npi": "1477672665",
    "hcaiId": null,
    "businessName": "CHAPMAN GLOBAL MEDICAL CENTER, INC.",
    "contactEmail": "SHELLEY.GILLILAND@KPCHEALTH.COM",
    "categoryName": "SKILLED NURSING FACILITY",
    "categoryCode": "SNF",
    "licenseStatus": "ACTIVE",
    "inService": true,
    "licenseNumber": "060000097",
    "licenseEffectiveDate": "03/08/2025",
    "licenseExpirationDate": "03/07/2026",
    "dataDate": "10/18/2025",
    "capacity": 27,
    "address": "2601 E CHAPMAN AVE",
    "city": "ORANGE",
    "zip": "92869",
    "county": "ORANGE",
    "phone": "(714) 633-0011",
    "lat": 33.788511,
    "lng": -117.826335
  },
  {
    "id": "060000765",
    "name": "NEW ORANGE HILLS",
    "npi": "1821701590",
    "hcaiId": "206304012",
    "businessName": "HOLLYLEAF HEALTHCARE,  INC.",
    "contactEmail": "JVILLAFANIA@ENSIGNSERVICES.NET",
    "categoryName": "SKILLED NURSING FACILITY",
    "categoryCode": "SNF",
    "licenseStatus": "ACTIVE",
    "inService": true,
    "licenseNumber": "060000233",
    "licenseEffectiveDate": "06/01/2025",
    "licenseExpirationDate": "05/31/2026",
    "dataDate": "10/18/2025",
    "capacity": 145,
    "address": "5017 E CHAPMAN AVE",
    "city": "ORANGE",
    "zip": "92869",
    "county": "ORANGE",
    "phone": "(714) 997-7090",
    "lat": 33.788277,
    "lng": -117.799596
  }
]