[
  {
    "id": "060001674",
    "name": "HEALTHBRIDGE CHILDREN'S HOSPITAL - ORANGE",
    "npi": "1528662954",
    "hcaiId": "106304159",
    "businessName": "VSC HBO, LLC",
    "contactEmail": "ROBERTA.CONSOLVER@HEALTHBRIDGECC.COM",
    "categoryName": "GENERAL ACUTE CARE HOSPITAL",
    "categoryCode": "GACH",
    "licenseStatus": "ACTIVE",
    "inService": true,
    "licenseNumber": "060000530",
    "licenseEffectiveDate": "02/04/2025",
    "licenseExpirationDate": "02/03/2026",
    "dataDate": "10/18/2025",
    "capacity": 6,
    "address": "393 S TUSTIN ST",
    "city": "ORANGE",
    "zip": "92866",
    "county": "ORANGE",
    "phone": "(714) 464-1853",
    "lat": 33.782769,
    "lng": -117.833886
  },
  {
    "id": "060001698",
    "name": "HEALTHBRIDGE CHILDREN'S HOSPITAL - ORANGE D/P SNF",
    "npi": "1528662954",
    "hcaiId": null,
    "businessName": "VSC HBO, LLC",
    "contactEmail": "RCONSOLVER@NHSLTD.COM",
    "categoryName": "SKILLED NURSING FACILITY",
    "categoryCode": "SNF",
    "licenseStatus": "ACTIVE",
    "inService": true,
    "licenseNumber": "060000530",
    "licenseEffectiveDate": "02/04/2025",
    "licenseExpirationDate": "02/03/2026",
    "dataDate": "10/18/2025",
    "capacity": 21,
    "address": "393 S TUSTIN ST",
    "city": "ORANGE",
    "zip": "92866",
    "county": "ORANGE",
    "phone": "(714) 464-1853",
    "lat": 33.782769,
    "lng": -117.833886
  },
  {
    "id": "060000207",
    "name": "LESTONNAC FREE CLINIC",
    "npi": null,
    "hcaiId": "306300230",
    "businessName": "ST JEANNE DE LESTONNAC FREE CLINIC",
    "contactEmail": "EGERBER@LESTONNACFREECLINIC.ORG",
    "categoryName": "PRIMARY CARE CLINIC",
    "categoryCode": "FREEC",
    "licenseStatus": "ACTIVE",
    "inService": true,
    "licenseNumber": "060000070",
    "licenseEffectiveDate": "12/18/2024",
    "licenseExpirationDate": "12/17/2025",
    "dataDate": "10/18/2025",
    "capacity": 0,
    "address": "1215 E CHAPMAN AVE",
    "city": "ORANGE",
    "zip": "92866",
    "county": "ORANGE",
    "phone": "(714) 633-4600",
    "lat": 33.78798,
    "lng": -117.8404065
  },
  {
    "id": "630026451",
    "name": "NATIONAL AMBULATORY SURGERY CENTER",
    "npi": null,
    "hcaiId": null,
    "businessName": null,
    "contactEmail": "BARB@BAASC.COM",
    "categoryName": "SURGICAL CLINIC",
    "categoryCode": "ASC",
    "licenseStatus": null,
    "inService": null,
    "licenseNumber": null,
    "licenseEffectiveDate": null,
    "licenseExpirationDate": null,
    "dataDate": "10/18/2025",
    "capacity": 0,
    "address": "302 W LA VETA AVE, SUITE 100",
    "city": "ORANGE",
    "zip": "92866",
    "county": "ORANGE",
    "phone": "(408) 761-5847",
    "lat": 33.780465,
    "lng": -117.85545
  },
  {
    "id": "060001620",
    "name": "PLANNED PARENTHOOD/ORANGE & SAN BERNARDINO CO.",
    "npi": null,
    "hcaiId": "306304242",
    "businessName": "PLANNED PARENTHOOD/ORANGE & SAN BERNARDINO CO.,INC",
    "contactEmail": "SAMANTHA.ORTEGA@PPOSBC.ORG",
    "categoryName": "PRIMARY CARE CLINIC",
    "categoryCode": "COMTYC",
    "licenseStatus": "ACTIVE",
    "inService": true,
    "licenseNumber": "060000509",
    "licenseEffectiveDate": "11/23/2024",
    "licenseExpirationDate": "11/22/2025",
    "dataDate": "10/18/2025",
    "capacity": 0,
    "address": "700 S TUSTIN ST",
    "city": "ORANGE",
    "zip": "92866",
    "county": "ORANGE",
    "phone": "(714) 922-4100",
    "lat": 33.776964,
    "lng": -117.835911
  },
  {
    "id": "060001431",
    "name": "SCAR - SPORTS CONDITIONING AND REHABILITATION",
    "npi": null,
    "hcaiId": null,
    "businessName": null,
    "contactEmail": null,
    "categoryName": "REHABILITATION CLINIC",
    "categoryCode": "OPT/SP",
    "licenseStatus": null,
    "inService": null,
    "licenseNumber": null,
    "licenseEffectiveDate": null,
    "licenseExpirationDate": null,
    "dataDate": "10/18/2025",
    "capacity": 0,
    "address": "871 S TUSTIN ST",
    "city": "ORANGE",
    "zip": "92866",
    "county": "ORANGE",
    "phone": "(714) 633-7227",
    "lat": 33.774012,
    "lng": -117.835506
  }
]