[
  {
    "id": "630016296",
    "name": "1 & 1 HOSPICE, INC.",
    "npi": null,
    "hcaiId": "406304595",
    "businessName": "1 & 1 HOSPICE, INC.",
    "contactEmail": "1AND1HOSPICEINC@GMAIL.COM",
    "categoryName": "HOSPICE",
    "categoryCode": "HOSPICE",
    "licenseStatus": "ACTIVE",
    "inService": true,
    "licenseNumber": "550003682",
    "licenseEffectiveDate": "10/03/2024",
    "licenseExpirationDate": "10/02/2026",
    "dataDate": "10/18/2025",
    "capacity": 0,
    "address": "201 S ANITA DR, SUITE 202",
    "city": "ORANGE",
    "zip": "92868",
    "county": "ORANGE",
    "phone": "(213) 609-1300",
    "lat": 33.78614002,
    "lng": -117.880816
  },
  {
    "id": "080001745",
    "name": "38 - ST. JOSEPH HOSPITAL RENAL CENTER",
    "npi": "1558575746",
    "hcaiId": null,
    "businessName": "ST. JOSEPH HOSPITAL OF ORANGE",
    "contactEmail": null,
    "categoryName": "CHRONIC DIALYSIS CLINIC",
    "categoryCode": "ESRD",
    "licenseStatus": "ACTIVE",
    "inService": true,
    "licenseNumber": "060000172",
    "licenseEffectiveDate": "01/01/2025",
    "licenseExpirationDate": "12/31/2025",
    "dataDate": "10/18/2025",
    "capacity": 0,
    "address": "1100 W STEWART DR",
    "city": "ORANGE",
    "zip": "92868",
    "county": "ORANGE",
    "phone": "(714) 771-8037",
    "lat": 33.782121,
    "lng": -117.864936
  },
  {
    "id": "080001673",
    "name": "ACCENTCARE HOSPICE & PALLIATIVE CARE OF CALIFORNIA - ORANGE",
    "npi": "1538309307",
    "hcaiId": "406304353",
    "businessName": "SEASONS HOSPICE & PALLIATIVE CARE OF CALIFORNIA ORANGE, LLC",
    "contactEmail": "RENEECOWAN@ACCENTCARE.COM",
    "categoryName": "HOSPICE",
    "categoryCode": "HOSPICE",
    "licenseStatus": "ACTIVE",
    "inService": true,
    "licenseNumber": "080000773",
    "licenseEffectiveDate": "05/28/2025",
    "licenseExpirationDate": "05/27/2027",
    "dataDate": "10/18/2025",
    "capacity": 0,
    "address": "750 THE CITY DR S, SUITE 120",
    "city": "ORANGE",
    "zip": "92868",
    "county": "ORANGE",
    "phone": null,
    "lat": 33.776154,
    "lng": -117.8918955
  },
  {
    "id": "630027396",
    "name": "ALTAMED DENTAL GROUP AT WEST ORANGE ELEMENTARY SCHOOL",
    "npi": "1740427657",
    "hcaiId": null,
    "businessName": "ALTAMED HEALTH SERVICES CORPORATION",
    "contactEmail": null,
    "categoryName": "PRIMARY CARE CLINIC",
    "categoryCode": "COMTYC",
    "licenseStatus": "ACTIVE",
    "inService": true,
    "licenseNumber": "550001008",
    "licenseEffectiveDate": "04/01/2025",
    "licenseExpirationDate": "03/31/2026",
    "dataDate": "10/18/2025",
    "capacity": 0,
    "address": "243 S BUSH ST",
    "city": "ORANGE",
    "zip": "92868",
    "county": "ORANGE",
    "phone": null,
    "lat": 33.78531,
    "lng": -117.865808
  },
  {
    "id": "630017475",
    "name": "ANITA HOSPICE, INC.",
    "npi": "1942734595",
    "hcaiId": "406301477",
    "businessName": "ANITA HOSPICE, INC",
    "contactEmail": "ANITAHOSPICE@GMAIL.COM",
    "categoryName": "HOSPICE",
    "categoryCode": "HOSPICE",
    "licenseStatus": "ACTIVE",
    "inService": true,
    "licenseNumber": "550004427",
    "licenseEffectiveDate": "11/09/2024",
    "licenseExpirationDate": "11/08/2026",
    "dataDate": "10/18/2025",
    "capacity": 0,
    "address": "201 S ANITA DR, SUITE 105",
    "city": "ORANGE",
    "zip": "92868",
    "county": "ORANGE",
    "phone": "(714) 456-9155",
    "lat": 33.786144,
    "lng": -117.880803
  },
  {
    "id": "630011610",
    "name": "AVEANNA HEALTHCARE",
    "npi": "1326292897",
    "hcaiId": "406304376",
    "businessName": "PREMIER HEALTHCARE SERVICES, LLC",
    "contactEmail": "CREDENTIALING@AVEANNA.COM",
    "categoryName": "HOME HEALTH AGENCY",
    "categoryCode": "HHA",
    "licenseStatus": "ACTIVE",
    "inService": true,
    "licenseNumber": "550000829",
    "licenseEffectiveDate": "11/03/2025",
    "licenseExpirationDate": "11/02/2026",
    "dataDate": "10/18/2025",
    "capacity": 0,
    "address": "625 THE CITY DR S, SUITE 390",
    "city": "ORANGE",
    "zip": "92868",
    "county": "ORANGE",
    "phone": "(714) 834-1442",
    "lat": 33.777576,
    "lng": -117.8885925
  },
  {
    "id": "630012693",
    "name": "AVERY HOME HEALTH AGENCY, INC.",
    "npi": "1164746038",
    "hcaiId": "406304466",
    "businessName": "AVERY HOME HEALTH AGENCY, INC.",
    "contactEmail": "INFO@AVERYHHA.COM",
    "categoryName": "HOME HEALTH AGENCY",
    "categoryCode": "HHA",
    "licenseStatus": "ACTIVE",
    "inService": true,
    "licenseNumber": "550001549",
    "licenseEffectiveDate": "09/25/2025",
    "licenseExpirationDate": "03/12/2026",
    "dataDate": "10/18/2025",
    "capacity": 0,
    "address": "725 W TOWN AND COUNTRY RD, SUITE 420",
    "city": "ORANGE",
    "zip": "92868",
    "county": "ORANGE",
    "phone": "(888) 724-6054",
    "lat": 33.777234,
    "lng": -117.8601975
  },
  {
    "id": "630016367",
    "name": "BENEVOLENCE HEALTH CENTER",
    "npi": null,
    "hcaiId": "306304587",
    "businessName": "BENEVOLENCE INDUSTRIES INCORPORATED",
    "contactEmail": "GDANQUAH@BHCHEALTH.ORG",
    "categoryName": "PRIMARY CARE CLINIC",
    "categoryCode": "COMTYC",
    "licenseStatus": "ACTIVE",
    "inService": true,
    "licenseNumber": "550003540",
    "licenseEffectiveDate": "06/15/2025",
    "licenseExpirationDate": "06/14/2026",
    "dataDate": "10/18/2025",
    "capacity": 0,
    "address": "805 W. LA VETA AVENUE, SUITE 110",
    "city": "ORANGE",
    "zip": "92868",
    "county": "ORANGE",
    "phone": "(714) 289-8800",
    "lat": 33.781383,
    "lng": -117.860832
  },
  {
    "id": "630011805",
    "name": "CAREWELL HOME HEALTH, INC.",
    "npi": "1841468683",
    "hcaiId": "406304449",
    "businessName": "CAREWELL HOME HEALTH, INC.",
    "contactEmail": "CAREWELLHH@GMAIL.COM",
    "categoryName": "HOME HEALTH AGENCY",
    "categoryCode": "HHA",
    "licenseStatus": "ACTIVE",
    "inService": true,
    "licenseNumber": "550001167",
    "licenseEffectiveDate": "11/16/2024",
    "licenseExpirationDate": "11/15/2025",
    "dataDate": "10/18/2025",
    "capacity": 0,
    "address": "1745 W ORANGEWOOD AVE, SUITE 111",
    "city": "ORANGE",
    "zip": "92868",
    "county": "ORANGE",
    "phone": "(714) 530-9750",
    "lat": 33.79557402,
    "lng": -117.871209
  },
  {
    "id": "630013501",
    "name": "CENTER FOR INHERITED BLOOD DISORDERS",
    "npi": "1679875942",
    "hcaiId": "306300659",
    "businessName": "THE CENTER FOR COMPREHENSIVE CARE & DIAGNOSIS OF INHERITED BLOOD DISORDERS",
    "contactEmail": "MCIANCIULLI@C3DIB.ORG",
    "categoryName": "PRIMARY CARE CLINIC",
    "categoryCode": "COMTYC",
    "licenseStatus": "ACTIVE",
    "inService": true,
    "licenseNumber": "550001889",
    "licenseEffectiveDate": "03/28/2025",
    "licenseExpirationDate": "03/27/2026",
    "dataDate": "10/18/2025",
    "capacity": 0,
    "address": "701 S PARKER ST, SUITE 1000 & 1100",
    "city": "ORANGE",
    "zip": "92868",
    "county": "ORANGE",
    "phone": "(657) 375-0503",
    "lat": 33.776415,
    "lng": -117.858564
  },
  {
    "id": "060002255",
    "name": "CHOC ORANGE CLINIC",
    "npi": null,
    "hcaiId": "306300671",
    "businessName": "CHILDREN'S HOSPITAL OF ORANGE COUNTY",
    "contactEmail": "CNAMENEK@CHOC.ORG",
    "categoryName": "PRIMARY CARE CLINIC",
    "categoryCode": "COMTYC",
    "licenseStatus": "ACTIVE",
    "inService": true,
    "licenseNumber": "060000942",
    "licenseEffectiveDate": "11/10/2024",
    "licenseExpirationDate": "11/09/2025",
    "dataDate": "10/18/2025",
    "capacity": 0,
    "address": "3745 W CHAPMAN AVE, FLOOR 1",
    "city": "ORANGE",
    "zip": "92868",
    "county": "ORANGE",
    "phone": "(714) 509-4897",
    "lat": 33.789213,
    "lng": -117.8934345
  },
  {
    "id": "630021818",
    "name": "ERA HOSPICE, INC.",
    "npi": null,
    "hcaiId": "406305728",
    "businessName": "ERA HOSPICE, INC.",
    "contactEmail": "ERAHOSPICE@GMAIL.COM",
    "categoryName": "HOSPICE",
    "categoryCode": "HOSPICE",
    "licenseStatus": "ACTIVE",
    "inService": true,
    "licenseNumber": "550007699",
    "licenseEffectiveDate": "12/16/2023",
    "licenseExpirationDate": "12/15/2025",
    "dataDate": "10/18/2025",
    "capacity": 0,
    "address": "2050 W CHAPMAN AVE, SUITE 246",
    "city": "ORANGE",
    "zip": "92868",
    "county": "ORANGE",
    "phone": "(714) 602-9232",
    "lat": 33.787719,
    "lng": -117.8749755
  },
  {
    "id": "080001604",
    "name": "FRESENIUS MEDICAL CARE UNIVERSITY DIALYSIS CENTER OF ORANGE",
    "npi": "1316315955",
    "hcaiId": "306300364",
    "businessName": "BIO-MEDICAL APPLICATIONS OF CALIFORNIA, INC.",
    "contactEmail": "CLINIC9472@FRESENIUSMEDICALCARE.COM",
    "categoryName": "CHRONIC DIALYSIS CLINIC",
    "categoryCode": "ESRD/CDC",
    "licenseStatus": "ACTIVE",
    "inService": true,
    "licenseNumber": "550003318",
    "licenseEffectiveDate": "10/01/2025",
    "licenseExpirationDate": "09/30/2026",
    "dataDate": "10/18/2025",
    "capacity": 36,
    "address": "1809 W CHAPMAN AVE",
    "city": "ORANGE",
    "zip": "92868",
    "county": "ORANGE",
    "phone": "(714) 456-5555",
    "lat": 33.788331,
    "lng": -117.8720685
  },
  {
    "id": "630013436",
    "name": "GRACELAND HOSPICE CARE",
    "npi": "1790061828",
    "hcaiId": "406304593",
    "businessName": "SHERMAN OAKS HOSPICE CARE GROUP, INC.",
    "contactEmail": "MARRINGTON@GRACELANDHC.COM",
    "categoryName": "HOSPICE",
    "categoryCode": "HOSPICE",
    "licenseStatus": "ACTIVE",
    "inService": true,
    "licenseNumber": "550002042",
    "licenseEffectiveDate": "01/15/2025",
    "licenseExpirationDate": "11/15/2026",
    "dataDate": "10/18/2025",
    "capacity": 0,
    "address": "2141 W ORANGEWOOD AVE, SUITE A",
    "city": "ORANGE",
    "zip": "92868",
    "county": "ORANGE",
    "phone": "(714) 733-1333",
    "lat": 33.79653869,
    "lng": -117.8757803
  },
  {
    "id": "630020681",
    "name": "HOME HEALTH INC.",
    "npi": null,
    "hcaiId": "406305562",
    "businessName": "HOME HEALTH INC.",
    "contactEmail": "HOMEHEALTHINC23@GMAIL.COM",
    "categoryName": "HOME HEALTH AGENCY",
    "categoryCode": "HHA",
    "licenseStatus": "ACTIVE",
    "inService": true,
    "licenseNumber": "550006252",
    "licenseEffectiveDate": "04/19/2025",
    "licenseExpirationDate": "04/18/2026",
    "dataDate": "10/18/2025",
    "capacity": 0,
    "address": "2050 W CHAPMAN AVE, SUITE 200",
    "city": "ORANGE",
    "zip": "92868",
    "county": "ORANGE",
    "phone": "(844) 444-1123",
    "lat": 33.78762,
    "lng": -117.874962
  },
  {
    "id": "630025826",
    "name": "JUVAN HOME HEALTH CARE",
    "npi": null,
    "hcaiId": "406300022",
    "businessName": "JUVAN HOME HEALTH CARE",
    "contactEmail": "JUVANHHC@GMAIL.COM",
    "categoryName": "HOME HEALTH AGENCY",
    "categoryCode": "HHA",
    "licenseStatus": "ACTIVE",
    "inService": true,
    "licenseNumber": "550008890",
    "licenseEffectiveDate": "12/05/2024",
    "licenseExpirationDate": "12/04/2025",
    "dataDate": "10/18/2025",
    "capacity": 0,
    "address": "2050 W CHAPMAN AVE, SUITE 287",
    "city": "ORANGE",
    "zip": "92868",
    "county": "ORANGE",
    "phone": "(657) 331-0762",
    "lat": 33.787719,
    "lng": -117.8749755
  },
  {
    "id": "060000987",
    "name": "LA VETA SURGICAL CENTER",
    "npi": "1033177373",
    "hcaiId": "306304130",
    "businessName": "SURGICARE OF LA VETA, LTD.",
    "contactEmail": "AYMAN.MOUSE@HEALTHSOUTH.COM",
    "categoryName": "SURGICAL CLINIC",
    "categoryCode": "ASC",
    "licenseStatus": "INACTIVE - CAPEN DECISION",
    "inService": false,
    "licenseNumber": "060000358",
    "licenseEffectiveDate": "04/22/2008",
    "licenseExpirationDate": "04/21/2009",
    "dataDate": "10/18/2025",
    "capacity": 0,
    "address": "681 S PARKER ST, SUITE 150",
    "city": "ORANGE",
    "zip": "92868",
    "county": "ORANGE",
    "phone": "(714) 744-0900",
    "lat": 33.777009,
    "lng": -117.858789
  },
  {
    "id": "060002044",
    "name": "MAIN STREET SPECIALTY SURGERY CENTER, LP",
    "npi": "1225275688",
    "hcaiId": "306304298",
    "businessName": "MAIN STREET SPECIALTY SURGERY CENTER, LP",
    "contactEmail": "TAMMYRM@YAHOO.COM",
    "categoryName": "SURGICAL CLINIC",
    "categoryCode": "ASC",
    "licenseStatus": "INACTIVE - CAPEN DECISION",
    "inService": false,
    "licenseNumber": "060000827",
    "licenseEffectiveDate": "11/19/2007",
    "licenseExpirationDate": "11/18/2008",
    "dataDate": "10/18/2025",
    "capacity": 0,
    "address": "280 S MAIN ST, SUITE 100",
    "city": "ORANGE",
    "zip": "92868",
    "county": "ORANGE",
    "phone": "(714) 704-1900",
    "lat": 33.784587,
    "lng": -117.8674515
  },
  {
    "id": "080001589",
    "name": "MAINPLACE DIALYSIS CENTER",
    "npi": "1679718225",
    "hcaiId": "306300486",
    "businessName": "BRUNO DIALYSIS, LLC",
    "contactEmail": "CAL_C@DAVITA.COM",
    "categoryName": "CHRONIC DIALYSIS CLINIC",
    "categoryCode": "ESRD/CDC",
    "licenseStatus": "ACTIVE",
    "inService": true,
    "licenseNumber": "080000681",
    "licenseEffectiveDate": "12/02/2024",
    "licenseExpirationDate": "12/01/2025",
    "dataDate": "10/18/2025",
    "capacity": 36,
    "address": "146 S MAIN ST",
    "city": "ORANGE",
    "zip": "92868",
    "county": "ORANGE",
    "phone": "(714) 938-0870",
    "lat": 33.787296,
    "lng": -117.868563
  },
  {
    "id": "080001538",
    "name": "MAINPLACE POST ACUTE",
    "npi": "1447714373",
    "hcaiId": "206301174",
    "businessName": "LA VETA HEALTHCARE, INC.",
    "contactEmail": "RENEWALS@ENSIGNSERVICES.NET",
    "categoryName": "SKILLED NURSING FACILITY",
    "categoryCode": "SNF",
    "licenseStatus": "ACTIVE",
    "inService": true,
    "licenseNumber": "080000646",
    "licenseEffectiveDate": "11/15/2024",
    "licenseExpirationDate": "11/14/2025",
    "dataDate": "10/18/2025",
    "capacity": 169,
    "address": "1835 W LA VETA AVE",
    "city": "ORANGE",
    "zip": "92868",
    "county": "ORANGE",
    "phone": "(714) 978-6800",
    "lat": 33.780555,
    "lng": -117.8723565
  },
  {
    "id": "060002024",
    "name": "MAXIM HEALTHCARE SERVICES, INC.",
    "npi": "1831207109",
    "hcaiId": "406304295",
    "businessName": "MAXIM HEALTHCARE SERVICES, INC.",
    "contactEmail": "ORANGECAHOMECARE_177@MAXHEALTH.COM",
    "categoryName": "HOME HEALTH AGENCY",
    "categoryCode": "HHA",
    "licenseStatus": "ACTIVE",
    "inService": true,
    "licenseNumber": "060000805",
    "licenseEffectiveDate": "06/12/2025",
    "licenseExpirationDate": "06/11/2026",
    "dataDate": "10/18/2025",
    "capacity": 0,
    "address": "500 S. MAIN STREET, SUITE 600",
    "city": "ORANGE",
    "zip": "92868",
    "county": "ORANGE",
    "phone": "(888) 800-1857",
    "lat": 33.779889,
    "lng": -117.867924
  },
  {
    "id": "630021819",
    "name": "OPTIMAL COMFORT HOSPICE, INC.",
    "npi": null,
    "hcaiId": "406303978",
    "businessName": "OPTIMAL COMFORT HOSPICE, INC.",
    "contactEmail": "OPTIMALCOMFORTHOSPICE@GMAIL.COM",
    "categoryName": "HOSPICE",
    "categoryCode": "HOSPICE",
    "licenseStatus": "ACTIVE",
    "inService": true,
    "licenseNumber": "550007412",
    "licenseEffectiveDate": "12/09/2023",
    "licenseExpirationDate": "12/08/2025",
    "dataDate": "10/18/2025",
    "capacity": 0,
    "address": "2140 W CHAPMAN AVE, SUITE 265",
    "city": "ORANGE",
    "zip": "92868",
    "county": "ORANGE",
    "phone": "(714) 602-9714",
    "lat": 33.787557,
    "lng": -117.875844
  },
  {
    "id": "060000052",
    "name": "ORANGE HEALTHCARE & WELLNESS CENTRE, LLC",
    "npi": "1376776617",
    "hcaiId": "206301204",
    "businessName": "ORANGE HEALTHCARE & WELLNESS CENTRE, LLC",
    "contactEmail": "ADMINISTRATOR@ORANGEREHABILITATION.COM",
    "categoryName": "SKILLED NURSING FACILITY",
    "categoryCode": "SNF",
    "licenseStatus": "ACTIVE",
    "inService": true,
    "licenseNumber": "060000120",
    "licenseEffectiveDate": "12/02/2024",
    "licenseExpirationDate": "12/01/2025",
    "dataDate": "10/18/2025",
    "capacity": 102,
    "address": "920 W LA VETA AVE",
    "city": "ORANGE",
    "zip": "92868",
    "county": "ORANGE",
    "phone": "(714) 633-3568",
    "lat": 33.779142,
    "lng": -117.862281
  },
  {
    "id": "630012151",
    "name": "ORANGEWOOD SURGICAL CENTER LLC",
    "npi": "1326223298",
    "hcaiId": null,
    "businessName": null,
    "contactEmail": null,
    "categoryName": "SURGICAL CLINIC",
    "categoryCode": "ASC",
    "licenseStatus": null,
    "inService": null,
    "licenseNumber": null,
    "licenseEffectiveDate": null,
    "licenseExpirationDate": null,
    "dataDate": "10/18/2025",
    "capacity": 0,
    "address": "2143 W ORANGEWOOD AVE",
    "city": "ORANGE",
    "zip": "92868",
    "county": "ORANGE",
    "phone": "(714) 221-4236",
    "lat": 33.79617,
    "lng": -117.8757945
  },
  {
    "id": "630017853",
    "name": "PAVILION SURGERY CENTER",
    "npi": "1346440971",
    "hcaiId": null,
    "businessName": null,
    "contactEmail": null,
    "categoryName": "SURGICAL CLINIC",
    "categoryCode": "ASC",
    "licenseStatus": null,
    "inService": null,
    "licenseNumber": null,
    "licenseEffectiveDate": null,
    "licenseExpirationDate": null,
    "dataDate": "10/18/2025",
    "capacity": 0,
    "address": "1140 W LA VETA AVE, SUITE 300",
    "city": "ORANGE",
    "zip": "92868",
    "county": "ORANGE",
    "phone": "(949) 390-9656",
    "lat": 33.779574,
    "lng": -117.8650665
  },
  {
    "id": "630017147",
    "name": "PENTEC HEALTH, INC.",
    "npi": null,
    "hcaiId": "406301343",
    "businessName": "PENTEC HEALTH, INC.",
    "contactEmail": "REGULATORY@PENTECHEALTH.COM",
    "categoryName": "HOME HEALTH AGENCY",
    "categoryCode": "HHA",
    "licenseStatus": "ACTIVE",
    "inService": true,
    "licenseNumber": "550004137",
    "licenseEffectiveDate": "06/02/2025",
    "licenseExpirationDate": "02/13/2026",
    "dataDate": "10/18/2025",
    "capacity": 0,
    "address": "333 CITY BLVD W, SUITE 1700",
    "city": "ORANGE",
    "zip": "92868",
    "county": "ORANGE",
    "phone": "(800) 223-4376",
    "lat": 33.787134,
    "lng": -117.8936595
  },
  {
    "id": "060000731",
    "name": "PLASTIC SURGERY ASSOCIATES OF ORANGE COUNTY",
    "npi": "1053492736",
    "hcaiId": null,
    "businessName": null,
    "contactEmail": null,
    "categoryName": "SURGICAL CLINIC",
    "categoryCode": "ASC",
    "licenseStatus": null,
    "inService": null,
    "licenseNumber": null,
    "licenseEffectiveDate": null,
    "licenseExpirationDate": null,
    "dataDate": "10/18/2025",
    "capacity": 0,
    "address": "1310 W STEWART DR, SUITE 610",
    "city": "ORANGE",
    "zip": "92868",
    "county": "ORANGE",
    "phone": "(714) 997-4300",
    "lat": 33.781932,
    "lng": -117.866475
  },
  {
    "id": "630027593",
    "name": "PROVIDENCE SPECIALTY SURGERY CENTER",
    "npi": null,
    "hcaiId": null,
    "businessName": null,
    "contactEmail": "JIM@SOUTHCOASTSPECIALTYCENTER.COM",
    "categoryName": "SURGICAL CLINIC",
    "categoryCode": "ASC",
    "licenseStatus": null,
    "inService": null,
    "licenseNumber": null,
    "licenseEffectiveDate": null,
    "licenseExpirationDate": null,
    "dataDate": "10/18/2025",
    "capacity": 0,
    "address": "1310 W STEWART DR, SUITE 310",
    "city": "ORANGE",
    "zip": "92868",
    "county": "ORANGE",
    "phone": "(714) 813-0080",
    "lat": 33.78193402,
    "lng": -117.866498
  },
  {
    "id": "060000067",
    "name": "PROVIDENCE ST. JOSEPH HOSPITAL",
    "npi": "1912982216",
    "hcaiId": "106301340",
    "businessName": "ST. JOSEPH HOSPITAL OF ORANGE",
    "contactEmail": "ANJULI.SANDHU@PROVIDENCE.ORG",
    "categoryName": "GENERAL ACUTE CARE HOSPITAL",
    "categoryCode": "GACH",
    "licenseStatus": "ACTIVE",
    "inService": true,
    "licenseNumber": "060000172",
    "licenseEffectiveDate": "01/01/2025",
    "licenseExpirationDate": "12/31/2025",
    "dataDate": "10/18/2025",
    "capacity": 446,
    "address": "1100 W STEWART DR",
    "city": "ORANGE",
    "zip": "92868",
    "county": "ORANGE",
    "phone": "(714) 771-8277",
    "lat": 33.7810245,
    "lng": -117.8666657
  },
  {
    "id": "630028020",
    "name": "PROVIDENCE ST. JOSEPH HOSPITAL TRANSPLANT",
    "npi": null,
    "hcaiId": null,
    "businessName": "ST. JOSEPH HOSPITAL OF ORANGE",
    "contactEmail": null,
    "categoryName": "GENERAL ACUTE CARE HOSPITAL",
    "categoryCode": "TRANS",
    "licenseStatus": "ACTIVE",
    "inService": true,
    "licenseNumber": "060000172",
    "licenseEffectiveDate": "01/01/2025",
    "licenseExpirationDate": "12/31/2025",
    "dataDate": "10/18/2025",
    "capacity": 0,
    "address": "1300 W PALMYRA AVE, FLOOR 2ND FLOOR",
    "city": "ORANGE",
    "zip": "92868",
    "county": "ORANGE",
    "phone": null,
    "lat": 33.78376798,
    "lng": -117.866206
  },
  {
    "id": "060002215",
    "name": "PUENTE A LA SALUD MOBILE DENTAL CLINIC",
    "npi": "1316206592",
    "hcaiId": "306304322",
    "businessName": "ST. JUDE NEIGHBORHOOD HEALTH CENTERS",
    "contactEmail": null,
    "categoryName": "PRIMARY CARE CLINIC",
    "categoryCode": "COMTYC",
    "licenseStatus": "ACTIVE",
    "inService": true,
    "licenseNumber": "550000408",
    "licenseEffectiveDate": "11/01/2025",
    "licenseExpirationDate": "10/31/2026",
    "dataDate": "10/18/2025",
    "capacity": 0,
    "address": "363 S MAIN ST, SUITE 204",
    "city": "ORANGE",
    "zip": "92868",
    "county": "ORANGE",
    "phone": "(714) 744-8629",
    "lat": 33.78276,
    "lng": -117.867123
  },
  {
    "id": "060000007",
    "name": "RADY CHILDREN'S HOSPITAL ORANGE COUNTY",
    "npi": "1811080526",
    "hcaiId": "106300032",
    "businessName": "CHILDREN'S HOSPITAL OF ORANGE COUNTY",
    "contactEmail": "CZUNIGA@CHOC.ORG",
    "categoryName": "GENERAL ACUTE CARE HOSPITAL",
    "categoryCode": "GACH",
    "licenseStatus": "ACTIVE",
    "inService": true,
    "licenseNumber": "060000011",
    "licenseEffectiveDate": "09/23/2025",
    "licenseExpirationDate": "11/30/2025",
    "dataDate": "10/18/2025",
    "capacity": 386,
    "address": "1201 W LA VETA AVE",
    "city": "ORANGE",
    "zip": "92868",
    "county": "ORANGE",
    "phone": "(714) 509-3289",
    "lat": 33.780897,
    "lng": -117.8655975
  },
  {
    "id": "630013448",
    "name": "RELIABLE HOSPICE, INC.",
    "npi": null,
    "hcaiId": "406304498",
    "businessName": "RELIABLE HOSPICE, INC.",
    "contactEmail": "RELIABLEHOSPICE@GMAIL.COM",
    "categoryName": "HOSPICE",
    "categoryCode": "HOSPICE",
    "licenseStatus": "ACTIVE",
    "inService": true,
    "licenseNumber": "550001888",
    "licenseEffectiveDate": "04/28/2025",
    "licenseExpirationDate": "03/26/2026",
    "dataDate": "10/18/2025",
    "capacity": 0,
    "address": "1234 W CHAPMAN AVE, SUITE 103",
    "city": "ORANGE",
    "zip": "92868",
    "county": "ORANGE",
    "phone": "(844) 395-4694",
    "lat": 33.78752001,
    "lng": -117.865857
  },
  {
    "id": "630025970",
    "name": "SMILE AT THOMPSON",
    "npi": null,
    "hcaiId": null,
    "businessName": "HEALTHY SMILES FOR KIDS OF ORANGE COUNTY",
    "contactEmail": "CDELAROSA@HEALTHYSMILESOC.ORG",
    "categoryName": "PRIMARY CARE CLINIC",
    "categoryCode": "COMTYC",
    "licenseStatus": "ACTIVE",
    "inService": true,
    "licenseNumber": "550000106",
    "licenseEffectiveDate": "12/07/2024",
    "licenseExpirationDate": "12/06/2025",
    "dataDate": "10/18/2025",
    "capacity": 0,
    "address": "170 S MAIN ST",
    "city": "ORANGE",
    "zip": "92868",
    "county": "ORANGE",
    "phone": "(714) 537-0700",
    "lat": 33.786306,
    "lng": -117.86751
  },
  {
    "id": "630016477",
    "name": "SPINE & SPORTS SURGICAL CENTER, LLC",
    "npi": "1932598760",
    "hcaiId": null,
    "businessName": null,
    "contactEmail": null,
    "categoryName": "SURGICAL CLINIC",
    "categoryCode": "ASC",
    "licenseStatus": null,
    "inService": null,
    "licenseNumber": null,
    "licenseEffectiveDate": null,
    "licenseExpirationDate": null,
    "dataDate": "10/18/2025",
    "capacity": 0,
    "address": "1120 W. LA VETA AVE., SUITE 330",
    "city": "ORANGE",
    "zip": "92868",
    "county": "ORANGE",
    "phone": null,
    "lat": 33.780006,
    "lng": -117.86436
  },
  {
    "id": "060000673",
    "name": "ST. JOSEPH HOSPITAL D/P APH",
    "npi": "1912982216",
    "hcaiId": null,
    "businessName": "ST. JOSEPH HOSPITAL OF ORANGE",
    "contactEmail": null,
    "categoryName": "ACUTE PSYCHIATRIC HOSPITAL",
    "categoryCode": "APH",
    "licenseStatus": "ACTIVE",
    "inService": true,
    "licenseNumber": "060000172",
    "licenseEffectiveDate": "01/01/2025",
    "licenseExpirationDate": "12/31/2025",
    "dataDate": "10/18/2025",
    "capacity": 37,
    "address": "1100 W STEWART DR",
    "city": "ORANGE",
    "zip": "92868",
    "county": "ORANGE",
    "phone": "(714) 633-9111",
    "lat": 33.782121,
    "lng": -117.864936
  },
  {
    "id": "630027621",
    "name": "ST. JOSEPH NEIGHBORHOOD HEALTH - WOMEN'S HEALTH CENTER",
    "npi": "1316206592",
    "hcaiId": null,
    "businessName": "ST. JUDE NEIGHBORHOOD HEALTH CENTERS",
    "contactEmail": null,
    "categoryName": "PRIMARY CARE CLINIC",
    "categoryCode": "COMTYC",
    "licenseStatus": "ACTIVE",
    "inService": true,
    "licenseNumber": "550000408",
    "licenseEffectiveDate": "11/01/2025",
    "licenseExpirationDate": "10/31/2026",
    "dataDate": "10/18/2025",
    "capacity": 0,
    "address": "363 S MAIN ST, SUITE 320",
    "city": "ORANGE",
    "zip": "92868",
    "county": "ORANGE",
    "phone": null,
    "lat": 33.78278298,
    "lng": -117.86698
  },
  {
    "id": "630027620",
    "name": "ST. JOSEPH NEIGHBORHOOD HEALTH -PEDIATRIC HEALTH CENTER",
    "npi": "1316206592",
    "hcaiId": null,
    "businessName": "ST. JUDE NEIGHBORHOOD HEALTH CENTERS",
    "contactEmail": null,
    "categoryName": "PRIMARY CARE CLINIC",
    "categoryCode": "COMTYC",
    "licenseStatus": "ACTIVE",
    "inService": true,
    "licenseNumber": "550000408",
    "licenseEffectiveDate": "11/01/2025",
    "licenseExpirationDate": "10/31/2026",
    "dataDate": "10/18/2025",
    "capacity": 0,
    "address": "363 S MAIN ST, SUITE 310",
    "city": "ORANGE",
    "zip": "92868",
    "county": "ORANGE",
    "phone": null,
    "lat": 33.78278298,
    "lng": -117.86698
  },
  {
    "id": "630011846",
    "name": "ST. JOSEPH SATELLITE HEALTHCARE",
    "npi": "1790229318",
    "hcaiId": "306304432",
    "businessName": "ST. JOSEPH SATELLITE DIALYSIS CENTERS, LLC",
    "contactEmail": "LICENSING@SATELLITEHEALTH.COM",
    "categoryName": "CHRONIC DIALYSIS CLINIC",
    "categoryCode": "ESRD/CDC",
    "licenseStatus": "ACTIVE",
    "inService": true,
    "licenseNumber": "550000808",
    "licenseEffectiveDate": "11/12/2024",
    "licenseExpirationDate": "11/11/2025",
    "dataDate": "10/18/2025",
    "capacity": 24,
    "address": "1518 W LA VETA AVE",
    "city": "ORANGE",
    "zip": "92868",
    "county": "ORANGE",
    "phone": "(714) 285-9675",
    "lat": 33.78006,
    "lng": -117.8686935
  },
  {
    "id": "630020580",
    "name": "TAYBIAN HOSPICE, INC.",
    "npi": null,
    "hcaiId": "406303780",
    "businessName": "TAYBIAN HOSPICE INC",
    "contactEmail": "TAYBIANHOSPICEINC@GMAIL.COM",
    "categoryName": "HOSPICE",
    "categoryCode": "HOSPICE",
    "licenseStatus": "ACTIVE",
    "inService": true,
    "licenseNumber": "550006699",
    "licenseEffectiveDate": "07/22/2025",
    "licenseExpirationDate": "07/21/2027",
    "dataDate": "10/18/2025",
    "capacity": 0,
    "address": "1940 W ORANGEWOOD AVE, SUITE 110 #9",
    "city": "ORANGE",
    "zip": "92868",
    "county": "ORANGE",
    "phone": "(714) 602-7782",
    "lat": 33.795585,
    "lng": -117.873333
  },
  {
    "id": "630018171",
    "name": "THE LA AMISTAD HEALTH CENTER",
    "npi": null,
    "hcaiId": "306300607",
    "businessName": "ST. JUDE NEIGHBORHOOD HEALTH CENTERS",
    "contactEmail": "TIMOTHY.BROWN@STJOE.ORG",
    "categoryName": "PRIMARY CARE CLINIC",
    "categoryCode": "COMTYC",
    "licenseStatus": "ACTIVE",
    "inService": true,
    "licenseNumber": "550006137",
    "licenseEffectiveDate": "04/01/2025",
    "licenseExpirationDate": "03/31/2026",
    "dataDate": "10/18/2025",
    "capacity": 0,
    "address": "725 W LA VETA AVE, SUITE 260",
    "city": "ORANGE",
    "zip": "92868",
    "county": "ORANGE",
    "phone": "(714) 771-8987",
    "lat": 33.782022,
    "lng": -117.860229
  },
  {
    "id": "630012677",
    "name": "TRADITIONS HEALTH",
    "npi": null,
    "hcaiId": "406304468",
    "businessName": "CADENCE HEALTHCARE, LLC",
    "contactEmail": "REGULATORY@TRADITIONSHEALTH.COM",
    "categoryName": "HOSPICE",
    "categoryCode": "HOSPICE",
    "licenseStatus": "ACTIVE",
    "inService": true,
    "licenseNumber": "550001525",
    "licenseEffectiveDate": "01/27/2025",
    "licenseExpirationDate": "01/26/2027",
    "dataDate": "10/18/2025",
    "capacity": 0,
    "address": "500 S MAIN ST, SUITE 500",
    "city": "ORANGE",
    "zip": "92868",
    "county": "ORANGE",
    "phone": "(979) 704-6547",
    "lat": 33.779889,
    "lng": -117.867924
  },
  {
    "id": "060000071",
    "name": "UCI HEALTH-ORANGE",
    "npi": "1689608150",
    "hcaiId": "106301279",
    "businessName": "UNIVERSITY OF CALIFORNIA IRVINE",
    "contactEmail": "DBOURGET@HS.UCI.EDU",
    "categoryName": "GENERAL ACUTE CARE HOSPITAL",
    "categoryCode": "GACH",
    "licenseStatus": "ACTIVE",
    "inService": true,
    "licenseNumber": "060000148",
    "licenseEffectiveDate": "11/01/2025",
    "licenseExpirationDate": "10/31/2026",
    "dataDate": "10/18/2025",
    "capacity": 459,
    "address": "101 THE CITY DR S",
    "city": "ORANGE",
    "zip": "92868",
    "county": "ORANGE",
    "phone": "(714) 456-8692",
    "lat": 33.7869258,
    "lng": -117.8912689
  },
  {
    "id": "060001258",
    "name": "UNITED SURGERY CENTER - ORANGE",
    "npi": null,
    "hcaiId": "306304141",
    "businessName": null,
    "contactEmail": "ADMIN@COMCLINTRI.COM",
    "categoryName": "SURGICAL CLINIC",
    "categoryCode": "ASC",
    "licenseStatus": "INACTIVE - CAPEN DECISION",
    "inService": false,
    "licenseNumber": "060000371",
    "licenseEffectiveDate": "11/12/2008",
    "licenseExpirationDate": "11/11/2009",
    "dataDate": "10/18/2025",
    "capacity": 0,
    "address": "1140 W LA VETA AVE, SUITE 550",
    "city": "ORANGE",
    "zip": "92868",
    "county": "ORANGE",
    "phone": "(714) 835-3636",
    "lat": 33.779574,
    "lng": -117.8650665
  },
  {
    "id": "630014295",
    "name": "UNIVERSAL HEALTH NET",
    "npi": "1821330325",
    "hcaiId": "406304547",
    "businessName": "UNIVERSAL HEALTH NET",
    "contactEmail": "IMAN@UHNHEALTH.COM",
    "categoryName": "HOSPICE",
    "categoryCode": "HOSPICE",
    "licenseStatus": "ACTIVE",
    "inService": true,
    "licenseNumber": "550002578",
    "licenseEffectiveDate": "09/19/2024",
    "licenseExpirationDate": "02/04/2026",
    "dataDate": "10/18/2025",
    "capacity": 0,
    "address": "500 N STATE COLLEGE BLVD, SUITE 1100",
    "city": "ORANGE",
    "zip": "92868",
    "county": "ORANGE",
    "phone": "(949) 278-1340",
    "lat": 33.79566299,
    "lng": -117.889846
  },
  {
    "id": "630012302",
    "name": "UNIVERSITY OF CALIFORNIA IRVINE - TRANSPLANT CENTER",
    "npi": null,
    "hcaiId": null,
    "businessName": "UNIVERSITY OF CALIFORNIA IRVINE",
    "contactEmail": null,
    "categoryName": "GENERAL ACUTE CARE HOSPITAL",
    "categoryCode": "TRANS",
    "licenseStatus": "ACTIVE",
    "inService": true,
    "licenseNumber": "060000148",
    "licenseEffectiveDate": "11/01/2025",
    "licenseExpirationDate": "10/31/2026",
    "dataDate": "10/18/2025",
    "capacity": 0,
    "address": "101 THE CITY DR S",
    "city": "ORANGE",
    "zip": "92868",
    "county": "ORANGE",
    "phone": "(714) 456-6112",
    "lat": 33.788079,
    "lng": -117.890136
  },
  {
    "id": "060000921",
    "name": "UNIVERSITY OF CALIFORNIA IRVINE MEDICAL CENTER",
    "npi": "1689608150",
    "hcaiId": null,
    "businessName": "UNIVERSITY OF CALIFORNIA IRVINE",
    "contactEmail": null,
    "categoryName": "OTHER",
    "categoryCode": "PPSPSCH",
    "licenseStatus": "ACTIVE",
    "inService": true,
    "licenseNumber": "060000148",
    "licenseEffectiveDate": "11/01/2025",
    "licenseExpirationDate": "10/31/2026",
    "dataDate": "10/18/2025",
    "capacity": 0,
    "address": "101 THE CITY DR S",
    "city": "ORANGE",
    "zip": "92868",
    "county": "ORANGE",
    "phone": null,
    "lat": 33.788079,
    "lng": -117.890136
  },
  {
    "id": "060001107",
    "name": "UNIVERSITY OF CALIFORNIA IRVINE MEDICAL CENTER",
    "npi": "1689608150",
    "hcaiId": null,
    "businessName": "UNIVERSITY OF CALIFORNIA IRVINE",
    "contactEmail": null,
    "categoryName": "OTHER",
    "categoryCode": "PPSREHB",
    "licenseStatus": "ACTIVE",
    "inService": true,
    "licenseNumber": "060000148",
    "licenseEffectiveDate": "11/01/2025",
    "licenseExpirationDate": "10/31/2026",
    "dataDate": "10/18/2025",
    "capacity": 0,
    "address": "101 THE CITY DR S",
    "city": "ORANGE",
    "zip": "92868",
    "county": "ORANGE",
    "phone": null,
    "lat": 33.788079,
    "lng": -117.890136
  },
  {
    "id": "630016583",
    "name": "WELLCARE SPECIALIST HOSPICE, INCORPORATED",
    "npi": null,
    "hcaiId": "406301575",
    "businessName": "WELLCARE SPECIALIST HOSPICE INCORPORATED",
    "contactEmail": "ACERVAN@WELLCAREHOSPICE.NET",
    "categoryName": "HOSPICE",
    "categoryCode": "HOSPICE",
    "licenseStatus": "ACTIVE",
    "inService": true,
    "licenseNumber": "550003808",
    "licenseEffectiveDate": "03/14/2025",
    "licenseExpirationDate": "03/13/2027",
    "dataDate": "10/18/2025",
    "capacity": 0,
    "address": "1745 W ORANGEWOOD AVE, SUITE 101",
    "city": "ORANGE",
    "zip": "92868",
    "county": "ORANGE",
    "phone": "(714) 462-6205",
    "lat": 33.79557402,
    "lng": -117.871209
  }
]