[
  {
    "id": "630027370",
    "name": "ALTAMED DENTAL GROUP AT TAFT ELEMENTARY SCHOOL",
    "npi": null,
    "hcaiId": null,
    "businessName": "ALTAMED HEALTH SERVICES CORPORATION",
    "contactEmail": null,
    "categoryName": "PRIMARY CARE CLINIC",
    "categoryCode": "COMTYC",
    "licenseStatus": "ACTIVE",
    "inService": true,
    "licenseNumber": "550005158",
    "licenseEffectiveDate": "12/20/2024",
    "licenseExpirationDate": "12/19/2025",
    "dataDate": "10/18/2025",
    "capacity": 0,
    "address": "1829 N CAMBRIDGE ST",
    "city": "ORANGE",
    "zip": "92865",
    "county": "ORANGE",
    "phone": null,
    "lat": 33.81802302,
    "lng": -117.843571
  },
  {
    "id": "060001450",
    "name": "CACHUELA ICF/DD-N HOME",
    "npi": "1376639609",
    "hcaiId": null,
    "businessName": "CACHUELA ICF/DD-N HOME, INC.",
    "contactEmail": "MPAINTEREDD@GMAIL.COM",
    "categoryName": "INTERMEDIATE CARE FACILITY-DD/H/N/CN/IID",
    "categoryCode": "ICFDDN",
    "licenseStatus": "ACTIVE",
    "inService": true,
    "licenseNumber": "060000454",
    "licenseEffectiveDate": "06/26/2025",
    "licenseExpirationDate": "06/25/2026",
    "dataDate": "10/18/2025",
    "capacity": 6,
    "address": "1721 N GREENGROVE ST",
    "city": "ORANGE",
    "zip": "92865",
    "county": "ORANGE",
    "phone": "(714) 343-7898",
    "lat": 33.816294,
    "lng": -117.8395065
  },
  {
    "id": "630021492",
    "name": "DEFINITIVE HOSPICE CARE",
    "npi": null,
    "hcaiId": "406303580",
    "businessName": "DEFINITIVE HOSPICE CARE",
    "contactEmail": "RESTYC@DEFINITIVEHOSPICE.COM",
    "categoryName": "HOSPICE",
    "categoryCode": "HOSPICE",
    "licenseStatus": "ACTIVE",
    "inService": true,
    "licenseNumber": "550006484",
    "licenseEffectiveDate": "06/22/2025",
    "licenseExpirationDate": "06/21/2027",
    "dataDate": "10/18/2025",
    "capacity": 0,
    "address": "1122 E LINCOLN AVE, SUITE B400",
    "city": "ORANGE",
    "zip": "92865",
    "county": "ORANGE",
    "phone": "(714) 602-6779",
    "lat": 33.836325,
    "lng": -117.841652
  },
  {
    "id": "630017313",
    "name": "LA AMISTAD MOBILE MEDICAL CLINIC",
    "npi": "1316206592",
    "hcaiId": null,
    "businessName": "ST. JUDE NEIGHBORHOOD HEALTH CENTERS",
    "contactEmail": null,
    "categoryName": "PRIMARY CARE CLINIC",
    "categoryCode": "COMTYC",
    "licenseStatus": "ACTIVE",
    "inService": true,
    "licenseNumber": "550000408",
    "licenseEffectiveDate": "11/01/2025",
    "licenseExpirationDate": "10/31/2026",
    "dataDate": "10/18/2025",
    "capacity": 0,
    "address": "1934 E TAFT AVE",
    "city": "ORANGE",
    "zip": "92865",
    "county": "ORANGE",
    "phone": null,
    "lat": 33.816339,
    "lng": -117.833184
  },
  {
    "id": "630021582",
    "name": "REPUTABLE HOSPICE CARE",
    "npi": null,
    "hcaiId": "406303636",
    "businessName": "REPUTABLE HOSPICE CARE",
    "contactEmail": "INFO@REPUTABLEHOSPICE.COM",
    "categoryName": "HOSPICE",
    "categoryCode": "HOSPICE",
    "licenseStatus": "ACTIVE",
    "inService": true,
    "licenseNumber": "550006485",
    "licenseEffectiveDate": "06/22/2025",
    "licenseExpirationDate": "06/21/2027",
    "dataDate": "10/18/2025",
    "capacity": 0,
    "address": "1122 E LINCOLN AVE, SUITE B500",
    "city": "ORANGE",
    "zip": "92865",
    "county": "ORANGE",
    "phone": "(714) 906-6046",
    "lat": 33.835725,
    "lng": -117.8415495
  },
  {
    "id": "630023456",
    "name": "SILVERWOOD HOME HEALTH CARE",
    "npi": null,
    "hcaiId": "406195216",
    "businessName": "SILVERWOOD HOME HEALTH CARE",
    "contactEmail": "SILVERWOODHHCARE@GMAIL.COM",
    "categoryName": "HOME HEALTH AGENCY",
    "categoryCode": "HHA",
    "licenseStatus": "ACTIVE",
    "inService": true,
    "licenseNumber": "550007902",
    "licenseEffectiveDate": "10/28/2025",
    "licenseExpirationDate": "03/16/2026",
    "dataDate": "10/18/2025",
    "capacity": 0,
    "address": "1122 E. LINCOLN AVE, SUITE B400B",
    "city": "ORANGE",
    "zip": "92865",
    "county": "ORANGE",
    "phone": "(714) 202-5061",
    "lat": 33.8357462,
    "lng": -117.8414975
  }
]