[
  {
    "id": "630027771",
    "name": "ALTAMED DENTAL GROUP AT CALIFORNIA ELEMENTARY SCHOOL",
    "npi": null,
    "hcaiId": null,
    "businessName": "ALTAMED HEALTH SERVICES CORPORATION",
    "contactEmail": null,
    "categoryName": "PRIMARY CARE CLINIC",
    "categoryCode": "COMTYC",
    "licenseStatus": "ACTIVE",
    "inService": true,
    "licenseNumber": "550001008",
    "licenseEffectiveDate": "04/01/2025",
    "licenseExpirationDate": "03/31/2026",
    "dataDate": "10/18/2025",
    "capacity": 0,
    "address": "1080 N CALIFORNIA ST",
    "city": "ORANGE",
    "zip": "92867",
    "county": "ORANGE",
    "phone": null,
    "lat": 33.80557799,
    "lng": -117.841627
  },
  {
    "id": "630024746",
    "name": "AMBITIONS HOME HEALTH, INC.",
    "npi": null,
    "hcaiId": "406195939",
    "businessName": "AMBITIONS HOME HEALTH, INC.",
    "contactEmail": "OVAISCHOTANI@AMBITIONSHHC.COM",
    "categoryName": "HOME HEALTH AGENCY",
    "categoryCode": "HHA",
    "licenseStatus": "ACTIVE",
    "inService": true,
    "licenseNumber": "550008243",
    "licenseEffectiveDate": "12/02/2024",
    "licenseExpirationDate": "12/01/2025",
    "dataDate": "10/18/2025",
    "capacity": 0,
    "address": "1224 E KATELLA AVE, SUITE 212",
    "city": "ORANGE",
    "zip": "92867",
    "county": "ORANGE",
    "phone": "(714) 455-2838",
    "lat": 33.80893749,
    "lng": -117.8408068
  },
  {
    "id": "630021128",
    "name": "OASIS EASTERN HOSPICE CARE",
    "npi": null,
    "hcaiId": "406300030",
    "businessName": "OASIS EASTERN HOSPICE CARE",
    "contactEmail": "OASISEASTERNHOSPICE@GMAIL.COM",
    "categoryName": "HOSPICE",
    "categoryCode": "HOSPICE",
    "licenseStatus": "ACTIVE",
    "inService": true,
    "licenseNumber": "550007682",
    "licenseEffectiveDate": "12/22/2023",
    "licenseExpirationDate": "12/21/2025",
    "dataDate": "10/18/2025",
    "capacity": 0,
    "address": "438 E KATELLA AVE, SUITE 222",
    "city": "ORANGE",
    "zip": "92867",
    "county": "ORANGE",
    "phone": "(714) 602-7151",
    "lat": 33.808698,
    "lng": -117.848988
  },
  {
    "id": "630020064",
    "name": "SATELLITE HEALTHCARE KATELLA ORANGE",
    "npi": "1760011274",
    "hcaiId": "306300554",
    "businessName": "SATELLITE HEALTHCARE OF KATELLA AVENUE, LLC",
    "contactEmail": "MACARAEGL@SATELLITEHEALTH.COM",
    "categoryName": "CHRONIC DIALYSIS CLINIC",
    "categoryCode": "ESRD/CDC",
    "licenseStatus": "ACTIVE",
    "inService": true,
    "licenseNumber": "550005433",
    "licenseEffectiveDate": "04/30/2025",
    "licenseExpirationDate": "04/29/2026",
    "dataDate": "10/18/2025",
    "capacity": 25,
    "address": "1536 E KATELLA AVE",
    "city": "ORANGE",
    "zip": "92867",
    "county": "ORANGE",
    "phone": "(650) 404-3735",
    "lat": 33.808284,
    "lng": -117.837216
  },
  {
    "id": "630020601",
    "name": "TOGETHER HOSPICE CARE, INC.",
    "npi": null,
    "hcaiId": "406305733",
    "businessName": "TOGETHER HOSPICE CARE, INC.",
    "contactEmail": "TOGETHERHOSPICECAREINC@GMAIL.COM",
    "categoryName": "HOSPICE",
    "categoryCode": "HOSPICE",
    "licenseStatus": "ACTIVE",
    "inService": true,
    "licenseNumber": "550007707",
    "licenseEffectiveDate": "12/22/2023",
    "licenseExpirationDate": "12/21/2025",
    "dataDate": "10/18/2025",
    "capacity": 0,
    "address": "438 E KATELLA AVE, SUITE 234",
    "city": "ORANGE",
    "zip": "92867",
    "county": "ORANGE",
    "phone": "(714) 202-1678",
    "lat": 33.808698,
    "lng": -117.848988
  },
  {
    "id": "630016056",
    "name": "WISE HEALTHCARE SERVICES INC.",
    "npi": null,
    "hcaiId": "406304591",
    "businessName": "WISE HEALTHCARE SERVICES INC.",
    "contactEmail": "AYMANTAILAKH@YAHOO.COM",
    "categoryName": "HOME HEALTH AGENCY",
    "categoryCode": "HHA",
    "licenseStatus": "ACTIVE",
    "inService": true,
    "licenseNumber": "550003321",
    "licenseEffectiveDate": "12/31/2024",
    "licenseExpirationDate": "12/30/2025",
    "dataDate": "10/18/2025",
    "capacity": 0,
    "address": "2808 E KATELLA AVE, SUITE 202-B",
    "city": "ORANGE",
    "zip": "92867",
    "county": "ORANGE",
    "phone": "(714) 467-5444",
    "lat": 33.81004801,
    "lng": -117.823641
  }
]