[
  {
    "id": "630015836",
    "name": "AGAPE CONGREGATE LIVING, LLC",
    "npi": null,
    "hcaiId": "206304612",
    "businessName": "AGAPE CONGREGATE LIVING, LLC",
    "contactEmail": "NOUDINOT@CAREAGAPE.COM",
    "categoryName": "CONGREGATE LIVING HEALTH FACILITY",
    "categoryCode": "CLHF",
    "licenseStatus": "ACTIVE",
    "inService": true,
    "licenseNumber": "550003436",
    "licenseEffectiveDate": "03/16/2025",
    "licenseExpirationDate": "03/15/2026",
    "dataDate": "10/18/2025",
    "capacity": 6,
    "address": "302 FAIRWAY LANE",
    "city": "PLACENTIA",
    "zip": "92870",
    "county": "ORANGE",
    "phone": "(310) 994-9181",
    "lat": 33.881679,
    "lng": -117.8627715
  },
  {
    "id": "630021712",
    "name": "DIGNITA HOSPICE, INC.",
    "npi": null,
    "hcaiId": "406303931",
    "businessName": "DIGNITA HOSPICE, INC.",
    "contactEmail": "DIGNITAHOSPICE@GMAIL.COM",
    "categoryName": "HOSPICE",
    "categoryCode": "HOSPICE",
    "licenseStatus": "ACTIVE",
    "inService": true,
    "licenseNumber": "550007343",
    "licenseEffectiveDate": "11/24/2023",
    "licenseExpirationDate": "11/23/2025",
    "dataDate": "10/18/2025",
    "capacity": 0,
    "address": "200 N BRADFORD AVE, SUITE H",
    "city": "PLACENTIA",
    "zip": "92870",
    "county": "ORANGE",
    "phone": "(657) 275-9084",
    "lat": 33.87402329,
    "lng": -117.8698273
  },
  {
    "id": "630019730",
    "name": "HOPE CARE HOSPICE, INC",
    "npi": null,
    "hcaiId": "406305017",
    "businessName": "HOPE CARE HOSPICE, INC.",
    "contactEmail": "HCH090419@GMAIL.COM",
    "categoryName": "HOSPICE",
    "categoryCode": "HOSPICE",
    "licenseStatus": "ACTIVE",
    "inService": true,
    "licenseNumber": "550007038",
    "licenseEffectiveDate": "10/08/2025",
    "licenseExpirationDate": "10/07/2027",
    "dataDate": "10/18/2025",
    "capacity": 0,
    "address": "601 E YORBA LINDA BLVD, SUITE 1-E",
    "city": "PLACENTIA",
    "zip": "92870",
    "county": "ORANGE",
    "phone": "(714) 724-8033",
    "lat": 33.889716,
    "lng": -117.854334
  },
  {
    "id": "060000518",
    "name": "INDEPENDENT OPTIONS, INC. DIAMOND HOUSE",
    "npi": "1851463483",
    "hcaiId": null,
    "businessName": "INDEPENDENT OPTIONS, INC.",
    "contactEmail": "TACEVEDO@INDEPENDENTOPTIONS.ORG",
    "categoryName": "INTERMEDIATE CARE FACILITY-DD/H/N/CN/IID",
    "categoryCode": "ICFDDH",
    "licenseStatus": "ACTIVE",
    "inService": true,
    "licenseNumber": "060000075",
    "licenseEffectiveDate": "11/23/2024",
    "licenseExpirationDate": "11/22/2025",
    "dataDate": "10/18/2025",
    "capacity": 6,
    "address": "512 DIAMOND RD",
    "city": "PLACENTIA",
    "zip": "92870",
    "county": "ORANGE",
    "phone": "(714) 338-2912",
    "lat": 33.877233,
    "lng": -117.8726085
  },
  {
    "id": "060002284",
    "name": "MAXUM PHYSICAL THERAPY, INC.",
    "npi": null,
    "hcaiId": null,
    "businessName": null,
    "contactEmail": "ANANT@MAXUMTHERAPY.COM",
    "categoryName": "REHABILITATION CLINIC",
    "categoryCode": "OPT/SP",
    "licenseStatus": null,
    "inService": null,
    "licenseNumber": null,
    "licenseEffectiveDate": null,
    "licenseExpirationDate": null,
    "dataDate": "10/18/2025",
    "capacity": 0,
    "address": "740 S PLACENTIA AVE # 100",
    "city": "PLACENTIA",
    "zip": "92870",
    "county": "ORANGE",
    "phone": "(714) 646-8318",
    "lat": 33.862779,
    "lng": -117.8816895
  },
  {
    "id": "630021711",
    "name": "SAFEMED HOSPICE, INC.",
    "npi": null,
    "hcaiId": "406303962",
    "businessName": "SAFEMED HOSPICE, INC.",
    "contactEmail": "SAFEMEDHOSPICE@GMAIL.COM",
    "categoryName": "HOSPICE",
    "categoryCode": "HOSPICE",
    "licenseStatus": "ACTIVE",
    "inService": true,
    "licenseNumber": "550007146",
    "licenseEffectiveDate": "11/09/2023",
    "licenseExpirationDate": "11/08/2025",
    "dataDate": "10/18/2025",
    "capacity": 0,
    "address": "200 N BRADFORD AVE, SUITE M",
    "city": "PLACENTIA",
    "zip": "92870",
    "county": "ORANGE",
    "phone": "(657) 275-9078",
    "lat": 33.87402329,
    "lng": -117.8698273
  },
  {
    "id": "060000062",
    "name": "UCI HEALTH-PLACENTIA LINDA",
    "npi": "1689608150",
    "hcaiId": "106301297",
    "businessName": "UNIVERSITY OF CALIFORNIA IRVINE",
    "contactEmail": "MELISSA.WADE@TENETHEALTH.COM",
    "categoryName": "GENERAL ACUTE CARE HOSPITAL",
    "categoryCode": "GACH",
    "licenseStatus": "ACTIVE",
    "inService": true,
    "licenseNumber": "060000148",
    "licenseEffectiveDate": "11/01/2025",
    "licenseExpirationDate": "10/31/2026",
    "dataDate": "10/18/2025",
    "capacity": 114,
    "address": "1301 N ROSE DR",
    "city": "PLACENTIA",
    "zip": "92870",
    "county": "ORANGE",
    "phone": "(714) 524-4871",
    "lat": 33.88707,
    "lng": -117.843399
  },
  {
    "id": "630021039",
    "name": "VALLEY PACIFIC HOSPICE, INC.",
    "npi": null,
    "hcaiId": "406303845",
    "businessName": "VALLEY PACIFIC HOSPICE, INC.",
    "contactEmail": "VALLEYPACIFICHOSPICE@GMAIL.COM",
    "categoryName": "HOSPICE",
    "categoryCode": "HOSPICE",
    "licenseStatus": "ACTIVE",
    "inService": true,
    "licenseNumber": "550007382",
    "licenseEffectiveDate": "11/11/2023",
    "licenseExpirationDate": "11/10/2025",
    "dataDate": "10/18/2025",
    "capacity": 0,
    "address": "1050 E YORBA LINDA BLVD, SUITE 206",
    "city": "PLACENTIA",
    "zip": "92870",
    "county": "ORANGE",
    "phone": "(657) 216-1131",
    "lat": 33.88806,
    "lng": -117.844641
  }
]