[
  {
    "id": "240000524",
    "name": "ACCENTCARE HOME HEALTH OF CALIFORNIA INC",
    "npi": "1427053453",
    "hcaiId": "406337720",
    "businessName": "ACCENTCARE HOME HEALTH OF CALIFORNIA, INC.",
    "contactEmail": "SUMMERHUYNH@ACCENTCARE.COM",
    "categoryName": "HOME HEALTH AGENCY",
    "categoryCode": "HHA",
    "licenseStatus": "ACTIVE",
    "inService": true,
    "licenseNumber": "240000267",
    "licenseEffectiveDate": "12/01/2024",
    "licenseExpirationDate": "11/30/2025",
    "dataDate": "10/18/2025",
    "capacity": 0,
    "address": "1265 CORONA POINT CT, SUITE 212",
    "city": "CORONA",
    "zip": "92879",
    "county": "RIVERSIDE",
    "phone": "(909) 605-7000",
    "lat": 33.8705531,
    "lng": -117.5449699
  },
  {
    "id": "630028232",
    "name": "ALL NATIONS CORONA ADHC",
    "npi": null,
    "hcaiId": null,
    "businessName": "DK BILLING MANAGEMENT",
    "contactEmail": "ALLNATIONSADHC@GMAIL.COM",
    "categoryName": "ADULT DAY HEALTH CARE",
    "categoryCode": "ADHC",
    "licenseStatus": "ACTIVE",
    "inService": true,
    "licenseNumber": "550009977",
    "licenseEffectiveDate": "10/15/2025",
    "licenseExpirationDate": "10/14/2026",
    "dataDate": "10/18/2025",
    "capacity": 0,
    "address": "1138 E 6TH ST, UNIT 102",
    "city": "CORONA",
    "zip": "92879",
    "county": "RIVERSIDE",
    "phone": "(310) 803-3313",
    "lat": 33.87416961,
    "lng": -117.5509267
  },
  {
    "id": "630012588",
    "name": "ANGELCARE HOME HEALTH PROVIDERS, INC.",
    "npi": "1871824169",
    "hcaiId": "406334646",
    "businessName": "ANGELCARE HOME HEALTH PROVIDERS, INC.",
    "contactEmail": "ANGELCAREHHPI@YAHOO.COM",
    "categoryName": "HOME HEALTH AGENCY",
    "categoryCode": "HHA",
    "licenseStatus": "ACTIVE",
    "inService": true,
    "licenseNumber": "550001850",
    "licenseEffectiveDate": "02/21/2025",
    "licenseExpirationDate": "02/20/2026",
    "dataDate": "10/18/2025",
    "capacity": 0,
    "address": "710 RIMPAU AVE, SUITE 202",
    "city": "CORONA",
    "zip": "92879",
    "county": "RIVERSIDE",
    "phone": "(951) 738-8282",
    "lat": 33.873741,
    "lng": -117.552897
  },
  {
    "id": "630014999",
    "name": "CARE DIMENSIONS HEALTHCARE",
    "npi": "1942624101",
    "hcaiId": "406331005",
    "businessName": "A NEW DAY HOSPICE CARE",
    "contactEmail": "LPHAN@CAREDIMENSIONS.NET",
    "categoryName": "HOSPICE",
    "categoryCode": "HOSPICE",
    "licenseStatus": "ACTIVE",
    "inService": true,
    "licenseNumber": "550003661",
    "licenseEffectiveDate": "09/22/2024",
    "licenseExpirationDate": "09/21/2026",
    "dataDate": "10/18/2025",
    "capacity": 0,
    "address": "495 E RINCON STREET, SUITE 100",
    "city": "CORONA",
    "zip": "92879",
    "county": "RIVERSIDE",
    "phone": "(951) 340-3300",
    "lat": 33.886818,
    "lng": -117.560664
  },
  {
    "id": "250000553",
    "name": "CONNER RESIDENCE",
    "npi": "1295957728",
    "hcaiId": null,
    "businessName": "PEPPERMINT RIDGE",
    "contactEmail": "ASANCHEZ@PEPPERMINTRIDGE.ORG",
    "categoryName": "INTERMEDIATE CARE FACILITY-DD/H/N/CN/IID",
    "categoryCode": "ICFDDH",
    "licenseStatus": "ACTIVE",
    "inService": true,
    "licenseNumber": "250000273",
    "licenseEffectiveDate": "11/16/2024",
    "licenseExpirationDate": "11/15/2025",
    "dataDate": "10/18/2025",
    "capacity": 12,
    "address": "825 MAGNOLIA AVE",
    "city": "CORONA",
    "zip": "92879",
    "county": "RIVERSIDE",
    "phone": "(951) 273-7320",
    "lat": 33.860664,
    "lng": -117.553176
  },
  {
    "id": "250000045",
    "name": "CORONA HEALTH CARE CENTER",
    "npi": "1952789091",
    "hcaiId": "206331154",
    "businessName": "CORONA CARE LLC",
    "contactEmail": "EXECUTIVEDIRECTOR@CORONAHC.COM",
    "categoryName": "SKILLED NURSING FACILITY",
    "categoryCode": "SNF",
    "licenseStatus": "ACTIVE",
    "inService": true,
    "licenseNumber": "250000133",
    "licenseEffectiveDate": "12/21/2024",
    "licenseExpirationDate": "12/20/2025",
    "dataDate": "10/18/2025",
    "capacity": 99,
    "address": "1400 CIRCLE CITY DR",
    "city": "CORONA",
    "zip": "92879",
    "county": "RIVERSIDE",
    "phone": "(951) 735-0252",
    "lat": 33.871284,
    "lng": -117.549504
  },
  {
    "id": "250000007",
    "name": "CORONA REGIONAL MEDICAL CENTER",
    "npi": null,
    "hcaiId": "106331145",
    "businessName": "UHS-CORONA, INC.",
    "contactEmail": "ALVIN.MUNOZ@UHSINC.COM",
    "categoryName": "GENERAL ACUTE CARE HOSPITAL",
    "categoryCode": "GACH",
    "licenseStatus": "ACTIVE",
    "inService": true,
    "licenseNumber": "250000126",
    "licenseEffectiveDate": "03/08/2025",
    "licenseExpirationDate": "03/07/2026",
    "dataDate": "10/18/2025",
    "capacity": 0,
    "address": "730 MAGNOLIA AVE",
    "city": "CORONA",
    "zip": "92879",
    "county": "RIVERSIDE",
    "phone": "(951) 736-7264",
    "lat": 33.857991,
    "lng": -117.5538195
  },
  {
    "id": "250001277",
    "name": "CORONA REGIONAL MEDICAL CENTER D/P APH",
    "npi": "1457347239",
    "hcaiId": null,
    "businessName": "UHS-CORONA, INC.",
    "contactEmail": "ALVIN.MUNOZ@UHSINC.COM",
    "categoryName": "ACUTE PSYCHIATRIC HOSPITAL",
    "categoryCode": "APH",
    "licenseStatus": "ACTIVE",
    "inService": true,
    "licenseNumber": "250000126",
    "licenseEffectiveDate": "03/08/2025",
    "licenseExpirationDate": "03/07/2026",
    "dataDate": "10/18/2025",
    "capacity": 38,
    "address": "730 MAGNOLIA AVE",
    "city": "CORONA",
    "zip": "92879",
    "county": "RIVERSIDE",
    "phone": "(951) 736-7264",
    "lat": 33.857991,
    "lng": -117.5538195
  },
  {
    "id": "250001276",
    "name": "CORONA REGIONAL MEDICAL CENTER D/P SNF",
    "npi": "1437145109",
    "hcaiId": null,
    "businessName": "UHS-CORONA, INC.",
    "contactEmail": "ALVIN.MUNOZ@UHSINC.COM",
    "categoryName": "SKILLED NURSING FACILITY",
    "categoryCode": "SNF",
    "licenseStatus": "ACTIVE",
    "inService": true,
    "licenseNumber": "250000126",
    "licenseEffectiveDate": "03/08/2025",
    "licenseExpirationDate": "03/07/2026",
    "dataDate": "10/18/2025",
    "capacity": 61,
    "address": "730 MAGNOLIA AVE",
    "city": "CORONA",
    "zip": "92879",
    "county": "RIVERSIDE",
    "phone": "(951) 736-7264",
    "lat": 33.857991,
    "lng": -117.5538195
  },
  {
    "id": "630013971",
    "name": "CORONA SUMMIT SURGICAL CENTER",
    "npi": "1356616064",
    "hcaiId": null,
    "businessName": null,
    "contactEmail": null,
    "categoryName": "SURGICAL CLINIC",
    "categoryCode": "ASC/SURGC",
    "licenseStatus": null,
    "inService": null,
    "licenseNumber": null,
    "licenseEffectiveDate": null,
    "licenseExpirationDate": null,
    "dataDate": "10/18/2025",
    "capacity": 0,
    "address": "2370 ANSELMO DR",
    "city": "CORONA",
    "zip": "92879",
    "county": "RIVERSIDE",
    "phone": "(951) 736-0137",
    "lat": 33.886233,
    "lng": -117.513927
  },
  {
    "id": "630012359",
    "name": "CROWN HOME HEALTH CORPORATION",
    "npi": "1649419128",
    "hcaiId": "406334630",
    "businessName": "CROWN HOME HEALTH CORPORATION",
    "contactEmail": "CROWNHOMEHEALTH@YAHOO.COM",
    "categoryName": "HOME HEALTH AGENCY",
    "categoryCode": "HHA",
    "licenseStatus": "ACTIVE",
    "inService": true,
    "licenseNumber": "550001597",
    "licenseEffectiveDate": "02/09/2025",
    "licenseExpirationDate": "02/08/2026",
    "dataDate": "10/18/2025",
    "capacity": 0,
    "address": "1411 RIMPAU AVE, SUITE 204",
    "city": "CORONA",
    "zip": "92879",
    "county": "RIVERSIDE",
    "phone": "(951) 734-1200",
    "lat": 33.8658094,
    "lng": -117.5457952
  },
  {
    "id": "250000117",
    "name": "DEL PARK MANOR",
    "npi": "1083827109",
    "hcaiId": null,
    "businessName": "PEPPERMINT RIDGE",
    "contactEmail": "MELAD@PEPPERMINTRIDGE.ORG",
    "categoryName": "INTERMEDIATE CARE FACILITY-DD/H/N/CN/IID",
    "categoryCode": "ICFDDH",
    "licenseStatus": "ACTIVE",
    "inService": true,
    "licenseNumber": "250000041",
    "licenseEffectiveDate": "12/10/2024",
    "licenseExpirationDate": "12/09/2025",
    "dataDate": "10/18/2025",
    "capacity": 12,
    "address": "825 MAGNOLIA AVE",
    "city": "CORONA",
    "zip": "92879",
    "county": "RIVERSIDE",
    "phone": "(951) 273-7320",
    "lat": 33.860664,
    "lng": -117.553176
  },
  {
    "id": "630017447",
    "name": "DEL ROSA HOME HEALTH, INC.",
    "npi": "1740719681",
    "hcaiId": "406330021",
    "businessName": "DEL ROSA HOME HEALTH, INC.",
    "contactEmail": "DELROSAHOMEHEALTH@GMAIL.COM",
    "categoryName": "HOME HEALTH AGENCY",
    "categoryCode": "HHA",
    "licenseStatus": "ACTIVE",
    "inService": true,
    "licenseNumber": "550004495",
    "licenseEffectiveDate": "12/13/2024",
    "licenseExpirationDate": "12/12/2025",
    "dataDate": "10/18/2025",
    "capacity": 0,
    "address": "400 RAMONA AVE, SUITE 120",
    "city": "CORONA",
    "zip": "92879",
    "county": "RIVERSIDE",
    "phone": "(951) 515-5147",
    "lat": 33.87680602,
    "lng": -117.565514
  },
  {
    "id": "630016323",
    "name": "DIRECT PROVIDER OF HOSPICE INC.",
    "npi": "1730525684",
    "hcaiId": "406361394",
    "businessName": "DIRECT PROVIDER OF HOSPICE INC.",
    "contactEmail": "DIRECTPROVIDEROFHOSPICE@YAHOO.COM",
    "categoryName": "HOSPICE",
    "categoryCode": "HOSPICE",
    "licenseStatus": "ACTIVE",
    "inService": true,
    "licenseNumber": "550003787",
    "licenseEffectiveDate": "01/03/2025",
    "licenseExpirationDate": "01/02/2027",
    "dataDate": "10/18/2025",
    "capacity": 0,
    "address": "487 CORONA MALL",
    "city": "CORONA",
    "zip": "92879",
    "county": "RIVERSIDE",
    "phone": "(909) 727-3013",
    "lat": 33.876594,
    "lng": -117.566154
  },
  {
    "id": "250000119",
    "name": "EVERGREEN ESTATES",
    "npi": "1285847301",
    "hcaiId": null,
    "businessName": "PEPPERMINT RIDGE",
    "contactEmail": "SLICHT@PEPPERMINTRIDGE.ORG",
    "categoryName": "INTERMEDIATE CARE FACILITY-DD/H/N/CN/IID",
    "categoryCode": "ICFDDH",
    "licenseStatus": "ACTIVE",
    "inService": true,
    "licenseNumber": "250000042",
    "licenseEffectiveDate": "12/10/2024",
    "licenseExpirationDate": "12/09/2025",
    "dataDate": "10/18/2025",
    "capacity": 12,
    "address": "825 MAGNOLIA AVE",
    "city": "CORONA",
    "zip": "92879",
    "county": "RIVERSIDE",
    "phone": "(951) 273-7320",
    "lat": 33.860664,
    "lng": -117.553176
  },
  {
    "id": "630012624",
    "name": "FAMILY HOSPICE CARE, INC.",
    "npi": null,
    "hcaiId": "406334669",
    "businessName": "FAMILY HOSPICE CARE, INC.",
    "contactEmail": "INFO@FAMILYHOSPICECARE.NET",
    "categoryName": "HOSPICE",
    "categoryCode": "HOSPICE",
    "licenseStatus": "ACTIVE",
    "inService": true,
    "licenseNumber": "550001687",
    "licenseEffectiveDate": "11/28/2023",
    "licenseExpirationDate": "11/27/2025",
    "dataDate": "10/18/2025",
    "capacity": 0,
    "address": "255 E RINCON ST, SUITE #315A",
    "city": "CORONA",
    "zip": "92879",
    "county": "RIVERSIDE",
    "phone": "(951) 231-2186",
    "lat": 33.887151,
    "lng": -117.561906
  },
  {
    "id": "250000622",
    "name": "GARRISON HOUSE",
    "npi": "1689896813",
    "hcaiId": null,
    "businessName": "PEPPERMINT RIDGE",
    "contactEmail": "DWILLIS@PEPPERMINTRIDGE.ORG",
    "categoryName": "INTERMEDIATE CARE FACILITY-DD/H/N/CN/IID",
    "categoryCode": "ICFDDH",
    "licenseStatus": "ACTIVE",
    "inService": true,
    "licenseNumber": "250000296",
    "licenseEffectiveDate": "03/17/2025",
    "licenseExpirationDate": "03/16/2026",
    "dataDate": "10/18/2025",
    "capacity": 12,
    "address": "779 FORD ST",
    "city": "CORONA",
    "zip": "92879",
    "county": "RIVERSIDE",
    "phone": "(951) 808-7995",
    "lat": 33.868512,
    "lng": -117.558018
  },
  {
    "id": "630011555",
    "name": "GRAPEVINE HOME HEALTH SERVICES, INC.",
    "npi": "1174957088",
    "hcaiId": "406335908",
    "businessName": "GRAPEVINE HOME HEALTH SERVICES, INC.",
    "contactEmail": "GRAPEVINEHOMEHEALTH@YAHOO.COM",
    "categoryName": "HOME HEALTH AGENCY",
    "categoryCode": "HHA",
    "licenseStatus": "ACTIVE",
    "inService": true,
    "licenseNumber": "550000797",
    "licenseEffectiveDate": "08/04/2025",
    "licenseExpirationDate": "08/03/2026",
    "dataDate": "10/18/2025",
    "capacity": 0,
    "address": "462 CORONA MALL, SUITE 101",
    "city": "CORONA",
    "zip": "92879",
    "county": "RIVERSIDE",
    "phone": "(909) 483-6505",
    "lat": 33.876729,
    "lng": -117.566505
  },
  {
    "id": "060002144",
    "name": "INLAND EMPIRE ADULT DAY HEALTH CARE CENTER",
    "npi": null,
    "hcaiId": null,
    "businessName": "GOLDEN AGE ADHC LLC",
    "contactEmail": "RIZAM@LEADHC.COM",
    "categoryName": "ADULT DAY HEALTH CARE",
    "categoryCode": "ADHC",
    "licenseStatus": "ACTIVE",
    "inService": true,
    "licenseNumber": "060000870",
    "licenseEffectiveDate": "06/16/2025",
    "licenseExpirationDate": "06/15/2026",
    "dataDate": "10/18/2025",
    "capacity": 0,
    "address": "135 N MCKINLEY ST",
    "city": "CORONA",
    "zip": "92879",
    "county": "RIVERSIDE",
    "phone": "(951) 808-9600",
    "lat": 33.88392469,
    "lng": -117.515815
  },
  {
    "id": "630025888",
    "name": "MISSION CITY COMMUNITY NETWORK, INC. - CORONA",
    "npi": "1609151273",
    "hcaiId": null,
    "businessName": "MISSION CITY COMMUNITY NETWORK, INC.",
    "contactEmail": null,
    "categoryName": "PRIMARY CARE CLINIC",
    "categoryCode": "COMTYC",
    "licenseStatus": "ACTIVE",
    "inService": true,
    "licenseNumber": "550001802",
    "licenseEffectiveDate": "01/06/2025",
    "licenseExpirationDate": "01/05/2026",
    "dataDate": "10/18/2025",
    "capacity": 0,
    "address": "613 S HOWARD ST",
    "city": "CORONA",
    "zip": "92879",
    "county": "RIVERSIDE",
    "phone": null,
    "lat": 33.874299,
    "lng": -117.5625675
  },
  {
    "id": "250001769",
    "name": "ROGER RESIDENCE",
    "npi": "1063634541",
    "hcaiId": null,
    "businessName": "PEPPERMINT RIDGE",
    "contactEmail": "DWILLIS@PEPPERMINTRIDGE.ORG",
    "categoryName": "INTERMEDIATE CARE FACILITY-DD/H/N/CN/IID",
    "categoryCode": "ICFDDN",
    "licenseStatus": "ACTIVE",
    "inService": true,
    "licenseNumber": "250000773",
    "licenseEffectiveDate": "03/11/2025",
    "licenseExpirationDate": "03/10/2026",
    "dataDate": "10/18/2025",
    "capacity": 6,
    "address": "825 MAGNOLIA AVE",
    "city": "CORONA",
    "zip": "92879",
    "county": "RIVERSIDE",
    "phone": "(951) 808-7995",
    "lat": 33.860664,
    "lng": -117.553176
  },
  {
    "id": "630018894",
    "name": "UNICARE COMMUNITY HEALTH CENTER, INC.",
    "npi": "1265999296",
    "hcaiId": "306330590",
    "businessName": "UNICARE COMMUNITY HEALTH CENTER, INC.",
    "contactEmail": "K.VO@UNICARECHC.ORG",
    "categoryName": "PRIMARY CARE CLINIC",
    "categoryCode": "COMTYC",
    "licenseStatus": "ACTIVE",
    "inService": true,
    "licenseNumber": "550005943",
    "licenseEffectiveDate": "01/12/2024",
    "licenseExpirationDate": "01/11/2025",
    "dataDate": "10/18/2025",
    "capacity": 0,
    "address": "107 N MCKINLEY ST",
    "city": "CORONA",
    "zip": "92879",
    "county": "RIVERSIDE",
    "phone": "(951) 358-0141",
    "lat": 33.882921,
    "lng": -117.5132205
  },
  {
    "id": "630014949",
    "name": "VANGUARD HOSPICE CARE",
    "npi": "1356767818",
    "hcaiId": "406364590",
    "businessName": "VANGUARD HOSPICE CARE, INC",
    "contactEmail": "VANGUARDHOSPICE@GMAIL.COM",
    "categoryName": "HOSPICE",
    "categoryCode": "HOSPICE",
    "licenseStatus": "ACTIVE",
    "inService": true,
    "licenseNumber": "550002716",
    "licenseEffectiveDate": "10/07/2024",
    "licenseExpirationDate": "05/26/2026",
    "dataDate": "10/18/2025",
    "capacity": 0,
    "address": "770 MAGNOLIA AVE, SUITE 2G",
    "city": "CORONA",
    "zip": "92879",
    "county": "RIVERSIDE",
    "phone": "(951) 907-5386",
    "lat": 33.85913998,
    "lng": -117.553278
  },
  {
    "id": "630026495",
    "name": "VISITINGHOME MEDICAL",
    "npi": null,
    "hcaiId": null,
    "businessName": "VISITINGHOME LLC",
    "contactEmail": "VISITINGHOME@LIVE.COM",
    "categoryName": "HOME HEALTH AGENCY",
    "categoryCode": "HHA",
    "licenseStatus": "ACTIVE",
    "inService": true,
    "licenseNumber": "550009686",
    "licenseEffectiveDate": "09/12/2025",
    "licenseExpirationDate": "03/11/2026",
    "dataDate": "10/18/2025",
    "capacity": 0,
    "address": "321 E 6TH ST, #205",
    "city": "CORONA",
    "zip": "92879",
    "county": "RIVERSIDE",
    "phone": "(951) 285-5190",
    "lat": 33.875217,
    "lng": -117.562941
  }
]