[
  {
    "id": "630013869",
    "name": "ALWAYS \"TFY\" HOSPICE, INC.",
    "npi": "1114232154",
    "hcaiId": "406334705",
    "businessName": "ALWAYS \"TFY\" HOSPICE, INC.",
    "contactEmail": "ADMIN@ALWAYSTFY.COM",
    "categoryName": "HOSPICE",
    "categoryCode": "HOSPICE",
    "licenseStatus": "ACTIVE",
    "inService": true,
    "licenseNumber": "550002238",
    "licenseEffectiveDate": "04/08/2021",
    "licenseExpirationDate": "04/07/2023",
    "dataDate": "10/18/2025",
    "capacity": 0,
    "address": "9064 PULSAR CT, SUITE E",
    "city": "CORONA",
    "zip": "92883",
    "county": "RIVERSIDE",
    "phone": "(951) 271-9742",
    "lat": 33.799068,
    "lng": -117.5011155
  },
  {
    "id": "630012512",
    "name": "PEPPERMINT RIDGE - DUDLEY HOME",
    "npi": "1942532262",
    "hcaiId": null,
    "businessName": "PEPPERMINT RIDGE",
    "contactEmail": "MELAD@PEPPERMINTRIDGE.ORG",
    "categoryName": "INTERMEDIATE CARE FACILITY-DD/H/N/CN/IID",
    "categoryCode": "ICFDDN",
    "licenseStatus": "ACTIVE",
    "inService": true,
    "licenseNumber": "550001274",
    "licenseEffectiveDate": "05/13/2025",
    "licenseExpirationDate": "05/12/2026",
    "dataDate": "10/18/2025",
    "capacity": 6,
    "address": "4289 SHOALCREEK DR",
    "city": "CORONA",
    "zip": "92883",
    "county": "RIVERSIDE",
    "phone": "(951) 273-7331",
    "lat": 33.81408,
    "lng": -117.5360895
  },
  {
    "id": "630027734",
    "name": "RMC SURGERY CENTER, LLC",
    "npi": null,
    "hcaiId": null,
    "businessName": null,
    "contactEmail": null,
    "categoryName": "SURGICAL CLINIC",
    "categoryCode": "ASC",
    "licenseStatus": null,
    "inService": null,
    "licenseNumber": null,
    "licenseEffectiveDate": null,
    "licenseExpirationDate": null,
    "dataDate": "10/18/2025",
    "capacity": 0,
    "address": "21634 RETREAT PKWY",
    "city": "CORONA",
    "zip": "92883",
    "county": "RIVERSIDE",
    "phone": null,
    "lat": 33.80477999,
    "lng": -117.508533
  },
  {
    "id": "250001655",
    "name": "VILLA VADNAIS",
    "npi": "1568674703",
    "hcaiId": null,
    "businessName": "PEPPERMINT RIDGE",
    "contactEmail": "ASANCHEZ@PEPPERMINTRIDGE.ORG",
    "categoryName": "INTERMEDIATE CARE FACILITY-DD/H/N/CN/IID",
    "categoryCode": "ICFDDH",
    "licenseStatus": "ACTIVE",
    "inService": true,
    "licenseNumber": "250000723",
    "licenseEffectiveDate": "11/15/2024",
    "licenseExpirationDate": "11/14/2025",
    "dataDate": "10/18/2025",
    "capacity": 6,
    "address": "4045 CASTLE PINES WAY",
    "city": "CORONA",
    "zip": "92883",
    "county": "RIVERSIDE",
    "phone": "(951) 273-7347",
    "lat": 33.819309,
    "lng": -117.5272245
  }
]