[
  {
    "id": "630020850",
    "name": "AT HOME CARE 24/7 BECAUSE WE CARE, INC.",
    "npi": null,
    "hcaiId": "406335648",
    "businessName": "AT HOME CARE 24/7 BECAUSE WE CARE, INC.",
    "contactEmail": "BRIAN@ATHOMECARE247.COM",
    "categoryName": "HOME HEALTH AGENCY",
    "categoryCode": "HHA",
    "licenseStatus": "ACTIVE",
    "inService": true,
    "licenseNumber": "550005519",
    "licenseEffectiveDate": "06/05/2025",
    "licenseExpirationDate": "06/04/2026",
    "dataDate": "10/18/2025",
    "capacity": 0,
    "address": "1344 W 6TH ST, SUITE 107",
    "city": "CORONA",
    "zip": "92882",
    "county": "RIVERSIDE",
    "phone": "(714) 366-2817",
    "lat": 33.877683,
    "lng": -117.5905575
  },
  {
    "id": "630014360",
    "name": "AVEANNA HEALTHCARE",
    "npi": "1942644596",
    "hcaiId": "406334671",
    "businessName": "PREMIER HEALTHCARE SERVICES, LLC",
    "contactEmail": "CREDENTIALING@AVEANNA.COM",
    "categoryName": "HOME HEALTH AGENCY",
    "categoryCode": "HHA",
    "licenseStatus": "ACTIVE",
    "inService": true,
    "licenseNumber": "550002491",
    "licenseEffectiveDate": "10/30/2025",
    "licenseExpirationDate": "10/29/2026",
    "dataDate": "10/18/2025",
    "capacity": 0,
    "address": "200 S. MAIN STREET, SUITE 120",
    "city": "CORONA",
    "zip": "92882",
    "county": "RIVERSIDE",
    "phone": "(951) 735-4000",
    "lat": 33.879231,
    "lng": -117.5667885
  },
  {
    "id": "630013709",
    "name": "AVIA HOME HEALTH SERVICES, INC.",
    "npi": "1437417631",
    "hcaiId": "406334660",
    "businessName": "AVIA HOME HEALTH SERVICES, INC.",
    "contactEmail": "AVIAHHS@GMAIL.COM",
    "categoryName": "HOME HEALTH AGENCY",
    "categoryCode": "HHA",
    "licenseStatus": "ACTIVE",
    "inService": true,
    "licenseNumber": "550002084",
    "licenseEffectiveDate": "09/20/2025",
    "licenseExpirationDate": "09/19/2026",
    "dataDate": "10/18/2025",
    "capacity": 0,
    "address": "1307 W 6TH ST, SUITE 119B",
    "city": "CORONA",
    "zip": "92882",
    "county": "RIVERSIDE",
    "phone": "(951) 737-7039",
    "lat": 33.878745,
    "lng": -117.589104
  },
  {
    "id": "250001756",
    "name": "CENTRO MEDICO COMMUNITY CLINIC",
    "npi": null,
    "hcaiId": "306334508",
    "businessName": "CENTRO MEDICO COMMUNITY CLINIC, INC.",
    "contactEmail": "SMASRI@CENTROMEDICOCLINIC.COM",
    "categoryName": "PRIMARY CARE CLINIC",
    "categoryCode": "COMTYC",
    "licenseStatus": "ACTIVE",
    "inService": true,
    "licenseNumber": "250000762",
    "licenseEffectiveDate": "11/16/2024",
    "licenseExpirationDate": "11/15/2025",
    "dataDate": "10/18/2025",
    "capacity": 0,
    "address": "1307 W 6TH ST, SUITE 113",
    "city": "CORONA",
    "zip": "92882",
    "county": "RIVERSIDE",
    "phone": "(951) 278-8910",
    "lat": 33.8787,
    "lng": -117.589032
  },
  {
    "id": "630019070",
    "name": "CENTRO MEDICO COMMUNITY CLINIC",
    "npi": null,
    "hcaiId": null,
    "businessName": "CENTRO MEDICO COMMUNITY CLINIC, INC.",
    "contactEmail": "SMASRI@CENTROMEDICOCLINIC.COM",
    "categoryName": "PRIMARY CARE CLINIC",
    "categoryCode": "COMTYC",
    "licenseStatus": "ACTIVE",
    "inService": true,
    "licenseNumber": "250000762",
    "licenseEffectiveDate": "11/16/2024",
    "licenseExpirationDate": "11/15/2025",
    "dataDate": "10/18/2025",
    "capacity": 0,
    "address": "1303 W 6TH ST, SUITE 105",
    "city": "CORONA",
    "zip": "92882",
    "county": "RIVERSIDE",
    "phone": "(951) 278-8910",
    "lat": 33.878097,
    "lng": -117.589131
  },
  {
    "id": "630016744",
    "name": "CIRCLE CITY DIALYSIS",
    "npi": null,
    "hcaiId": "306334737",
    "businessName": "MORAINE DIALYSIS, LLC",
    "contactEmail": "CAL_C@DAVITA.COM",
    "categoryName": "CHRONIC DIALYSIS CLINIC",
    "categoryCode": "ESRD/CDC",
    "licenseStatus": "ACTIVE",
    "inService": true,
    "licenseNumber": "550003746",
    "licenseEffectiveDate": "12/14/2024",
    "licenseExpirationDate": "12/13/2025",
    "dataDate": "10/18/2025",
    "capacity": 33,
    "address": "1180 W. 6TH ST., SUITE 101",
    "city": "CORONA",
    "zip": "92882",
    "county": "RIVERSIDE",
    "phone": "(951) 808-9068",
    "lat": 33.876747,
    "lng": -117.5864895
  },
  {
    "id": "630012583",
    "name": "CORONA OUTPATIENT SURGICENTER, LLC",
    "npi": "1902042658",
    "hcaiId": null,
    "businessName": null,
    "contactEmail": null,
    "categoryName": "SURGICAL CLINIC",
    "categoryCode": "ASC/SURGC",
    "licenseStatus": null,
    "inService": null,
    "licenseNumber": null,
    "licenseEffectiveDate": null,
    "licenseExpirationDate": null,
    "dataDate": "10/18/2025",
    "capacity": 0,
    "address": "1124 S MAIN ST",
    "city": "CORONA",
    "zip": "92882",
    "county": "RIVERSIDE",
    "phone": "(951) 737-6402",
    "lat": 33.869322,
    "lng": -117.5676435
  },
  {
    "id": "250000026",
    "name": "CORONA POST ACUTE CENTER",
    "npi": "1427593938",
    "hcaiId": "206330223",
    "businessName": "CORONA POST ACUTE, LLC",
    "contactEmail": "CEO@CORONAHEALTHCENTER.COM",
    "categoryName": "SKILLED NURSING FACILITY",
    "categoryCode": "SNF",
    "licenseStatus": "ACTIVE",
    "inService": true,
    "licenseNumber": "250000512",
    "licenseEffectiveDate": "10/16/2025",
    "licenseExpirationDate": "10/15/2026",
    "dataDate": "10/18/2025",
    "capacity": 176,
    "address": "2600 S MAIN ST",
    "city": "CORONA",
    "zip": "92882",
    "county": "RIVERSIDE",
    "phone": "(951) 736-4700",
    "lat": 33.849927,
    "lng": -117.572094
  },
  {
    "id": "250000006",
    "name": "CORONA REGIONAL MEDICAL CENTER",
    "npi": "1457347239",
    "hcaiId": "106331152",
    "businessName": "UHS-CORONA, INC.",
    "contactEmail": "ALISTAIR.MACHOKA@UHSINC.COM",
    "categoryName": "GENERAL ACUTE CARE HOSPITAL",
    "categoryCode": "GACH",
    "licenseStatus": "ACTIVE",
    "inService": true,
    "licenseNumber": "250000126",
    "licenseEffectiveDate": "03/08/2025",
    "licenseExpirationDate": "03/07/2026",
    "dataDate": "10/18/2025",
    "capacity": 160,
    "address": "800 S MAIN ST",
    "city": "CORONA",
    "zip": "92882",
    "county": "RIVERSIDE",
    "phone": "(951) 736-4880",
    "lat": 33.873048,
    "lng": -117.568422
  },
  {
    "id": "630016734",
    "name": "FIRST CHOICE HOME HEALTH AGENCY",
    "npi": "1558725663",
    "hcaiId": "406330555",
    "businessName": "FIRST CHOICE HOME HEALTH AGENCY",
    "contactEmail": "FIRSTCHOICEHHA@GMAIL.COM",
    "categoryName": "HOME HEALTH AGENCY",
    "categoryCode": "HHA",
    "licenseStatus": "ACTIVE",
    "inService": true,
    "licenseNumber": "550004060",
    "licenseEffectiveDate": "11/29/2025",
    "licenseExpirationDate": "11/28/2026",
    "dataDate": "10/18/2025",
    "capacity": 0,
    "address": "1307 W 6TH ST, SUITE 203",
    "city": "CORONA",
    "zip": "92882",
    "county": "RIVERSIDE",
    "phone": "(951) 421-4111",
    "lat": 33.87917001,
    "lng": -117.589465
  },
  {
    "id": "630011488",
    "name": "FOUNDING FATHERS HEALTH CARE, INC.",
    "npi": "1003199357",
    "hcaiId": "406330992",
    "businessName": "FOUNDING FATHERS HEALTH CARE, INC.",
    "contactEmail": "BRYAN.L@FOUNDINGFATHERSHC.COM",
    "categoryName": "HOME HEALTH AGENCY",
    "categoryCode": "HHA",
    "licenseStatus": "ACTIVE",
    "inService": true,
    "licenseNumber": "550000953",
    "licenseEffectiveDate": "05/23/2023",
    "licenseExpirationDate": "05/22/2024",
    "dataDate": "10/18/2025",
    "capacity": 0,
    "address": "1307 W 6TH ST, SUITE 201",
    "city": "CORONA",
    "zip": "92882",
    "county": "RIVERSIDE",
    "phone": "(626) 256-9060",
    "lat": 33.8787,
    "lng": -117.589032
  },
  {
    "id": "630020228",
    "name": "HOSPICE PROVIDERS OF THE DESERT, INC.",
    "npi": "1427671734",
    "hcaiId": "406332915",
    "businessName": "HOSPICE PROVIDERS OF THE DESERT, INC.",
    "contactEmail": "HOSPICEPROVIDERS@GMAIL.COM",
    "categoryName": "HOSPICE",
    "categoryCode": "HOSPICE",
    "licenseStatus": "ACTIVE",
    "inService": true,
    "licenseNumber": "550005876",
    "licenseEffectiveDate": "11/26/2024",
    "licenseExpirationDate": "11/25/2026",
    "dataDate": "10/18/2025",
    "capacity": 0,
    "address": "268 N LINCOLN AVE, SUITE 7A",
    "city": "CORONA",
    "zip": "92882",
    "county": "RIVERSIDE",
    "phone": "(951) 808-3060",
    "lat": 33.88667298,
    "lng": -117.582305
  },
  {
    "id": "630019068",
    "name": "MAIN HOSPICE AND PALLIATIVE CARE, INC.",
    "npi": null,
    "hcaiId": null,
    "businessName": "MAIN HOSPICE AND PALLIATIVE CARE, INC.",
    "contactEmail": "TJPCOSTIGAN@YAHOO.COM",
    "categoryName": "HOSPICE",
    "categoryCode": "HOSPICE",
    "licenseStatus": "ACTIVE",
    "inService": true,
    "licenseNumber": "550003608",
    "licenseEffectiveDate": "07/05/2024",
    "licenseExpirationDate": "07/04/2026",
    "dataDate": "10/18/2025",
    "capacity": 0,
    "address": "1307 W 6TH ST, SUITE 202",
    "city": "CORONA",
    "zip": "92882",
    "county": "RIVERSIDE",
    "phone": "(909) 763-2553",
    "lat": 33.8787,
    "lng": -117.589032
  },
  {
    "id": "630027225",
    "name": "NEIGHBORHOOD HEALTHCARE-CORONA",
    "npi": "1154786846",
    "hcaiId": null,
    "businessName": "NEIGHBORHOOD HEALTHCARE",
    "contactEmail": null,
    "categoryName": "PRIMARY CARE CLINIC",
    "categoryCode": "COMTYC",
    "licenseStatus": "ACTIVE",
    "inService": true,
    "licenseNumber": "550003562",
    "licenseEffectiveDate": "07/06/2025",
    "licenseExpirationDate": "07/05/2026",
    "dataDate": "10/18/2025",
    "capacity": 0,
    "address": "308 W 6TH ST, SUITE 109",
    "city": "CORONA",
    "zip": "92882",
    "county": "RIVERSIDE",
    "phone": null,
    "lat": 33.87449399,
    "lng": -117.56968
  },
  {
    "id": "630025229",
    "name": "NEW START CBAS",
    "npi": null,
    "hcaiId": null,
    "businessName": "WECARE HEALTH, LLC",
    "contactEmail": "FRANCO_DU@OUTLOOK.COM",
    "categoryName": "ADULT DAY HEALTH CARE",
    "categoryCode": "ADHC",
    "licenseStatus": "ACTIVE",
    "inService": true,
    "licenseNumber": "550009061",
    "licenseEffectiveDate": "04/05/2025",
    "licenseExpirationDate": "04/04/2026",
    "dataDate": "10/18/2025",
    "capacity": 0,
    "address": "1190 W 6TH ST",
    "city": "CORONA",
    "zip": "92882",
    "county": "RIVERSIDE",
    "phone": "(860) 634-9523",
    "lat": 33.87738815,
    "lng": -117.585742
  },
  {
    "id": "630021305",
    "name": "NEXUS HOSPICE OF RIVERSIDE LLC",
    "npi": null,
    "hcaiId": "406333741",
    "businessName": "NEXUS HOSPICE OF RIVERSIDE LLC",
    "contactEmail": "NEXUSHCG@GMAIL.COM",
    "categoryName": "HOSPICE",
    "categoryCode": "HOSPICE",
    "licenseStatus": "ACTIVE",
    "inService": true,
    "licenseNumber": "550006759",
    "licenseEffectiveDate": "09/01/2025",
    "licenseExpirationDate": "08/31/2027",
    "dataDate": "10/18/2025",
    "capacity": 0,
    "address": "1307 W 6TH ST, SUITE 223",
    "city": "CORONA",
    "zip": "92882",
    "county": "RIVERSIDE",
    "phone": "(951) 877-4120",
    "lat": 33.8787,
    "lng": -117.589032
  },
  {
    "id": "630027643",
    "name": "QCARE CONNECT INC",
    "npi": null,
    "hcaiId": null,
    "businessName": "QCARE CONNECT INC",
    "contactEmail": "QCARECONNECTS@GMAIL.COM",
    "categoryName": "HOME HEALTH AGENCY",
    "categoryCode": "HHA",
    "licenseStatus": "ACTIVE",
    "inService": true,
    "licenseNumber": "550009974",
    "licenseEffectiveDate": "10/06/2025",
    "licenseExpirationDate": "04/05/2026",
    "dataDate": "10/18/2025",
    "capacity": 0,
    "address": "1245 W 6TH ST, UNIT 101",
    "city": "CORONA",
    "zip": "92882",
    "county": "RIVERSIDE",
    "phone": "(951) 733-6252",
    "lat": 33.87790501,
    "lng": -117.587964
  }
]