[
  {
    "id": "060001718",
    "name": "BAYSHIRE YORBA LINDA POST-ACUTE",
    "npi": null,
    "hcaiId": "206304269",
    "businessName": "SKILLED YORBA LINDA LLC",
    "contactEmail": "ADMIN@SERENTOROSA.COM",
    "categoryName": "SKILLED NURSING FACILITY",
    "categoryCode": "SNF",
    "licenseStatus": "ACTIVE",
    "inService": true,
    "licenseNumber": "060000546",
    "licenseEffectiveDate": "01/31/2025",
    "licenseExpirationDate": "01/30/2026",
    "dataDate": "10/18/2025",
    "capacity": 45,
    "address": "17803 IMPERIAL HWY",
    "city": "YORBA LINDA",
    "zip": "92886",
    "county": "ORANGE",
    "phone": "(714) 777-9666",
    "lat": 33.89544,
    "lng": -117.8206155
  },
  {
    "id": "060001652",
    "name": "CASA DE YORBA LINDA",
    "npi": "1609195221",
    "hcaiId": null,
    "businessName": "PSB HOMES, INC.",
    "contactEmail": "PSBDDSINC@YAHOO.COM",
    "categoryName": "INTERMEDIATE CARE FACILITY-DD/H/N/CN/IID",
    "categoryCode": "ICFDDH",
    "licenseStatus": "ACTIVE",
    "inService": true,
    "licenseNumber": "060000524",
    "licenseEffectiveDate": "11/12/2024",
    "licenseExpirationDate": "11/11/2025",
    "dataDate": "10/18/2025",
    "capacity": 6,
    "address": "4742 VIA DEL RANCHO",
    "city": "YORBA LINDA",
    "zip": "92886",
    "county": "ORANGE",
    "phone": null,
    "lat": 33.891426,
    "lng": -117.784062
  },
  {
    "id": "630023813",
    "name": "CLEMENTINE ORANGE COUNTY",
    "npi": null,
    "hcaiId": "206300372",
    "businessName": "MONTE NIDO LAKE VISTA, LLC",
    "contactEmail": "ASWALDEN@MONTENIDO.COM",
    "categoryName": "CONGREGATE LIVING HEALTH FACILITY",
    "categoryCode": "CLHF",
    "licenseStatus": "ACTIVE",
    "inService": true,
    "licenseNumber": "550008178",
    "licenseEffectiveDate": "10/06/2025",
    "licenseExpirationDate": "10/05/2026",
    "dataDate": "10/18/2025",
    "capacity": 6,
    "address": "17059 EL CAJON AVE",
    "city": "YORBA LINDA",
    "zip": "92886",
    "county": "ORANGE",
    "phone": "(215) 834-7729",
    "lat": 33.895935,
    "lng": -117.836613
  },
  {
    "id": "060001074",
    "name": "GARDEN PARK",
    "npi": "1972609998",
    "hcaiId": null,
    "businessName": null,
    "contactEmail": "RENEEVBROWN@GMAIL.COM",
    "categoryName": "INTERMEDIATE CARE FACILITY-DD/H/N/CN/IID",
    "categoryCode": "ICFDDN",
    "licenseStatus": "ACTIVE",
    "inService": true,
    "licenseNumber": "060000293",
    "licenseEffectiveDate": "02/04/2025",
    "licenseExpirationDate": "02/03/2026",
    "dataDate": "10/18/2025",
    "capacity": 6,
    "address": "5025 MARSHBURN CIR",
    "city": "YORBA LINDA",
    "zip": "92886",
    "county": "ORANGE",
    "phone": "(714) 335-9305",
    "lat": 33.888204,
    "lng": -117.825309
  },
  {
    "id": "060002270",
    "name": "LIGHTHOUSE ICF/DD-N",
    "npi": "1972609998",
    "hcaiId": null,
    "businessName": null,
    "contactEmail": "RENEEVBROWN@GMAIL.COM",
    "categoryName": "INTERMEDIATE CARE FACILITY-DD/H/N/CN/IID",
    "categoryCode": "ICFDDN",
    "licenseStatus": "ACTIVE",
    "inService": true,
    "licenseNumber": "060000948",
    "licenseEffectiveDate": "11/09/2024",
    "licenseExpirationDate": "11/08/2025",
    "dataDate": "10/18/2025",
    "capacity": 6,
    "address": "17001 SAGA DR",
    "city": "YORBA LINDA",
    "zip": "92886",
    "county": "ORANGE",
    "phone": "(714) 335-9305",
    "lat": 33.890724,
    "lng": -117.837693
  },
  {
    "id": "630017849",
    "name": "OPTIMUM CARE",
    "npi": null,
    "hcaiId": "206300110",
    "businessName": "ARF-TBI, LLC",
    "contactEmail": "OUDINOTNICOLAS@GMAIL.COM",
    "categoryName": "CONGREGATE LIVING HEALTH FACILITY",
    "categoryCode": "CLHF",
    "licenseStatus": "ACTIVE",
    "inService": true,
    "licenseNumber": "550004584",
    "licenseEffectiveDate": "03/11/2025",
    "licenseExpirationDate": "03/10/2026",
    "dataDate": "10/18/2025",
    "capacity": 6,
    "address": "17281 MEADOWVIEW DR",
    "city": "YORBA LINDA",
    "zip": "92886",
    "county": "ORANGE",
    "phone": "(310) 994-9181",
    "lat": 33.892983,
    "lng": -117.832104
  }
]