[
  {
    "id": "250001010",
    "name": "ACCREDO HEALTH GROUP, INC.",
    "npi": null,
    "hcaiId": "406334067",
    "businessName": "ACCREDO HEALTH GROUP, INC.",
    "contactEmail": "GCKELLY-VASSEL@EXPRESS-SCRIPTS.COM",
    "categoryName": "HOME HEALTH AGENCY",
    "categoryCode": "HHA",
    "licenseStatus": "ACTIVE",
    "inService": true,
    "licenseNumber": "250000432",
    "licenseEffectiveDate": "11/12/2024",
    "licenseExpirationDate": "11/11/2025",
    "dataDate": "10/18/2025",
    "capacity": 0,
    "address": "2410 WARDLOW RD, SUITE 101",
    "city": "CORONA",
    "zip": "92880",
    "county": "RIVERSIDE",
    "phone": "(877) 615-6140",
    "lat": 33.881346,
    "lng": -117.610677
  },
  {
    "id": "630028069",
    "name": "AGATE CONGREGATE LIVING",
    "npi": null,
    "hcaiId": null,
    "businessName": "AGATE CONGREGATE LIVING LLC",
    "contactEmail": "KSANASINH@GMAIL.COM",
    "categoryName": "CONGREGATE LIVING HEALTH FACILITY",
    "categoryCode": "CLHF",
    "licenseStatus": "ACTIVE",
    "inService": true,
    "licenseNumber": "550009782",
    "licenseEffectiveDate": "11/06/2025",
    "licenseExpirationDate": "05/05/2026",
    "dataDate": "10/18/2025",
    "capacity": 6,
    "address": "13968 AGATE CT",
    "city": "EASTVALE",
    "zip": "92880",
    "county": "RIVERSIDE",
    "phone": "(949) 233-1645",
    "lat": 33.96167848,
    "lng": -117.5879501
  },
  {
    "id": "630012543",
    "name": "BELLA TERRA HOSPICE",
    "npi": null,
    "hcaiId": "406333773",
    "businessName": "PEACEFUL HEART HEALTHCARE, LLC",
    "contactEmail": "ADMIN@BELLATERRAHEALTHCARE.COM",
    "categoryName": "HOSPICE",
    "categoryCode": "HOSPICE",
    "licenseStatus": "ACTIVE",
    "inService": true,
    "licenseNumber": "550001417",
    "licenseEffectiveDate": "05/30/2025",
    "licenseExpirationDate": "05/29/2027",
    "dataDate": "10/18/2025",
    "capacity": 0,
    "address": "391 N MAIN ST, SUITE 303",
    "city": "CORONA",
    "zip": "92880",
    "county": "RIVERSIDE",
    "phone": "(951) 397-4755",
    "lat": 33.885414,
    "lng": -117.564201
  },
  {
    "id": "630010501",
    "name": "BERNADETTE HOUSE",
    "npi": "1255580668",
    "hcaiId": null,
    "businessName": "CASTLES CARE HOMES, INC.",
    "contactEmail": "JOSUEVIGILANT@SBCGLOBAL.NET",
    "categoryName": "INTERMEDIATE CARE FACILITY-DD/H/N/CN/IID",
    "categoryCode": "ICFDDH",
    "licenseStatus": "ACTIVE",
    "inService": true,
    "licenseNumber": "550000442",
    "licenseEffectiveDate": "03/22/2025",
    "licenseExpirationDate": "03/21/2026",
    "dataDate": "10/18/2025",
    "capacity": 6,
    "address": "7302 EXCELSIOR DR",
    "city": "CORONA",
    "zip": "92880",
    "county": "RIVERSIDE",
    "phone": "(951) 808-8698",
    "lat": 33.954561,
    "lng": -117.558945
  },
  {
    "id": "630010940",
    "name": "CALIFORNIA INSTITUTION FOR WOMEN CTC",
    "npi": null,
    "hcaiId": null,
    "businessName": "CA DEPARTMENT OF CORRECTIONS AND REHABILITATION",
    "contactEmail": "MICHELLE.STEVENS@CDCR.CA.GOV",
    "categoryName": "CORRECTIONAL TREATMENT CENTER",
    "categoryCode": "CTC",
    "licenseStatus": "ACTIVE",
    "inService": true,
    "licenseNumber": "550000235",
    "licenseEffectiveDate": "02/09/2025",
    "licenseExpirationDate": "02/08/2026",
    "dataDate": "10/18/2025",
    "capacity": 63,
    "address": "16756 CHINO CORONA RD",
    "city": "CORONA",
    "zip": "92880",
    "county": "RIVERSIDE",
    "phone": "(951) 403-0580",
    "lat": 33.94863,
    "lng": -117.6374565
  },
  {
    "id": "630028028",
    "name": "COBBLE CREEK CONGREGATE LIVING",
    "npi": null,
    "hcaiId": null,
    "businessName": "COBBLE CREEK CONGREGATE LIVING LLC",
    "contactEmail": "MARC@CCCONGREGATE.COM",
    "categoryName": "CONGREGATE LIVING HEALTH FACILITY",
    "categoryCode": "CLHF",
    "licenseStatus": "ACTIVE",
    "inService": true,
    "licenseNumber": "550009788",
    "licenseEffectiveDate": "11/12/2025",
    "licenseExpirationDate": "05/11/2026",
    "dataDate": "10/18/2025",
    "capacity": 6,
    "address": "7462 COBBLE CREEK DR",
    "city": "EASTVALE",
    "zip": "92880",
    "county": "RIVERSIDE",
    "phone": "(949) 235-6269",
    "lat": 33.9525642,
    "lng": -117.5798962
  },
  {
    "id": "630027121",
    "name": "CORONA CONGREGATE CARE",
    "npi": null,
    "hcaiId": "206330021",
    "businessName": "CORONA CONGREGATE CARE",
    "contactEmail": "CORONACONGREGATE@GMAIL.COM",
    "categoryName": "CONGREGATE LIVING HEALTH FACILITY",
    "categoryCode": "CLHF",
    "licenseStatus": "ACTIVE",
    "inService": true,
    "licenseNumber": "550008819",
    "licenseEffectiveDate": "11/21/2024",
    "licenseExpirationDate": "11/20/2025",
    "dataDate": "10/18/2025",
    "capacity": 6,
    "address": "7890 VANDEWATER ST",
    "city": "EASTVALE",
    "zip": "92880",
    "county": "RIVERSIDE",
    "phone": "(951) 415-1120",
    "lat": 33.94453699,
    "lng": -117.583262
  },
  {
    "id": "630011097",
    "name": "EASTVALE PRESERVE DIALYSIS",
    "npi": "1033159264",
    "hcaiId": "306334581",
    "businessName": "DAVITA RIVERSIDE II, LLC",
    "contactEmail": "CAL_C@DAVITA.COM",
    "categoryName": "CHRONIC DIALYSIS CLINIC",
    "categoryCode": "ESRD/CDC",
    "licenseStatus": "ACTIVE",
    "inService": true,
    "licenseNumber": "550000399",
    "licenseEffectiveDate": "10/09/2025",
    "licenseExpirationDate": "03/07/2026",
    "dataDate": "10/18/2025",
    "capacity": 25,
    "address": "14260 SCHLEISMAN RD",
    "city": "EASTVALE",
    "zip": "92880",
    "county": "RIVERSIDE",
    "phone": "(951) 738-0185",
    "lat": 33.959232,
    "lng": -117.594621
  },
  {
    "id": "250001726",
    "name": "ELMHURST HOUSE",
    "npi": "1518987049",
    "hcaiId": null,
    "businessName": "CASTLES CARE HOMES, INC.",
    "contactEmail": "JOSUEVIGILANT@SBCGLOBAL.NET",
    "categoryName": "INTERMEDIATE CARE FACILITY-DD/H/N/CN/IID",
    "categoryCode": "ICFDDH",
    "licenseStatus": "ACTIVE",
    "inService": true,
    "licenseNumber": "250000749",
    "licenseEffectiveDate": "02/13/2025",
    "licenseExpirationDate": "02/12/2026",
    "dataDate": "10/18/2025",
    "capacity": 6,
    "address": "1068 ELMHURST DR",
    "city": "CORONA",
    "zip": "92880",
    "county": "RIVERSIDE",
    "phone": "(951) 372-0288",
    "lat": 33.904458,
    "lng": -117.585081
  },
  {
    "id": "630012886",
    "name": "MESA HOUSE",
    "npi": "1568771756",
    "hcaiId": null,
    "businessName": "CASTLES CARE HOMES, INC.",
    "contactEmail": "JOSUEVIGILANT@SBCGLOBAL.NET",
    "categoryName": "INTERMEDIATE CARE FACILITY-DD/H/N/CN/IID",
    "categoryCode": "ICFDDH",
    "licenseStatus": "ACTIVE",
    "inService": true,
    "licenseNumber": "550001529",
    "licenseEffectiveDate": "03/30/2025",
    "licenseExpirationDate": "03/29/2026",
    "dataDate": "10/18/2025",
    "capacity": 6,
    "address": "6327 LA MESA ST",
    "city": "CORONA",
    "zip": "92880",
    "county": "RIVERSIDE",
    "phone": "(951) 808-8698",
    "lat": 33.973362,
    "lng": -117.583164
  },
  {
    "id": "630019373",
    "name": "SENIOR CARE LIVING SOLUTIONS LLC",
    "npi": "1033760558",
    "hcaiId": "406332883",
    "businessName": "SENIOR CARE LIVING SOLUTIONS LLC",
    "contactEmail": "SENIORCARELIVINGSOLUTIONS@GMAIL.COM",
    "categoryName": "HOSPICE",
    "categoryCode": "HOSPICE",
    "licenseStatus": "ACTIVE",
    "inService": true,
    "licenseNumber": "550005729",
    "licenseEffectiveDate": "08/27/2022",
    "licenseExpirationDate": "08/26/2024",
    "dataDate": "10/18/2025",
    "capacity": 0,
    "address": "1611 POMONA RD, SUITE 202",
    "city": "CORONA",
    "zip": "92880",
    "county": "RIVERSIDE",
    "phone": "(800) 233-4202",
    "lat": 33.882237,
    "lng": -117.596835
  },
  {
    "id": "250001714",
    "name": "TEAKWOOD HOUSE",
    "npi": "1437308848",
    "hcaiId": null,
    "businessName": "CASTLES CARE HOMES, INC.",
    "contactEmail": "JOSUEVIGILANT@SBCGLOBAL.NET",
    "categoryName": "INTERMEDIATE CARE FACILITY-DD/H/N/CN/IID",
    "categoryCode": "ICFDDH",
    "licenseStatus": "ACTIVE",
    "inService": true,
    "licenseNumber": "250000743",
    "licenseEffectiveDate": "02/13/2025",
    "licenseExpirationDate": "02/12/2026",
    "dataDate": "10/18/2025",
    "capacity": 6,
    "address": "1481 TEAKWOOD PL",
    "city": "CORONA",
    "zip": "92880",
    "county": "RIVERSIDE",
    "phone": "(951) 372-0488",
    "lat": 33.903279,
    "lng": -117.583668
  },
  {
    "id": "630021093",
    "name": "TRINITY PARTNERS HOME HEALTH",
    "npi": null,
    "hcaiId": "406336003",
    "businessName": "INFUSION PARTNERS 360, CONSULTING GROUP, LLC",
    "contactEmail": "TRINITYPARTNERSHOMEHEALTH@GMAIL.COM",
    "categoryName": "HOME HEALTH AGENCY",
    "categoryCode": "HHA",
    "licenseStatus": "ACTIVE",
    "inService": true,
    "licenseNumber": "550008340",
    "licenseEffectiveDate": "01/26/2025",
    "licenseExpirationDate": "01/25/2026",
    "dataDate": "10/18/2025",
    "capacity": 0,
    "address": "4254 GREEN RIVER RD",
    "city": "CORONA",
    "zip": "92880",
    "county": "RIVERSIDE",
    "phone": "(866) 941-0990",
    "lat": 33.878907,
    "lng": -117.6478065
  }
]