[
  {
    "id": "630027143",
    "name": "CIRCLE CITY MIDWIFERY BIRTH CENTER, INC.",
    "npi": null,
    "hcaiId": null,
    "businessName": "CIRCLE CITY MIDWIFERY BIRTH CENTER, INC.",
    "contactEmail": "ADMIN@CCMIDWIFERY.COM",
    "categoryName": "ALTERNATIVE BIRTHING CENTER",
    "categoryCode": "ABC",
    "licenseStatus": "ACTIVE",
    "inService": true,
    "licenseNumber": "550008893",
    "licenseEffectiveDate": "01/08/2025",
    "licenseExpirationDate": "01/07/2026",
    "dataDate": "10/18/2025",
    "capacity": 0,
    "address": "1353 OLD TEMESCAL RD, SUITE 103",
    "city": "CORONA",
    "zip": "92881",
    "county": "RIVERSIDE",
    "phone": "(909) 816-6085",
    "lat": 33.85430999,
    "lng": -117.537732
  },
  {
    "id": "240001816",
    "name": "CORONA DIALYSIS CENTER",
    "npi": "1922069384",
    "hcaiId": "306334656",
    "businessName": "RENAL TREATMENT CENTERS - CALIFORNIA, INC.",
    "contactEmail": "CAL_C@DAVITA.COM",
    "categoryName": "CHRONIC DIALYSIS CLINIC",
    "categoryCode": "ESRD/CDC",
    "licenseStatus": "ACTIVE",
    "inService": true,
    "licenseNumber": "240000805",
    "licenseEffectiveDate": "05/11/2025",
    "licenseExpirationDate": "05/10/2026",
    "dataDate": "10/18/2025",
    "capacity": 0,
    "address": "2057 COMPTON AVE, SUITE 101",
    "city": "CORONA",
    "zip": "92881",
    "county": "RIVERSIDE",
    "phone": "(951) 735-5845",
    "lat": 33.849639,
    "lng": -117.535923
  },
  {
    "id": "630027452",
    "name": "CORONA HEIGHTS SURGERY CENTER, LLC",
    "npi": null,
    "hcaiId": null,
    "businessName": null,
    "contactEmail": null,
    "categoryName": "SURGICAL CLINIC",
    "categoryCode": "ASC",
    "licenseStatus": null,
    "inService": null,
    "licenseNumber": null,
    "licenseEffectiveDate": null,
    "licenseExpirationDate": null,
    "dataDate": "10/18/2025",
    "capacity": 0,
    "address": "2097 COMPTON AVE, SUITE 101",
    "city": "CORONA",
    "zip": "92881",
    "county": "RIVERSIDE",
    "phone": null,
    "lat": 33.84777898,
    "lng": -117.535693
  },
  {
    "id": "630014392",
    "name": "CORONA SPECIALITY CARE SURGERY CENTER",
    "npi": "1760740674",
    "hcaiId": null,
    "businessName": null,
    "contactEmail": null,
    "categoryName": "SURGICAL CLINIC",
    "categoryCode": "ASC/SURGC",
    "licenseStatus": null,
    "inService": null,
    "licenseNumber": null,
    "licenseEffectiveDate": null,
    "licenseExpirationDate": null,
    "dataDate": "10/18/2025",
    "capacity": 0,
    "address": "1810 FULLERTON AVE, SUITE #103",
    "city": "CORONA",
    "zip": "92881",
    "county": "RIVERSIDE",
    "phone": "(951) 734-7246",
    "lat": 33.859701,
    "lng": -117.5511555
  },
  {
    "id": "630017686",
    "name": "INLAND EMPIRE MINIMALLY INVASIVE SURGERY INSTITUTE INC",
    "npi": "1083070494",
    "hcaiId": null,
    "businessName": null,
    "contactEmail": null,
    "categoryName": "SURGICAL CLINIC",
    "categoryCode": "ASC/SURGC",
    "licenseStatus": null,
    "inService": null,
    "licenseNumber": null,
    "licenseEffectiveDate": null,
    "licenseExpirationDate": null,
    "dataDate": "10/18/2025",
    "capacity": 0,
    "address": "1902 FULLERTON AVE, SUITE 101",
    "city": "CORONA",
    "zip": "92881",
    "county": "RIVERSIDE",
    "phone": null,
    "lat": 33.858297,
    "lng": -117.5507595
  },
  {
    "id": "630015162",
    "name": "KAISER FOUNDATION HOSPITAL - RIVERSIDE HOSPICE",
    "npi": "1720229602",
    "hcaiId": null,
    "businessName": "KAISER FOUNDATION HOSPITALS",
    "contactEmail": "RHONDA.M.HORNACK@KP.ORG",
    "categoryName": "HOSPICE",
    "categoryCode": "HOSPICE",
    "licenseStatus": "ACTIVE",
    "inService": true,
    "licenseNumber": "250000333",
    "licenseEffectiveDate": "04/12/2025",
    "licenseExpirationDate": "04/11/2026",
    "dataDate": "10/18/2025",
    "capacity": 0,
    "address": "1830 CALIFORNIA AVE",
    "city": "CORONA",
    "zip": "92881",
    "county": "RIVERSIDE",
    "phone": "(951) 358-2957",
    "lat": 33.85793399,
    "lng": -117.540493
  },
  {
    "id": "250000718",
    "name": "KAISER,  RIVERSIDE, HOME HEALTH AGENCY (PARENT)",
    "npi": "1720229602",
    "hcaiId": "406334024",
    "businessName": "KAISER FOUNDATION HOSPITALS",
    "contactEmail": "RHONDA.M.HORNACK@KP.ORG",
    "categoryName": "HOME HEALTH AGENCY",
    "categoryCode": "HHA",
    "licenseStatus": "ACTIVE",
    "inService": true,
    "licenseNumber": "250000333",
    "licenseEffectiveDate": "04/12/2025",
    "licenseExpirationDate": "04/11/2026",
    "dataDate": "10/18/2025",
    "capacity": 0,
    "address": "1830 CALIFORNIA AVE",
    "city": "CORONA",
    "zip": "92881",
    "county": "RIVERSIDE",
    "phone": "(951) 270-1260",
    "lat": 33.85793399,
    "lng": -117.540493
  },
  {
    "id": "630019313",
    "name": "PLANNED PARENTHOOD - CORONA",
    "npi": null,
    "hcaiId": null,
    "businessName": "PLANNED PARENTHOOD OF THE PACIFIC SOUTHWEST",
    "contactEmail": "LMANN1@PLANNED.ORG",
    "categoryName": "PRIMARY CARE CLINIC",
    "categoryCode": "COMTYC",
    "licenseStatus": "ACTIVE",
    "inService": true,
    "licenseNumber": "250000054",
    "licenseEffectiveDate": "11/04/2025",
    "licenseExpirationDate": "11/03/2026",
    "dataDate": "10/18/2025",
    "capacity": 0,
    "address": "2079 COMPTON AVE, SUITE 104",
    "city": "CORONA",
    "zip": "92881",
    "county": "RIVERSIDE",
    "phone": null,
    "lat": 33.848586,
    "lng": -117.5356935
  },
  {
    "id": "630007351",
    "name": "WYNN HOUSE",
    "npi": "1508075508",
    "hcaiId": null,
    "businessName": "PEPPERMINT RIDGE",
    "contactEmail": "SLICHT@PEPPERMINTRIDGE.ORG",
    "categoryName": "INTERMEDIATE CARE FACILITY-DD/H/N/CN/IID",
    "categoryCode": "ICFDDH",
    "licenseStatus": "ACTIVE",
    "inService": true,
    "licenseNumber": "550000168",
    "licenseEffectiveDate": "04/19/2025",
    "licenseExpirationDate": "04/18/2026",
    "dataDate": "10/18/2025",
    "capacity": 6,
    "address": "1581 HEARTLAND WAY",
    "city": "CORONA",
    "zip": "92881",
    "county": "RIVERSIDE",
    "phone": "(951) 273-7346",
    "lat": 33.835212,
    "lng": -117.5399055
  }
]