[
  {
    "id": "630017961",
    "name": "ACESO HOSPICE, INC.",
    "npi": null,
    "hcaiId": "406191914",
    "businessName": "ACESO HOSPICE, INC.",
    "contactEmail": "ACESOHOSPICE@YAHOO.COM",
    "categoryName": "HOSPICE",
    "categoryCode": "HOSPICE",
    "licenseStatus": "ACTIVE",
    "inService": true,
    "licenseNumber": "550004866",
    "licenseEffectiveDate": "08/22/2025",
    "licenseExpirationDate": "08/21/2027",
    "dataDate": "10/18/2025",
    "capacity": 0,
    "address": "701 E SANTA CLARA ST, SUITE #10",
    "city": "VENTURA",
    "zip": "93001",
    "county": "VENTURA",
    "phone": "(818) 655-0502",
    "lat": 34.27987699,
    "lng": -119.289722
  },
  {
    "id": "050000041",
    "name": "AURORA VISTA DEL MAR HOSPITAL",
    "npi": "1902863418",
    "hcaiId": "106560203",
    "businessName": "AURORA VISTA DEL MAR LLC",
    "contactEmail": "TERRI.DUKE@AURORABEHAVIORAL.COM",
    "categoryName": "ACUTE PSYCHIATRIC HOSPITAL",
    "categoryCode": "APH",
    "licenseStatus": "ACTIVE",
    "inService": true,
    "licenseNumber": "050000016",
    "licenseEffectiveDate": "03/22/2025",
    "licenseExpirationDate": "03/21/2026",
    "dataDate": "10/18/2025",
    "capacity": 87,
    "address": "801 SENECA ST",
    "city": "VENTURA",
    "zip": "93001",
    "county": "VENTURA",
    "phone": "(805) 626-5240",
    "lat": 34.307703,
    "lng": -119.2836645
  },
  {
    "id": "630015426",
    "name": "BRIGHTSTAR OF VENTURA",
    "npi": null,
    "hcaiId": "406564262",
    "businessName": "TRIPOD INC.",
    "contactEmail": "VICTORIA.ERICKSON@BRIGHTSTARCARE.COM",
    "categoryName": "HOME HEALTH AGENCY",
    "categoryCode": "HHA",
    "licenseStatus": "ACTIVE",
    "inService": true,
    "licenseNumber": "550002993",
    "licenseEffectiveDate": "02/19/2024",
    "licenseExpirationDate": "02/18/2025",
    "dataDate": "10/18/2025",
    "capacity": 0,
    "address": "374 POLI ST, SUITE 106",
    "city": "VENTURA",
    "zip": "93001",
    "county": "VENTURA",
    "phone": "(805) 585-2273",
    "lat": 34.281909,
    "lng": -119.2949325
  },
  {
    "id": "630014306",
    "name": "LIFE SPRINGS HOSPICE CARE - VENTURA, INC.",
    "npi": "1548503501",
    "hcaiId": "406564248",
    "businessName": "LIFE SPRINGS HOSPICE CARE - VENTURA, INC.",
    "contactEmail": "INFO@LIFESPRINGSVENTURA.COM",
    "categoryName": "HOSPICE",
    "categoryCode": "HOSPICE",
    "licenseStatus": "ACTIVE",
    "inService": true,
    "licenseNumber": "550002590",
    "licenseEffectiveDate": "09/03/2025",
    "licenseExpirationDate": "09/02/2027",
    "dataDate": "10/18/2025",
    "capacity": 0,
    "address": "2660 E. MAIN STREET, SUITE 203",
    "city": "VENTURA",
    "zip": "93001",
    "county": "VENTURA",
    "phone": "(805) 309-8000",
    "lat": 34.273602,
    "lng": -119.2603095
  },
  {
    "id": "630021700",
    "name": "PACIFIC CREST HOSPICE OF VENTURA COUNTY LLC",
    "npi": null,
    "hcaiId": "406567677",
    "businessName": "PACIFIC CREST HOSPICE OF VENTURA COUNTY LLC",
    "contactEmail": "CHARLENE.GOROSPE@PACIFICCRESTCARES.COM",
    "categoryName": "HOSPICE",
    "categoryCode": "HOSPICE",
    "licenseStatus": "ACTIVE",
    "inService": true,
    "licenseNumber": "550007535",
    "licenseEffectiveDate": "12/03/2023",
    "licenseExpirationDate": "12/02/2025",
    "dataDate": "10/18/2025",
    "capacity": 0,
    "address": "2300 ALESSANDRO DR, SUITE 120",
    "city": "VENTURA",
    "zip": "93001",
    "county": "VENTURA",
    "phone": "(760) 808-2646",
    "lat": 34.266078,
    "lng": -119.269053
  },
  {
    "id": "630012485",
    "name": "WEST VENTURA MEDICAL CLINIC",
    "npi": null,
    "hcaiId": null,
    "businessName": null,
    "contactEmail": null,
    "categoryName": "PRIMARY CARE CLINIC",
    "categoryCode": "FQHC",
    "licenseStatus": null,
    "inService": null,
    "licenseNumber": null,
    "licenseEffectiveDate": null,
    "licenseExpirationDate": null,
    "dataDate": "10/18/2025",
    "capacity": 0,
    "address": "133 W SANTA CLARA ST",
    "city": "VENTURA",
    "zip": "93001",
    "county": "VENTURA",
    "phone": null,
    "lat": 34.279992,
    "lng": -119.303046
  }
]