[
  {
    "id": "630025323",
    "name": "AFFINITY HEALTHCARE VENTURA, INC.",
    "npi": null,
    "hcaiId": "406566215",
    "businessName": "AFFINITY HEALTHCARE VENTURA, INC.",
    "contactEmail": "AFFINITYHHVENTURA@GMAIL.COM",
    "categoryName": "HOME HEALTH AGENCY",
    "categoryCode": "HHA",
    "licenseStatus": "ACTIVE",
    "inService": true,
    "licenseNumber": "550008400",
    "licenseEffectiveDate": "02/20/2025",
    "licenseExpirationDate": "02/19/2026",
    "dataDate": "10/18/2025",
    "capacity": 0,
    "address": "310 S WELLS RD, SUITE 207A",
    "city": "VENTURA",
    "zip": "93004",
    "county": "VENTURA",
    "phone": "(626) 655-8457",
    "lat": 34.292493,
    "lng": -119.157993
  },
  {
    "id": "630010001",
    "name": "CARING CONCERN RESIDENTIAL HOMES INC - DANA POINT",
    "npi": "1851587224",
    "hcaiId": null,
    "businessName": "CARING CONCERN RESIDENTIAL HOMES INC A CALIFORNIA CORPORATION",
    "contactEmail": "AREBENSAL@GMAIL.COM",
    "categoryName": "INTERMEDIATE CARE FACILITY-DD/H/N/CN/IID",
    "categoryCode": "ICFDDN",
    "licenseStatus": "ACTIVE",
    "inService": true,
    "licenseNumber": "550000198",
    "licenseEffectiveDate": "03/28/2025",
    "licenseExpirationDate": "03/27/2026",
    "dataDate": "10/18/2025",
    "capacity": 6,
    "address": "385 DANA POINT AVE",
    "city": "VENTURA",
    "zip": "93004",
    "county": "VENTURA",
    "phone": "(805) 258-9377",
    "lat": 34.277004,
    "lng": -119.1850875
  },
  {
    "id": "050000642",
    "name": "CARING CONCERN RESIDENTIAL HOMES INC - NEATH",
    "npi": "1851587224",
    "hcaiId": null,
    "businessName": "CARING CONCERN RESIDENTIAL HOMES INC A CALIFORNIA CORPORATION",
    "contactEmail": "AREBENSAL@GMAIL.COM",
    "categoryName": "INTERMEDIATE CARE FACILITY-DD/H/N/CN/IID",
    "categoryCode": "ICFDDN",
    "licenseStatus": "ACTIVE",
    "inService": true,
    "licenseNumber": "050000299",
    "licenseEffectiveDate": "11/03/2024",
    "licenseExpirationDate": "11/02/2025",
    "dataDate": "10/18/2025",
    "capacity": 6,
    "address": "9002 NEATH ST",
    "city": "VENTURA",
    "zip": "93004",
    "county": "VENTURA",
    "phone": "(805) 258-9377",
    "lat": 34.2657,
    "lng": -119.1720465
  },
  {
    "id": "050000077",
    "name": "CARING CONCERN RESIDENTIAL HOMES INC - SAN MATEO",
    "npi": "1851587224",
    "hcaiId": null,
    "businessName": "CARING CONCERN RESIDENTIAL HOMES INC A CALIFORNIA CORPORATION",
    "contactEmail": "AREBENSAL@GMAIL.COM",
    "categoryName": "INTERMEDIATE CARE FACILITY-DD/H/N/CN/IID",
    "categoryCode": "ICFDDN",
    "licenseStatus": "ACTIVE",
    "inService": true,
    "licenseNumber": "050000019",
    "licenseEffectiveDate": "11/03/2024",
    "licenseExpirationDate": "11/02/2025",
    "dataDate": "10/18/2025",
    "capacity": 6,
    "address": "347 N SAN MATEO AVE",
    "city": "VENTURA",
    "zip": "93004",
    "county": "VENTURA",
    "phone": "(805) 258-9377",
    "lat": 34.287957,
    "lng": -119.1892905
  },
  {
    "id": "050000122",
    "name": "CLINICAS DEL CAMINO REAL INC VENTURA",
    "npi": null,
    "hcaiId": "306561202",
    "businessName": "CLINICAS DEL CAMINO REAL, INC.",
    "contactEmail": "EMAIL@CLINICAS.ORG",
    "categoryName": "PRIMARY CARE CLINIC",
    "categoryCode": "COMTYC",
    "licenseStatus": "ACTIVE",
    "inService": true,
    "licenseNumber": "050000116",
    "licenseEffectiveDate": "04/04/2025",
    "licenseExpirationDate": "04/03/2026",
    "dataDate": "10/18/2025",
    "capacity": 0,
    "address": "200 S WELLS RD, SUITE 100",
    "city": "VENTURA",
    "zip": "93004",
    "county": "VENTURA",
    "phone": "(805) 647-6322",
    "lat": 34.293474,
    "lng": -119.159262
  },
  {
    "id": "050000919",
    "name": "PETIT COMMUNITY HOME",
    "npi": "1982730859",
    "hcaiId": null,
    "businessName": "NORMAL LIFE OF CALIFORNIA INC",
    "contactEmail": "MPAYNE@RESCARE.COM",
    "categoryName": "INTERMEDIATE CARE FACILITY-DD/H/N/CN/IID",
    "categoryCode": "ICFDDH",
    "licenseStatus": "ACTIVE",
    "inService": true,
    "licenseNumber": "050000368",
    "licenseEffectiveDate": "03/02/2025",
    "licenseExpirationDate": "03/01/2026",
    "dataDate": "10/18/2025",
    "capacity": 6,
    "address": "228 PETIT AVE",
    "city": "VENTURA",
    "zip": "93004",
    "county": "VENTURA",
    "phone": "(805) 659-3683",
    "lat": 34.279812,
    "lng": -119.1790935
  },
  {
    "id": "050000990",
    "name": "POTOMAC COMMUNITY HOME",
    "npi": "1659407054",
    "hcaiId": null,
    "businessName": "NORMAL LIFE OF CALIFORNIA INC",
    "contactEmail": "MPAYNE@RESCARE.COM",
    "categoryName": "INTERMEDIATE CARE FACILITY-DD/H/N/CN/IID",
    "categoryCode": "ICFDDH",
    "licenseStatus": "ACTIVE",
    "inService": true,
    "licenseNumber": "050000401",
    "licenseEffectiveDate": "02/27/2025",
    "licenseExpirationDate": "02/26/2026",
    "dataDate": "10/18/2025",
    "capacity": 6,
    "address": "1755 POTOMAC AVE",
    "city": "VENTURA",
    "zip": "93004",
    "county": "VENTURA",
    "phone": "(805) 671-9520",
    "lat": 34.263621,
    "lng": -119.172213
  },
  {
    "id": "050001180",
    "name": "STARFISH HOME",
    "npi": "1144357252",
    "hcaiId": null,
    "businessName": "EPIPHANY CARE HOMES INC",
    "contactEmail": "MATTHEW@EPICARE.ORG",
    "categoryName": "INTERMEDIATE CARE FACILITY-DD/H/N/CN/IID",
    "categoryCode": "ICFDDN",
    "licenseStatus": "ACTIVE",
    "inService": true,
    "licenseNumber": "050000464",
    "licenseEffectiveDate": "11/06/2024",
    "licenseExpirationDate": "11/05/2025",
    "dataDate": "10/18/2025",
    "capacity": 6,
    "address": "994 PHOENIX AVENUE",
    "city": "VENTURA",
    "zip": "93004",
    "county": "VENTURA",
    "phone": "(805) 659-1218",
    "lat": 34.272045,
    "lng": -119.173005
  }
]