[
  {
    "id": "630018364",
    "name": "ADVANCED QUALITY HOME HEALTH CARE, INC.",
    "npi": "1396220612",
    "hcaiId": "406562450",
    "businessName": "ADVANCED QUALITY HOME HEALTH CARE, INC.",
    "contactEmail": "ADVANCEDQUALITYHHC@YAHOO.COM",
    "categoryName": "HOME HEALTH AGENCY",
    "categoryCode": "HHA",
    "licenseStatus": "ACTIVE",
    "inService": true,
    "licenseNumber": "550005415",
    "licenseEffectiveDate": "03/17/2025",
    "licenseExpirationDate": "03/16/2026",
    "dataDate": "10/18/2025",
    "capacity": 0,
    "address": "3212 LOMA VISTA RD, SUITE 260",
    "city": "VENTURA",
    "zip": "93003",
    "county": "VENTURA",
    "phone": "(805) 585-2204",
    "lat": 34.275726,
    "lng": -119.253024
  },
  {
    "id": "630012484",
    "name": "ANACAPA SURGICAL ASSOCIATES",
    "npi": null,
    "hcaiId": null,
    "businessName": null,
    "contactEmail": null,
    "categoryName": "PRIMARY CARE CLINIC",
    "categoryCode": "FQHC",
    "licenseStatus": null,
    "inService": null,
    "licenseNumber": null,
    "licenseEffectiveDate": null,
    "licenseExpirationDate": null,
    "dataDate": "10/18/2025",
    "capacity": 0,
    "address": "3170 LOMA VISTA RD",
    "city": "VENTURA",
    "zip": "93003",
    "county": "VENTURA",
    "phone": null,
    "lat": 34.275591,
    "lng": -119.2531995
  },
  {
    "id": "630025447",
    "name": "ANGEL HOME CARE OF VENTURA, INC.",
    "npi": null,
    "hcaiId": "406560026",
    "businessName": "ANGEL HOME CARE OF VENTURA INC",
    "contactEmail": "ANGELSOFVENTURA@GMAIL.COM",
    "categoryName": "HOME HEALTH AGENCY",
    "categoryCode": "HHA",
    "licenseStatus": "ACTIVE",
    "inService": true,
    "licenseNumber": "550009020",
    "licenseEffectiveDate": "01/11/2025",
    "licenseExpirationDate": "01/10/2026",
    "dataDate": "10/18/2025",
    "capacity": 0,
    "address": "4587 TELEPHONE RD, SUITE 204",
    "city": "VENTURA",
    "zip": "93003",
    "county": "VENTURA",
    "phone": "(805) 824-9597",
    "lat": 34.256655,
    "lng": -119.2353795
  },
  {
    "id": "050001272",
    "name": "ASSISTED HEALTHCARE SERVICES",
    "npi": null,
    "hcaiId": "406564101",
    "businessName": "STAFF ASSISTANCE, INC.",
    "contactEmail": "CCORTEZ@ASSISTED1.COM",
    "categoryName": "HOME HEALTH AGENCY",
    "categoryCode": "HHA",
    "licenseStatus": "ACTIVE",
    "inService": true,
    "licenseNumber": "050000503",
    "licenseEffectiveDate": "11/28/2024",
    "licenseExpirationDate": "11/27/2025",
    "dataDate": "10/18/2025",
    "capacity": 0,
    "address": "4450 WESTINGHOUSE ST, SUITE 102",
    "city": "VENTURA",
    "zip": "93003",
    "county": "VENTURA",
    "phone": "(805) 677-7400",
    "lat": 34.258419,
    "lng": -119.233476
  },
  {
    "id": "050001298",
    "name": "ASSISTED HOME CARE",
    "npi": "1619929734",
    "hcaiId": "406564104",
    "businessName": "ASSISTED HOME RECOVERY, INC.",
    "contactEmail": "TAULESTIA@ASSISTEDCARES.COM",
    "categoryName": "HOME HEALTH AGENCY",
    "categoryCode": "HHA",
    "licenseStatus": "ACTIVE",
    "inService": true,
    "licenseNumber": "050000513",
    "licenseEffectiveDate": "06/26/2025",
    "licenseExpirationDate": "06/25/2026",
    "dataDate": "10/18/2025",
    "capacity": 0,
    "address": "4450 WESTINGHOUSE ST, SUITE 101",
    "city": "VENTURA",
    "zip": "93003",
    "county": "VENTURA",
    "phone": "(805) 371-9980",
    "lat": 34.258419,
    "lng": -119.233476
  },
  {
    "id": "070001255",
    "name": "ASSISTED HOME HOSPICE",
    "npi": "1659326825",
    "hcaiId": "406564110",
    "businessName": "ASSISTED HOME CARE INC",
    "contactEmail": "TAULESTIA@ASSISTEDCARES.COM",
    "categoryName": "HOSPICE",
    "categoryCode": "HOSPICE",
    "licenseStatus": "ACTIVE",
    "inService": true,
    "licenseNumber": "070000583",
    "licenseEffectiveDate": "11/29/2023",
    "licenseExpirationDate": "11/28/2025",
    "dataDate": "10/18/2025",
    "capacity": 0,
    "address": "4450 WESTINGHOUSE ST, SUITE 103",
    "city": "VENTURA",
    "zip": "93003",
    "county": "VENTURA",
    "phone": "(805) 371-9980",
    "lat": 34.258419,
    "lng": -119.233476
  },
  {
    "id": "630013983",
    "name": "CARE LINK HOME HEALTH SERVICES, INC.",
    "npi": "1508164625",
    "hcaiId": "406564242",
    "businessName": "CARE LINK HOME HEALTH SERVICES, INC.",
    "contactEmail": "INFO@CARELINKHH.COM",
    "categoryName": "HOME HEALTH AGENCY",
    "categoryCode": "HHA",
    "licenseStatus": "ACTIVE",
    "inService": true,
    "licenseNumber": "550002427",
    "licenseEffectiveDate": "10/09/2024",
    "licenseExpirationDate": "10/08/2025",
    "dataDate": "10/18/2025",
    "capacity": 0,
    "address": "2112 EASTMAN AVE, UNIT 110",
    "city": "VENTURA",
    "zip": "93003",
    "county": "VENTURA",
    "phone": "(805) 650-6305",
    "lat": 34.253676,
    "lng": -119.229426
  },
  {
    "id": "050001225",
    "name": "CARING CONCERN RESIDENTIAL HOMES INC - KOALA HOME",
    "npi": "1851587224",
    "hcaiId": null,
    "businessName": "CARING CONCERN RESIDENTIAL HOMES INC A CALIFORNIA CORPORATION",
    "contactEmail": "AREBENSAL@GMAIL.COM",
    "categoryName": "INTERMEDIATE CARE FACILITY-DD/H/N/CN/IID",
    "categoryCode": "ICFDDH",
    "licenseStatus": "ACTIVE",
    "inService": true,
    "licenseNumber": "050000491",
    "licenseEffectiveDate": "03/15/2025",
    "licenseExpirationDate": "03/14/2026",
    "dataDate": "10/18/2025",
    "capacity": 6,
    "address": "2116 KOALA WAY",
    "city": "VENTURA",
    "zip": "93003",
    "county": "VENTURA",
    "phone": "(805) 258-9377",
    "lat": 34.257915,
    "lng": -119.1917475
  },
  {
    "id": "050000066",
    "name": "COASTAL VIEW HEALTHCARE CENTER",
    "npi": "1497011282",
    "hcaiId": "206560539",
    "businessName": "COASTAL VIEW HEALTHCARE CENTER, LLC",
    "contactEmail": "CINDYJ@COASTALVIEWHCC.COM",
    "categoryName": "SKILLED NURSING FACILITY",
    "categoryCode": "SNF",
    "licenseStatus": "ACTIVE",
    "inService": true,
    "licenseNumber": "050000072",
    "licenseEffectiveDate": "08/16/2025",
    "licenseExpirationDate": "08/15/2026",
    "dataDate": "10/18/2025",
    "capacity": 96,
    "address": "4904 TELEGRAPH RD",
    "city": "VENTURA",
    "zip": "93003",
    "county": "VENTURA",
    "phone": "(805) 642-4101",
    "lat": 34.275339,
    "lng": -119.228283
  },
  {
    "id": "630027312",
    "name": "COMFORTING WAVES HOME HEALTH",
    "npi": null,
    "hcaiId": null,
    "businessName": "XYROMA LLC",
    "contactEmail": "NANACHEREME@GMAIL.COM",
    "categoryName": "HOME HEALTH AGENCY",
    "categoryCode": "HHA",
    "licenseStatus": "ACTIVE",
    "inService": true,
    "licenseNumber": "550009767",
    "licenseEffectiveDate": "10/07/2025",
    "licenseExpirationDate": "04/06/2026",
    "dataDate": "10/18/2025",
    "capacity": 0,
    "address": "5450 RALSTON ST, SUITE 101",
    "city": "VENTURA",
    "zip": "93003",
    "county": "VENTURA",
    "phone": "(805) 336-1120",
    "lat": 34.259666,
    "lng": -119.216174
  },
  {
    "id": "050000014",
    "name": "COMMUNITY MEMORIAL HOSPITAL - VENTURA",
    "npi": "1215903018",
    "hcaiId": "106560473",
    "businessName": "COMMUNITY MEMORIAL HEALTH SYSTEM",
    "contactEmail": "MARCHAMBAULT@CMHSHEALTH.ORG",
    "categoryName": "GENERAL ACUTE CARE HOSPITAL",
    "categoryCode": "GACH",
    "licenseStatus": "ACTIVE",
    "inService": true,
    "licenseNumber": "050000026",
    "licenseEffectiveDate": "03/01/2025",
    "licenseExpirationDate": "02/28/2026",
    "dataDate": "10/18/2025",
    "capacity": 250,
    "address": "147 N BRENT ST",
    "city": "VENTURA",
    "zip": "93003",
    "county": "VENTURA",
    "phone": "(805) 948-2884",
    "lat": 34.274592,
    "lng": -119.2581045
  },
  {
    "id": "630018131",
    "name": "CREED HOSPICE, INC.",
    "npi": null,
    "hcaiId": "406191949",
    "businessName": "CREED HOSPICE, INC.",
    "contactEmail": "CREEDHOSPICE@YAHOO.COM",
    "categoryName": "HOSPICE",
    "categoryCode": "HOSPICE",
    "licenseStatus": "ACTIVE",
    "inService": true,
    "licenseNumber": "550005034",
    "licenseEffectiveDate": "11/29/2023",
    "licenseExpirationDate": "10/25/2025",
    "dataDate": "10/18/2025",
    "capacity": 0,
    "address": "950 COUNTY SQUARE DR, SUITE 203",
    "city": "VENTURA",
    "zip": "93003",
    "county": "VENTURA",
    "phone": "(805) 416-2273",
    "lat": 34.26657885,
    "lng": -119.2142269
  },
  {
    "id": "080001570",
    "name": "DIALYSIS CENTERS OF VENTURA COUNTY",
    "npi": "1841302643",
    "hcaiId": "306564003",
    "businessName": "BIO-MEDICAL APPLICATIONS OF CALIFORNIA INC.",
    "contactEmail": "CLINIC1711@FMC-NA.COM",
    "categoryName": "CHRONIC DIALYSIS CLINIC",
    "categoryCode": "ESRD/CDC",
    "licenseStatus": "ACTIVE",
    "inService": true,
    "licenseNumber": "080000664",
    "licenseEffectiveDate": "03/19/2025",
    "licenseExpirationDate": "02/19/2026",
    "dataDate": "10/18/2025",
    "capacity": 27,
    "address": "4567 TELEPHONE RD, SUITE 101",
    "city": "VENTURA",
    "zip": "93003",
    "county": "VENTURA",
    "phone": "(805) 658-9211",
    "lat": 34.255926,
    "lng": -119.235654
  },
  {
    "id": "630023017",
    "name": "DIGNITY HEALTH WOMEN'S CENTER - VENTURA",
    "npi": null,
    "hcaiId": null,
    "businessName": "PACIFIC CENTRAL COAST HEALTH CENTERS",
    "contactEmail": null,
    "categoryName": "PRIMARY CARE CLINIC",
    "categoryCode": "COMTYC",
    "licenseStatus": "ACTIVE",
    "inService": true,
    "licenseNumber": "050000415",
    "licenseEffectiveDate": "11/21/2024",
    "licenseExpirationDate": "11/20/2025",
    "dataDate": "10/18/2025",
    "capacity": 0,
    "address": "3418 LOMA VISTA RD, SUITE B",
    "city": "VENTURA",
    "zip": "93003",
    "county": "VENTURA",
    "phone": null,
    "lat": 34.276095,
    "lng": -119.2502025
  },
  {
    "id": "630017225",
    "name": "FARMER'S HOME HEALTH",
    "npi": null,
    "hcaiId": "406560828",
    "businessName": "FARMER'S HOME HEALTH",
    "contactEmail": "FARMERSHOMEHEALTH@OUTLOOK.COM",
    "categoryName": "HOME HEALTH AGENCY",
    "categoryCode": "HHA",
    "licenseStatus": "ACTIVE",
    "inService": true,
    "licenseNumber": "550004043",
    "licenseEffectiveDate": "11/29/2024",
    "licenseExpirationDate": "11/28/2025",
    "dataDate": "10/18/2025",
    "capacity": 0,
    "address": "4484 MARKET ST, SUITE #301",
    "city": "VENTURA",
    "zip": "93003",
    "county": "VENTURA",
    "phone": "(805) 620-0772",
    "lat": 34.256907,
    "lng": -119.233026
  },
  {
    "id": "630014358",
    "name": "GUARDIAN ANGEL HOME CARE OF VENTURA LLC",
    "npi": "1992149454",
    "hcaiId": "406564246",
    "businessName": "GUARDIAN ANGEL HOME CARE OF VENTURA LLC",
    "contactEmail": "ADMIN@GAHC94.COM",
    "categoryName": "HOME HEALTH AGENCY",
    "categoryCode": "HHA",
    "licenseStatus": "ACTIVE",
    "inService": true,
    "licenseNumber": "550002584",
    "licenseEffectiveDate": "02/12/2025",
    "licenseExpirationDate": "02/11/2026",
    "dataDate": "10/18/2025",
    "capacity": 0,
    "address": "2590 E MAIN ST, SUITE 101",
    "city": "VENTURA",
    "zip": "93003",
    "county": "VENTURA",
    "phone": "(805) 644-4862",
    "lat": 34.274646,
    "lng": -119.261826
  },
  {
    "id": "630017959",
    "name": "HAND IN HEART HOME HEALTH INC",
    "npi": "1104339878",
    "hcaiId": "406561904",
    "businessName": "HAND IN HEART HOME HEALTH INC",
    "contactEmail": "TLE@HANDINHEARTHH.COM",
    "categoryName": "HOME HEALTH AGENCY",
    "categoryCode": "HHA",
    "licenseStatus": "ACTIVE",
    "inService": true,
    "licenseNumber": "550004621",
    "licenseEffectiveDate": "04/04/2025",
    "licenseExpirationDate": "04/03/2026",
    "dataDate": "10/18/2025",
    "capacity": 0,
    "address": "5450 RALSTON ST, UNIT 202",
    "city": "VENTURA",
    "zip": "93003",
    "county": "VENTURA",
    "phone": "(805) 254-4248",
    "lat": 34.25967899,
    "lng": -119.2161872
  },
  {
    "id": "630014995",
    "name": "LIFE CENTERS OF VENTURA COUNTY",
    "npi": null,
    "hcaiId": "306564258",
    "businessName": "LIFE CENTERS OF VENTURA COUNTY",
    "contactEmail": "INFO@VCLIFECENTERS.COM",
    "categoryName": "PRIMARY CARE CLINIC",
    "categoryCode": "COMTYC",
    "licenseStatus": "ACTIVE",
    "inService": true,
    "licenseNumber": "550002788",
    "licenseEffectiveDate": "08/15/2025",
    "licenseExpirationDate": "08/14/2026",
    "dataDate": "10/18/2025",
    "capacity": 0,
    "address": "4601 TELEPHONE RD, SUITE 107",
    "city": "VENTURA",
    "zip": "93003",
    "county": "VENTURA",
    "phone": "(805) 486-2721",
    "lat": 34.25777001,
    "lng": -119.236372
  },
  {
    "id": "630024396",
    "name": "LIFE CENTERS OF VENTURA COUNTY - MOBILE",
    "npi": null,
    "hcaiId": "306560672",
    "businessName": "LIFE CENTERS OF VENTURA COUNTY",
    "contactEmail": "INFO@VCLIFECENTERS.COM",
    "categoryName": "PRIMARY CARE CLINIC",
    "categoryCode": "FREEC",
    "licenseStatus": "ACTIVE",
    "inService": true,
    "licenseNumber": "550006908",
    "licenseEffectiveDate": "10/13/2025",
    "licenseExpirationDate": "10/12/2026",
    "dataDate": "10/18/2025",
    "capacity": 0,
    "address": "4601 TELEPHONE RD, SUITE 107",
    "city": "VENTURA",
    "zip": "93003",
    "county": "VENTURA",
    "phone": "(805) 486-2721",
    "lat": 34.257798,
    "lng": -119.236554
  },
  {
    "id": "050000091",
    "name": "LIVINGSTON MEMORIAL VISITING NURSE ASSOCIATION",
    "npi": "1053315739",
    "hcaiId": "406560542",
    "businessName": "LIVINGSTON MEMORIAL VISITING NURSE ASSOCIATION",
    "contactEmail": null,
    "categoryName": "HOME HEALTH AGENCY",
    "categoryCode": "HHA",
    "licenseStatus": "ACTIVE",
    "inService": true,
    "licenseNumber": "050000074",
    "licenseEffectiveDate": "06/19/2025",
    "licenseExpirationDate": "06/18/2026",
    "dataDate": "10/18/2025",
    "capacity": 0,
    "address": "1996 EASTMAN AVE, SUITE 101",
    "city": "VENTURA",
    "zip": "93003",
    "county": "VENTURA",
    "phone": "(805) 642-0239",
    "lat": 34.2549,
    "lng": -119.229372
  },
  {
    "id": "070001248",
    "name": "LIVINGSTON MEMORIAL VISITING NURSE ASSOCIATION - HOSPICE",
    "npi": "1881698447",
    "hcaiId": "406564075",
    "businessName": "LIVINGSTON MEMORIAL VISITING NURSE ASSOCIATION",
    "contactEmail": "ADMINISTRATIVE@LMVNA.ORG",
    "categoryName": "HOSPICE",
    "categoryCode": "HOSPICE",
    "licenseStatus": "ACTIVE",
    "inService": true,
    "licenseNumber": "070000576",
    "licenseEffectiveDate": "08/26/2025",
    "licenseExpirationDate": "06/27/2027",
    "dataDate": "10/18/2025",
    "capacity": 0,
    "address": "1996 EASTMAN AVE, SUITE 108",
    "city": "VENTURA",
    "zip": "93003",
    "county": "VENTURA",
    "phone": "(805) 642-0239",
    "lat": 34.25493399,
    "lng": -119.229379
  },
  {
    "id": "050001451",
    "name": "PACIFIC SURGERY CENTER OF VENTURA",
    "npi": "1073693123",
    "hcaiId": "306564127",
    "businessName": "PACIFIC COAST SURGICAL CENTERS 15",
    "contactEmail": null,
    "categoryName": "SURGICAL CLINIC",
    "categoryCode": "ASC",
    "licenseStatus": "INACTIVE - CAPEN DECISION",
    "inService": false,
    "licenseNumber": "050000581",
    "licenseEffectiveDate": "02/24/2008",
    "licenseExpirationDate": "02/23/2009",
    "dataDate": "10/18/2025",
    "capacity": 0,
    "address": "3805 TELEGRAPH RD",
    "city": "VENTURA",
    "zip": "93003",
    "county": "VENTURA",
    "phone": "(805) 644-9001",
    "lat": 34.27407,
    "lng": -119.243592
  },
  {
    "id": "630012483",
    "name": "PEDIATRIC DIAGNOSTIC CENTER",
    "npi": null,
    "hcaiId": null,
    "businessName": null,
    "contactEmail": null,
    "categoryName": "PRIMARY CARE CLINIC",
    "categoryCode": "FQHC",
    "licenseStatus": null,
    "inService": null,
    "licenseNumber": null,
    "licenseEffectiveDate": null,
    "licenseExpirationDate": null,
    "dataDate": "10/18/2025",
    "capacity": 0,
    "address": "300 HILLMONT AVE, SUITE 302",
    "city": "VENTURA",
    "zip": "93003",
    "county": "VENTURA",
    "phone": null,
    "lat": 34.277121,
    "lng": -119.253438
  },
  {
    "id": "050000445",
    "name": "PLANNED PARENTHOOD OF VENTURA",
    "npi": "1184641664",
    "hcaiId": "306564004",
    "businessName": "PLANNED PARENTHOOD CALIFORNIA CENTRAL COAST",
    "contactEmail": "DALILA.CERVANTES@PPCENTRALCOAST.ORG",
    "categoryName": "PRIMARY CARE CLINIC",
    "categoryCode": "COMTYC",
    "licenseStatus": "ACTIVE",
    "inService": true,
    "licenseNumber": "050000209",
    "licenseEffectiveDate": "01/19/2025",
    "licenseExpirationDate": "01/18/2026",
    "dataDate": "10/18/2025",
    "capacity": 0,
    "address": "5400 RALSTON ST",
    "city": "VENTURA",
    "zip": "93003",
    "county": "VENTURA",
    "phone": "(805) 722-1509",
    "lat": 34.259454,
    "lng": -119.217879
  },
  {
    "id": "630002341",
    "name": "ROZE ROOM HOSPICE OF VENTURA",
    "npi": null,
    "hcaiId": "406564147",
    "businessName": "LIBERTY HEALTH SERVICES INC",
    "contactEmail": "INFO@ROZEROOMHOSPICE.ORG",
    "categoryName": "HOSPICE",
    "categoryCode": "HOSPICE",
    "licenseStatus": "ACTIVE",
    "inService": true,
    "licenseNumber": "550000185",
    "licenseEffectiveDate": "06/06/2024",
    "licenseExpirationDate": "06/05/2026",
    "dataDate": "10/18/2025",
    "capacity": 0,
    "address": "5675 RALSTON ST, SUITE C",
    "city": "VENTURA",
    "zip": "93003",
    "county": "VENTURA",
    "phone": "(805) 654-0191",
    "lat": 34.260867,
    "lng": -119.214369
  },
  {
    "id": "050000618",
    "name": "T SURGERY CENTER",
    "npi": "1326191958",
    "hcaiId": "306564022",
    "businessName": "T SURGERY CENTER INC",
    "contactEmail": null,
    "categoryName": "SURGICAL CLINIC",
    "categoryCode": "ASC",
    "licenseStatus": "INACTIVE - CAPEN DECISION",
    "inService": false,
    "licenseNumber": "050000270",
    "licenseEffectiveDate": "05/27/2007",
    "licenseExpirationDate": "05/26/2008",
    "dataDate": "10/18/2025",
    "capacity": 0,
    "address": "3525 LOMA VISTA RD",
    "city": "VENTURA",
    "zip": "93003",
    "county": "VENTURA",
    "phone": "(805) 641-6434",
    "lat": 34.277076,
    "lng": -119.2481325
  },
  {
    "id": "630028098",
    "name": "VENTURA COUNTY CRISIS PREGNANCY CENTER",
    "npi": null,
    "hcaiId": null,
    "businessName": "VENTURA COUNTY CRISIS PREGNANCY CENTER",
    "contactEmail": "MCBLESSEDX3@GMAIL.COM",
    "categoryName": "PRIMARY CARE CLINIC",
    "categoryCode": "FREEC",
    "licenseStatus": "ACTIVE",
    "inService": true,
    "licenseNumber": "550009865",
    "licenseEffectiveDate": "06/19/2025",
    "licenseExpirationDate": "12/18/2025",
    "dataDate": "10/18/2025",
    "capacity": 0,
    "address": "1732 PALMA DR, SUITE 103",
    "city": "VENTURA",
    "zip": "93003",
    "county": "VENTURA",
    "phone": "(805) 644-3307",
    "lat": 34.25703563,
    "lng": -119.227118
  },
  {
    "id": "630013906",
    "name": "VENTURA COUNTY HEALTHCARE FOR THE HOMELESS PROGRAM",
    "npi": null,
    "hcaiId": null,
    "businessName": null,
    "contactEmail": null,
    "categoryName": "PRIMARY CARE CLINIC",
    "categoryCode": "FQHC",
    "licenseStatus": null,
    "inService": null,
    "licenseNumber": null,
    "licenseEffectiveDate": null,
    "licenseExpirationDate": null,
    "dataDate": "10/18/2025",
    "capacity": 0,
    "address": "3147 LOMA VISTA RD",
    "city": "VENTURA",
    "zip": "93003",
    "county": "VENTURA",
    "phone": null,
    "lat": 34.276185,
    "lng": -119.254149
  },
  {
    "id": "050000039",
    "name": "VENTURA COUNTY MEDICAL CENTER",
    "npi": "1629167457",
    "hcaiId": "106560481",
    "businessName": "COUNTY OF VENTURA",
    "contactEmail": "DIANA.ZENNER@VENTURA.ORG",
    "categoryName": "GENERAL ACUTE CARE HOSPITAL",
    "categoryCode": "GACH",
    "licenseStatus": "ACTIVE",
    "inService": true,
    "licenseNumber": "050000032",
    "licenseEffectiveDate": "05/30/2025",
    "licenseExpirationDate": "02/28/2026",
    "dataDate": "10/18/2025",
    "capacity": 180,
    "address": "300 HILLMONT AVE",
    "city": "VENTURA",
    "zip": "93003",
    "county": "VENTURA",
    "phone": "(805) 652-6058",
    "lat": 34.277121,
    "lng": -119.253438
  },
  {
    "id": "050000192",
    "name": "VENTURA COUNTY MEDICAL CENTER INPATIENT D/P APH",
    "npi": null,
    "hcaiId": null,
    "businessName": "COUNTY OF VENTURA",
    "contactEmail": null,
    "categoryName": "ACUTE PSYCHIATRIC HOSPITAL",
    "categoryCode": "APH",
    "licenseStatus": "ACTIVE",
    "inService": true,
    "licenseNumber": "050000032",
    "licenseEffectiveDate": "05/30/2025",
    "licenseExpirationDate": "02/28/2026",
    "dataDate": "10/18/2025",
    "capacity": 43,
    "address": "200 HILLMONT AVE",
    "city": "VENTURA",
    "zip": "93003",
    "county": "VENTURA",
    "phone": "(805) 652-6100",
    "lat": 34.276518,
    "lng": -119.253348
  },
  {
    "id": "630011065",
    "name": "VENTURA DIALYSIS",
    "npi": "1245569821",
    "hcaiId": "306564157",
    "businessName": "TOTAL RENAL CARE, INC.",
    "contactEmail": "CAL_C@DAVITA.COM",
    "categoryName": "CHRONIC DIALYSIS CLINIC",
    "categoryCode": "ESRD/CDC",
    "licenseStatus": "ACTIVE",
    "inService": true,
    "licenseNumber": "550000434",
    "licenseEffectiveDate": "04/01/2025",
    "licenseExpirationDate": "03/31/2026",
    "dataDate": "10/18/2025",
    "capacity": 20,
    "address": "2705 LOMA VISTA RD, SUITE 101",
    "city": "VENTURA",
    "zip": "93003",
    "county": "VENTURA",
    "phone": "(805) 643-7549",
    "lat": 34.275258,
    "lng": -119.2598865
  },
  {
    "id": "050001455",
    "name": "VENTURA ENDOSCOPY CENTER PARTNERS LLC",
    "npi": "1710081443",
    "hcaiId": "306564133",
    "businessName": "VENTURA ENDOSCOPY CENTER LLC",
    "contactEmail": null,
    "categoryName": "SURGICAL CLINIC",
    "categoryCode": "ASC",
    "licenseStatus": "INACTIVE - CAPEN DECISION",
    "inService": false,
    "licenseNumber": "050000592",
    "licenseEffectiveDate": "11/30/2007",
    "licenseExpirationDate": "11/29/2008",
    "dataDate": "10/18/2025",
    "capacity": 0,
    "address": "5810 RALSTON ST, SUITE 101",
    "city": "VENTURA",
    "zip": "93003",
    "county": "VENTURA",
    "phone": "(805) 650-5500",
    "lat": 34.260606,
    "lng": -119.212353
  },
  {
    "id": "050000072",
    "name": "VENTURA POST ACUTE",
    "npi": "1619339306",
    "hcaiId": "206560471",
    "businessName": "VENTURA POST ACUTE, LLC",
    "contactEmail": "JULIEP@USSKILLEDSERVE.COM",
    "categoryName": "SKILLED NURSING FACILITY",
    "categoryCode": "SNF",
    "licenseStatus": "ACTIVE",
    "inService": true,
    "licenseNumber": "050000024",
    "licenseEffectiveDate": "08/22/2025",
    "licenseExpirationDate": "08/21/2026",
    "dataDate": "10/18/2025",
    "capacity": 71,
    "address": "4020 LOMA VISTA RD",
    "city": "VENTURA",
    "zip": "93003",
    "county": "VENTURA",
    "phone": "(562) 930-0777",
    "lat": 34.276626,
    "lng": -119.2415085
  },
  {
    "id": "050001450",
    "name": "VENTURA SURGERY CENTER INC",
    "npi": "1912018706",
    "hcaiId": "306564128",
    "businessName": "VENTURA SURGERY CENTER INC",
    "contactEmail": null,
    "categoryName": "SURGICAL CLINIC",
    "categoryCode": "ASC",
    "licenseStatus": "INACTIVE - CAPEN DECISION",
    "inService": false,
    "licenseNumber": "050000587",
    "licenseEffectiveDate": "06/14/2007",
    "licenseExpirationDate": "06/13/2008",
    "dataDate": "10/18/2025",
    "capacity": 0,
    "address": "1752 S VICTORIA AVE, SUITE A",
    "city": "VENTURA",
    "zip": "93003",
    "county": "VENTURA",
    "phone": "(805) 654-8115",
    "lat": 34.259544,
    "lng": -119.208501
  },
  {
    "id": "050000595",
    "name": "VICTORIA CARE CENTER",
    "npi": "1427057645",
    "hcaiId": "206564024",
    "businessName": "VICTORIA VENTURA HEALTHCARE LLC",
    "contactEmail": "RALDERMAN@ENSIGNSERVICES.NET",
    "categoryName": "SKILLED NURSING FACILITY",
    "categoryCode": "SNF",
    "licenseStatus": "ACTIVE",
    "inService": true,
    "licenseNumber": "050000271",
    "licenseEffectiveDate": "01/02/2025",
    "licenseExpirationDate": "01/01/2026",
    "dataDate": "10/18/2025",
    "capacity": 188,
    "address": "5445 EVERGLADES ST",
    "city": "VENTURA",
    "zip": "93003",
    "county": "VENTURA",
    "phone": "(805) 642-1736",
    "lat": 34.258977,
    "lng": -119.216556
  }
]