[
  {
    "id": "630017066",
    "name": "A PRIME HOME HEALTH SERVICES, INC.",
    "npi": "1669922183",
    "hcaiId": "406564299",
    "businessName": "A PRIME HOME HEALTH SERVICES, INC.",
    "contactEmail": "CVILLALUZ@APRIMEHOMEHEALTH.NET",
    "categoryName": "HOME HEALTH AGENCY",
    "categoryCode": "HHA",
    "licenseStatus": "ACTIVE",
    "inService": true,
    "licenseNumber": "550004013",
    "licenseEffectiveDate": "11/21/2024",
    "licenseExpirationDate": "11/20/2025",
    "dataDate": "10/18/2025",
    "capacity": 0,
    "address": "266 MOBIL AVENUE, SUITE 215",
    "city": "CAMARILLO",
    "zip": "93010",
    "county": "VENTURA",
    "phone": "(805) 436-0202",
    "lat": 34.219152,
    "lng": -119.0425725
  },
  {
    "id": "630018555",
    "name": "AASTA HOSPICE",
    "npi": "1659840494",
    "hcaiId": "406561922",
    "businessName": "CONEJO HOSPICE CARE, INC.",
    "contactEmail": "AASTACAMARILLO@AASTAHEALTH.COM",
    "categoryName": "HOSPICE",
    "categoryCode": "HOSPICE",
    "licenseStatus": "ACTIVE",
    "inService": true,
    "licenseNumber": "550004944",
    "licenseEffectiveDate": "09/25/2023",
    "licenseExpirationDate": "09/24/2025",
    "dataDate": "10/18/2025",
    "capacity": 0,
    "address": "80 WOOD RD, SUITE 304A",
    "city": "CAMARILLO",
    "zip": "93010",
    "county": "VENTURA",
    "phone": "(805) 825-5250",
    "lat": 34.21755,
    "lng": -119.095434
  },
  {
    "id": "630015167",
    "name": "ANGEL OF GOD HOSPICE AND PALLIATIVE CARE, INC.",
    "npi": "1760895882",
    "hcaiId": "406564259",
    "businessName": "ANGEL OF GOD HOSPICE AND PALLIATIVE CARE, INC.",
    "contactEmail": "RRITZ@ANGELOFGODHOSPICE.ORG",
    "categoryName": "HOSPICE",
    "categoryCode": "HOSPICE",
    "licenseStatus": "ACTIVE",
    "inService": true,
    "licenseNumber": "550002833",
    "licenseEffectiveDate": "10/08/2024",
    "licenseExpirationDate": "10/07/2026",
    "dataDate": "10/18/2025",
    "capacity": 0,
    "address": "266 MOBIL AVENUE, SUITE 203",
    "city": "CAMARILLO",
    "zip": "93010",
    "county": "VENTURA",
    "phone": "(805) 760-7800",
    "lat": 34.21917,
    "lng": -119.0425545
  },
  {
    "id": "630021574",
    "name": "ANGELS WINGS HOMEHEALTH CARE, INC.",
    "npi": "1548869118",
    "hcaiId": "406563414",
    "businessName": "ANGELS WINGS HOMEHEALTH CARE, INC.",
    "contactEmail": "ANGELSWINGSHHC@GMAIL.COM",
    "categoryName": "HOME HEALTH AGENCY",
    "categoryCode": "HHA",
    "licenseStatus": "ACTIVE",
    "inService": true,
    "licenseNumber": "550006919",
    "licenseEffectiveDate": "10/04/2021",
    "licenseExpirationDate": "10/03/2022",
    "dataDate": "10/18/2025",
    "capacity": 0,
    "address": "400 ROSEWOOD AVE, SUITE 201-A",
    "city": "CAMARILLO",
    "zip": "93010",
    "county": "VENTURA",
    "phone": "(818) 470-6457",
    "lat": 34.220034,
    "lng": -119.0611035
  },
  {
    "id": "630024244",
    "name": "ART OF CARE HOME HEALTH",
    "npi": null,
    "hcaiId": "406566487",
    "businessName": "ART OF CARE HOME HEALTH",
    "contactEmail": "ARTOFCAREHOMEHEALTH@GMAIL.COM",
    "categoryName": "HOME HEALTH AGENCY",
    "categoryCode": "HHA",
    "licenseStatus": "ACTIVE",
    "inService": true,
    "licenseNumber": "550008515",
    "licenseEffectiveDate": "04/26/2025",
    "licenseExpirationDate": "04/25/2026",
    "dataDate": "10/18/2025",
    "capacity": 0,
    "address": "601 E DAILY DR, SUITE 204",
    "city": "CAMARILLO",
    "zip": "93010",
    "county": "VENTURA",
    "phone": "(805) 509-1878",
    "lat": 34.219512,
    "lng": -119.062314
  },
  {
    "id": "630009241",
    "name": "CAMARILLO DIALYSIS",
    "npi": "1013246719",
    "hcaiId": "306564145",
    "businessName": "TOTAL RENAL CARE, INC.",
    "contactEmail": "CAL_C@DAVITA.COM",
    "categoryName": "CHRONIC DIALYSIS CLINIC",
    "categoryCode": "ESRD/CDC",
    "licenseStatus": "ACTIVE",
    "inService": true,
    "licenseNumber": "550000154",
    "licenseEffectiveDate": "04/01/2025",
    "licenseExpirationDate": "03/31/2026",
    "dataDate": "10/18/2025",
    "capacity": 18,
    "address": "2438 N PONDEROSA DR, SUITE C101",
    "city": "CAMARILLO",
    "zip": "93010",
    "county": "VENTURA",
    "phone": "(805) 764-0171",
    "lat": 34.242363,
    "lng": -119.021463
  },
  {
    "id": "080001571",
    "name": "CAMARILLO DIALYSIS CENTER",
    "npi": "1033221932",
    "hcaiId": "306564010",
    "businessName": "BIO MEDICAL APPLICATIONS OF CAMARILLO INC",
    "contactEmail": "CLINIC1423@FMC-NA.COM",
    "categoryName": "CHRONIC DIALYSIS CLINIC",
    "categoryCode": "ESRD/CDC",
    "licenseStatus": "ACTIVE",
    "inService": true,
    "licenseNumber": "080000665",
    "licenseEffectiveDate": "02/10/2025",
    "licenseExpirationDate": "02/09/2026",
    "dataDate": "10/18/2025",
    "capacity": 15,
    "address": "3801 LAS POSAS RD, SUITE 103",
    "city": "CAMARILLO",
    "zip": "93010",
    "county": "VENTURA",
    "phone": "(805) 388-2449",
    "lat": 34.241985,
    "lng": -119.019501
  },
  {
    "id": "050000006",
    "name": "CAMARILLO HEALTHCARE CENTER",
    "npi": "1215924725",
    "hcaiId": "206560823",
    "businessName": "CAMARILLO COMMUNITY CARE INC",
    "contactEmail": "BWILLITS@ENSIGNSERVICES.NET",
    "categoryName": "SKILLED NURSING FACILITY",
    "categoryCode": "SNF",
    "licenseStatus": "ACTIVE",
    "inService": true,
    "licenseNumber": "050000087",
    "licenseEffectiveDate": "11/15/2024",
    "licenseExpirationDate": "11/14/2025",
    "dataDate": "10/18/2025",
    "capacity": 114,
    "address": "205 GRANADA ST",
    "city": "CAMARILLO",
    "zip": "93010",
    "county": "VENTURA",
    "phone": "(805) 482-9805",
    "lat": 34.214724,
    "lng": -119.054088
  },
  {
    "id": "630012068",
    "name": "CAMARILLO SKILLED HOME HEALTH LLC",
    "npi": "1689825473",
    "hcaiId": "406564203",
    "businessName": "CAMARILLO SKILLED HOME HEALTH LLC",
    "contactEmail": "CSHOMEHEALTH@GMAIL.COM",
    "categoryName": "HOME HEALTH AGENCY",
    "categoryCode": "HHA",
    "licenseStatus": "ACTIVE",
    "inService": true,
    "licenseNumber": "550001151",
    "licenseEffectiveDate": "11/28/2025",
    "licenseExpirationDate": "11/27/2026",
    "dataDate": "10/18/2025",
    "capacity": 0,
    "address": "450 ROSEWOOD AVE, SUITE 213",
    "city": "CAMARILLO",
    "zip": "93010",
    "county": "VENTURA",
    "phone": "(805) 987-2888",
    "lat": 34.220592,
    "lng": -119.061198
  },
  {
    "id": "630027294",
    "name": "CAMARILLO SPECIALTY CENTER",
    "npi": "1063496651",
    "hcaiId": null,
    "businessName": "PACIFIC CENTRAL COAST HEALTH CENTERS",
    "contactEmail": null,
    "categoryName": "PRIMARY CARE CLINIC",
    "categoryCode": "COMTYC",
    "licenseStatus": "ACTIVE",
    "inService": true,
    "licenseNumber": "050000415",
    "licenseEffectiveDate": "11/21/2024",
    "licenseExpirationDate": "11/20/2025",
    "dataDate": "10/18/2025",
    "capacity": 0,
    "address": "2486 N PONDEROSA DR, SUITE D-205",
    "city": "CAMARILLO",
    "zip": "93010",
    "county": "VENTURA",
    "phone": null,
    "lat": 34.24286799,
    "lng": -119.021616
  },
  {
    "id": "050000170",
    "name": "CAMARILLO SURGICAL CENTER ASSOCIATES, INC.",
    "npi": "1801230719",
    "hcaiId": null,
    "businessName": null,
    "contactEmail": null,
    "categoryName": "SURGICAL CLINIC",
    "categoryCode": "ASC",
    "licenseStatus": null,
    "inService": null,
    "licenseNumber": null,
    "licenseEffectiveDate": null,
    "licenseExpirationDate": null,
    "dataDate": "10/18/2025",
    "capacity": 0,
    "address": "2460 N PONDEROSA DR, SUITE A116",
    "city": "CAMARILLO",
    "zip": "93010",
    "county": "VENTURA",
    "phone": "(805) 484-4226",
    "lat": 34.242876,
    "lng": -119.0223315
  },
  {
    "id": "630018814",
    "name": "CLINICAS DEL CAMINO REAL, INC., PASEO CAMARILLO",
    "npi": "1436561975",
    "hcaiId": null,
    "businessName": "CLINICAS DEL CAMINO REAL, INC.",
    "contactEmail": "CGALLARD@CLINICAS.ORG",
    "categoryName": "PRIMARY CARE CLINIC",
    "categoryCode": "COMTYC",
    "licenseStatus": "ACTIVE",
    "inService": true,
    "licenseNumber": "550001982",
    "licenseEffectiveDate": "07/03/2025",
    "licenseExpirationDate": "07/02/2026",
    "dataDate": "10/18/2025",
    "capacity": 0,
    "address": "730 PASEO CAMARILLO",
    "city": "CAMARILLO",
    "zip": "93010",
    "county": "VENTURA",
    "phone": "(805) 659-1740",
    "lat": 34.22043,
    "lng": -119.06028
  },
  {
    "id": "630019163",
    "name": "COMFORT CHOICE HOSPICE CARE",
    "npi": null,
    "hcaiId": "406192807",
    "businessName": "BROOKDALE HOSPICE, INC.",
    "contactEmail": "DAVID@THEDOCTORSCHOICEAGENCY.COM",
    "categoryName": "HOSPICE",
    "categoryCode": "HOSPICE",
    "licenseStatus": "ACTIVE",
    "inService": true,
    "licenseNumber": "550005668",
    "licenseEffectiveDate": "08/04/2024",
    "licenseExpirationDate": "08/03/2026",
    "dataDate": "10/18/2025",
    "capacity": 0,
    "address": "400 W VENTURA BLVD, SUITE 110",
    "city": "CAMARILLO",
    "zip": "93010",
    "county": "VENTURA",
    "phone": "(818) 351-5771",
    "lat": 34.216227,
    "lng": -119.0781405
  },
  {
    "id": "630012689",
    "name": "DARANCARE HEALTH CORPORATION",
    "npi": "1013248335",
    "hcaiId": "406564152",
    "businessName": "DARANCARE HEALTH CORPORATION",
    "contactEmail": "FRED@DARANCARE.COM",
    "categoryName": "HOME HEALTH AGENCY",
    "categoryCode": "HHA",
    "licenseStatus": "ACTIVE",
    "inService": true,
    "licenseNumber": "550001445",
    "licenseEffectiveDate": "12/20/2024",
    "licenseExpirationDate": "12/19/2025",
    "dataDate": "10/18/2025",
    "capacity": 0,
    "address": "2486 N PONDEROSA DR, SUITE D-217",
    "city": "CAMARILLO",
    "zip": "93010",
    "county": "VENTURA",
    "phone": "(805) 553-0870",
    "lat": 34.24286799,
    "lng": -119.021616
  },
  {
    "id": "630012495",
    "name": "LAS POSAS FAMILY MEDICAL GROUP",
    "npi": null,
    "hcaiId": null,
    "businessName": null,
    "contactEmail": null,
    "categoryName": "PRIMARY CARE CLINIC",
    "categoryCode": "FQHC",
    "licenseStatus": null,
    "inService": null,
    "licenseNumber": null,
    "licenseEffectiveDate": null,
    "licenseExpirationDate": null,
    "dataDate": "10/18/2025",
    "capacity": 0,
    "address": "3801 LAS POSAS RD, SUITE 214",
    "city": "CAMARILLO",
    "zip": "93010",
    "county": "VENTURA",
    "phone": null,
    "lat": 34.241985,
    "lng": -119.019501
  },
  {
    "id": "050001257",
    "name": "LAS POSAS HOME HEALTH SERVICES",
    "npi": "1528067931",
    "hcaiId": "406564149",
    "businessName": "LAS POSAS HOME HEALTH SERVICES INC",
    "contactEmail": "LASPOSASHH@GMAIL.COM",
    "categoryName": "HOME HEALTH AGENCY",
    "categoryCode": "HHA",
    "licenseStatus": "ACTIVE",
    "inService": true,
    "licenseNumber": "050000498",
    "licenseEffectiveDate": "06/17/2025",
    "licenseExpirationDate": "06/16/2026",
    "dataDate": "10/18/2025",
    "capacity": 0,
    "address": "1601 CARMEN DR, SUITE 202",
    "city": "CAMARILLO",
    "zip": "93010",
    "county": "VENTURA",
    "phone": "(805) 484-7284",
    "lat": 34.232715,
    "lng": -119.051847
  },
  {
    "id": "630019004",
    "name": "LIVINGSTON MEMORIAL VISITING NURSE ASSOCIATION",
    "npi": "1881698447",
    "hcaiId": null,
    "businessName": "LIVINGSTON MEMORIAL VISITING NURSE ASSOCIATION",
    "contactEmail": "JCUNNINGHAM@LMVNA.ORG",
    "categoryName": "HOSPICE",
    "categoryCode": "HOSPICE",
    "licenseStatus": "ACTIVE",
    "inService": true,
    "licenseNumber": "070000576",
    "licenseEffectiveDate": "08/26/2025",
    "licenseExpirationDate": "06/27/2027",
    "dataDate": "10/18/2025",
    "capacity": 0,
    "address": "400 ROSEWOOD AVE, SUITE 102",
    "city": "CAMARILLO",
    "zip": "93010",
    "county": "VENTURA",
    "phone": "(805) 642-1608",
    "lat": 34.220034,
    "lng": -119.0611035
  },
  {
    "id": "630026504",
    "name": "NOVA AMBULATORY SURGIERY CENTER, LP",
    "npi": null,
    "hcaiId": null,
    "businessName": null,
    "contactEmail": null,
    "categoryName": "SURGICAL CLINIC",
    "categoryCode": "ASC",
    "licenseStatus": null,
    "inService": null,
    "licenseNumber": null,
    "licenseEffectiveDate": null,
    "licenseExpirationDate": null,
    "dataDate": "10/18/2025",
    "capacity": 0,
    "address": "4542 LAS POSAS RD, SUITE C",
    "city": "CAMARILLO",
    "zip": "93010",
    "county": "VENTURA",
    "phone": null,
    "lat": 34.243209,
    "lng": -119.0105505
  },
  {
    "id": "630004301",
    "name": "SPANISH HILLS SURGERY CENTER LLC",
    "npi": "1528003332",
    "hcaiId": null,
    "businessName": "SPANISH HILLS SURGERY CENTER LLC",
    "contactEmail": "LKIKER@SPANISHHILLSSURGERY.COM",
    "categoryName": "SURGICAL CLINIC",
    "categoryCode": "ASC",
    "licenseStatus": "INACTIVE - CAPEN DECISION",
    "inService": false,
    "licenseNumber": "550000062",
    "licenseEffectiveDate": "11/26/2007",
    "licenseExpirationDate": "11/25/2008",
    "dataDate": "10/18/2025",
    "capacity": 0,
    "address": "4542 LAS POSAS RD, SUITE C",
    "city": "CAMARILLO",
    "zip": "93010",
    "county": "VENTURA",
    "phone": "(805) 484-8552",
    "lat": 34.243209,
    "lng": -119.0105505
  },
  {
    "id": "050000176",
    "name": "SPENCER EYE SURGERY AND LASER CENTER",
    "npi": "1467506907",
    "hcaiId": null,
    "businessName": null,
    "contactEmail": null,
    "categoryName": "SURGICAL CLINIC",
    "categoryCode": "ASC",
    "licenseStatus": null,
    "inService": null,
    "licenseNumber": null,
    "licenseEffectiveDate": null,
    "licenseExpirationDate": null,
    "dataDate": "10/18/2025",
    "capacity": 0,
    "address": "2486 N PONDEROSA DR",
    "city": "CAMARILLO",
    "zip": "93010",
    "county": "VENTURA",
    "phone": "(805) 987-2943",
    "lat": 34.242651,
    "lng": -119.0214855
  },
  {
    "id": "050000026",
    "name": "ST. JOHN'S HOSPITAL CAMARILLO",
    "npi": "1073665360",
    "hcaiId": "106560508",
    "businessName": "DIGNITY HEALTH",
    "contactEmail": "DARREN.LEE@DIGNITYHEALTH.ORG",
    "categoryName": "GENERAL ACUTE CARE HOSPITAL",
    "categoryCode": "GACH",
    "licenseStatus": "ACTIVE",
    "inService": true,
    "licenseNumber": "050000064",
    "licenseEffectiveDate": "11/28/2024",
    "licenseExpirationDate": "11/27/2025",
    "dataDate": "10/18/2025",
    "capacity": 58,
    "address": "2309 ANTONIO AVE",
    "city": "CAMARILLO",
    "zip": "93010",
    "county": "VENTURA",
    "phone": "(805) 988-2701",
    "lat": 34.243515,
    "lng": -119.0198745
  },
  {
    "id": "050000248",
    "name": "ST. JOHN'S HOSPITAL CAMARILLO D/P SNF",
    "npi": "1073665360",
    "hcaiId": null,
    "businessName": "DIGNITY HEALTH",
    "contactEmail": "JENNIFER.CALIXTO@DIGNITYHEALTH.ORG",
    "categoryName": "SKILLED NURSING FACILITY",
    "categoryCode": "SNF",
    "licenseStatus": "ACTIVE",
    "inService": true,
    "licenseNumber": "050000064",
    "licenseEffectiveDate": "11/28/2024",
    "licenseExpirationDate": "11/27/2025",
    "dataDate": "10/18/2025",
    "capacity": 74,
    "address": "2309 ANTONIO AVE",
    "city": "CAMARILLO",
    "zip": "93010",
    "county": "VENTURA",
    "phone": "(805) 389-5183",
    "lat": 34.243515,
    "lng": -119.0198745
  },
  {
    "id": "630024932",
    "name": "UNLIMITED CARE HOME HEALTH, INC.",
    "npi": null,
    "hcaiId": "406196918",
    "businessName": "UNLIMITED CARE HOME HEALTH, INC.",
    "contactEmail": "UNLIMITEDCAREHH@GMAIL.COM",
    "categoryName": "HOME HEALTH AGENCY",
    "categoryCode": "HHA",
    "licenseStatus": "ACTIVE",
    "inService": true,
    "licenseNumber": "550008643",
    "licenseEffectiveDate": "07/10/2025",
    "licenseExpirationDate": "05/29/2026",
    "dataDate": "10/18/2025",
    "capacity": 0,
    "address": "400 MOBIL AVE, UNIT D-7",
    "city": "CAMARILLO",
    "zip": "93010",
    "county": "VENTURA",
    "phone": "(818) 338-5444",
    "lat": 34.22115145,
    "lng": -119.0421915
  },
  {
    "id": "630011630",
    "name": "VITAS HEALTHCARE CORPORATION OF CALIFORNIA- BRANCH",
    "npi": null,
    "hcaiId": "406564177",
    "businessName": "VITAS HEALTHCARE CORPORATION OF CALIFORNIA",
    "contactEmail": "SUSIE.FISHER@VITAS.COM",
    "categoryName": "HOSPICE",
    "categoryCode": "HOSPICE",
    "licenseStatus": "ACTIVE",
    "inService": true,
    "licenseNumber": "980000729",
    "licenseEffectiveDate": "05/09/2025",
    "licenseExpirationDate": "05/08/2027",
    "dataDate": "10/18/2025",
    "capacity": 0,
    "address": "400 W VENTURA BLVD, SUITE 145",
    "city": "CAMARILLO",
    "zip": "93010",
    "county": "VENTURA",
    "phone": "(800) 755-6645",
    "lat": 34.216668,
    "lng": -119.078109
  },
  {
    "id": "630019229",
    "name": "VIVA HOSPICE CARE",
    "npi": null,
    "hcaiId": "406192810",
    "businessName": "VIVA HOSPICE CARE",
    "contactEmail": "VIVIANOHOSPICECARE@YAHOO.COM",
    "categoryName": "HOSPICE",
    "categoryCode": "HOSPICE",
    "licenseStatus": "ACTIVE",
    "inService": true,
    "licenseNumber": "550005647",
    "licenseEffectiveDate": "09/16/2025",
    "licenseExpirationDate": "08/14/2026",
    "dataDate": "10/18/2025",
    "capacity": 0,
    "address": "601 E DAILEY DR, SUITE 200",
    "city": "CAMARILLO",
    "zip": "93010",
    "county": "VENTURA",
    "phone": "(818) 588-3334",
    "lat": 34.2193327,
    "lng": -119.0628585
  },
  {
    "id": "630021573",
    "name": "ZION PLUS HOSPICE AND PALLIATIVE CARE INC",
    "npi": null,
    "hcaiId": "406564892",
    "businessName": "ZION PLUS HOSPICE AND PALLIATIVE CARE INC",
    "contactEmail": "ZIONPLUSHOSPICE@GMAIL.COM",
    "categoryName": "HOSPICE",
    "categoryCode": "HOSPICE",
    "licenseStatus": "ACTIVE",
    "inService": true,
    "licenseNumber": "550007042",
    "licenseEffectiveDate": "10/19/2023",
    "licenseExpirationDate": "10/18/2025",
    "dataDate": "10/18/2025",
    "capacity": 0,
    "address": "400 ROSEWOOD AVE, SUITE 202-C",
    "city": "CAMARILLO",
    "zip": "93010",
    "county": "VENTURA",
    "phone": "(818) 470-6457",
    "lat": 34.220034,
    "lng": -119.0611035
  }
]