[
  {
    "id": "630014565",
    "name": "ALL HEART HOME HEALTH CARE OF CAMARILLO",
    "npi": "1235473604",
    "hcaiId": "406564245",
    "businessName": "ALL HEART HOME HEALTH CARE OF CAMARILLO, LLC",
    "contactEmail": "STAFF@ALLHEARTHHC.COM",
    "categoryName": "HOME HEALTH AGENCY",
    "categoryCode": "HHA",
    "licenseStatus": "ACTIVE",
    "inService": true,
    "licenseNumber": "550002539",
    "licenseEffectiveDate": "12/30/2024",
    "licenseExpirationDate": "12/29/2025",
    "dataDate": "10/18/2025",
    "capacity": 0,
    "address": "4000 CALLE TECATE, SUITE 109",
    "city": "CAMARILLO",
    "zip": "93012",
    "county": "VENTURA",
    "phone": "(805) 482-8689",
    "lat": 34.221087,
    "lng": -119.01681
  },
  {
    "id": "050001383",
    "name": "ALTA HEALTHCARE CENTER OF CAMARILLO",
    "npi": "1952716375",
    "hcaiId": "206564113",
    "businessName": "ACSR, LLC",
    "contactEmail": "SCOTTK@ASPENHEALTH.COM",
    "categoryName": "SKILLED NURSING FACILITY",
    "categoryCode": "SNF",
    "licenseStatus": "ACTIVE",
    "inService": true,
    "licenseNumber": "050000554",
    "licenseEffectiveDate": "09/01/2025",
    "licenseExpirationDate": "08/31/2026",
    "dataDate": "10/18/2025",
    "capacity": 45,
    "address": "6000 SANTA ROSA RD",
    "city": "CAMARILLO",
    "zip": "93012",
    "county": "VENTURA",
    "phone": "(805) 388-8086",
    "lat": 34.2264268,
    "lng": -118.988419
  },
  {
    "id": "630017742",
    "name": "CAMARILLO ENDOSCOPY CENTER",
    "npi": "1013463991",
    "hcaiId": null,
    "businessName": null,
    "contactEmail": null,
    "categoryName": "SURGICAL CLINIC",
    "categoryCode": "ASC",
    "licenseStatus": null,
    "inService": null,
    "licenseNumber": null,
    "licenseEffectiveDate": null,
    "licenseExpirationDate": null,
    "dataDate": "10/18/2025",
    "capacity": 0,
    "address": "4005 MISSION OAKS BLVD., SUITE B",
    "city": "CAMARILLO",
    "zip": "93012",
    "county": "VENTURA",
    "phone": null,
    "lat": 34.217217,
    "lng": -119.0159955
  },
  {
    "id": "050001031",
    "name": "CASA PACIFICA HEALTH CLINIC",
    "npi": null,
    "hcaiId": "306564078",
    "businessName": "CASA PACIFICA CENTERS FOR CHILDREN AND FAMILIES",
    "contactEmail": "INFO@CASAPACIFICA.ORG",
    "categoryName": "PRIMARY CARE CLINIC",
    "categoryCode": "COMTYC",
    "licenseStatus": "ACTIVE",
    "inService": true,
    "licenseNumber": "050000417",
    "licenseEffectiveDate": "01/03/2025",
    "licenseExpirationDate": "01/02/2026",
    "dataDate": "10/18/2025",
    "capacity": 0,
    "address": "1722 S LEWIS RD",
    "city": "CAMARILLO",
    "zip": "93012",
    "county": "VENTURA",
    "phone": "(806) 366-4142",
    "lat": 34.18690668,
    "lng": -119.0366143
  },
  {
    "id": "630014304",
    "name": "COMMUNITY CARE AND HOSPICE LLC",
    "npi": "1487097374",
    "hcaiId": "406564241",
    "businessName": "COMMUNITY CARE AND HOSPICE LLC",
    "contactEmail": "ADMIN@CCANDH.ORG",
    "categoryName": "HOSPICE",
    "categoryCode": "HOSPICE",
    "licenseStatus": "ACTIVE",
    "inService": true,
    "licenseNumber": "550002403",
    "licenseEffectiveDate": "09/19/2025",
    "licenseExpirationDate": "09/18/2027",
    "dataDate": "10/18/2025",
    "capacity": 0,
    "address": "4000 CALLE TECATE, SUITE 114",
    "city": "CAMARILLO",
    "zip": "93012",
    "county": "VENTURA",
    "phone": "(805) 667-8558",
    "lat": 34.221087,
    "lng": -119.01681
  },
  {
    "id": "630014130",
    "name": "CORINTHIAN HOSPICE",
    "npi": null,
    "hcaiId": "406561535",
    "businessName": null,
    "contactEmail": null,
    "categoryName": "HOSPICE",
    "categoryCode": "HOSPICE",
    "licenseStatus": null,
    "inService": null,
    "licenseNumber": null,
    "licenseEffectiveDate": null,
    "licenseExpirationDate": null,
    "dataDate": "10/18/2025",
    "capacity": 0,
    "address": "816 CAMARILLO SPRINGS RD, SUITE C",
    "city": "CAMARILLO",
    "zip": "93012",
    "county": "VENTURA",
    "phone": "(866) 868-9888",
    "lat": 34.20459,
    "lng": -118.983573
  },
  {
    "id": "630028230",
    "name": "EMA CMHC",
    "npi": null,
    "hcaiId": null,
    "businessName": null,
    "contactEmail": "EMACMHC@GMAIL.COM",
    "categoryName": "PSYCHOLOGY CLINIC",
    "categoryCode": "CMHC",
    "licenseStatus": null,
    "inService": null,
    "licenseNumber": null,
    "licenseEffectiveDate": null,
    "licenseExpirationDate": null,
    "dataDate": "10/18/2025",
    "capacity": 0,
    "address": "803 CAMARILLO SPRINGS RD, SUITE F",
    "city": "CAMARILLO",
    "zip": "93012",
    "county": "VENTURA",
    "phone": "(805) 322-8685",
    "lat": 34.20386402,
    "lng": -118.9857562
  },
  {
    "id": "050000937",
    "name": "GEORGE ERB PHYSICAL THERAPY",
    "npi": null,
    "hcaiId": null,
    "businessName": null,
    "contactEmail": null,
    "categoryName": "REHABILITATION CLINIC",
    "categoryCode": "OPT/SP",
    "licenseStatus": null,
    "inService": null,
    "licenseNumber": null,
    "licenseEffectiveDate": null,
    "licenseExpirationDate": null,
    "dataDate": "10/18/2025",
    "capacity": 0,
    "address": "231 CAMARILLO RANCH RD",
    "city": "CAMARILLO",
    "zip": "93012",
    "county": "VENTURA",
    "phone": "(805) 484-2026",
    "lat": 34.217478,
    "lng": -119.0192985
  },
  {
    "id": "630026410",
    "name": "NATIONAL AMBULATORY SURGERY CENTER",
    "npi": null,
    "hcaiId": null,
    "businessName": null,
    "contactEmail": "BARB@BAASC.COM",
    "categoryName": "SURGICAL CLINIC",
    "categoryCode": "ASC",
    "licenseStatus": null,
    "inService": null,
    "licenseNumber": null,
    "licenseEffectiveDate": null,
    "licenseExpirationDate": null,
    "dataDate": "10/18/2025",
    "capacity": 0,
    "address": "4005 MISSION OAKS BLVD, UNIT B",
    "city": "CAMARILLO",
    "zip": "93012",
    "county": "VENTURA",
    "phone": "(408) 761-5847",
    "lat": 34.217334,
    "lng": -119.015973
  }
]