[
  {
    "id": "630015463",
    "name": "ALSANA - SANTA BARBARA",
    "npi": null,
    "hcaiId": "206420243",
    "businessName": "ALSANA WEST LLC",
    "contactEmail": "LINDA.GOROSTIETA@ALSANA.COM",
    "categoryName": "CONGREGATE LIVING HEALTH FACILITY",
    "categoryCode": "CLHF",
    "licenseStatus": "ACTIVE",
    "inService": true,
    "licenseNumber": "550003424",
    "licenseEffectiveDate": "03/04/2025",
    "licenseExpirationDate": "03/03/2026",
    "dataDate": "10/18/2025",
    "capacity": 6,
    "address": "166 TORO CANYON RD",
    "city": "CARPINTERIA",
    "zip": "93013",
    "county": "SANTA BARBARA",
    "phone": "(818) 359-3019",
    "lat": 34.4178,
    "lng": -119.5741215
  },
  {
    "id": "630019426",
    "name": "AMERICAN INDIAN HEALTH & SERVICES CARPINTERIA DENTAL",
    "npi": null,
    "hcaiId": null,
    "businessName": "AMERICAN INDIAN HEALTH & SERVICES CORPORATION",
    "contactEmail": null,
    "categoryName": "PRIMARY CARE CLINIC",
    "categoryCode": "COMTYC",
    "licenseStatus": "ACTIVE",
    "inService": true,
    "licenseNumber": "050000515",
    "licenseEffectiveDate": "11/20/2024",
    "licenseExpirationDate": "11/19/2025",
    "dataDate": "10/18/2025",
    "capacity": 0,
    "address": "5412 CARPINTERIA AVE",
    "city": "CARPINTERIA",
    "zip": "93013",
    "county": "SANTA BARBARA",
    "phone": null,
    "lat": 34.39512776,
    "lng": -119.51375
  },
  {
    "id": "050000442",
    "name": "CORNERSTONE HOUSE OF SANTA BARBARA",
    "npi": "1093996829",
    "hcaiId": null,
    "businessName": "CORNERSTONE HOUSE OF SANTA BARBARA",
    "contactEmail": "INFO@CORNERSTONEHOUSE.ORG",
    "categoryName": "INTERMEDIATE CARE FACILITY-DD/H/N/CN/IID",
    "categoryCode": "ICFDDH",
    "licenseStatus": "ACTIVE",
    "inService": true,
    "licenseNumber": "050000211",
    "licenseEffectiveDate": "12/23/2024",
    "licenseExpirationDate": "12/22/2025",
    "dataDate": "10/18/2025",
    "capacity": 6,
    "address": "1451 CAMINO TRILLADO",
    "city": "CARPINTERIA",
    "zip": "93013",
    "county": "SANTA BARBARA",
    "phone": "(805) 684-5840",
    "lat": 34.403139,
    "lng": -119.5106085
  }
]