[
  {
    "id": "050000134",
    "name": "CLINICAS DEL CAMINO REAL INC FILLMORE",
    "npi": null,
    "hcaiId": "306561895",
    "businessName": "CLINICAS DEL CAMINO REAL, INC.",
    "contactEmail": "EMAIL@CLINICAS.ORG",
    "categoryName": "PRIMARY CARE CLINIC",
    "categoryCode": "COMTYC",
    "licenseStatus": "ACTIVE",
    "inService": true,
    "licenseNumber": "050000128",
    "licenseEffectiveDate": "11/07/2024",
    "licenseExpirationDate": "11/06/2025",
    "dataDate": "10/18/2025",
    "capacity": 0,
    "address": "355 CENTRAL AVE",
    "city": "FILLMORE",
    "zip": "93015",
    "county": "VENTURA",
    "phone": "(805) 524-4926",
    "lat": 34.400241,
    "lng": -118.9140615
  },
  {
    "id": "050001471",
    "name": "COMMUNITY MEMORIAL HEALTH CENTER",
    "npi": "1427084862",
    "hcaiId": null,
    "businessName": "COMMUNITY MEMORIAL HEALTH SYSTEM",
    "contactEmail": null,
    "categoryName": "PRIMARY CARE CLINIC",
    "categoryCode": "RHC/OP",
    "licenseStatus": "ACTIVE",
    "inService": true,
    "licenseNumber": "050000026",
    "licenseEffectiveDate": "03/01/2025",
    "licenseExpirationDate": "02/28/2026",
    "dataDate": "10/18/2025",
    "capacity": 0,
    "address": "852 W VENTURA ST",
    "city": "FILLMORE",
    "zip": "93015",
    "county": "VENTURA",
    "phone": "(805) 524-2672",
    "lat": 34.395165,
    "lng": -118.9219815
  },
  {
    "id": "630012915",
    "name": "FILLMORE FAMILY MEDICAL GROUP",
    "npi": "1134360076",
    "hcaiId": null,
    "businessName": null,
    "contactEmail": null,
    "categoryName": "PRIMARY CARE CLINIC",
    "categoryCode": "FQHC",
    "licenseStatus": null,
    "inService": null,
    "licenseNumber": null,
    "licenseEffectiveDate": null,
    "licenseExpirationDate": null,
    "dataDate": "10/18/2025",
    "capacity": 0,
    "address": "828 W VENTURA ST",
    "city": "FILLMORE",
    "zip": "93015",
    "county": "VENTURA",
    "phone": null,
    "lat": 34.395363,
    "lng": -118.9211445
  },
  {
    "id": "050000049",
    "name": "GREENFIELD CARE CENTER OF FILLMORE, LLC",
    "npi": "1275972481",
    "hcaiId": "206560547",
    "businessName": "GREENFIELD CARE CENTER OF FILLMORE, LLC",
    "contactEmail": "ADMIN@GCCFILLMORE.COM",
    "categoryName": "SKILLED NURSING FACILITY",
    "categoryCode": "SNF",
    "licenseStatus": "ACTIVE",
    "inService": true,
    "licenseNumber": "050000077",
    "licenseEffectiveDate": "10/09/2025",
    "licenseExpirationDate": "10/08/2026",
    "dataDate": "10/18/2025",
    "capacity": 99,
    "address": "118 B ST",
    "city": "FILLMORE",
    "zip": "93015",
    "county": "VENTURA",
    "phone": "(310) 889-9929",
    "lat": 34.394364,
    "lng": -118.9215945
  },
  {
    "id": "050001260",
    "name": "RURAL HAVEN HOME ICF/DD-H",
    "npi": "1578701173",
    "hcaiId": null,
    "businessName": "EPIPHANY CARE HOMES INC",
    "contactEmail": "MATTHEW@EPICARE.ORG",
    "categoryName": "INTERMEDIATE CARE FACILITY-DD/H/N/CN/IID",
    "categoryCode": "ICFDDH",
    "licenseStatus": "ACTIVE",
    "inService": true,
    "licenseNumber": "050000507",
    "licenseEffectiveDate": "11/26/2024",
    "licenseExpirationDate": "11/25/2025",
    "dataDate": "10/18/2025",
    "capacity": 6,
    "address": "431 SARATOGA STREET",
    "city": "FILLMORE",
    "zip": "93015",
    "county": "VENTURA",
    "phone": "(805) 524-0552",
    "lat": 34.401924,
    "lng": -118.9118745
  },
  {
    "id": "050001333",
    "name": "WINTER HAVEN HOME ICF/DD-H",
    "npi": "1669610267",
    "hcaiId": null,
    "businessName": "EPIPHANY CARE HOMES INC",
    "contactEmail": "MATTHEW@EPICARE.ORG",
    "categoryName": "INTERMEDIATE CARE FACILITY-DD/H/N/CN/IID",
    "categoryCode": "ICFDDH",
    "licenseStatus": "ACTIVE",
    "inService": true,
    "licenseNumber": "050000527",
    "licenseEffectiveDate": "11/26/2024",
    "licenseExpirationDate": "11/25/2025",
    "dataDate": "10/18/2025",
    "capacity": 6,
    "address": "546 CENTRAL AVENUE",
    "city": "FILLMORE",
    "zip": "93015",
    "county": "VENTURA",
    "phone": "(805) 524-3040",
    "lat": 34.404012,
    "lng": -118.9141335
  }
]