[
  {
    "id": "050000141",
    "name": "COMMUNITY MEMORIAL CONTINUING CARE CENTER",
    "npi": "1770659153",
    "hcaiId": "206560500",
    "businessName": "COMMUNITY MEMORIAL HEALTH SYSTEM",
    "contactEmail": "HLASHKARI@CMHSHEALTH.ORG",
    "categoryName": "SKILLED NURSING FACILITY",
    "categoryCode": "SNF",
    "licenseStatus": "ACTIVE",
    "inService": true,
    "licenseNumber": "050000045",
    "licenseEffectiveDate": "06/01/2025",
    "licenseExpirationDate": "05/31/2026",
    "dataDate": "10/18/2025",
    "capacity": 75,
    "address": "1306 MARICOPA HWY",
    "city": "OJAI",
    "zip": "93023",
    "county": "VENTURA",
    "phone": "(805) 640-2280",
    "lat": 34.442892,
    "lng": -119.2644585
  },
  {
    "id": "050000023",
    "name": "COMMUNITY MEMORIAL HOSPITAL - OJAI",
    "npi": "1992876767",
    "hcaiId": "106560501",
    "businessName": "COMMUNITY MEMORIAL HEALTH SYSTEM",
    "contactEmail": "HLASHKARI@CMHSHEALTH.ORG",
    "categoryName": "GENERAL ACUTE CARE HOSPITAL",
    "categoryCode": "GACH",
    "licenseStatus": "ACTIVE",
    "inService": true,
    "licenseNumber": "050000045",
    "licenseEffectiveDate": "06/01/2025",
    "licenseExpirationDate": "05/31/2026",
    "dataDate": "10/18/2025",
    "capacity": 25,
    "address": "1306 MARICOPA HWY",
    "city": "OJAI",
    "zip": "93023",
    "county": "VENTURA",
    "phone": "(805) 640-2280",
    "lat": 34.442892,
    "lng": -119.2644585
  },
  {
    "id": "050000890",
    "name": "LIFE CHOICES PREGNANCY CLINIC OF OJAI VALLEY, INC.",
    "npi": null,
    "hcaiId": "306564228",
    "businessName": "LIFE CHOICES PREGNANCY CLINIC OF OJAI VALLEY, INC.",
    "contactEmail": "LIFECHOICESOJAI@GMAIL.COM",
    "categoryName": "PRIMARY CARE CLINIC",
    "categoryCode": "COMTYC",
    "licenseStatus": "ACTIVE",
    "inService": true,
    "licenseNumber": "050000354",
    "licenseEffectiveDate": "11/19/2025",
    "licenseExpirationDate": "11/18/2026",
    "dataDate": "10/18/2025",
    "capacity": 0,
    "address": "1320 MARICOPA HWY, SUITE C",
    "city": "OJAI",
    "zip": "93023",
    "county": "VENTURA",
    "phone": "(805) 646-6830",
    "lat": 34.443054,
    "lng": -119.2653045
  },
  {
    "id": "630014395",
    "name": "LIVINGSTON MEMORIAL VISITING NURSE ASSOCIATION",
    "npi": "1053315739",
    "hcaiId": "406564244",
    "businessName": "LIVINGSTON MEMORIAL VISITING NURSE ASSOCIATION",
    "contactEmail": "LDIAL@LMVNA.ORG",
    "categoryName": "HOME HEALTH AGENCY",
    "categoryCode": "HHA",
    "licenseStatus": "ACTIVE",
    "inService": true,
    "licenseNumber": "050000074",
    "licenseEffectiveDate": "06/19/2025",
    "licenseExpirationDate": "06/18/2026",
    "dataDate": "10/18/2025",
    "capacity": 0,
    "address": "1211 MARICOPA HWY, SUITE 264",
    "city": "OJAI",
    "zip": "93023",
    "county": "VENTURA",
    "phone": "(805) 642-0239",
    "lat": 34.44165,
    "lng": -119.2635315
  },
  {
    "id": "050000629",
    "name": "MITCHELL HOME",
    "npi": "1366179863",
    "hcaiId": null,
    "businessName": "HOPE AND DREAMS HOMES, INC.",
    "contactEmail": "NURSINGREGISTRY@YAHOO.COM",
    "categoryName": "INTERMEDIATE CARE FACILITY-DD/H/N/CN/IID",
    "categoryCode": "ICFDDH",
    "licenseStatus": "ACTIVE",
    "inService": true,
    "licenseNumber": "050000294",
    "licenseEffectiveDate": "04/20/2025",
    "licenseExpirationDate": "04/19/2026",
    "dataDate": "10/18/2025",
    "capacity": 15,
    "address": "1280 MCANDREW RD",
    "city": "OJAI",
    "zip": "93023",
    "county": "VENTURA",
    "phone": "(805) 646-2411",
    "lat": 34.460712,
    "lng": -119.181771
  },
  {
    "id": "050000708",
    "name": "MITCHELL HOME - EUCALYPTUS",
    "npi": null,
    "hcaiId": null,
    "businessName": "HOPE AND DREAMS HOMES, INC.",
    "contactEmail": "NURSINGREGISTRY@YAHOO.COM",
    "categoryName": "INTERMEDIATE CARE FACILITY-DD/H/N/CN/IID",
    "categoryCode": "ICFDDH",
    "licenseStatus": "ACTIVE",
    "inService": true,
    "licenseNumber": "050000312",
    "licenseEffectiveDate": "02/04/2025",
    "licenseExpirationDate": "02/03/2026",
    "dataDate": "10/18/2025",
    "capacity": 9,
    "address": "207 W EUCALYPTUS ST",
    "city": "OJAI",
    "zip": "93023",
    "county": "VENTURA",
    "phone": "(805) 640-8819",
    "lat": 34.451127,
    "lng": -119.249244
  },
  {
    "id": "630014407",
    "name": "MULTIPLE LOCATION HOSPICE",
    "npi": "1881698447",
    "hcaiId": null,
    "businessName": "LIVINGSTON MEMORIAL VISITING NURSE ASSOCIATION",
    "contactEmail": null,
    "categoryName": "HOSPICE",
    "categoryCode": "HOSPICE",
    "licenseStatus": "ACTIVE",
    "inService": true,
    "licenseNumber": "070000576",
    "licenseEffectiveDate": "08/26/2025",
    "licenseExpirationDate": "06/27/2027",
    "dataDate": "10/18/2025",
    "capacity": 0,
    "address": "1211 MARICOPA HWY, SUITE 266",
    "city": "OJAI",
    "zip": "93023",
    "county": "VENTURA",
    "phone": null,
    "lat": 34.44153699,
    "lng": -119.263289
  },
  {
    "id": "050000043",
    "name": "OJAI HEALTH & REHABILITATION",
    "npi": "1851787550",
    "hcaiId": "206560465",
    "businessName": "OJAI HEALTHIDENCE OPCO, LLC",
    "contactEmail": "NICK.CATALANO@REHABCENTER.COM",
    "categoryName": "SKILLED NURSING FACILITY",
    "categoryCode": "SNF",
    "licenseStatus": "ACTIVE",
    "inService": true,
    "licenseNumber": "050000020",
    "licenseEffectiveDate": "03/01/2025",
    "licenseExpirationDate": "02/28/2026",
    "dataDate": "10/18/2025",
    "capacity": 74,
    "address": "601 N MONTGOMERY ST",
    "city": "OJAI",
    "zip": "93023",
    "county": "VENTURA",
    "phone": "(805) 646-8124",
    "lat": 34.452999,
    "lng": -119.243286
  },
  {
    "id": "050000698",
    "name": "OJAI VALLEY COMMUNITY HEALTH CENTER",
    "npi": null,
    "hcaiId": "306564045",
    "businessName": "CLINICAS DEL CAMINO REAL, INC.",
    "contactEmail": "EMAIL@CLINICAS.ORG",
    "categoryName": "PRIMARY CARE CLINIC",
    "categoryCode": "COMTYC",
    "licenseStatus": "ACTIVE",
    "inService": true,
    "licenseNumber": "050000307",
    "licenseEffectiveDate": "11/21/2025",
    "licenseExpirationDate": "11/20/2026",
    "dataDate": "10/18/2025",
    "capacity": 0,
    "address": "1200 MARICOPA HWY",
    "city": "OJAI",
    "zip": "93023",
    "county": "VENTURA",
    "phone": "(805) 640-8293",
    "lat": 34.442676,
    "lng": -119.2629645
  },
  {
    "id": "050001266",
    "name": "PACIFIC THERAPY SERVICES",
    "npi": null,
    "hcaiId": null,
    "businessName": null,
    "contactEmail": null,
    "categoryName": "REHABILITATION CLINIC",
    "categoryCode": "OPT/SP",
    "licenseStatus": null,
    "inService": null,
    "licenseNumber": null,
    "licenseEffectiveDate": null,
    "licenseExpirationDate": null,
    "dataDate": "10/18/2025",
    "capacity": 0,
    "address": "11420 N VENTURA AVE, SUITE 106",
    "city": "OJAI",
    "zip": "93023",
    "county": "VENTURA",
    "phone": "(805) 640-7834",
    "lat": 34.422939,
    "lng": -119.288916
  }
]