[
  {
    "id": "630015618",
    "name": "ACCESS TLC HOME HEALTH CARE VENTURA (BRANCH)",
    "npi": "1619045176",
    "hcaiId": "406563010",
    "businessName": "VITAL PLUS HOME HEALTH CARE",
    "contactEmail": null,
    "categoryName": "HOME HEALTH AGENCY",
    "categoryCode": "HHA",
    "licenseStatus": "ACTIVE",
    "inService": true,
    "licenseNumber": "550000243",
    "licenseEffectiveDate": "03/22/2025",
    "licenseExpirationDate": "03/21/2026",
    "dataDate": "10/18/2025",
    "capacity": 0,
    "address": "5401 TECH CIR, SUITE A",
    "city": "MOORPARK",
    "zip": "93021",
    "county": "VENTURA",
    "phone": "(818) 517-1620",
    "lat": 34.28283701,
    "lng": -118.893537
  },
  {
    "id": "070001247",
    "name": "ACCESS TLC HOSPICE",
    "npi": "1518949874",
    "hcaiId": "406564069",
    "businessName": "CHILTON AND LESTE MANAGEMENT, INC.",
    "contactEmail": null,
    "categoryName": "HOSPICE",
    "categoryCode": "HOSPICE",
    "licenseStatus": "ACTIVE",
    "inService": true,
    "licenseNumber": "070000575",
    "licenseEffectiveDate": "11/17/2023",
    "licenseExpirationDate": "11/16/2025",
    "dataDate": "10/18/2025",
    "capacity": 0,
    "address": "5401 TECH CIRCLE, SUITE B",
    "city": "MOORPARK",
    "zip": "93021",
    "county": "VENTURA",
    "phone": "(805) 517-1620",
    "lat": 34.282962,
    "lng": -118.89351
  },
  {
    "id": "630021223",
    "name": "ASTER HEALTH",
    "npi": null,
    "hcaiId": "406193431",
    "businessName": "ASTER HOSPICE, INC.",
    "contactEmail": "ASTERHOSPICEINC@GMAIL.COM",
    "categoryName": "HOSPICE",
    "categoryCode": "HOSPICE",
    "licenseStatus": "ACTIVE",
    "inService": true,
    "licenseNumber": "550006666",
    "licenseEffectiveDate": "08/21/2025",
    "licenseExpirationDate": "08/20/2027",
    "dataDate": "10/18/2025",
    "capacity": 0,
    "address": "484 E LOS ANGELES AVE, SUITE 228",
    "city": "MOORPARK",
    "zip": "93021",
    "county": "VENTURA",
    "phone": "(747) 666-8566",
    "lat": 34.27837298,
    "lng": -118.875398
  },
  {
    "id": "630014204",
    "name": "CLINICAS DEL CAMINO REAL, INC - MOORPARK",
    "npi": null,
    "hcaiId": null,
    "businessName": null,
    "contactEmail": null,
    "categoryName": "PRIMARY CARE CLINIC",
    "categoryCode": "FQHC",
    "licenseStatus": null,
    "inService": null,
    "licenseNumber": null,
    "licenseEffectiveDate": null,
    "licenseExpirationDate": null,
    "dataDate": "10/18/2025",
    "capacity": 0,
    "address": "4279 TIERRA REJADA RD",
    "city": "MOORPARK",
    "zip": "93021",
    "county": "VENTURA",
    "phone": null,
    "lat": 34.268283,
    "lng": -118.899729
  },
  {
    "id": "630013739",
    "name": "CLINICAS DEL CAMINO REAL, INC. - MOORPARK",
    "npi": "1841556404",
    "hcaiId": "306564230",
    "businessName": "CLINICAS DEL CAMINO REAL, INC.",
    "contactEmail": "EMAIL@CLINICAS.ORG",
    "categoryName": "PRIMARY CARE CLINIC",
    "categoryCode": "COMTYC",
    "licenseStatus": "ACTIVE",
    "inService": true,
    "licenseNumber": "550001982",
    "licenseEffectiveDate": "07/03/2025",
    "licenseExpirationDate": "07/02/2026",
    "dataDate": "10/18/2025",
    "capacity": 0,
    "address": "4279 TIERRA REJADA RD",
    "city": "MOORPARK",
    "zip": "93021",
    "county": "VENTURA",
    "phone": "(805) 222-2323",
    "lat": 34.268283,
    "lng": -118.899729
  },
  {
    "id": "630013844",
    "name": "MOORPARK DIALYSIS",
    "npi": "1184048506",
    "hcaiId": "306564235",
    "businessName": "HUNTER DIALYSIS, LLC",
    "contactEmail": "CAL_C@DAVITA.COM",
    "categoryName": "CHRONIC DIALYSIS CLINIC",
    "categoryCode": "ESRD/CDC",
    "licenseStatus": "ACTIVE",
    "inService": true,
    "licenseNumber": "550002148",
    "licenseEffectiveDate": "08/27/2025",
    "licenseExpirationDate": "08/26/2026",
    "dataDate": "10/18/2025",
    "capacity": 20,
    "address": "883 PATRIOT DR, SUITE C",
    "city": "MOORPARK",
    "zip": "93021",
    "county": "VENTURA",
    "phone": "(805) 517-1442",
    "lat": 34.278381,
    "lng": -118.864179
  },
  {
    "id": "630012494",
    "name": "MOORPARK FAMILY MEDICAL CLINIC",
    "npi": "1174764021",
    "hcaiId": null,
    "businessName": null,
    "contactEmail": null,
    "categoryName": "PRIMARY CARE CLINIC",
    "categoryCode": "FQHC",
    "licenseStatus": null,
    "inService": null,
    "licenseNumber": null,
    "licenseEffectiveDate": null,
    "licenseExpirationDate": null,
    "dataDate": "10/18/2025",
    "capacity": 0,
    "address": "612 SPRING RD, BUILDING A",
    "city": "MOORPARK",
    "zip": "93021",
    "county": "VENTURA",
    "phone": null,
    "lat": 34.28157995,
    "lng": -118.8746741
  },
  {
    "id": "050001278",
    "name": "MOORPARK HEALTHCARE CENTER",
    "npi": null,
    "hcaiId": "206564099",
    "businessName": "MAJESTICARE HEALTH AND REHAB CENTER OF MOORPARK",
    "contactEmail": "MAJESTICAREHRC@GMAIL.COM",
    "categoryName": "CONGREGATE LIVING HEALTH FACILITY",
    "categoryCode": "CLHF",
    "licenseStatus": "ACTIVE",
    "inService": true,
    "licenseNumber": "050000509",
    "licenseEffectiveDate": "06/03/2025",
    "licenseExpirationDate": "06/02/2026",
    "dataDate": "10/18/2025",
    "capacity": 10,
    "address": "4762 MAUREEN LN",
    "city": "MOORPARK",
    "zip": "93021",
    "county": "VENTURA",
    "phone": "(818) 554-4769",
    "lat": 34.276464,
    "lng": -118.8955575
  }
]