[
  {
    "id": "630015729",
    "name": "ANGEL'S HAND PALLIATIVE CARE, INCORPORATION",
    "npi": "1962761429",
    "hcaiId": "406564292",
    "businessName": "ANGEL'S HAND PALLIATIVE CARE, INCORPORATION",
    "contactEmail": "ANGELSHANDPCI@YAHOO.COM",
    "categoryName": "HOSPICE",
    "categoryCode": "HOSPICE",
    "licenseStatus": "ACTIVE",
    "inService": true,
    "licenseNumber": "550003777",
    "licenseEffectiveDate": "02/06/2025",
    "licenseExpirationDate": "02/05/2027",
    "dataDate": "10/18/2025",
    "capacity": 0,
    "address": "3645 SAVIERS ROAD, SUITE 10",
    "city": "OXNARD",
    "zip": "93033",
    "county": "VENTURA",
    "phone": "(949) 324-8363",
    "lat": 34.166187,
    "lng": -119.177964
  },
  {
    "id": "050001130",
    "name": "CLINICAS DEL CAMINO REAL INC MARAVILLA",
    "npi": null,
    "hcaiId": "306564083",
    "businessName": "CLINICAS DEL CAMINO REAL, INC.",
    "contactEmail": "EMAIL@CLINICAS.ORG",
    "categoryName": "PRIMARY CARE CLINIC",
    "categoryCode": "COMTYC",
    "licenseStatus": "ACTIVE",
    "inService": true,
    "licenseNumber": "050000461",
    "licenseEffectiveDate": "04/30/2025",
    "licenseExpirationDate": "04/29/2026",
    "dataDate": "10/18/2025",
    "capacity": 0,
    "address": "450 W CLARA ST",
    "city": "OXNARD",
    "zip": "93033",
    "county": "VENTURA",
    "phone": "(805) 488-0210",
    "lat": 34.150851,
    "lng": -119.182257
  },
  {
    "id": "050001443",
    "name": "CLINICAS DEL CAMINO REAL INC OCEANVIEW",
    "npi": null,
    "hcaiId": "306564122",
    "businessName": "CLINICAS DEL CAMINO REAL, INC.",
    "contactEmail": "CGALLARD@CLINICAS.ORG",
    "categoryName": "PRIMARY CARE CLINIC",
    "categoryCode": "COMTYC",
    "licenseStatus": "ACTIVE",
    "inService": true,
    "licenseNumber": "050000573",
    "licenseEffectiveDate": "04/23/2025",
    "licenseExpirationDate": "04/22/2026",
    "dataDate": "10/18/2025",
    "capacity": 0,
    "address": "4400 OLDS RD",
    "city": "OXNARD",
    "zip": "93033",
    "county": "VENTURA",
    "phone": "(805) 986-5551",
    "lat": 34.159626,
    "lng": -119.148012
  },
  {
    "id": "630026453",
    "name": "CLINICAS DEL CAMINO REAL, INC., ROBERTO S. JUAREZ HEALTH CENTER",
    "npi": "1093933194",
    "hcaiId": "306560020",
    "businessName": "CLINICAS DEL CAMINO REAL, INC.",
    "contactEmail": "AMONROY@CLINICAS.ORG",
    "categoryName": "PRIMARY CARE CLINIC",
    "categoryCode": "COMTYC",
    "licenseStatus": "ACTIVE",
    "inService": true,
    "licenseNumber": "550008584",
    "licenseEffectiveDate": "06/23/2025",
    "licenseExpirationDate": "06/22/2026",
    "dataDate": "10/18/2025",
    "capacity": 0,
    "address": "2100 STATHAM BLVD",
    "city": "OXNARD",
    "zip": "93033",
    "county": "VENTURA",
    "phone": "(805) 659-1740",
    "lat": 34.179399,
    "lng": -119.1652515
  },
  {
    "id": "630019407",
    "name": "COLLEGE ESTATES DIALYSIS",
    "npi": null,
    "hcaiId": "306560525",
    "businessName": "TOTAL RENAL CARE, INC.",
    "contactEmail": "CAL_C@DAVITA.COM",
    "categoryName": "CHRONIC DIALYSIS CLINIC",
    "categoryCode": "ESRD/CDC",
    "licenseStatus": "ACTIVE",
    "inService": true,
    "licenseNumber": "550005369",
    "licenseEffectiveDate": "03/25/2025",
    "licenseExpirationDate": "03/24/2026",
    "dataDate": "10/18/2025",
    "capacity": 25,
    "address": "1601 RAIDERS WAY",
    "city": "OXNARD",
    "zip": "93033",
    "county": "VENTURA",
    "phone": "(805) 240-3302",
    "lat": 34.1726438,
    "lng": -119.1653681
  },
  {
    "id": "080001581",
    "name": "FMC DIALYSIS SERVICES CHANNEL ISLANDS",
    "npi": "1184736985",
    "hcaiId": "306564150",
    "businessName": "BIO-MEDICAL APPLICATIONS OF CALIFORNIA, INC.",
    "contactEmail": "CLINIC2279@FMC-NA.COM",
    "categoryName": "CHRONIC DIALYSIS CLINIC",
    "categoryCode": "ESRD/CDC",
    "licenseStatus": "ACTIVE",
    "inService": true,
    "licenseNumber": "080000675",
    "licenseEffectiveDate": "03/31/2025",
    "licenseExpirationDate": "03/30/2026",
    "dataDate": "10/18/2025",
    "capacity": 36,
    "address": "1750 E CHANNEL ISLANDS BLVD",
    "city": "OXNARD",
    "zip": "93033",
    "county": "VENTURA",
    "phone": "(805) 486-2929",
    "lat": 34.172588,
    "lng": -119.16072
  },
  {
    "id": "630012491",
    "name": "LAS ISLAS FAMILY MEDICAL GROUP",
    "npi": null,
    "hcaiId": null,
    "businessName": null,
    "contactEmail": null,
    "categoryName": "PRIMARY CARE CLINIC",
    "categoryCode": "FQHC",
    "licenseStatus": null,
    "inService": null,
    "licenseNumber": null,
    "licenseEffectiveDate": null,
    "licenseExpirationDate": null,
    "dataDate": "10/18/2025",
    "capacity": 0,
    "address": "2400 SOUTH C ST",
    "city": "OXNARD",
    "zip": "93033",
    "county": "VENTURA",
    "phone": null,
    "lat": 34.177023,
    "lng": -119.1809295
  },
  {
    "id": "630013021",
    "name": "LAS ISLAS FAMILY MEDICAL GROUP",
    "npi": null,
    "hcaiId": null,
    "businessName": null,
    "contactEmail": null,
    "categoryName": "PRIMARY CARE CLINIC",
    "categoryCode": "FQHC",
    "licenseStatus": null,
    "inService": null,
    "licenseNumber": null,
    "licenseEffectiveDate": null,
    "licenseExpirationDate": null,
    "dataDate": "10/18/2025",
    "capacity": 0,
    "address": "325 W CHANNEL ISLANDS BLVD",
    "city": "OXNARD",
    "zip": "93033",
    "county": "VENTURA",
    "phone": "(805) 648-9561",
    "lat": 34.173999,
    "lng": -119.1807675
  },
  {
    "id": "630013228",
    "name": "LAS ISLAS MOBILE CLINIC",
    "npi": "1952542896",
    "hcaiId": null,
    "businessName": null,
    "contactEmail": null,
    "categoryName": "PRIMARY CARE CLINIC",
    "categoryCode": "FQHC",
    "licenseStatus": null,
    "inService": null,
    "licenseNumber": null,
    "licenseEffectiveDate": null,
    "licenseExpirationDate": null,
    "dataDate": "10/18/2025",
    "capacity": 0,
    "address": "2400 S C STREET",
    "city": "OXNARD",
    "zip": "93033",
    "county": "VENTURA",
    "phone": null,
    "lat": 34.177023,
    "lng": -119.1809295
  },
  {
    "id": "050000056",
    "name": "MAYWOOD ACRES HEALTHCARE",
    "npi": "1497941595",
    "hcaiId": "206560496",
    "businessName": "MILWOOD HEALTHCARE, INC.",
    "contactEmail": "CARLO.OLETA@MILWOODHC.COM",
    "categoryName": "SKILLED NURSING FACILITY",
    "categoryCode": "SNF",
    "licenseStatus": "ACTIVE",
    "inService": true,
    "licenseNumber": "050000042",
    "licenseEffectiveDate": "12/01/2024",
    "licenseExpirationDate": "11/30/2025",
    "dataDate": "10/18/2025",
    "capacity": 98,
    "address": "2641 S C ST",
    "city": "OXNARD",
    "zip": "93033",
    "county": "VENTURA",
    "phone": "(805) 487-7840",
    "lat": 34.175529,
    "lng": -119.181852
  },
  {
    "id": "630024974",
    "name": "PLANNED PARENTHOOD OF OXNARD",
    "npi": null,
    "hcaiId": "306560686",
    "businessName": "PLANNED PARENTHOOD CALIFORNIA CENTRAL COAST",
    "contactEmail": "DALILA.CERVANTES@PPCENTRALCOAST.ORG",
    "categoryName": "PRIMARY CARE CLINIC",
    "categoryCode": "COMTYC",
    "licenseStatus": "ACTIVE",
    "inService": true,
    "licenseNumber": "550007735",
    "licenseEffectiveDate": "12/31/2024",
    "licenseExpirationDate": "12/30/2025",
    "dataDate": "10/18/2025",
    "capacity": 0,
    "address": "2651 S C ST, SUITE 100",
    "city": "OXNARD",
    "zip": "93033",
    "county": "VENTURA",
    "phone": "(805) 722-1509",
    "lat": 34.174926,
    "lng": -119.1816585
  },
  {
    "id": "050000002",
    "name": "SHORELINE CARE CENTER",
    "npi": "1891783577",
    "hcaiId": "206560509",
    "businessName": "COVENANT CARE CALIFORNIA, LLC",
    "contactEmail": "SHORELINEREG@COVENANTCARE.COM",
    "categoryName": "SKILLED NURSING FACILITY",
    "categoryCode": "SNF",
    "licenseStatus": "ACTIVE",
    "inService": true,
    "licenseNumber": "050000049",
    "licenseEffectiveDate": "01/13/2025",
    "licenseExpirationDate": "01/12/2026",
    "dataDate": "10/18/2025",
    "capacity": 193,
    "address": "5225 S J ST",
    "city": "OXNARD",
    "zip": "93033",
    "county": "VENTURA",
    "phone": "(805) 488-3696",
    "lat": 34.152957,
    "lng": -119.186298
  },
  {
    "id": "050001475",
    "name": "ST THOMAS AQUINAS HOME",
    "npi": "1982673315",
    "hcaiId": null,
    "businessName": null,
    "contactEmail": "MGAMBA83@GMAIL.COM",
    "categoryName": "INTERMEDIATE CARE FACILITY-DD/H/N/CN/IID",
    "categoryCode": "ICFDDH",
    "licenseStatus": "ACTIVE",
    "inService": true,
    "licenseNumber": "050000597",
    "licenseEffectiveDate": "02/03/2025",
    "licenseExpirationDate": "02/02/2026",
    "dataDate": "10/18/2025",
    "capacity": 6,
    "address": "765 E YUCCA ST",
    "city": "OXNARD",
    "zip": "93033",
    "county": "VENTURA",
    "phone": "(805) 488-0842",
    "lat": 34.1658,
    "lng": -119.168433
  },
  {
    "id": "630016527",
    "name": "ST. THERESE HOME",
    "npi": "1063896462",
    "hcaiId": null,
    "businessName": "GREEN HEIGHTS HEALTH CARE",
    "contactEmail": "DMJVPR@GMAIL.COM",
    "categoryName": "INTERMEDIATE CARE FACILITY-DD/H/N/CN/IID",
    "categoryCode": "ICFDDN",
    "licenseStatus": "ACTIVE",
    "inService": true,
    "licenseNumber": "550004895",
    "licenseEffectiveDate": "09/11/2025",
    "licenseExpirationDate": "09/10/2026",
    "dataDate": "10/18/2025",
    "capacity": 6,
    "address": "620 LINDEN DRIVE",
    "city": "OXNARD",
    "zip": "93033",
    "county": "VENTURA",
    "phone": "(818) 212-9159",
    "lat": 34.175916,
    "lng": -119.1837915
  }
]