[
  {
    "id": "630017151",
    "name": "ADVANCED SPECIALTY SURGICAL CENTER, LLC",
    "npi": "1740655232",
    "hcaiId": null,
    "businessName": null,
    "contactEmail": "RRIEDEL@APMGCA.COM",
    "categoryName": "SURGICAL CLINIC",
    "categoryCode": "ASC",
    "licenseStatus": null,
    "inService": null,
    "licenseNumber": null,
    "licenseEffectiveDate": null,
    "licenseExpirationDate": null,
    "dataDate": "10/18/2025",
    "capacity": 0,
    "address": "625 NA ST, SUITE 300",
    "city": "OXNARD",
    "zip": "93030",
    "county": "VENTURA",
    "phone": "(818) 348-7246",
    "lat": 34.208514,
    "lng": -119.178503
  },
  {
    "id": "630018025",
    "name": "AMIGO BABY THERAPY SERVICES, INC.",
    "npi": "1538607049",
    "hcaiId": "306560448",
    "businessName": "AMIGO BABY THERAPY SERVICES, INC",
    "contactEmail": "PVELEZ@AMIGOBABY.COM",
    "categoryName": "REHABILITATION CLINIC",
    "categoryCode": "REHABC",
    "licenseStatus": "ACTIVE",
    "inService": true,
    "licenseNumber": "550004544",
    "licenseEffectiveDate": "02/15/2025",
    "licenseExpirationDate": "02/14/2026",
    "dataDate": "10/18/2025",
    "capacity": 0,
    "address": "1901 N RICE AVE, SUITE 170/180",
    "city": "OXNARD",
    "zip": "93030",
    "county": "VENTURA",
    "phone": "(805) 826-9000",
    "lat": 34.219422,
    "lng": -119.143485
  },
  {
    "id": "630027550",
    "name": "AMIGO BABY, INC",
    "npi": null,
    "hcaiId": null,
    "businessName": "AMIGO BABY, INC",
    "contactEmail": "PVELEZ@AMIGOBABY.COM",
    "categoryName": "HOME HEALTH AGENCY",
    "categoryCode": "HHA",
    "licenseStatus": "ACTIVE",
    "inService": true,
    "licenseNumber": "550009593",
    "licenseEffectiveDate": "05/22/2025",
    "licenseExpirationDate": "11/21/2025",
    "dataDate": "10/18/2025",
    "capacity": 0,
    "address": "1901 N RICE AVE, SUITE 325",
    "city": "OXNARD",
    "zip": "93030",
    "county": "VENTURA",
    "phone": "(805) 901-1237",
    "lat": 34.21956601,
    "lng": -119.143387
  },
  {
    "id": "070001199",
    "name": "AMONG FRIENDS ADHC",
    "npi": null,
    "hcaiId": null,
    "businessName": "AMERICAN TRADE MARK CORPORATION",
    "contactEmail": "MARKK@AMONGFRIENDS.ORG",
    "categoryName": "ADULT DAY HEALTH CARE",
    "categoryCode": "ADHC",
    "licenseStatus": "ACTIVE",
    "inService": true,
    "licenseNumber": "070000596",
    "licenseEffectiveDate": "03/05/2025",
    "licenseExpirationDate": "03/04/2026",
    "dataDate": "10/18/2025",
    "capacity": 0,
    "address": "851 S A ST",
    "city": "OXNARD",
    "zip": "93030",
    "county": "VENTURA",
    "phone": "(805) 385-7244",
    "lat": 34.19262,
    "lng": -119.179008
  },
  {
    "id": "630027816",
    "name": "APEX SURGERY CENTER",
    "npi": null,
    "hcaiId": null,
    "businessName": null,
    "contactEmail": "DRBLOOMDO@GMAIL.COM",
    "categoryName": "SURGICAL CLINIC",
    "categoryCode": "ASC",
    "licenseStatus": null,
    "inService": null,
    "licenseNumber": null,
    "licenseEffectiveDate": null,
    "licenseExpirationDate": null,
    "dataDate": "10/18/2025",
    "capacity": 0,
    "address": "625 N A ST, SUITE 300",
    "city": "OXNARD",
    "zip": "93030",
    "county": "VENTURA",
    "phone": "(310) 745-0588",
    "lat": 34.20856899,
    "lng": -119.178713
  },
  {
    "id": "630015595",
    "name": "CAREWISE HOSPICE, INC.",
    "npi": "1649674250",
    "hcaiId": "406564261",
    "businessName": "CAREWISE HOSPICE, INC.",
    "contactEmail": "CAREWISE.HOSPICE@GMAIL.COM",
    "categoryName": "HOSPICE",
    "categoryCode": "HOSPICE",
    "licenseStatus": "ACTIVE",
    "inService": true,
    "licenseNumber": "550002973",
    "licenseEffectiveDate": "02/19/2025",
    "licenseExpirationDate": "02/18/2027",
    "dataDate": "10/18/2025",
    "capacity": 0,
    "address": "913 W 7TH ST",
    "city": "OXNARD",
    "zip": "93030",
    "county": "VENTURA",
    "phone": "(805) 823-4144",
    "lat": 34.195932,
    "lng": -119.188872
  },
  {
    "id": "630014818",
    "name": "CHANNEL ISLANDS DIALYSIS",
    "npi": "1346674157",
    "hcaiId": "306564250",
    "businessName": "COBBLES DIALYSIS, LLC",
    "contactEmail": "CAL_C@DAVITA.COM",
    "categoryName": "CHRONIC DIALYSIS CLINIC",
    "categoryCode": "ESRD/CDC",
    "licenseStatus": "ACTIVE",
    "inService": true,
    "licenseNumber": "550002656",
    "licenseEffectiveDate": "05/05/2025",
    "licenseExpirationDate": "05/04/2026",
    "dataDate": "10/18/2025",
    "capacity": 16,
    "address": "3541 W 5TH STREET, SUITE A",
    "city": "OXNARD",
    "zip": "93030",
    "county": "VENTURA",
    "phone": "(805) 984-5140",
    "lat": 34.197876,
    "lng": -119.21877
  },
  {
    "id": "050000658",
    "name": "CHANNEL ISLANDS SURGICENTER",
    "npi": "1144287665",
    "hcaiId": "306564037",
    "businessName": "CHANNEL ISLANDS SURGICENTER LP",
    "contactEmail": "KRISTI.WAITE@SCASURGERY.COM",
    "categoryName": "SURGICAL CLINIC",
    "categoryCode": "ASC",
    "licenseStatus": "INACTIVE - CAPEN DECISION",
    "inService": false,
    "licenseNumber": "050000297",
    "licenseEffectiveDate": "11/01/2007",
    "licenseExpirationDate": "10/31/2008",
    "dataDate": "10/18/2025",
    "capacity": 0,
    "address": "2300 WANKEL WAY",
    "city": "OXNARD",
    "zip": "93030",
    "county": "VENTURA",
    "phone": "(805) 485-1908",
    "lat": 34.216443,
    "lng": -119.145924
  },
  {
    "id": "050000106",
    "name": "CLINICAS DEL CAMINO REAL INC OXNARD",
    "npi": null,
    "hcaiId": "306561169",
    "businessName": "CLINICAS DEL CAMINO REAL, INC.",
    "contactEmail": "EMAIL@CLINICAS.ORG",
    "categoryName": "PRIMARY CARE CLINIC",
    "categoryCode": "COMTYC",
    "licenseStatus": "ACTIVE",
    "inService": true,
    "licenseNumber": "050000110",
    "licenseEffectiveDate": "11/19/2025",
    "licenseExpirationDate": "11/18/2026",
    "dataDate": "10/18/2025",
    "capacity": 0,
    "address": "650 META ST",
    "city": "OXNARD",
    "zip": "93030",
    "county": "VENTURA",
    "phone": "(805) 487-5351",
    "lat": 34.195329,
    "lng": -119.175561
  },
  {
    "id": "630018753",
    "name": "CLINICAS DEL CAMINO REAL, INC. - LA COLONIA",
    "npi": null,
    "hcaiId": null,
    "businessName": "CLINICAS DEL CAMINO REAL, INC.",
    "contactEmail": null,
    "categoryName": "PRIMARY CARE CLINIC",
    "categoryCode": "COMTYC",
    "licenseStatus": "ACTIVE",
    "inService": true,
    "licenseNumber": "550000025",
    "licenseEffectiveDate": "05/16/2025",
    "licenseExpirationDate": "05/15/2026",
    "dataDate": "10/18/2025",
    "capacity": 0,
    "address": "801 COOPER RD",
    "city": "OXNARD",
    "zip": "93030",
    "county": "VENTURA",
    "phone": "(805) 330-8100",
    "lat": 34.2047642,
    "lng": -119.170522
  },
  {
    "id": "050000050",
    "name": "GLENWOOD CARE CENTER",
    "npi": "1619976131",
    "hcaiId": "206560482",
    "businessName": "C STREET HEALTH ASSOCIATES LLC",
    "contactEmail": "NYAMAK@ENSIGNSERVICES.NET",
    "categoryName": "SKILLED NURSING FACILITY",
    "categoryCode": "SNF",
    "licenseStatus": "ACTIVE",
    "inService": true,
    "licenseNumber": "050000033",
    "licenseEffectiveDate": "01/02/2025",
    "licenseExpirationDate": "01/01/2026",
    "dataDate": "10/18/2025",
    "capacity": 99,
    "address": "1300 N C ST",
    "city": "OXNARD",
    "zip": "93030",
    "county": "VENTURA",
    "phone": "(805) 983-0305",
    "lat": 34.214679,
    "lng": -119.1800655
  },
  {
    "id": "050001444",
    "name": "HEALTHWISE HOME CARE SOLUTIONS INC",
    "npi": "1427013663",
    "hcaiId": "406564123",
    "businessName": "HEALTHWISE HOME CARE SOLUTIONS INC",
    "contactEmail": "INFO@HEALTHWISEHOMECARESOLUTIONS.COM",
    "categoryName": "HOME HEALTH AGENCY",
    "categoryCode": "HHA",
    "licenseStatus": "ACTIVE",
    "inService": true,
    "licenseNumber": "050000576",
    "licenseEffectiveDate": "05/29/2025",
    "licenseExpirationDate": "05/28/2026",
    "dataDate": "10/18/2025",
    "capacity": 0,
    "address": "1100 N VENTURA RD, SUITE 102",
    "city": "OXNARD",
    "zip": "93030",
    "county": "VENTURA",
    "phone": "(805) 983-0086",
    "lat": 34.212816,
    "lng": -119.193822
  },
  {
    "id": "050001098",
    "name": "JADE HOME",
    "npi": "1720115934",
    "hcaiId": null,
    "businessName": "EPIPHANY CARE HOMES INC",
    "contactEmail": null,
    "categoryName": "INTERMEDIATE CARE FACILITY-DD/H/N/CN/IID",
    "categoryCode": "ICFDDH",
    "licenseStatus": "ACTIVE",
    "inService": true,
    "licenseNumber": "050000443",
    "licenseEffectiveDate": "11/01/2025",
    "licenseExpirationDate": "10/31/2026",
    "dataDate": "10/18/2025",
    "capacity": 6,
    "address": "750 KENTWOOD DR",
    "city": "OXNARD",
    "zip": "93030",
    "county": "VENTURA",
    "phone": "(805) 983-4785",
    "lat": 34.217262,
    "lng": -119.1862125
  },
  {
    "id": "050000929",
    "name": "JOANNE COMMUNITY HOME",
    "npi": "1821124793",
    "hcaiId": null,
    "businessName": "NORMAL LIFE OF CALIFORNIA INC",
    "contactEmail": "MPAYNE@RESCARE.COM",
    "categoryName": "INTERMEDIATE CARE FACILITY-DD/H/N/CN/IID",
    "categoryCode": "ICFDDH",
    "licenseStatus": "ACTIVE",
    "inService": true,
    "licenseNumber": "050000371",
    "licenseEffectiveDate": "02/28/2025",
    "licenseExpirationDate": "02/27/2026",
    "dataDate": "10/18/2025",
    "capacity": 6,
    "address": "1701 JOANNE WAY",
    "city": "OXNARD",
    "zip": "93030",
    "county": "VENTURA",
    "phone": "(805) 981-4755",
    "lat": 34.217604,
    "lng": -119.1979395
  },
  {
    "id": "050001308",
    "name": "MITCHELL HOME - L STREET",
    "npi": "1124743646",
    "hcaiId": null,
    "businessName": "HOPE AND DREAMS HOMES, INC.",
    "contactEmail": "NURSINGREGISTRY@YAHOO.COM",
    "categoryName": "INTERMEDIATE CARE FACILITY-DD/H/N/CN/IID",
    "categoryCode": "ICFDDH",
    "licenseStatus": "ACTIVE",
    "inService": true,
    "licenseNumber": "050000553",
    "licenseEffectiveDate": "03/19/2025",
    "licenseExpirationDate": "03/18/2026",
    "dataDate": "10/18/2025",
    "capacity": 6,
    "address": "1024 S L ST",
    "city": "OXNARD",
    "zip": "93030",
    "county": "VENTURA",
    "phone": "(805) 253-0447",
    "lat": 34.191207,
    "lng": -119.1930345
  },
  {
    "id": "050000953",
    "name": "NEURORESTORATIVE CALIFORNIA",
    "npi": null,
    "hcaiId": "206564059",
    "businessName": "CAREMERIDIAN, LLC",
    "contactEmail": "BRANDY.MACKINNEY@SEVITAHEALTH.COM",
    "categoryName": "CONGREGATE LIVING HEALTH FACILITY",
    "categoryCode": "CLHF",
    "licenseStatus": "ACTIVE",
    "inService": true,
    "licenseNumber": "050000384",
    "licenseEffectiveDate": "06/04/2025",
    "licenseExpirationDate": "06/03/2026",
    "dataDate": "10/18/2025",
    "capacity": 10,
    "address": "1540 TEAL CLUB RD",
    "city": "OXNARD",
    "zip": "93030",
    "county": "VENTURA",
    "phone": null,
    "lat": 34.20252,
    "lng": -119.1952395
  },
  {
    "id": "630012237",
    "name": "NEXUS HOME HEALTH, INC",
    "npi": "1336392422",
    "hcaiId": "406564213",
    "businessName": "NEXUS HOME HEALTH, INC",
    "contactEmail": "NEXUS.HOMEHEALTH@YAHOO.COM",
    "categoryName": "HOME HEALTH AGENCY",
    "categoryCode": "HHA",
    "licenseStatus": "ACTIVE",
    "inService": true,
    "licenseNumber": "550001380",
    "licenseEffectiveDate": "06/01/2025",
    "licenseExpirationDate": "05/31/2026",
    "dataDate": "10/18/2025",
    "capacity": 0,
    "address": "911 W 7TH ST",
    "city": "OXNARD",
    "zip": "93030",
    "county": "VENTURA",
    "phone": "(805) 483-7540",
    "lat": 34.195842,
    "lng": -119.188872
  },
  {
    "id": "050001072",
    "name": "PEARL HOME",
    "npi": "1235266479",
    "hcaiId": null,
    "businessName": "EPIPHANY CARE HOMES INC",
    "contactEmail": null,
    "categoryName": "INTERMEDIATE CARE FACILITY-DD/H/N/CN/IID",
    "categoryCode": "ICFDDN",
    "licenseStatus": "ACTIVE",
    "inService": true,
    "licenseNumber": "050000433",
    "licenseEffectiveDate": "11/01/2025",
    "licenseExpirationDate": "10/31/2026",
    "dataDate": "10/18/2025",
    "capacity": 6,
    "address": "1910 RHONDA ST",
    "city": "OXNARD",
    "zip": "93030",
    "county": "VENTURA",
    "phone": "(805) 659-1218",
    "lat": 34.220322,
    "lng": -119.1987585
  },
  {
    "id": "050000610",
    "name": "PELICAN HOME",
    "npi": "1467589614",
    "hcaiId": null,
    "businessName": "EPIPHANY CARE HOMES INC",
    "contactEmail": "MATTHEW@EPICARE.ORG",
    "categoryName": "INTERMEDIATE CARE FACILITY-DD/H/N/CN/IID",
    "categoryCode": "ICFDDH",
    "licenseStatus": "ACTIVE",
    "inService": true,
    "licenseNumber": "050000277",
    "licenseEffectiveDate": "11/01/2024",
    "licenseExpirationDate": "10/31/2025",
    "dataDate": "10/18/2025",
    "capacity": 6,
    "address": "1101 IVYWOOD DRIVE",
    "city": "OXNARD",
    "zip": "93030",
    "county": "VENTURA",
    "phone": "(805) 983-7601",
    "lat": 34.216245,
    "lng": -119.19024
  },
  {
    "id": "050000611",
    "name": "SANDPIPER HOME",
    "npi": "1194852988",
    "hcaiId": null,
    "businessName": "EPIPHANY CARE HOMES INC",
    "contactEmail": null,
    "categoryName": "INTERMEDIATE CARE FACILITY-DD/H/N/CN/IID",
    "categoryCode": "ICFDDH",
    "licenseStatus": "ACTIVE",
    "inService": true,
    "licenseNumber": "050000284",
    "licenseEffectiveDate": "11/01/2024",
    "licenseExpirationDate": "10/31/2025",
    "dataDate": "10/18/2025",
    "capacity": 6,
    "address": "1621 SOPHIA DRIVE",
    "city": "OXNARD",
    "zip": "93030",
    "county": "VENTURA",
    "phone": "(805) 983-7056",
    "lat": 34.217253,
    "lng": -119.1970935
  },
  {
    "id": "050000612",
    "name": "SEASHORE HOME",
    "npi": "1497882591",
    "hcaiId": null,
    "businessName": "EPIPHANY CARE HOMES INC",
    "contactEmail": "MATTHEW@EPICARE.ORG",
    "categoryName": "INTERMEDIATE CARE FACILITY-DD/H/N/CN/IID",
    "categoryCode": "ICFDDH",
    "licenseStatus": "ACTIVE",
    "inService": true,
    "licenseNumber": "050000287",
    "licenseEffectiveDate": "11/01/2025",
    "licenseExpirationDate": "10/31/2026",
    "dataDate": "10/18/2025",
    "capacity": 6,
    "address": "1260 WEST INDIGO PLACE",
    "city": "OXNARD",
    "zip": "93030",
    "county": "VENTURA",
    "phone": "(805) 983-3845",
    "lat": 34.21415573,
    "lng": -119.1692463
  },
  {
    "id": "630026838",
    "name": "ST JOHNS HOME TRAINING",
    "npi": null,
    "hcaiId": null,
    "businessName": null,
    "contactEmail": "CAL_C@DAVITA.COM",
    "categoryName": "CHRONIC DIALYSIS CLINIC",
    "categoryCode": "ESRD",
    "licenseStatus": null,
    "inService": null,
    "licenseNumber": null,
    "licenseEffectiveDate": null,
    "licenseExpirationDate": null,
    "dataDate": "10/18/2025",
    "capacity": 0,
    "address": "1700 N ROSE AVE, SUITE 370",
    "city": "OXNARD",
    "zip": "93030",
    "county": "VENTURA",
    "phone": "(615) 341-6282",
    "lat": 34.217361,
    "lng": -119.155509
  },
  {
    "id": "050000035",
    "name": "ST JOHNS REGIONAL MEDICAL CENTER",
    "npi": "1073665360",
    "hcaiId": "106560529",
    "businessName": "DIGNITY HEALTH",
    "contactEmail": "CINDY.CRISPIN@COMMONSPIRIT.ORG",
    "categoryName": "GENERAL ACUTE CARE HOSPITAL",
    "categoryCode": "GACH",
    "licenseStatus": "ACTIVE",
    "inService": true,
    "licenseNumber": "050000064",
    "licenseEffectiveDate": "11/28/2024",
    "licenseExpirationDate": "11/27/2025",
    "dataDate": "10/18/2025",
    "capacity": 241,
    "address": "1600 N ROSE AVE",
    "city": "OXNARD",
    "zip": "93030",
    "county": "VENTURA",
    "phone": "(805) 988-2701",
    "lat": 34.216551,
    "lng": -119.155626
  },
  {
    "id": "070001273",
    "name": "VENTURA COUNTY ADULT DAY HEALTH CARE",
    "npi": null,
    "hcaiId": null,
    "businessName": "REIMBURSEMENT CONSULTANTS INC.",
    "contactEmail": "OZ@OCEANMORTGAGEUSA.COM",
    "categoryName": "ADULT DAY HEALTH CARE",
    "categoryCode": "ADHC",
    "licenseStatus": "ACTIVE",
    "inService": true,
    "licenseNumber": "070000597",
    "licenseEffectiveDate": "03/25/2024",
    "licenseExpirationDate": "03/24/2025",
    "dataDate": "10/18/2025",
    "capacity": 0,
    "address": "1700 LOMBARD ST, SUITE 150",
    "city": "OXNARD",
    "zip": "93030",
    "county": "VENTURA",
    "phone": "(805) 278-4321",
    "lat": 34.217055,
    "lng": -119.1483765
  },
  {
    "id": "630024921",
    "name": "VENTURA NEUROSCIENCE CENTER",
    "npi": null,
    "hcaiId": null,
    "businessName": "PACIFIC CENTRAL COAST HEALTH CENTERS",
    "contactEmail": null,
    "categoryName": "PRIMARY CARE CLINIC",
    "categoryCode": "COMTYC",
    "licenseStatus": "ACTIVE",
    "inService": true,
    "licenseNumber": "050000415",
    "licenseEffectiveDate": "11/21/2024",
    "licenseExpirationDate": "11/20/2025",
    "dataDate": "10/18/2025",
    "capacity": 0,
    "address": "1700 N ROSE AVE, SUITE 470",
    "city": "OXNARD",
    "zip": "93030",
    "county": "VENTURA",
    "phone": null,
    "lat": 34.217361,
    "lng": -119.155509
  }
]