[
  {
    "id": "080001576",
    "name": "BMA OXNARD",
    "npi": "1750493557",
    "hcaiId": "306564068",
    "businessName": "BIO-MEDICAL APPLICATIONS OF CALIFORNIA INC.",
    "contactEmail": "CLINIC1754@FMC-NA.COM",
    "categoryName": "CHRONIC DIALYSIS CLINIC",
    "categoryCode": "ESRD/CDC",
    "licenseStatus": "ACTIVE",
    "inService": true,
    "licenseNumber": "080000670",
    "licenseEffectiveDate": "06/05/2025",
    "licenseExpirationDate": "06/04/2026",
    "dataDate": "10/18/2025",
    "capacity": 21,
    "address": "1801 HOLSER WALK, SUITE 310",
    "city": "OXNARD",
    "zip": "93036",
    "county": "VENTURA",
    "phone": "(805) 988-3339",
    "lat": 34.220808,
    "lng": -119.1567735
  },
  {
    "id": "630002061",
    "name": "CLINICAS DEL CAMINO REAL, INC. - KAREN R. BURNHAM HEALTH CENTER",
    "npi": "1093933194",
    "hcaiId": "306560700",
    "businessName": "CLINICAS DEL CAMINO REAL, INC.",
    "contactEmail": "EMAIL@CLINICAS.ORG",
    "categoryName": "PRIMARY CARE CLINIC",
    "categoryCode": "COMTYC",
    "licenseStatus": "ACTIVE",
    "inService": true,
    "licenseNumber": "550000025",
    "licenseEffectiveDate": "05/16/2025",
    "licenseExpirationDate": "05/15/2026",
    "dataDate": "10/18/2025",
    "capacity": 0,
    "address": "1100 W GONZALES RD",
    "city": "OXNARD",
    "zip": "93036",
    "county": "VENTURA",
    "phone": "(805) 988-0053",
    "lat": 34.21881,
    "lng": -119.1909915
  },
  {
    "id": "630012067",
    "name": "CLINICAS DEL CAMINO REAL, INC.-EL RIO",
    "npi": "1134369366",
    "hcaiId": "306560681",
    "businessName": "CLINICAS DEL CAMINO REAL, INC.",
    "contactEmail": "EMAIL@CLINICAS.ORG",
    "categoryName": "PRIMARY CARE CLINIC",
    "categoryCode": "COMTYC",
    "licenseStatus": "ACTIVE",
    "inService": true,
    "licenseNumber": "550000968",
    "licenseEffectiveDate": "04/13/2025",
    "licenseExpirationDate": "04/12/2026",
    "dataDate": "10/18/2025",
    "capacity": 0,
    "address": "2600 E VINEYARD AVE",
    "city": "OXNARD",
    "zip": "93036",
    "county": "VENTURA",
    "phone": "(805) 436-3444",
    "lat": 34.233444,
    "lng": -119.1700035
  },
  {
    "id": "630018263",
    "name": "DIGNITY HEALTH PERINATAL AND WOMEN'S CENTER - VENTURA",
    "npi": null,
    "hcaiId": "306560440",
    "businessName": "PACIFIC CENTRAL COAST HEALTH CENTERS",
    "contactEmail": "ROBERT.CARDONA@DIGNITYHEALTH.ORG",
    "categoryName": "PRIMARY CARE CLINIC",
    "categoryCode": "COMTYC",
    "licenseStatus": "ACTIVE",
    "inService": true,
    "licenseNumber": "050000415",
    "licenseEffectiveDate": "11/21/2024",
    "licenseExpirationDate": "11/20/2025",
    "dataDate": "10/18/2025",
    "capacity": 0,
    "address": "2901 N VENTURA RD, SUITE 110  & 120",
    "city": "OXNARD",
    "zip": "93036",
    "county": "VENTURA",
    "phone": "(213) 948-4579",
    "lat": 34.245207,
    "lng": -119.18196
  },
  {
    "id": "630027302",
    "name": "FRESENIUS KIDNEY CARE VENTURA COAST",
    "npi": "1740980358",
    "hcaiId": null,
    "businessName": "FRESENIUS MEDICAL CARE VENTURA COAST, LLC",
    "contactEmail": "CLINIC100993@FMC-C-NA.COM",
    "categoryName": "CHRONIC DIALYSIS CLINIC",
    "categoryCode": "ESRD/CDC",
    "licenseStatus": "ACTIVE",
    "inService": true,
    "licenseNumber": "550009084",
    "licenseEffectiveDate": "10/09/2025",
    "licenseExpirationDate": "10/08/2026",
    "dataDate": "10/18/2025",
    "capacity": 15,
    "address": "2200 OUTLET CENTER DR, SUITE 420",
    "city": "OXNARD",
    "zip": "93036",
    "county": "VENTURA",
    "phone": "(805) 718-7730",
    "lat": 34.222096,
    "lng": -119.14827
  },
  {
    "id": "630012490",
    "name": "JOHN K FLYNN COMMUNITY CLINIC",
    "npi": "1043451982",
    "hcaiId": null,
    "businessName": null,
    "contactEmail": null,
    "categoryName": "PRIMARY CARE CLINIC",
    "categoryCode": "FQHC",
    "licenseStatus": null,
    "inService": null,
    "licenseNumber": null,
    "licenseEffectiveDate": null,
    "licenseExpirationDate": null,
    "dataDate": "10/18/2025",
    "capacity": 0,
    "address": "3100 N ROSE AVE",
    "city": "OXNARD",
    "zip": "93036",
    "county": "VENTURA",
    "phone": null,
    "lat": 34.232553,
    "lng": -119.153718
  },
  {
    "id": "630012482",
    "name": "MAGNOLIA FAMILY MEDICAL CENTER",
    "npi": "1861633703",
    "hcaiId": null,
    "businessName": null,
    "contactEmail": null,
    "categoryName": "PRIMARY CARE CLINIC",
    "categoryCode": "FQHC",
    "licenseStatus": null,
    "inService": null,
    "licenseNumber": null,
    "licenseEffectiveDate": null,
    "licenseExpirationDate": null,
    "dataDate": "10/18/2025",
    "capacity": 0,
    "address": "2240 E GONZALES RD, SUITE 100",
    "city": "OXNARD",
    "zip": "93036",
    "county": "VENTURA",
    "phone": "(805) 981-5151",
    "lat": 34.218,
    "lng": -119.146923
  },
  {
    "id": "630015879",
    "name": "MAGNOLIA WEST",
    "npi": "1669738159",
    "hcaiId": null,
    "businessName": null,
    "contactEmail": null,
    "categoryName": "PRIMARY CARE CLINIC",
    "categoryCode": "FQHC",
    "licenseStatus": null,
    "inService": null,
    "licenseNumber": null,
    "licenseEffectiveDate": null,
    "licenseExpirationDate": null,
    "dataDate": "10/18/2025",
    "capacity": 0,
    "address": "2220 E.AST GONZALES ROAD, SUITE 120",
    "city": "OXNARD",
    "zip": "93036",
    "county": "VENTURA",
    "phone": "(805) 981-5151",
    "lat": 34.217982,
    "lng": -119.1477915
  },
  {
    "id": "630012489",
    "name": "MANDALAY BAY WOMEN & CHILDRENS",
    "npi": null,
    "hcaiId": null,
    "businessName": null,
    "contactEmail": null,
    "categoryName": "PRIMARY CARE CLINIC",
    "categoryCode": "FQHC",
    "licenseStatus": null,
    "inService": null,
    "licenseNumber": null,
    "licenseEffectiveDate": null,
    "licenseExpirationDate": null,
    "dataDate": "10/18/2025",
    "capacity": 0,
    "address": "2000 OUTLET CENTER DR, SUITE 110",
    "city": "OXNARD",
    "zip": "93036",
    "county": "VENTURA",
    "phone": null,
    "lat": 34.2216,
    "lng": -119.1476115
  },
  {
    "id": "050001464",
    "name": "MAXIM HEALTHCARE SERVICES INC",
    "npi": "1417065699",
    "hcaiId": "406564132",
    "businessName": "MAXIM HEALTHCARE SERVICES, INC.",
    "contactEmail": "OXNARDOFFICE@MAXHEALTH.COM",
    "categoryName": "HOME HEALTH AGENCY",
    "categoryCode": "HHA",
    "licenseStatus": "ACTIVE",
    "inService": true,
    "licenseNumber": "050000590",
    "licenseEffectiveDate": "08/20/2025",
    "licenseExpirationDate": "11/19/2025",
    "dataDate": "10/18/2025",
    "capacity": 0,
    "address": "300 E ESPLANADE DR, SUITE 1500",
    "city": "OXNARD",
    "zip": "93036",
    "county": "VENTURA",
    "phone": "(805) 278-4593",
    "lat": 34.22833524,
    "lng": -119.1745473
  },
  {
    "id": "050000697",
    "name": "MISSION HOME HEALTH OF VENTURA, LLC",
    "npi": "1871965970",
    "hcaiId": "406564040",
    "businessName": "MISSION HOME HEALTH OF VENTURA, LLC",
    "contactEmail": "ALARSON@MISSIONHH.COM",
    "categoryName": "HOME HEALTH AGENCY",
    "categoryCode": "HHA",
    "licenseStatus": "ACTIVE",
    "inService": true,
    "licenseNumber": "050000306",
    "licenseEffectiveDate": "08/26/2025",
    "licenseExpirationDate": "08/25/2026",
    "dataDate": "10/18/2025",
    "capacity": 0,
    "address": "2775 N VENTURA RD, SUITE 100",
    "city": "OXNARD",
    "zip": "93036",
    "county": "VENTURA",
    "phone": "(805) 289-9999",
    "lat": 34.243947,
    "lng": -119.1839895
  },
  {
    "id": "630014157",
    "name": "MISSION HOSPICE OF VENTURA, LLC",
    "npi": "1912568932",
    "hcaiId": "406564238",
    "businessName": "MISSION HOSPICE OF VENTURA, LLC",
    "contactEmail": "G.PINERO@MISSIONHH.COM",
    "categoryName": "HOSPICE",
    "categoryCode": "HOSPICE",
    "licenseStatus": "ACTIVE",
    "inService": true,
    "licenseNumber": "550002230",
    "licenseEffectiveDate": "04/03/2025",
    "licenseExpirationDate": "04/02/2027",
    "dataDate": "10/18/2025",
    "capacity": 0,
    "address": "2775 N VENTURA RD, SUITE 100A",
    "city": "OXNARD",
    "zip": "93036",
    "county": "VENTURA",
    "phone": "(855) 848-5433",
    "lat": 34.243947,
    "lng": -119.1839895
  },
  {
    "id": "630012992",
    "name": "OXNARD DIALYSIS",
    "npi": "1629388855",
    "hcaiId": "306564124",
    "businessName": "TOTAL RENAL CARE, INC.",
    "contactEmail": "CAL_C@DAVITA.COM",
    "categoryName": "CHRONIC DIALYSIS CLINIC",
    "categoryCode": "CDC",
    "licenseStatus": "ACTIVE",
    "inService": true,
    "licenseNumber": "550001596",
    "licenseEffectiveDate": "06/01/2025",
    "licenseExpirationDate": "05/31/2026",
    "dataDate": "10/18/2025",
    "capacity": 20,
    "address": "1900 OUTLET CENTER DR",
    "city": "OXNARD",
    "zip": "93036",
    "county": "VENTURA",
    "phone": "(805) 278-3815",
    "lat": 34.21998,
    "lng": -119.148048
  },
  {
    "id": "070001277",
    "name": "OXNARD FAMILY CIRCLE ADULT DAY HEALTH CARE CENTER",
    "npi": null,
    "hcaiId": null,
    "businessName": "FAMILY CIRCLE, INC.",
    "contactEmail": "INFO@OXNARDFAMILYCIRCLE.COM",
    "categoryName": "ADULT DAY HEALTH CARE",
    "categoryCode": "ADHC",
    "licenseStatus": "ACTIVE",
    "inService": true,
    "licenseNumber": "070000601",
    "licenseEffectiveDate": "11/01/2025",
    "licenseExpirationDate": "10/31/2026",
    "dataDate": "10/18/2025",
    "capacity": 0,
    "address": "2100 OUTLET CENTER DR, SUITE 370",
    "city": "OXNARD",
    "zip": "93036",
    "county": "VENTURA",
    "phone": "(805) 385-4180",
    "lat": 34.222401,
    "lng": -119.1467655
  },
  {
    "id": "050000058",
    "name": "OXNARD MANOR HEALTHCARE CENTER",
    "npi": "1912992264",
    "hcaiId": "206560503",
    "businessName": "OXNARD MANOR, LP",
    "contactEmail": "ADMINISTRATOR@OXNARDHC.COM",
    "categoryName": "SKILLED NURSING FACILITY",
    "categoryCode": "SNF",
    "licenseStatus": "ACTIVE",
    "inService": true,
    "licenseNumber": "050000129",
    "licenseEffectiveDate": "02/01/2025",
    "licenseExpirationDate": "01/31/2026",
    "dataDate": "10/18/2025",
    "capacity": 82,
    "address": "1400 W GONZALES RD",
    "city": "OXNARD",
    "zip": "93036",
    "county": "VENTURA",
    "phone": "(805) 983-0324",
    "lat": 34.218846,
    "lng": -119.1933765
  },
  {
    "id": "630013816",
    "name": "SOLAR SURGICAL CENTER, LLC",
    "npi": "1700162054",
    "hcaiId": null,
    "businessName": null,
    "contactEmail": null,
    "categoryName": "SURGICAL CLINIC",
    "categoryCode": "ASC",
    "licenseStatus": null,
    "inService": null,
    "licenseNumber": null,
    "licenseEffectiveDate": null,
    "licenseExpirationDate": null,
    "dataDate": "10/18/2025",
    "capacity": 0,
    "address": "1901 SOLAR DR, SUITE 100",
    "city": "OXNARD",
    "zip": "93036",
    "county": "VENTURA",
    "phone": "(805) 485-4345",
    "lat": 34.219494,
    "lng": -119.1460095
  },
  {
    "id": "630018255",
    "name": "WEST COAST SURGICAL CENTER",
    "npi": "1306375837",
    "hcaiId": null,
    "businessName": null,
    "contactEmail": "CHRISTINE@WESTCOASTVASCULAR.COM",
    "categoryName": "SURGICAL CLINIC",
    "categoryCode": "ASC",
    "licenseStatus": null,
    "inService": null,
    "licenseNumber": null,
    "licenseEffectiveDate": null,
    "licenseExpirationDate": null,
    "dataDate": "10/18/2025",
    "capacity": 0,
    "address": "2000 OUTLET CENTER DR, SUITE 225",
    "city": "OXNARD",
    "zip": "93036",
    "county": "VENTURA",
    "phone": "(805) 643-3330",
    "lat": 34.220727,
    "lng": -119.146689
  }
]