[
  {
    "id": "630017501",
    "name": "A-Z HOSPICE INC.",
    "npi": "1609360536",
    "hcaiId": "406561556",
    "businessName": "A-Z HOSPICE INC",
    "contactEmail": "INFO@A-ZHOSPICE.COM",
    "categoryName": "HOSPICE",
    "categoryCode": "HOSPICE",
    "licenseStatus": "ACTIVE",
    "inService": true,
    "licenseNumber": "550004522",
    "licenseEffectiveDate": "01/24/2023",
    "licenseExpirationDate": "01/23/2025",
    "dataDate": "10/18/2025",
    "capacity": 0,
    "address": "1445 E LOS ANGELES AVE, SUITE 301-D",
    "city": "SIMI VALLEY",
    "zip": "93065",
    "county": "VENTURA",
    "phone": "(805) 380-2550",
    "lat": 34.272207,
    "lng": -118.771632
  },
  {
    "id": "050000101",
    "name": "ADVENTIST HEALTH HOME CARE SERVICES",
    "npi": null,
    "hcaiId": "406564169",
    "businessName": "WESTERN HEALTH RESOURCES",
    "contactEmail": "ALARIOSL@AH.ORG",
    "categoryName": "HOME HEALTH AGENCY",
    "categoryCode": "HHA",
    "licenseStatus": "ACTIVE",
    "inService": true,
    "licenseNumber": "050000004",
    "licenseEffectiveDate": "05/18/2025",
    "licenseExpirationDate": "05/17/2026",
    "dataDate": "10/18/2025",
    "capacity": 0,
    "address": "2796 SYCAMORE DR, SUITE 100",
    "city": "SIMI VALLEY",
    "zip": "93065",
    "county": "VENTURA",
    "phone": "(805) 955-8190",
    "lat": 34.28599347,
    "lng": -118.7432333
  },
  {
    "id": "050000455",
    "name": "ADVENTIST HEALTH SIMI VALLEY",
    "npi": "1063495190",
    "hcaiId": "106560525",
    "businessName": "SIMI VALLEY HOSPITAL AND HEALTH CARE SERVICES",
    "contactEmail": "PRICEDE@AH.ORG",
    "categoryName": "GENERAL ACUTE CARE HOSPITAL",
    "categoryCode": "GACH",
    "licenseStatus": "ACTIVE",
    "inService": true,
    "licenseNumber": "050000216",
    "licenseEffectiveDate": "11/01/2025",
    "licenseExpirationDate": "10/31/2026",
    "dataDate": "10/18/2025",
    "capacity": 136,
    "address": "2975 SYCAMORE DRIVE",
    "city": "SIMI VALLEY",
    "zip": "93065",
    "county": "VENTURA",
    "phone": "(805) 955-6898",
    "lat": 34.289226,
    "lng": -118.747026
  },
  {
    "id": "630022158",
    "name": "ALL STATE HOSPICE CARE, INC.",
    "npi": null,
    "hcaiId": "406565191",
    "businessName": "ALL STATE HOSPICE CARE, INC.",
    "contactEmail": "ALLSTATEHOSPICE21@GMAIL.COM",
    "categoryName": "HOSPICE",
    "categoryCode": "HOSPICE",
    "licenseStatus": "ACTIVE",
    "inService": true,
    "licenseNumber": "550007520",
    "licenseEffectiveDate": "12/16/2023",
    "licenseExpirationDate": "12/15/2025",
    "dataDate": "10/18/2025",
    "capacity": 0,
    "address": "45 W EASY ST, SUITE 21",
    "city": "SIMI VALLEY",
    "zip": "93065",
    "county": "VENTURA",
    "phone": "(818) 855-9088",
    "lat": 34.279488,
    "lng": -118.7980155
  },
  {
    "id": "630018002",
    "name": "AMAG HOSPICE, INC.",
    "npi": null,
    "hcaiId": "406561821",
    "businessName": "AMAG HOSPICE, INC.",
    "contactEmail": "AMAGHOSPICE@YAHOO.COM",
    "categoryName": "HOSPICE",
    "categoryCode": "HOSPICE",
    "licenseStatus": "ACTIVE",
    "inService": true,
    "licenseNumber": "550004912",
    "licenseEffectiveDate": "09/07/2023",
    "licenseExpirationDate": "09/06/2025",
    "dataDate": "10/18/2025",
    "capacity": 0,
    "address": "1736 ERRINGER RD, SUITE 106",
    "city": "SIMI VALLEY",
    "zip": "93065",
    "county": "VENTURA",
    "phone": "(818) 967-7413",
    "lat": 34.268805,
    "lng": -118.760445
  },
  {
    "id": "050000502",
    "name": "ASPEN SURGERY CENTER",
    "npi": "1992788384",
    "hcaiId": "306564012",
    "businessName": "SIMI VALLEY HOSPITAL & HEALTH CARE SERVICES",
    "contactEmail": null,
    "categoryName": "SURGICAL CLINIC",
    "categoryCode": "ASC",
    "licenseStatus": "INACTIVE - CAPEN DECISION",
    "inService": false,
    "licenseNumber": "050000229",
    "licenseEffectiveDate": "01/01/2010",
    "licenseExpirationDate": "12/31/2010",
    "dataDate": "10/18/2025",
    "capacity": 0,
    "address": "2750 SYCAMORE DR",
    "city": "SIMI VALLEY",
    "zip": "93065",
    "county": "VENTURA",
    "phone": "(805) 955-8160",
    "lat": 34.285041,
    "lng": -118.743273
  },
  {
    "id": "630025449",
    "name": "AT PEACE HOME HEALTH, INC.",
    "npi": null,
    "hcaiId": "406567942",
    "businessName": "AT PEACE HOME HEALTH, INC.",
    "contactEmail": "ATPEACEHH@GMAIL.COM",
    "categoryName": "HOME HEALTH AGENCY",
    "categoryCode": "HHA",
    "licenseStatus": "ACTIVE",
    "inService": true,
    "licenseNumber": "550008743",
    "licenseEffectiveDate": "09/25/2025",
    "licenseExpirationDate": "09/24/2026",
    "dataDate": "10/18/2025",
    "capacity": 0,
    "address": "1633 ERRINGER RD, SUITE 201D",
    "city": "SIMI VALLEY",
    "zip": "93065",
    "county": "VENTURA",
    "phone": "(805) 300-0859",
    "lat": 34.268166,
    "lng": -118.761975
  },
  {
    "id": "630026542",
    "name": "BETTER TOMORROW HOME HEALTH",
    "npi": null,
    "hcaiId": "406560024",
    "businessName": "BETTER TOMORROW HOME HEALTH",
    "contactEmail": "BETTERTOMORROWHH@GMAIL.COM",
    "categoryName": "HOME HEALTH AGENCY",
    "categoryCode": "HHA",
    "licenseStatus": "ACTIVE",
    "inService": true,
    "licenseNumber": "550008958",
    "licenseEffectiveDate": "02/22/2025",
    "licenseExpirationDate": "02/21/2026",
    "dataDate": "10/18/2025",
    "capacity": 0,
    "address": "1720 E LOS ANGELES AVE, SUITE 235",
    "city": "SIMI VALLEY",
    "zip": "93065",
    "county": "VENTURA",
    "phone": "(805) 399-7181",
    "lat": 34.270992,
    "lng": -118.765494
  },
  {
    "id": "630020652",
    "name": "CALI CARE HOME HEALTH, INC",
    "npi": null,
    "hcaiId": "406563180",
    "businessName": "CALI CARE HOME HEALTH, INC",
    "contactEmail": "CALICAREINC@GMAIL.COM",
    "categoryName": "HOME HEALTH AGENCY",
    "categoryCode": "HHA",
    "licenseStatus": "ACTIVE",
    "inService": true,
    "licenseNumber": "550007010",
    "licenseEffectiveDate": "05/19/2025",
    "licenseExpirationDate": "10/20/2025",
    "dataDate": "10/18/2025",
    "capacity": 0,
    "address": "1464 E LOS ANGELES AVE, SUITE 5",
    "city": "SIMI VALLEY",
    "zip": "93065",
    "county": "VENTURA",
    "phone": "(805) 422-8008",
    "lat": 34.271676,
    "lng": -118.7706645
  },
  {
    "id": "630019119",
    "name": "CAPITAL HOSPICE, INC.",
    "npi": "1609438720",
    "hcaiId": "406562545",
    "businessName": "CAPITAL HOSPICE, INC.",
    "contactEmail": "CAPITALHOSPICEINC@GMAIL.COM",
    "categoryName": "HOSPICE",
    "categoryCode": "HOSPICE",
    "licenseStatus": "ACTIVE",
    "inService": true,
    "licenseNumber": "550005410",
    "licenseEffectiveDate": "03/03/2024",
    "licenseExpirationDate": "03/02/2026",
    "dataDate": "10/18/2025",
    "capacity": 0,
    "address": "1445 E LOS ANGELES AVE, SUITE 301F",
    "city": "SIMI VALLEY",
    "zip": "93065",
    "county": "VENTURA",
    "phone": "(805) 842-1052",
    "lat": 34.272207,
    "lng": -118.771632
  },
  {
    "id": "630025483",
    "name": "CARE MORE HOME HEALTH INC.",
    "npi": null,
    "hcaiId": "406560022",
    "businessName": "CARE MORE HOME HEALTH INC.",
    "contactEmail": "CAREMOREHOMEHEALTH@GMAIL.COM",
    "categoryName": "HOME HEALTH AGENCY",
    "categoryCode": "HHA",
    "licenseStatus": "ACTIVE",
    "inService": true,
    "licenseNumber": "550008933",
    "licenseEffectiveDate": "01/11/2025",
    "licenseExpirationDate": "01/10/2026",
    "dataDate": "10/18/2025",
    "capacity": 0,
    "address": "45 W EASY ST, SUITE 15",
    "city": "SIMI VALLEY",
    "zip": "93065",
    "county": "VENTURA",
    "phone": "(820) 400-2220",
    "lat": 34.279488,
    "lng": -118.7980155
  },
  {
    "id": "980001811",
    "name": "CAREMAX HOME HEALTH",
    "npi": "1548651961",
    "hcaiId": "406564272",
    "businessName": "CORNERSTONE HEALTHCARE SOLUTIONS INC.",
    "contactEmail": "MARITZA@CAREMAXHH.COM",
    "categoryName": "HOME HEALTH AGENCY",
    "categoryCode": "HHA",
    "licenseStatus": "ACTIVE",
    "inService": true,
    "licenseNumber": "980001038",
    "licenseEffectiveDate": "01/25/2025",
    "licenseExpirationDate": "01/24/2026",
    "dataDate": "10/18/2025",
    "capacity": 0,
    "address": "980 ENCHANTED WAY, SUITE 201AB",
    "city": "SIMI VALLEY",
    "zip": "93065",
    "county": "VENTURA",
    "phone": "(805) 558-4603",
    "lat": 34.28345099,
    "lng": -118.783911
  },
  {
    "id": "630013387",
    "name": "CLINICAS DEL CAMINO REAL, INC.-SIMI VALLEY",
    "npi": null,
    "hcaiId": "306564234",
    "businessName": "CLINICAS DEL CAMINO REAL, INC.",
    "contactEmail": "EMAIL@CLINCAS.ORG",
    "categoryName": "PRIMARY CARE CLINIC",
    "categoryCode": "COMTYC",
    "licenseStatus": "ACTIVE",
    "inService": true,
    "licenseNumber": "550001837",
    "licenseEffectiveDate": "01/28/2025",
    "licenseExpirationDate": "01/27/2026",
    "dataDate": "10/18/2025",
    "capacity": 0,
    "address": "1424 MADERA RD",
    "city": "SIMI VALLEY",
    "zip": "93065",
    "county": "VENTURA",
    "phone": "(805) 522-5722",
    "lat": 34.2648,
    "lng": -118.7957115
  },
  {
    "id": "630015137",
    "name": "COCHRAN CONGREGATE LIVING, INC.",
    "npi": null,
    "hcaiId": "206564270",
    "businessName": "COCHRAN CONGREGATE LIVING, INC.",
    "contactEmail": "COCHRANCLHF@GMAIL.COM",
    "categoryName": "CONGREGATE LIVING HEALTH FACILITY",
    "categoryCode": "CLHF",
    "licenseStatus": "ACTIVE",
    "inService": true,
    "licenseNumber": "550003344",
    "licenseEffectiveDate": "12/10/2024",
    "licenseExpirationDate": "12/09/2025",
    "dataDate": "10/18/2025",
    "capacity": 6,
    "address": "1378 COCHRAN ST",
    "city": "SIMI VALLEY",
    "zip": "93065",
    "county": "VENTURA",
    "phone": "(805) 842-2919",
    "lat": 34.27875,
    "lng": -118.7725545
  },
  {
    "id": "630016658",
    "name": "COMFORT HOME HEALTH INC",
    "npi": "1962953174",
    "hcaiId": "406560670",
    "businessName": "COMFORT HOME HEALTH INC.",
    "contactEmail": "CCOMFORTHOMEHEALTHINC@GMAIL.COM",
    "categoryName": "HOME HEALTH AGENCY",
    "categoryCode": "HHA",
    "licenseStatus": "ACTIVE",
    "inService": true,
    "licenseNumber": "550004163",
    "licenseEffectiveDate": "03/02/2025",
    "licenseExpirationDate": "03/01/2026",
    "dataDate": "10/18/2025",
    "capacity": 0,
    "address": "2345 ERRINGER RD, SUITE 214B",
    "city": "SIMI VALLEY",
    "zip": "93065",
    "county": "VENTURA",
    "phone": "(805) 791-3201",
    "lat": 34.278066,
    "lng": -118.7623575
  },
  {
    "id": "630015642",
    "name": "COMFORTING CARE HOSPICE, INC.",
    "npi": "1558766089",
    "hcaiId": "406564273",
    "businessName": "COMFORTING CARE HOSPICE, INC.",
    "contactEmail": "COMFORTINGCAREHOSPICE@YAHOO.COM",
    "categoryName": "HOSPICE",
    "categoryCode": "HOSPICE",
    "licenseStatus": "ACTIVE",
    "inService": true,
    "licenseNumber": "550003400",
    "licenseEffectiveDate": "02/19/2024",
    "licenseExpirationDate": "02/18/2026",
    "dataDate": "10/18/2025",
    "capacity": 0,
    "address": "2345 ERRINGER RD, SUITE 225",
    "city": "SIMI VALLEY",
    "zip": "93065",
    "county": "VENTURA",
    "phone": "(805) 522-5234",
    "lat": 34.278066,
    "lng": -118.7623575
  },
  {
    "id": "050001477",
    "name": "COMMUNITY PREGNANCY CLINIC",
    "npi": "1215149729",
    "hcaiId": "306564249",
    "businessName": "COMMUNITY PREGNANCY CLINIC",
    "contactEmail": "OFFICE@CPCSIMI.ORG",
    "categoryName": "PRIMARY CARE CLINIC",
    "categoryCode": "COMTYC",
    "licenseStatus": "ACTIVE",
    "inService": true,
    "licenseNumber": "550000022",
    "licenseEffectiveDate": "05/03/2025",
    "licenseExpirationDate": "05/02/2026",
    "dataDate": "10/18/2025",
    "capacity": 0,
    "address": "2045 ROYAL AVE, SUITE 208",
    "city": "SIMI VALLEY",
    "zip": "93065",
    "county": "VENTURA",
    "phone": "(805) 583-3598",
    "lat": 34.261515,
    "lng": -118.7576505
  },
  {
    "id": "630016732",
    "name": "COMPASSIONATE HOSPICE, INC.",
    "npi": null,
    "hcaiId": "406564289",
    "businessName": "COMPASSIONATE HOSPICE, INC.",
    "contactEmail": "INFO@COMPASSIONATEHIC.COM",
    "categoryName": "HOSPICE",
    "categoryCode": "HOSPICE",
    "licenseStatus": "ACTIVE",
    "inService": true,
    "licenseNumber": "550003706",
    "licenseEffectiveDate": "10/31/2022",
    "licenseExpirationDate": "10/30/2024",
    "dataDate": "10/18/2025",
    "capacity": 0,
    "address": "45 W. EASY STREET, SUITE #9",
    "city": "SIMI VALLEY",
    "zip": "93065",
    "county": "VENTURA",
    "phone": "(805) 520-6074",
    "lat": 34.279488,
    "lng": -118.7980155
  },
  {
    "id": "630027209",
    "name": "COMPLETE CARE COMMUNITY HEALTH CENTER - SIMI VALLEY",
    "npi": "1215113964",
    "hcaiId": null,
    "businessName": "COMPLETE CARE COMMUNITY HEALTH CENTER, INC.",
    "contactEmail": null,
    "categoryName": "PRIMARY CARE CLINIC",
    "categoryCode": "COMTYC",
    "licenseStatus": "ACTIVE",
    "inService": true,
    "licenseNumber": "550000639",
    "licenseEffectiveDate": "12/10/2024",
    "licenseExpirationDate": "12/09/2025",
    "dataDate": "10/18/2025",
    "capacity": 0,
    "address": "1350 E LOS ANGELES AVE, SUITE 100",
    "city": "SIMI VALLEY",
    "zip": "93065",
    "county": "VENTURA",
    "phone": null,
    "lat": 34.27136801,
    "lng": -118.772931
  },
  {
    "id": "630013173",
    "name": "D'MISSION HOME HEALTH SERVICES INC",
    "npi": "1558599571",
    "hcaiId": "406564226",
    "businessName": "D'MISSION HOME HEALTH SERVICES INC",
    "contactEmail": "DMISSIONHH@GMAIL.COM",
    "categoryName": "HOME HEALTH AGENCY",
    "categoryCode": "HHA",
    "licenseStatus": "ACTIVE",
    "inService": true,
    "licenseNumber": "550001839",
    "licenseEffectiveDate": "02/06/2025",
    "licenseExpirationDate": "02/05/2026",
    "dataDate": "10/18/2025",
    "capacity": 0,
    "address": "1445 E LOS ANGELES AVE, SUITE 301 X",
    "city": "SIMI VALLEY",
    "zip": "93065",
    "county": "VENTURA",
    "phone": "(805) 624-2539",
    "lat": 34.272207,
    "lng": -118.771632
  },
  {
    "id": "630016170",
    "name": "DELUXE HEALTH CARE SERVICES, INC.",
    "npi": "1487036505",
    "hcaiId": "406560866",
    "businessName": "DELUXE HEALTH CARE SERVICES, INC.",
    "contactEmail": "DELUXEHEALTHCARESERVICES@GMAIL.COM",
    "categoryName": "HOME HEALTH AGENCY",
    "categoryCode": "HHA",
    "licenseStatus": "ACTIVE",
    "inService": true,
    "licenseNumber": "550004214",
    "licenseEffectiveDate": "04/17/2025",
    "licenseExpirationDate": "04/16/2026",
    "dataDate": "10/18/2025",
    "capacity": 0,
    "address": "585 E. LOS ANGELES  AVE., SUITE G",
    "city": "SIMI VALLEY, CA",
    "zip": "93065",
    "county": "VENTURA",
    "phone": "(818) 388-6030",
    "lat": 34.2723,
    "lng": -118.785811
  },
  {
    "id": "630003221",
    "name": "DIVINE CARE HOME HEALTH SERVICES INC",
    "npi": "1063616563",
    "hcaiId": "406564166",
    "businessName": "DIVINE CARE HOME HEALTH SERVICES",
    "contactEmail": "DIVINECAREHH@YAHOO.COM",
    "categoryName": "HOME HEALTH AGENCY",
    "categoryCode": "HHA",
    "licenseStatus": "ACTIVE",
    "inService": true,
    "licenseNumber": "550000521",
    "licenseEffectiveDate": "02/23/2025",
    "licenseExpirationDate": "02/22/2026",
    "dataDate": "10/18/2025",
    "capacity": 0,
    "address": "1716 ERRINGER RD, SUITE 106",
    "city": "SIMI VALLEY",
    "zip": "93065",
    "county": "VENTURA",
    "phone": "(805) 578-9481",
    "lat": 34.269012,
    "lng": -118.760346
  },
  {
    "id": "630020797",
    "name": "DM SINALOA LLC",
    "npi": null,
    "hcaiId": null,
    "businessName": "DM SINALOA LLC",
    "contactEmail": "DMSINALOA@GMAIL.COM",
    "categoryName": "CONGREGATE LIVING HEALTH FACILITY",
    "categoryCode": "CLHF",
    "licenseStatus": "ACTIVE",
    "inService": true,
    "licenseNumber": "550006743",
    "licenseEffectiveDate": "08/31/2025",
    "licenseExpirationDate": "08/30/2026",
    "dataDate": "10/18/2025",
    "capacity": 6,
    "address": "1432 SINALOA RD",
    "city": "SIMI VALLEY",
    "zip": "93065",
    "county": "VENTURA",
    "phone": "(805) 285-0022",
    "lat": 34.265214,
    "lng": -118.787337
  },
  {
    "id": "050000130",
    "name": "FREE CLINIC OF SIMI VALLEY",
    "npi": null,
    "hcaiId": "306560658",
    "businessName": "FREE CLINIC OF SIMI VALLEY",
    "contactEmail": "LICENSE@FREECLINICSV.COM",
    "categoryName": "PRIMARY CARE CLINIC",
    "categoryCode": "FREEC",
    "licenseStatus": "ACTIVE",
    "inService": true,
    "licenseNumber": "050000088",
    "licenseEffectiveDate": "11/01/2025",
    "licenseExpirationDate": "10/31/2026",
    "dataDate": "10/18/2025",
    "capacity": 0,
    "address": "2003 ROYAL AVE",
    "city": "SIMI VALLEY",
    "zip": "93065",
    "county": "VENTURA",
    "phone": "(805) 522-3733",
    "lat": 34.263054,
    "lng": -118.7583435
  },
  {
    "id": "630025481",
    "name": "GLOBALCARE HEALTH LLC",
    "npi": null,
    "hcaiId": null,
    "businessName": "GLOBALCARE HEALTH LLC",
    "contactEmail": "AGLOBALCAREHEALTH@GMAIL.COM",
    "categoryName": "HOME HEALTH AGENCY",
    "categoryCode": "HHA",
    "licenseStatus": "ACTIVE",
    "inService": true,
    "licenseNumber": "550008970",
    "licenseEffectiveDate": "02/16/2025",
    "licenseExpirationDate": "02/15/2026",
    "dataDate": "10/18/2025",
    "capacity": 0,
    "address": "45 W EASY ST, SUITE 22",
    "city": "SIMI VALLEY",
    "zip": "93065",
    "county": "VENTURA",
    "phone": "(805) 424-1874",
    "lat": 34.279488,
    "lng": -118.7980155
  },
  {
    "id": "050001462",
    "name": "GUARDIAN ANGEL HOME HEALTH AGENCY INC",
    "npi": "1154381267",
    "hcaiId": "406564130",
    "businessName": "GUARDIAN ANGEL HOME HEALTH AGENCY INC",
    "contactEmail": "JACKPONO@ICLOUD.COM",
    "categoryName": "HOME HEALTH AGENCY",
    "categoryCode": "HHA",
    "licenseStatus": "ACTIVE",
    "inService": true,
    "licenseNumber": "050000588",
    "licenseEffectiveDate": "11/13/2024",
    "licenseExpirationDate": "11/12/2025",
    "dataDate": "10/18/2025",
    "capacity": 0,
    "address": "980 ENCHANTED WAY, SUITE 206",
    "city": "SIMI VALLEY",
    "zip": "93065",
    "county": "VENTURA",
    "phone": "(805) 581-0244",
    "lat": 34.283493,
    "lng": -118.783845
  },
  {
    "id": "630014734",
    "name": "GUARDIAN ANGEL HOSPICE, INC.",
    "npi": "1912338518",
    "hcaiId": "406564255",
    "businessName": "HOSPICE AND HOME CARE, INC.",
    "contactEmail": "MYHOSPICECARE@GMAIL.COM",
    "categoryName": "HOSPICE",
    "categoryCode": "HOSPICE",
    "licenseStatus": "ACTIVE",
    "inService": true,
    "licenseNumber": "550002736",
    "licenseEffectiveDate": "06/30/2024",
    "licenseExpirationDate": "06/29/2026",
    "dataDate": "10/18/2025",
    "capacity": 0,
    "address": "980 ENCHANTED WAY, SUITE 210",
    "city": "SIMI VALLEY",
    "zip": "93065",
    "county": "VENTURA",
    "phone": "(805) 500-8079",
    "lat": 34.283493,
    "lng": -118.783845
  },
  {
    "id": "630011870",
    "name": "HEARTEN HOME HEALTH INC.",
    "npi": "1114182870",
    "hcaiId": "406564191",
    "businessName": "HEARTEN HOME HEALTH INC.",
    "contactEmail": "SEA101A@YAHOO.COM",
    "categoryName": "HOME HEALTH AGENCY",
    "categoryCode": "HHA",
    "licenseStatus": "ACTIVE",
    "inService": true,
    "licenseNumber": "550000910",
    "licenseEffectiveDate": "08/22/2025",
    "licenseExpirationDate": "08/21/2026",
    "dataDate": "10/18/2025",
    "capacity": 0,
    "address": "1720 E LOS ANGELES AVE, SUITE 217",
    "city": "SIMI VALLEY",
    "zip": "93065",
    "county": "VENTURA",
    "phone": "(805) 578-2327",
    "lat": 34.271145,
    "lng": -118.7653365
  },
  {
    "id": "630015684",
    "name": "HEAVENLY GATES HOSPICE, INC.",
    "npi": "1780081554",
    "hcaiId": "406564271",
    "businessName": "HEAVENLY GATES HOSPICE, INC.",
    "contactEmail": "EDAY_VINCECRUZ@YAHOO.COM",
    "categoryName": "HOSPICE",
    "categoryCode": "HOSPICE",
    "licenseStatus": "ACTIVE",
    "inService": true,
    "licenseNumber": "550003357",
    "licenseEffectiveDate": "01/25/2024",
    "licenseExpirationDate": "01/24/2026",
    "dataDate": "10/18/2025",
    "capacity": 0,
    "address": "1720 EAST LOS ANGELES AVENUE, SUITE 230-232",
    "city": "SIMI VALLEY",
    "zip": "93065",
    "county": "VENTURA",
    "phone": "(323) 578-3894",
    "lat": 34.271145,
    "lng": -118.7653365
  },
  {
    "id": "630019361",
    "name": "HOSEAH HOSPICE & PALLIATIVE CARE, INC.",
    "npi": null,
    "hcaiId": "406562563",
    "businessName": "HOSEAH HOSPICE & PALLIATIVE CARE, INC.",
    "contactEmail": "HOSEAHHOSPICE@GMAIL.COM",
    "categoryName": "HOSPICE",
    "categoryCode": "HOSPICE",
    "licenseStatus": "ACTIVE",
    "inService": true,
    "licenseNumber": "550005409",
    "licenseEffectiveDate": "03/02/2022",
    "licenseExpirationDate": "03/01/2024",
    "dataDate": "10/18/2025",
    "capacity": 0,
    "address": "250 E EASY ST, SUITE 6A",
    "city": "SIMI VALLEY",
    "zip": "93065",
    "county": "VENTURA",
    "phone": "(818) 748-9959",
    "lat": 34.277922,
    "lng": -118.79379
  },
  {
    "id": "630005041",
    "name": "HOSPICE CARE OF THE VALLEY INC",
    "npi": "1295951622",
    "hcaiId": "406564146",
    "businessName": "HOSPICE CARE OF THE VALLEY INC",
    "contactEmail": "HCOV@SBCGLOBAL.NET",
    "categoryName": "HOSPICE",
    "categoryCode": "HOSPICE",
    "licenseStatus": "ACTIVE",
    "inService": true,
    "licenseNumber": "550000186",
    "licenseEffectiveDate": "06/07/2024",
    "licenseExpirationDate": "06/06/2026",
    "dataDate": "10/18/2025",
    "capacity": 0,
    "address": "1176 ROADRUNNER WAY",
    "city": "SIMI VALLEY",
    "zip": "93065",
    "county": "VENTURA",
    "phone": "(805) 520-7055",
    "lat": 34.260183,
    "lng": -118.795176
  },
  {
    "id": "630018510",
    "name": "HOSPITALITY HOSPICE CARE, INC.",
    "npi": "1851859359",
    "hcaiId": "406562147",
    "businessName": "HOSPITALITY HOSPICE CARE, INC.",
    "contactEmail": "HOSPITALITYHOSPICECARE@GMAIL.COM",
    "categoryName": "HOSPICE",
    "categoryCode": "HOSPICE",
    "licenseStatus": "ACTIVE",
    "inService": true,
    "licenseNumber": "550005167",
    "licenseEffectiveDate": "12/03/2023",
    "licenseExpirationDate": "12/02/2025",
    "dataDate": "10/18/2025",
    "capacity": 0,
    "address": "1420 E LOS ANGELES AVE, SUITE 204A",
    "city": "SIMI VALLEY",
    "zip": "93065",
    "county": "VENTURA",
    "phone": "(805) 261-0011",
    "lat": 34.271217,
    "lng": -118.771587
  },
  {
    "id": "630011618",
    "name": "JUBILEE HOME HEALTH CARE INC",
    "npi": "1235319062",
    "hcaiId": "406564185",
    "businessName": "JUBILEE HOME HEALTH CARE INC",
    "contactEmail": "JUBILEEHHA@YAHOO.COM",
    "categoryName": "HOME HEALTH AGENCY",
    "categoryCode": "HHA",
    "licenseStatus": "ACTIVE",
    "inService": true,
    "licenseNumber": "550000784",
    "licenseEffectiveDate": "11/03/2025",
    "licenseExpirationDate": "11/02/2026",
    "dataDate": "10/18/2025",
    "capacity": 0,
    "address": "1720 E LOS ANGELES AVE, SUITE 223",
    "city": "SIMI VALLEY",
    "zip": "93065",
    "county": "VENTURA",
    "phone": "(805) 578-9806",
    "lat": 34.27159262,
    "lng": -118.7652251
  },
  {
    "id": "630016646",
    "name": "LUNDY LIVING HOME",
    "npi": null,
    "hcaiId": "206564297",
    "businessName": "OGA HEALTH PARTNERS, INC.",
    "contactEmail": "LUNDYCLHF@GMAIL.COM",
    "categoryName": "CONGREGATE LIVING HEALTH FACILITY",
    "categoryCode": "CLHF",
    "licenseStatus": "ACTIVE",
    "inService": true,
    "licenseNumber": "550003929",
    "licenseEffectiveDate": "08/02/2025",
    "licenseExpirationDate": "08/01/2026",
    "dataDate": "10/18/2025",
    "capacity": 6,
    "address": "1116 LUNDY DRIVE",
    "city": "SIMI VALLEY",
    "zip": "93065",
    "county": "VENTURA",
    "phone": "(805) 422-8120",
    "lat": 34.260228,
    "lng": -118.7855505
  },
  {
    "id": "630017374",
    "name": "MED GROUP HOME HEALTH CARE INC.",
    "npi": "1245779461",
    "hcaiId": "406562605",
    "businessName": "MED GROUP HOME HEALTH CARE INC.",
    "contactEmail": "MEDGROUPHH20@GMAIL.COM",
    "categoryName": "HOME HEALTH AGENCY",
    "categoryCode": "HHA",
    "licenseStatus": "ACTIVE",
    "inService": true,
    "licenseNumber": "550005256",
    "licenseEffectiveDate": "12/02/2024",
    "licenseExpirationDate": "12/01/2025",
    "dataDate": "10/18/2025",
    "capacity": 0,
    "address": "1633 ERRINGER RD, SUITE 201A",
    "city": "SIMI VALLEY",
    "zip": "93065",
    "county": "VENTURA",
    "phone": "(805) 210-5509",
    "lat": 34.268166,
    "lng": -118.761975
  },
  {
    "id": "630024050",
    "name": "MILKY WAY HOME HEALTH CARE",
    "npi": null,
    "hcaiId": "406565503",
    "businessName": "MILKY WAY HOME HEALTH CARE",
    "contactEmail": "MILKYWAYHHC@YAHOO.COM",
    "categoryName": "HOME HEALTH AGENCY",
    "categoryCode": "HHA",
    "licenseStatus": "ACTIVE",
    "inService": true,
    "licenseNumber": "550008127",
    "licenseEffectiveDate": "08/08/2025",
    "licenseExpirationDate": "08/07/2026",
    "dataDate": "10/18/2025",
    "capacity": 0,
    "address": "1445 E LOS ANGELES AVE, SUITE 301-I",
    "city": "SIMI VALLEY",
    "zip": "93065",
    "county": "VENTURA",
    "phone": "(818) 422-8338",
    "lat": 34.272207,
    "lng": -118.771632
  },
  {
    "id": "050000604",
    "name": "MOONSTONE HOME ICF/DD-N",
    "npi": "1083741151",
    "hcaiId": null,
    "businessName": "EPIPHANY CARE HOMES INC",
    "contactEmail": "MATTHEW@EPICARE.ORG",
    "categoryName": "INTERMEDIATE CARE FACILITY-DD/H/N/CN/IID",
    "categoryCode": "ICFDDN",
    "licenseStatus": "ACTIVE",
    "inService": true,
    "licenseNumber": "050000283",
    "licenseEffectiveDate": "12/16/2024",
    "licenseExpirationDate": "12/15/2025",
    "dataDate": "10/18/2025",
    "capacity": 6,
    "address": "2331 KNOLLHAVEN STREET",
    "city": "SIMI VALLEY",
    "zip": "93065",
    "county": "VENTURA",
    "phone": "(805) 527-1663",
    "lat": 34.274187,
    "lng": -118.7517285
  },
  {
    "id": "630021262",
    "name": "PASSAGES HOSPICE CARE, INC.",
    "npi": "1306446976",
    "hcaiId": "406563694",
    "businessName": "PASSAGES HOSPICE CARE, INC.",
    "contactEmail": "HOSPICEPASSAGES@GMAIL.COM",
    "categoryName": "HOSPICE",
    "categoryCode": "HOSPICE",
    "licenseStatus": "ACTIVE",
    "inService": true,
    "licenseNumber": "550006518",
    "licenseEffectiveDate": "07/06/2025",
    "licenseExpirationDate": "07/05/2027",
    "dataDate": "10/18/2025",
    "capacity": 0,
    "address": "2345 ERRINGER RD, SUITE 211",
    "city": "SIMI VALLEY",
    "zip": "93065",
    "county": "VENTURA",
    "phone": "(805) 865-5681",
    "lat": 34.278066,
    "lng": -118.7623575
  },
  {
    "id": "630016241",
    "name": "POTTER CARE, LLC",
    "npi": null,
    "hcaiId": "206564283",
    "businessName": "POTTER CARE, LLC",
    "contactEmail": "ACCOUNTING@TIPULHEALTH.COM",
    "categoryName": "CONGREGATE LIVING HEALTH FACILITY",
    "categoryCode": "CLHF",
    "licenseStatus": "ACTIVE",
    "inService": true,
    "licenseNumber": "550003530",
    "licenseEffectiveDate": "06/01/2023",
    "licenseExpirationDate": "05/31/2024",
    "dataDate": "10/18/2025",
    "capacity": 6,
    "address": "2041 POTTER AVE",
    "city": "SIMI VALLEY",
    "zip": "93065",
    "county": "VENTURA",
    "phone": null,
    "lat": 34.27376499,
    "lng": -118.761076
  },
  {
    "id": "050001470",
    "name": "PROFESSIONAL CARE HOME HEALTH SERVICES INC",
    "npi": "1184725004",
    "hcaiId": "406564158",
    "businessName": "PROFESSIONAL CARE HOME HEALTH SERVICES INC",
    "contactEmail": "PROFESSIONALCAREHOMEHEALTH@YAHOO.COM",
    "categoryName": "HOME HEALTH AGENCY",
    "categoryCode": "HHA",
    "licenseStatus": "ACTIVE",
    "inService": true,
    "licenseNumber": "050000595",
    "licenseEffectiveDate": "11/06/2025",
    "licenseExpirationDate": "11/05/2026",
    "dataDate": "10/18/2025",
    "capacity": 0,
    "address": "1720 E LOS ANGELES AVE, SUITE 213-215",
    "city": "SIMI VALLEY",
    "zip": "93065",
    "county": "VENTURA",
    "phone": "(805) 577-0189",
    "lat": 34.271145,
    "lng": -118.7653365
  },
  {
    "id": "630007421",
    "name": "SEBASTIAN HOSPICE CARE INC",
    "npi": "1548596679",
    "hcaiId": "406564161",
    "businessName": "SEBASTIAN HOSPICE CARE INC",
    "contactEmail": "SEBHOSPICECARE@GMAIL.COM",
    "categoryName": "HOSPICE",
    "categoryCode": "HOSPICE",
    "licenseStatus": "ACTIVE",
    "inService": true,
    "licenseNumber": "550000458",
    "licenseEffectiveDate": "04/11/2025",
    "licenseExpirationDate": "04/10/2027",
    "dataDate": "10/18/2025",
    "capacity": 0,
    "address": "1720 E LOS ANGELES AVE, SUITE 218",
    "city": "SIMI VALLEY",
    "zip": "93065",
    "county": "VENTURA",
    "phone": "(805) 522-5352",
    "lat": 34.271145,
    "lng": -118.7653365
  },
  {
    "id": "630015930",
    "name": "SERENITY POINT HOSPICE CARE, INC.",
    "npi": "1922406271",
    "hcaiId": "406564254",
    "businessName": "SERENITY POINT HOSPICE CARE, INC.",
    "contactEmail": "KAMAL.SAKKAY@GMAIL.COM",
    "categoryName": "HOSPICE",
    "categoryCode": "HOSPICE",
    "licenseStatus": "ACTIVE",
    "inService": true,
    "licenseNumber": "550003220",
    "licenseEffectiveDate": "07/17/2023",
    "licenseExpirationDate": "07/16/2025",
    "dataDate": "10/18/2025",
    "capacity": 0,
    "address": "1420 E. LOS ANGELES AVENUE, SUITE 201",
    "city": "SIMI VALLEY",
    "zip": "93065",
    "county": "VENTURA",
    "phone": "(818) 725-1025",
    "lat": 34.271217,
    "lng": -118.771587
  },
  {
    "id": "630021509",
    "name": "SH HOME HEALTH, INC.",
    "npi": null,
    "hcaiId": "406563212",
    "businessName": "SH HOME HEALTH, INC.",
    "contactEmail": "SHHOMEHEALTHINC@GMAIL.COM",
    "categoryName": "HOME HEALTH AGENCY",
    "categoryCode": "HHA",
    "licenseStatus": "ACTIVE",
    "inService": true,
    "licenseNumber": "550007014",
    "licenseEffectiveDate": "10/19/2023",
    "licenseExpirationDate": "10/18/2024",
    "dataDate": "10/18/2025",
    "capacity": 0,
    "address": "45 W EASY ST, SUITE 29",
    "city": "SIMI VALLEY",
    "zip": "93065",
    "county": "VENTURA",
    "phone": "(805) 600-8009",
    "lat": 34.279488,
    "lng": -118.7980155
  },
  {
    "id": "630021507",
    "name": "SH HOSPICE, INC.",
    "npi": null,
    "hcaiId": "406565113",
    "businessName": "SH HOSPICE, INC.",
    "contactEmail": "SHHOSPICEINC@GMAIL.COM",
    "categoryName": "HOSPICE",
    "categoryCode": "HOSPICE",
    "licenseStatus": "ACTIVE",
    "inService": true,
    "licenseNumber": "550007521",
    "licenseEffectiveDate": "12/20/2023",
    "licenseExpirationDate": "12/19/2025",
    "dataDate": "10/18/2025",
    "capacity": 0,
    "address": "45 W EASY ST, SUITE 30",
    "city": "SIMI VALLEY",
    "zip": "93065",
    "county": "VENTURA",
    "phone": "(805) 600-8007",
    "lat": 34.279488,
    "lng": -118.7980155
  },
  {
    "id": "630012492",
    "name": "SIERRA VISTA FAMILY MEDICAL CLINIC",
    "npi": null,
    "hcaiId": null,
    "businessName": null,
    "contactEmail": null,
    "categoryName": "PRIMARY CARE CLINIC",
    "categoryCode": "FQHC",
    "licenseStatus": null,
    "inService": null,
    "licenseNumber": null,
    "licenseEffectiveDate": null,
    "licenseExpirationDate": null,
    "dataDate": "10/18/2025",
    "capacity": 0,
    "address": "1227 E LOS ANGELES AVE",
    "city": "SIMI VALLEY",
    "zip": "93065",
    "county": "VENTURA",
    "phone": null,
    "lat": 34.272576,
    "lng": -118.776906
  },
  {
    "id": "630025850",
    "name": "SILVERLINE HOME HEALTH",
    "npi": null,
    "hcaiId": null,
    "businessName": "SILVERLINE HOME HEALTH",
    "contactEmail": "JANNAMANUKYAN08@GMAIL.COM",
    "categoryName": "HOME HEALTH AGENCY",
    "categoryCode": "HHA",
    "licenseStatus": "ACTIVE",
    "inService": true,
    "licenseNumber": "550008988",
    "licenseEffectiveDate": "02/09/2025",
    "licenseExpirationDate": "02/08/2026",
    "dataDate": "10/18/2025",
    "capacity": 0,
    "address": "1720 E LOS ANGELES AVE, SUITE 233",
    "city": "SIMI VALLEY",
    "zip": "93065",
    "county": "VENTURA",
    "phone": "(805) 288-1353",
    "lat": 34.270992,
    "lng": -118.765494
  },
  {
    "id": "630011559",
    "name": "SIMI DIALYSIS CENTER LLC",
    "npi": "1205030467",
    "hcaiId": "306564182",
    "businessName": "SIMI DIALYSIS CENTER LLC",
    "contactEmail": "LICENSING@USRENALCARE.COM",
    "categoryName": "CHRONIC DIALYSIS CLINIC",
    "categoryCode": "ESRD/CDC",
    "licenseStatus": "ACTIVE",
    "inService": true,
    "licenseNumber": "550000729",
    "licenseEffectiveDate": "05/23/2025",
    "licenseExpirationDate": "05/22/2026",
    "dataDate": "10/18/2025",
    "capacity": 12,
    "address": "1407 E LOS ANGELES AVE, SUITE G",
    "city": "SIMI VALLEY",
    "zip": "93065",
    "county": "VENTURA",
    "phone": "(615) 610-5150",
    "lat": 34.273602,
    "lng": -118.772541
  },
  {
    "id": "630016822",
    "name": "SIMI PLAZA HOME CARE, INC.",
    "npi": "1619324241",
    "hcaiId": "406560664",
    "businessName": "SIMI PLAZA HOME CARE, INC.",
    "contactEmail": "SIMIPLAZAHC@YAHOO.COM",
    "categoryName": "HOME HEALTH AGENCY",
    "categoryCode": "HHA",
    "licenseStatus": "ACTIVE",
    "inService": true,
    "licenseNumber": "550004166",
    "licenseEffectiveDate": "03/03/2025",
    "licenseExpirationDate": "03/02/2026",
    "dataDate": "10/18/2025",
    "capacity": 0,
    "address": "1716 ERRINGER ROAD, SUITE 102",
    "city": "SIMI VALLEY",
    "zip": "93065",
    "county": "VENTURA",
    "phone": "(818) 919-9191",
    "lat": 34.269012,
    "lng": -118.760346
  },
  {
    "id": "630010081",
    "name": "SIMI SURGERY CENTER INC",
    "npi": "1255354486",
    "hcaiId": "306564154",
    "businessName": "SIMI SURGERY CENTER INC",
    "contactEmail": null,
    "categoryName": "SURGICAL CLINIC",
    "categoryCode": "ASC",
    "licenseStatus": "INACTIVE - CAPEN DECISION",
    "inService": false,
    "licenseNumber": "550000363",
    "licenseEffectiveDate": "01/08/2008",
    "licenseExpirationDate": "01/07/2009",
    "dataDate": "10/18/2025",
    "capacity": 0,
    "address": "1920 E LOS ANGELES AVE",
    "city": "SIMI VALLEY",
    "zip": "93065",
    "county": "VENTURA",
    "phone": "(805) 306-8800",
    "lat": 34.271352,
    "lng": -118.760058
  },
  {
    "id": "630014636",
    "name": "SIMI VALLEY CARE HOME, INC.",
    "npi": null,
    "hcaiId": "206564253",
    "businessName": "SIMI VALLEY CARE HOME, INC.",
    "contactEmail": "SIMICARECLHF@GMAIL.COM",
    "categoryName": "CONGREGATE LIVING HEALTH FACILITY",
    "categoryCode": "CLHF",
    "licenseStatus": "ACTIVE",
    "inService": true,
    "licenseNumber": "550002735",
    "licenseEffectiveDate": "06/25/2025",
    "licenseExpirationDate": "06/24/2026",
    "dataDate": "10/18/2025",
    "capacity": 6,
    "address": "1544 ELVADO DR",
    "city": "SIMI VALLEY",
    "zip": "93065",
    "county": "VENTURA",
    "phone": "(805) 577-7711",
    "lat": 34.266888,
    "lng": -118.793772
  },
  {
    "id": "630016415",
    "name": "SIMI VALLEY CONGREGATE LIVING, INC.",
    "npi": null,
    "hcaiId": "206561360",
    "businessName": "SIMI VALLEY CONGREGATE LIVING, INC.",
    "contactEmail": "SVCONGREGATE@GMAIL.COM",
    "categoryName": "CONGREGATE LIVING HEALTH FACILITY",
    "categoryCode": "CLHF",
    "licenseStatus": "ACTIVE",
    "inService": true,
    "licenseNumber": "550004113",
    "licenseEffectiveDate": "12/26/2024",
    "licenseExpirationDate": "12/25/2025",
    "dataDate": "10/18/2025",
    "capacity": 6,
    "address": "2053 SHELBY LANE",
    "city": "SIMI VALLEY",
    "zip": "93065",
    "county": "VENTURA",
    "phone": "(805) 842-1378",
    "lat": 34.272891,
    "lng": -118.758519
  },
  {
    "id": "080001567",
    "name": "SIMI VALLEY DIALYSIS",
    "npi": "1467781179",
    "hcaiId": "306564295",
    "businessName": "TOTAL RENAL CARE, INC.",
    "contactEmail": "CAL_C@DAVITA.COM",
    "categoryName": "CHRONIC DIALYSIS CLINIC",
    "categoryCode": "ESRD/CDC",
    "licenseStatus": "ACTIVE",
    "inService": true,
    "licenseNumber": "080000661",
    "licenseEffectiveDate": "04/01/2025",
    "licenseExpirationDate": "03/31/2026",
    "dataDate": "10/18/2025",
    "capacity": 21,
    "address": "970 ENCHANTED WAY",
    "city": "SIMI VALLEY",
    "zip": "93065",
    "county": "VENTURA",
    "phone": "(805) 584-9621",
    "lat": 34.283556,
    "lng": -118.784565
  },
  {
    "id": "630027469",
    "name": "SUNRAY ADHC",
    "npi": null,
    "hcaiId": null,
    "businessName": "SUNRAY ADHC, INC.",
    "contactEmail": "ARTUR@SUNRAYADHC.COM",
    "categoryName": "ADULT DAY HEALTH CARE",
    "categoryCode": "ADHC",
    "licenseStatus": "ACTIVE",
    "inService": true,
    "licenseNumber": "550009002",
    "licenseEffectiveDate": "03/13/2025",
    "licenseExpirationDate": "03/12/2026",
    "dataDate": "10/18/2025",
    "capacity": 0,
    "address": "3202 E LOS ANGELES AVE",
    "city": "SIMI VALLEY",
    "zip": "93065",
    "county": "VENTURA",
    "phone": "(818) 888-6666",
    "lat": 34.27117402,
    "lng": -118.734
  },
  {
    "id": "630027798",
    "name": "SUNRISE LOVELY MANOR",
    "npi": null,
    "hcaiId": null,
    "businessName": "SUNRISE LOVELY MANOR",
    "contactEmail": "ADMIN@SUNRISEMANORCONGREGATE.COM",
    "categoryName": "CONGREGATE LIVING HEALTH FACILITY",
    "categoryCode": "CLHF",
    "licenseStatus": "ACTIVE",
    "inService": true,
    "licenseNumber": "550009764",
    "licenseEffectiveDate": "09/19/2025",
    "licenseExpirationDate": "03/18/2026",
    "dataDate": "10/18/2025",
    "capacity": 6,
    "address": "1635 COCHRAN ST",
    "city": "SIMI VALLEY",
    "zip": "93065",
    "county": "VENTURA",
    "phone": "(805) 210-2900",
    "lat": 34.279232,
    "lng": -118.767236
  },
  {
    "id": "050000554",
    "name": "SURFRIDER HOME ICF/DD-H",
    "npi": "1184751232",
    "hcaiId": null,
    "businessName": "EPIPHANY CARE HOMES INC",
    "contactEmail": "MATTHEW@EPICARE.ORG",
    "categoryName": "INTERMEDIATE CARE FACILITY-DD/H/N/CN/IID",
    "categoryCode": "ICFDDH",
    "licenseStatus": "ACTIVE",
    "inService": true,
    "licenseNumber": "050000252",
    "licenseEffectiveDate": "12/16/2024",
    "licenseExpirationDate": "12/15/2025",
    "dataDate": "10/18/2025",
    "capacity": 6,
    "address": "2127 N JUSTIN AVENUE",
    "city": "SIMI VALLEY",
    "zip": "93065",
    "county": "VENTURA",
    "phone": "(805) 583-5160",
    "lat": 34.274142,
    "lng": -118.7550045
  },
  {
    "id": "630021958",
    "name": "TRU HOSPICE, INC.",
    "npi": "1972193290",
    "hcaiId": "406563941",
    "businessName": "TRU HOSPICE, INC.",
    "contactEmail": "TRUHOSPICE@GMAIL.COM",
    "categoryName": "HOSPICE",
    "categoryCode": "HOSPICE",
    "licenseStatus": "ACTIVE",
    "inService": true,
    "licenseNumber": "550007317",
    "licenseEffectiveDate": "11/22/2023",
    "licenseExpirationDate": "11/21/2025",
    "dataDate": "10/18/2025",
    "capacity": 0,
    "address": "1445 E LOS ANGELES AVE, SUITE 301S",
    "city": "SIMI VALLEY",
    "zip": "93065",
    "county": "VENTURA",
    "phone": "(818) 583-0962",
    "lat": 34.272207,
    "lng": -118.771632
  },
  {
    "id": "630006801",
    "name": "ULTIMATE GREAT CARE HOSPICE INC",
    "npi": "1861792343",
    "hcaiId": "406564183",
    "businessName": "ULTIMATE GREAT CARE HOSPICE INC",
    "contactEmail": "ANNATHUKRAL@GMAIL.COM",
    "categoryName": "HOSPICE",
    "categoryCode": "HOSPICE",
    "licenseStatus": "ACTIVE",
    "inService": true,
    "licenseNumber": "550000757",
    "licenseEffectiveDate": "06/25/2024",
    "licenseExpirationDate": "06/24/2026",
    "dataDate": "10/18/2025",
    "capacity": 0,
    "address": "1174 AMAZON WAY, SUITE B",
    "city": "SIMI VALLEY",
    "zip": "93065",
    "county": "VENTURA",
    "phone": "(805) 581-5337",
    "lat": 34.26012,
    "lng": -118.7946675
  },
  {
    "id": "630017623",
    "name": "VENTURA CARE, INC.",
    "npi": "1821528829",
    "hcaiId": "406561588",
    "businessName": "VENTURA CARE, INC.",
    "contactEmail": "VENTURACAREINC@GMAIL.COM",
    "categoryName": "HOME HEALTH AGENCY",
    "categoryCode": "HHA",
    "licenseStatus": "ACTIVE",
    "inService": true,
    "licenseNumber": "550004545",
    "licenseEffectiveDate": "02/11/2024",
    "licenseExpirationDate": "02/10/2025",
    "dataDate": "10/18/2025",
    "capacity": 0,
    "address": "1464 E LOS ANGELES AVE, SUITE 2",
    "city": "SIMI VALLEY",
    "zip": "93065",
    "county": "VENTURA",
    "phone": "(805) 210-5505",
    "lat": 34.271676,
    "lng": -118.7706645
  },
  {
    "id": "630026909",
    "name": "VILLA HEALTH INC",
    "npi": null,
    "hcaiId": null,
    "businessName": "VILLA HEALTH INC",
    "contactEmail": "VILLAHEALTHINC10@GMAIL.COM",
    "categoryName": "HOME HEALTH AGENCY",
    "categoryCode": "HHA",
    "licenseStatus": "ACTIVE",
    "inService": true,
    "licenseNumber": "550009433",
    "licenseEffectiveDate": "10/14/2025",
    "licenseExpirationDate": "10/13/2026",
    "dataDate": "10/18/2025",
    "capacity": 0,
    "address": "2245 1ST ST, SUITE 211B",
    "city": "SIMI VALLEY",
    "zip": "93065",
    "county": "VENTURA",
    "phone": "(805) 261-0524",
    "lat": 34.275348,
    "lng": -118.779426
  },
  {
    "id": "630025860",
    "name": "WELL CARE HOME HEALTH, INC.",
    "npi": null,
    "hcaiId": "406560027",
    "businessName": "WELL CARE HOME HEALTH,INC.",
    "contactEmail": "WELLCAREHH@YAHOO.COM",
    "categoryName": "HOME HEALTH AGENCY",
    "categoryCode": "HHA",
    "licenseStatus": "ACTIVE",
    "inService": true,
    "licenseNumber": "550009010",
    "licenseEffectiveDate": "03/04/2025",
    "licenseExpirationDate": "03/03/2026",
    "dataDate": "10/18/2025",
    "capacity": 0,
    "address": "1720 E LOS ANGELES AVE, SUITE 213",
    "city": "SIMI VALLEY",
    "zip": "93065",
    "county": "VENTURA",
    "phone": "(323) 377-6562",
    "lat": 34.27126802,
    "lng": -118.765365
  },
  {
    "id": "630012822",
    "name": "YOFILI",
    "npi": "1164741765",
    "hcaiId": null,
    "businessName": "YOFILI",
    "contactEmail": "YOFILIFACILITY@GMAIL.COM",
    "categoryName": "INTERMEDIATE CARE FACILITY-DD/H/N/CN/IID",
    "categoryCode": "ICFDDH",
    "licenseStatus": "ACTIVE",
    "inService": true,
    "licenseNumber": "550001509",
    "licenseEffectiveDate": "02/10/2025",
    "licenseExpirationDate": "02/09/2026",
    "dataDate": "10/18/2025",
    "capacity": 6,
    "address": "729 HUDSPETH AVE",
    "city": "SIMI VALLEY",
    "zip": "93065",
    "county": "VENTURA",
    "phone": "(805) 285-5440",
    "lat": 34.25302466,
    "lng": -118.7697376
  }
]