[
  {
    "id": "630016686",
    "name": "24/7 TEAM CARE HOME HEALTH",
    "npi": "1265887111",
    "hcaiId": "406565551",
    "businessName": "UNION HOME HEALTH, INC.",
    "contactEmail": "HOMEHEALTH@247TEAMCARE.COM",
    "categoryName": "HOME HEALTH AGENCY",
    "categoryCode": "HHA",
    "licenseStatus": "ACTIVE",
    "inService": true,
    "licenseNumber": "550004218",
    "licenseEffectiveDate": "03/22/2025",
    "licenseExpirationDate": "03/21/2026",
    "dataDate": "10/18/2025",
    "capacity": 0,
    "address": "4225 VALLEY FAIR ST, SUITE 204-B",
    "city": "SIMI VALLEY",
    "zip": "93063",
    "county": "VENTURA",
    "phone": "(805) 842-1003",
    "lat": 34.272612,
    "lng": -118.71252
  },
  {
    "id": "630017062",
    "name": "24/7 TEAM CARE HOSPICE",
    "npi": "1104339340",
    "hcaiId": "406564300",
    "businessName": "24/7 TEAM CARE INC",
    "contactEmail": "INFO@247TEAMCARE.COM",
    "categoryName": "HOSPICE",
    "categoryCode": "HOSPICE",
    "licenseStatus": "ACTIVE",
    "inService": true,
    "licenseNumber": "550003968",
    "licenseEffectiveDate": "09/20/2023",
    "licenseExpirationDate": "09/19/2025",
    "dataDate": "10/18/2025",
    "capacity": 0,
    "address": "4225 VALLEY FAIR ST, SUITE 205",
    "city": "SIMI VALLEY",
    "zip": "93063",
    "county": "VENTURA",
    "phone": "(818) 390-7654",
    "lat": 34.272612,
    "lng": -118.71252
  },
  {
    "id": "630011932",
    "name": "A FLYING EAGLE HOME HEALTH",
    "npi": "1144437641",
    "hcaiId": "406564178",
    "businessName": "CARE PROVIDER HOME HEALTH INC.",
    "contactEmail": "CAREPROVIDER@LIVE.COM",
    "categoryName": "HOME HEALTH AGENCY",
    "categoryCode": "HHA",
    "licenseStatus": "ACTIVE",
    "inService": true,
    "licenseNumber": "550000855",
    "licenseEffectiveDate": "01/12/2025",
    "licenseExpirationDate": "01/11/2026",
    "dataDate": "10/18/2025",
    "capacity": 0,
    "address": "2775 TAPO ST, SUITE 101",
    "city": "SIMI VALLEY",
    "zip": "93063",
    "county": "VENTURA",
    "phone": "(805) 582-9389",
    "lat": 34.285509,
    "lng": -118.70937
  },
  {
    "id": "050001412",
    "name": "A-1 HOME HEALTH SERVICES INC",
    "npi": "1467631887",
    "hcaiId": "406564179",
    "businessName": "A-1 HOME HEALTH SERVICES INC",
    "contactEmail": "A1HHS@YAHOO.COM",
    "categoryName": "HOME HEALTH AGENCY",
    "categoryCode": "HHA",
    "licenseStatus": "ACTIVE",
    "inService": true,
    "licenseNumber": "050000563",
    "licenseEffectiveDate": "11/28/2025",
    "licenseExpirationDate": "11/27/2026",
    "dataDate": "10/18/2025",
    "capacity": 0,
    "address": "1407 KUEHNER DR",
    "city": "SIMI VALLEY",
    "zip": "93063",
    "county": "VENTURA",
    "phone": "(805) 584-8146",
    "lat": 34.26516,
    "lng": -118.661454
  },
  {
    "id": "630016985",
    "name": "AASTA HOSPICE",
    "npi": "1487101739",
    "hcaiId": "406564294",
    "businessName": "FREE SPIRIT HOSPICE, INC.",
    "contactEmail": "NKUMAR1121@YAHOO.COM",
    "categoryName": "HOSPICE",
    "categoryCode": "HOSPICE",
    "licenseStatus": "ACTIVE",
    "inService": true,
    "licenseNumber": "550003722",
    "licenseEffectiveDate": "11/23/2024",
    "licenseExpirationDate": "11/22/2026",
    "dataDate": "10/18/2025",
    "capacity": 0,
    "address": "5924 EAST LOS ANGELES AVENUE, SUITE R",
    "city": "SIMI VALLEY",
    "zip": "93063",
    "county": "VENTURA",
    "phone": "(805) 823-4136",
    "lat": 34.271208,
    "lng": -118.67562
  },
  {
    "id": "630018157",
    "name": "ABSOLUTE COMFORT HOME HEALTHCARE, INC.",
    "npi": null,
    "hcaiId": "406565955",
    "businessName": "ABSOLUTE COMFORT HOME HEALTHCARE, INC.",
    "contactEmail": "ACHH2018@GMAIL.COM",
    "categoryName": "HOME HEALTH AGENCY",
    "categoryCode": "HHA",
    "licenseStatus": "ACTIVE",
    "inService": true,
    "licenseNumber": "550007838",
    "licenseEffectiveDate": "02/18/2025",
    "licenseExpirationDate": "02/17/2026",
    "dataDate": "10/18/2025",
    "capacity": 0,
    "address": "5924 E LOS ANGELES AVE, SUITE J",
    "city": "SIMI VALLEY",
    "zip": "93063",
    "county": "VENTURA",
    "phone": "(818) 267-7267",
    "lat": 34.271208,
    "lng": -118.67562
  },
  {
    "id": "070001282",
    "name": "ADVANCED ADULT DAY HEALTH CARE CENTER",
    "npi": null,
    "hcaiId": null,
    "businessName": "DYNAMIC LIFE HEALTH SERVICES, INC.",
    "contactEmail": "ZIADYNAMIC@GMAIL.COM",
    "categoryName": "ADULT DAY HEALTH CARE",
    "categoryCode": "ADHC",
    "licenseStatus": "ACTIVE",
    "inService": true,
    "licenseNumber": "070000605",
    "licenseEffectiveDate": "05/20/2025",
    "licenseExpirationDate": "05/19/2026",
    "dataDate": "10/18/2025",
    "capacity": 0,
    "address": "2315 KUEHNER DR, SUITE 121",
    "city": "SIMI VALLEY",
    "zip": "93063",
    "county": "VENTURA",
    "phone": "(805) 526-7629",
    "lat": 34.277823,
    "lng": -118.662804
  },
  {
    "id": "630020433",
    "name": "AGAPE HOSPICE CARE, INC.",
    "npi": null,
    "hcaiId": "406195751",
    "businessName": "AGAPE HOSPICE CARE, INC.",
    "contactEmail": "AGAPE.HOSPICE.CARE.INC@GMAIL.COM",
    "categoryName": "HOSPICE",
    "categoryCode": "HOSPICE",
    "licenseStatus": "ACTIVE",
    "inService": true,
    "licenseNumber": "550007733",
    "licenseEffectiveDate": "12/21/2023",
    "licenseExpirationDate": "12/20/2025",
    "dataDate": "10/18/2025",
    "capacity": 0,
    "address": "5924 E LOS ANGELES AVE, SUITE L",
    "city": "SIMI VALLEY",
    "zip": "93063",
    "county": "VENTURA",
    "phone": "(805) 422-8760",
    "lat": 34.271208,
    "lng": -118.67562
  },
  {
    "id": "630020406",
    "name": "ALL COMFORT HOSPICE CARE, INC.",
    "npi": null,
    "hcaiId": "406563516",
    "businessName": "ALL COMFORT HOSPICE CARE, INC.",
    "contactEmail": "ALLCOMFORTHOSPICEINC@YAHOO.COM",
    "categoryName": "HOSPICE",
    "categoryCode": "HOSPICE",
    "licenseStatus": "ACTIVE",
    "inService": true,
    "licenseNumber": "550006428",
    "licenseEffectiveDate": "06/12/2025",
    "licenseExpirationDate": "06/11/2027",
    "dataDate": "10/18/2025",
    "capacity": 0,
    "address": "5924 E LOS ANGELES AVE, SUITE W",
    "city": "SIMI VALLEY",
    "zip": "93063",
    "county": "VENTURA",
    "phone": "(818) 967-7413",
    "lat": 34.271208,
    "lng": -118.67562
  },
  {
    "id": "630020081",
    "name": "ALPHA HOSPICE CARE, INC.",
    "npi": null,
    "hcaiId": "406195744",
    "businessName": "ALPHA HOSPICE CARE, INC.",
    "contactEmail": "ALPHAHOSPICE@YAHOO.COM",
    "categoryName": "HOSPICE",
    "categoryCode": "HOSPICE",
    "licenseStatus": "ACTIVE",
    "inService": true,
    "licenseNumber": "550007723",
    "licenseEffectiveDate": "08/09/2025",
    "licenseExpirationDate": "08/08/2027",
    "dataDate": "10/18/2025",
    "capacity": 0,
    "address": "5924 E LOS ANGELES AVE, SUITE U",
    "city": "SIMI VALLEY",
    "zip": "93063",
    "county": "VENTURA",
    "phone": "(805) 422-8239",
    "lat": 34.271208,
    "lng": -118.67562
  },
  {
    "id": "630016165",
    "name": "AMERICUS HOSPICE, INC.",
    "npi": "1063896835",
    "hcaiId": "406564286",
    "businessName": "AMERICUS HOSPICE, INC.",
    "contactEmail": "AMERICUSHOSPICE@GMAIL.COM",
    "categoryName": "HOSPICE",
    "categoryCode": "HOSPICE",
    "licenseStatus": "ACTIVE",
    "inService": true,
    "licenseNumber": "550003538",
    "licenseEffectiveDate": "06/13/2024",
    "licenseExpirationDate": "06/12/2026",
    "dataDate": "10/18/2025",
    "capacity": 0,
    "address": "5924 E. LOS ANGELES AVENUE, SUITE T",
    "city": "SIMI VALLEY",
    "zip": "93063",
    "county": "VENTURA",
    "phone": "(805) 520-5863",
    "lat": 34.271208,
    "lng": -118.67562
  },
  {
    "id": "630011012",
    "name": "ANGELS OF SUMMIT HOME HEALTH",
    "npi": "1366528408",
    "hcaiId": "406564175",
    "businessName": "SUMMIT HOME HEALTH, INC.",
    "contactEmail": "KEON@SUMMITHOMEHEALTHINC.COM",
    "categoryName": "HOME HEALTH AGENCY",
    "categoryCode": "HHA",
    "licenseStatus": "ACTIVE",
    "inService": true,
    "licenseNumber": "550000605",
    "licenseEffectiveDate": "11/26/2024",
    "licenseExpirationDate": "11/25/2025",
    "dataDate": "10/18/2025",
    "capacity": 0,
    "address": "2139 TAPO ST, SUITE 210",
    "city": "SIMI VALLEY",
    "zip": "93063",
    "county": "VENTURA",
    "phone": "(805) 584-3000",
    "lat": 34.273791,
    "lng": -118.709505
  },
  {
    "id": "630017189",
    "name": "ARIA HOSPICE, INC.",
    "npi": "1558808683",
    "hcaiId": "406561466",
    "businessName": "ARIA HOSPICE, INC.",
    "contactEmail": "ARIAHOSPICE7@GMAIL.COM",
    "categoryName": "HOSPICE",
    "categoryCode": "HOSPICE",
    "licenseStatus": "ACTIVE",
    "inService": false,
    "licenseNumber": "550004426",
    "licenseEffectiveDate": "08/28/2020",
    "licenseExpirationDate": "08/27/2022",
    "dataDate": "10/18/2025",
    "capacity": 0,
    "address": "2139 TAPO ST, UNIT 207",
    "city": "SIMI VALLEY",
    "zip": "93063",
    "county": "VENTURA",
    "phone": "(805) 791-3155",
    "lat": 34.273791,
    "lng": -118.709505
  },
  {
    "id": "630025974",
    "name": "ARVA HOMEHEALTH CARE, INC",
    "npi": null,
    "hcaiId": null,
    "businessName": "ARVA HOMEHEALTH CARE, INC",
    "contactEmail": "ARVAHHCARE@GMAIL.COM",
    "categoryName": "HOME HEALTH AGENCY",
    "categoryCode": "HHA",
    "licenseStatus": "ACTIVE",
    "inService": true,
    "licenseNumber": "550009052",
    "licenseEffectiveDate": "04/01/2025",
    "licenseExpirationDate": "03/31/2026",
    "dataDate": "10/18/2025",
    "capacity": 0,
    "address": "4195 VALLEY FAIR ST, SUITE 206A",
    "city": "SIMI VALLEY",
    "zip": "93063",
    "county": "VENTURA",
    "phone": "(805) 864-1112",
    "lat": 34.272918,
    "lng": -118.7126955
  },
  {
    "id": "050000081",
    "name": "BEACHCOMBER HOME ICF/DD-N",
    "npi": "1558498683",
    "hcaiId": null,
    "businessName": "EPIPHANY CARE HOMES INC",
    "contactEmail": "MATTHEW@EPICARE.ORG",
    "categoryName": "INTERMEDIATE CARE FACILITY-DD/H/N/CN/IID",
    "categoryCode": "ICFDDN",
    "licenseStatus": "ACTIVE",
    "inService": true,
    "licenseNumber": "050000001",
    "licenseEffectiveDate": "12/16/2024",
    "licenseExpirationDate": "12/15/2025",
    "dataDate": "10/18/2025",
    "capacity": 6,
    "address": "3224 WILMOT STREET",
    "city": "SIMI VALLEY",
    "zip": "93063",
    "county": "VENTURA",
    "phone": "(805) 581-9302",
    "lat": 34.274682,
    "lng": -118.73475
  },
  {
    "id": "630017178",
    "name": "CALIFORNIA CONGREGATE LIVING",
    "npi": null,
    "hcaiId": "206560066",
    "businessName": "FOR SENIOR CARE LLC",
    "contactEmail": "CA.CONGREGATE2@GMAIL.COM",
    "categoryName": "CONGREGATE LIVING HEALTH FACILITY",
    "categoryCode": "CLHF",
    "licenseStatus": "ACTIVE",
    "inService": true,
    "licenseNumber": "550004396",
    "licenseEffectiveDate": "10/05/2024",
    "licenseExpirationDate": "10/04/2025",
    "dataDate": "10/18/2025",
    "capacity": 6,
    "address": "2333 YOSEMITE AVE",
    "city": "SIMI VALLEY",
    "zip": "93063",
    "county": "VENTURA",
    "phone": "(805) 285-7858",
    "lat": 34.277841,
    "lng": -118.678752
  },
  {
    "id": "630019056",
    "name": "CARE FIRST HOME HEALTH CARE INC",
    "npi": null,
    "hcaiId": "406562869",
    "businessName": "CARE FIRST HOME HEALTH CARE INC",
    "contactEmail": "CAREFIRST3777@GMAIL.COM",
    "categoryName": "HOME HEALTH AGENCY",
    "categoryCode": "HHA",
    "licenseStatus": "ACTIVE",
    "inService": true,
    "licenseNumber": "550005720",
    "licenseEffectiveDate": "09/10/2025",
    "licenseExpirationDate": "09/09/2026",
    "dataDate": "10/18/2025",
    "capacity": 0,
    "address": "2139 TAPO ST, SUITE 206",
    "city": "SIMI VALLEY",
    "zip": "93063",
    "county": "VENTURA",
    "phone": "(805) 842-1606",
    "lat": 34.273791,
    "lng": -118.709505
  },
  {
    "id": "630016127",
    "name": "CLINICAS DEL CAMINO REAL, INC.- EAST SIMI VALLEY",
    "npi": "1609291996",
    "hcaiId": "306564269",
    "businessName": "CLINICAS DEL CAMINO REAL, INC.",
    "contactEmail": "EMAIL@CLINICAS.ORG",
    "categoryName": "PRIMARY CARE CLINIC",
    "categoryCode": "COMTYC",
    "licenseStatus": "ACTIVE",
    "inService": true,
    "licenseNumber": "550003227",
    "licenseEffectiveDate": "09/08/2025",
    "licenseExpirationDate": "09/07/2026",
    "dataDate": "10/18/2025",
    "capacity": 0,
    "address": "4370 EVE ROAD.",
    "city": "SIMI VALLEY",
    "zip": "93063",
    "county": "VENTURA",
    "phone": "(805) 659-1740",
    "lat": 34.282305,
    "lng": -118.7094825
  },
  {
    "id": "630016226",
    "name": "COMFORT CARE HOSPICE PROVIDERS",
    "npi": "1932501814",
    "hcaiId": "406564276",
    "businessName": "COMFORT CARE HOSPICE PROVIDERS",
    "contactEmail": "INFO@COMFORTCAREHOSPICEINC.COM",
    "categoryName": "HOSPICE",
    "categoryCode": "HOSPICE",
    "licenseStatus": "ACTIVE",
    "inService": true,
    "licenseNumber": "550003414",
    "licenseEffectiveDate": "02/22/2024",
    "licenseExpirationDate": "02/21/2026",
    "dataDate": "10/18/2025",
    "capacity": 0,
    "address": "2139 TAPO STREET, SUITE 209",
    "city": "SIMI VALLEY",
    "zip": "93063",
    "county": "VENTURA",
    "phone": "(805) 888-5900",
    "lat": 34.273791,
    "lng": -118.709505
  },
  {
    "id": "050000452",
    "name": "CORAL HOME ICF/DD-N",
    "npi": "1679600332",
    "hcaiId": null,
    "businessName": "EPIPHANY CARE HOMES INC",
    "contactEmail": "MATTHEW@EPICARE.ORG",
    "categoryName": "INTERMEDIATE CARE FACILITY-DD/H/N/CN/IID",
    "categoryCode": "ICFDDN",
    "licenseStatus": "ACTIVE",
    "inService": true,
    "licenseNumber": "050000220",
    "licenseEffectiveDate": "12/16/2024",
    "licenseExpirationDate": "12/15/2025",
    "dataDate": "10/18/2025",
    "capacity": 6,
    "address": "2090 BOLIVAR CT",
    "city": "SIMI VALLEY",
    "zip": "93063",
    "county": "VENTURA",
    "phone": "(805) 527-4370",
    "lat": 34.273953,
    "lng": -118.722204
  },
  {
    "id": "630011972",
    "name": "DEPENDABLE HOME CARE SERVICES INC",
    "npi": "1093961823",
    "hcaiId": "406564195",
    "businessName": "DEPENDABLE HOME CARE SERVICES INC",
    "contactEmail": "INTAKEDEPENDABLE@GMAIL.COM",
    "categoryName": "HOME HEALTH AGENCY",
    "categoryCode": "HHA",
    "licenseStatus": "ACTIVE",
    "inService": true,
    "licenseNumber": "550001064",
    "licenseEffectiveDate": "05/18/2025",
    "licenseExpirationDate": "05/17/2026",
    "dataDate": "10/18/2025",
    "capacity": 0,
    "address": "5924 E LOS ANGELES AVE, SUITE O",
    "city": "SIMI VALLEY",
    "zip": "93063",
    "county": "VENTURA",
    "phone": "(805) 582-0138",
    "lat": 34.271208,
    "lng": -118.67562
  },
  {
    "id": "980001177",
    "name": "EMERALD HOME HEALTH INC",
    "npi": "1679576607",
    "hcaiId": "406564174",
    "businessName": "EMERALD HOME HEALTH INC.",
    "contactEmail": "EMERALDHOMEHEALTHINC@GMAIL.COM",
    "categoryName": "HOME HEALTH AGENCY",
    "categoryCode": "HHA",
    "licenseStatus": "ACTIVE",
    "inService": true,
    "licenseNumber": "980000651",
    "licenseEffectiveDate": "01/15/2025",
    "licenseExpirationDate": "01/14/2026",
    "dataDate": "10/18/2025",
    "capacity": 0,
    "address": "5775 E LOS ANGELES AVE, SUITE 232",
    "city": "SIMI VALLEY",
    "zip": "93063",
    "county": "VENTURA",
    "phone": "(805) 864-9311",
    "lat": 34.272225,
    "lng": -118.679832
  },
  {
    "id": "630016770",
    "name": "FAITHFUL HOSPICE CARE, INC.",
    "npi": "1487025458",
    "hcaiId": "406560826",
    "businessName": "FAITHFUL HOSPICE CARE, INC.",
    "contactEmail": "FAITHFULHOSPICE1121@GMAIL.COM",
    "categoryName": "HOSPICE",
    "categoryCode": "HOSPICE",
    "licenseStatus": "ACTIVE",
    "inService": true,
    "licenseNumber": "550004082",
    "licenseEffectiveDate": "12/21/2023",
    "licenseExpirationDate": "12/20/2025",
    "dataDate": "10/18/2025",
    "capacity": 0,
    "address": "5924 E. LOS ANGELES AVENUE, SUITE F",
    "city": "SIMI VALLEY",
    "zip": "93063",
    "county": "VENTURA",
    "phone": "(818) 317-9520",
    "lat": 34.271208,
    "lng": -118.67562
  },
  {
    "id": "630011851",
    "name": "FIDELITY HOME HEALTH CARE INC",
    "npi": "1881857829",
    "hcaiId": "406564189",
    "businessName": "FIDELITY HOME HEALTH CARE INC",
    "contactEmail": "FIDELITYHHC@YAHOO.COM",
    "categoryName": "HOME HEALTH AGENCY",
    "categoryCode": "HHA",
    "licenseStatus": "ACTIVE",
    "inService": true,
    "licenseNumber": "550000878",
    "licenseEffectiveDate": "02/03/2025",
    "licenseExpirationDate": "02/02/2026",
    "dataDate": "10/18/2025",
    "capacity": 0,
    "address": "4195 VALLEY FAIR ST, SUITE 106",
    "city": "SIMI VALLEY",
    "zip": "93063",
    "county": "VENTURA",
    "phone": "(805) 577-7655",
    "lat": 34.272918,
    "lng": -118.712727
  },
  {
    "id": "630015783",
    "name": "GOOD HEART HOSPICE & PALLIATIVE CARE SIMI VALLEY",
    "npi": "1003212010",
    "hcaiId": "406564264",
    "businessName": "SERENITY HOSPICE CARE PROVIDER, INC.",
    "contactEmail": "HOSPICEINLA@GMAIL.COM",
    "categoryName": "HOSPICE",
    "categoryCode": "HOSPICE",
    "licenseStatus": "ACTIVE",
    "inService": true,
    "licenseNumber": "550003031",
    "licenseEffectiveDate": "04/09/2025",
    "licenseExpirationDate": "04/08/2027",
    "dataDate": "10/18/2025",
    "capacity": 0,
    "address": "2139 TAPO STREET, SUITE 212",
    "city": "SIMI VALLEY",
    "zip": "93063",
    "county": "VENTURA",
    "phone": "(805) 522-5506",
    "lat": 34.273791,
    "lng": -118.709505
  },
  {
    "id": "630026356",
    "name": "GRAVITAS HOME HEALTH, INC",
    "npi": null,
    "hcaiId": null,
    "businessName": "GRAVITAS HOME HEALTH, INC",
    "contactEmail": "GRAVITASCARE22@GMAIL.COM",
    "categoryName": "HOME HEALTH AGENCY",
    "categoryCode": "HHA",
    "licenseStatus": "ACTIVE",
    "inService": true,
    "licenseNumber": "550009669",
    "licenseEffectiveDate": "08/28/2025",
    "licenseExpirationDate": "02/27/2026",
    "dataDate": "10/18/2025",
    "capacity": 0,
    "address": "4195 VALLEY FAIR ST, SUITE 204A",
    "city": "SIMI VALLEY",
    "zip": "93063",
    "county": "VENTURA",
    "phone": "(805) 387-2111",
    "lat": 34.272918,
    "lng": -118.7126955
  },
  {
    "id": "630017438",
    "name": "HAVEN HOSPICE CARE, INC.",
    "npi": "1891225892",
    "hcaiId": "406561470",
    "businessName": "HAVEN HOSPICE CARE, INC.",
    "contactEmail": "HAVENHOSPICE21@GMAIL.COM",
    "categoryName": "HOSPICE",
    "categoryCode": "HOSPICE",
    "licenseStatus": "ACTIVE",
    "inService": true,
    "licenseNumber": "550004441",
    "licenseEffectiveDate": "10/11/2024",
    "licenseExpirationDate": "10/10/2026",
    "dataDate": "10/18/2025",
    "capacity": 0,
    "address": "4225 VALLEY FAIR ST, SUITE 107",
    "city": "SIMI VALLEY",
    "zip": "93063",
    "county": "VENTURA",
    "phone": "(805) 842-2932",
    "lat": 34.272612,
    "lng": -118.71252
  },
  {
    "id": "630026354",
    "name": "HELIUS HOME HEALTH, INC.",
    "npi": null,
    "hcaiId": null,
    "businessName": "HELIUS HOME HEALTH, INC.",
    "contactEmail": "HELIUSHOMEHEALTH@GMAIL.COM",
    "categoryName": "HOME HEALTH AGENCY",
    "categoryCode": "HHA",
    "licenseStatus": "ACTIVE",
    "inService": true,
    "licenseNumber": "550009354",
    "licenseEffectiveDate": "09/11/2025",
    "licenseExpirationDate": "09/10/2026",
    "dataDate": "10/18/2025",
    "capacity": 0,
    "address": "4225 VALLEY FAIR ST, SUITE 201B",
    "city": "SIMI VALLEY",
    "zip": "93063",
    "county": "VENTURA",
    "phone": "(805) 387-2008",
    "lat": 34.27263729,
    "lng": -118.7125042
  },
  {
    "id": "630012614",
    "name": "HORIZON HEALTH CARE SYSTEMS INC",
    "npi": "1457674137",
    "hcaiId": "406564212",
    "businessName": "HORIZON HEALTH CARE SYSTEMS INC",
    "contactEmail": "CARETEAM@MYHORIZONCARE.COM",
    "categoryName": "HOME HEALTH AGENCY",
    "categoryCode": "HHA",
    "licenseStatus": "ACTIVE",
    "inService": true,
    "licenseNumber": "550001387",
    "licenseEffectiveDate": "11/30/2024",
    "licenseExpirationDate": "11/29/2025",
    "dataDate": "10/18/2025",
    "capacity": 0,
    "address": "2488 TAPO ST, SUITE 1",
    "city": "SIMI VALLEY",
    "zip": "93063",
    "county": "VENTURA",
    "phone": "(805) 527-2139",
    "lat": 34.280325,
    "lng": -118.708416
  },
  {
    "id": "630016776",
    "name": "HOSPICE GROUP OF VENTURA COUNTY, INC.",
    "npi": "1396106712",
    "hcaiId": "406564301",
    "businessName": "HOSPICE GROUP OF VENTURA COUNTY, INC.",
    "contactEmail": "HOSPICEGROUPOFVENTURACOUNTY88@GMAIL.COM",
    "categoryName": "HOSPICE",
    "categoryCode": "HOSPICE",
    "licenseStatus": "ACTIVE",
    "inService": true,
    "licenseNumber": "550003961",
    "licenseEffectiveDate": "09/12/2023",
    "licenseExpirationDate": "09/11/2025",
    "dataDate": "10/18/2025",
    "capacity": 0,
    "address": "4225 VALLEY FAIR ST, SUITE 206",
    "city": "SIMI VALLEY",
    "zip": "93063",
    "county": "VENTURA",
    "phone": "(805) 915-6070",
    "lat": 34.27264497,
    "lng": -118.7125848
  },
  {
    "id": "630014684",
    "name": "INNERJOY HOSPICE CARE, INC.",
    "npi": "1487089579",
    "hcaiId": "406564252",
    "businessName": "INNERJOY HOSPICE CARE, INC.",
    "contactEmail": "CRAIG@INNERJOY.COM",
    "categoryName": "HOSPICE",
    "categoryCode": "HOSPICE",
    "licenseStatus": "ACTIVE",
    "inService": true,
    "licenseNumber": "550002662",
    "licenseEffectiveDate": "05/05/2024",
    "licenseExpirationDate": "05/04/2026",
    "dataDate": "10/18/2025",
    "capacity": 0,
    "address": "1965 YOSEMITE AVE, SUITE 115",
    "city": "SIMI VALLEY",
    "zip": "93063",
    "county": "VENTURA",
    "phone": "(805) 522-5010",
    "lat": 34.270839,
    "lng": -118.6787475
  },
  {
    "id": "630011990",
    "name": "MAGNIFICENT HEALTHCARE SYSTEMS INC",
    "npi": "1770749459",
    "hcaiId": "406564201",
    "businessName": "MAGNIFICENT HEALTHCARE SYSTEMS INC",
    "contactEmail": "MHSI2008@YAHOO.COM",
    "categoryName": "HOME HEALTH AGENCY",
    "categoryCode": "HHA",
    "licenseStatus": "ACTIVE",
    "inService": true,
    "licenseNumber": "550000944",
    "licenseEffectiveDate": "04/06/2025",
    "licenseExpirationDate": "04/05/2026",
    "dataDate": "10/18/2025",
    "capacity": 0,
    "address": "5924 E LOS ANGELES AVE, SUITE S",
    "city": "SIMI VALLEY",
    "zip": "93063",
    "county": "VENTURA",
    "phone": "(805) 526-6888",
    "lat": 34.271208,
    "lng": -118.67562
  },
  {
    "id": "070001327",
    "name": "MILLENNIUM CARE ADULT DAY HEALTH CARE CENTER",
    "npi": null,
    "hcaiId": null,
    "businessName": "ANNA GOLD CO., INC.",
    "contactEmail": "MILCAREADHC@AOL.COM",
    "categoryName": "ADULT DAY HEALTH CARE",
    "categoryCode": "ADHC",
    "licenseStatus": "ACTIVE",
    "inService": true,
    "licenseNumber": "070000644",
    "licenseEffectiveDate": "11/29/2024",
    "licenseExpirationDate": "11/28/2025",
    "dataDate": "10/18/2025",
    "capacity": 0,
    "address": "2150 WINIFRED ST",
    "city": "SIMI VALLEY",
    "zip": "93063",
    "county": "VENTURA",
    "phone": "(805) 583-0859",
    "lat": 34.274709,
    "lng": -118.7110215
  },
  {
    "id": "980002502",
    "name": "NEW CENTURY HOME HEALTH, INC.",
    "npi": "1447261373",
    "hcaiId": "406565433",
    "businessName": "NEW CENTURY HOME HEALTH, INC.",
    "contactEmail": "NEWCENTURYINC@YMAIL.COM",
    "categoryName": "HOME HEALTH AGENCY",
    "categoryCode": "HHA",
    "licenseStatus": "ACTIVE",
    "inService": true,
    "licenseNumber": "980001600",
    "licenseEffectiveDate": "12/21/2024",
    "licenseExpirationDate": "12/20/2025",
    "dataDate": "10/18/2025",
    "capacity": 0,
    "address": "4195 VALLEY FAIR ST, SUITE 200",
    "city": "SIMI VALLEY",
    "zip": "93063",
    "county": "VENTURA",
    "phone": "(805) 285-0163",
    "lat": 34.272918,
    "lng": -118.7126955
  },
  {
    "id": "630026273",
    "name": "NOOR HOME CARE",
    "npi": null,
    "hcaiId": null,
    "businessName": "NOOR HOME CARE",
    "contactEmail": "HOMECARENOOR@GMAIL.COM",
    "categoryName": "HOME HEALTH AGENCY",
    "categoryCode": "HHA",
    "licenseStatus": "ACTIVE",
    "inService": true,
    "licenseNumber": "550009585",
    "licenseEffectiveDate": "05/21/2025",
    "licenseExpirationDate": "11/20/2025",
    "dataDate": "10/18/2025",
    "capacity": 0,
    "address": "4565 INDUSTRIAL ST, SUITE 7A",
    "city": "SIMI VALLEY",
    "zip": "93063",
    "county": "VENTURA",
    "phone": "(818) 698-1085",
    "lat": 34.273314,
    "lng": -118.705626
  },
  {
    "id": "630020147",
    "name": "OHANA HOSPICE AND PALLIATIVE CARE, INC",
    "npi": null,
    "hcaiId": "406193534",
    "businessName": "OHANA HOSPICE AND PALLIATIVE CARE, INC.",
    "contactEmail": "OHANAHOSPICEINC@YAHOO.COM",
    "categoryName": "HOSPICE",
    "categoryCode": "HOSPICE",
    "licenseStatus": "ACTIVE",
    "inService": true,
    "licenseNumber": "550006574",
    "licenseEffectiveDate": "04/09/2025",
    "licenseExpirationDate": "04/08/2027",
    "dataDate": "10/18/2025",
    "capacity": 0,
    "address": "5775 E LOS ANGELES AVE, SUITE 212",
    "city": "SIMI VALLEY",
    "zip": "93063",
    "county": "VENTURA",
    "phone": "(818) 922-2777",
    "lat": 34.27225599,
    "lng": -118.679858
  },
  {
    "id": "630016775",
    "name": "OPTIMA HOME HEALTH INC.",
    "npi": "1659733558",
    "hcaiId": "406564290",
    "businessName": "OPTIMA HOME HEALTH INC.",
    "contactEmail": "NOELLE@OPTIMAHHCARE.COM",
    "categoryName": "HOME HEALTH AGENCY",
    "categoryCode": "HHA",
    "licenseStatus": "ACTIVE",
    "inService": true,
    "licenseNumber": "550003707",
    "licenseEffectiveDate": "11/10/2021",
    "licenseExpirationDate": "11/09/2022",
    "dataDate": "10/18/2025",
    "capacity": 0,
    "address": "3695 ALAMO STREET, SUITE 200",
    "city": "SIMI VALLEY",
    "zip": "93063",
    "county": "VENTURA",
    "phone": "(805) 212-7220",
    "lat": 34.286688,
    "lng": -118.725084
  },
  {
    "id": "630016011",
    "name": "PERPETUAL CARE HOSPICE, INC.",
    "npi": "1710392402",
    "hcaiId": "406564291",
    "businessName": "PERPETUAL CARE HOSPICE, INC.",
    "contactEmail": "INFO@PERPETUALCAREHOSPICE.COM",
    "categoryName": "HOSPICE",
    "categoryCode": "HOSPICE",
    "licenseStatus": "ACTIVE",
    "inService": true,
    "licenseNumber": "550003683",
    "licenseEffectiveDate": "10/18/2024",
    "licenseExpirationDate": "10/17/2026",
    "dataDate": "10/18/2025",
    "capacity": 0,
    "address": "1985 YOSEMITE AVE, SUITE 250",
    "city": "SIMI VALLEY",
    "zip": "93063",
    "county": "VENTURA",
    "phone": "(805) 583-1070",
    "lat": 34.27101,
    "lng": -118.678626
  },
  {
    "id": "630020724",
    "name": "SAMSARA HOME HEALTH CARE, INC.",
    "npi": null,
    "hcaiId": "406563776",
    "businessName": "SAMSARA HOME HEALTH CARE, INC.",
    "contactEmail": "SAMSARAHHC@GMAIL.COM",
    "categoryName": "HOME HEALTH AGENCY",
    "categoryCode": "HHA",
    "licenseStatus": "ACTIVE",
    "inService": true,
    "licenseNumber": "550006397",
    "licenseEffectiveDate": "05/18/2025",
    "licenseExpirationDate": "05/17/2026",
    "dataDate": "10/18/2025",
    "capacity": 0,
    "address": "4225 VALLEY FAIR ST, SUITE 207B",
    "city": "SIMI VALLEY",
    "zip": "93063",
    "county": "VENTURA",
    "phone": "(805) 292-0355",
    "lat": 34.272612,
    "lng": -118.71252
  },
  {
    "id": "050000070",
    "name": "SIMI HEALTHCARE CENTER",
    "npi": "1154046290",
    "hcaiId": "206560536",
    "businessName": "SVRTC LLC",
    "contactEmail": "ADMINISTRATOR@SIMIREHAB.COM",
    "categoryName": "SKILLED NURSING FACILITY",
    "categoryCode": "SNF",
    "licenseStatus": "ACTIVE",
    "inService": true,
    "licenseNumber": "050000069",
    "licenseEffectiveDate": "04/14/2025",
    "licenseExpirationDate": "04/13/2026",
    "dataDate": "10/18/2025",
    "capacity": 99,
    "address": "5270 E LOS ANGELES AVE",
    "city": "SIMI VALLEY",
    "zip": "93063",
    "county": "VENTURA",
    "phone": "(805) 522-9155",
    "lat": 34.271199,
    "lng": -118.6895925
  },
  {
    "id": "630026534",
    "name": "SIMI VALLEY HOME HEALTH",
    "npi": null,
    "hcaiId": null,
    "businessName": "SIMI VALLEY HOME HEALTH",
    "contactEmail": "VALLEY.HHC@YAHOO.COM",
    "categoryName": "HOME HEALTH AGENCY",
    "categoryCode": "HHA",
    "licenseStatus": "ACTIVE",
    "inService": true,
    "licenseNumber": "550009455",
    "licenseEffectiveDate": "10/14/2025",
    "licenseExpirationDate": "10/13/2026",
    "dataDate": "10/18/2025",
    "capacity": 0,
    "address": "4288 E LOS ANGELES AVE, SUITE 201",
    "city": "SIMI VALLEY",
    "zip": "93063",
    "county": "VENTURA",
    "phone": "(805) 791-4500",
    "lat": 34.271406,
    "lng": -118.7108775
  },
  {
    "id": "630020499",
    "name": "SIMI VALLEY SURGERY CENTER INC",
    "npi": null,
    "hcaiId": null,
    "businessName": null,
    "contactEmail": null,
    "categoryName": "SURGICAL CLINIC",
    "categoryCode": "ASC",
    "licenseStatus": null,
    "inService": null,
    "licenseNumber": null,
    "licenseEffectiveDate": null,
    "licenseExpirationDate": null,
    "dataDate": "10/18/2025",
    "capacity": 0,
    "address": "3605 ALAMO ST, SUITE 102",
    "city": "SIMI VALLEY",
    "zip": "93063",
    "county": "VENTURA",
    "phone": "(805) 567-8900",
    "lat": 34.286715,
    "lng": -118.726092
  },
  {
    "id": "630026531",
    "name": "SIMIS HOME HEALTH CARE",
    "npi": null,
    "hcaiId": null,
    "businessName": "SIMIS HOME HEALTH CARE",
    "contactEmail": "SIMISHHC@GMAIL.COM",
    "categoryName": "HOME HEALTH AGENCY",
    "categoryCode": "HHA",
    "licenseStatus": "ACTIVE",
    "inService": true,
    "licenseNumber": "550009376",
    "licenseEffectiveDate": "09/11/2025",
    "licenseExpirationDate": "09/10/2026",
    "dataDate": "10/18/2025",
    "capacity": 0,
    "address": "4288 E LOS ANGELES AVE, SUITE 202",
    "city": "SIMI VALLEY",
    "zip": "93063",
    "county": "VENTURA",
    "phone": "(805) 791-1351",
    "lat": 34.271406,
    "lng": -118.7108775
  },
  {
    "id": "630015480",
    "name": "TRANQUILITY CARE, INC.",
    "npi": null,
    "hcaiId": "206564298",
    "businessName": "TRANQUILITY CARE, INC.",
    "contactEmail": "TRANQUILITYCAREINC123@GMAIL.COM",
    "categoryName": "CONGREGATE LIVING HEALTH FACILITY",
    "categoryCode": "CLHF",
    "licenseStatus": "ACTIVE",
    "inService": true,
    "licenseNumber": "550003773",
    "licenseEffectiveDate": "01/24/2025",
    "licenseExpirationDate": "01/23/2026",
    "dataDate": "10/18/2025",
    "capacity": 6,
    "address": "1812 CRATER STREET",
    "city": "SIMI VALLEY",
    "zip": "93063",
    "county": "VENTURA",
    "phone": "(805) 842-1810",
    "lat": 34.269525,
    "lng": -118.7321085
  },
  {
    "id": "630016401",
    "name": "UNITED HEARTS HOSPICE HEALTH SERVICES INC",
    "npi": "1710358320",
    "hcaiId": "406564280",
    "businessName": "UNITED HEARTS HOSPICE HEALTH SERVICES INC",
    "contactEmail": "UNITEDHEARTSHOSPICE@YAHOO.COM",
    "categoryName": "HOSPICE",
    "categoryCode": "HOSPICE",
    "licenseStatus": "ACTIVE",
    "inService": true,
    "licenseNumber": "550003445",
    "licenseEffectiveDate": "03/29/2024",
    "licenseExpirationDate": "03/28/2026",
    "dataDate": "10/18/2025",
    "capacity": 0,
    "address": "2139 TAPO STREET, SUITE 219",
    "city": "SIMI VALLEY",
    "zip": "93063",
    "county": "VENTURA",
    "phone": "(805) 791-3579",
    "lat": 34.273791,
    "lng": -118.709505
  },
  {
    "id": "630013810",
    "name": "UNIVERSAL PREVENTIVE HOME HEALTH CARE, INC",
    "npi": "1952675233",
    "hcaiId": "406564236",
    "businessName": "UNIVERSAL PREVENTIVE HOME HEALTH CARE, INC",
    "contactEmail": "UNIVERSALPHC@YAHOO.COM",
    "categoryName": "HOME HEALTH AGENCY",
    "categoryCode": "HHA",
    "licenseStatus": "ACTIVE",
    "inService": true,
    "licenseNumber": "550002159",
    "licenseEffectiveDate": "12/20/2024",
    "licenseExpirationDate": "12/19/2025",
    "dataDate": "10/18/2025",
    "capacity": 0,
    "address": "2139 TAPO ST, SUITE 205",
    "city": "SIMI VALLEY",
    "zip": "93063",
    "county": "VENTURA",
    "phone": "(805) 526-8800",
    "lat": 34.273791,
    "lng": -118.709505
  },
  {
    "id": "630025041",
    "name": "VALEO HOME HEALTH CARE, INC",
    "npi": null,
    "hcaiId": "406567727",
    "businessName": "VALEO HOME HEALTH CARE, INC",
    "contactEmail": "VALEOHHC@GMAIL.COM",
    "categoryName": "HOME HEALTH AGENCY",
    "categoryCode": "HHA",
    "licenseStatus": "ACTIVE",
    "inService": true,
    "licenseNumber": "550008575",
    "licenseEffectiveDate": "06/05/2025",
    "licenseExpirationDate": "06/04/2026",
    "dataDate": "10/18/2025",
    "capacity": 0,
    "address": "2139 E TAPO ST, SUITE 222",
    "city": "SIMI VALLEY",
    "zip": "93063",
    "county": "VENTURA",
    "phone": "(805) 267-9777",
    "lat": 34.273935,
    "lng": -118.7095635
  },
  {
    "id": "630025975",
    "name": "VAS HOMEHEALTH CARE, INC",
    "npi": null,
    "hcaiId": null,
    "businessName": "VAS HOMEHEALTH CARE, INC",
    "contactEmail": "VASHHCARE@GMAIL.COM",
    "categoryName": "HOME HEALTH AGENCY",
    "categoryCode": "HHA",
    "licenseStatus": "ACTIVE",
    "inService": true,
    "licenseNumber": "550009067",
    "licenseEffectiveDate": "04/10/2025",
    "licenseExpirationDate": "04/09/2026",
    "dataDate": "10/18/2025",
    "capacity": 0,
    "address": "4225 VALLEY FAIR ST, SUITE 203B",
    "city": "SIMI VALLEY",
    "zip": "93063",
    "county": "VENTURA",
    "phone": "(805) 387-2055",
    "lat": 34.272612,
    "lng": -118.71252
  },
  {
    "id": "630025042",
    "name": "VITA HOME HEALTH CARE, INC",
    "npi": null,
    "hcaiId": "406566329",
    "businessName": "VITA HOME HEALTH, INC",
    "contactEmail": "VITAHOMEHC@GMAIL.COM",
    "categoryName": "HOME HEALTH AGENCY",
    "categoryCode": "HHA",
    "licenseStatus": "ACTIVE",
    "inService": true,
    "licenseNumber": "550008458",
    "licenseEffectiveDate": "03/22/2025",
    "licenseExpirationDate": "03/21/2026",
    "dataDate": "10/18/2025",
    "capacity": 0,
    "address": "2139 TAPO ST, SUITE 214",
    "city": "SIMI VALLEY",
    "zip": "93063",
    "county": "VENTURA",
    "phone": "(805) 424-1010",
    "lat": 34.273935,
    "lng": -118.7095635
  },
  {
    "id": "050000688",
    "name": "WAVECREST HOME ICF/DD-H",
    "npi": "1457488538",
    "hcaiId": null,
    "businessName": "EPIPHANY CARE HOMES INC",
    "contactEmail": "MATTHEW@EPICARE.ORG",
    "categoryName": "INTERMEDIATE CARE FACILITY-DD/H/N/CN/IID",
    "categoryCode": "ICFDDH",
    "licenseStatus": "ACTIVE",
    "inService": true,
    "licenseNumber": "050000304",
    "licenseEffectiveDate": "12/16/2024",
    "licenseExpirationDate": "12/15/2025",
    "dataDate": "10/18/2025",
    "capacity": 6,
    "address": "2929 TEXAS AVENUE",
    "city": "SIMI VALLEY",
    "zip": "93063",
    "county": "VENTURA",
    "phone": "(805) 520-3441",
    "lat": 34.288587,
    "lng": -118.6977555
  },
  {
    "id": "630024250",
    "name": "WELLBE HOME HEALTH INC",
    "npi": null,
    "hcaiId": "406195862",
    "businessName": "WELLBE HOME HEALTH INC",
    "contactEmail": "WELLBEHOMEHEALTH@GMAIL.COM",
    "categoryName": "HOME HEALTH AGENCY",
    "categoryCode": "HHA",
    "licenseStatus": "ACTIVE",
    "inService": true,
    "licenseNumber": "550008017",
    "licenseEffectiveDate": "05/12/2025",
    "licenseExpirationDate": "05/11/2026",
    "dataDate": "10/18/2025",
    "capacity": 0,
    "address": "5924 E LOS ANGELES AVE, SUITE Q",
    "city": "SIMI VALLEY",
    "zip": "93063",
    "county": "VENTURA",
    "phone": "(805) 842-0096",
    "lat": 34.271208,
    "lng": -118.67562
  },
  {
    "id": "630013577",
    "name": "WESTMED HOME HEALTH INC",
    "npi": "1669610077",
    "hcaiId": "406564231",
    "businessName": "WESTMED HOME HEALTH, INC.",
    "contactEmail": "WESTMED_HH888@YAHOO.COM",
    "categoryName": "HOME HEALTH AGENCY",
    "categoryCode": "HHA",
    "licenseStatus": "ACTIVE",
    "inService": false,
    "licenseNumber": "550001954",
    "licenseEffectiveDate": "05/03/2025",
    "licenseExpirationDate": "05/02/2026",
    "dataDate": "10/18/2025",
    "capacity": 0,
    "address": "5924 E LOS ANGELES AVE, SUITE P",
    "city": "SIMI VALLEY",
    "zip": "93063",
    "county": "VENTURA",
    "phone": "(805) 600-0906",
    "lat": 34.271208,
    "lng": -118.67562
  }
]