[
  {
    "id": "080001579",
    "name": "BMA SANTA PAULA",
    "npi": "1649382441",
    "hcaiId": "306564106",
    "businessName": "BIO-MEDICAL APPLICATIONS OF CALIFORNIA, INC.",
    "contactEmail": "CLINIC2066@FMC-NA.COM",
    "categoryName": "CHRONIC DIALYSIS CLINIC",
    "categoryCode": "ESRD/CDC",
    "licenseStatus": "ACTIVE",
    "inService": true,
    "licenseNumber": "080000673",
    "licenseEffectiveDate": "03/24/2025",
    "licenseExpirationDate": "03/23/2026",
    "dataDate": "10/18/2025",
    "capacity": 16,
    "address": "242 E HARVARD BLVD",
    "city": "SANTA PAULA",
    "zip": "93060",
    "county": "VENTURA",
    "phone": "(805) 525-1500",
    "lat": 34.346403,
    "lng": -119.0682945
  },
  {
    "id": "050001280",
    "name": "CLINICAS DEL CAMINO REAL INC SANTA PAULA",
    "npi": null,
    "hcaiId": "306564103",
    "businessName": "CLINICAS DEL CAMINO REAL, INC.",
    "contactEmail": "EMAIL@CLINICAS.ORG",
    "categoryName": "PRIMARY CARE CLINIC",
    "categoryCode": "COMTYC",
    "licenseStatus": "ACTIVE",
    "inService": true,
    "licenseNumber": "050000511",
    "licenseEffectiveDate": "05/15/2025",
    "licenseExpirationDate": "05/14/2026",
    "dataDate": "10/18/2025",
    "capacity": 0,
    "address": "500 E MAIN ST",
    "city": "SANTA PAULA",
    "zip": "93060",
    "county": "VENTURA",
    "phone": "(805) 933-0895",
    "lat": 34.350948,
    "lng": -119.068596
  },
  {
    "id": "050001472",
    "name": "COMMUNITY MEMORIAL HEALTH CENTER",
    "npi": "1689612798",
    "hcaiId": null,
    "businessName": "COMMUNITY MEMORIAL HEALTH SYSTEM",
    "contactEmail": null,
    "categoryName": "PRIMARY CARE CLINIC",
    "categoryCode": "RHC/OP",
    "licenseStatus": "ACTIVE",
    "inService": true,
    "licenseNumber": "050000026",
    "licenseEffectiveDate": "03/01/2025",
    "licenseExpirationDate": "02/28/2026",
    "dataDate": "10/18/2025",
    "capacity": 0,
    "address": "242 E HARVARD BLVD, SUITE C",
    "city": "SANTA PAULA",
    "zip": "93060",
    "county": "VENTURA",
    "phone": "(805) 652-5490",
    "lat": 34.346403,
    "lng": -119.0682945
  },
  {
    "id": "630017109",
    "name": "COMMUNITY MEMORIAL HEALTH CENTER",
    "npi": "1508222506",
    "hcaiId": null,
    "businessName": "COMMUNITY MEMORIAL HEALTH SYSTEM",
    "contactEmail": null,
    "categoryName": "PRIMARY CARE CLINIC",
    "categoryCode": "RHC",
    "licenseStatus": "ACTIVE",
    "inService": true,
    "licenseNumber": "050000026",
    "licenseEffectiveDate": "03/01/2025",
    "licenseExpirationDate": "02/28/2026",
    "dataDate": "10/18/2025",
    "capacity": 0,
    "address": "258 E HARVARD BLVD",
    "city": "SANTA PAULA",
    "zip": "93060",
    "county": "VENTURA",
    "phone": null,
    "lat": 34.34737208,
    "lng": -119.0683467
  },
  {
    "id": "080001577",
    "name": "SANTA PAULA DIALYSIS",
    "npi": "1548599251",
    "hcaiId": "306564094",
    "businessName": "TOTAL RENAL CARE, INC.",
    "contactEmail": "CAL_C@DAVITA.COM",
    "categoryName": "CHRONIC DIALYSIS CLINIC",
    "categoryCode": "ESRD/CDC",
    "licenseStatus": "ACTIVE",
    "inService": true,
    "licenseNumber": "080000671",
    "licenseEffectiveDate": "04/01/2025",
    "licenseExpirationDate": "03/31/2026",
    "dataDate": "10/18/2025",
    "capacity": 10,
    "address": "253 MARCH ST",
    "city": "SANTA PAULA",
    "zip": "93060",
    "county": "VENTURA",
    "phone": "(805) 525-3977",
    "lat": 34.34931853,
    "lng": -119.0781653
  },
  {
    "id": "630012488",
    "name": "SANTA PAULA HOSPITAL CLINIC",
    "npi": null,
    "hcaiId": null,
    "businessName": null,
    "contactEmail": null,
    "categoryName": "PRIMARY CARE CLINIC",
    "categoryCode": "FQHC",
    "licenseStatus": null,
    "inService": null,
    "licenseNumber": null,
    "licenseEffectiveDate": null,
    "licenseExpirationDate": null,
    "dataDate": "10/18/2025",
    "capacity": 0,
    "address": "845 N 10TH ST, SUITE 3",
    "city": "SANTA PAULA",
    "zip": "93060",
    "county": "VENTURA",
    "phone": null,
    "lat": 34.36592554,
    "lng": -119.065675
  },
  {
    "id": "630012487",
    "name": "SANTA PAULA MEDICAL CLINIC",
    "npi": null,
    "hcaiId": null,
    "businessName": null,
    "contactEmail": null,
    "categoryName": "PRIMARY CARE CLINIC",
    "categoryCode": "FQHC",
    "licenseStatus": null,
    "inService": null,
    "licenseNumber": null,
    "licenseEffectiveDate": null,
    "licenseExpirationDate": null,
    "dataDate": "10/18/2025",
    "capacity": 0,
    "address": "1334 E MAIN ST",
    "city": "SANTA PAULA",
    "zip": "93060",
    "county": "VENTURA",
    "phone": null,
    "lat": 34.35621939,
    "lng": -119.0531121
  },
  {
    "id": "050000068",
    "name": "SANTA PAULA POST ACUTE CENTER",
    "npi": "1275040362",
    "hcaiId": "206560532",
    "businessName": "SANTA PAULA POST ACUTE, LLC",
    "contactEmail": "DOVI@STPHEALTH.COM",
    "categoryName": "SKILLED NURSING FACILITY",
    "categoryCode": "SNF",
    "licenseStatus": "ACTIVE",
    "inService": true,
    "licenseNumber": "050000066",
    "licenseEffectiveDate": "06/01/2025",
    "licenseExpirationDate": "05/31/2026",
    "dataDate": "10/18/2025",
    "capacity": 99,
    "address": "250 MARCH ST",
    "city": "SANTA PAULA",
    "zip": "93060",
    "county": "VENTURA",
    "phone": "(805) 525-7134",
    "lat": 34.348536,
    "lng": -119.0790675
  },
  {
    "id": "630012493",
    "name": "SANTA PAULA WEST",
    "npi": null,
    "hcaiId": null,
    "businessName": null,
    "contactEmail": null,
    "categoryName": "PRIMARY CARE CLINIC",
    "categoryCode": "FQHC",
    "licenseStatus": null,
    "inService": null,
    "licenseNumber": null,
    "licenseEffectiveDate": null,
    "licenseExpirationDate": null,
    "dataDate": "10/18/2025",
    "capacity": 0,
    "address": "254 W HARVARD BLVD, SUITE B",
    "city": "SANTA PAULA",
    "zip": "93060",
    "county": "VENTURA",
    "phone": null,
    "lat": 34.34496397,
    "lng": -119.0761456
  },
  {
    "id": "630010957",
    "name": "VENTURA COUNTY MEDICAL CENTER - SANTA PAULA HOSPITAL",
    "npi": null,
    "hcaiId": "106560521",
    "businessName": "COUNTY OF VENTURA",
    "contactEmail": null,
    "categoryName": "GENERAL ACUTE CARE HOSPITAL",
    "categoryCode": "GACH",
    "licenseStatus": "ACTIVE",
    "inService": true,
    "licenseNumber": "050000032",
    "licenseEffectiveDate": "05/30/2025",
    "licenseExpirationDate": "02/28/2026",
    "dataDate": "10/18/2025",
    "capacity": 49,
    "address": "825 N 10TH ST",
    "city": "SANTA PAULA",
    "zip": "93060",
    "county": "VENTURA",
    "phone": null,
    "lat": 34.36580022,
    "lng": -119.0654651
  }
]