[
  {
    "id": "630027443",
    "name": "AMERICAN INDIAN HEALTH AND SERVICES",
    "npi": null,
    "hcaiId": null,
    "businessName": "AMERICAN INDIAN HEALTH & SERVICES CORPORATION",
    "contactEmail": null,
    "categoryName": "PRIMARY CARE CLINIC",
    "categoryCode": "COMTYC",
    "licenseStatus": "ACTIVE",
    "inService": true,
    "licenseNumber": "050000515",
    "licenseEffectiveDate": "11/20/2024",
    "licenseExpirationDate": "11/19/2025",
    "dataDate": "10/18/2025",
    "capacity": 0,
    "address": "3227 STATE ST",
    "city": "SANTA BARBARA",
    "zip": "93105",
    "county": "SANTA BARBARA",
    "phone": null,
    "lat": 34.44029831,
    "lng": -119.7329076
  },
  {
    "id": "630018944",
    "name": "BRIDGE CLINIC",
    "npi": null,
    "hcaiId": null,
    "businessName": "SANTA BARBARA NEIGHBORHOOD CLINICS",
    "contactEmail": null,
    "categoryName": "PRIMARY CARE CLINIC",
    "categoryCode": "COMTYC",
    "licenseStatus": "ACTIVE",
    "inService": true,
    "licenseNumber": "550002691",
    "licenseEffectiveDate": "07/01/2025",
    "licenseExpirationDate": "06/02/2026",
    "dataDate": "10/18/2025",
    "capacity": 0,
    "address": "2320 BATH ST, SUITE 201",
    "city": "SANTA BARBARA",
    "zip": "93105",
    "county": "SANTA BARBARA",
    "phone": null,
    "lat": 34.43112,
    "lng": -119.722581
  },
  {
    "id": "630015481",
    "name": "CENTER FOR SPECIALIZED SURGERY OF SANTA BARBARA",
    "npi": "1588092605",
    "hcaiId": null,
    "businessName": null,
    "contactEmail": null,
    "categoryName": "SURGICAL CLINIC",
    "categoryCode": "ASC",
    "licenseStatus": null,
    "inService": null,
    "licenseNumber": null,
    "licenseEffectiveDate": null,
    "licenseExpirationDate": null,
    "dataDate": "10/18/2025",
    "capacity": 0,
    "address": "2927 DE LA VINA STREET",
    "city": "SANTA BARBARA",
    "zip": "93105",
    "county": "SANTA BARBARA",
    "phone": "(805) 770-3378",
    "lat": 34.437537,
    "lng": -119.7273015
  },
  {
    "id": "630018385",
    "name": "COASTAL SURGERY CENTER PARTNERS",
    "npi": "1164974655",
    "hcaiId": null,
    "businessName": null,
    "contactEmail": null,
    "categoryName": "SURGICAL CLINIC",
    "categoryCode": "ASC",
    "licenseStatus": null,
    "inService": null,
    "licenseNumber": null,
    "licenseEffectiveDate": null,
    "licenseExpirationDate": null,
    "dataDate": "10/18/2025",
    "capacity": 0,
    "address": "222 W PUEBLO ST, SUITE C",
    "city": "SANTA BARBARA",
    "zip": "93105",
    "county": "SANTA BARBARA",
    "phone": "(805) 364-8450",
    "lat": 34.43112,
    "lng": -119.72169
  },
  {
    "id": "050000022",
    "name": "COTTAGE REHABILITATION HOSPITAL",
    "npi": "1477554152",
    "hcaiId": "106424047",
    "businessName": "SANTA BARBARA COTTAGE HOSPITAL",
    "contactEmail": null,
    "categoryName": "GENERAL ACUTE CARE HOSPITAL",
    "categoryCode": "GACH",
    "licenseStatus": "ACTIVE",
    "inService": true,
    "licenseNumber": "050000140",
    "licenseEffectiveDate": "05/01/2025",
    "licenseExpirationDate": "02/28/2026",
    "dataDate": "10/18/2025",
    "capacity": 38,
    "address": "2415 DE LA VINA ST",
    "city": "SANTA BARBARA",
    "zip": "93105",
    "county": "SANTA BARBARA",
    "phone": "(805) 687-7444",
    "lat": 34.432821,
    "lng": -119.7227295
  },
  {
    "id": "050000593",
    "name": "DE LA VINA SURGICENTER",
    "npi": "1639149255",
    "hcaiId": null,
    "businessName": null,
    "contactEmail": null,
    "categoryName": "SURGICAL CLINIC",
    "categoryCode": "ASC",
    "licenseStatus": null,
    "inService": null,
    "licenseNumber": null,
    "licenseEffectiveDate": null,
    "licenseExpirationDate": null,
    "dataDate": "10/18/2025",
    "capacity": 0,
    "address": "2323 DE LA VINA ST, SUITE 102",
    "city": "SANTA BARBARA",
    "zip": "93105",
    "county": "SANTA BARBARA",
    "phone": "(805) 682-5065",
    "lat": 34.431858,
    "lng": -119.721249
  },
  {
    "id": "050000052",
    "name": "HILLSIDE HOUSE INC",
    "npi": "1467653303",
    "hcaiId": "206420486",
    "businessName": "HILLSIDE HOUSE INC",
    "contactEmail": "RRICE@HILLSIDESB.ORG",
    "categoryName": "INTERMEDIATE CARE FACILITY-DD/H/N/CN/IID",
    "categoryCode": "ICFDD",
    "licenseStatus": "ACTIVE",
    "inService": true,
    "licenseNumber": "050000036",
    "licenseEffectiveDate": "11/04/2024",
    "licenseExpirationDate": "11/03/2025",
    "dataDate": "10/18/2025",
    "capacity": 59,
    "address": "1235 VERONICA SPRINGS RD",
    "city": "SANTA BARBARA",
    "zip": "93105",
    "county": "SANTA BARBARA",
    "phone": "(805) 687-0788",
    "lat": 34.419726,
    "lng": -119.7440505
  },
  {
    "id": "050000004",
    "name": "MISSION PARK HEALTHCARE CENTER",
    "npi": "1144982281",
    "hcaiId": "206420499",
    "businessName": "MISSION PARK HEALTH CENTER, LLC",
    "contactEmail": "ADMINISTRATOR@MISSIONPARKHC.COM",
    "categoryName": "SKILLED NURSING FACILITY",
    "categoryCode": "SNF",
    "licenseStatus": "ACTIVE",
    "inService": true,
    "licenseNumber": "050000044",
    "licenseEffectiveDate": "05/01/2025",
    "licenseExpirationDate": "04/30/2026",
    "dataDate": "10/18/2025",
    "capacity": 138,
    "address": "623 W JUNIPERO ST",
    "city": "SANTA BARBARA",
    "zip": "93105",
    "county": "SANTA BARBARA",
    "phone": "(805) 682-7443",
    "lat": 34.4274672,
    "lng": -119.7265419
  },
  {
    "id": "050001372",
    "name": "PREMIER SURGERY CENTER",
    "npi": "1619989019",
    "hcaiId": "306424045",
    "businessName": "THE CEDARS SURGERY CENTER LP",
    "contactEmail": null,
    "categoryName": "SURGICAL CLINIC",
    "categoryCode": "ASC",
    "licenseStatus": "INACTIVE - CAPEN DECISION",
    "inService": false,
    "licenseNumber": "050000545",
    "licenseEffectiveDate": "11/01/2007",
    "licenseExpirationDate": "10/31/2008",
    "dataDate": "10/18/2025",
    "capacity": 0,
    "address": "2420 FLETCHER AVE",
    "city": "SANTA BARBARA",
    "zip": "93105",
    "county": "SANTA BARBARA",
    "phone": "(805) 898-1111",
    "lat": 34.430076,
    "lng": -119.725128
  },
  {
    "id": "050000061",
    "name": "SAMARKAND SKILLED NURSING FACILITY",
    "npi": "1467558692",
    "hcaiId": "206420510",
    "businessName": "COVENANT LIVING WEST",
    "contactEmail": "AANTONIO@COVLIVING.ORG",
    "categoryName": "SKILLED NURSING FACILITY",
    "categoryCode": "SNF",
    "licenseStatus": "ACTIVE",
    "inService": true,
    "licenseNumber": "050000051",
    "licenseEffectiveDate": "05/01/2025",
    "licenseExpirationDate": "04/30/2026",
    "dataDate": "10/18/2025",
    "capacity": 63,
    "address": "2566 TREASURE DR",
    "city": "SANTA BARBARA",
    "zip": "93105",
    "county": "SANTA BARBARA",
    "phone": "(805) 687-0701",
    "lat": 34.43029571,
    "lng": -119.7310008
  },
  {
    "id": "050000711",
    "name": "SANSUM CLINIC",
    "npi": "1144648015",
    "hcaiId": null,
    "businessName": null,
    "contactEmail": null,
    "categoryName": "SURGICAL CLINIC",
    "categoryCode": "ASC",
    "licenseStatus": null,
    "inService": null,
    "licenseNumber": null,
    "licenseEffectiveDate": null,
    "licenseExpirationDate": null,
    "dataDate": "10/18/2025",
    "capacity": 0,
    "address": "317 W PUEBLO ST",
    "city": "SANTA BARBARA",
    "zip": "93105",
    "county": "SANTA BARBARA",
    "phone": "(805) 681-7500",
    "lat": 34.4293384,
    "lng": -119.7224266
  },
  {
    "id": "050000280",
    "name": "SANTA BARBARA COTTAGE HOSPITAL",
    "npi": "1477554152",
    "hcaiId": "106420514",
    "businessName": "SANTA BARBARA COTTAGE HOSPITAL",
    "contactEmail": "LMOORE@SBCH.ORG",
    "categoryName": "GENERAL ACUTE CARE HOSPITAL",
    "categoryCode": "GACH",
    "licenseStatus": "ACTIVE",
    "inService": true,
    "licenseNumber": "050000140",
    "licenseEffectiveDate": "05/01/2025",
    "licenseExpirationDate": "02/28/2026",
    "dataDate": "10/18/2025",
    "capacity": 461,
    "address": "400 WEST PUEBLO STREET",
    "city": "SANTA BARBARA",
    "zip": "93105",
    "county": "SANTA BARBARA",
    "phone": "(805) 682-7111",
    "lat": 34.4294868,
    "lng": -119.7231697
  },
  {
    "id": "050001293",
    "name": "SANTA BARBARA COTTAGE HOSPITAL - D/P APH",
    "npi": null,
    "hcaiId": null,
    "businessName": "SANTA BARBARA COTTAGE HOSPITAL",
    "contactEmail": null,
    "categoryName": "ACUTE PSYCHIATRIC HOSPITAL",
    "categoryCode": "APH",
    "licenseStatus": "ACTIVE",
    "inService": true,
    "licenseNumber": "050000140",
    "licenseEffectiveDate": "05/01/2025",
    "licenseExpirationDate": "02/28/2026",
    "dataDate": "10/18/2025",
    "capacity": 20,
    "address": "400 W PUEBLO ST",
    "city": "SANTA BARBARA",
    "zip": "93105",
    "county": "SANTA BARBARA",
    "phone": "(805) 682-7111",
    "lat": 34.4294868,
    "lng": -119.7231697
  },
  {
    "id": "630021091",
    "name": "SANTA BARBARA HOME HEALTH INC.",
    "npi": "1780299826",
    "hcaiId": "406424096",
    "businessName": "SANTA BARBARA HOME HEALTH INC.",
    "contactEmail": "SANTABARBARAHOMEHEALTH@YAHOO.COM",
    "categoryName": "HOME HEALTH AGENCY",
    "categoryCode": "HHA",
    "licenseStatus": "ACTIVE",
    "inService": true,
    "licenseNumber": "550006338",
    "licenseEffectiveDate": "06/04/2025",
    "licenseExpirationDate": "06/03/2026",
    "dataDate": "10/18/2025",
    "capacity": 0,
    "address": "3892 STATE ST, SUITE 215",
    "city": "SANTA BARBARA",
    "zip": "93105",
    "county": "SANTA BARBARA",
    "phone": "(888) 701-7856",
    "lat": 34.44084,
    "lng": -119.750508
  },
  {
    "id": "630020557",
    "name": "SANTA BARBARA HOSPICE AND PALLIATIVE CARE INC.",
    "npi": null,
    "hcaiId": "406423775",
    "businessName": "SANTA BARBARA HOSPICE AND PALLIATIVE CARE INC.",
    "contactEmail": "SANTABARBARAHOSPICE@GMAIL.COM",
    "categoryName": "HOSPICE",
    "categoryCode": "HOSPICE",
    "licenseStatus": "ACTIVE",
    "inService": true,
    "licenseNumber": "550006347",
    "licenseEffectiveDate": "03/05/2025",
    "licenseExpirationDate": "03/04/2027",
    "dataDate": "10/18/2025",
    "capacity": 0,
    "address": "3892 STATE ST, SUITE 210",
    "city": "SANTA BARBARA",
    "zip": "93105",
    "county": "SANTA BARBARA",
    "phone": "(888) 415-4159",
    "lat": 34.44084,
    "lng": -119.750508
  },
  {
    "id": "630027186",
    "name": "SANTA BARBARA NEUROSCIENCE CENTER",
    "npi": "1063496651",
    "hcaiId": null,
    "businessName": "PACIFIC CENTRAL COAST HEALTH CENTERS",
    "contactEmail": null,
    "categoryName": "PRIMARY CARE CLINIC",
    "categoryCode": "COMTYC",
    "licenseStatus": "ACTIVE",
    "inService": true,
    "licenseNumber": "050000415",
    "licenseEffectiveDate": "11/21/2024",
    "licenseExpirationDate": "11/20/2025",
    "dataDate": "10/18/2025",
    "capacity": 0,
    "address": "2323 DE LA VINA ST, SUITE 205",
    "city": "SANTA BARBARA",
    "zip": "93105",
    "county": "SANTA BARBARA",
    "phone": null,
    "lat": 34.431924,
    "lng": -119.721351
  },
  {
    "id": "050001407",
    "name": "SANTA BARBARA SURGERY CENTER",
    "npi": "1023191822",
    "hcaiId": "306424051",
    "businessName": "SANTA BARBARA SURGERY CENTER LP",
    "contactEmail": "CMINOR@USPI.COM",
    "categoryName": "SURGICAL CLINIC",
    "categoryCode": "ASC",
    "licenseStatus": "INACTIVE - CAPEN DECISION",
    "inService": false,
    "licenseNumber": "050000560",
    "licenseEffectiveDate": "11/24/2007",
    "licenseExpirationDate": "11/23/2008",
    "dataDate": "10/18/2025",
    "capacity": 0,
    "address": "3045 DE LA VINA ST",
    "city": "SANTA BARBARA",
    "zip": "93105",
    "county": "SANTA BARBARA",
    "phone": "(805) 569-3226",
    "lat": 34.439526,
    "lng": -119.729619
  },
  {
    "id": "050001386",
    "name": "SUMMIT SURGERY CENTER",
    "npi": null,
    "hcaiId": "306424049",
    "businessName": "SUMMIT VENTURES OF SANTA BARBARA LP",
    "contactEmail": null,
    "categoryName": "SURGICAL CLINIC",
    "categoryCode": "ASC",
    "licenseStatus": "INACTIVE - CAPEN DECISION",
    "inService": false,
    "licenseNumber": "050000556",
    "licenseEffectiveDate": "04/21/2007",
    "licenseExpirationDate": "04/22/2008",
    "dataDate": "10/18/2025",
    "capacity": 0,
    "address": "231 W PUEBLO ST",
    "city": "SANTA BARBARA",
    "zip": "93105",
    "county": "SANTA BARBARA",
    "phone": "(805) 898-2797",
    "lat": 34.430508,
    "lng": -119.721411
  },
  {
    "id": "050000062",
    "name": "THE CALIFORNIAN",
    "npi": "1639182207",
    "hcaiId": "206420469",
    "businessName": "CALIFORNIA CONVALESCENT HOSPITAL OF SANTA BARBARA INC",
    "contactEmail": "EDGAR@CALIFORNIANSB.COM",
    "categoryName": "SKILLED NURSING FACILITY",
    "categoryCode": "SNF",
    "licenseStatus": "ACTIVE",
    "inService": true,
    "licenseNumber": "050000052",
    "licenseEffectiveDate": "05/01/2025",
    "licenseExpirationDate": "04/30/2026",
    "dataDate": "10/18/2025",
    "capacity": 68,
    "address": "2225 DE LA VINA ST",
    "city": "SANTA BARBARA",
    "zip": "93105",
    "county": "SANTA BARBARA",
    "phone": "(805) 682-1355",
    "lat": 34.430922,
    "lng": -119.720529
  },
  {
    "id": "050000069",
    "name": "VALLE VERDE HEALTH FACILITY",
    "npi": "1255412763",
    "hcaiId": "206420534",
    "businessName": "HUMANGOOD NORCAL",
    "contactEmail": "GREG.BEARCE@HUMANGOOD.ORG",
    "categoryName": "SKILLED NURSING FACILITY",
    "categoryCode": "SNF",
    "licenseStatus": "ACTIVE",
    "inService": true,
    "licenseNumber": "050000067",
    "licenseEffectiveDate": "11/01/2025",
    "licenseExpirationDate": "10/31/2026",
    "dataDate": "10/18/2025",
    "capacity": 80,
    "address": "900 CALLE DE LOS AMIGOS",
    "city": "SANTA BARBARA",
    "zip": "93105",
    "county": "SANTA BARBARA",
    "phone": "(805) 883-4000",
    "lat": 34.421247,
    "lng": -119.7494505
  }
]