[
  {
    "id": "630018712",
    "name": "EASTSIDE FAMILY DENTAL CLINIC",
    "npi": null,
    "hcaiId": null,
    "businessName": "SANTA BARBARA NEIGHBORHOOD CLINICS",
    "contactEmail": null,
    "categoryName": "PRIMARY CARE CLINIC",
    "categoryCode": "COMTYC",
    "licenseStatus": "ACTIVE",
    "inService": true,
    "licenseNumber": "550002691",
    "licenseEffectiveDate": "07/01/2025",
    "licenseExpirationDate": "06/02/2026",
    "dataDate": "10/18/2025",
    "capacity": 0,
    "address": "923 N MILPAS ST",
    "city": "SANTA BARBARA",
    "zip": "93103",
    "county": "SANTA BARBARA",
    "phone": null,
    "lat": 34.430337,
    "lng": -119.6912295
  },
  {
    "id": "050000104",
    "name": "EASTSIDE NEIGHBORHOOD CLINIC",
    "npi": "1063438232",
    "hcaiId": "306421172",
    "businessName": "SANTA BARBARA NEIGHBORHOOD CLINICS",
    "contactEmail": "ESNC@SBCLINICS.ORG",
    "categoryName": "PRIMARY CARE CLINIC",
    "categoryCode": "COMTYC",
    "licenseStatus": "ACTIVE",
    "inService": true,
    "licenseNumber": "550002691",
    "licenseEffectiveDate": "07/01/2025",
    "licenseExpirationDate": "06/02/2026",
    "dataDate": "10/18/2025",
    "capacity": 0,
    "address": "915 N MILPAS ST",
    "city": "SANTA BARBARA",
    "zip": "93103",
    "county": "SANTA BARBARA",
    "phone": "(805) 963-1641",
    "lat": 34.430202,
    "lng": -119.6910495
  },
  {
    "id": "630014175",
    "name": "SANTA BARBARA COUNTY PUBLIC HEALTH DEPARTMENT - CASA ESPERANZA",
    "npi": null,
    "hcaiId": null,
    "businessName": null,
    "contactEmail": null,
    "categoryName": "PRIMARY CARE CLINIC",
    "categoryCode": "FQHC",
    "licenseStatus": null,
    "inService": null,
    "licenseNumber": null,
    "licenseEffectiveDate": null,
    "licenseExpirationDate": null,
    "dataDate": "10/18/2025",
    "capacity": 0,
    "address": "816 CACIQUE ST",
    "city": "SANTA BARBARA",
    "zip": "93103",
    "county": "SANTA BARBARA",
    "phone": null,
    "lat": 34.418898,
    "lng": -119.6765685
  },
  {
    "id": "630014174",
    "name": "SANTA BARBARA COUNTY PUBLIC HEALTH DEPARTMENT - RESCUE MISSION",
    "npi": null,
    "hcaiId": null,
    "businessName": null,
    "contactEmail": null,
    "categoryName": "PRIMARY CARE CLINIC",
    "categoryCode": "FQHC",
    "licenseStatus": null,
    "inService": null,
    "licenseNumber": null,
    "licenseEffectiveDate": null,
    "licenseExpirationDate": null,
    "dataDate": "10/18/2025",
    "capacity": 0,
    "address": "535 E YANONALI ST",
    "city": "SANTA BARBARA",
    "zip": "93103",
    "county": "SANTA BARBARA",
    "phone": null,
    "lat": 34.419222,
    "lng": -119.6843985
  },
  {
    "id": "050000095",
    "name": "VNA HEALTH",
    "npi": "1477560035",
    "hcaiId": "406420518",
    "businessName": "VISITING NURSE AND HOSPICE CARE OF SANTA BARBARA",
    "contactEmail": "ADMINISTRATION@VNA.HEALTH",
    "categoryName": "HOME HEALTH AGENCY",
    "categoryCode": "HHA",
    "licenseStatus": "ACTIVE",
    "inService": true,
    "licenseNumber": "050000054",
    "licenseEffectiveDate": "11/10/2025",
    "licenseExpirationDate": "11/09/2026",
    "dataDate": "10/18/2025",
    "capacity": 0,
    "address": "512 E GUTIERREZ ST, SUITE B",
    "city": "SANTA BARBARA",
    "zip": "93103",
    "county": "SANTA BARBARA",
    "phone": "(805) 690-6262",
    "lat": 34.420932,
    "lng": -119.6876385
  },
  {
    "id": "630014780",
    "name": "VNA HEALTH",
    "npi": null,
    "hcaiId": "406424097",
    "businessName": "VISITING NURSE AND HOSPICE CARE OF SANTA BARBARA",
    "contactEmail": "ADMINISTRATION@VNA.HEALTH",
    "categoryName": "HOSPICE",
    "categoryCode": "HOSPICE",
    "licenseStatus": "ACTIVE",
    "inService": true,
    "licenseNumber": "550002709",
    "licenseEffectiveDate": "06/13/2024",
    "licenseExpirationDate": "06/12/2026",
    "dataDate": "10/18/2025",
    "capacity": 0,
    "address": "512 E GUTIERREZ ST, SUITE A",
    "city": "SANTA BARBARA",
    "zip": "93103",
    "county": "SANTA BARBARA",
    "phone": "(805) 690-6262",
    "lat": 34.420932,
    "lng": -119.6876385
  }
]