[
  {
    "id": "050000549",
    "name": "BUENA VISTA CARE CENTER",
    "npi": "1205977311",
    "hcaiId": "206420901",
    "businessName": "COVENANT CARE CALIFORNIA, LLC",
    "contactEmail": "BUENAVISTAREG@COVENANT.COM",
    "categoryName": "SKILLED NURSING FACILITY",
    "categoryCode": "SNF",
    "licenseStatus": "ACTIVE",
    "inService": true,
    "licenseNumber": "050000244",
    "licenseEffectiveDate": "01/13/2025",
    "licenseExpirationDate": "01/12/2026",
    "dataDate": "10/18/2025",
    "capacity": 150,
    "address": "160 S PATTERSON AVE",
    "city": "SANTA BARBARA",
    "zip": "93111",
    "county": "SANTA BARBARA",
    "phone": "(805) 964-4871",
    "lat": 34.436133,
    "lng": -119.8081485
  },
  {
    "id": "630014883",
    "name": "GOLETA NEIGHBORHOOD CLINIC",
    "npi": "1679997852",
    "hcaiId": "306424107",
    "businessName": "SANTA BARBARA NEIGHBORHOOD CLINICS",
    "contactEmail": "CEYLAN.OZKAN@SBCLINICS.COM",
    "categoryName": "PRIMARY CARE CLINIC",
    "categoryCode": "COMTYC",
    "licenseStatus": "ACTIVE",
    "inService": true,
    "licenseNumber": "550002691",
    "licenseEffectiveDate": "07/01/2025",
    "licenseExpirationDate": "06/02/2026",
    "dataDate": "10/18/2025",
    "capacity": 0,
    "address": "5580 CALLE REAL",
    "city": "GOLETA",
    "zip": "93111",
    "county": "SANTA BARBARA",
    "phone": "(805) 617-7858",
    "lat": 34.44132558,
    "lng": -119.818472
  },
  {
    "id": "050000017",
    "name": "GOLETA VALLEY COTTAGE HOSPITAL",
    "npi": "1225038136",
    "hcaiId": "106420483",
    "businessName": "GOLETA VALLEY COTTAGE HOSPITAL",
    "contactEmail": "A2DEJONG@SBCH.ORG",
    "categoryName": "GENERAL ACUTE CARE HOSPITAL",
    "categoryCode": "GACH",
    "licenseStatus": "ACTIVE",
    "inService": true,
    "licenseNumber": "050000034",
    "licenseEffectiveDate": "03/01/2025",
    "licenseExpirationDate": "02/28/2026",
    "dataDate": "10/18/2025",
    "capacity": 48,
    "address": "351 S PATTERSON AVE",
    "city": "SANTA BARBARA",
    "zip": "93111",
    "county": "SANTA BARBARA",
    "phone": "(805) 967-3411",
    "lat": 34.433433,
    "lng": -119.8103805
  },
  {
    "id": "630011446",
    "name": "LIFE NETWORK INC D/B/A NETWORK MEDICAL",
    "npi": null,
    "hcaiId": "306424071",
    "businessName": "LIFE NETWORK INC",
    "contactEmail": "JAELYNNE@NETWORKMEDICAL.ORG",
    "categoryName": "PRIMARY CARE CLINIC",
    "categoryCode": "FREEC",
    "licenseStatus": "ACTIVE",
    "inService": true,
    "licenseNumber": "550000675",
    "licenseEffectiveDate": "03/05/2025",
    "licenseExpirationDate": "03/04/2026",
    "dataDate": "10/18/2025",
    "capacity": 0,
    "address": "185 S PATTERSON AVE, SUITE C",
    "city": "SANTA BARBARA",
    "zip": "93111",
    "county": "SANTA BARBARA",
    "phone": "(805) 967-9096",
    "lat": 34.43554342,
    "lng": -119.8091536
  },
  {
    "id": "050000079",
    "name": "MILTON HOUSE",
    "npi": "1871519595",
    "hcaiId": null,
    "businessName": "JESSIE HOPKINS HINCHEE FOUNDATION",
    "contactEmail": "ED@JHHF.ORG",
    "categoryName": "INTERMEDIATE CARE FACILITY-DD/H/N/CN/IID",
    "categoryCode": "ICFDDH",
    "licenseStatus": "ACTIVE",
    "inService": true,
    "licenseNumber": "050000007",
    "licenseEffectiveDate": "02/23/2025",
    "licenseExpirationDate": "02/22/2026",
    "dataDate": "10/18/2025",
    "capacity": 6,
    "address": "825 N KELLOGG AVE",
    "city": "SANTA BARBARA",
    "zip": "93111",
    "county": "SANTA BARBARA",
    "phone": "(805) 967-7777",
    "lat": 34.453728,
    "lng": -119.813778
  }
]