[
  {
    "id": "630015386",
    "name": "GOLETA NEIGHBORHOOD DENTAL CLINIC",
    "npi": "1144636291",
    "hcaiId": "306424101",
    "businessName": "SANTA BARBARA NEIGHBORHOOD CLINICS",
    "contactEmail": "MARIA.TORRES@SBCLINICS.ORG",
    "categoryName": "PRIMARY CARE CLINIC",
    "categoryCode": "COMTYC",
    "licenseStatus": "ACTIVE",
    "inService": true,
    "licenseNumber": "550002691",
    "licenseEffectiveDate": "07/01/2025",
    "licenseExpirationDate": "06/02/2026",
    "dataDate": "10/18/2025",
    "capacity": 0,
    "address": "164 KINMAN AVE, SUITE A",
    "city": "GOLETA",
    "zip": "93117",
    "county": "SANTA BARBARA",
    "phone": "(805) 617-7900",
    "lat": 34.436214,
    "lng": -119.8220085
  },
  {
    "id": "050000113",
    "name": "ISLA VISTA NEIGHBORHOOD CLINIC",
    "npi": "1265458434",
    "hcaiId": "306420845",
    "businessName": "SANTA BARBARA NEIGHBORHOOD CLINICS",
    "contactEmail": "IVNC@SBCLINICS.ORG",
    "categoryName": "PRIMARY CARE CLINIC",
    "categoryCode": "COMTYC",
    "licenseStatus": "ACTIVE",
    "inService": true,
    "licenseNumber": "050000089",
    "licenseEffectiveDate": "11/18/2024",
    "licenseExpirationDate": "11/17/2025",
    "dataDate": "10/18/2025",
    "capacity": 0,
    "address": "970 EMBARCADERO DEL MAR",
    "city": "GOLETA",
    "zip": "93117",
    "county": "SANTA BARBARA",
    "phone": "(805) 968-3943",
    "lat": 34.41168,
    "lng": -119.8563885
  },
  {
    "id": "050000898",
    "name": "JESSICA HOUSE",
    "npi": "1073732897",
    "hcaiId": null,
    "businessName": "JESSIE HOPKINS HINCHEE FOUNDATION",
    "contactEmail": "ED@JHHF.ORG",
    "categoryName": "INTERMEDIATE CARE FACILITY-DD/H/N/CN/IID",
    "categoryCode": "ICFDDN",
    "licenseStatus": "ACTIVE",
    "inService": true,
    "licenseNumber": "050000357",
    "licenseEffectiveDate": "11/23/2024",
    "licenseExpirationDate": "11/22/2025",
    "dataDate": "10/18/2025",
    "capacity": 6,
    "address": "7174 ALAMEDA AVE",
    "city": "GOLETA",
    "zip": "93117",
    "county": "SANTA BARBARA",
    "phone": "(805) 967-7777",
    "lat": 34.435539,
    "lng": -119.879451
  }
]