[
  {
    "id": "630011651",
    "name": "ADVENTIST HEALTH REEDLEY",
    "npi": "1215110879",
    "hcaiId": null,
    "businessName": "REEDLEY COMMUNITY HOSPITAL",
    "contactEmail": null,
    "categoryName": "PRIMARY CARE CLINIC",
    "categoryCode": "RHC/OP",
    "licenseStatus": "ACTIVE",
    "inService": true,
    "licenseNumber": "040000149",
    "licenseEffectiveDate": "11/09/2024",
    "licenseExpirationDate": "11/08/2025",
    "dataDate": "10/18/2025",
    "capacity": 0,
    "address": "216 E FRESNO ST",
    "city": "AVENAL",
    "zip": "93204",
    "county": "KINGS",
    "phone": "(559) 386-5364",
    "lat": 36.00324,
    "lng": -120.135609
  },
  {
    "id": "630014153",
    "name": "ADVENTIST HEALTH REEDLEY",
    "npi": null,
    "hcaiId": null,
    "businessName": "REEDLEY COMMUNITY HOSPITAL",
    "contactEmail": null,
    "categoryName": "PRIMARY CARE CLINIC",
    "categoryCode": "RHC/OP",
    "licenseStatus": "ACTIVE",
    "inService": true,
    "licenseNumber": "040000149",
    "licenseEffectiveDate": "11/09/2024",
    "licenseExpirationDate": "11/08/2025",
    "dataDate": "10/18/2025",
    "capacity": 0,
    "address": "337 E KINGS ST",
    "city": "AVENAL",
    "zip": "93204",
    "county": "KINGS",
    "phone": null,
    "lat": 36.002763,
    "lng": -120.1336515
  },
  {
    "id": "630020083",
    "name": "ARIA COMMUNITY HEALTH CENTER",
    "npi": null,
    "hcaiId": null,
    "businessName": "AVENAL COMMUNITY HEALTH CENTER",
    "contactEmail": null,
    "categoryName": "PRIMARY CARE CLINIC",
    "categoryCode": "COMTYC",
    "licenseStatus": "ACTIVE",
    "inService": true,
    "licenseNumber": "550002822",
    "licenseEffectiveDate": "09/17/2025",
    "licenseExpirationDate": "09/16/2026",
    "dataDate": "10/18/2025",
    "capacity": 0,
    "address": "1000 SKYLINE BLVD, SUITE A",
    "city": "AVENAL",
    "zip": "93204",
    "county": "KINGS",
    "phone": null,
    "lat": 36.007452,
    "lng": -120.1215015
  },
  {
    "id": "630020237",
    "name": "ARIA COMMUNITY HEALTH CENTER",
    "npi": null,
    "hcaiId": null,
    "businessName": "AVENAL COMMUNITY HEALTH CENTER",
    "contactEmail": "HMUNGUR@ARIACHC.ORG",
    "categoryName": "PRIMARY CARE CLINIC",
    "categoryCode": "COMTYC",
    "licenseStatus": "ACTIVE",
    "inService": true,
    "licenseNumber": "550002822",
    "licenseEffectiveDate": "09/17/2025",
    "licenseExpirationDate": "09/16/2026",
    "dataDate": "10/18/2025",
    "capacity": 0,
    "address": "1000 SKYLINE BLVD, SUITE B",
    "city": "AVENAL",
    "zip": "93204",
    "county": "KINGS",
    "phone": "(559) 257-3230",
    "lat": 36.007452,
    "lng": -120.1215015
  },
  {
    "id": "630020442",
    "name": "ARIA COMMUNITY HEALTH CENTER",
    "npi": null,
    "hcaiId": null,
    "businessName": "AVENAL COMMUNITY HEALTH CENTER",
    "contactEmail": null,
    "categoryName": "PRIMARY CARE CLINIC",
    "categoryCode": "COMTYC",
    "licenseStatus": "ACTIVE",
    "inService": true,
    "licenseNumber": "550002822",
    "licenseEffectiveDate": "09/17/2025",
    "licenseExpirationDate": "09/16/2026",
    "dataDate": "10/18/2025",
    "capacity": 0,
    "address": "1000 SKYLINE BLVD, SUITE C",
    "city": "AVENAL",
    "zip": "93204",
    "county": "KINGS",
    "phone": null,
    "lat": 36.007452,
    "lng": -120.1215015
  },
  {
    "id": "630014842",
    "name": "ARIA COMMUNITY HEALTH CENTER - MOBILE 2",
    "npi": null,
    "hcaiId": "306164036",
    "businessName": "AVENAL COMMUNITY HEALTH CENTER",
    "contactEmail": "SGRIFFITH@ARIACHC.ORG",
    "categoryName": "PRIMARY CARE CLINIC",
    "categoryCode": "COMTYC",
    "licenseStatus": "ACTIVE",
    "inService": true,
    "licenseNumber": "550002602",
    "licenseEffectiveDate": "03/11/2025",
    "licenseExpirationDate": "03/10/2026",
    "dataDate": "10/18/2025",
    "capacity": 0,
    "address": "1000 SKYLINE BLVD",
    "city": "AVENAL",
    "zip": "93204",
    "county": "KINGS",
    "phone": "(559) 386-4500",
    "lat": 36.007452,
    "lng": -120.1215015
  },
  {
    "id": "630016077",
    "name": "ARIA COMMUNITY HEALTH CENTER AMC",
    "npi": "1912312273",
    "hcaiId": "306164039",
    "businessName": "AVENAL COMMUNITY HEALTH CENTER",
    "contactEmail": "GAGUIRRE@ARIAHC.ORG",
    "categoryName": "PRIMARY CARE CLINIC",
    "categoryCode": "COMTYC",
    "licenseStatus": "ACTIVE",
    "inService": true,
    "licenseNumber": "550003114",
    "licenseEffectiveDate": "07/01/2025",
    "licenseExpirationDate": "06/30/2026",
    "dataDate": "10/18/2025",
    "capacity": 0,
    "address": "148 E. KINGS ST.",
    "city": "AVENAL",
    "zip": "93204",
    "county": "KINGS",
    "phone": "(559) 386-9000",
    "lat": 36.002259,
    "lng": -120.1366035
  }
]