[
  {
    "id": "120000336",
    "name": "ADVENTIST HEALTH DELANO",
    "npi": "1073645388",
    "hcaiId": "106150706",
    "businessName": "ADVENTIST HEALTH DELANO",
    "contactEmail": "GARCIAM49@AH.ORG",
    "categoryName": "GENERAL ACUTE CARE HOSPITAL",
    "categoryCode": "GACH",
    "licenseStatus": "ACTIVE",
    "inService": true,
    "licenseNumber": "120000180",
    "licenseEffectiveDate": "05/29/2025",
    "licenseExpirationDate": "05/28/2026",
    "dataDate": "10/18/2025",
    "capacity": 97,
    "address": "1401 GARCES HWY",
    "city": "DELANO",
    "zip": "93215",
    "county": "KERN",
    "phone": "(661) 721-5395",
    "lat": 35.76148945,
    "lng": -119.238867
  },
  {
    "id": "120000399",
    "name": "ADVENTIST HEALTH DELANO D/P SNF",
    "npi": "1033247622",
    "hcaiId": null,
    "businessName": "ADVENTIST HEALTH DELANO",
    "contactEmail": "PICHAYC@AH.ORG",
    "categoryName": "SKILLED NURSING FACILITY",
    "categoryCode": "SNF",
    "licenseStatus": "ACTIVE",
    "inService": true,
    "licenseNumber": "120000180",
    "licenseEffectiveDate": "05/29/2025",
    "licenseExpirationDate": "05/28/2026",
    "dataDate": "10/18/2025",
    "capacity": 59,
    "address": "1401 GARCES HWY",
    "city": "DELANO",
    "zip": "93215",
    "county": "KERN",
    "phone": "(661) 725-4800",
    "lat": 35.76148945,
    "lng": -119.238867
  },
  {
    "id": "630017268",
    "name": "ARDENT HOSPICE OF THE VALLEY",
    "npi": "1790226827",
    "hcaiId": "406151623",
    "businessName": "SYCAMORE GROVE HEALTHCARE LLC",
    "contactEmail": "ADMIN@ARDENTHHH.COM",
    "categoryName": "HOSPICE",
    "categoryCode": "HOSPICE",
    "licenseStatus": "ACTIVE",
    "inService": true,
    "licenseNumber": "550004430",
    "licenseEffectiveDate": "09/21/2024",
    "licenseExpirationDate": "09/20/2026",
    "dataDate": "10/18/2025",
    "capacity": 0,
    "address": "601 HIGH ST, UNIT E",
    "city": "DELANO",
    "zip": "93215",
    "county": "KERN",
    "phone": "(559) 408-5945",
    "lat": 35.763933,
    "lng": -119.245852
  },
  {
    "id": "070001297",
    "name": "DELANO ADULT DAY HEALTH CARE CENTER",
    "npi": null,
    "hcaiId": null,
    "businessName": "DELANO ADULT DAY HEALTH CARE CENTER",
    "contactEmail": "DELANOADHCC@YAHOO.COM",
    "categoryName": "ADULT DAY HEALTH CARE",
    "categoryCode": "ADHC",
    "licenseStatus": "ACTIVE",
    "inService": true,
    "licenseNumber": "070000617",
    "licenseEffectiveDate": "05/16/2025",
    "licenseExpirationDate": "05/15/2026",
    "dataDate": "10/18/2025",
    "capacity": 0,
    "address": "1457 GLENWOOD ST",
    "city": "DELANO",
    "zip": "93215",
    "county": "KERN",
    "phone": "(661) 725-7070",
    "lat": 35.774748,
    "lng": -119.250801
  },
  {
    "id": "120001013",
    "name": "DELANO COMMUNITY HEALTH CENTER",
    "npi": "1316949837",
    "hcaiId": "306154070",
    "businessName": "CLINICA SIERRA VISTA",
    "contactEmail": "SCHILLING@CLINICASIERRAVISTA.ORG",
    "categoryName": "PRIMARY CARE CLINIC",
    "categoryCode": "COMTYC",
    "licenseStatus": "ACTIVE",
    "inService": true,
    "licenseNumber": "120000199",
    "licenseEffectiveDate": "06/06/2025",
    "licenseExpirationDate": "06/05/2026",
    "dataDate": "10/18/2025",
    "capacity": 0,
    "address": "1508 GARCES HWY, SUITE 1",
    "city": "DELANO",
    "zip": "93215",
    "county": "KERN",
    "phone": "(661) 725-4780",
    "lat": 35.760969,
    "lng": -119.236842
  },
  {
    "id": "240001783",
    "name": "DELANO DIALYSIS",
    "npi": "1194799544",
    "hcaiId": "306154174",
    "businessName": "DVA HEALTHCARE RENAL CARE, INC.",
    "contactEmail": "CAL_C@DAVITA.COM",
    "categoryName": "CHRONIC DIALYSIS CLINIC",
    "categoryCode": "ESRD/CDC",
    "licenseStatus": "ACTIVE",
    "inService": true,
    "licenseNumber": "240000778",
    "licenseEffectiveDate": "11/06/2025",
    "licenseExpirationDate": "11/05/2026",
    "dataDate": "10/18/2025",
    "capacity": 32,
    "address": "405 DOVER PKWY",
    "city": "DELANO",
    "zip": "93215",
    "county": "KERN",
    "phone": "(661) 725-1370",
    "lat": 35.755569,
    "lng": -119.2500315
  },
  {
    "id": "120000638",
    "name": "DELANO DISTRICT SKILLED NURSING FACILITY",
    "npi": "1366595019",
    "hcaiId": "206154031",
    "businessName": "NORTH KERN SOUTH TULARE HOSPITAL DISTRICT",
    "contactEmail": "BRANDON_WEBER@NKSTHD.ORG",
    "categoryName": "SKILLED NURSING FACILITY",
    "categoryCode": "SNF",
    "licenseStatus": "ACTIVE",
    "inService": true,
    "licenseNumber": "120000281",
    "licenseEffectiveDate": "11/19/2024",
    "licenseExpirationDate": "11/18/2025",
    "dataDate": "10/18/2025",
    "capacity": 141,
    "address": "1509 TOKAY ST",
    "city": "DELANO",
    "zip": "93215",
    "county": "KERN",
    "phone": "(661) 720-2100",
    "lat": 35.762328,
    "lng": -119.237688
  },
  {
    "id": "630016710",
    "name": "DELANO KIDNEY CENTER LLC",
    "npi": "1700230430",
    "hcaiId": "306154209",
    "businessName": "DELANO KIDNEY CENTER LLC",
    "contactEmail": "VERONICA.HERNANDEZ@INNOVATIVERENAL.COM",
    "categoryName": "CHRONIC DIALYSIS CLINIC",
    "categoryCode": "ESRD/CDC",
    "licenseStatus": "ACTIVE",
    "inService": true,
    "licenseNumber": "550003733",
    "licenseEffectiveDate": "11/29/2025",
    "licenseExpirationDate": "11/28/2026",
    "dataDate": "10/18/2025",
    "capacity": 20,
    "address": "1980 CECIL AVENUE",
    "city": "DELANO",
    "zip": "93215",
    "county": "KERN",
    "phone": "(661) 721-2830",
    "lat": 35.77577554,
    "lng": -119.229529
  },
  {
    "id": "630019537",
    "name": "DELANO WALK-IN-CLINIC",
    "npi": null,
    "hcaiId": "306150608",
    "businessName": "CLINICA SIERRA VISTA",
    "contactEmail": "GRECIA.BARRERA@CLINICASIERRAVISTA.ORG",
    "categoryName": "PRIMARY CARE CLINIC",
    "categoryCode": "COMTYC",
    "licenseStatus": "ACTIVE",
    "inService": true,
    "licenseNumber": "550006184",
    "licenseEffectiveDate": "04/16/2025",
    "licenseExpirationDate": "04/15/2026",
    "dataDate": "10/18/2025",
    "capacity": 0,
    "address": "425 DEL SOL PKWY",
    "city": "DELANO",
    "zip": "93215",
    "county": "KERN",
    "phone": "(661) 635-3050",
    "lat": 35.75419944,
    "lng": -119.2502579
  },
  {
    "id": "120001655",
    "name": "DELANO WOMEN'S MEDICAL CLINIC",
    "npi": "1851429658",
    "hcaiId": null,
    "businessName": null,
    "contactEmail": "@DRMC.COM",
    "categoryName": "PRIMARY CARE CLINIC",
    "categoryCode": "RHC/OP",
    "licenseStatus": null,
    "inService": null,
    "licenseNumber": null,
    "licenseEffectiveDate": null,
    "licenseExpirationDate": null,
    "dataDate": "10/18/2025",
    "capacity": 0,
    "address": "1201 JEFFERSON ST",
    "city": "DELANO",
    "zip": "93215",
    "county": "KERN",
    "phone": "(661) 721-0737",
    "lat": 35.772003,
    "lng": -119.245338
  },
  {
    "id": "630027804",
    "name": "FAMILY HEALTHCARE NETWORK",
    "npi": "1063283158",
    "hcaiId": null,
    "businessName": "FAMILY HEALTHCARE NETWORK",
    "contactEmail": null,
    "categoryName": "PRIMARY CARE CLINIC",
    "categoryCode": "FQHC/COMTYC",
    "licenseStatus": "ACTIVE",
    "inService": true,
    "licenseNumber": "550004220",
    "licenseEffectiveDate": "06/24/2025",
    "licenseExpirationDate": "04/21/2026",
    "dataDate": "10/18/2025",
    "capacity": 0,
    "address": "1230 JEFFERSON ST",
    "city": "DELANO",
    "zip": "93215",
    "county": "KERN",
    "phone": null,
    "lat": 35.77227369,
    "lng": -119.2449582
  },
  {
    "id": "630002601",
    "name": "FIL-AM MOBILE RADIOLOGY, LLC",
    "npi": null,
    "hcaiId": null,
    "businessName": null,
    "contactEmail": null,
    "categoryName": "OTHER",
    "categoryCode": "UNLICEN",
    "licenseStatus": null,
    "inService": null,
    "licenseNumber": null,
    "licenseEffectiveDate": null,
    "licenseExpirationDate": null,
    "dataDate": "10/18/2025",
    "capacity": 0,
    "address": "341 NORWALK ST",
    "city": "DELANO",
    "zip": "93215",
    "county": "KERN",
    "phone": null,
    "lat": 35.761059,
    "lng": -119.2391505
  },
  {
    "id": "630013225",
    "name": "GLORIA NELSON CENTER FOR WOMEN AND CHILDREN",
    "npi": "1114220357",
    "hcaiId": null,
    "businessName": null,
    "contactEmail": "LIDIA_ALBIAR@NKSTHD.ORG",
    "categoryName": "PRIMARY CARE CLINIC",
    "categoryCode": "RHC",
    "licenseStatus": null,
    "inService": null,
    "licenseNumber": null,
    "licenseEffectiveDate": null,
    "licenseExpirationDate": null,
    "dataDate": "10/18/2025",
    "capacity": 0,
    "address": "1500 6TH AVENUE",
    "city": "DELANO",
    "zip": "93215",
    "county": "KERN",
    "phone": "(661) 725-1010",
    "lat": 35.76500255,
    "lng": -119.2363575
  },
  {
    "id": "120001038",
    "name": "HIGHER GROUND HOMES, INC. #1",
    "npi": "1356634331",
    "hcaiId": null,
    "businessName": "HIGHER GROUND HOMES, INC.",
    "contactEmail": "HIGHERGROUNDHOMES@YAHOO.COM",
    "categoryName": "INTERMEDIATE CARE FACILITY-DD/H/N/CN/IID",
    "categoryCode": "ICFDDN",
    "licenseStatus": "ACTIVE",
    "inService": true,
    "licenseNumber": "120000428",
    "licenseEffectiveDate": "01/13/2025",
    "licenseExpirationDate": "01/12/2026",
    "dataDate": "10/18/2025",
    "capacity": 6,
    "address": "422 BALBOA DR",
    "city": "DELANO",
    "zip": "93215",
    "county": "KERN",
    "phone": "(661) 721-2454",
    "lat": 35.756397,
    "lng": -119.2506885
  },
  {
    "id": "120001037",
    "name": "HIGHER GROUND HOMES, INC. #2",
    "npi": "1861785842",
    "hcaiId": null,
    "businessName": "HIGHER GROUND HOMES, INC.",
    "contactEmail": "HIGHERGROUNDHOMES@YAHOO.COM",
    "categoryName": "INTERMEDIATE CARE FACILITY-DD/H/N/CN/IID",
    "categoryCode": "ICFDDN",
    "licenseStatus": "ACTIVE",
    "inService": true,
    "licenseNumber": "120000429",
    "licenseEffectiveDate": "01/13/2025",
    "licenseExpirationDate": "01/12/2026",
    "dataDate": "10/18/2025",
    "capacity": 6,
    "address": "302 BALBOA DR",
    "city": "DELANO",
    "zip": "93215",
    "county": "KERN",
    "phone": "(661) 721-2758",
    "lat": 35.756379,
    "lng": -119.2538385
  },
  {
    "id": "120001177",
    "name": "KELLY & SCOTT'S CARE HOME",
    "npi": "1184759227",
    "hcaiId": null,
    "businessName": "KELLY AND SCOTT'S CARE HOME",
    "contactEmail": "KSCAREHOME@SBCGLOBAL.NET",
    "categoryName": "INTERMEDIATE CARE FACILITY-DD/H/N/CN/IID",
    "categoryCode": "ICFDDN",
    "licenseStatus": "ACTIVE",
    "inService": true,
    "licenseNumber": "120000479",
    "licenseEffectiveDate": "02/14/2025",
    "licenseExpirationDate": "02/13/2026",
    "dataDate": "10/18/2025",
    "capacity": 6,
    "address": "2212 5TH DR",
    "city": "DELANO",
    "zip": "93215",
    "county": "KERN",
    "phone": "(559) 359-2978",
    "lat": 35.764461,
    "lng": -119.2246695
  },
  {
    "id": "120001683",
    "name": "KELLY & SCOTT'S CARE HOME INC. #2",
    "npi": "1184759227",
    "hcaiId": null,
    "businessName": "KELLY AND SCOTT'S CARE HOME",
    "contactEmail": "KSCAREHOME@SBCGLOBAL.NET",
    "categoryName": "INTERMEDIATE CARE FACILITY-DD/H/N/CN/IID",
    "categoryCode": "ICFDDN",
    "licenseStatus": "ACTIVE",
    "inService": true,
    "licenseNumber": "120000673",
    "licenseEffectiveDate": "12/24/2024",
    "licenseExpirationDate": "12/23/2025",
    "dataDate": "10/18/2025",
    "capacity": 6,
    "address": "1324 5TH PL",
    "city": "DELANO",
    "zip": "93215",
    "county": "KERN",
    "phone": "(559) 359-2978",
    "lat": 35.764038,
    "lng": -119.2391415
  },
  {
    "id": "120000869",
    "name": "KERN COUNTY HEALTH DEPARTMENT - DELANO CLINIC",
    "npi": null,
    "hcaiId": null,
    "businessName": null,
    "contactEmail": null,
    "categoryName": "OTHER",
    "categoryCode": "UNLICEN",
    "licenseStatus": null,
    "inService": null,
    "licenseNumber": null,
    "licenseEffectiveDate": null,
    "licenseExpirationDate": null,
    "dataDate": "10/18/2025",
    "capacity": 0,
    "address": "455 LEXINGTON ST",
    "city": "DELANO",
    "zip": "93215",
    "county": "KERN",
    "phone": "(661) 725-5533",
    "lat": 35.76261266,
    "lng": -119.2408542
  },
  {
    "id": "630010841",
    "name": "KERN VALLEY STATE PRISON CTC",
    "npi": null,
    "hcaiId": null,
    "businessName": "CA DEPARTMENT OF CORRECTIONS AND REHABILITATION",
    "contactEmail": "INEZ.ALCANTAR@CDCR.CA.GOV",
    "categoryName": "CORRECTIONAL TREATMENT CENTER",
    "categoryCode": "CTC",
    "licenseStatus": "ACTIVE",
    "inService": true,
    "licenseNumber": "550000202",
    "licenseEffectiveDate": "01/01/2025",
    "licenseExpirationDate": "12/31/2025",
    "dataDate": "10/18/2025",
    "capacity": 22,
    "address": "3000 W CECIL AVE",
    "city": "DELANO",
    "zip": "93215",
    "county": "KERN",
    "phone": "(661) 721-6300",
    "lat": 35.775731,
    "lng": -119.301548
  },
  {
    "id": "630002461",
    "name": "NORTH KERN STATE PRISON - CTC",
    "npi": null,
    "hcaiId": null,
    "businessName": "CA DEPARTMENT OF CORRECTIONS AND REHABILITATION",
    "contactEmail": "ADINA.PIROZZI@CDCR.CA.GOV",
    "categoryName": "CORRECTIONAL TREATMENT CENTER",
    "categoryCode": "CTC",
    "licenseStatus": "ACTIVE",
    "inService": true,
    "licenseNumber": "550000086",
    "licenseEffectiveDate": "11/08/2024",
    "licenseExpirationDate": "11/07/2025",
    "dataDate": "10/18/2025",
    "capacity": 16,
    "address": "2737 W CECIL AVE",
    "city": "DELANO",
    "zip": "93215",
    "county": "KERN",
    "phone": "(661) 721-2345",
    "lat": 35.77576169,
    "lng": -119.3103441
  },
  {
    "id": "120000972",
    "name": "OMNI FAMILY HEALTH",
    "npi": null,
    "hcaiId": "306150786",
    "businessName": "OMNI FAMILY HEALTH",
    "contactEmail": "LICENSING@OMNIFAMILYHEALTH.ORG",
    "categoryName": "PRIMARY CARE CLINIC",
    "categoryCode": "COMTYC",
    "licenseStatus": "ACTIVE",
    "inService": false,
    "licenseNumber": "120000390",
    "licenseEffectiveDate": "11/11/2025",
    "licenseExpirationDate": "11/10/2026",
    "dataDate": "10/18/2025",
    "capacity": 0,
    "address": "1001 MAIN ST",
    "city": "DELANO",
    "zip": "93215",
    "county": "KERN",
    "phone": "(661) 630-7063",
    "lat": 35.769249,
    "lng": -119.2460715
  },
  {
    "id": "120001415",
    "name": "OMNI FAMILY HEALTH",
    "npi": null,
    "hcaiId": "306154115",
    "businessName": "OMNI FAMILY HEALTH",
    "contactEmail": "LICENSING@OMNIFAMILYHEALTH.ORG",
    "categoryName": "PRIMARY CARE CLINIC",
    "categoryCode": "COMTYC",
    "licenseStatus": "ACTIVE",
    "inService": false,
    "licenseNumber": "120000654",
    "licenseEffectiveDate": "11/21/2025",
    "licenseExpirationDate": "11/20/2026",
    "dataDate": "10/18/2025",
    "capacity": 0,
    "address": "1215 JEFFERSON ST",
    "city": "DELANO",
    "zip": "93215",
    "county": "KERN",
    "phone": "(661) 630-7063",
    "lat": 35.772444,
    "lng": -119.2454415
  },
  {
    "id": "630018099",
    "name": "OMNI FAMILY HEALTH",
    "npi": "1063925717",
    "hcaiId": "306150441",
    "businessName": "OMNI FAMILY HEALTH",
    "contactEmail": "LICENSING@OMNIFAMILYHEALTH.ORG",
    "categoryName": "PRIMARY CARE CLINIC",
    "categoryCode": "COMTYC",
    "licenseStatus": "ACTIVE",
    "inService": true,
    "licenseNumber": "550004512",
    "licenseEffectiveDate": "01/17/2025",
    "licenseExpirationDate": "01/16/2026",
    "dataDate": "10/18/2025",
    "capacity": 0,
    "address": "912 FREMONT ST",
    "city": "DELANO",
    "zip": "93215",
    "county": "KERN",
    "phone": "(661) 459-1900",
    "lat": 35.767656,
    "lng": -119.249442
  },
  {
    "id": "120001251",
    "name": "PACIFIC COAST SURGICAL CENTER #7, LLC",
    "npi": "1972692754",
    "hcaiId": "306154095",
    "businessName": null,
    "contactEmail": "STEVENYMD@HOTMAIL.COM",
    "categoryName": "SURGICAL CLINIC",
    "categoryCode": "ASC",
    "licenseStatus": "INACTIVE - CAPEN DECISION",
    "inService": false,
    "licenseNumber": "120000505",
    "licenseEffectiveDate": "11/03/2007",
    "licenseExpirationDate": "11/02/2008",
    "dataDate": "10/18/2025",
    "capacity": 0,
    "address": "1519 GARCES HWY, SUITE 101",
    "city": "DELANO",
    "zip": "93215",
    "county": "KERN",
    "phone": "(661) 720-9600",
    "lat": 35.76149165,
    "lng": -119.2362458
  },
  {
    "id": "120000503",
    "name": "POSITIVE DIRECTIONS # 2",
    "npi": "1821211475",
    "hcaiId": null,
    "businessName": "POSITIVE DIRECTIONS, INC.",
    "contactEmail": "TRISHFLORES16@GMAIL.COM",
    "categoryName": "INTERMEDIATE CARE FACILITY-DD/H/N/CN/IID",
    "categoryCode": "ICFDDH",
    "licenseStatus": "ACTIVE",
    "inService": true,
    "licenseNumber": "120000237",
    "licenseEffectiveDate": "12/19/2024",
    "licenseExpirationDate": "12/18/2025",
    "dataDate": "10/18/2025",
    "capacity": 6,
    "address": "2017 19TH AVE",
    "city": "DELANO",
    "zip": "93215",
    "county": "KERN",
    "phone": "(661) 721-3525",
    "lat": 35.781327,
    "lng": -119.2278015
  },
  {
    "id": "120000530",
    "name": "POSITIVE DIRECTIONS # 3",
    "npi": "1730302381",
    "hcaiId": null,
    "businessName": "POSITIVE DIRECTIONS, INC.",
    "contactEmail": "TRISHFLORES16@GMAIL.COM",
    "categoryName": "INTERMEDIATE CARE FACILITY-DD/H/N/CN/IID",
    "categoryCode": "ICFDDH",
    "licenseStatus": "ACTIVE",
    "inService": true,
    "licenseNumber": "120000239",
    "licenseEffectiveDate": "12/19/2024",
    "licenseExpirationDate": "12/18/2025",
    "dataDate": "10/18/2025",
    "capacity": 6,
    "address": "2224 QUINCY ST",
    "city": "DELANO",
    "zip": "93215",
    "county": "KERN",
    "phone": "(661) 721-3525",
    "lat": 35.787636,
    "lng": -119.2339305
  },
  {
    "id": "120001178",
    "name": "POSITIVE DIRECTIONS #8",
    "npi": "1467675017",
    "hcaiId": null,
    "businessName": "POSITIVE DIRECTIONS, INC.",
    "contactEmail": "TLAGUE777@GMAIL.COM",
    "categoryName": "INTERMEDIATE CARE FACILITY-DD/H/N/CN/IID",
    "categoryCode": "ICFDDN",
    "licenseStatus": "ACTIVE",
    "inService": true,
    "licenseNumber": "120000472",
    "licenseEffectiveDate": "11/01/2025",
    "licenseExpirationDate": "10/31/2026",
    "dataDate": "10/18/2025",
    "capacity": 6,
    "address": "1755 MAIN ST",
    "city": "DELANO",
    "zip": "93215",
    "county": "KERN",
    "phone": "(661) 458-7147",
    "lat": 35.779392,
    "lng": -119.247192
  },
  {
    "id": "120000663",
    "name": "POSITIVE DIRECTIONS, INC. #5",
    "npi": null,
    "hcaiId": null,
    "businessName": "POSITIVE DIRECTIONS, INC.",
    "contactEmail": "TLAGUE777@GMAIL.COM",
    "categoryName": "INTERMEDIATE CARE FACILITY-DD/H/N/CN/IID",
    "categoryCode": "ICFDDH",
    "licenseStatus": "ACTIVE",
    "inService": true,
    "licenseNumber": "120000311",
    "licenseEffectiveDate": "11/06/2025",
    "licenseExpirationDate": "11/05/2026",
    "dataDate": "10/18/2025",
    "capacity": 6,
    "address": "417 ALHAMBRA AVE",
    "city": "DELANO",
    "zip": "93215",
    "county": "KERN",
    "phone": "(661) 458-7147",
    "lat": 35.757522,
    "lng": -119.250909
  },
  {
    "id": "630014531",
    "name": "SHYAM BHASKAR M.D., INC.",
    "npi": "1154679447",
    "hcaiId": null,
    "businessName": null,
    "contactEmail": "MANAYA@MSN.COM",
    "categoryName": "PRIMARY CARE CLINIC",
    "categoryCode": "RHC/MD",
    "licenseStatus": null,
    "inService": null,
    "licenseNumber": null,
    "licenseEffectiveDate": null,
    "licenseExpirationDate": null,
    "dataDate": "10/18/2025",
    "capacity": 0,
    "address": "1425 MAIN ST",
    "city": "DELANO",
    "zip": "93215",
    "county": "KERN",
    "phone": "(661) 778-0920",
    "lat": 35.775108,
    "lng": -119.2474305
  },
  {
    "id": "120000325",
    "name": "VALLEY VIEW CARE CENTER",
    "npi": "1841858925",
    "hcaiId": "206150688",
    "businessName": "VALLEY VIEW CARE CENTER LLC",
    "contactEmail": "ADMINISTRATOR@VALLEYVIEWCARECENTER.ORG",
    "categoryName": "SKILLED NURSING FACILITY",
    "categoryCode": "SNF",
    "licenseStatus": "ACTIVE",
    "inService": true,
    "licenseNumber": "120000152",
    "licenseEffectiveDate": "05/05/2025",
    "licenseExpirationDate": "05/04/2026",
    "dataDate": "10/18/2025",
    "capacity": 53,
    "address": "729 BROWNING RD",
    "city": "DELANO",
    "zip": "93215",
    "county": "KERN",
    "phone": "(661) 725-2501",
    "lat": 35.7669804,
    "lng": -119.2259608
  },
  {
    "id": "630011150",
    "name": "WEST DELANO DENTAL CENTER",
    "npi": "1134318959",
    "hcaiId": "306154142",
    "businessName": "CLINICA SIERRA VISTA",
    "contactEmail": "CLAUDIA.CHAVEZ@CLINICASIERRAVISTA.ORG",
    "categoryName": "PRIMARY CARE CLINIC",
    "categoryCode": "COMTYC",
    "licenseStatus": "ACTIVE",
    "inService": true,
    "licenseNumber": "550007482",
    "licenseEffectiveDate": "10/22/2025",
    "licenseExpirationDate": "12/21/2025",
    "dataDate": "10/18/2025",
    "capacity": 0,
    "address": "441 DIAZ AVE",
    "city": "DELANO",
    "zip": "93215",
    "county": "KERN",
    "phone": "(559) 457-5843",
    "lat": 35.756109,
    "lng": -119.250072
  }
]