[
  {
    "id": "630021908",
    "name": "ADVENTIST HEALTH REEDLEY",
    "npi": null,
    "hcaiId": null,
    "businessName": "REEDLEY COMMUNITY HOSPITAL",
    "contactEmail": null,
    "categoryName": "PRIMARY CARE CLINIC",
    "categoryCode": "RHC/OP",
    "licenseStatus": "ACTIVE",
    "inService": true,
    "licenseNumber": "040000149",
    "licenseEffectiveDate": "11/09/2024",
    "licenseExpirationDate": "11/08/2025",
    "dataDate": "10/18/2025",
    "capacity": 0,
    "address": "398 S CHURCH RD",
    "city": "EARLIMART",
    "zip": "93219",
    "county": "TULARE",
    "phone": null,
    "lat": 35.88213899,
    "lng": -119.2681132
  },
  {
    "id": "630020463",
    "name": "SEQUOIA FAMILY MEDICAL CENTER",
    "npi": null,
    "hcaiId": null,
    "businessName": null,
    "contactEmail": "JOHN.ANGELL@SEQFAM.COM",
    "categoryName": "PRIMARY CARE CLINIC",
    "categoryCode": "RHC/MD",
    "licenseStatus": null,
    "inService": null,
    "licenseNumber": null,
    "licenseEffectiveDate": null,
    "licenseExpirationDate": null,
    "dataDate": "10/18/2025",
    "capacity": 0,
    "address": "396 N CHURCH RD, SUITE 3",
    "city": "EARLIMART",
    "zip": "93219",
    "county": "TULARE",
    "phone": "(559) 306-1352",
    "lat": 35.887329,
    "lng": -119.2676445
  },
  {
    "id": "120001423",
    "name": "UNITED HEALTH CENTERS OF THE SAN JOAQUIN VALLEY",
    "npi": null,
    "hcaiId": "306540003",
    "businessName": "UNITED HEALTH CENTERS OF THE SAN JOAQUIN VALLEY",
    "contactEmail": "CURTISC@UNITEDHEALTHCENTERS.ORG",
    "categoryName": "PRIMARY CARE CLINIC",
    "categoryCode": "COMTYC",
    "licenseStatus": "ACTIVE",
    "inService": true,
    "licenseNumber": "550002830",
    "licenseEffectiveDate": "09/30/2025",
    "licenseExpirationDate": "09/29/2026",
    "dataDate": "10/18/2025",
    "capacity": 0,
    "address": "476 E WASHINGTON ST",
    "city": "EARLIMART",
    "zip": "93219",
    "county": "TULARE",
    "phone": "(661) 646-6618",
    "lat": 35.884584,
    "lng": -119.2716135
  }
]