[
  {
    "id": "040001156",
    "name": "ADVENTIST HEALTH REEDLEY",
    "npi": "1881677292",
    "hcaiId": null,
    "businessName": "REEDLEY COMMUNITY HOSPITAL",
    "contactEmail": null,
    "categoryName": "PRIMARY CARE CLINIC",
    "categoryCode": "RHC/OP",
    "licenseStatus": "ACTIVE",
    "inService": true,
    "licenseNumber": "040000149",
    "licenseEffectiveDate": "11/09/2024",
    "licenseExpirationDate": "11/08/2025",
    "dataDate": "10/18/2025",
    "capacity": 0,
    "address": "1212 HANNA AVE",
    "city": "CORCORAN",
    "zip": "93212",
    "county": "KINGS",
    "phone": "(559) 585-3444",
    "lat": 36.100062,
    "lng": -119.5628715
  },
  {
    "id": "630014151",
    "name": "ADVENTIST HEALTH REEDLEY",
    "npi": "1235475484",
    "hcaiId": null,
    "businessName": "REEDLEY COMMUNITY HOSPITAL",
    "contactEmail": null,
    "categoryName": "PRIMARY CARE CLINIC",
    "categoryCode": "RHC/OP",
    "licenseStatus": "ACTIVE",
    "inService": true,
    "licenseNumber": "040000149",
    "licenseEffectiveDate": "11/09/2024",
    "licenseExpirationDate": "11/08/2025",
    "dataDate": "10/18/2025",
    "capacity": 0,
    "address": "1310 HANNA AVE, SUITE 1 AND 3",
    "city": "CORCORAN",
    "zip": "93212",
    "county": "KINGS",
    "phone": null,
    "lat": 36.100062,
    "lng": -119.5641495
  },
  {
    "id": "170001879",
    "name": "CSP-CORCORAN - CTC - JOHN D KLARICH MEMORIAL",
    "npi": null,
    "hcaiId": null,
    "businessName": "CA DEPARTMENT OF CORRECTIONS AND REHABILITATION",
    "contactEmail": "PAIGE.SMITH@CDCR.CA.GOV",
    "categoryName": "CORRECTIONAL TREATMENT CENTER",
    "categoryCode": "CTC",
    "licenseStatus": "ACTIVE",
    "inService": true,
    "licenseNumber": "170000838",
    "licenseEffectiveDate": "06/23/2025",
    "licenseExpirationDate": "06/22/2026",
    "dataDate": "10/18/2025",
    "capacity": 74,
    "address": "4001 KING AVENUE",
    "city": "CORCORAN",
    "zip": "93212",
    "county": "KINGS",
    "phone": "(559) 414-7598",
    "lat": 36.06510087,
    "lng": -119.5576549
  },
  {
    "id": "040001352",
    "name": "SHYAM BHASKAR, M.D., INC.",
    "npi": "1902204449",
    "hcaiId": null,
    "businessName": null,
    "contactEmail": "MANAYA@MSN.COM",
    "categoryName": "PRIMARY CARE CLINIC",
    "categoryCode": "RHC/MD",
    "licenseStatus": null,
    "inService": null,
    "licenseNumber": null,
    "licenseEffectiveDate": null,
    "licenseExpirationDate": null,
    "dataDate": "10/18/2025",
    "capacity": 0,
    "address": "1001 VAN DORSTEN AVE",
    "city": "CORCORAN",
    "zip": "93212",
    "county": "KINGS",
    "phone": "(559) 992-2337",
    "lat": 36.09954,
    "lng": -119.563119
  },
  {
    "id": "170001886",
    "name": "SUBSTANCE ABUSE TREATMENT FACILITY, CTC (SATF-CTC)",
    "npi": null,
    "hcaiId": null,
    "businessName": "CA DEPARTMENT OF CORRECTIONS AND REHABILITATION",
    "contactEmail": "HEIDI.REYES@CDCR.CA.GOV",
    "categoryName": "CORRECTIONAL TREATMENT CENTER",
    "categoryCode": "CTC",
    "licenseStatus": "ACTIVE",
    "inService": true,
    "licenseNumber": "170000841",
    "licenseEffectiveDate": "04/08/2025",
    "licenseExpirationDate": "01/19/2026",
    "dataDate": "10/18/2025",
    "capacity": 38,
    "address": "900 QUEBEC AVE.",
    "city": "CORCORAN",
    "zip": "93212",
    "county": "KINGS",
    "phone": "(559) 992-7100",
    "lat": 36.05085771,
    "lng": -119.5578373
  },
  {
    "id": "630013554",
    "name": "UNITED HEALTH CENTERS OF THE SAN JOAQUIN VALLEY",
    "npi": null,
    "hcaiId": "306164032",
    "businessName": "UNITED HEALTH CENTERS OF THE SAN JOAQUIN VALLEY",
    "contactEmail": "CORPORATE@UNITEDHEALTHCENTERS.ORG",
    "categoryName": "PRIMARY CARE CLINIC",
    "categoryCode": "COMTYC",
    "licenseStatus": "ACTIVE",
    "inService": true,
    "licenseNumber": "550001882",
    "licenseEffectiveDate": "04/06/2025",
    "licenseExpirationDate": "04/05/2026",
    "dataDate": "10/18/2025",
    "capacity": 0,
    "address": "1000 CHITTENDEN AVE",
    "city": "CORCORAN",
    "zip": "93212",
    "county": "KINGS",
    "phone": "(559) 646-7400",
    "lat": 36.099207,
    "lng": -119.5599105
  }
]