[
  {
    "id": "040001392",
    "name": "ADVENTIST HEALTH REEDLEY",
    "npi": "1972586386",
    "hcaiId": null,
    "businessName": "REEDLEY COMMUNITY HOSPITAL",
    "contactEmail": null,
    "categoryName": "PRIMARY CARE CLINIC",
    "categoryCode": "RHC/OP",
    "licenseStatus": "ACTIVE",
    "inService": true,
    "licenseNumber": "040000149",
    "licenseEffectiveDate": "11/09/2024",
    "licenseExpirationDate": "11/08/2025",
    "dataDate": "10/18/2025",
    "capacity": 0,
    "address": "155 S 5TH ST",
    "city": "COALINGA",
    "zip": "93210",
    "county": "FRESNO",
    "phone": "(559) 935-4282",
    "lat": 36.13872629,
    "lng": -120.358526
  },
  {
    "id": "630019922",
    "name": "ARIA COMMUNITY HEALTH CENTER",
    "npi": null,
    "hcaiId": null,
    "businessName": "AVENAL COMMUNITY HEALTH CENTER",
    "contactEmail": null,
    "categoryName": "PRIMARY CARE CLINIC",
    "categoryCode": "COMTYC",
    "licenseStatus": "ACTIVE",
    "inService": true,
    "licenseNumber": "550002822",
    "licenseEffectiveDate": "09/17/2025",
    "licenseExpirationDate": "09/16/2026",
    "dataDate": "10/18/2025",
    "capacity": 0,
    "address": "191 E POLK ST",
    "city": "COALINGA",
    "zip": "93210",
    "county": "FRESNO",
    "phone": null,
    "lat": 36.13659658,
    "lng": -120.3601665
  },
  {
    "id": "630014119",
    "name": "COALINGA DIALYSIS",
    "npi": "1275885766",
    "hcaiId": "306105102",
    "businessName": "TOTAL RENAL CARE, INC.",
    "contactEmail": "CAL_C@DAVITA.COM",
    "categoryName": "CHRONIC DIALYSIS CLINIC",
    "categoryCode": "ESRD/CDC",
    "licenseStatus": "ACTIVE",
    "inService": true,
    "licenseNumber": "550002362",
    "licenseEffectiveDate": "07/22/2025",
    "licenseExpirationDate": "07/21/2026",
    "dataDate": "10/18/2025",
    "capacity": 12,
    "address": "1147 PHELPS AVE",
    "city": "COALINGA",
    "zip": "93210",
    "county": "FRESNO",
    "phone": "(559) 934-0690",
    "lat": 36.15157088,
    "lng": -120.3414258
  },
  {
    "id": "040000096",
    "name": "COALINGA REGIONAL MEDICAL CENTER",
    "npi": "1801452941",
    "hcaiId": "106100697",
    "businessName": "COALINGA MEDICAL CENTER, LLC",
    "contactEmail": "TTHOMPSON@AMERICANAM.ORG",
    "categoryName": "GENERAL ACUTE CARE HOSPITAL",
    "categoryCode": "GACH",
    "licenseStatus": "ACTIVE",
    "inService": true,
    "licenseNumber": "040000085",
    "licenseEffectiveDate": "06/01/2025",
    "licenseExpirationDate": "05/31/2026",
    "dataDate": "10/18/2025",
    "capacity": 24,
    "address": "1191 PHELPS AVE",
    "city": "COALINGA",
    "zip": "93210",
    "county": "FRESNO",
    "phone": "(559) 821-6100",
    "lat": 36.152037,
    "lng": -120.3410205
  },
  {
    "id": "040000798",
    "name": "COALINGA REGIONAL MEDICAL CENTER D/P SNF",
    "npi": "1801452941",
    "hcaiId": null,
    "businessName": "COALINGA MEDICAL CENTER, LLC",
    "contactEmail": "WALLEN@COALINGAHOSPITAL.COM",
    "categoryName": "SKILLED NURSING FACILITY",
    "categoryCode": "SNF",
    "licenseStatus": "ACTIVE",
    "inService": true,
    "licenseNumber": "040000085",
    "licenseEffectiveDate": "06/01/2025",
    "licenseExpirationDate": "05/31/2026",
    "dataDate": "10/18/2025",
    "capacity": 51,
    "address": "1191 PHELPS AVE",
    "city": "COALINGA",
    "zip": "93210",
    "county": "FRESNO",
    "phone": "(559) 935-6400",
    "lat": 36.152037,
    "lng": -120.3410205
  },
  {
    "id": "630013160",
    "name": "COALINGA REGIONAL MEDICAL CENTER DP/SNF",
    "npi": null,
    "hcaiId": null,
    "businessName": "COALINGA MEDICAL CENTER, LLC",
    "contactEmail": null,
    "categoryName": "SKILLED NURSING FACILITY",
    "categoryCode": "SNF",
    "licenseStatus": "ACTIVE",
    "inService": true,
    "licenseNumber": "040000085",
    "licenseEffectiveDate": "06/01/2025",
    "licenseExpirationDate": "05/31/2026",
    "dataDate": "10/18/2025",
    "capacity": 48,
    "address": "834 MAPLE RD",
    "city": "COALINGA",
    "zip": "93210",
    "county": "FRESNO",
    "phone": "(559) 821-6202",
    "lat": 36.149607,
    "lng": -120.3526485
  },
  {
    "id": "630025992",
    "name": "COALINGA REGIONAL MEDICAL CENTER RHC",
    "npi": null,
    "hcaiId": null,
    "businessName": "COALINGA MEDICAL CENTER, LLC",
    "contactEmail": null,
    "categoryName": "PRIMARY CARE CLINIC",
    "categoryCode": "RHC/OP",
    "licenseStatus": "ACTIVE",
    "inService": true,
    "licenseNumber": "040000085",
    "licenseEffectiveDate": "06/01/2025",
    "licenseExpirationDate": "05/31/2026",
    "dataDate": "10/18/2025",
    "capacity": 0,
    "address": "1165 PHELPS AVE, SUITE 105",
    "city": "COALINGA",
    "zip": "93210",
    "county": "FRESNO",
    "phone": null,
    "lat": 36.15156691,
    "lng": -120.3409733
  },
  {
    "id": "040001250",
    "name": "COALINGA VALLEY HEALTH CLINICS, INC. - COALINGA",
    "npi": "1396874558",
    "hcaiId": "306105013",
    "businessName": "COALINGA VALLEY HEALTH CLINICS, INC.",
    "contactEmail": "ADMIN@COALINGAVALLEY.COM",
    "categoryName": "PRIMARY CARE CLINIC",
    "categoryCode": "RHC/COMTYC",
    "licenseStatus": "ACTIVE",
    "inService": true,
    "licenseNumber": "040000496",
    "licenseEffectiveDate": "03/30/2025",
    "licenseExpirationDate": "03/29/2026",
    "dataDate": "10/18/2025",
    "capacity": 0,
    "address": "1145 PHELPS AVE # STE104",
    "city": "COALINGA",
    "zip": "93210",
    "county": "FRESNO",
    "phone": "(559) 935-4374",
    "lat": 36.15157132,
    "lng": -120.3414761
  },
  {
    "id": "630004061",
    "name": "DEPARTMENT OF STATE HOSPITALS - COALINGA",
    "npi": null,
    "hcaiId": "106105051",
    "businessName": "STATE OF CALIFORNIA, DEPARTMENT OF STATE HOSPITALS",
    "contactEmail": "CSH_LICENSING@DSH.CA.GOV",
    "categoryName": "ACUTE PSYCHIATRIC HOSPITAL",
    "categoryCode": "APH",
    "licenseStatus": "ACTIVE",
    "inService": true,
    "licenseNumber": "550000061",
    "licenseEffectiveDate": "05/13/2025",
    "licenseExpirationDate": "11/24/2025",
    "dataDate": "10/18/2025",
    "capacity": 50,
    "address": "24511 W JAYNE AVE",
    "city": "COALINGA",
    "zip": "93210",
    "county": "FRESNO",
    "phone": "(559) 935-4300",
    "lat": 36.134613,
    "lng": -120.242133
  },
  {
    "id": "630004081",
    "name": "DEPARTMENT OF STATE HOSPITALS - COALINGA D/P ICF",
    "npi": null,
    "hcaiId": null,
    "businessName": "STATE OF CALIFORNIA, DEPARTMENT OF STATE HOSPITALS",
    "contactEmail": "AUTUMN.DAVIS@DSH.CA.GOV",
    "categoryName": "INTERMEDIATE CARE FACILITY",
    "categoryCode": "ICF",
    "licenseStatus": "ACTIVE",
    "inService": true,
    "licenseNumber": "550000061",
    "licenseEffectiveDate": "05/13/2025",
    "licenseExpirationDate": "11/24/2025",
    "dataDate": "10/18/2025",
    "capacity": 1450,
    "address": "24511 W JAYNE AVE",
    "city": "COALINGA",
    "zip": "93210",
    "county": "FRESNO",
    "phone": "(559) 935-7276",
    "lat": 36.134613,
    "lng": -120.242133
  },
  {
    "id": "040000890",
    "name": "PAUL A. GRIFFIN, M.D., C.F.P.C.",
    "npi": null,
    "hcaiId": null,
    "businessName": null,
    "contactEmail": null,
    "categoryName": "OTHER",
    "categoryCode": "UNLICEN",
    "licenseStatus": null,
    "inService": null,
    "licenseNumber": null,
    "licenseEffectiveDate": null,
    "licenseExpirationDate": null,
    "dataDate": "10/18/2025",
    "capacity": 0,
    "address": "1145 PHELPS AVE, SUITE 103",
    "city": "COALINGA",
    "zip": "93210",
    "county": "FRESNO",
    "phone": "(559) 935-6600",
    "lat": 36.15157132,
    "lng": -120.3414761
  }
]