[
  {
    "id": "630013526",
    "name": "FAMILY HEALTHCARE NETWORK",
    "npi": "1326317819",
    "hcaiId": "306544087",
    "businessName": "FAMILY HEALTHCARE NETWORK",
    "contactEmail": "RISKMANAGEMENT@FHCN.ORG",
    "categoryName": "PRIMARY CARE CLINIC",
    "categoryCode": "COMTYC",
    "licenseStatus": "ACTIVE",
    "inService": true,
    "licenseNumber": "550001823",
    "licenseEffectiveDate": "01/27/2025",
    "licenseExpirationDate": "01/26/2026",
    "dataDate": "10/18/2025",
    "capacity": 0,
    "address": "730 N FARMERSVILLE BLVD",
    "city": "FARMERSVILLE",
    "zip": "93223",
    "county": "TULARE",
    "phone": "(559) 747-1470",
    "lat": 36.303516,
    "lng": -119.206746
  },
  {
    "id": "630019527",
    "name": "FAMILY HEALTHCARE NETWORK",
    "npi": "1174175012",
    "hcaiId": null,
    "businessName": "FAMILY HEALTHCARE NETWORK",
    "contactEmail": null,
    "categoryName": "PRIMARY CARE CLINIC",
    "categoryCode": "COMTYC",
    "licenseStatus": "ACTIVE",
    "inService": true,
    "licenseNumber": "120000643",
    "licenseEffectiveDate": "11/30/2024",
    "licenseExpirationDate": "11/29/2025",
    "dataDate": "10/18/2025",
    "capacity": 0,
    "address": "682 E VISALIA RD",
    "city": "FARMERSVILLE",
    "zip": "93223",
    "county": "TULARE",
    "phone": "(559) 737-4700",
    "lat": 36.29780355,
    "lng": -119.2010668
  },
  {
    "id": "120001634",
    "name": "FARMERSVILLE HEALTH CARE CENTER",
    "npi": null,
    "hcaiId": null,
    "businessName": null,
    "contactEmail": "IROMERO@TULAREHHSA.ORG",
    "categoryName": "OTHER",
    "categoryCode": "UNLICEN",
    "licenseStatus": null,
    "inService": null,
    "licenseNumber": null,
    "licenseEffectiveDate": null,
    "licenseExpirationDate": null,
    "dataDate": "10/18/2025",
    "capacity": 0,
    "address": "660 E VISALIA RD",
    "city": "FARMERSVILLE",
    "zip": "93223",
    "county": "TULARE",
    "phone": "(559) 594-6788",
    "lat": 36.298071,
    "lng": -119.201265
  },
  {
    "id": "120001501",
    "name": "SIERRA VISTA RESIDENTIAL CARE HOME",
    "npi": "1023200151",
    "hcaiId": null,
    "businessName": "SIERRA VISTA RESIDENTIAL CARE HOME",
    "contactEmail": "SIERRAVISTAHOME@HOTMAIL.COM",
    "categoryName": "INTERMEDIATE CARE FACILITY-DD/H/N/CN/IID",
    "categoryCode": "ICFDDN",
    "licenseStatus": "ACTIVE",
    "inService": true,
    "licenseNumber": "120000609",
    "licenseEffectiveDate": "12/21/2024",
    "licenseExpirationDate": "12/20/2025",
    "dataDate": "10/18/2025",
    "capacity": 6,
    "address": "782 N SHASTA AVE",
    "city": "FARMERSVILLE",
    "zip": "93223",
    "county": "TULARE",
    "phone": "(559) 747-0399",
    "lat": 36.303975,
    "lng": -119.209176
  },
  {
    "id": "630012918",
    "name": "SIERRA VISTA RESIDENTIAL CARE HOME  #2",
    "npi": "1487962122",
    "hcaiId": null,
    "businessName": "SIERRA VISTA RESIDENTIAL CARE HOME",
    "contactEmail": "SIERRAVISTAHOME@HOTMAIL.COM",
    "categoryName": "INTERMEDIATE CARE FACILITY-DD/H/N/CN/IID",
    "categoryCode": "ICFDDN",
    "licenseStatus": "ACTIVE",
    "inService": true,
    "licenseNumber": "550001652",
    "licenseEffectiveDate": "01/12/2025",
    "licenseExpirationDate": "01/11/2026",
    "dataDate": "10/18/2025",
    "capacity": 6,
    "address": "506 W PETUNIA ST",
    "city": "FARMERSVILLE",
    "zip": "93223",
    "county": "TULARE",
    "phone": "(559) 747-0399",
    "lat": 36.305919,
    "lng": -119.211768
  }
]