[
  {
    "id": "630011332",
    "name": "EXETER DIALYSIS",
    "npi": "1285755991",
    "hcaiId": "306544078",
    "businessName": "TOTAL RENAL CARE, INC.",
    "contactEmail": "CAL_C@DAVITA.COM",
    "categoryName": "CHRONIC DIALYSIS CLINIC",
    "categoryCode": "ESRD/CDC",
    "licenseStatus": "ACTIVE",
    "inService": true,
    "licenseNumber": "550000682",
    "licenseEffectiveDate": "01/30/2025",
    "licenseExpirationDate": "01/29/2026",
    "dataDate": "10/18/2025",
    "capacity": 24,
    "address": "1116 W VISALIA RD, SUITE 106",
    "city": "EXETER",
    "zip": "93221",
    "county": "TULARE",
    "phone": "(559) 592-1025",
    "lat": 36.29726501,
    "lng": -119.1550625
  },
  {
    "id": "630020049",
    "name": "FAMILY HEALTHCARE NETWORK",
    "npi": null,
    "hcaiId": null,
    "businessName": "FAMILY HEALTHCARE NETWORK",
    "contactEmail": null,
    "categoryName": "PRIMARY CARE CLINIC",
    "categoryCode": "COMTYC",
    "licenseStatus": "ACTIVE",
    "inService": true,
    "licenseNumber": "120000643",
    "licenseEffectiveDate": "11/30/2024",
    "licenseExpirationDate": "11/29/2025",
    "dataDate": "10/18/2025",
    "capacity": 0,
    "address": "330 E PINE ST",
    "city": "EXETER",
    "zip": "93221",
    "county": "TULARE",
    "phone": null,
    "lat": 36.296793,
    "lng": -119.1391155
  },
  {
    "id": "120001627",
    "name": "KAWEAH HEALTH EXETER CLINIC",
    "npi": "1043272172",
    "hcaiId": null,
    "businessName": "KAWEAH DELTA HEALTH CARE DISTRICT",
    "contactEmail": "PCUMARAS@KDHCD.ORG",
    "categoryName": "PRIMARY CARE CLINIC",
    "categoryCode": "RHC/OP",
    "licenseStatus": "ACTIVE",
    "inService": true,
    "licenseNumber": "120000580",
    "licenseEffectiveDate": "11/01/2025",
    "licenseExpirationDate": "10/31/2026",
    "dataDate": "10/18/2025",
    "capacity": 0,
    "address": "1014 SAN JUAN AVE",
    "city": "EXETER",
    "zip": "93221",
    "county": "TULARE",
    "phone": "(559) 592-7300",
    "lat": 36.298575,
    "lng": -119.131668
  },
  {
    "id": "120001511",
    "name": "NEW HORIZONS 'B'",
    "npi": "1497883359",
    "hcaiId": null,
    "businessName": "B & D MORGAN, INC.",
    "contactEmail": "NEWHORIZONSMARCI@GMAIL.COM",
    "categoryName": "INTERMEDIATE CARE FACILITY-DD/H/N/CN/IID",
    "categoryCode": "ICFDDN",
    "licenseStatus": "ACTIVE",
    "inService": true,
    "licenseNumber": "120000615",
    "licenseEffectiveDate": "05/16/2025",
    "licenseExpirationDate": "05/15/2026",
    "dataDate": "10/18/2025",
    "capacity": 6,
    "address": "502 N B ST",
    "city": "EXETER",
    "zip": "93221",
    "county": "TULARE",
    "phone": "(559) 592-7429",
    "lat": 36.300933,
    "lng": -119.1390975
  },
  {
    "id": "120001497",
    "name": "NEW HORIZONS 'PLUM'",
    "npi": "1558499954",
    "hcaiId": null,
    "businessName": "B & D MORGAN, INC.",
    "contactEmail": "NEWHORIZONSDEE@AOL.COM",
    "categoryName": "INTERMEDIATE CARE FACILITY-DD/H/N/CN/IID",
    "categoryCode": "ICFDDN",
    "licenseStatus": "ACTIVE",
    "inService": true,
    "licenseNumber": "120000607",
    "licenseEffectiveDate": "06/01/2025",
    "licenseExpirationDate": "05/31/2026",
    "dataDate": "10/18/2025",
    "capacity": 6,
    "address": "306 PLUM ST",
    "city": "EXETER",
    "zip": "93221",
    "county": "TULARE",
    "phone": "(559) 967-6249",
    "lat": 36.301653,
    "lng": -119.14092
  },
  {
    "id": "630019893",
    "name": "OMNI FAMILY HEALTH",
    "npi": null,
    "hcaiId": null,
    "businessName": "OMNI FAMILY HEALTH",
    "contactEmail": "CSTEWART@OMNIFAMILYHEALTH.ORG",
    "categoryName": "PRIMARY CARE CLINIC",
    "categoryCode": "COMTYC",
    "licenseStatus": "ACTIVE",
    "inService": true,
    "licenseNumber": "550004106",
    "licenseEffectiveDate": "01/18/2025",
    "licenseExpirationDate": "01/17/2026",
    "dataDate": "10/18/2025",
    "capacity": 0,
    "address": "1110 W VISALIA RD, SUITE 102",
    "city": "EXETER",
    "zip": "93221",
    "county": "TULARE",
    "phone": null,
    "lat": 36.29726422,
    "lng": -119.1550109
  }
]