[
  {
    "id": "630012960",
    "name": "ADVENTIST HEALTH HANFORD",
    "npi": "1538141627",
    "hcaiId": "106164029",
    "businessName": "HANFORD COMMUNITY HOSPITAL",
    "contactEmail": "SMITHIW@AH.ORG",
    "categoryName": "GENERAL ACUTE CARE HOSPITAL",
    "categoryCode": "GACH",
    "licenseStatus": "ACTIVE",
    "inService": true,
    "licenseNumber": "550001439",
    "licenseEffectiveDate": "12/05/2024",
    "licenseExpirationDate": "12/04/2025",
    "dataDate": "10/18/2025",
    "capacity": 173,
    "address": "115 MALL DR",
    "city": "HANFORD",
    "zip": "93230",
    "county": "KINGS",
    "phone": "(559) 537-2029",
    "lat": 36.32564649,
    "lng": -119.6683964
  },
  {
    "id": "040000860",
    "name": "ADVENTIST HEALTH HOME CARE SERVICES",
    "npi": "1033397336",
    "hcaiId": "406164026",
    "businessName": "WESTERN HEALTH RESOURCES",
    "contactEmail": "AINSWOLD@AH.ORG",
    "categoryName": "HOME HEALTH AGENCY",
    "categoryCode": "HHA",
    "licenseStatus": "ACTIVE",
    "inService": true,
    "licenseNumber": "040000346",
    "licenseEffectiveDate": "11/03/2025",
    "licenseExpirationDate": "11/02/2026",
    "dataDate": "10/18/2025",
    "capacity": 0,
    "address": "440 GREENFIELD AVENUE, SUITE C",
    "city": "HANFORD",
    "zip": "93230",
    "county": "KINGS",
    "phone": "(559) 537-2860",
    "lat": 36.32904,
    "lng": -119.658492
  },
  {
    "id": "040001161",
    "name": "ADVENTIST HEALTH HOME CARE SERVICES",
    "npi": "1568640860",
    "hcaiId": null,
    "businessName": "WESTERN HEALTH RESOURCES",
    "contactEmail": null,
    "categoryName": "HOSPICE",
    "categoryCode": "HOSPICE",
    "licenseStatus": "ACTIVE",
    "inService": true,
    "licenseNumber": "040000346",
    "licenseEffectiveDate": "11/03/2025",
    "licenseExpirationDate": "11/02/2026",
    "dataDate": "10/18/2025",
    "capacity": 0,
    "address": "440 GREENFIELD AVENUE, SUITE B",
    "city": "HANFORD",
    "zip": "93230",
    "county": "KINGS",
    "phone": "(559) 585-3425",
    "lat": 36.32904,
    "lng": -119.658492
  },
  {
    "id": "040000918",
    "name": "ADVENTIST HEALTH REEDLEY",
    "npi": "1417930892",
    "hcaiId": null,
    "businessName": "REEDLEY COMMUNITY HOSPITAL",
    "contactEmail": null,
    "categoryName": "PRIMARY CARE CLINIC",
    "categoryCode": "RHC/OP",
    "licenseStatus": "ACTIVE",
    "inService": true,
    "licenseNumber": "040000149",
    "licenseEffectiveDate": "11/09/2024",
    "licenseExpirationDate": "11/08/2025",
    "dataDate": "10/18/2025",
    "capacity": 0,
    "address": "1025 N DOUTY ST",
    "city": "HANFORD",
    "zip": "93230",
    "county": "KINGS",
    "phone": "(559) 583-2100",
    "lat": 36.335952,
    "lng": -119.6453115
  },
  {
    "id": "630011429",
    "name": "ADVENTIST HEALTH REEDLEY",
    "npi": "1467678342",
    "hcaiId": null,
    "businessName": "REEDLEY COMMUNITY HOSPITAL",
    "contactEmail": null,
    "categoryName": "PRIMARY CARE CLINIC",
    "categoryCode": "RHC/OP",
    "licenseStatus": "ACTIVE",
    "inService": true,
    "licenseNumber": "040000149",
    "licenseEffectiveDate": "11/09/2024",
    "licenseExpirationDate": "11/08/2025",
    "dataDate": "10/18/2025",
    "capacity": 0,
    "address": "11899 SHAW PL",
    "city": "HANFORD",
    "zip": "93230",
    "county": "KINGS",
    "phone": "(559) 585-3437",
    "lat": 36.30015,
    "lng": -119.6301285
  },
  {
    "id": "630018281",
    "name": "ARIA COMMUNITY HEALTH CENTER HANFORD 103",
    "npi": null,
    "hcaiId": null,
    "businessName": "AVENAL COMMUNITY HEALTH CENTER",
    "contactEmail": null,
    "categoryName": "PRIMARY CARE CLINIC",
    "categoryCode": "COMTYC",
    "licenseStatus": "ACTIVE",
    "inService": true,
    "licenseNumber": "550002822",
    "licenseEffectiveDate": "09/17/2025",
    "licenseExpirationDate": "09/16/2026",
    "dataDate": "10/18/2025",
    "capacity": 0,
    "address": "329 W 8TH ST, SUITE 103",
    "city": "HANFORD",
    "zip": "93230",
    "county": "KINGS",
    "phone": null,
    "lat": 36.326691,
    "lng": -119.650032
  },
  {
    "id": "630018282",
    "name": "ARIA COMMUNITY HEALTH CENTER HANFORD 107",
    "npi": null,
    "hcaiId": null,
    "businessName": "AVENAL COMMUNITY HEALTH CENTER",
    "contactEmail": null,
    "categoryName": "PRIMARY CARE CLINIC",
    "categoryCode": "COMTYC",
    "licenseStatus": "ACTIVE",
    "inService": true,
    "licenseNumber": "550002822",
    "licenseEffectiveDate": "09/17/2025",
    "licenseExpirationDate": "09/16/2026",
    "dataDate": "10/18/2025",
    "capacity": 0,
    "address": "329 W 8TH ST, SUITE 107",
    "city": "HANFORD",
    "zip": "93230",
    "county": "KINGS",
    "phone": null,
    "lat": 36.326691,
    "lng": -119.650032
  },
  {
    "id": "630018283",
    "name": "ARIA COMMUNITY HEALTH CENTER HANFORD 109",
    "npi": null,
    "hcaiId": null,
    "businessName": "AVENAL COMMUNITY HEALTH CENTER",
    "contactEmail": null,
    "categoryName": "PRIMARY CARE CLINIC",
    "categoryCode": "COMTYC",
    "licenseStatus": "ACTIVE",
    "inService": true,
    "licenseNumber": "550002822",
    "licenseEffectiveDate": "09/17/2025",
    "licenseExpirationDate": "09/16/2026",
    "dataDate": "10/18/2025",
    "capacity": 0,
    "address": "329 W 8TH ST, SUITE 109",
    "city": "HANFORD",
    "zip": "93230",
    "county": "KINGS",
    "phone": null,
    "lat": 36.326691,
    "lng": -119.650032
  },
  {
    "id": "630018284",
    "name": "ARIA COMMUNITY HEALTH CENTER HANFORD 111",
    "npi": null,
    "hcaiId": null,
    "businessName": "AVENAL COMMUNITY HEALTH CENTER",
    "contactEmail": null,
    "categoryName": "PRIMARY CARE CLINIC",
    "categoryCode": "COMTYC",
    "licenseStatus": "ACTIVE",
    "inService": true,
    "licenseNumber": "550002822",
    "licenseEffectiveDate": "09/17/2025",
    "licenseExpirationDate": "09/16/2026",
    "dataDate": "10/18/2025",
    "capacity": 0,
    "address": "329 W 8TH ST, SUITE 111",
    "city": "HANFORD",
    "zip": "93230",
    "county": "KINGS",
    "phone": null,
    "lat": 36.326691,
    "lng": -119.650032
  },
  {
    "id": "040000042",
    "name": "BRIGHTON POST ACUTE",
    "npi": "1659029965",
    "hcaiId": "206160724",
    "businessName": "PLAYA CONCHAL, LLC",
    "contactEmail": "DAN@WESTHARBORHC.COM",
    "categoryName": "SKILLED NURSING FACILITY",
    "categoryCode": "SNF",
    "licenseStatus": "ACTIVE",
    "inService": true,
    "licenseNumber": "040000101",
    "licenseEffectiveDate": "02/21/2025",
    "licenseExpirationDate": "02/20/2026",
    "dataDate": "10/18/2025",
    "capacity": 131,
    "address": "361 E GRANGEVILLE BLVD",
    "city": "HANFORD",
    "zip": "93230",
    "county": "KINGS",
    "phone": "(559) 582-9221",
    "lat": 36.342108,
    "lng": -119.641941
  },
  {
    "id": "630010981",
    "name": "FAMILY HEALTHCARE NETWORK",
    "npi": "1467504530",
    "hcaiId": "306160389",
    "businessName": "FAMILY HEALTHCARE NETWORK",
    "contactEmail": "RISKMANAGEMENT@FHCN.ORG",
    "categoryName": "PRIMARY CARE CLINIC",
    "categoryCode": "RHC/COMTYC",
    "licenseStatus": "ACTIVE",
    "inService": true,
    "licenseNumber": "550000368",
    "licenseEffectiveDate": "12/21/2024",
    "licenseExpirationDate": "12/20/2025",
    "dataDate": "10/18/2025",
    "capacity": 0,
    "address": "250 W 5TH ST",
    "city": "HANFORD",
    "zip": "93230",
    "county": "KINGS",
    "phone": "(559) 737-4717",
    "lat": 36.32438231,
    "lng": -119.6476414
  },
  {
    "id": "630027987",
    "name": "FAMILY HEALTHCARE NETWORK",
    "npi": null,
    "hcaiId": null,
    "businessName": "FAMILY HEALTHCARE NETWORK",
    "contactEmail": null,
    "categoryName": "PRIMARY CARE CLINIC",
    "categoryCode": "COMTYC",
    "licenseStatus": "ACTIVE",
    "inService": true,
    "licenseNumber": "550004220",
    "licenseEffectiveDate": "06/24/2025",
    "licenseExpirationDate": "04/21/2026",
    "dataDate": "10/18/2025",
    "capacity": 0,
    "address": "939 S 12TH AVE",
    "city": "HANFORD",
    "zip": "93230",
    "county": "KINGS",
    "phone": null,
    "lat": 36.31491406,
    "lng": -119.6727737
  },
  {
    "id": "630012179",
    "name": "HANFORD AT HOME DIALYSIS",
    "npi": "1811178080",
    "hcaiId": null,
    "businessName": null,
    "contactEmail": null,
    "categoryName": "CHRONIC DIALYSIS CLINIC",
    "categoryCode": "ESRD",
    "licenseStatus": null,
    "inService": null,
    "licenseNumber": null,
    "licenseEffectiveDate": null,
    "licenseExpirationDate": null,
    "dataDate": "10/18/2025",
    "capacity": 0,
    "address": "900 N DOUTY ST",
    "city": "HANFORD",
    "zip": "93230",
    "county": "KINGS",
    "phone": "(559) 587-9014",
    "lat": 36.334152,
    "lng": -119.646531
  },
  {
    "id": "240001790",
    "name": "HANFORD DIALYSIS",
    "npi": "1528032505",
    "hcaiId": "306160074",
    "businessName": "DVA HEALTHCARE RENAL CARE, INC.",
    "contactEmail": "CAL_C@DAVITA.COM",
    "categoryName": "CHRONIC DIALYSIS CLINIC",
    "categoryCode": "ESRD/CDC",
    "licenseStatus": "ACTIVE",
    "inService": true,
    "licenseNumber": "240000784",
    "licenseEffectiveDate": "11/01/2025",
    "licenseExpirationDate": "10/31/2026",
    "dataDate": "10/18/2025",
    "capacity": 20,
    "address": "402 W 8TH ST",
    "city": "HANFORD",
    "zip": "93230",
    "county": "KINGS",
    "phone": "(559) 582-5462",
    "lat": 36.327213,
    "lng": -119.651031
  },
  {
    "id": "040000750",
    "name": "HANFORD HEALTH CLINIC",
    "npi": null,
    "hcaiId": null,
    "businessName": null,
    "contactEmail": null,
    "categoryName": "PRIMARY CARE CLINIC",
    "categoryCode": "RHC/OP",
    "licenseStatus": null,
    "inService": null,
    "licenseNumber": null,
    "licenseEffectiveDate": null,
    "licenseExpirationDate": null,
    "dataDate": "10/18/2025",
    "capacity": 0,
    "address": "1028 N DOUTY ST",
    "city": "HANFORD",
    "zip": "93230",
    "county": "KINGS",
    "phone": "(559) 584-4455",
    "lat": 36.335493,
    "lng": -119.64654
  },
  {
    "id": "040001364",
    "name": "HANFORD POST ACUTE",
    "npi": "1629521429",
    "hcaiId": "206160726",
    "businessName": "HANFORDIDENCE OPCO, LLC",
    "contactEmail": "PARKER.BENNETT@HANFORDPA.COM",
    "categoryName": "SKILLED NURSING FACILITY",
    "categoryCode": "SNF",
    "licenseStatus": "ACTIVE",
    "inService": true,
    "licenseNumber": "040000529",
    "licenseEffectiveDate": "01/01/2025",
    "licenseExpirationDate": "12/31/2025",
    "dataDate": "10/18/2025",
    "capacity": 124,
    "address": "1007 W LACEY BLVD",
    "city": "HANFORD",
    "zip": "93230",
    "county": "KINGS",
    "phone": "(559) 582-2871",
    "lat": 36.327294,
    "lng": -119.659869
  },
  {
    "id": "630016309",
    "name": "HANFORD SPECIALTY SURGERY CENTER PC",
    "npi": "1891133302",
    "hcaiId": null,
    "businessName": null,
    "contactEmail": "ZIADK@LALASERCENTER.COM",
    "categoryName": "SURGICAL CLINIC",
    "categoryCode": "ASC",
    "licenseStatus": null,
    "inService": null,
    "licenseNumber": null,
    "licenseEffectiveDate": null,
    "licenseExpirationDate": null,
    "dataDate": "10/18/2025",
    "capacity": 0,
    "address": "400 N. IRWIN STREET, SUITE 102",
    "city": "HANFORD",
    "zip": "93230",
    "county": "KINGS",
    "phone": "(559) 584-2700",
    "lat": 36.329382,
    "lng": -119.648052
  },
  {
    "id": "040001308",
    "name": "HANFORD SURGERY CENTER",
    "npi": "1922163757",
    "hcaiId": "306164021",
    "businessName": "ALVIN Y. AU, M.D.",
    "contactEmail": "AU2251@GMAIL.COM",
    "categoryName": "SURGICAL CLINIC",
    "categoryCode": "ASC",
    "licenseStatus": "INACTIVE - CAPEN DECISION",
    "inService": false,
    "licenseNumber": "040000507",
    "licenseEffectiveDate": "12/07/2007",
    "licenseExpirationDate": "12/06/2008",
    "dataDate": "10/18/2025",
    "capacity": 0,
    "address": "1360 BAILEY ST",
    "city": "HANFORD",
    "zip": "93230",
    "county": "KINGS",
    "phone": "(559) 584-6499",
    "lat": 36.32769,
    "lng": -119.665629
  },
  {
    "id": "040000926",
    "name": "KINGS EYE CENTER MEDICAL GROUP, INC.",
    "npi": "1730168931",
    "hcaiId": "306164017",
    "businessName": "THERESA POINDEXTER, M.D. & BRADLEY BEARD, M.D.",
    "contactEmail": "LINDALT@KINGSEYECENER.COM",
    "categoryName": "SURGICAL CLINIC",
    "categoryCode": "ASC",
    "licenseStatus": "INACTIVE - CAPEN DECISION",
    "inService": false,
    "licenseNumber": "040000455",
    "licenseEffectiveDate": "04/16/2007",
    "licenseExpirationDate": "04/15/2008",
    "dataDate": "10/18/2025",
    "capacity": 0,
    "address": "1395 W LACEY BLVD",
    "city": "HANFORD",
    "zip": "93230",
    "county": "KINGS",
    "phone": "(559) 585-3937",
    "lat": 36.327654,
    "lng": -119.666088
  },
  {
    "id": "040001366",
    "name": "KINGS HEALTHCARE & WELLNESS CENTER, LP",
    "npi": "1083212716",
    "hcaiId": "206160741",
    "businessName": "KINGS HEALTHCARE & WELLNESS CENTER LP",
    "contactEmail": "ADMINISTRATOR@KINGSNURSINGREHAB.COM",
    "categoryName": "SKILLED NURSING FACILITY",
    "categoryCode": "SNF",
    "licenseStatus": "ACTIVE",
    "inService": true,
    "licenseNumber": "040000530",
    "licenseEffectiveDate": "01/01/2025",
    "licenseExpirationDate": "12/31/2025",
    "dataDate": "10/18/2025",
    "capacity": 70,
    "address": "851 LESLIE LN",
    "city": "HANFORD",
    "zip": "93230",
    "county": "KINGS",
    "phone": "(559) 582-4414",
    "lat": 36.315108,
    "lng": -119.6572905
  },
  {
    "id": "630018328",
    "name": "OMNI FAMILY HEALTH",
    "npi": null,
    "hcaiId": null,
    "businessName": "OMNI FAMILY HEALTH",
    "contactEmail": null,
    "categoryName": "PRIMARY CARE CLINIC",
    "categoryCode": "COMTYC",
    "licenseStatus": "ACTIVE",
    "inService": true,
    "licenseNumber": "120000668",
    "licenseEffectiveDate": "12/13/2024",
    "licenseExpirationDate": "12/12/2025",
    "dataDate": "10/18/2025",
    "capacity": 0,
    "address": "355 CAMPUS DR, SUITE E",
    "city": "HANFORD",
    "zip": "93230",
    "county": "KINGS",
    "phone": null,
    "lat": 36.327033,
    "lng": -119.6631315
  },
  {
    "id": "630013789",
    "name": "SEQUOIA DIALYSIS",
    "npi": "1598026908",
    "hcaiId": "306164033",
    "businessName": "BUTANO DIALYSIS, LLC",
    "contactEmail": "CAL_C@DAVITA.COM",
    "categoryName": "CHRONIC DIALYSIS CLINIC",
    "categoryCode": "ESRD/CDC",
    "licenseStatus": "ACTIVE",
    "inService": true,
    "licenseNumber": "550002246",
    "licenseEffectiveDate": "04/15/2025",
    "licenseExpirationDate": "04/14/2026",
    "dataDate": "10/18/2025",
    "capacity": 23,
    "address": "440 N 11TH AVE",
    "city": "HANFORD",
    "zip": "93230",
    "county": "KINGS",
    "phone": "(559) 587-0105",
    "lat": 36.330516,
    "lng": -119.65536
  },
  {
    "id": "630026071",
    "name": "UNITED HEALTH CENTERS OF THE SAN JOAQUIN VALLEY",
    "npi": null,
    "hcaiId": "306390697",
    "businessName": "UNITED HEALTH CENTERS OF THE SAN JOAQUIN VALLEY",
    "contactEmail": "PREASJ@UNITEDHEALTHCENTERS.ORG",
    "categoryName": "PRIMARY CARE CLINIC",
    "categoryCode": "COMTYC",
    "licenseStatus": "ACTIVE",
    "inService": true,
    "licenseNumber": "550008068",
    "licenseEffectiveDate": "07/15/2025",
    "licenseExpirationDate": "07/14/2026",
    "dataDate": "10/18/2025",
    "capacity": 0,
    "address": "1545 MALL DR",
    "city": "HANFORD",
    "zip": "93230",
    "county": "KINGS",
    "phone": "(559) 646-7400",
    "lat": 36.32274,
    "lng": -119.66976
  },
  {
    "id": "040001253",
    "name": "VALLEY FAMILY HEALTH CTR/MATERNAL & CHILD CARE CTR",
    "npi": null,
    "hcaiId": null,
    "businessName": null,
    "contactEmail": null,
    "categoryName": "PRIMARY CARE CLINIC",
    "categoryCode": "RHC",
    "licenseStatus": null,
    "inService": null,
    "licenseNumber": null,
    "licenseEffectiveDate": null,
    "licenseExpirationDate": null,
    "dataDate": "10/18/2025",
    "capacity": 0,
    "address": "1286 N IRWIN ST",
    "city": "HANFORD",
    "zip": "93230",
    "county": "KINGS",
    "phone": "(559) 584-7200",
    "lat": 36.33831,
    "lng": -119.648052
  },
  {
    "id": "040001254",
    "name": "VALLEY FAMILY HEALTH CTR/MATERNAL & CHILD CARE CTR",
    "npi": null,
    "hcaiId": null,
    "businessName": null,
    "contactEmail": null,
    "categoryName": "PRIMARY CARE CLINIC",
    "categoryCode": "RHC",
    "licenseStatus": null,
    "inService": null,
    "licenseNumber": null,
    "licenseEffectiveDate": null,
    "licenseExpirationDate": null,
    "dataDate": "10/18/2025",
    "capacity": 0,
    "address": "1288 N IRWIN ST",
    "city": "HANFORD",
    "zip": "93230",
    "county": "KINGS",
    "phone": "(559) 584-7200",
    "lat": 36.338418,
    "lng": -119.647872
  },
  {
    "id": "630018192",
    "name": "WEE DENTAL",
    "npi": null,
    "hcaiId": null,
    "businessName": "AVENAL COMMUNITY HEALTH CENTER",
    "contactEmail": null,
    "categoryName": "PRIMARY CARE CLINIC",
    "categoryCode": "COMTYC",
    "licenseStatus": "ACTIVE",
    "inService": true,
    "licenseNumber": "550002822",
    "licenseEffectiveDate": "09/17/2025",
    "licenseExpirationDate": "09/16/2026",
    "dataDate": "10/18/2025",
    "capacity": 0,
    "address": "1320 BAILEY ST, SUITE 102",
    "city": "HANFORD",
    "zip": "93230",
    "county": "KINGS",
    "phone": null,
    "lat": 36.327393,
    "lng": -119.6650215
  }
]