[
  {
    "id": "630018569",
    "name": "ARIA COMMUNITY HEALTH CENTER",
    "npi": null,
    "hcaiId": null,
    "businessName": "AVENAL COMMUNITY HEALTH CENTER",
    "contactEmail": null,
    "categoryName": "PRIMARY CARE CLINIC",
    "categoryCode": "COMTYC",
    "licenseStatus": "ACTIVE",
    "inService": true,
    "licenseNumber": "550002822",
    "licenseEffectiveDate": "09/17/2025",
    "licenseExpirationDate": "09/16/2026",
    "dataDate": "10/18/2025",
    "capacity": 0,
    "address": "973 SEQUOIA AVE",
    "city": "LINDSAY",
    "zip": "93247",
    "county": "TULARE",
    "phone": null,
    "lat": 36.215163,
    "lng": -119.0965545
  },
  {
    "id": "630020015",
    "name": "ARIA COMMUNITY HEALTH CENTER",
    "npi": null,
    "hcaiId": null,
    "businessName": "AVENAL COMMUNITY HEALTH CENTER",
    "contactEmail": null,
    "categoryName": "PRIMARY CARE CLINIC",
    "categoryCode": "COMTYC",
    "licenseStatus": "ACTIVE",
    "inService": true,
    "licenseNumber": "550002822",
    "licenseEffectiveDate": "09/17/2025",
    "licenseExpirationDate": "09/16/2026",
    "dataDate": "10/18/2025",
    "capacity": 0,
    "address": "781 SEQUOIA AVE, SUITE 4",
    "city": "LINDSAY",
    "zip": "93247",
    "county": "TULARE",
    "phone": null,
    "lat": 36.212409,
    "lng": -119.096523
  },
  {
    "id": "630011570",
    "name": "AURORA GRACE E. HWANG, MD RHC",
    "npi": "1821176587",
    "hcaiId": null,
    "businessName": null,
    "contactEmail": null,
    "categoryName": "PRIMARY CARE CLINIC",
    "categoryCode": "RHC/MD",
    "licenseStatus": null,
    "inService": null,
    "licenseNumber": null,
    "licenseEffectiveDate": null,
    "licenseExpirationDate": null,
    "dataDate": "10/18/2025",
    "capacity": 0,
    "address": "835 SEQUOIA AVE",
    "city": "LINDSAY",
    "zip": "93247",
    "county": "TULARE",
    "phone": "(559) 562-5177",
    "lat": 36.21365963,
    "lng": -119.0961546
  },
  {
    "id": "630020003",
    "name": "CLINICA AGUA VIVA",
    "npi": null,
    "hcaiId": null,
    "businessName": null,
    "contactEmail": "LWC.MADRIGAL@GMAIL.COM",
    "categoryName": "PRIMARY CARE CLINIC",
    "categoryCode": "RHC/MD",
    "licenseStatus": null,
    "inService": null,
    "licenseNumber": null,
    "licenseEffectiveDate": null,
    "licenseExpirationDate": null,
    "dataDate": "10/18/2025",
    "capacity": 0,
    "address": "833 SEQUOIA AVE",
    "city": "LINDSAY",
    "zip": "93247",
    "county": "TULARE",
    "phone": "(559) 562-1361",
    "lat": 36.213066,
    "lng": -119.096946
  },
  {
    "id": "630012257",
    "name": "KAWEAH HEALTH LINDSAY CLINIC",
    "npi": "1104067636",
    "hcaiId": null,
    "businessName": "KAWEAH DELTA HEALTH CARE DISTRICT",
    "contactEmail": "CLABLUE@KDHCD.ORG",
    "categoryName": "PRIMARY CARE CLINIC",
    "categoryCode": "RHC/OP",
    "licenseStatus": "ACTIVE",
    "inService": true,
    "licenseNumber": "120000580",
    "licenseEffectiveDate": "11/01/2025",
    "licenseExpirationDate": "10/31/2026",
    "dataDate": "10/18/2025",
    "capacity": 0,
    "address": "839 NORTH SEQUOIA AVE",
    "city": "LINDSAY",
    "zip": "93247",
    "county": "TULARE",
    "phone": "(559) 562-1546",
    "lat": 36.21374606,
    "lng": -119.0961553
  },
  {
    "id": "630005281",
    "name": "LINDSAY FAMILY AND PEDIATRICS CLINIC",
    "npi": "1538606280",
    "hcaiId": null,
    "businessName": null,
    "contactEmail": "JOHN.ANGELL@SEQFAM.COM",
    "categoryName": "PRIMARY CARE CLINIC",
    "categoryCode": "RHC",
    "licenseStatus": null,
    "inService": null,
    "licenseNumber": null,
    "licenseEffectiveDate": null,
    "licenseExpirationDate": null,
    "dataDate": "10/18/2025",
    "capacity": 0,
    "address": "825 NORTH SEQUOIA AVE",
    "city": "LINDSAY",
    "zip": "93247",
    "county": "TULARE",
    "phone": "(559) 562-1960",
    "lat": 36.21344355,
    "lng": -119.0961529
  },
  {
    "id": "120001526",
    "name": "LINDSAY GARDENS NURSING & REHABILITATION",
    "npi": "1770644262",
    "hcaiId": "206544043",
    "businessName": "LINDSAY GARDENSIDENCE OPCO, LLC",
    "contactEmail": "DIDI.DAVIDSON@LINDSAYGARDENSHC.COM",
    "categoryName": "SKILLED NURSING FACILITY",
    "categoryCode": "SNF",
    "licenseStatus": "ACTIVE",
    "inService": true,
    "licenseNumber": "120000623",
    "licenseEffectiveDate": "04/22/2025",
    "licenseExpirationDate": "04/21/2026",
    "dataDate": "10/18/2025",
    "capacity": 99,
    "address": "1011 W TULARE RD",
    "city": "LINDSAY",
    "zip": "93247",
    "county": "TULARE",
    "phone": "(559) 562-0055",
    "lat": 36.211068,
    "lng": -119.1063015
  },
  {
    "id": "630018674",
    "name": "OMNI FAMILY HEALTH",
    "npi": "1700804556",
    "hcaiId": null,
    "businessName": "OMNI FAMILY HEALTH",
    "contactEmail": null,
    "categoryName": "PRIMARY CARE CLINIC",
    "categoryCode": "COMTYC",
    "licenseStatus": "ACTIVE",
    "inService": true,
    "licenseNumber": "120000668",
    "licenseEffectiveDate": "12/13/2024",
    "licenseExpirationDate": "12/12/2025",
    "dataDate": "10/18/2025",
    "capacity": 0,
    "address": "860 SEQUOIA AVE",
    "city": "LINDSAY",
    "zip": "93247",
    "county": "TULARE",
    "phone": "(661) 459-1900",
    "lat": 36.21418322,
    "lng": -119.0960426
  },
  {
    "id": "630019286",
    "name": "SEQUOIA FAMILY MEDICAL CENTER",
    "npi": null,
    "hcaiId": null,
    "businessName": null,
    "contactEmail": "JOHN.ANGELL@SEQFAM.COM",
    "categoryName": "PRIMARY CARE CLINIC",
    "categoryCode": "RHC/MD",
    "licenseStatus": null,
    "inService": null,
    "licenseNumber": null,
    "licenseEffectiveDate": null,
    "licenseExpirationDate": null,
    "dataDate": "10/18/2025",
    "capacity": 0,
    "address": "252 N HIGHWAY 65",
    "city": "LINDSAY",
    "zip": "93247",
    "county": "TULARE",
    "phone": "(559) 781-3700",
    "lat": 36.20435281,
    "lng": -119.1051075
  },
  {
    "id": "630002101",
    "name": "STEELE'S QUALITY LIVING",
    "npi": "1790900074",
    "hcaiId": null,
    "businessName": "P & A STEELE INC.",
    "contactEmail": "NURSESQL@GMAIL.COM",
    "categoryName": "INTERMEDIATE CARE FACILITY-DD/H/N/CN/IID",
    "categoryCode": "ICFDDN",
    "licenseStatus": "ACTIVE",
    "inService": true,
    "licenseNumber": "550000068",
    "licenseEffectiveDate": "11/07/2024",
    "licenseExpirationDate": "11/06/2025",
    "dataDate": "10/18/2025",
    "capacity": 6,
    "address": "20015 ROAD 212",
    "city": "LINDSAY",
    "zip": "93247",
    "county": "TULARE",
    "phone": "(559) 920-8770",
    "lat": 36.153171,
    "lng": -119.099862
  },
  {
    "id": "630017296",
    "name": "VIDA SANA FAMILY PRACTICE",
    "npi": null,
    "hcaiId": null,
    "businessName": "AVENAL COMMUNITY HEALTH CENTER",
    "contactEmail": null,
    "categoryName": "PRIMARY CARE CLINIC",
    "categoryCode": "COMTYC",
    "licenseStatus": "ACTIVE",
    "inService": true,
    "licenseNumber": "550002822",
    "licenseEffectiveDate": "09/17/2025",
    "licenseExpirationDate": "09/16/2026",
    "dataDate": "10/18/2025",
    "capacity": 0,
    "address": "755 SEQUOIA AVE, SUITE B",
    "city": "LINDSAY",
    "zip": "93247",
    "county": "TULARE",
    "phone": "(559) 562-9399",
    "lat": 36.211761,
    "lng": -119.096451
  },
  {
    "id": "630017295",
    "name": "VIDA SANA FAMILY PRACTICE 2",
    "npi": null,
    "hcaiId": null,
    "businessName": "AVENAL COMMUNITY HEALTH CENTER",
    "contactEmail": null,
    "categoryName": "PRIMARY CARE CLINIC",
    "categoryCode": "COMTYC",
    "licenseStatus": "ACTIVE",
    "inService": true,
    "licenseNumber": "550002822",
    "licenseEffectiveDate": "09/17/2025",
    "licenseExpirationDate": "09/16/2026",
    "dataDate": "10/18/2025",
    "capacity": 0,
    "address": "781 SEQUOIA AVE, SUITE 3",
    "city": "LINDSAY",
    "zip": "93247",
    "county": "TULARE",
    "phone": "(559) 562-9399",
    "lat": 36.212409,
    "lng": -119.096523
  },
  {
    "id": "630018247",
    "name": "VIDA SANA FAMILY PRACTICE 3",
    "npi": null,
    "hcaiId": null,
    "businessName": "AVENAL COMMUNITY HEALTH CENTER",
    "contactEmail": null,
    "categoryName": "PRIMARY CARE CLINIC",
    "categoryCode": "COMTYC",
    "licenseStatus": "ACTIVE",
    "inService": true,
    "licenseNumber": "550002822",
    "licenseEffectiveDate": "09/17/2025",
    "licenseExpirationDate": "09/16/2026",
    "dataDate": "10/18/2025",
    "capacity": 0,
    "address": "781 SEQUOIA AVE, SUITE 2",
    "city": "LINDSAY",
    "zip": "93247",
    "county": "TULARE",
    "phone": null,
    "lat": 36.212409,
    "lng": -119.096523
  },
  {
    "id": "630017294",
    "name": "VIDA SANA PEDIATRICS",
    "npi": null,
    "hcaiId": null,
    "businessName": "AVENAL COMMUNITY HEALTH CENTER",
    "contactEmail": null,
    "categoryName": "PRIMARY CARE CLINIC",
    "categoryCode": "COMTYC",
    "licenseStatus": "ACTIVE",
    "inService": true,
    "licenseNumber": "550002822",
    "licenseEffectiveDate": "09/17/2025",
    "licenseExpirationDate": "09/16/2026",
    "dataDate": "10/18/2025",
    "capacity": 0,
    "address": "781 SEQUOIA AVE, SUITE 1",
    "city": "LINDSAY",
    "zip": "93247",
    "county": "TULARE",
    "phone": "(559) 562-9399",
    "lat": 36.212409,
    "lng": -119.096523
  }
]