[
  {
    "id": "630011901",
    "name": "BRISTOL HOSPICE - LAKE ISABEL",
    "npi": null,
    "hcaiId": "406154152",
    "businessName": "OPTIMAL HOSPICE, INC.",
    "contactEmail": "LINA.MEJIA@BRISTOLHOSPICE.COM",
    "categoryName": "HOSPICE",
    "categoryCode": "HOSPICE",
    "licenseStatus": "ACTIVE",
    "inService": true,
    "licenseNumber": "070000581",
    "licenseEffectiveDate": "08/11/2025",
    "licenseExpirationDate": "11/11/2026",
    "dataDate": "10/18/2025",
    "capacity": 0,
    "address": "5520 LAKE ISABELLA BLVD, SUITE G5",
    "city": "LAKE ISABELLA",
    "zip": "93240",
    "county": "KERN",
    "phone": "(661) 387-7101",
    "lat": 35.61679964,
    "lng": -118.4767159
  },
  {
    "id": "120001156",
    "name": "KERN COUNTY HEALTH DEPT - LAKE ISABELLA CLINIC",
    "npi": null,
    "hcaiId": null,
    "businessName": null,
    "contactEmail": null,
    "categoryName": "OTHER",
    "categoryCode": "UNLICEN",
    "licenseStatus": null,
    "inService": null,
    "licenseNumber": null,
    "licenseEffectiveDate": null,
    "licenseExpirationDate": null,
    "dataDate": "10/18/2025",
    "capacity": 0,
    "address": "7050 LAKE ISABELLA BLVD",
    "city": "LAKE ISABELLA",
    "zip": "93240",
    "county": "KERN",
    "phone": "(760) 549-2091",
    "lat": 35.63822389,
    "lng": -118.4667312
  },
  {
    "id": "120000344",
    "name": "KERN VALLEY HEALTHCARE DISTRICT",
    "npi": "1427049964",
    "hcaiId": "106150737",
    "businessName": "KERN VALLEY HEALTHCARE DISTRICT",
    "contactEmail": "HEIDISAGE@KVHD.ORG",
    "categoryName": "GENERAL ACUTE CARE HOSPITAL",
    "categoryCode": "GACH",
    "licenseStatus": "ACTIVE",
    "inService": true,
    "licenseNumber": "120000183",
    "licenseEffectiveDate": "11/01/2025",
    "licenseExpirationDate": "10/31/2026",
    "dataDate": "10/18/2025",
    "capacity": 27,
    "address": "6412 LAUREL AVE",
    "city": "LAKE ISABELLA",
    "zip": "93240",
    "county": "KERN",
    "phone": "(760) 379-2681",
    "lat": 35.63528418,
    "lng": -118.406371
  },
  {
    "id": "120000695",
    "name": "KERN VALLEY HEALTHCARE DISTRICT D/P SNF",
    "npi": "1427049964",
    "hcaiId": null,
    "businessName": "KERN VALLEY HEALTHCARE DISTRICT",
    "contactEmail": "EASTERDAYRO@KVHD.ORG",
    "categoryName": "SKILLED NURSING FACILITY",
    "categoryCode": "SNF",
    "licenseStatus": "ACTIVE",
    "inService": true,
    "licenseNumber": "120000183",
    "licenseEffectiveDate": "11/01/2025",
    "licenseExpirationDate": "10/31/2026",
    "dataDate": "10/18/2025",
    "capacity": 74,
    "address": "6412 LAUREL AVE",
    "city": "LAKE ISABELLA",
    "zip": "93240",
    "county": "KERN",
    "phone": "(760) 379-6667",
    "lat": 35.63528418,
    "lng": -118.406371
  },
  {
    "id": "120001267",
    "name": "MOUNTAIN VIEW HEALTH CENTER",
    "npi": "1457854192",
    "hcaiId": null,
    "businessName": "KERN VALLEY HEALTHCARE DISTRICT",
    "contactEmail": "JEANNEOLSON@KVHD.ORG",
    "categoryName": "PRIMARY CARE CLINIC",
    "categoryCode": "RHC/OP",
    "licenseStatus": "ACTIVE",
    "inService": true,
    "licenseNumber": "120000183",
    "licenseEffectiveDate": "11/01/2025",
    "licenseExpirationDate": "10/31/2026",
    "dataDate": "10/18/2025",
    "capacity": 0,
    "address": "4300 BIRCH ST",
    "city": "LAKE ISABELLA",
    "zip": "93240",
    "county": "KERN",
    "phone": "(760) 379-1791",
    "lat": 35.634177,
    "lng": -118.40625
  },
  {
    "id": "630028179",
    "name": "PREGNANCY RESOURCE CENTER OF KERN RIVER VALLEY",
    "npi": null,
    "hcaiId": null,
    "businessName": "BAKERSFIELD CRISIS PREGNANCY CENTER",
    "contactEmail": null,
    "categoryName": "PRIMARY CARE CLINIC",
    "categoryCode": "FREEC",
    "licenseStatus": "ACTIVE",
    "inService": true,
    "licenseNumber": "120000655",
    "licenseEffectiveDate": "02/26/2025",
    "licenseExpirationDate": "02/25/2026",
    "dataDate": "10/18/2025",
    "capacity": 0,
    "address": "6040 LAKE ISABELLA BLVD",
    "city": "LAKE ISABELLA",
    "zip": "93240",
    "county": "KERN",
    "phone": null,
    "lat": 35.62310346,
    "lng": -118.4746648
  }
]