[
  {
    "id": "040001405",
    "name": "ADVENTIST HEALTH REEDLEY",
    "npi": "1699758003",
    "hcaiId": null,
    "businessName": "REEDLEY COMMUNITY HOSPITAL",
    "contactEmail": null,
    "categoryName": "PRIMARY CARE CLINIC",
    "categoryCode": "RHC/OP",
    "licenseStatus": "ACTIVE",
    "inService": true,
    "licenseNumber": "040000149",
    "licenseEffectiveDate": "11/09/2024",
    "licenseExpirationDate": "11/08/2025",
    "dataDate": "10/18/2025",
    "capacity": 0,
    "address": "810 E D ST",
    "city": "LEMOORE",
    "zip": "93245",
    "county": "KINGS",
    "phone": "(559) 924-7711",
    "lat": 36.30087,
    "lng": -119.769309
  },
  {
    "id": "630013584",
    "name": "ARIA COMMUNITY HEALTH CENTER",
    "npi": "1073868527",
    "hcaiId": "306164031",
    "businessName": "AVENAL COMMUNITY HEALTH CENTER",
    "contactEmail": "JBLAINE@ARIACHC.ORG",
    "categoryName": "PRIMARY CARE CLINIC",
    "categoryCode": "COMTYC",
    "licenseStatus": "ACTIVE",
    "inService": true,
    "licenseNumber": "550002822",
    "licenseEffectiveDate": "09/17/2025",
    "licenseExpirationDate": "09/16/2026",
    "dataDate": "10/18/2025",
    "capacity": 0,
    "address": "140 C ST",
    "city": "LEMOORE",
    "zip": "93245",
    "county": "KINGS",
    "phone": "(559) 924-7005",
    "lat": 36.301347,
    "lng": -119.78244
  },
  {
    "id": "630013924",
    "name": "ARIA COMMUNITY HEALTH CENTER",
    "npi": "1225387616",
    "hcaiId": "306164035",
    "businessName": "AVENAL COMMUNITY HEALTH CENTER",
    "contactEmail": "JB360@SBCGLOBAL.NET",
    "categoryName": "PRIMARY CARE CLINIC",
    "categoryCode": "COMTYC",
    "licenseStatus": "ACTIVE",
    "inService": true,
    "licenseNumber": "550002822",
    "licenseEffectiveDate": "09/17/2025",
    "licenseExpirationDate": "09/16/2026",
    "dataDate": "10/18/2025",
    "capacity": 0,
    "address": "555 E ST",
    "city": "LEMOORE",
    "zip": "93245",
    "county": "KINGS",
    "phone": "(559) 386-4500",
    "lat": 36.301869,
    "lng": -119.7895095
  },
  {
    "id": "630027341",
    "name": "ARIA COMMUNITY HEALTH CENTER",
    "npi": "1235826116",
    "hcaiId": null,
    "businessName": "AVENAL COMMUNITY HEALTH CENTER",
    "contactEmail": null,
    "categoryName": "PRIMARY CARE CLINIC",
    "categoryCode": "COMTYC",
    "licenseStatus": "ACTIVE",
    "inService": true,
    "licenseNumber": "550002822",
    "licenseEffectiveDate": "09/17/2025",
    "licenseExpirationDate": "09/16/2026",
    "dataDate": "10/18/2025",
    "capacity": 0,
    "address": "555 E ST",
    "city": "LEMOORE",
    "zip": "93245",
    "county": "KINGS",
    "phone": null,
    "lat": 36.3021778,
    "lng": -119.789168
  },
  {
    "id": "630017400",
    "name": "ARIA COMMUNITY HEALTH CENTER LEMOORE 209",
    "npi": null,
    "hcaiId": null,
    "businessName": "AVENAL COMMUNITY HEALTH CENTER",
    "contactEmail": null,
    "categoryName": "PRIMARY CARE CLINIC",
    "categoryCode": "COMTYC",
    "licenseStatus": "ACTIVE",
    "inService": true,
    "licenseNumber": "550002822",
    "licenseEffectiveDate": "09/17/2025",
    "licenseExpirationDate": "09/16/2026",
    "dataDate": "10/18/2025",
    "capacity": 0,
    "address": "209 C ST",
    "city": "LEMOORE",
    "zip": "93245",
    "county": "KINGS",
    "phone": "(559) 386-4500",
    "lat": 36.300591,
    "lng": -119.783268
  },
  {
    "id": "630013078",
    "name": "LEMOORE DIALYSIS",
    "npi": "1639474265",
    "hcaiId": "306164030",
    "businessName": "LIGHTHOUSE DIALYSIS, LLC",
    "contactEmail": "CAL_C@DAVITA.COM",
    "categoryName": "CHRONIC DIALYSIS CLINIC",
    "categoryCode": "ESRD/CDC",
    "licenseStatus": "ACTIVE",
    "inService": true,
    "licenseNumber": "550001590",
    "licenseEffectiveDate": "05/05/2025",
    "licenseExpirationDate": "05/04/2026",
    "dataDate": "10/18/2025",
    "capacity": 16,
    "address": "1345 W BUSH ST",
    "city": "LEMOORE",
    "zip": "93245",
    "county": "KINGS",
    "phone": "(559) 924-3175",
    "lat": 36.297846,
    "lng": -119.7997515
  },
  {
    "id": "040001276",
    "name": "TACHI MEDICAL CENTER",
    "npi": null,
    "hcaiId": "306164020",
    "businessName": "CENTRAL VALLEY INDIAN HEALTH, INC.",
    "contactEmail": "CVIH@CVIH.ORG",
    "categoryName": "PRIMARY CARE CLINIC",
    "categoryCode": "RHC/COMTYC",
    "licenseStatus": "ACTIVE",
    "inService": true,
    "licenseNumber": "040000498",
    "licenseEffectiveDate": "12/14/2024",
    "licenseExpirationDate": "12/13/2025",
    "dataDate": "10/18/2025",
    "capacity": 0,
    "address": "16835 ALKALI DR",
    "city": "LEMOORE",
    "zip": "93245",
    "county": "KINGS",
    "phone": "(559) 299-2578",
    "lat": 36.23731386,
    "lng": -119.7608614
  },
  {
    "id": "630017816",
    "name": "UNITED HEALTH CENTERS OF THE SAN JOAQUIN VALLEY",
    "npi": null,
    "hcaiId": "306160371",
    "businessName": "UNITED HEALTH CENTERS OF THE SAN JOAQUIN VALLEY",
    "contactEmail": "CORPORATE@UNITEDHEALTHCENTERS.ORG",
    "categoryName": "PRIMARY CARE CLINIC",
    "categoryCode": "COMTYC",
    "licenseStatus": "ACTIVE",
    "inService": true,
    "licenseNumber": "550004221",
    "licenseEffectiveDate": "04/19/2025",
    "licenseExpirationDate": "04/18/2026",
    "dataDate": "10/18/2025",
    "capacity": 0,
    "address": "250 E HANFORD ARMONA ROAD",
    "city": "LEMOORE",
    "zip": "93245",
    "county": "KINGS",
    "phone": "(559) 646-7400",
    "lat": 36.313812,
    "lng": -119.777139
  }
]