[
  {
    "id": "630015143",
    "name": "ALTURA CENTERS FOR HEALTH",
    "npi": "1932529831",
    "hcaiId": "306544098",
    "businessName": "ALTURA CENTERS FOR HEALTH",
    "contactEmail": "GSOTO@ALTURA.ORG",
    "categoryName": "PRIMARY CARE CLINIC",
    "categoryCode": "COMTYC",
    "licenseStatus": "ACTIVE",
    "inService": true,
    "licenseNumber": "550002790",
    "licenseEffectiveDate": "07/30/2025",
    "licenseExpirationDate": "07/29/2026",
    "dataDate": "10/18/2025",
    "capacity": 0,
    "address": "16686 ROAD 168",
    "city": "WOODVILLE",
    "zip": "93257",
    "county": "TULARE",
    "phone": "(559) 686-9097",
    "lat": 36.092763,
    "lng": -119.1963105
  },
  {
    "id": "630018387",
    "name": "ARIA COMMUNITY HEALTH CENTER",
    "npi": null,
    "hcaiId": null,
    "businessName": "AVENAL COMMUNITY HEALTH CENTER",
    "contactEmail": null,
    "categoryName": "PRIMARY CARE CLINIC",
    "categoryCode": "COMTYC",
    "licenseStatus": "ACTIVE",
    "inService": true,
    "licenseNumber": "550002822",
    "licenseEffectiveDate": "09/17/2025",
    "licenseExpirationDate": "09/16/2026",
    "dataDate": "10/18/2025",
    "capacity": 0,
    "address": "575 W PUTNAM AVE",
    "city": "PORTERVILLE",
    "zip": "93257",
    "county": "TULARE",
    "phone": null,
    "lat": 36.068319,
    "lng": -119.029689
  },
  {
    "id": "630018413",
    "name": "ARIA COMMUNITY HEALTH CENTER",
    "npi": null,
    "hcaiId": null,
    "businessName": "AVENAL COMMUNITY HEALTH CENTER",
    "contactEmail": null,
    "categoryName": "PRIMARY CARE CLINIC",
    "categoryCode": "COMTYC",
    "licenseStatus": "ACTIVE",
    "inService": true,
    "licenseNumber": "550002822",
    "licenseEffectiveDate": "09/17/2025",
    "licenseExpirationDate": "09/16/2026",
    "dataDate": "10/18/2025",
    "capacity": 0,
    "address": "229 W CHERRY AVE",
    "city": "PORTERVILLE",
    "zip": "93257",
    "county": "TULARE",
    "phone": null,
    "lat": 36.068859,
    "lng": -119.021652
  },
  {
    "id": "630019177",
    "name": "ARIA COMMUNITY HEALTH CENTER",
    "npi": null,
    "hcaiId": null,
    "businessName": "AVENAL COMMUNITY HEALTH CENTER",
    "contactEmail": "HMUNGUR@ARIACHC.ORG",
    "categoryName": "PRIMARY CARE CLINIC",
    "categoryCode": "COMTYC",
    "licenseStatus": "ACTIVE",
    "inService": true,
    "licenseNumber": "550002822",
    "licenseEffectiveDate": "09/17/2025",
    "licenseExpirationDate": "09/16/2026",
    "dataDate": "10/18/2025",
    "capacity": 0,
    "address": "591 W PUTNAM AVE",
    "city": "PORTERVILLE",
    "zip": "93257",
    "county": "TULARE",
    "phone": "(559) 386-4500",
    "lat": 36.069336,
    "lng": -119.03031
  },
  {
    "id": "630019178",
    "name": "ARIA COMMUNITY HEALTH CENTER",
    "npi": null,
    "hcaiId": null,
    "businessName": "AVENAL COMMUNITY HEALTH CENTER",
    "contactEmail": "HMUNGUR@ARIACHC.ORG",
    "categoryName": "PRIMARY CARE CLINIC",
    "categoryCode": "COMTYC",
    "licenseStatus": "ACTIVE",
    "inService": true,
    "licenseNumber": "550002822",
    "licenseEffectiveDate": "09/17/2025",
    "licenseExpirationDate": "09/16/2026",
    "dataDate": "10/18/2025",
    "capacity": 0,
    "address": "581 W PUTNAM AVE",
    "city": "PORTERVILLE",
    "zip": "93257",
    "county": "TULARE",
    "phone": "(559) 386-4500",
    "lat": 36.069021,
    "lng": -119.030157
  },
  {
    "id": "630020017",
    "name": "ARIA COMMUNITY HEALTH CENTER",
    "npi": null,
    "hcaiId": null,
    "businessName": "AVENAL COMMUNITY HEALTH CENTER",
    "contactEmail": null,
    "categoryName": "PRIMARY CARE CLINIC",
    "categoryCode": "COMTYC",
    "licenseStatus": "ACTIVE",
    "inService": true,
    "licenseNumber": "550002822",
    "licenseEffectiveDate": "09/17/2025",
    "licenseExpirationDate": "09/16/2026",
    "dataDate": "10/18/2025",
    "capacity": 0,
    "address": "569 W PUTNAM AVE",
    "city": "PORTERVILLE",
    "zip": "93257",
    "county": "TULARE",
    "phone": null,
    "lat": 36.068985,
    "lng": -119.0296665
  },
  {
    "id": "120001513",
    "name": "CENTRAL VALLEY TLCF, INC.",
    "npi": "1639652613",
    "hcaiId": null,
    "businessName": "CENTRAL VALLEY TLCF, INC.",
    "contactEmail": "JSTUMP.CVTLCF@GMAIL.COM",
    "categoryName": "INTERMEDIATE CARE FACILITY-DD/H/N/CN/IID",
    "categoryCode": "ICFDDN",
    "licenseStatus": "ACTIVE",
    "inService": true,
    "licenseNumber": "120000616",
    "licenseEffectiveDate": "02/01/2025",
    "licenseExpirationDate": "01/31/2026",
    "dataDate": "10/18/2025",
    "capacity": 6,
    "address": "1760 W KANAI AVE",
    "city": "PORTERVILLE",
    "zip": "93257",
    "county": "TULARE",
    "phone": "(559) 781-5796",
    "lat": 36.076428,
    "lng": -119.056707
  },
  {
    "id": "630019803",
    "name": "COMPLETE CARE COMMUNITY HEALTH CENTER - PORTERVILLE",
    "npi": "1215113964",
    "hcaiId": null,
    "businessName": "COMPLETE CARE COMMUNITY HEALTH CENTER, INC.",
    "contactEmail": null,
    "categoryName": "PRIMARY CARE CLINIC",
    "categoryCode": "COMTYC",
    "licenseStatus": "ACTIVE",
    "inService": true,
    "licenseNumber": "550000639",
    "licenseEffectiveDate": "12/10/2024",
    "licenseExpirationDate": "12/09/2025",
    "dataDate": "10/18/2025",
    "capacity": 0,
    "address": "365 N PEARSON DR, SUITE 5",
    "city": "PORTERVILLE",
    "zip": "93257",
    "county": "TULARE",
    "phone": null,
    "lat": 36.07242561,
    "lng": -119.0276664
  },
  {
    "id": "630014406",
    "name": "DIALYSIS CENTER OF PORTERVILLE, LLC",
    "npi": "1326485293",
    "hcaiId": "306544093",
    "businessName": "DIALYSIS CENTER OF PORTERVILLE, LLC",
    "contactEmail": "JORPILLA@AMERICANRENAL.COM",
    "categoryName": "CHRONIC DIALYSIS CLINIC",
    "categoryCode": "ESRD/CDC",
    "licenseStatus": "ACTIVE",
    "inService": true,
    "licenseNumber": "550002543",
    "licenseEffectiveDate": "06/16/2025",
    "licenseExpirationDate": "06/15/2026",
    "dataDate": "10/18/2025",
    "capacity": 21,
    "address": "841 W HENDERSON AVE",
    "city": "PORTERVILLE",
    "zip": "93257",
    "county": "TULARE",
    "phone": "(559) 783-0600",
    "lat": 36.078201,
    "lng": -119.0371365
  },
  {
    "id": "120001476",
    "name": "FAMILY HEALTHCARE NETWORK",
    "npi": "1083611156",
    "hcaiId": "306542019",
    "businessName": "FAMILY HEALTHCARE NETWORK",
    "contactEmail": "RISKMANAGEMENT@FHCN.ORG",
    "categoryName": "PRIMARY CARE CLINIC",
    "categoryCode": "COMTYC",
    "licenseStatus": "ACTIVE",
    "inService": true,
    "licenseNumber": "120000590",
    "licenseEffectiveDate": "11/01/2025",
    "licenseExpirationDate": "10/31/2026",
    "dataDate": "10/18/2025",
    "capacity": 0,
    "address": "1107 W POPLAR AVE",
    "city": "PORTERVILLE",
    "zip": "93257",
    "county": "TULARE",
    "phone": "(559) 737-4294",
    "lat": 36.050967,
    "lng": -119.042064
  },
  {
    "id": "120001561",
    "name": "FAMILY HEALTHCARE NETWORK",
    "npi": "1386738177",
    "hcaiId": "306544058",
    "businessName": "FAMILY HEALTHCARE NETWORK",
    "contactEmail": "RISKMANAGEMENT@FHCN.ORG",
    "categoryName": "PRIMARY CARE CLINIC",
    "categoryCode": "COMTYC",
    "licenseStatus": "ACTIVE",
    "inService": true,
    "licenseNumber": "120000646",
    "licenseEffectiveDate": "12/07/2024",
    "licenseExpirationDate": "12/06/2025",
    "dataDate": "10/18/2025",
    "capacity": 0,
    "address": "31954 COUNTRY CLUB DR",
    "city": "PORTERVILLE",
    "zip": "93257",
    "county": "TULARE",
    "phone": "(559) 737-4717",
    "lat": 36.10208641,
    "lng": -118.8598191
  },
  {
    "id": "630011241",
    "name": "FAMILY HEALTHCARE NETWORK",
    "npi": "1558554519",
    "hcaiId": "306544090",
    "businessName": "FAMILY HEALTHCARE NETWORK",
    "contactEmail": "PESTRADA@FHCN.ORG",
    "categoryName": "PRIMARY CARE CLINIC",
    "categoryCode": "COMTYC",
    "licenseStatus": "ACTIVE",
    "inService": true,
    "licenseNumber": "550000493",
    "licenseEffectiveDate": "05/10/2025",
    "licenseExpirationDate": "05/09/2026",
    "dataDate": "10/18/2025",
    "capacity": 0,
    "address": "1133 W POPLAR AVE",
    "city": "PORTERVILLE",
    "zip": "93257",
    "county": "TULARE",
    "phone": "(559) 737-4717",
    "lat": 36.05123278,
    "lng": -119.0425628
  },
  {
    "id": "630018872",
    "name": "FAMILY HEALTHCARE NETWORK",
    "npi": "1053875484",
    "hcaiId": "306540462",
    "businessName": "FAMILY HEALTHCARE NETWORK",
    "contactEmail": "RISKMANAGEMENT@FHCN.ORG",
    "categoryName": "PRIMARY CARE CLINIC",
    "categoryCode": "COMTYC",
    "licenseStatus": "ACTIVE",
    "inService": true,
    "licenseNumber": "550004889",
    "licenseEffectiveDate": "09/06/2025",
    "licenseExpirationDate": "09/05/2026",
    "dataDate": "10/18/2025",
    "capacity": 0,
    "address": "65 N HOCKETT ST",
    "city": "PORTERVILLE",
    "zip": "93257",
    "county": "TULARE",
    "phone": "(559) 737-4294",
    "lat": 36.06574425,
    "lng": -119.0171464
  },
  {
    "id": "120001421",
    "name": "GATEWAY POST ACUTE",
    "npi": "1235546300",
    "hcaiId": "206540823",
    "businessName": "VALLEY CAREIDENCE, OPCO, LLC",
    "contactEmail": "CHASE.THREET@SEQUOIATC.COM",
    "categoryName": "SKILLED NURSING FACILITY",
    "categoryCode": "SNF",
    "licenseStatus": "ACTIVE",
    "inService": true,
    "licenseNumber": "120000567",
    "licenseEffectiveDate": "09/20/2025",
    "licenseExpirationDate": "09/19/2026",
    "dataDate": "10/18/2025",
    "capacity": 62,
    "address": "661 W POPLAR AVE",
    "city": "PORTERVILLE",
    "zip": "93257",
    "county": "TULARE",
    "phone": "(559) 784-8371",
    "lat": 36.051111,
    "lng": -119.0319435
  },
  {
    "id": "120001528",
    "name": "KELLY & SCOTT'S CARE HOME INC. #3",
    "npi": "1184759227",
    "hcaiId": null,
    "businessName": "KELLY AND SCOTT'S CARE HOME",
    "contactEmail": "KSCAREHOME@SBCGLOBAL.NET",
    "categoryName": "INTERMEDIATE CARE FACILITY-DD/H/N/CN/IID",
    "categoryCode": "ICFDDN",
    "licenseStatus": "ACTIVE",
    "inService": true,
    "licenseNumber": "120000624",
    "licenseEffectiveDate": "04/19/2025",
    "licenseExpirationDate": "04/18/2026",
    "dataDate": "10/18/2025",
    "capacity": 6,
    "address": "332 N INDIANA ST",
    "city": "PORTERVILLE",
    "zip": "93257",
    "county": "TULARE",
    "phone": "(559) 784-4690",
    "lat": 36.071991,
    "lng": -119.0347335
  },
  {
    "id": "120001684",
    "name": "NATRAJ SURGERY CENTER, INC.",
    "npi": "1083711568",
    "hcaiId": "306544071",
    "businessName": null,
    "contactEmail": "GPANDYAMD@GMAIL.COM",
    "categoryName": "SURGICAL CLINIC",
    "categoryCode": "ASC",
    "licenseStatus": "INACTIVE - CAPEN DECISION",
    "inService": false,
    "licenseNumber": "550000077",
    "licenseEffectiveDate": "11/19/2007",
    "licenseExpirationDate": "11/18/2008",
    "dataDate": "10/18/2025",
    "capacity": 0,
    "address": "555 W PUTNAM AVE",
    "city": "PORTERVILLE",
    "zip": "93257",
    "county": "TULARE",
    "phone": "(559) 788-0505",
    "lat": 36.06952086,
    "lng": -119.0296426
  },
  {
    "id": "170001874",
    "name": "PORTERVILLE DEVELOPMENTAL CENTER",
    "npi": null,
    "hcaiId": "106541123",
    "businessName": "CALIFORNIA DEPARTMENT OF DEVELOPMENTAL SERVICES",
    "contactEmail": "GABRIELA.MALESZEWSKI@PDC.DDS.CA.GOV",
    "categoryName": "GENERAL ACUTE CARE HOSPITAL",
    "categoryCode": "GACH",
    "licenseStatus": "ACTIVE",
    "inService": true,
    "licenseNumber": "170000837",
    "licenseEffectiveDate": "03/01/2025",
    "licenseExpirationDate": "02/28/2026",
    "dataDate": "10/18/2025",
    "capacity": 17,
    "address": "26501 AVENUE 140",
    "city": "PORTERVILLE",
    "zip": "93257",
    "county": "TULARE",
    "phone": "(559) 782-2222",
    "lat": 36.04167,
    "lng": -118.9795635
  },
  {
    "id": "630024851",
    "name": "PORTERVILLE DEVELOPMENTAL CENTER D/P ICF-DD STAR",
    "npi": "1588615835",
    "hcaiId": null,
    "businessName": "CALIFORNIA DEPARTMENT OF DEVELOPMENTAL SERVICES",
    "contactEmail": null,
    "categoryName": "INTERMEDIATE CARE FACILITY-DD/H/N/CN/IID",
    "categoryCode": "ICFDD",
    "licenseStatus": "ACTIVE",
    "inService": true,
    "licenseNumber": "170000837",
    "licenseEffectiveDate": "03/01/2025",
    "licenseExpirationDate": "02/28/2026",
    "dataDate": "10/18/2025",
    "capacity": 0,
    "address": "26501 AVENUE 140",
    "city": "PORTERVILLE",
    "zip": "93257",
    "county": "TULARE",
    "phone": null,
    "lat": 36.04167,
    "lng": -118.9795635
  },
  {
    "id": "170001878",
    "name": "PORTERVILLE DEVELOPMENTAL CENTER D/P ICFDD",
    "npi": "1588615835",
    "hcaiId": null,
    "businessName": "CALIFORNIA DEPARTMENT OF DEVELOPMENTAL SERVICES",
    "contactEmail": "DEANNA.CHANDLER@PDC.DDS.CA.GOV",
    "categoryName": "INTERMEDIATE CARE FACILITY-DD/H/N/CN/IID",
    "categoryCode": "ICFDD",
    "licenseStatus": "ACTIVE",
    "inService": true,
    "licenseNumber": "170000837",
    "licenseEffectiveDate": "03/01/2025",
    "licenseExpirationDate": "02/28/2026",
    "dataDate": "10/18/2025",
    "capacity": 121,
    "address": "26501 AVENUE 140",
    "city": "PORTERVILLE",
    "zip": "93257",
    "county": "TULARE",
    "phone": "(559) 782-2042",
    "lat": 36.04167,
    "lng": -118.9795635
  },
  {
    "id": "170001877",
    "name": "PORTERVILLE DEVELOPMENTAL CENTER D/P ICFDD (STP)",
    "npi": null,
    "hcaiId": null,
    "businessName": "CALIFORNIA DEPARTMENT OF DEVELOPMENTAL SERVICES",
    "contactEmail": "DEANNA.CHANDLER@PDC.DDS.CA.GOV",
    "categoryName": "INTERMEDIATE CARE FACILITY-DD/H/N/CN/IID",
    "categoryCode": "ICFDD",
    "licenseStatus": "ACTIVE",
    "inService": true,
    "licenseNumber": "170000837",
    "licenseEffectiveDate": "03/01/2025",
    "licenseExpirationDate": "02/28/2026",
    "dataDate": "10/18/2025",
    "capacity": 469,
    "address": "26501 AVENUE 140",
    "city": "PORTERVILLE",
    "zip": "93257",
    "county": "TULARE",
    "phone": "(559) 782-2042",
    "lat": 36.04167,
    "lng": -118.9795635
  },
  {
    "id": "120001522",
    "name": "RIVER WALK CARE CENTER",
    "npi": "1215001763",
    "hcaiId": "206544041",
    "businessName": "RIVER WALK CARE CENTER LLC",
    "contactEmail": "ADMINISTRATOR@RIVERWALKCARECENTER.ORG",
    "categoryName": "SKILLED NURSING FACILITY",
    "categoryCode": "SNF",
    "licenseStatus": "ACTIVE",
    "inService": true,
    "licenseNumber": "120000621",
    "licenseEffectiveDate": "12/16/2024",
    "licenseExpirationDate": "12/15/2025",
    "dataDate": "10/18/2025",
    "capacity": 99,
    "address": "1100 W MORTON AVE",
    "city": "PORTERVILLE",
    "zip": "93257",
    "county": "TULARE",
    "phone": "(559) 782-1509",
    "lat": 36.073944,
    "lng": -119.042442
  },
  {
    "id": "120001622",
    "name": "SEQUOIA FAMILY MEDICAL CENTER",
    "npi": "1790221703",
    "hcaiId": null,
    "businessName": null,
    "contactEmail": "JOHN.ANGELL@SEQFAM.COM",
    "categoryName": "PRIMARY CARE CLINIC",
    "categoryCode": "RHC/MD",
    "licenseStatus": null,
    "inService": null,
    "licenseNumber": null,
    "licenseEffectiveDate": null,
    "licenseExpirationDate": null,
    "dataDate": "10/18/2025",
    "capacity": 0,
    "address": "590 W PUTNAM AVE",
    "city": "PORTERVILLE",
    "zip": "93257",
    "county": "TULARE",
    "phone": "(559) 781-3700",
    "lat": 36.070074,
    "lng": -119.03004
  },
  {
    "id": "120001474",
    "name": "SEQUOIA TRANSITIONAL CARE",
    "npi": "1174730105",
    "hcaiId": "206541740",
    "businessName": "SUN VILLAIDENCE OPCO, LLC",
    "contactEmail": "CHASE.THREET@SEQUOIATC.COM",
    "categoryName": "SKILLED NURSING FACILITY",
    "categoryCode": "SNF",
    "licenseStatus": "ACTIVE",
    "inService": true,
    "licenseNumber": "120000589",
    "licenseEffectiveDate": "01/01/2025",
    "licenseExpirationDate": "12/31/2025",
    "dataDate": "10/18/2025",
    "capacity": 99,
    "address": "350 N VILLA ST",
    "city": "PORTERVILLE",
    "zip": "93257",
    "county": "TULARE",
    "phone": "(559) 784-6644",
    "lat": 36.072432,
    "lng": -119.0303055
  },
  {
    "id": "630014020",
    "name": "SEVA HOME HEALTH",
    "npi": "1245582642",
    "hcaiId": "406545413",
    "businessName": "SEVA HOME HEALTH",
    "contactEmail": "ADHILLON@SEVACARES.COM",
    "categoryName": "HOME HEALTH AGENCY",
    "categoryCode": "HHA",
    "licenseStatus": "ACTIVE",
    "inService": true,
    "licenseNumber": "550002405",
    "licenseEffectiveDate": "09/19/2025",
    "licenseExpirationDate": "09/18/2026",
    "dataDate": "10/18/2025",
    "capacity": 0,
    "address": "661 N PROSPECT ST",
    "city": "PORTERVILLE",
    "zip": "93257",
    "county": "TULARE",
    "phone": "(559) 432-0707",
    "lat": 36.077832,
    "lng": -119.044332
  },
  {
    "id": "630011155",
    "name": "SIERRA VALLEY DIALYSIS CENTER LLC",
    "npi": "1356826713",
    "hcaiId": "306540435",
    "businessName": "SIERRA VALLEY DIALYSIS CENTER LLC",
    "contactEmail": "ASUNCION.JAVIER@INNOVATIVERENAL.COM",
    "categoryName": "CHRONIC DIALYSIS CLINIC",
    "categoryCode": "ESRD/CDC",
    "licenseStatus": "ACTIVE",
    "inService": true,
    "licenseNumber": "550004608",
    "licenseEffectiveDate": "03/12/2025",
    "licenseExpirationDate": "03/11/2026",
    "dataDate": "10/18/2025",
    "capacity": 32,
    "address": "283 PEARSON DR",
    "city": "PORTERVILLE",
    "zip": "93257",
    "county": "TULARE",
    "phone": "(559) 854-7225",
    "lat": 36.07095112,
    "lng": -119.0276989
  },
  {
    "id": "120001442",
    "name": "SIERRA VALLEY REHAB CENTER",
    "npi": "1376524843",
    "hcaiId": "206540723",
    "businessName": "SIERRA NEVADA SNF, LLC",
    "contactEmail": "ERIC.TOLMAN@PACS.COM",
    "categoryName": "SKILLED NURSING FACILITY",
    "categoryCode": "SNF",
    "licenseStatus": "ACTIVE",
    "inService": true,
    "licenseNumber": "120000579",
    "licenseEffectiveDate": "01/13/2025",
    "licenseExpirationDate": "11/30/2025",
    "dataDate": "10/18/2025",
    "capacity": 139,
    "address": "301 W PUTNAM AVE",
    "city": "PORTERVILLE",
    "zip": "93257",
    "county": "TULARE",
    "phone": "(559) 784-7375",
    "lat": 36.069003,
    "lng": -119.0236095
  },
  {
    "id": "120001464",
    "name": "SIERRA VIEW MEDICAL CENTER",
    "npi": "1073736443",
    "hcaiId": "106540798",
    "businessName": "SIERRA VIEW LOCAL HEALTH CARE DISTRICT",
    "contactEmail": "MCRIPPEN@SIERRA-VIEW.COM",
    "categoryName": "GENERAL ACUTE CARE HOSPITAL",
    "categoryCode": "GACH",
    "licenseStatus": "ACTIVE",
    "inService": true,
    "licenseNumber": "120000584",
    "licenseEffectiveDate": "04/01/2025",
    "licenseExpirationDate": "03/31/2026",
    "dataDate": "10/18/2025",
    "capacity": 132,
    "address": "465 W PUTNAM AVE",
    "city": "PORTERVILLE",
    "zip": "93257",
    "county": "TULARE",
    "phone": "(559) 788-6047",
    "lat": 36.069372,
    "lng": -119.0278035
  },
  {
    "id": "120001466",
    "name": "SIERRA VIEW MEDICAL CENTER",
    "npi": "1154424646",
    "hcaiId": null,
    "businessName": "SIERRA VIEW LOCAL HEALTH CARE DISTRICT",
    "contactEmail": null,
    "categoryName": "SKILLED NURSING FACILITY",
    "categoryCode": "SNF",
    "licenseStatus": "ACTIVE",
    "inService": true,
    "licenseNumber": "120000584",
    "licenseEffectiveDate": "04/01/2025",
    "licenseExpirationDate": "03/31/2026",
    "dataDate": "10/18/2025",
    "capacity": 35,
    "address": "465 W PUTNAM AVE",
    "city": "PORTERVILLE",
    "zip": "93257",
    "county": "TULARE",
    "phone": "(559) 788-6157",
    "lat": 36.069372,
    "lng": -119.0278035
  },
  {
    "id": "120001495",
    "name": "TRANQUILITY HOMES, INC",
    "npi": "1922582568",
    "hcaiId": null,
    "businessName": "TRANQUILITY HOMES, INC.",
    "contactEmail": "TRQHOMES@GMAIL.COM",
    "categoryName": "INTERMEDIATE CARE FACILITY-DD/H/N/CN/IID",
    "categoryCode": "ICFDDN",
    "licenseStatus": "ACTIVE",
    "inService": true,
    "licenseNumber": "120000606",
    "licenseEffectiveDate": "02/01/2025",
    "licenseExpirationDate": "01/31/2026",
    "dataDate": "10/18/2025",
    "capacity": 6,
    "address": "1670 MEMORY LN",
    "city": "PORTERVILLE",
    "zip": "93257",
    "county": "TULARE",
    "phone": "(559) 783-1627",
    "lat": 36.077913,
    "lng": -119.0545155
  },
  {
    "id": "630011560",
    "name": "TULE RIVER INDIAN HEALTH CENTER, INC",
    "npi": null,
    "hcaiId": null,
    "businessName": null,
    "contactEmail": null,
    "categoryName": "PRIMARY CARE CLINIC",
    "categoryCode": "COMTYC",
    "licenseStatus": null,
    "inService": null,
    "licenseNumber": null,
    "licenseEffectiveDate": null,
    "licenseExpirationDate": null,
    "dataDate": "10/18/2025",
    "capacity": 0,
    "address": "380 N RESERVATION RD",
    "city": "PORTERVILLE",
    "zip": "93257",
    "county": "TULARE",
    "phone": null,
    "lat": 36.02995714,
    "lng": -118.7882461
  }
]