[
  {
    "id": "630026791",
    "name": "COMMUNITY HEALTH CENTERS OF AMERICA",
    "npi": null,
    "hcaiId": null,
    "businessName": "COMMUNITY HEALTH CENTERS OF AMERICA",
    "contactEmail": null,
    "categoryName": "PRIMARY CARE CLINIC",
    "categoryCode": "COMTYC",
    "licenseStatus": "ACTIVE",
    "inService": true,
    "licenseNumber": "550005091",
    "licenseEffectiveDate": "11/07/2025",
    "licenseExpirationDate": "11/06/2026",
    "dataDate": "10/18/2025",
    "capacity": 0,
    "address": "733 3RD ST",
    "city": "MC FARLAND",
    "zip": "93250",
    "county": "KERN",
    "phone": null,
    "lat": 35.682561,
    "lng": -119.231208
  },
  {
    "id": "630024792",
    "name": "ELMO PEDIATRICS & FAMILY WALK-IN CLINIC",
    "npi": null,
    "hcaiId": null,
    "businessName": null,
    "contactEmail": null,
    "categoryName": "PRIMARY CARE CLINIC",
    "categoryCode": "RHC",
    "licenseStatus": null,
    "inService": null,
    "licenseNumber": null,
    "licenseEffectiveDate": null,
    "licenseExpirationDate": null,
    "dataDate": "10/18/2025",
    "capacity": 0,
    "address": "221 ELMO HWY, SUITE 100",
    "city": "MC FARLAND",
    "zip": "93250",
    "county": "KERN",
    "phone": "(661) 720-1883",
    "lat": 35.68878976,
    "lng": -119.23219
  },
  {
    "id": "120000534",
    "name": "MCFARLAND COMMUNITY HEALTH CENTER",
    "npi": "1972627727",
    "hcaiId": "306154020",
    "businessName": "CLINICA SIERRA VISTA",
    "contactEmail": null,
    "categoryName": "PRIMARY CARE CLINIC",
    "categoryCode": "COMTYC",
    "licenseStatus": "ACTIVE",
    "inService": true,
    "licenseNumber": "550007482",
    "licenseEffectiveDate": "10/22/2025",
    "licenseExpirationDate": "12/21/2025",
    "dataDate": "10/18/2025",
    "capacity": 0,
    "address": "217 W KERN AVE",
    "city": "MCFARLAND",
    "zip": "93250",
    "county": "KERN",
    "phone": "(661) 635-3050",
    "lat": 35.6778018,
    "lng": -119.2297451
  },
  {
    "id": "630027761",
    "name": "PERIDOT HEALTH MEDICAL CLINIC",
    "npi": null,
    "hcaiId": null,
    "businessName": null,
    "contactEmail": "NOVIRA71@GMAIL.COM",
    "categoryName": "PRIMARY CARE CLINIC",
    "categoryCode": "RHC",
    "licenseStatus": null,
    "inService": null,
    "licenseNumber": null,
    "licenseEffectiveDate": null,
    "licenseExpirationDate": null,
    "dataDate": "10/18/2025",
    "capacity": 0,
    "address": "221 ELMO HWY, SUITE 300",
    "city": "MCFARLAND",
    "zip": "93250",
    "county": "KERN",
    "phone": "(661) 599-5310",
    "lat": 35.68875064,
    "lng": -119.2337986
  },
  {
    "id": "120000559",
    "name": "POSITIVE DIRECTIONS #6",
    "npi": "1558584102",
    "hcaiId": null,
    "businessName": "POSITIVE DIRECTIONS, INC.",
    "contactEmail": "TRISHFLORES16@GMAIL.COM",
    "categoryName": "INTERMEDIATE CARE FACILITY-DD/H/N/CN/IID",
    "categoryCode": "ICFDDH",
    "licenseStatus": "ACTIVE",
    "inService": true,
    "licenseNumber": "120000249",
    "licenseEffectiveDate": "12/30/2024",
    "licenseExpirationDate": "12/29/2025",
    "dataDate": "10/18/2025",
    "capacity": 6,
    "address": "816 3RD ST",
    "city": "MC FARLAND",
    "zip": "93250",
    "county": "KERN",
    "phone": "(661) 721-3525",
    "lat": 35.684127,
    "lng": -119.230659
  },
  {
    "id": "120000662",
    "name": "POSITIVE DIRECTIONS, INC. #4",
    "npi": "1255454633",
    "hcaiId": null,
    "businessName": "POSITIVE DIRECTIONS, INC.",
    "contactEmail": "TLAGUE777@GMAIL.COM",
    "categoryName": "INTERMEDIATE CARE FACILITY-DD/H/N/CN/IID",
    "categoryCode": "ICFDDH",
    "licenseStatus": "ACTIVE",
    "inService": true,
    "licenseNumber": "120000310",
    "licenseEffectiveDate": "11/07/2025",
    "licenseExpirationDate": "11/06/2026",
    "dataDate": "10/18/2025",
    "capacity": 6,
    "address": "1031 KALA LOOP",
    "city": "MC FARLAND",
    "zip": "93250",
    "county": "KERN",
    "phone": "(661) 458-7147",
    "lat": 35.688294,
    "lng": -119.2329315
  }
]