[
  {
    "id": "630013633",
    "name": "ADVENTIST HEALTH PHYSICIANS NETWORK",
    "npi": "1164696449",
    "hcaiId": null,
    "businessName": null,
    "contactEmail": "BORGESLM@AH.ORG",
    "categoryName": "PRIMARY CARE CLINIC",
    "categoryCode": "RHC/MD",
    "licenseStatus": null,
    "inService": null,
    "licenseNumber": null,
    "licenseEffectiveDate": null,
    "licenseExpirationDate": null,
    "dataDate": "10/18/2025",
    "capacity": 0,
    "address": "1150 E LERDO HWY, SUITE C",
    "city": "SHAFTER",
    "zip": "93263",
    "county": "KERN",
    "phone": "(661) 630-5890",
    "lat": 35.49998427,
    "lng": -119.2614574
  },
  {
    "id": "630016862",
    "name": "ADVENTIST HEALTH REEDLEY",
    "npi": "1689037533",
    "hcaiId": null,
    "businessName": "REEDLEY COMMUNITY HOSPITAL",
    "contactEmail": null,
    "categoryName": "PRIMARY CARE CLINIC",
    "categoryCode": "RHC/OP",
    "licenseStatus": "ACTIVE",
    "inService": true,
    "licenseNumber": "040000149",
    "licenseEffectiveDate": "11/09/2024",
    "licenseExpirationDate": "11/08/2025",
    "dataDate": "10/18/2025",
    "capacity": 0,
    "address": "406 JAMES STREET",
    "city": "SHAFTER",
    "zip": "93263",
    "county": "KERN",
    "phone": null,
    "lat": 35.502732,
    "lng": -119.2761405
  },
  {
    "id": "120000572",
    "name": "KERN COUNTY HEALTH DEPARTMENT - SHAFTER CLINIC",
    "npi": null,
    "hcaiId": null,
    "businessName": null,
    "contactEmail": null,
    "categoryName": "OTHER",
    "categoryCode": "UNLICEN",
    "licenseStatus": null,
    "inService": null,
    "licenseNumber": null,
    "licenseEffectiveDate": null,
    "licenseExpirationDate": null,
    "dataDate": "10/18/2025",
    "capacity": 0,
    "address": "329 CENTRAL VALLEY HWY",
    "city": "SHAFTER",
    "zip": "93263",
    "county": "KERN",
    "phone": "(661) 746-6325",
    "lat": 35.503704,
    "lng": -119.2763115
  },
  {
    "id": "120001418",
    "name": "OMNI FAMILY HEALTH",
    "npi": "1363463085",
    "hcaiId": "306154114",
    "businessName": "OMNI FAMILY HEALTH",
    "contactEmail": "LICENSING@OMNIFAMILYHEALTH.ORG",
    "categoryName": "PRIMARY CARE CLINIC",
    "categoryCode": "COMTYC",
    "licenseStatus": "ACTIVE",
    "inService": true,
    "licenseNumber": "120000652",
    "licenseEffectiveDate": "11/28/2025",
    "licenseExpirationDate": "11/27/2026",
    "dataDate": "10/18/2025",
    "capacity": 0,
    "address": "655 S CENTRAL VALLEY HWY",
    "city": "SHAFTER",
    "zip": "93263",
    "county": "KERN",
    "phone": "(661) 630-7063",
    "lat": 35.49465,
    "lng": -119.265138
  },
  {
    "id": "630016530",
    "name": "OMNI FAMILY HEALTH",
    "npi": "1861867590",
    "hcaiId": "306154203",
    "businessName": "OMNI FAMILY HEALTH",
    "contactEmail": "LICENSING@OMNIFAMILYHEALTH.ORG",
    "categoryName": "PRIMARY CARE CLINIC",
    "categoryCode": "COMTYC",
    "licenseStatus": "ACTIVE",
    "inService": true,
    "licenseNumber": "550003490",
    "licenseEffectiveDate": "05/05/2025",
    "licenseExpirationDate": "05/04/2026",
    "dataDate": "10/18/2025",
    "capacity": 0,
    "address": "659 CENTRAL VALLEY HIGHWAY",
    "city": "SHAFTER",
    "zip": "93263",
    "county": "KERN",
    "phone": "(661) 630-7063",
    "lat": 35.50161839,
    "lng": -119.2730217
  },
  {
    "id": "120000375",
    "name": "SHAFTER NURSING CARE",
    "npi": "1427688639",
    "hcaiId": "206150795",
    "businessName": "SHAFTER NURSING REHAB LLC",
    "contactEmail": "ADMIN@SHAFTERNURSING.COM",
    "categoryName": "SKILLED NURSING FACILITY",
    "categoryCode": "SNF",
    "licenseStatus": "ACTIVE",
    "inService": true,
    "licenseNumber": "120000168",
    "licenseEffectiveDate": "11/01/2025",
    "licenseExpirationDate": "10/31/2026",
    "dataDate": "10/18/2025",
    "capacity": 99,
    "address": "140 E TULARE AVE",
    "city": "SHAFTER",
    "zip": "93263",
    "county": "KERN",
    "phone": "(661) 746-3912",
    "lat": 35.507583,
    "lng": -119.2766895
  },
  {
    "id": "630017074",
    "name": "SHAFTER PEDIATRICS",
    "npi": "1811362908",
    "hcaiId": null,
    "businessName": null,
    "contactEmail": "AYOSIKE@YAHOO.COM",
    "categoryName": "PRIMARY CARE CLINIC",
    "categoryCode": "RHC",
    "licenseStatus": null,
    "inService": null,
    "licenseNumber": null,
    "licenseEffectiveDate": null,
    "licenseExpirationDate": null,
    "dataDate": "10/18/2025",
    "capacity": 0,
    "address": "501 MUNZER ST., SUITE C",
    "city": "SAFTER",
    "zip": "93263",
    "county": "KERN",
    "phone": "(661) 630-5279",
    "lat": 35.50091373,
    "lng": -119.2767298
  },
  {
    "id": "630018420",
    "name": "SHAFTER URGENT CARE",
    "npi": null,
    "hcaiId": null,
    "businessName": null,
    "contactEmail": "NOVIRA71@GMAIL.COM",
    "categoryName": "PRIMARY CARE CLINIC",
    "categoryCode": "RHC",
    "licenseStatus": null,
    "inService": null,
    "licenseNumber": null,
    "licenseEffectiveDate": null,
    "licenseExpirationDate": null,
    "dataDate": "10/18/2025",
    "capacity": 0,
    "address": "501 MUNZER ST, SUITE A",
    "city": "SHAFTER",
    "zip": "93263",
    "county": "KERN",
    "phone": "(661) 429-2739",
    "lat": 35.50091373,
    "lng": -119.2767298
  },
  {
    "id": "120000882",
    "name": "VANGUARD MEDICAL CORPORATION",
    "npi": "1609281310",
    "hcaiId": null,
    "businessName": null,
    "contactEmail": "NOVIRA@HCGRCM.COM",
    "categoryName": "PRIMARY CARE CLINIC",
    "categoryCode": "RHC/MD",
    "licenseStatus": null,
    "inService": null,
    "licenseNumber": null,
    "licenseEffectiveDate": null,
    "licenseExpirationDate": null,
    "dataDate": "10/18/2025",
    "capacity": 0,
    "address": "565 KERN ST",
    "city": "SHAFTER",
    "zip": "93263",
    "county": "KERN",
    "phone": "(661) 746-4937",
    "lat": 35.503938,
    "lng": -119.271771
  }
]