[
  {
    "id": "630014041",
    "name": "ADVENTIST HEALTH REEDLEY",
    "npi": "1528324167",
    "hcaiId": null,
    "businessName": "REEDLEY COMMUNITY HOSPITAL",
    "contactEmail": "BORGESLM@AH.ORG",
    "categoryName": "PRIMARY CARE CLINIC",
    "categoryCode": "RHC/OP",
    "licenseStatus": "ACTIVE",
    "inService": true,
    "licenseNumber": "040000149",
    "licenseEffectiveDate": "11/09/2024",
    "licenseExpirationDate": "11/08/2025",
    "dataDate": "10/18/2025",
    "capacity": 0,
    "address": "501 6TH ST",
    "city": "TAFT",
    "zip": "93268",
    "county": "KERN",
    "phone": "(661) 763-5131",
    "lat": 35.144433,
    "lng": -119.45925
  },
  {
    "id": "120000687",
    "name": "OMNI FAMILY HEALTH",
    "npi": "1699780536",
    "hcaiId": "306154042",
    "businessName": "OMNI FAMILY HEALTH",
    "contactEmail": "LICENSING@OMNIFAMILYHEALTH.ORG",
    "categoryName": "PRIMARY CARE CLINIC",
    "categoryCode": "COMTYC",
    "licenseStatus": "ACTIVE",
    "inService": true,
    "licenseNumber": "120000303",
    "licenseEffectiveDate": "11/25/2025",
    "licenseExpirationDate": "11/24/2026",
    "dataDate": "10/18/2025",
    "capacity": 0,
    "address": "1100 4TH ST",
    "city": "TAFT",
    "zip": "93268",
    "county": "KERN",
    "phone": "(661) 630-1063",
    "lat": 35.148897,
    "lng": -119.452761
  },
  {
    "id": "630016796",
    "name": "WEST SIDE FAMILY HEALTH CARE",
    "npi": "1992142277",
    "hcaiId": null,
    "businessName": null,
    "contactEmail": "WSHCD@BAK.RR.COM",
    "categoryName": "PRIMARY CARE CLINIC",
    "categoryCode": "RHC",
    "licenseStatus": null,
    "inService": null,
    "licenseNumber": null,
    "licenseEffectiveDate": null,
    "licenseExpirationDate": null,
    "dataDate": "10/18/2025",
    "capacity": 0,
    "address": "100 E. NORTH STREET",
    "city": "TAFT",
    "zip": "93268",
    "county": "KERN",
    "phone": "(661) 765-1935",
    "lat": 35.13968513,
    "lng": -119.4518264
  }
]