[
  {
    "id": "630020737",
    "name": "ADVENTIST HEALTH REEDLEY",
    "npi": null,
    "hcaiId": null,
    "businessName": "REEDLEY COMMUNITY HOSPITAL",
    "contactEmail": null,
    "categoryName": "PRIMARY CARE CLINIC",
    "categoryCode": "RHC/OP",
    "licenseStatus": "ACTIVE",
    "inService": true,
    "licenseNumber": "040000149",
    "licenseEffectiveDate": "11/09/2024",
    "licenseExpirationDate": "11/08/2025",
    "dataDate": "10/18/2025",
    "capacity": 0,
    "address": "2059 HILLMAN ST",
    "city": "TULARE",
    "zip": "93274",
    "county": "TULARE",
    "phone": null,
    "lat": 36.23360711,
    "lng": -119.3310945
  },
  {
    "id": "120001467",
    "name": "ADVENTIST HEALTH TULARE",
    "npi": "1801366711",
    "hcaiId": "106540816",
    "businessName": "ADVENTIST HEALTH TULARE",
    "contactEmail": "SMITHIW@AH.ORG",
    "categoryName": "GENERAL ACUTE CARE HOSPITAL",
    "categoryCode": "GACH",
    "licenseStatus": "ACTIVE",
    "inService": true,
    "licenseNumber": "120000585",
    "licenseEffectiveDate": "04/01/2025",
    "licenseExpirationDate": "03/31/2026",
    "dataDate": "10/18/2025",
    "capacity": 108,
    "address": "869 N CHERRY ST",
    "city": "TULARE",
    "zip": "93274",
    "county": "TULARE",
    "phone": "(559) 537-2029",
    "lat": 36.221121,
    "lng": -119.33865
  },
  {
    "id": "120001551",
    "name": "ALTURA CENTERS FOR HEALTH",
    "npi": "1023011632",
    "hcaiId": "306544050",
    "businessName": "ALTURA CENTERS FOR HEALTH",
    "contactEmail": "GSOTO@ALTURA.ORG",
    "categoryName": "PRIMARY CARE CLINIC",
    "categoryCode": "COMTYC",
    "licenseStatus": "ACTIVE",
    "inService": true,
    "licenseNumber": "120000639",
    "licenseEffectiveDate": "11/01/2025",
    "licenseExpirationDate": "10/31/2026",
    "dataDate": "10/18/2025",
    "capacity": 0,
    "address": "1101 N CHERRY ST",
    "city": "TULARE",
    "zip": "93274",
    "county": "TULARE",
    "phone": "(559) 685-4601",
    "lat": 36.22346882,
    "lng": -119.3375471
  },
  {
    "id": "630011445",
    "name": "ALTURA CENTERS FOR HEALTH",
    "npi": "1346486511",
    "hcaiId": "306544080",
    "businessName": "ALTURA CENTERS FOR HEALTH",
    "contactEmail": "GSOTO@ALTURA.ORG",
    "categoryName": "PRIMARY CARE CLINIC",
    "categoryCode": "COMTYC",
    "licenseStatus": "ACTIVE",
    "inService": true,
    "licenseNumber": "550000759",
    "licenseEffectiveDate": "12/06/2024",
    "licenseExpirationDate": "12/05/2025",
    "dataDate": "10/18/2025",
    "capacity": 0,
    "address": "737 W BARDSLEY AVE",
    "city": "TULARE",
    "zip": "93274",
    "county": "TULARE",
    "phone": "(559) 685-4601",
    "lat": 36.19638116,
    "lng": -119.357535
  },
  {
    "id": "630012974",
    "name": "ALTURA CENTERS FOR HEALTH",
    "npi": "1942506605",
    "hcaiId": "306544084",
    "businessName": "ALTURA CENTERS FOR HEALTH",
    "contactEmail": "GSOTO@ALTURA.ORG",
    "categoryName": "PRIMARY CARE CLINIC",
    "categoryCode": "COMTYC",
    "licenseStatus": "ACTIVE",
    "inService": true,
    "licenseNumber": "550001577",
    "licenseEffectiveDate": "02/15/2025",
    "licenseExpirationDate": "02/14/2026",
    "dataDate": "10/18/2025",
    "capacity": 0,
    "address": "1203 N CHERRY ST",
    "city": "TULARE",
    "zip": "93274",
    "county": "TULARE",
    "phone": "(559) 686-9097",
    "lat": 36.224856,
    "lng": -119.337102
  },
  {
    "id": "630014494",
    "name": "ALTURA CENTERS FOR HEALTH",
    "npi": "1689011637",
    "hcaiId": "306544092",
    "businessName": "ALTURA CENTERS FOR HEALTH",
    "contactEmail": "GSOTO@ALTURA.ORG",
    "categoryName": "PRIMARY CARE CLINIC",
    "categoryCode": "COMTYC",
    "licenseStatus": "ACTIVE",
    "inService": true,
    "licenseNumber": "550002408",
    "licenseEffectiveDate": "09/17/2025",
    "licenseExpirationDate": "09/16/2026",
    "dataDate": "10/18/2025",
    "capacity": 0,
    "address": "3035 E BARDSLEY AVE",
    "city": "TULARE",
    "zip": "93274",
    "county": "TULARE",
    "phone": "(559) 686-9097",
    "lat": 36.19644902,
    "lng": -119.3031579
  },
  {
    "id": "630015142",
    "name": "ALTURA CENTERS FOR HEALTH",
    "npi": "1790105559",
    "hcaiId": "306544097",
    "businessName": "ALTURA CENTERS FOR HEALTH",
    "contactEmail": "GSOTO@ALTURA.ORG",
    "categoryName": "PRIMARY CARE CLINIC",
    "categoryCode": "COMTYC",
    "licenseStatus": "ACTIVE",
    "inService": true,
    "licenseNumber": "550002789",
    "licenseEffectiveDate": "07/29/2025",
    "licenseExpirationDate": "07/28/2026",
    "dataDate": "10/18/2025",
    "capacity": 0,
    "address": "600 N CHERRY ST",
    "city": "TULARE",
    "zip": "93274",
    "county": "TULARE",
    "phone": "(559) 686-9097",
    "lat": 36.21678544,
    "lng": -119.3376091
  },
  {
    "id": "630016529",
    "name": "ALTURA CENTERS FOR HEALTH",
    "npi": "1568827210",
    "hcaiId": "306544103",
    "businessName": "ALTURA CENTERS FOR HEALTH",
    "contactEmail": "GSOTO@ALTURA.ORG",
    "categoryName": "PRIMARY CARE CLINIC",
    "categoryCode": "COMTYC",
    "licenseStatus": "ACTIVE",
    "inService": true,
    "licenseNumber": "550003518",
    "licenseEffectiveDate": "05/19/2025",
    "licenseExpirationDate": "05/18/2026",
    "dataDate": "10/18/2025",
    "capacity": 0,
    "address": "1500 W. TULARE DRIVE",
    "city": "TULARE",
    "zip": "93274",
    "county": "TULARE",
    "phone": "(559) 686-9097",
    "lat": 36.20651096,
    "lng": -119.3691282
  },
  {
    "id": "630027747",
    "name": "ALTURA CENTERS FOR HEALTH",
    "npi": null,
    "hcaiId": null,
    "businessName": "ALTURA CENTERS FOR HEALTH",
    "contactEmail": "GSOTO@ALTURA.ORG",
    "categoryName": "PRIMARY CARE CLINIC",
    "categoryCode": "FQHC/COMTYC",
    "licenseStatus": "ACTIVE",
    "inService": true,
    "licenseNumber": "550009389",
    "licenseEffectiveDate": "09/11/2025",
    "licenseExpirationDate": "09/10/2026",
    "dataDate": "10/18/2025",
    "capacity": 0,
    "address": "1134 E CARTMILL AVE",
    "city": "TULARE",
    "zip": "93274",
    "county": "TULARE",
    "phone": "(559) 685-4601",
    "lat": 36.24048589,
    "lng": -119.3288824
  },
  {
    "id": "630026612",
    "name": "ALTURA CENTERS FOR HEALTH DENTAL MOBILE CLINIC 1",
    "npi": "1023011632",
    "hcaiId": null,
    "businessName": "ALTURA CENTERS FOR HEALTH",
    "contactEmail": "GSOTO@ALTURA.ORG",
    "categoryName": "PRIMARY CARE CLINIC",
    "categoryCode": "COMTYC",
    "licenseStatus": "ACTIVE",
    "inService": true,
    "licenseNumber": "120000639",
    "licenseEffectiveDate": "11/01/2025",
    "licenseExpirationDate": "10/31/2026",
    "dataDate": "10/18/2025",
    "capacity": 0,
    "address": "1101 N CHERRY ST",
    "city": "TULARE",
    "zip": "93274",
    "county": "TULARE",
    "phone": "(559) 471-8058",
    "lat": 36.22346882,
    "lng": -119.3375471
  },
  {
    "id": "630018735",
    "name": "ARIA COMMUNITY HEALTH CENTER",
    "npi": null,
    "hcaiId": null,
    "businessName": "AVENAL COMMUNITY HEALTH CENTER",
    "contactEmail": null,
    "categoryName": "PRIMARY CARE CLINIC",
    "categoryCode": "COMTYC",
    "licenseStatus": "ACTIVE",
    "inService": true,
    "licenseNumber": "550002822",
    "licenseEffectiveDate": "09/17/2025",
    "licenseExpirationDate": "09/16/2026",
    "dataDate": "10/18/2025",
    "capacity": 0,
    "address": "858 N CHERRY ST, SUITE E",
    "city": "TULARE",
    "zip": "93274",
    "county": "TULARE",
    "phone": null,
    "lat": 36.220158,
    "lng": -119.337219
  },
  {
    "id": "630019552",
    "name": "ARIA COMMUNITY HEALTH CENTER",
    "npi": null,
    "hcaiId": null,
    "businessName": "AVENAL COMMUNITY HEALTH CENTER",
    "contactEmail": null,
    "categoryName": "PRIMARY CARE CLINIC",
    "categoryCode": "COMTYC",
    "licenseStatus": "ACTIVE",
    "inService": true,
    "licenseNumber": "550002822",
    "licenseEffectiveDate": "09/17/2025",
    "licenseExpirationDate": "09/16/2026",
    "dataDate": "10/18/2025",
    "capacity": 0,
    "address": "858 N CHERRY ST, SUITE F",
    "city": "TULARE",
    "zip": "93274",
    "county": "TULARE",
    "phone": null,
    "lat": 36.220158,
    "lng": -119.337219
  },
  {
    "id": "630016214",
    "name": "FAMILY HEALTHCARE NETWORK",
    "npi": "1073997201",
    "hcaiId": "306544101",
    "businessName": "FAMILY HEALTHCARE NETWORK",
    "contactEmail": "RISKMANAGEMENT@FHCN.ORG",
    "categoryName": "PRIMARY CARE CLINIC",
    "categoryCode": "COMTYC",
    "licenseStatus": "ACTIVE",
    "inService": true,
    "licenseNumber": "550003246",
    "licenseEffectiveDate": "09/17/2025",
    "licenseExpirationDate": "09/16/2026",
    "dataDate": "10/18/2025",
    "capacity": 0,
    "address": "263 S. WEST STREET,",
    "city": "TULARE",
    "zip": "93274",
    "county": "TULARE",
    "phone": "(559) 737-4294",
    "lat": 36.20460695,
    "lng": -119.366879
  },
  {
    "id": "630016879",
    "name": "FAMILY HEALTHCARE NETWORK",
    "npi": "1043664766",
    "hcaiId": "306544104",
    "businessName": "FAMILY HEALTHCARE NETWORK",
    "contactEmail": "PESTRADA@FHCN.ORG",
    "categoryName": "PRIMARY CARE CLINIC",
    "categoryCode": "COMTYC",
    "licenseStatus": "ACTIVE",
    "inService": true,
    "licenseNumber": "550003761",
    "licenseEffectiveDate": "01/09/2025",
    "licenseExpirationDate": "01/08/2026",
    "dataDate": "10/18/2025",
    "capacity": 0,
    "address": "1008 N. CHERRY STREET",
    "city": "TULARE",
    "zip": "93274",
    "county": "TULARE",
    "phone": "(559) 737-1247",
    "lat": 36.222174,
    "lng": -119.337165
  },
  {
    "id": "630020316",
    "name": "FAMILY HEALTHCARE NETWORK",
    "npi": null,
    "hcaiId": null,
    "businessName": "FAMILY HEALTHCARE NETWORK",
    "contactEmail": null,
    "categoryName": "PRIMARY CARE CLINIC",
    "categoryCode": "COMTYC",
    "licenseStatus": "ACTIVE",
    "inService": true,
    "licenseNumber": "120000643",
    "licenseEffectiveDate": "11/30/2024",
    "licenseExpirationDate": "11/29/2025",
    "dataDate": "10/18/2025",
    "capacity": 0,
    "address": "1062 S K ST",
    "city": "TULARE",
    "zip": "93274",
    "county": "TULARE",
    "phone": "(559) 737-4714",
    "lat": 36.195471,
    "lng": -119.342511
  },
  {
    "id": "630012057",
    "name": "GRAND OAKS CARE",
    "npi": "1477250165",
    "hcaiId": "206544081",
    "businessName": "GRAND OAKS CARE, LLC",
    "contactEmail": "ADMINISTRATOR@GRANDOAKSCARECENTER.ORG",
    "categoryName": "SKILLED NURSING FACILITY",
    "categoryCode": "SNF",
    "licenseStatus": "ACTIVE",
    "inService": true,
    "licenseNumber": "550001081",
    "licenseEffectiveDate": "11/27/2024",
    "licenseExpirationDate": "11/26/2025",
    "dataDate": "10/18/2025",
    "capacity": 99,
    "address": "897 N M ST",
    "city": "TULARE",
    "zip": "93274",
    "county": "TULARE",
    "phone": "(559) 687-1340",
    "lat": 36.220932,
    "lng": -119.345355
  },
  {
    "id": "630013271",
    "name": "HAPY BEAR SURGERY CENTER, LLC",
    "npi": "1609250299",
    "hcaiId": "306544086",
    "businessName": "HAPY BEAR SURGERY CENTER, LLC",
    "contactEmail": "INFO@HAPYBEAR.COM",
    "categoryName": "SURGICAL CLINIC",
    "categoryCode": "ASC/SURGC",
    "licenseStatus": "ACTIVE",
    "inService": true,
    "licenseNumber": "550001657",
    "licenseEffectiveDate": "02/15/2025",
    "licenseExpirationDate": "02/14/2026",
    "dataDate": "10/18/2025",
    "capacity": 0,
    "address": "1979 HILLMAN ST",
    "city": "TULARE",
    "zip": "93274",
    "county": "TULARE",
    "phone": "(559) 732-4279",
    "lat": 36.234189,
    "lng": -119.332368
  },
  {
    "id": "120001547",
    "name": "JAN & GAIL'S CARE HOME #1",
    "npi": "1124178983",
    "hcaiId": null,
    "businessName": "JAN & GAIL'S CARE HOMES, INC.",
    "contactEmail": "GSOLORIO777@GMAIL.COM",
    "categoryName": "INTERMEDIATE CARE FACILITY-DD/H/N/CN/IID",
    "categoryCode": "ICFDDN",
    "licenseStatus": "ACTIVE",
    "inService": true,
    "licenseNumber": "120000637",
    "licenseEffectiveDate": "03/29/2025",
    "licenseExpirationDate": "03/28/2026",
    "dataDate": "10/18/2025",
    "capacity": 6,
    "address": "134 N SANTA CLARA ST",
    "city": "TULARE",
    "zip": "93274",
    "county": "TULARE",
    "phone": "(559) 686-3090",
    "lat": 36.207063,
    "lng": -119.3637195
  },
  {
    "id": "120001555",
    "name": "JAN & GAIL'S CARE HOME #2",
    "npi": "1730216508",
    "hcaiId": null,
    "businessName": "JAN & GAIL'S CARE HOMES, INC.",
    "contactEmail": "GSOLORIO777@GMAIL.COM",
    "categoryName": "INTERMEDIATE CARE FACILITY-DD/H/N/CN/IID",
    "categoryCode": "ICFDDN",
    "licenseStatus": "ACTIVE",
    "inService": true,
    "licenseNumber": "120000642",
    "licenseEffectiveDate": "03/29/2025",
    "licenseExpirationDate": "03/28/2026",
    "dataDate": "10/18/2025",
    "capacity": 6,
    "address": "2005 ATLANTIC AVE",
    "city": "TULARE",
    "zip": "93274",
    "county": "TULARE",
    "phone": "(559) 684-1719",
    "lat": 36.20286,
    "lng": -119.3159115
  },
  {
    "id": "120001645",
    "name": "JAN & GAIL'S CARE HOME #5",
    "npi": "1336276054",
    "hcaiId": null,
    "businessName": "JAN & GAIL'S CARE HOMES, INC.",
    "contactEmail": "GSOLORIO777@GMAIL.COM",
    "categoryName": "INTERMEDIATE CARE FACILITY-DD/H/N/CN/IID",
    "categoryCode": "ICFDDN",
    "licenseStatus": "ACTIVE",
    "inService": true,
    "licenseNumber": "120000653",
    "licenseEffectiveDate": "11/17/2025",
    "licenseExpirationDate": "11/16/2026",
    "dataDate": "10/18/2025",
    "capacity": 6,
    "address": "1727 N OAKS ST",
    "city": "TULARE",
    "zip": "93274",
    "county": "TULARE",
    "phone": "(559) 686-3538",
    "lat": 36.2295,
    "lng": -119.34927
  },
  {
    "id": "120001566",
    "name": "JAN & GAIL'S CARE HOME 4",
    "npi": "1225165053",
    "hcaiId": null,
    "businessName": "JAN & GAIL'S CARE HOMES, INC.",
    "contactEmail": "GSOLORIO777@GMAIL.COM",
    "categoryName": "INTERMEDIATE CARE FACILITY-DD/H/N/CN/IID",
    "categoryCode": "ICFDDN",
    "licenseStatus": "ACTIVE",
    "inService": true,
    "licenseNumber": "120000650",
    "licenseEffectiveDate": "06/26/2025",
    "licenseExpirationDate": "06/25/2026",
    "dataDate": "10/18/2025",
    "capacity": 6,
    "address": "605 S ARONIAN ST",
    "city": "TULARE",
    "zip": "93274",
    "county": "TULARE",
    "phone": "(559) 685-1988",
    "lat": 36.203724,
    "lng": -119.3178465
  },
  {
    "id": "630022067",
    "name": "KAWEAH HEALTH TULARE CLINIC",
    "npi": null,
    "hcaiId": null,
    "businessName": "KAWEAH DELTA HEALTH CARE DISTRICT",
    "contactEmail": "JESSIROD@KDHCD.ORG",
    "categoryName": "PRIMARY CARE CLINIC",
    "categoryCode": "RHC/OP",
    "licenseStatus": "ACTIVE",
    "inService": true,
    "licenseNumber": "120000580",
    "licenseEffectiveDate": "11/01/2025",
    "licenseExpirationDate": "10/31/2026",
    "dataDate": "10/18/2025",
    "capacity": 0,
    "address": "1000 N MOONEY BLVD",
    "city": "TULARE",
    "zip": "93274",
    "county": "TULARE",
    "phone": "(559) 624-2839",
    "lat": 36.22486585,
    "lng": -119.3128427
  },
  {
    "id": "120001462",
    "name": "ORCHARDS AT TULARE",
    "npi": "1316011851",
    "hcaiId": "206540762",
    "businessName": "ORCHARDS AT TULARE, LLC",
    "contactEmail": "ADMINISTRATOR@ORCHARDSATTULARE.ORG",
    "categoryName": "SKILLED NURSING FACILITY",
    "categoryCode": "SNF",
    "licenseStatus": "ACTIVE",
    "inService": true,
    "licenseNumber": "120000583",
    "licenseEffectiveDate": "11/01/2025",
    "licenseExpirationDate": "10/31/2026",
    "dataDate": "10/18/2025",
    "capacity": 99,
    "address": "604 E MERRITT AVE",
    "city": "TULARE",
    "zip": "93274",
    "county": "TULARE",
    "phone": "(559) 686-1601",
    "lat": 36.222381,
    "lng": -119.33919
  },
  {
    "id": "630003241",
    "name": "STEELE'S VISIONS - HATCH",
    "npi": "1689861718",
    "hcaiId": null,
    "businessName": "STEELE'S VISIONS INC.",
    "contactEmail": "JANASTEELE77@GMAIL.COM",
    "categoryName": "INTERMEDIATE CARE FACILITY-DD/H/N/CN/IID",
    "categoryCode": "ICFDDH",
    "licenseStatus": "ACTIVE",
    "inService": true,
    "licenseNumber": "550000278",
    "licenseEffectiveDate": "11/06/2025",
    "licenseExpirationDate": "11/05/2026",
    "dataDate": "10/18/2025",
    "capacity": 6,
    "address": "1875 HATCH AVE",
    "city": "TULARE",
    "zip": "93274",
    "county": "TULARE",
    "phone": "(559) 920-8552",
    "lat": 36.222084,
    "lng": -119.3734845
  },
  {
    "id": "240001794",
    "name": "TULARE DIALYSIS",
    "npi": "1104891068",
    "hcaiId": "306544002",
    "businessName": "DVA RENAL HEALTHCARE, INC.",
    "contactEmail": "CAL_C@DAVITA.COM",
    "categoryName": "CHRONIC DIALYSIS CLINIC",
    "categoryCode": "ESRD/CDC",
    "licenseStatus": "ACTIVE",
    "inService": true,
    "licenseNumber": "240000788",
    "licenseEffectiveDate": "11/01/2025",
    "licenseExpirationDate": "10/31/2026",
    "dataDate": "10/18/2025",
    "capacity": 16,
    "address": "545 E TULARE AVE",
    "city": "TULARE",
    "zip": "93274",
    "county": "TULARE",
    "phone": "(559) 688-8991",
    "lat": 36.208422,
    "lng": -119.341098
  },
  {
    "id": "120001408",
    "name": "TULARE HEALTHCARE & WELLNESS CENTER, LP",
    "npi": "1780282418",
    "hcaiId": "206540809",
    "businessName": "TULARE HEALTHCARE & WELLNESS CENTER LP",
    "contactEmail": "ADMINISTRATOR@TULARENURSINGREHAB.COM",
    "categoryName": "SKILLED NURSING FACILITY",
    "categoryCode": "SNF",
    "licenseStatus": "ACTIVE",
    "inService": true,
    "licenseNumber": "120000561",
    "licenseEffectiveDate": "01/01/2025",
    "licenseExpirationDate": "12/31/2025",
    "dataDate": "10/18/2025",
    "capacity": 97,
    "address": "680 E MERRITT AVE",
    "city": "TULARE",
    "zip": "93274",
    "county": "TULARE",
    "phone": null,
    "lat": 36.222516,
    "lng": -119.3381235
  }
]