[
  {
    "id": "630021560",
    "name": "ARA KAWEAH DIALYSIS CENTER",
    "npi": null,
    "hcaiId": "306540615",
    "businessName": "VISALIA KIDNEY CENTER LLC",
    "contactEmail": "TERESA.SHAW@INNOVATIVERENAL.COM",
    "categoryName": "CHRONIC DIALYSIS CLINIC",
    "categoryCode": "ESRD/CDC",
    "licenseStatus": "ACTIVE",
    "inService": true,
    "licenseNumber": "550006398",
    "licenseEffectiveDate": "06/17/2025",
    "licenseExpirationDate": "06/16/2026",
    "dataDate": "10/18/2025",
    "capacity": 21,
    "address": "3446 S MOONEY BLVD",
    "city": "VISALIA",
    "zip": "93277",
    "county": "TULARE",
    "phone": "(559) 741-9263",
    "lat": 36.29947203,
    "lng": -119.3135393
  },
  {
    "id": "630013690",
    "name": "BARNES DENTAL SURGERY CENTER, INC.",
    "npi": "1124333497",
    "hcaiId": "306544088",
    "businessName": "BARNES DENTAL CORPORATION, INC",
    "contactEmail": "RWBDDS@GMAIL.COM",
    "categoryName": "SURGICAL CLINIC",
    "categoryCode": "ASC/SURGC",
    "licenseStatus": "ACTIVE",
    "inService": true,
    "licenseNumber": "550001958",
    "licenseEffectiveDate": "12/15/2024",
    "licenseExpirationDate": "12/14/2025",
    "dataDate": "10/18/2025",
    "capacity": 0,
    "address": "2626 S MOONEY BLVD, SUITE C",
    "city": "VISALIA",
    "zip": "93277",
    "county": "TULARE",
    "phone": "(559) 635-0206",
    "lat": 36.307062,
    "lng": -119.313432
  },
  {
    "id": "630001261",
    "name": "BRISTOL HOSPICE - VISALIA",
    "npi": "1164590089",
    "hcaiId": "406544070",
    "businessName": "OPTIMAL HOSPICE, INC.",
    "contactEmail": "REGULATORY@BRISTOLHOSPICE.COM",
    "categoryName": "HOSPICE",
    "categoryCode": "HOSPICE",
    "licenseStatus": "ACTIVE",
    "inService": true,
    "licenseNumber": "100000782",
    "licenseEffectiveDate": "06/08/2024",
    "licenseExpirationDate": "06/07/2026",
    "dataDate": "10/18/2025",
    "capacity": 0,
    "address": "2439 W WHITENDALE AVE, SUITE B",
    "city": "VISALIA",
    "zip": "93277",
    "county": "TULARE",
    "phone": "(559) 741-7220",
    "lat": 36.30566807,
    "lng": -119.3174636
  },
  {
    "id": "630018564",
    "name": "FAMILY HEALTHCARE NETWORK",
    "npi": "1689158941",
    "hcaiId": "306540439",
    "businessName": "FAMILY HEALTHCARE NETWORK",
    "contactEmail": "PESTRADA@FHCN.ORG",
    "categoryName": "PRIMARY CARE CLINIC",
    "categoryCode": "COMTYC",
    "licenseStatus": "ACTIVE",
    "inService": true,
    "licenseNumber": "550004630",
    "licenseEffectiveDate": "04/11/2025",
    "licenseExpirationDate": "04/10/2026",
    "dataDate": "10/18/2025",
    "capacity": 0,
    "address": "2333 S MOONEY BLVD",
    "city": "VISALIA",
    "zip": "93277",
    "county": "TULARE",
    "phone": "(559) 737-4717",
    "lat": 36.3086867,
    "lng": -119.3139259
  },
  {
    "id": "630012233",
    "name": "GENTIVA",
    "npi": "1740281633",
    "hcaiId": "406544083",
    "businessName": "ODYSSEY HEALTHCARE OPERATING A, L.P.",
    "contactEmail": null,
    "categoryName": "HOSPICE",
    "categoryCode": "HOSPICE",
    "licenseStatus": "ACTIVE",
    "inService": true,
    "licenseNumber": "070000582",
    "licenseEffectiveDate": "06/19/2024",
    "licenseExpirationDate": "06/18/2026",
    "dataDate": "10/18/2025",
    "capacity": 0,
    "address": "4020 S DEMAREE ST, SUITE B",
    "city": "VISALIA",
    "zip": "93277",
    "county": "TULARE",
    "phone": "(559) 685-9218",
    "lat": 36.293904,
    "lng": -119.3311215
  },
  {
    "id": "120001559",
    "name": "JAN & GAIL'S CARE HOME #3",
    "npi": "1366579641",
    "hcaiId": null,
    "businessName": "JAN & GAIL'S CARE HOMES, INC.",
    "contactEmail": "GSOLORIO777@GMAIL.COM",
    "categoryName": "INTERMEDIATE CARE FACILITY-DD/H/N/CN/IID",
    "categoryCode": "ICFDDN",
    "licenseStatus": "ACTIVE",
    "inService": true,
    "licenseNumber": "120000645",
    "licenseEffectiveDate": "03/29/2025",
    "licenseExpirationDate": "03/28/2026",
    "dataDate": "10/18/2025",
    "capacity": 6,
    "address": "3250 W LOYOLA AVE",
    "city": "VISALIA",
    "zip": "93277",
    "county": "TULARE",
    "phone": "(559) 732-0796",
    "lat": 36.295749,
    "lng": -119.3273595
  },
  {
    "id": "630003901",
    "name": "JAN & GAIL'S CARE HOME #6",
    "npi": "1144340746",
    "hcaiId": null,
    "businessName": "JAN & GAIL'S CARE HOMES, INC.",
    "contactEmail": "GSOLORIO777@GMAIL.COM",
    "categoryName": "INTERMEDIATE CARE FACILITY-DD/H/N/CN/IID",
    "categoryCode": "ICFDDN",
    "licenseStatus": "ACTIVE",
    "inService": true,
    "licenseNumber": "550000164",
    "licenseEffectiveDate": "04/26/2025",
    "licenseExpirationDate": "04/25/2026",
    "dataDate": "10/18/2025",
    "capacity": 6,
    "address": "3345 W MONTE VISTA CT",
    "city": "VISALIA",
    "zip": "93277",
    "county": "TULARE",
    "phone": "(559) 636-1822",
    "lat": 36.304551,
    "lng": -119.328057
  },
  {
    "id": "240001793",
    "name": "KAWEAH HEALTH DIALYSIS CENTER",
    "npi": "1245291558",
    "hcaiId": "306544074",
    "businessName": "KAWEAH DELTA HEALTH CARE DISTRICT",
    "contactEmail": "CLABLUE@KDHCD.ORG",
    "categoryName": "CHRONIC DIALYSIS CLINIC",
    "categoryCode": "ESRD",
    "licenseStatus": "ACTIVE",
    "inService": true,
    "licenseNumber": "120000580",
    "licenseEffectiveDate": "11/01/2025",
    "licenseExpirationDate": "10/31/2026",
    "dataDate": "10/18/2025",
    "capacity": 0,
    "address": "5040 W TULARE AVE",
    "city": "VISALIA",
    "zip": "93277",
    "county": "TULARE",
    "phone": "(559) 624-2000",
    "lat": 36.32009023,
    "lng": -119.3481054
  },
  {
    "id": "120001451",
    "name": "KAWEAH HEALTH MEDICAL CENTER D/P SNF",
    "npi": "1588663769",
    "hcaiId": "106544075",
    "businessName": "KAWEAH DELTA HEALTH CARE DISTRICT",
    "contactEmail": "LHARROLD@KDHCD.ORG",
    "categoryName": "SKILLED NURSING FACILITY",
    "categoryCode": "SNF",
    "licenseStatus": "ACTIVE",
    "inService": true,
    "licenseNumber": "120000580",
    "licenseEffectiveDate": "11/01/2025",
    "licenseExpirationDate": "10/31/2026",
    "dataDate": "10/18/2025",
    "capacity": 16,
    "address": "840 S AKERS ST",
    "city": "VISALIA",
    "zip": "93277",
    "county": "TULARE",
    "phone": "(559) 624-3854",
    "lat": 36.322425,
    "lng": -119.3477985
  },
  {
    "id": "120001452",
    "name": "KAWEAH HEALTH MENTAL HEALTH HOSPITAL",
    "npi": "1588663769",
    "hcaiId": "106544009",
    "businessName": "KAWEAH DELTA HEALTH CARE DISTRICT",
    "contactEmail": null,
    "categoryName": "ACUTE PSYCHIATRIC HOSPITAL",
    "categoryCode": "APH",
    "licenseStatus": "ACTIVE",
    "inService": true,
    "licenseNumber": "120000580",
    "licenseEffectiveDate": "11/01/2025",
    "licenseExpirationDate": "10/31/2026",
    "dataDate": "10/18/2025",
    "capacity": 63,
    "address": "1100 S AKERS ST",
    "city": "VISALIA",
    "zip": "93277",
    "county": "TULARE",
    "phone": "(559) 624-3300",
    "lat": 36.3205426,
    "lng": -119.350389
  },
  {
    "id": "120001449",
    "name": "KAWEAH HEALTH SKILLED NURSING CENTER",
    "npi": "1093776338",
    "hcaiId": "106540827",
    "businessName": "KAWEAH DELTA HEALTH CARE DISTRICT",
    "contactEmail": "MAAGUILAR@KDCD.ORG",
    "categoryName": "SKILLED NURSING FACILITY",
    "categoryCode": "SNF",
    "licenseStatus": "ACTIVE",
    "inService": true,
    "licenseNumber": "120000580",
    "licenseEffectiveDate": "11/01/2025",
    "licenseExpirationDate": "10/31/2026",
    "dataDate": "10/18/2025",
    "capacity": 54,
    "address": "1633 S COURT ST",
    "city": "VISALIA",
    "zip": "93277",
    "county": "TULARE",
    "phone": "(559) 624-6037",
    "lat": 36.315702,
    "lng": -119.292579
  },
  {
    "id": "120001477",
    "name": "LINWOOD MEADOWS CARE CENTER",
    "npi": "1952609182",
    "hcaiId": "206542063",
    "businessName": "SNOWDROP HOLDINGS, LLC",
    "contactEmail": "DANIEL.RICHARDSON@LINWOODMEADOWS.COM",
    "categoryName": "SKILLED NURSING FACILITY",
    "categoryCode": "SNF",
    "licenseStatus": "ACTIVE",
    "inService": true,
    "licenseNumber": "120000591",
    "licenseEffectiveDate": "12/07/2024",
    "licenseExpirationDate": "12/06/2025",
    "dataDate": "10/18/2025",
    "capacity": 98,
    "address": "4444 W MEADOW AVE",
    "city": "VISALIA",
    "zip": "93277",
    "county": "TULARE",
    "phone": "(559) 627-1241",
    "lat": 36.322371,
    "lng": -119.3400045
  },
  {
    "id": "120001534",
    "name": "NEW HORIZONS - LEILA",
    "npi": "1851429252",
    "hcaiId": null,
    "businessName": "B & D MORGAN, INC.",
    "contactEmail": "NEWHORIZONSDEE@AOL.COM",
    "categoryName": "INTERMEDIATE CARE FACILITY-DD/H/N/CN/IID",
    "categoryCode": "ICFDDN",
    "licenseStatus": "ACTIVE",
    "inService": true,
    "licenseNumber": "120000627",
    "licenseEffectiveDate": "06/01/2025",
    "licenseExpirationDate": "05/31/2026",
    "dataDate": "10/18/2025",
    "capacity": 6,
    "address": "810 S LEILA ST",
    "city": "VISALIA",
    "zip": "93277",
    "county": "TULARE",
    "phone": "(559) 741-1244",
    "lat": 36.323487,
    "lng": -119.328777
  },
  {
    "id": "120001660",
    "name": "NOBLE SURGERY CENTER",
    "npi": "1235187972",
    "hcaiId": "306544066",
    "businessName": null,
    "contactEmail": "SGEIGER@NOBLESURGERY.COM",
    "categoryName": "SURGICAL CLINIC",
    "categoryCode": "ASC",
    "licenseStatus": "INACTIVE - CAPEN DECISION",
    "inService": false,
    "licenseNumber": "120000663",
    "licenseEffectiveDate": "11/03/2007",
    "licenseExpirationDate": "11/02/2008",
    "dataDate": "10/18/2025",
    "capacity": 0,
    "address": "5021 W NOBLE AVE, SUITE B",
    "city": "VISALIA",
    "zip": "93277",
    "county": "TULARE",
    "phone": "(559) 625-2020",
    "lat": 36.326628,
    "lng": -119.346327
  },
  {
    "id": "630018521",
    "name": "OMNI FAMILY HEALTH",
    "npi": null,
    "hcaiId": null,
    "businessName": "OMNI FAMILY HEALTH",
    "contactEmail": null,
    "categoryName": "PRIMARY CARE CLINIC",
    "categoryCode": "COMTYC",
    "licenseStatus": "ACTIVE",
    "inService": true,
    "licenseNumber": "120000668",
    "licenseEffectiveDate": "12/13/2024",
    "licenseExpirationDate": "12/12/2025",
    "dataDate": "10/18/2025",
    "capacity": 0,
    "address": "311 W NOBLE AVE",
    "city": "VISALIA",
    "zip": "93277",
    "county": "TULARE",
    "phone": "(661) 459-1900",
    "lat": 36.326169,
    "lng": -119.295549
  },
  {
    "id": "120001503",
    "name": "SEQUOIA SURGERY CENTER, LLC",
    "npi": "1457329963",
    "hcaiId": "306544027",
    "businessName": null,
    "contactEmail": "WWW.CCURCIN@SBCGLOBAL.NET",
    "categoryName": "SURGICAL CLINIC",
    "categoryCode": "ASC",
    "licenseStatus": "INACTIVE - CAPEN DECISION",
    "inService": false,
    "licenseNumber": "120000610",
    "licenseEffectiveDate": "12/07/2007",
    "licenseExpirationDate": "12/06/2008",
    "dataDate": "10/18/2025",
    "capacity": 0,
    "address": "842 S AKERS ST",
    "city": "VISALIA",
    "zip": "93277",
    "county": "TULARE",
    "phone": "(559) 740-4094",
    "lat": 36.321822,
    "lng": -119.3481945
  },
  {
    "id": "120001472",
    "name": "SEQUOIA VISTA",
    "npi": "1871290551",
    "hcaiId": "206541695",
    "businessName": "GATEWAY CARE, LLC",
    "contactEmail": "ADMINISTRATOR@SEQUOIAVISTA.ORG",
    "categoryName": "SKILLED NURSING FACILITY",
    "categoryCode": "SNF",
    "licenseStatus": "ACTIVE",
    "inService": true,
    "licenseNumber": "120000588",
    "licenseEffectiveDate": "03/16/2025",
    "licenseExpirationDate": "03/15/2026",
    "dataDate": "10/18/2025",
    "capacity": 99,
    "address": "3710 W TULARE AVE",
    "city": "VISALIA",
    "zip": "93277",
    "county": "TULARE",
    "phone": "(559) 732-2244",
    "lat": 36.320751,
    "lng": -119.3326425
  },
  {
    "id": "630011298",
    "name": "STEELE'S QUALITY LIVING - VASSAR",
    "npi": "1861643728",
    "hcaiId": null,
    "businessName": "P & A STEELE INC.",
    "contactEmail": "NURSESQL@GMAIL.COM",
    "categoryName": "INTERMEDIATE CARE FACILITY-DD/H/N/CN/IID",
    "categoryCode": "ICFDDN",
    "licenseStatus": "ACTIVE",
    "inService": true,
    "licenseNumber": "550000695",
    "licenseEffectiveDate": "11/06/2024",
    "licenseExpirationDate": "11/05/2025",
    "dataDate": "10/18/2025",
    "capacity": 6,
    "address": "1120 W VASSAR AVE",
    "city": "VISALIA",
    "zip": "93277",
    "county": "TULARE",
    "phone": "(559) 920-8770",
    "lat": 36.314091,
    "lng": -119.30355
  },
  {
    "id": "630014022",
    "name": "TOWN AND COUNTRY DIAGNOSTICS",
    "npi": null,
    "hcaiId": null,
    "businessName": null,
    "contactEmail": null,
    "categoryName": "OTHER",
    "categoryCode": "UNLICEN",
    "licenseStatus": null,
    "inService": null,
    "licenseNumber": null,
    "licenseEffectiveDate": null,
    "licenseExpirationDate": null,
    "dataDate": "10/18/2025",
    "capacity": 0,
    "address": "6125 W LAURA AVE",
    "city": "VISALIA",
    "zip": "93277",
    "county": "TULARE",
    "phone": null,
    "lat": 36.310995,
    "lng": -119.3593545
  },
  {
    "id": "630027058",
    "name": "UNITED HEALTH CENTERS OF THE SAN JOAQUIN VALLEY",
    "npi": null,
    "hcaiId": "306540764",
    "businessName": "UNITED HEALTH CENTERS OF THE SAN JOAQUIN VALLEY",
    "contactEmail": "PREASJ@UNITEDHEALTHCENTERS.ORG",
    "categoryName": "PRIMARY CARE CLINIC",
    "categoryCode": "COMTYC",
    "licenseStatus": "ACTIVE",
    "inService": true,
    "licenseNumber": "550008443",
    "licenseEffectiveDate": "03/23/2025",
    "licenseExpirationDate": "03/22/2026",
    "dataDate": "10/18/2025",
    "capacity": 0,
    "address": "4038 S MOONEY BLVD",
    "city": "VISALIA",
    "zip": "93277",
    "county": "TULARE",
    "phone": "(559) 646-7400",
    "lat": 36.294048,
    "lng": -119.3123925
  },
  {
    "id": "630018012",
    "name": "VISALIA AMBULATORY SURGICAL CENTER, LLC",
    "npi": "1760859334",
    "hcaiId": null,
    "businessName": null,
    "contactEmail": "VISALIAHEART@GMAIL.COM",
    "categoryName": "SURGICAL CLINIC",
    "categoryCode": "ASC",
    "licenseStatus": null,
    "inService": null,
    "licenseNumber": null,
    "licenseEffectiveDate": null,
    "licenseExpirationDate": null,
    "dataDate": "10/18/2025",
    "capacity": 0,
    "address": "105 E NOBLE AVE",
    "city": "VISALIA",
    "zip": "93277",
    "county": "TULARE",
    "phone": "(559) 735-0500",
    "lat": 36.326151,
    "lng": -119.2918365
  },
  {
    "id": "240001798",
    "name": "VISALIA DIALYSIS",
    "npi": "1487629382",
    "hcaiId": "306544085",
    "businessName": "DVA RENAL HEALTHCARE, INC.",
    "contactEmail": "CAL_C@DAVITA.COM",
    "categoryName": "CHRONIC DIALYSIS CLINIC",
    "categoryCode": "ESRD/CDC",
    "licenseStatus": "ACTIVE",
    "inService": true,
    "licenseNumber": "240000792",
    "licenseEffectiveDate": "01/01/2025",
    "licenseExpirationDate": "12/31/2025",
    "dataDate": "10/18/2025",
    "capacity": 24,
    "address": "5429 W CYPRESS AVE",
    "city": "VISALIA",
    "zip": "93277",
    "county": "TULARE",
    "phone": "(559) 738-9279",
    "lat": 36.324414,
    "lng": -119.3517765
  },
  {
    "id": "120001431",
    "name": "WESTGATE GARDENS CARE CENTER",
    "npi": "1134427289",
    "hcaiId": "206540075",
    "businessName": "THYME HOLDINGS, LLC",
    "contactEmail": "JOHNNIE.WALKER@GOWESTGATE.COM",
    "categoryName": "SKILLED NURSING FACILITY",
    "categoryCode": "SNF",
    "licenseStatus": "ACTIVE",
    "inService": true,
    "licenseNumber": "120000574",
    "licenseEffectiveDate": "12/07/2024",
    "licenseExpirationDate": "12/06/2025",
    "dataDate": "10/18/2025",
    "capacity": 140,
    "address": "4525 W TULARE AVE",
    "city": "VISALIA",
    "zip": "93277",
    "county": "TULARE",
    "phone": "(559) 733-0901",
    "lat": 36.319158,
    "lng": -119.341512
  }
]