[
  {
    "id": "630016861",
    "name": "ADVENTIST HEALTH REEDLEY",
    "npi": "1245694306",
    "hcaiId": null,
    "businessName": "REEDLEY COMMUNITY HOSPITAL",
    "contactEmail": null,
    "categoryName": "PRIMARY CARE CLINIC",
    "categoryCode": "RHC/OP",
    "licenseStatus": "ACTIVE",
    "inService": true,
    "licenseNumber": "040000149",
    "licenseEffectiveDate": "11/09/2024",
    "licenseExpirationDate": "11/08/2025",
    "dataDate": "10/18/2025",
    "capacity": 0,
    "address": "1040 7TH STREET",
    "city": "WASCO",
    "zip": "93280",
    "county": "KERN",
    "phone": null,
    "lat": 35.594622,
    "lng": -119.3374395
  },
  {
    "id": "120001183",
    "name": "DELANO REGIONAL MEDICAL CENTER RURAL HEALTH CLINIC",
    "npi": "1639207343",
    "hcaiId": null,
    "businessName": null,
    "contactEmail": null,
    "categoryName": "PRIMARY CARE CLINIC",
    "categoryCode": "RHC/OP",
    "licenseStatus": null,
    "inService": null,
    "licenseNumber": null,
    "licenseEffectiveDate": null,
    "licenseExpirationDate": null,
    "dataDate": "10/18/2025",
    "capacity": 0,
    "address": "2300 7TH ST",
    "city": "WASCO",
    "zip": "93280",
    "county": "KERN",
    "phone": "(661) 758-4184",
    "lat": 35.594847,
    "lng": -119.351691
  },
  {
    "id": "630022963",
    "name": "GOOD SAMARITAN HEALTH CENTER WASCO",
    "npi": null,
    "hcaiId": null,
    "businessName": "GOOD SAMARITAN HOSP, A CALIF LIMITED PARTNERSHIP",
    "contactEmail": null,
    "categoryName": "PRIMARY CARE CLINIC",
    "categoryCode": "RHC/OP",
    "licenseStatus": "ACTIVE",
    "inService": true,
    "licenseNumber": "120000146",
    "licenseEffectiveDate": "07/22/2025",
    "licenseExpirationDate": "11/30/2025",
    "dataDate": "10/18/2025",
    "capacity": 0,
    "address": "1217 7TH ST",
    "city": "WASCO",
    "zip": "93280",
    "county": "KERN",
    "phone": "(661) 758-5500",
    "lat": 35.593812,
    "lng": -119.339649
  },
  {
    "id": "120000579",
    "name": "OMNI FAMILY HEALTH",
    "npi": "1689688004",
    "hcaiId": "306154028",
    "businessName": "OMNI FAMILY HEALTH",
    "contactEmail": "LICENSING@OMNIFAMILYHEALTH.ORG",
    "categoryName": "PRIMARY CARE CLINIC",
    "categoryCode": "COMTYC",
    "licenseStatus": "ACTIVE",
    "inService": true,
    "licenseNumber": "120000254",
    "licenseEffectiveDate": "02/12/2025",
    "licenseExpirationDate": "02/11/2026",
    "dataDate": "10/18/2025",
    "capacity": 0,
    "address": "2101 7TH ST, BUILDING A-F",
    "city": "WASCO",
    "zip": "93280",
    "county": "KERN",
    "phone": "(661) 459-1900",
    "lat": 35.593371,
    "lng": -119.349891
  },
  {
    "id": "120001299",
    "name": "POSITIVE DIRECTIONS #10",
    "npi": "1164887089",
    "hcaiId": null,
    "businessName": "POSITIVE DIRECTIONS, INC.",
    "contactEmail": "TRISHFLORES16@GMAIL.COM",
    "categoryName": "INTERMEDIATE CARE FACILITY-DD/H/N/CN/IID",
    "categoryCode": "ICFDDN",
    "licenseStatus": "ACTIVE",
    "inService": true,
    "licenseNumber": "120000518",
    "licenseEffectiveDate": "05/12/2025",
    "licenseExpirationDate": "05/11/2026",
    "dataDate": "10/18/2025",
    "capacity": 6,
    "address": "1371 GRIFFITH AVE",
    "city": "WASCO",
    "zip": "93280",
    "county": "KERN",
    "phone": "(661) 721-3525",
    "lat": 35.58604158,
    "lng": -119.3405389
  },
  {
    "id": "630017779",
    "name": "ROSE POINT DIALYSIS",
    "npi": "1871007617",
    "hcaiId": "306150452",
    "businessName": "TOTAL RENAL CARE, INC.",
    "contactEmail": "CAL_C@DAVITA.COM",
    "categoryName": "CHRONIC DIALYSIS CLINIC",
    "categoryCode": "ESRD/CDC",
    "licenseStatus": "ACTIVE",
    "inService": true,
    "licenseNumber": "550004554",
    "licenseEffectiveDate": "02/12/2025",
    "licenseExpirationDate": "02/11/2026",
    "dataDate": "10/18/2025",
    "capacity": 0,
    "address": "400 N PALM AVE",
    "city": "WASCO",
    "zip": "93280",
    "county": "KERN",
    "phone": "(661) 758-2360",
    "lat": 35.60435904,
    "lng": -119.349138
  },
  {
    "id": "630017383",
    "name": "VANGUARD MEDICAL CORPORATION",
    "npi": "1558801829",
    "hcaiId": null,
    "businessName": null,
    "contactEmail": "NOVIRA71@GMAIL.COM",
    "categoryName": "PRIMARY CARE CLINIC",
    "categoryCode": "RHC",
    "licenseStatus": null,
    "inService": null,
    "licenseNumber": null,
    "licenseEffectiveDate": null,
    "licenseExpirationDate": null,
    "dataDate": "10/18/2025",
    "capacity": 0,
    "address": "845 7TH ST",
    "city": "WASCO",
    "zip": "93280",
    "county": "KERN",
    "phone": "(661) 459-1000",
    "lat": 35.593911,
    "lng": -119.33487
  },
  {
    "id": "630027852",
    "name": "VANGUARD MEDICAL CORPORATION",
    "npi": null,
    "hcaiId": null,
    "businessName": null,
    "contactEmail": "NOVIRA71@GMAIL.COM",
    "categoryName": "PRIMARY CARE CLINIC",
    "categoryCode": "RHC",
    "licenseStatus": null,
    "inService": null,
    "licenseNumber": null,
    "licenseEffectiveDate": null,
    "licenseExpirationDate": null,
    "dataDate": "10/18/2025",
    "capacity": 0,
    "address": "841 7TH ST",
    "city": "WASCO",
    "zip": "93280",
    "county": "KERN",
    "phone": "(661) 559-5310",
    "lat": 35.59391201,
    "lng": -119.334756
  },
  {
    "id": "630011070",
    "name": "WASCO STATE PRISON - CDC",
    "npi": null,
    "hcaiId": "306154210",
    "businessName": "CA DEPARTMENT OF CORRECTIONS AND REHABILITATION",
    "contactEmail": "ASHRAF.YOUSSEF@CDCR.CA.GOV",
    "categoryName": "CHRONIC DIALYSIS CLINIC",
    "categoryCode": "CDC",
    "licenseStatus": "ACTIVE",
    "inService": true,
    "licenseNumber": "550000314",
    "licenseEffectiveDate": "04/30/2025",
    "licenseExpirationDate": "04/29/2026",
    "dataDate": "10/18/2025",
    "capacity": 6,
    "address": "701 SCOFIELD AVE",
    "city": "WASCO",
    "zip": "93280",
    "county": "KERN",
    "phone": "(661) 758-7051",
    "lat": 35.593902,
    "lng": -119.407221
  },
  {
    "id": "170001890",
    "name": "WASCO STATE PRISON RECEPTION CENTER, CTC",
    "npi": null,
    "hcaiId": null,
    "businessName": "CA DEPARTMENT OF CORRECTIONS AND REHABILITATION",
    "contactEmail": "SCOTT.WOODHOUSE@CDCR.CA.GOV",
    "categoryName": "CORRECTIONAL TREATMENT CENTER",
    "categoryCode": "CTC",
    "licenseStatus": "ACTIVE",
    "inService": true,
    "licenseNumber": "170000843",
    "licenseEffectiveDate": "03/09/2025",
    "licenseExpirationDate": "03/08/2026",
    "dataDate": "10/18/2025",
    "capacity": 16,
    "address": "701 SCOFIELD AVE",
    "city": "WASCO",
    "zip": "93280",
    "county": "KERN",
    "phone": "(661) 758-7051",
    "lat": 35.593902,
    "lng": -119.407221
  }
]