[
  {
    "id": "630016577",
    "name": "AMERICAN QLH",
    "npi": "1184099970",
    "hcaiId": "406331791",
    "businessName": "ADEQUATE CARE HOSPICE, INC.",
    "contactEmail": "DPETERSON@ACHSPC.COM",
    "categoryName": "HOSPICE",
    "categoryCode": "HOSPICE",
    "licenseStatus": "ACTIVE",
    "inService": true,
    "licenseNumber": "550003937",
    "licenseEffectiveDate": "07/18/2025",
    "licenseExpirationDate": "07/17/2027",
    "dataDate": "10/18/2025",
    "capacity": 0,
    "address": "5323 W HILLSDALE AVE",
    "city": "VISALIA",
    "zip": "93291",
    "county": "TULARE",
    "phone": "(559) 280-2945",
    "lat": 36.329292,
    "lng": -119.350413
  },
  {
    "id": "630027619",
    "name": "COMPLETE CARE COMMUNITY HEALTH CENTER- VISALIA",
    "npi": "1215113964",
    "hcaiId": null,
    "businessName": "COMPLETE CARE COMMUNITY HEALTH CENTER, INC.",
    "contactEmail": null,
    "categoryName": "PRIMARY CARE CLINIC",
    "categoryCode": "FQHC/COMTYC",
    "licenseStatus": "ACTIVE",
    "inService": true,
    "licenseNumber": "550000639",
    "licenseEffectiveDate": "12/10/2024",
    "licenseExpirationDate": "12/09/2025",
    "dataDate": "10/18/2025",
    "capacity": 0,
    "address": "220 S AKERS ST, SUITE D",
    "city": "VISALIA",
    "zip": "93291",
    "county": "TULARE",
    "phone": null,
    "lat": 36.32809226,
    "lng": -119.3489681
  },
  {
    "id": "630001301",
    "name": "COURTYARD SURGERY PAVILION",
    "npi": "1679534614",
    "hcaiId": "306544072",
    "businessName": null,
    "contactEmail": "FEILMD@VISALIAEYE.COM",
    "categoryName": "SURGICAL CLINIC",
    "categoryCode": "ASC",
    "licenseStatus": "INACTIVE - CAPEN DECISION",
    "inService": false,
    "licenseNumber": "550000162",
    "licenseEffectiveDate": "11/26/2007",
    "licenseExpirationDate": "11/25/2008",
    "dataDate": "10/18/2025",
    "capacity": 0,
    "address": "112 N AKERS ST",
    "city": "VISALIA",
    "zip": "93291",
    "county": "TULARE",
    "phone": "(559) 733-4399",
    "lat": 36.330048,
    "lng": -119.3484735
  },
  {
    "id": "120001402",
    "name": "DELTA HEALTHCARE & WELLNESS CENTER, LP",
    "npi": "1982202602",
    "hcaiId": "206540707",
    "businessName": "DELTA HEALTHCARE & WELLNESS CENTER LP",
    "contactEmail": "ADMINISTRATOR@DELTANURSINGREHAB.COM",
    "categoryName": "SKILLED NURSING FACILITY",
    "categoryCode": "SNF",
    "licenseStatus": "ACTIVE",
    "inService": true,
    "licenseNumber": "120000558",
    "licenseEffectiveDate": "01/01/2025",
    "licenseExpirationDate": "12/31/2025",
    "dataDate": "10/18/2025",
    "capacity": 44,
    "address": "514 N BRIDGE ST",
    "city": "VISALIA",
    "zip": "93291",
    "county": "TULARE",
    "phone": "(559) 732-8614",
    "lat": 36.334251,
    "lng": -119.2886685
  },
  {
    "id": "120001471",
    "name": "FAMILY HEALTHCARE NETWORK",
    "npi": null,
    "hcaiId": "306540898",
    "businessName": "FAMILY HEALTHCARE NETWORK",
    "contactEmail": "RISKMANAGEMENT@FHCN.ORG",
    "categoryName": "PRIMARY CARE CLINIC",
    "categoryCode": "COMTYC",
    "licenseStatus": "ACTIVE",
    "inService": true,
    "licenseNumber": "120000587",
    "licenseEffectiveDate": "04/01/2025",
    "licenseExpirationDate": "03/31/2026",
    "dataDate": "10/18/2025",
    "capacity": 0,
    "address": "501 N BRIDGE ST",
    "city": "VISALIA",
    "zip": "93291",
    "county": "TULARE",
    "phone": "(559) 737-4717",
    "lat": 36.334053,
    "lng": -119.289312
  },
  {
    "id": "120001653",
    "name": "FAMILY HEALTHCARE NETWORK",
    "npi": null,
    "hcaiId": "306544063",
    "businessName": "FAMILY HEALTHCARE NETWORK",
    "contactEmail": "RISKMANAGEMENT@FHCN.ORG",
    "categoryName": "PRIMARY CARE CLINIC",
    "categoryCode": "COMTYC",
    "licenseStatus": "ACTIVE",
    "inService": true,
    "licenseNumber": "120000660",
    "licenseEffectiveDate": "02/06/2025",
    "licenseExpirationDate": "02/05/2026",
    "dataDate": "10/18/2025",
    "capacity": 0,
    "address": "400 E OAK AVE",
    "city": "VISALIA",
    "zip": "93291",
    "county": "TULARE",
    "phone": "(559) 737-4717",
    "lat": 36.33200053,
    "lng": -119.2889311
  },
  {
    "id": "630015131",
    "name": "FAMILY HEALTHCARE NETWORK",
    "npi": "1730502725",
    "hcaiId": "306544096",
    "businessName": "FAMILY HEALTHCARE NETWORK",
    "contactEmail": "PESTRADA@FHCN.ORG",
    "categoryName": "PRIMARY CARE CLINIC",
    "categoryCode": "COMTYC",
    "licenseStatus": "ACTIVE",
    "inService": true,
    "licenseNumber": "550002733",
    "licenseEffectiveDate": "06/26/2025",
    "licenseExpirationDate": "06/25/2026",
    "dataDate": "10/18/2025",
    "capacity": 0,
    "address": "401 E. SCHOOL AVENUE",
    "city": "VISALIA",
    "zip": "93291",
    "county": "TULARE",
    "phone": "(559) 737-4717",
    "lat": 36.33280594,
    "lng": -119.2889143
  },
  {
    "id": "630017267",
    "name": "FAMILY HEALTHCARE NETWORK",
    "npi": "1194265579",
    "hcaiId": "306544105",
    "businessName": "FAMILY HEALTHCARE NETWORK",
    "contactEmail": "RISKMANAGEMENT@FHCN.ORG",
    "categoryName": "PRIMARY CARE CLINIC",
    "categoryCode": "COMTYC",
    "licenseStatus": "ACTIVE",
    "inService": true,
    "licenseNumber": "550003926",
    "licenseEffectiveDate": "07/28/2025",
    "licenseExpirationDate": "07/27/2026",
    "dataDate": "10/18/2025",
    "capacity": 0,
    "address": "31180 ROAD 72",
    "city": "GOSHEN",
    "zip": "93291",
    "county": "TULARE",
    "phone": "(559) 737-4294",
    "lat": 36.35585804,
    "lng": -119.4123969
  },
  {
    "id": "630017958",
    "name": "ICS HOME HEALTHCARE, INC.",
    "npi": null,
    "hcaiId": "406541726",
    "businessName": "ICS HOME HEALTHCARE, INC.",
    "contactEmail": "ERIC@ICSHOMECARE.COM",
    "categoryName": "HOME HEALTH AGENCY",
    "categoryCode": "HHA",
    "licenseStatus": "ACTIVE",
    "inService": true,
    "licenseNumber": "550004700",
    "licenseEffectiveDate": "04/22/2025",
    "licenseExpirationDate": "04/21/2026",
    "dataDate": "10/18/2025",
    "capacity": 0,
    "address": "7140 W PERSHING CT, SUITE B",
    "city": "VISALIA",
    "zip": "93291",
    "county": "TULARE",
    "phone": "(559) 651-2233",
    "lat": 36.339669,
    "lng": -119.370618
  },
  {
    "id": "630019939",
    "name": "INFINITE HEART HOSPICE",
    "npi": "1134768138",
    "hcaiId": "406542853",
    "businessName": "INFINITE HEART HOSPICE, LLC",
    "contactEmail": "SHARRIS@IHHOSPICE.COM",
    "categoryName": "HOSPICE",
    "categoryCode": "HOSPICE",
    "licenseStatus": "ACTIVE",
    "inService": true,
    "licenseNumber": "550005680",
    "licenseEffectiveDate": "11/12/2025",
    "licenseExpirationDate": "08/20/2026",
    "dataDate": "10/18/2025",
    "capacity": 0,
    "address": "5415 AVENIDA DE LAS ROBLES, SUITE 101",
    "city": "VISALIA",
    "zip": "93291",
    "county": "TULARE",
    "phone": "(559) 409-7500",
    "lat": 36.32838326,
    "lng": -119.3507241
  },
  {
    "id": "120001424",
    "name": "KAWEAH HEALTH HOME HEALTH",
    "npi": "1790746378",
    "hcaiId": "406540024",
    "businessName": "KAWEAH DELTA HEALTH CARE DISTRICT",
    "contactEmail": "BCRIPPS@KAWEAHHEALTH.ORG",
    "categoryName": "HOME HEALTH AGENCY",
    "categoryCode": "HHA",
    "licenseStatus": "ACTIVE",
    "inService": true,
    "licenseNumber": "120000569",
    "licenseEffectiveDate": "12/03/2024",
    "licenseExpirationDate": "12/02/2025",
    "dataDate": "10/18/2025",
    "capacity": 0,
    "address": "403 W MAIN ST",
    "city": "VISALIA",
    "zip": "93291",
    "county": "TULARE",
    "phone": "(559) 624-5006",
    "lat": 36.33010955,
    "lng": -119.2957733
  },
  {
    "id": "070001229",
    "name": "KAWEAH HEALTH HOSPICE",
    "npi": "1891718649",
    "hcaiId": "406544026",
    "businessName": "KAWEAH DELTA HEALTH CARE DISTRICT",
    "contactEmail": "BCRIPPS@KDHCD.ORG",
    "categoryName": "HOSPICE",
    "categoryCode": "HOSPICE",
    "licenseStatus": "ACTIVE",
    "inService": true,
    "licenseNumber": "070000564",
    "licenseEffectiveDate": "01/01/2025",
    "licenseExpirationDate": "12/31/2026",
    "dataDate": "10/18/2025",
    "capacity": 0,
    "address": "402 W ACEQUIA AVE",
    "city": "VISALIA",
    "zip": "93291",
    "county": "TULARE",
    "phone": "(559) 624-2105",
    "lat": 36.3295966,
    "lng": -119.2960016
  },
  {
    "id": "120001444",
    "name": "KAWEAH HEALTH MEDICAL CENTER",
    "npi": "1588663769",
    "hcaiId": "106540734",
    "businessName": "KAWEAH DELTA HEALTH CARE DISTRICT",
    "contactEmail": "BCRIPPS@KDHCD.ORG",
    "categoryName": "GENERAL ACUTE CARE HOSPITAL",
    "categoryCode": "GACH",
    "licenseStatus": "ACTIVE",
    "inService": true,
    "licenseNumber": "120000580",
    "licenseEffectiveDate": "11/01/2025",
    "licenseExpirationDate": "10/31/2026",
    "dataDate": "10/18/2025",
    "capacity": 480,
    "address": "400 W MINERAL KING AVE",
    "city": "VISALIA",
    "zip": "93291",
    "county": "TULARE",
    "phone": "(559) 624-2000",
    "lat": 36.32742044,
    "lng": -119.2960948
  },
  {
    "id": "120001538",
    "name": "MILL CREEK AMBULATORY SURGERY CENTER",
    "npi": "1770906141",
    "hcaiId": "306544047",
    "businessName": null,
    "contactEmail": "MCSURGERY@AOL.COM",
    "categoryName": "SURGICAL CLINIC",
    "categoryCode": "ASC",
    "licenseStatus": "INACTIVE - CAPEN DECISION",
    "inService": false,
    "licenseNumber": "120000629",
    "licenseEffectiveDate": "11/11/2007",
    "licenseExpirationDate": "11/10/2008",
    "dataDate": "10/18/2025",
    "capacity": 0,
    "address": "2822 W MAIN ST",
    "city": "VISALIA",
    "zip": "93291",
    "county": "TULARE",
    "phone": "(559) 625-8636",
    "lat": 36.32976,
    "lng": -119.3221755
  },
  {
    "id": "630022268",
    "name": "PLANNED PARENTHOOD MAR MONTE INC \"VISALIA STEVENSON CENTER\"",
    "npi": null,
    "hcaiId": null,
    "businessName": "PLANNED PARENTHOOD MAR MONTE, INC.",
    "contactEmail": null,
    "categoryName": "PRIMARY CARE CLINIC",
    "categoryCode": "COMTYC",
    "licenseStatus": "ACTIVE",
    "inService": true,
    "licenseNumber": "040000294",
    "licenseEffectiveDate": "11/01/2025",
    "licenseExpirationDate": "10/31/2026",
    "dataDate": "10/18/2025",
    "capacity": 0,
    "address": "211 N STEVENSON ST",
    "city": "VISALIA",
    "zip": "93291",
    "county": "TULARE",
    "phone": null,
    "lat": 36.33116567,
    "lng": -119.3000275
  },
  {
    "id": "630017097",
    "name": "SEVA HOSPICE",
    "npi": null,
    "hcaiId": "406545489",
    "businessName": "ANGEL LOVE HOSPICE SERVICES INC",
    "contactEmail": "ADHILLON@SEVACARES.COM",
    "categoryName": "HOSPICE",
    "categoryCode": "HOSPICE",
    "licenseStatus": "ACTIVE",
    "inService": true,
    "licenseNumber": "550004484",
    "licenseEffectiveDate": "12/19/2024",
    "licenseExpirationDate": "12/18/2026",
    "dataDate": "10/18/2025",
    "capacity": 0,
    "address": "100 WILLOW PLZ, SUITE 100",
    "city": "VISALIA",
    "zip": "93291",
    "county": "TULARE",
    "phone": "(559) 625-1043",
    "lat": 36.33012476,
    "lng": -119.2922614
  },
  {
    "id": "120001558",
    "name": "SIERRA AMBULATORY SURGERY CENTER, A MEDICAL CORP.",
    "npi": "1225011216",
    "hcaiId": "306544057",
    "businessName": "SIERRA AMBULATORY SURGERY CENTER, A MEDICAL CORP.",
    "contactEmail": "CASTILLOKERI@GMAIL.COM",
    "categoryName": "SURGICAL CLINIC",
    "categoryCode": "ASC",
    "licenseStatus": "INACTIVE - CAPEN DECISION",
    "inService": false,
    "licenseNumber": "120000644",
    "licenseEffectiveDate": "06/15/2007",
    "licenseExpirationDate": "06/14/2008",
    "dataDate": "10/18/2025",
    "capacity": 0,
    "address": "2828 W MAIN ST",
    "city": "VISALIA",
    "zip": "93291",
    "county": "TULARE",
    "phone": "(559) 734-7272",
    "lat": 36.32963134,
    "lng": -119.3221509
  },
  {
    "id": "630027745",
    "name": "SOUTH VALLEY HOME HEALTH",
    "npi": null,
    "hcaiId": null,
    "businessName": "SOUTH VALLEY HOME HEALTH CORPORATION",
    "contactEmail": "MELISSAHOMAN15@GMAIL.COM",
    "categoryName": "HOME HEALTH AGENCY",
    "categoryCode": "HHA",
    "licenseStatus": "ACTIVE",
    "inService": true,
    "licenseNumber": "550009613",
    "licenseEffectiveDate": "07/21/2025",
    "licenseExpirationDate": "01/20/2026",
    "dataDate": "10/18/2025",
    "capacity": 0,
    "address": "1640 W MINERAL KING AVE, SUITE 203",
    "city": "VISALIA",
    "zip": "93291",
    "county": "TULARE",
    "phone": "(559) 372-7209",
    "lat": 36.32774625,
    "lng": -119.3113514
  },
  {
    "id": "630013061",
    "name": "STEELE'S VISIONS - TERRACE",
    "npi": "1508155003",
    "hcaiId": null,
    "businessName": "STEELE'S VISIONS INC.",
    "contactEmail": "JANASTEELE77@GMAIL.COM",
    "categoryName": "INTERMEDIATE CARE FACILITY-DD/H/N/CN/IID",
    "categoryCode": "ICFDDN",
    "licenseStatus": "ACTIVE",
    "inService": true,
    "licenseNumber": "550001685",
    "licenseEffectiveDate": "03/06/2025",
    "licenseExpirationDate": "03/05/2026",
    "dataDate": "10/18/2025",
    "capacity": 6,
    "address": "2146 N TERRACE CT",
    "city": "VISALIA",
    "zip": "93291",
    "county": "TULARE",
    "phone": "(559) 920-8552",
    "lat": 36.348912,
    "lng": -119.320497
  },
  {
    "id": "630012746",
    "name": "VISALIA CHILDREN'S DENTAL SURGERY CENTER, INC.",
    "npi": "1053643783",
    "hcaiId": "306544082",
    "businessName": "VISALIA CHILDREN'S DENTAL SURGERY CENTER. INC.",
    "contactEmail": "CHRISTIAN.TADJE@BLUECLOUDPSC.COM",
    "categoryName": "SURGICAL CLINIC",
    "categoryCode": "ASC/SURGC",
    "licenseStatus": "ACTIVE",
    "inService": true,
    "licenseNumber": "550001451",
    "licenseEffectiveDate": "12/13/2024",
    "licenseExpirationDate": "12/12/2025",
    "dataDate": "10/18/2025",
    "capacity": 0,
    "address": "136 S ASPEN ST, SUITE A",
    "city": "VISALIA",
    "zip": "93291",
    "county": "TULARE",
    "phone": "(559) 625-9300",
    "lat": 36.32885111,
    "lng": -119.3525068
  }
]