[
  {
    "id": "120001544",
    "name": "SIERRA VISTA RESIDENTIAL CARE HOME #3",
    "npi": "1023200151",
    "hcaiId": null,
    "businessName": "SIERRA VISTA RESIDENTIAL CARE HOME",
    "contactEmail": "SIERRAVISTAHOME@HOTMAIL.COM",
    "categoryName": "INTERMEDIATE CARE FACILITY-DD/H/N/CN/IID",
    "categoryCode": "ICFDDN",
    "licenseStatus": "ACTIVE",
    "inService": true,
    "licenseNumber": "120000635",
    "licenseEffectiveDate": "11/10/2024",
    "licenseExpirationDate": "11/09/2025",
    "dataDate": "10/18/2025",
    "capacity": 6,
    "address": "1412 N MAPLE ST",
    "city": "VISALIA",
    "zip": "93292",
    "county": "TULARE",
    "phone": "(559) 747-0399",
    "lat": 36.342171,
    "lng": -119.262573
  },
  {
    "id": "120001469",
    "name": "VISALIA POST ACUTE",
    "npi": "1225270341",
    "hcaiId": "206540828",
    "businessName": "SPRUCE HOLDINGS, LLC",
    "contactEmail": "ANITA.HUBBARD@VPACARE.COM",
    "categoryName": "SKILLED NURSING FACILITY",
    "categoryCode": "SNF",
    "licenseStatus": "ACTIVE",
    "inService": true,
    "licenseNumber": "120000586",
    "licenseEffectiveDate": "06/16/2025",
    "licenseExpirationDate": "06/15/2026",
    "dataDate": "10/18/2025",
    "capacity": 176,
    "address": "1925 E HOUSTON AVE",
    "city": "VISALIA",
    "zip": "93292",
    "county": "TULARE",
    "phone": "(559) 732-1020",
    "lat": 36.341055,
    "lng": -119.271096
  },
  {
    "id": "630015446",
    "name": "VISALIA VINEYARD DIALYSIS",
    "npi": "1528439395",
    "hcaiId": "306544100",
    "businessName": "HELMER DIALYSIS, LLC",
    "contactEmail": "CAL_C@DAVITA.COM",
    "categoryName": "CHRONIC DIALYSIS CLINIC",
    "categoryCode": "ESRD/CDC",
    "licenseStatus": "ACTIVE",
    "inService": true,
    "licenseNumber": "550003150",
    "licenseEffectiveDate": "10/18/2025",
    "licenseExpirationDate": "10/17/2026",
    "dataDate": "10/18/2025",
    "capacity": 24,
    "address": "1140 SOUTH BEN MADDOX WAY",
    "city": "VISALIA",
    "zip": "93292",
    "county": "TULARE",
    "phone": "(559) 635-1938",
    "lat": 36.31981252,
    "lng": -119.2764431
  }
]