[
  {
    "id": "120001663",
    "name": "AMERICAN HEALTH ASSOCIATES, INC.",
    "npi": "1962596775",
    "hcaiId": "406154124",
    "businessName": "AMERICAN HEALTH ASSOCIATES, INC.",
    "contactEmail": "AMHEALTHBAKERSFIELD@GMAIL.COM",
    "categoryName": "HOME HEALTH AGENCY",
    "categoryCode": "HHA",
    "licenseStatus": "ACTIVE",
    "inService": true,
    "licenseNumber": "120000667",
    "licenseEffectiveDate": "06/13/2025",
    "licenseExpirationDate": "06/12/2026",
    "dataDate": "10/18/2025",
    "capacity": 0,
    "address": "930 OAK ST",
    "city": "BAKERSFIELD",
    "zip": "93304",
    "county": "KERN",
    "phone": "(661) 861-1478",
    "lat": 35.366436,
    "lng": -119.03841
  },
  {
    "id": "630015563",
    "name": "AMERICAN HOSPICE CARE, INC",
    "npi": "1033467386",
    "hcaiId": "406154204",
    "businessName": "AMERICAN HOSPICE CARE, INC",
    "contactEmail": "AMERICANHOSPICECARE@GMAIL.COM",
    "categoryName": "HOSPICE",
    "categoryCode": "HOSPICE",
    "licenseStatus": "ACTIVE",
    "inService": true,
    "licenseNumber": "550003447",
    "licenseEffectiveDate": "03/01/2024",
    "licenseExpirationDate": "02/28/2026",
    "dataDate": "10/18/2025",
    "capacity": 0,
    "address": "930 OAK STREET, SUITE B",
    "city": "BAKERSFIELD",
    "zip": "93304",
    "county": "KERN",
    "phone": "(661) 637-1159",
    "lat": 35.366427,
    "lng": -119.038464
  },
  {
    "id": "630015101",
    "name": "BAKERSFIELD OAK ST DIALYSIS",
    "npi": "1154759694",
    "hcaiId": "306154189",
    "businessName": "TOTAL RENAL CARE, INC.",
    "contactEmail": "CAL_C@DAVITA.COM",
    "categoryName": "CHRONIC DIALYSIS CLINIC",
    "categoryCode": "ESRD/CDC",
    "licenseStatus": "ACTIVE",
    "inService": true,
    "licenseNumber": "550002849",
    "licenseEffectiveDate": "03/23/2025",
    "licenseExpirationDate": "03/22/2026",
    "dataDate": "10/18/2025",
    "capacity": 24,
    "address": "422 OAK ST",
    "city": "BAKERSFIELD",
    "zip": "93304",
    "county": "KERN",
    "phone": "(661) 631-0227",
    "lat": 35.362224,
    "lng": -119.0382525
  },
  {
    "id": "630026579",
    "name": "BLESSING FOR ALL, INC.",
    "npi": null,
    "hcaiId": null,
    "businessName": "BLESSING FOR ALL, INC.",
    "contactEmail": "BLESSINGFORALLINC@YAHOO.COM",
    "categoryName": "HOME HEALTH AGENCY",
    "categoryCode": "HHA",
    "licenseStatus": "ACTIVE",
    "inService": true,
    "licenseNumber": "550009985",
    "licenseEffectiveDate": "08/05/2025",
    "licenseExpirationDate": "02/04/2026",
    "dataDate": "10/18/2025",
    "capacity": 0,
    "address": "2215 CALIFORNIA AVE",
    "city": "BAKERSFIELD",
    "zip": "93304",
    "county": "KERN",
    "phone": "(818) 445-8078",
    "lat": 35.368263,
    "lng": -119.0280105
  },
  {
    "id": "120001652",
    "name": "CARING CORNER",
    "npi": null,
    "hcaiId": null,
    "businessName": "CARING CORNER OF BAKERSFIELD, INC.",
    "contactEmail": "BRYON@CARINGCORNER.ORG",
    "categoryName": "PEDIATRIC DAY HEALTH & RESPITE CARE FACILITY",
    "categoryCode": "PDHRCF",
    "licenseStatus": "ACTIVE",
    "inService": true,
    "licenseNumber": "120000657",
    "licenseEffectiveDate": "01/28/2025",
    "licenseExpirationDate": "01/27/2026",
    "dataDate": "10/18/2025",
    "capacity": 35,
    "address": "942 WIBLE RD",
    "city": "BAKERSFIELD",
    "zip": "93304",
    "county": "KERN",
    "phone": "(661) 847-7342",
    "lat": 35.345394,
    "lng": -119.037978
  },
  {
    "id": "120000334",
    "name": "CENTRAL BAKERSFIELD COMMUNITY HEALTH CENTER",
    "npi": "1659373017",
    "hcaiId": "306154027",
    "businessName": "CLINICA SIERRA VISTA",
    "contactEmail": "SCHILLING@CLINICASIERRAVISTA.ORG",
    "categoryName": "PRIMARY CARE CLINIC",
    "categoryCode": "COMTYC",
    "licenseStatus": "ACTIVE",
    "inService": true,
    "licenseNumber": "120000205",
    "licenseEffectiveDate": "03/01/2025",
    "licenseExpirationDate": "02/28/2026",
    "dataDate": "10/18/2025",
    "capacity": 0,
    "address": "301 BRUNDAGE LN",
    "city": "BAKERSFIELD",
    "zip": "93304",
    "county": "KERN",
    "phone": "(661) 323-6086",
    "lat": 35.353296,
    "lng": -119.005443
  },
  {
    "id": "120000340",
    "name": "FAMILY HEALTH CENTER",
    "npi": "1629070461",
    "hcaiId": "306151765",
    "businessName": "CLINICA SIERRA VISTA",
    "contactEmail": "CLAUDIA.CHAVEZ@CLINICSIERRAVISTA.ORG",
    "categoryName": "PRIMARY CARE CLINIC",
    "categoryCode": "COMTYC",
    "licenseStatus": "ACTIVE",
    "inService": true,
    "licenseNumber": "120000196",
    "licenseEffectiveDate": "11/01/2025",
    "licenseExpirationDate": "10/31/2026",
    "dataDate": "10/18/2025",
    "capacity": 0,
    "address": "1611 1ST ST",
    "city": "BAKERSFIELD",
    "zip": "93304",
    "county": "KERN",
    "phone": "(661) 336-5300",
    "lat": 35.354889,
    "lng": -119.0203785
  },
  {
    "id": "630027014",
    "name": "KERN MOBILE UNIT",
    "npi": null,
    "hcaiId": null,
    "businessName": "CLINICA SIERRA VISTA",
    "contactEmail": null,
    "categoryName": "PRIMARY CARE CLINIC",
    "categoryCode": "COMTYC",
    "licenseStatus": "ACTIVE",
    "inService": true,
    "licenseNumber": "550007482",
    "licenseEffectiveDate": "10/22/2025",
    "licenseExpirationDate": "12/21/2025",
    "dataDate": "10/18/2025",
    "capacity": 0,
    "address": "301 BRUNDAGE LN",
    "city": "BAKERSFIELD",
    "zip": "93304",
    "county": "KERN",
    "phone": null,
    "lat": 35.353296,
    "lng": -119.005443
  },
  {
    "id": "120000365",
    "name": "PARKVIEW JULIAN HEALTHCARE CENTER",
    "npi": "1225545924",
    "hcaiId": "206150773",
    "businessName": "PARKVIEW JULIAN, LLC",
    "contactEmail": "ADMINISTRATOR@PARKVIEWJULIAN.COM",
    "categoryName": "SKILLED NURSING FACILITY",
    "categoryCode": "SNF",
    "licenseStatus": "ACTIVE",
    "inService": true,
    "licenseNumber": "120000163",
    "licenseEffectiveDate": "05/01/2025",
    "licenseExpirationDate": "04/30/2026",
    "dataDate": "10/18/2025",
    "capacity": 99,
    "address": "1801 JULIAN AVE",
    "city": "BAKERSFIELD",
    "zip": "93304",
    "county": "KERN",
    "phone": "(661) 831-9150",
    "lat": 35.322948,
    "lng": -119.0223
  },
  {
    "id": "120001414",
    "name": "SOUTH BAKERSFIELD COMMUNITY HEALTH CENTER",
    "npi": null,
    "hcaiId": "306154113",
    "businessName": "CLINICA SIERRA VISTA",
    "contactEmail": "GRECIA.BARRERA@CLINICASIERRAVISTA.ORG",
    "categoryName": "PRIMARY CARE CLINIC",
    "categoryCode": "FQHC/COMTYC",
    "licenseStatus": "ACTIVE",
    "inService": true,
    "licenseNumber": "120000565",
    "licenseEffectiveDate": "11/17/2025",
    "licenseExpirationDate": "11/16/2026",
    "dataDate": "10/18/2025",
    "capacity": 0,
    "address": "2400 WIBLE RD, SUITE 14",
    "city": "BAKERSFIELD",
    "zip": "93304",
    "county": "KERN",
    "phone": "(661) 635-3050",
    "lat": 35.332929,
    "lng": -119.038464
  },
  {
    "id": "630028542",
    "name": "STEVE SCHILLING MOBILE UNIT",
    "npi": null,
    "hcaiId": null,
    "businessName": "CLINICA SIERRA VISTA",
    "contactEmail": null,
    "categoryName": "PRIMARY CARE CLINIC",
    "categoryCode": "COMTYC",
    "licenseStatus": "ACTIVE",
    "inService": true,
    "licenseNumber": "550007482",
    "licenseEffectiveDate": "10/22/2025",
    "licenseExpirationDate": "12/21/2025",
    "dataDate": "10/18/2025",
    "capacity": 0,
    "address": "301 BRUNDAGE LN",
    "city": "BAKERSFIELD",
    "zip": "93304",
    "county": "KERN",
    "phone": null,
    "lat": 35.353269,
    "lng": -119.005551
  },
  {
    "id": "120000355",
    "name": "VALLEY HEALTHCARE CENTER",
    "npi": "1144911199",
    "hcaiId": "206150017",
    "businessName": "VALLEY POST-ACUTE AND REHAB LLC",
    "contactEmail": "ADMIN@VALLEYPAR.COM",
    "categoryName": "SKILLED NURSING FACILITY",
    "categoryCode": "SNF",
    "licenseStatus": "ACTIVE",
    "inService": true,
    "licenseNumber": "120000157",
    "licenseEffectiveDate": "03/29/2025",
    "licenseExpirationDate": "03/28/2026",
    "dataDate": "10/18/2025",
    "capacity": 87,
    "address": "1205 8TH ST",
    "city": "BAKERSFIELD",
    "zip": "93304",
    "county": "KERN",
    "phone": "(661) 334-2200",
    "lat": 35.363943,
    "lng": -119.015595
  },
  {
    "id": "120000840",
    "name": "WHITE LANE HOME",
    "npi": "1730804253",
    "hcaiId": null,
    "businessName": "GOOD AND WELL HOMES, INC.",
    "contactEmail": "NURSINGREGISTRY@YAHOO.COM",
    "categoryName": "INTERMEDIATE CARE FACILITY-DD/H/N/CN/IID",
    "categoryCode": "ICFDDH",
    "licenseStatus": "ACTIVE",
    "inService": true,
    "licenseNumber": "120000337",
    "licenseEffectiveDate": "04/19/2025",
    "licenseExpirationDate": "04/18/2026",
    "dataDate": "10/18/2025",
    "capacity": 6,
    "address": "5604 NICHOLAS ST",
    "city": "BAKERSFIELD",
    "zip": "93304",
    "county": "KERN",
    "phone": "(661) 397-0703",
    "lat": 35.303697,
    "lng": -119.022561
  }
]