[
  {
    "id": "120001023",
    "name": "34TH STREET COMMUNITY HEALTH CENTER",
    "npi": "1093717779",
    "hcaiId": "306154167",
    "businessName": "CLINICA SIERRA VISTA",
    "contactEmail": "LICENSING@CLINICASIERRAVISTA.ORG",
    "categoryName": "PRIMARY CARE CLINIC",
    "categoryCode": "COMTYC",
    "licenseStatus": "ACTIVE",
    "inService": true,
    "licenseNumber": "120000410",
    "licenseEffectiveDate": "11/17/2025",
    "licenseExpirationDate": "11/16/2026",
    "dataDate": "10/18/2025",
    "capacity": 0,
    "address": "2000 PHYSICIANS BLVD",
    "city": "BAKERSFIELD",
    "zip": "93301",
    "county": "KERN",
    "phone": "(661) 635-3050",
    "lat": 35.396811,
    "lng": -119.0085075
  },
  {
    "id": "630018026",
    "name": "AASTA HOSPICE",
    "npi": "1720577554",
    "hcaiId": "406151947",
    "businessName": "KERN HOSPICE CARE, INC.",
    "contactEmail": "AASTABAKERSFIELD@AASTAHEALTH.COM",
    "categoryName": "HOSPICE",
    "categoryCode": "HOSPICE",
    "licenseStatus": "ACTIVE",
    "inService": true,
    "licenseNumber": "550004998",
    "licenseEffectiveDate": "09/24/2025",
    "licenseExpirationDate": "09/23/2027",
    "dataDate": "10/18/2025",
    "capacity": 0,
    "address": "2920 F ST, SUITE I-10",
    "city": "BAKERSFIELD",
    "zip": "93301",
    "county": "KERN",
    "phone": "(661) 523-3686",
    "lat": 35.385903,
    "lng": -119.022876
  },
  {
    "id": "120000411",
    "name": "ADVENTIST HEALTH BAKERSFIELD",
    "npi": "1538157508",
    "hcaiId": "106150788",
    "businessName": "SAN JOAQUIN COMMUNITY HOSPITAL CORPORATION",
    "contactEmail": "DELEONAP@AH.ORG",
    "categoryName": "GENERAL ACUTE CARE HOSPITAL",
    "categoryCode": "GACH",
    "licenseStatus": "ACTIVE",
    "inService": true,
    "licenseNumber": "120000187",
    "licenseEffectiveDate": "06/23/2025",
    "licenseExpirationDate": "11/30/2025",
    "dataDate": "10/18/2025",
    "capacity": 253,
    "address": "2615 CHESTER AVE",
    "city": "BAKERSFIELD",
    "zip": "93301",
    "county": "KERN",
    "phone": "(661) 395-3000",
    "lat": 35.383059,
    "lng": -119.019168
  },
  {
    "id": "630013666",
    "name": "ALL KIDS DENTAL SURGERY CENTER",
    "npi": "1457643405",
    "hcaiId": "306154169",
    "businessName": "COFFEE SURGERY CENTER, LLC",
    "contactEmail": "MKASPER9@YAHOO.COM",
    "categoryName": "SURGICAL CLINIC",
    "categoryCode": "SURGC",
    "licenseStatus": "ACTIVE",
    "inService": true,
    "licenseNumber": "550002014",
    "licenseEffectiveDate": "01/23/2025",
    "licenseExpirationDate": "01/22/2026",
    "dataDate": "10/18/2025",
    "capacity": 0,
    "address": "2120 19TH ST",
    "city": "BAKERSFIELD",
    "zip": "93301",
    "county": "KERN",
    "phone": "(661) 325-5437",
    "lat": 35.37649349,
    "lng": -119.0266987
  },
  {
    "id": "630026701",
    "name": "ARARAT HOME HEALTH INC",
    "npi": null,
    "hcaiId": null,
    "businessName": "ARARAT HOME HEALTH INC",
    "contactEmail": "ARARATHOMEHEALTH@GMAIL.COM",
    "categoryName": "HOME HEALTH AGENCY",
    "categoryCode": "HHA",
    "licenseStatus": "ACTIVE",
    "inService": true,
    "licenseNumber": "550009943",
    "licenseEffectiveDate": "09/03/2025",
    "licenseExpirationDate": "03/02/2026",
    "dataDate": "10/18/2025",
    "capacity": 0,
    "address": "3535 SAN DIMAS ST, UNIT 14",
    "city": "BAKERSFIELD",
    "zip": "93301",
    "county": "KERN",
    "phone": "(323) 353-8708",
    "lat": 35.391393,
    "lng": -119.0088045
  },
  {
    "id": "630015124",
    "name": "ARARAT HOSPICE CARE, INC.",
    "npi": null,
    "hcaiId": "406154183",
    "businessName": "ARARAT HOSPICE CARE, INC.",
    "contactEmail": "ARARATHOSPICE@GMAIL.COM",
    "categoryName": "HOSPICE",
    "categoryCode": "HOSPICE",
    "licenseStatus": "ACTIVE",
    "inService": true,
    "licenseNumber": "550002821",
    "licenseEffectiveDate": "07/01/2024",
    "licenseExpirationDate": "06/30/2026",
    "dataDate": "10/18/2025",
    "capacity": 0,
    "address": "3535 SAN DIMAS ST, SUITE 12",
    "city": "BAKERSFIELD",
    "zip": "93301",
    "county": "KERN",
    "phone": "(661) 396-9000",
    "lat": 35.391393,
    "lng": -119.0088045
  },
  {
    "id": "630018675",
    "name": "BAKERSFIELD COMMUNITY HEALTH CENTER",
    "npi": null,
    "hcaiId": null,
    "businessName": "BAKERSFIELD COMMUNITY HEALTH CENTER, INC.",
    "contactEmail": "DUSTINA@BAKERSFIELD-HEALTHCARE.COM",
    "categoryName": "ADULT DAY HEALTH CARE",
    "categoryCode": "ADHC",
    "licenseStatus": "ACTIVE",
    "inService": true,
    "licenseNumber": "550005856",
    "licenseEffectiveDate": "10/21/2025",
    "licenseExpirationDate": "10/20/2026",
    "dataDate": "10/18/2025",
    "capacity": 0,
    "address": "1801 OAK ST",
    "city": "BAKERSFIELD",
    "zip": "93301",
    "county": "KERN",
    "phone": "(661) 215-8218",
    "lat": 35.375409,
    "lng": -119.039274
  },
  {
    "id": "630015818",
    "name": "BAKERSFIELD COMMUNITY HOME HEALTH",
    "npi": "1700281037",
    "hcaiId": "406154198",
    "businessName": "D.A. HEALTH CARE SERVICES",
    "contactEmail": "INFO@BAKERSFIELDHOMEHEALTH.COM",
    "categoryName": "HOME HEALTH AGENCY",
    "categoryCode": "HHA",
    "licenseStatus": "ACTIVE",
    "inService": true,
    "licenseNumber": "550003247",
    "licenseEffectiveDate": "03/08/2025",
    "licenseExpirationDate": "03/07/2026",
    "dataDate": "10/18/2025",
    "capacity": 0,
    "address": "1811 OAK ST, SUITE 160B",
    "city": "BAKERSFIELD",
    "zip": "93301",
    "county": "KERN",
    "phone": "(661) 348-4005",
    "lat": 35.375625,
    "lng": -119.039085
  },
  {
    "id": "630013836",
    "name": "BAKERSFIELD COMMUNITY HOSPICE, INC.",
    "npi": "1154682987",
    "hcaiId": "406154171",
    "businessName": "BAKERSFIELD COMMUNITY HOSPICE, INC.",
    "contactEmail": "ARMENK@BAKERSFIELDHOSPICE.COM",
    "categoryName": "HOSPICE",
    "categoryCode": "HOSPICE",
    "licenseStatus": "ACTIVE",
    "inService": true,
    "licenseNumber": "550002126",
    "licenseEffectiveDate": "11/02/2024",
    "licenseExpirationDate": "11/01/2026",
    "dataDate": "10/18/2025",
    "capacity": 0,
    "address": "1811 OAK ST, SUITE 160",
    "city": "BAKERSFIELD",
    "zip": "93301",
    "county": "KERN",
    "phone": "(661) 327-9800",
    "lat": 35.375625,
    "lng": -119.039085
  },
  {
    "id": "120000338",
    "name": "BAKERSFIELD MEMORIAL HOSPITAL",
    "npi": "1467538520",
    "hcaiId": "106150722",
    "businessName": "BAKERSFIELD MEMORIAL HOSPITAL",
    "contactEmail": "TERRI.CHURCH@COMMONSPIRIT.ORG",
    "categoryName": "GENERAL ACUTE CARE HOSPITAL",
    "categoryCode": "GACH",
    "licenseStatus": "ACTIVE",
    "inService": true,
    "licenseNumber": "120000181",
    "licenseEffectiveDate": "11/01/2025",
    "licenseExpirationDate": "10/31/2026",
    "dataDate": "10/18/2025",
    "capacity": 385,
    "address": "420 34TH ST",
    "city": "BAKERSFIELD",
    "zip": "93301",
    "county": "KERN",
    "phone": "(661) 541-0005",
    "lat": 35.391969,
    "lng": -119.006847
  },
  {
    "id": "120001649",
    "name": "BAKERSFIELD PREGNANCY CENTER",
    "npi": null,
    "hcaiId": "306154153",
    "businessName": "BAKERSFIELD CRISIS PREGNANCY CENTER",
    "contactEmail": "DIRECTOR@WEHELPYOU.ORG",
    "categoryName": "PRIMARY CARE CLINIC",
    "categoryCode": "FREEC",
    "licenseStatus": "ACTIVE",
    "inService": true,
    "licenseNumber": "120000655",
    "licenseEffectiveDate": "02/26/2025",
    "licenseExpirationDate": "02/25/2026",
    "dataDate": "10/18/2025",
    "capacity": 0,
    "address": "1801 18TH ST",
    "city": "BAKERSFIELD",
    "zip": "93301",
    "county": "KERN",
    "phone": "(661) 326-1915",
    "lat": 35.375031,
    "lng": -119.022714
  },
  {
    "id": "630012554",
    "name": "BAKERSFIELD SURGERY CENTER, LLC",
    "npi": "1003976218",
    "hcaiId": null,
    "businessName": null,
    "contactEmail": null,
    "categoryName": "SURGICAL CLINIC",
    "categoryCode": "ASC",
    "licenseStatus": null,
    "inService": null,
    "licenseNumber": null,
    "licenseEffectiveDate": null,
    "licenseExpirationDate": null,
    "dataDate": "10/18/2025",
    "capacity": 0,
    "address": "2120 19TH ST",
    "city": "BAKERSFIELD",
    "zip": "93301",
    "county": "KERN",
    "phone": "(661) 638-0620",
    "lat": 35.376552,
    "lng": -119.0266875
  },
  {
    "id": "630019950",
    "name": "BIENESTAR COMMUNITY CLINIC",
    "npi": null,
    "hcaiId": "306150623",
    "businessName": "BIENESTAR COMMUNITY CLINIC",
    "contactEmail": "INFO@BIENESTARCLINIC.ORG",
    "categoryName": "PRIMARY CARE CLINIC",
    "categoryCode": "COMTYC",
    "licenseStatus": "ACTIVE",
    "inService": true,
    "licenseNumber": "550006124",
    "licenseEffectiveDate": "03/09/2025",
    "licenseExpirationDate": "03/08/2026",
    "dataDate": "10/18/2025",
    "capacity": 0,
    "address": "620 34TH ST",
    "city": "BAKERSFIELD",
    "zip": "93301",
    "county": "KERN",
    "phone": "(661) 703-6359",
    "lat": 35.39075798,
    "lng": -119.009148
  },
  {
    "id": "630019254",
    "name": "CENTRAL VALLEY HOME HEALTH AND PALLIATIVE CARE",
    "npi": null,
    "hcaiId": "406156540",
    "businessName": "CAREMAX HEALTH CARE, INC.",
    "contactEmail": "CENTRALVALLEYHOMEHEALTH@GMAIL.COM",
    "categoryName": "HOME HEALTH AGENCY",
    "categoryCode": "HHA",
    "licenseStatus": "ACTIVE",
    "inService": true,
    "licenseNumber": "550005642",
    "licenseEffectiveDate": "08/12/2025",
    "licenseExpirationDate": "08/11/2026",
    "dataDate": "10/18/2025",
    "capacity": 0,
    "address": "1522 18TH ST, SUITE 219",
    "city": "BAKERSFIELD",
    "zip": "93301",
    "county": "KERN",
    "phone": "(661) 404-4723",
    "lat": 35.37551201,
    "lng": -119.019685
  },
  {
    "id": "630020387",
    "name": "CENTRAL VALLEY SURGICAL CENTER, LLC",
    "npi": "1073094660",
    "hcaiId": null,
    "businessName": null,
    "contactEmail": "GACHARYA@GENSESIMM.COM",
    "categoryName": "SURGICAL CLINIC",
    "categoryCode": "ASC",
    "licenseStatus": null,
    "inService": null,
    "licenseNumber": null,
    "licenseEffectiveDate": null,
    "licenseExpirationDate": null,
    "dataDate": "10/18/2025",
    "capacity": 0,
    "address": "2120 19TH ST",
    "city": "BAKERSFIELD",
    "zip": "93301",
    "county": "KERN",
    "phone": "(661) 748-1905",
    "lat": 35.376552,
    "lng": -119.0266875
  },
  {
    "id": "070001139",
    "name": "CHATEAU D'BAKERSFIELD",
    "npi": null,
    "hcaiId": null,
    "businessName": "NATIONAL MENTOR HEALTHCARE, LLC",
    "contactEmail": "GLORIA.DELACERDA@SEVITAHEALTH.COM",
    "categoryName": "ADULT DAY HEALTH CARE",
    "categoryCode": "ADHC",
    "licenseStatus": "ACTIVE",
    "inService": true,
    "licenseNumber": "070000488",
    "licenseEffectiveDate": "02/01/2025",
    "licenseExpirationDate": "01/31/2026",
    "dataDate": "10/18/2025",
    "capacity": 0,
    "address": "824 18TH ST",
    "city": "BAKERSFIELD",
    "zip": "93301",
    "county": "KERN",
    "phone": "(661) 322-4085",
    "lat": 35.375508,
    "lng": -119.0115225
  },
  {
    "id": "630017254",
    "name": "COACH NURSING, INC.",
    "npi": null,
    "hcaiId": "406151382",
    "businessName": "COACH NURSING, INC.",
    "contactEmail": "TONI@COACHNURSING.COM",
    "categoryName": "HOME HEALTH AGENCY",
    "categoryCode": "HHA",
    "licenseStatus": "ACTIVE",
    "inService": true,
    "licenseNumber": "550004347",
    "licenseEffectiveDate": "08/20/2025",
    "licenseExpirationDate": "08/19/2026",
    "dataDate": "10/18/2025",
    "capacity": 0,
    "address": "930 TRUXTUN AVE, SUITE 211",
    "city": "BAKERSFIELD",
    "zip": "93301",
    "county": "KERN",
    "phone": "(661) 428-1567",
    "lat": 35.373591,
    "lng": -119.0127015
  },
  {
    "id": "630023470",
    "name": "COMPREHENSIVE CARE CENTER",
    "npi": null,
    "hcaiId": "306150644",
    "businessName": "CLINICA SIERRA VISTA",
    "contactEmail": "LICENSING@CLINICASIERRAVISTA.ORG",
    "categoryName": "PRIMARY CARE CLINIC",
    "categoryCode": "COMTYC",
    "licenseStatus": "ACTIVE",
    "inService": true,
    "licenseNumber": "550007482",
    "licenseEffectiveDate": "10/22/2025",
    "licenseExpirationDate": "12/21/2025",
    "dataDate": "10/18/2025",
    "capacity": 0,
    "address": "625 34TH ST, SUITE 100 & 200",
    "city": "BAKERSFIELD",
    "zip": "93301",
    "county": "KERN",
    "phone": "(661) 635-3050",
    "lat": 35.39042288,
    "lng": -119.0091206
  },
  {
    "id": "630016993",
    "name": "DIVINITY HOSPICE",
    "npi": "1780134981",
    "hcaiId": "406153835",
    "businessName": "DIVINITY HOSPICE",
    "contactEmail": "AMASIHI@DIVINITYHOSPICE.COM",
    "categoryName": "HOSPICE",
    "categoryCode": "HOSPICE",
    "licenseStatus": "ACTIVE",
    "inService": true,
    "licenseNumber": "550004004",
    "licenseEffectiveDate": "10/28/2025",
    "licenseExpirationDate": "10/27/2027",
    "dataDate": "10/18/2025",
    "capacity": 0,
    "address": "2130 CHESTER AVE, SUITE 102",
    "city": "BAKERSFIELD",
    "zip": "93301",
    "county": "KERN",
    "phone": "(866) 987-5373",
    "lat": 35.378892,
    "lng": -119.018358
  },
  {
    "id": "630018797",
    "name": "FRIENDLY NURSES HOME HEALTH CARE, INC.",
    "npi": null,
    "hcaiId": "406155657",
    "businessName": "FRIENDLY NURSES HOME HEALTH CARE, INC.",
    "contactEmail": "HELLO@MYFRIENDLYNURSES.COM",
    "categoryName": "HOME HEALTH AGENCY",
    "categoryCode": "HHA",
    "licenseStatus": "ACTIVE",
    "inService": true,
    "licenseNumber": "550006561",
    "licenseEffectiveDate": "07/12/2025",
    "licenseExpirationDate": "07/11/2026",
    "dataDate": "10/18/2025",
    "capacity": 0,
    "address": "1707 EYE ST, SUITE 206",
    "city": "BAKERSFIELD",
    "zip": "93301",
    "county": "KERN",
    "phone": "(661) 398-6939",
    "lat": 35.374644,
    "lng": -119.0202795
  },
  {
    "id": "630018593",
    "name": "GARDEN OF ORCHIDS, INC.",
    "npi": null,
    "hcaiId": "406157779",
    "businessName": "GARDEN OF ORCHIDS, INC.",
    "contactEmail": "GARDENOFORCHIDSHH@GMAIL.COM",
    "categoryName": "HOME HEALTH AGENCY",
    "categoryCode": "HHA",
    "licenseStatus": "ACTIVE",
    "inService": true,
    "licenseNumber": "550005130",
    "licenseEffectiveDate": "10/07/2025",
    "licenseExpirationDate": "12/10/2025",
    "dataDate": "10/18/2025",
    "capacity": 0,
    "address": "1522 18TH ST, SUITE 213/214",
    "city": "BAKERSFIELD",
    "zip": "93301",
    "county": "KERN",
    "phone": "(661) 903-8825",
    "lat": 35.37551201,
    "lng": -119.019685
  },
  {
    "id": "630020919",
    "name": "GUARDIAN HOSPICE",
    "npi": null,
    "hcaiId": "406193951",
    "businessName": "SAVIORS OF HOPE HOSPICE",
    "contactEmail": "GUARDIANHOSPICECARE@GMAIL.COM",
    "categoryName": "HOSPICE",
    "categoryCode": "HOSPICE",
    "licenseStatus": "ACTIVE",
    "inService": true,
    "licenseNumber": "550007406",
    "licenseEffectiveDate": "10/29/2023",
    "licenseExpirationDate": "10/28/2025",
    "dataDate": "10/18/2025",
    "capacity": 0,
    "address": "1527 19TH ST, SUITE 220",
    "city": "BAKERSFIELD",
    "zip": "93301",
    "county": "KERN",
    "phone": "(661) 310-3500",
    "lat": 35.375967,
    "lng": -119.01978
  },
  {
    "id": "630001481",
    "name": "HEALING ARTS SURGERY CENTER",
    "npi": "1639375108",
    "hcaiId": "306154140",
    "businessName": null,
    "contactEmail": "WWW.HASC2008@G.MAIL.COM",
    "categoryName": "SURGICAL CLINIC",
    "categoryCode": "ASC",
    "licenseStatus": "INACTIVE - CAPEN DECISION",
    "inService": false,
    "licenseNumber": "550000439",
    "licenseEffectiveDate": "02/05/2008",
    "licenseExpirationDate": "11/04/2008",
    "dataDate": "10/18/2025",
    "capacity": 0,
    "address": "2700 F ST, SUITE 101",
    "city": "BAKERSFIELD",
    "zip": "93301",
    "county": "KERN",
    "phone": "(661) 322-4325",
    "lat": 35.384184,
    "lng": -119.0231685
  },
  {
    "id": "630018628",
    "name": "KERN SURGERY CENTER, LLC",
    "npi": "1144773490",
    "hcaiId": null,
    "businessName": null,
    "contactEmail": null,
    "categoryName": "SURGICAL CLINIC",
    "categoryCode": "ASC",
    "licenseStatus": null,
    "inService": null,
    "licenseNumber": null,
    "licenseEffectiveDate": null,
    "licenseExpirationDate": null,
    "dataDate": "10/18/2025",
    "capacity": 0,
    "address": "2323 16TH ST, SUITE 507",
    "city": "BAKERSFIELD",
    "zip": "93301",
    "county": "KERN",
    "phone": "(661) 395-1335",
    "lat": 35.37207,
    "lng": -119.028627
  },
  {
    "id": "120000404",
    "name": "MERCY HOSPITAL",
    "npi": "1104981661",
    "hcaiId": "106150761",
    "businessName": "DIGNITY HEALTH",
    "contactEmail": "SIMON.RATLIFF@COMMONSPIRIT.ORG",
    "categoryName": "GENERAL ACUTE CARE HOSPITAL",
    "categoryCode": "GACH",
    "licenseStatus": "ACTIVE",
    "inService": true,
    "licenseNumber": "120000184",
    "licenseEffectiveDate": "11/30/2024",
    "licenseExpirationDate": "11/29/2025",
    "dataDate": "10/18/2025",
    "capacity": 144,
    "address": "2215 TRUXTUN AVE",
    "city": "BAKERSFIELD",
    "zip": "93301",
    "county": "KERN",
    "phone": "(661) 632-5537",
    "lat": 35.372853,
    "lng": -119.0277045
  },
  {
    "id": "120000419",
    "name": "MERCY- MEMORIAL HOME HEALTH",
    "npi": "1609926765",
    "hcaiId": "406154151",
    "businessName": "DIGNITY HEALTH",
    "contactEmail": "SHEREE.JOHNSON@COMMONSPIRIT.ORG",
    "categoryName": "HOME HEALTH AGENCY",
    "categoryCode": "HHA",
    "licenseStatus": "ACTIVE",
    "inService": true,
    "licenseNumber": "120000192",
    "licenseEffectiveDate": "01/15/2025",
    "licenseExpirationDate": "01/14/2026",
    "dataDate": "10/18/2025",
    "capacity": 0,
    "address": "1600 D STREET, SUITE 202",
    "city": "BAKERSFIELD",
    "zip": "93301",
    "county": "KERN",
    "phone": "(661) 632-5537",
    "lat": 35.372682,
    "lng": -119.025612
  },
  {
    "id": "120000492",
    "name": "MILLENNIUM SURGERY CENTER, INC.",
    "npi": "1508965401",
    "hcaiId": "306154106",
    "businessName": null,
    "contactEmail": "KMA@MSCISURGERY.COM",
    "categoryName": "SURGICAL CLINIC",
    "categoryCode": "ASC",
    "licenseStatus": "INACTIVE - CAPEN DECISION",
    "inService": false,
    "licenseNumber": "120000551",
    "licenseEffectiveDate": "11/15/2007",
    "licenseExpirationDate": "11/14/2008",
    "dataDate": "10/18/2025",
    "capacity": 0,
    "address": "3850 SAN DIMAS ST",
    "city": "BAKERSFIELD",
    "zip": "93301",
    "county": "KERN",
    "phone": "(661) 663-3700",
    "lat": 35.395164,
    "lng": -119.0079045
  },
  {
    "id": "630020263",
    "name": "OMNI FAMILY HEALTH",
    "npi": null,
    "hcaiId": null,
    "businessName": "OMNI FAMILY HEALTH",
    "contactEmail": null,
    "categoryName": "PRIMARY CARE CLINIC",
    "categoryCode": "COMTYC",
    "licenseStatus": "ACTIVE",
    "inService": true,
    "licenseNumber": "550002960",
    "licenseEffectiveDate": "01/28/2025",
    "licenseExpirationDate": "01/27/2026",
    "dataDate": "10/18/2025",
    "capacity": 0,
    "address": "2811 H ST",
    "city": "BAKERSFIELD",
    "zip": "93301",
    "county": "KERN",
    "phone": null,
    "lat": 35.385291,
    "lng": -119.0214945
  },
  {
    "id": "120000853",
    "name": "OPTIMAL HOME HEALTH-PARENT",
    "npi": "1063493161",
    "hcaiId": "406154045",
    "businessName": "OPTIMAL HOME HEALTH CARE, INC.",
    "contactEmail": "AJOYK@BERKELEY.EDU",
    "categoryName": "HOME HEALTH AGENCY",
    "categoryCode": "HHA",
    "licenseStatus": "ACTIVE",
    "inService": true,
    "licenseNumber": "120000345",
    "licenseEffectiveDate": "01/01/2025",
    "licenseExpirationDate": "12/31/2025",
    "dataDate": "10/18/2025",
    "capacity": 0,
    "address": "1227 CHESTER AVE",
    "city": "BAKERSFIELD",
    "zip": "93301",
    "county": "KERN",
    "phone": "(661) 410-4000",
    "lat": 35.369208,
    "lng": -119.0191995
  },
  {
    "id": "120000423",
    "name": "PLANNED PARENTHOOD MAR MONTE - BAKERSFIELD HEALTH CENTER",
    "npi": "1962456558",
    "hcaiId": "306154180",
    "businessName": "PLANNED PARENTHOOD MAR MONTE, INC.",
    "contactEmail": "SERVICEDD@PPMARMONTE.ORG",
    "categoryName": "PRIMARY CARE CLINIC",
    "categoryCode": "COMTYC",
    "licenseStatus": "ACTIVE",
    "inService": true,
    "licenseNumber": "120000202",
    "licenseEffectiveDate": "11/29/2025",
    "licenseExpirationDate": "11/28/2026",
    "dataDate": "10/18/2025",
    "capacity": 0,
    "address": "2633 16TH ST",
    "city": "BAKERSFIELD",
    "zip": "93301",
    "county": "KERN",
    "phone": "(408) 796-3695",
    "lat": 35.37216,
    "lng": -119.0328525
  },
  {
    "id": "630024003",
    "name": "PRIMAMED HEALTH SERVICES INC.",
    "npi": null,
    "hcaiId": "406195889",
    "businessName": "PRIMAMED HEALTH SERVICES INC.",
    "contactEmail": "PRIMAMEDHEALTH@GMAIL.COM",
    "categoryName": "HOME HEALTH AGENCY",
    "categoryCode": "HHA",
    "licenseStatus": "ACTIVE",
    "inService": true,
    "licenseNumber": "550008082",
    "licenseEffectiveDate": "07/29/2025",
    "licenseExpirationDate": "07/18/2026",
    "dataDate": "10/18/2025",
    "capacity": 0,
    "address": "1234 CHESTER AVE, SUITE 103",
    "city": "BAKERSFIELD",
    "zip": "93301",
    "county": "KERN",
    "phone": "(626) 389-1616",
    "lat": 35.36939955,
    "lng": -119.0185258
  },
  {
    "id": "120000322",
    "name": "SAN JOAQUIN NURSING CENTER",
    "npi": "1417499963",
    "hcaiId": "206150686",
    "businessName": "KERN VALLEYIDENCE OPCO, LLC",
    "contactEmail": "LYNETTE.KERR@PACS.COM",
    "categoryName": "SKILLED NURSING FACILITY",
    "categoryCode": "SNF",
    "licenseStatus": "ACTIVE",
    "inService": true,
    "licenseNumber": "120000149",
    "licenseEffectiveDate": "12/14/2024",
    "licenseExpirationDate": "12/13/2025",
    "dataDate": "10/18/2025",
    "capacity": 99,
    "address": "3601 SAN DIMAS ST",
    "city": "BAKERSFIELD",
    "zip": "93301",
    "county": "KERN",
    "phone": "(559) 997-9563",
    "lat": 35.392905,
    "lng": -119.008836
  },
  {
    "id": "630026180",
    "name": "SANKOFA COMPREHENSIVE HOME HEALTH SERVICES, LLC",
    "npi": null,
    "hcaiId": null,
    "businessName": null,
    "contactEmail": "SANKOFACHH@YAHOO.COM",
    "categoryName": "HOME HEALTH AGENCY",
    "categoryCode": "HHA",
    "licenseStatus": null,
    "inService": null,
    "licenseNumber": null,
    "licenseEffectiveDate": null,
    "licenseExpirationDate": null,
    "dataDate": "10/18/2025",
    "capacity": 0,
    "address": "1705 27TH ST",
    "city": "BAKERSFIELD",
    "zip": "93301",
    "county": "KERN",
    "phone": "(661) 866-1696",
    "lat": 35.383662,
    "lng": -119.0215125
  },
  {
    "id": "630020624",
    "name": "SOLACE HOME HEALTH CARE",
    "npi": null,
    "hcaiId": "406153124",
    "businessName": "SOLACE HEALTHCARE, INC.",
    "contactEmail": "SONIA@SOLACEHC.COM",
    "categoryName": "HOME HEALTH AGENCY",
    "categoryCode": "HHA",
    "licenseStatus": "ACTIVE",
    "inService": true,
    "licenseNumber": "550006121",
    "licenseEffectiveDate": "03/11/2025",
    "licenseExpirationDate": "03/10/2026",
    "dataDate": "10/18/2025",
    "capacity": 0,
    "address": "1701 WESTWIND DR, SUITE 122",
    "city": "BAKERSFIELD",
    "zip": "93301",
    "county": "KERN",
    "phone": "(661) 843-7636",
    "lat": 35.37423,
    "lng": -119.0434995
  },
  {
    "id": "630020635",
    "name": "SOLACE HOSPICE CARE",
    "npi": null,
    "hcaiId": "406153535",
    "businessName": "SOLACE HEALTHCARE, INC.",
    "contactEmail": "INFO@SOLACEHC.COM",
    "categoryName": "HOSPICE",
    "categoryCode": "HOSPICE",
    "licenseStatus": "ACTIVE",
    "inService": true,
    "licenseNumber": "550006542",
    "licenseEffectiveDate": "07/19/2025",
    "licenseExpirationDate": "07/18/2027",
    "dataDate": "10/18/2025",
    "capacity": 0,
    "address": "1701 WESTWIND DR, SUITE 121",
    "city": "BAKERSFIELD",
    "zip": "93301",
    "county": "KERN",
    "phone": "(661) 843-7787",
    "lat": 35.37423,
    "lng": -119.0434995
  },
  {
    "id": "630019379",
    "name": "THE DOCTOR'S CHOICE HOME HEALTH CARE INC.",
    "npi": null,
    "hcaiId": "406156288",
    "businessName": "THE DOCTOR'S CHOICE HOME HEALTH CARE INC.",
    "contactEmail": "DOCTORSCHOICEHM@GMAIL.COM",
    "categoryName": "HOME HEALTH AGENCY",
    "categoryCode": "HHA",
    "licenseStatus": "ACTIVE",
    "inService": true,
    "licenseNumber": "550006732",
    "licenseEffectiveDate": "07/20/2025",
    "licenseExpirationDate": "07/19/2026",
    "dataDate": "10/18/2025",
    "capacity": 0,
    "address": "3434 TRUXTUN AVE, SUITE 270",
    "city": "BAKERSFIELD",
    "zip": "93301",
    "county": "KERN",
    "phone": "(661) 777-2002",
    "lat": 35.37395758,
    "lng": -119.0419259
  },
  {
    "id": "630019381",
    "name": "THE DOCTOR'S CHOICE HOSPICE HEALTH CARE INC.",
    "npi": null,
    "hcaiId": null,
    "businessName": "THE DOCTOR'S CHOICE HOSPICE HEALTH CARE INC.",
    "contactEmail": "DOCTORSCHOICEHP@GMAIL.COM",
    "categoryName": "HOSPICE",
    "categoryCode": "HOSPICE",
    "licenseStatus": "ACTIVE",
    "inService": true,
    "licenseNumber": "550005963",
    "licenseEffectiveDate": "12/05/2024",
    "licenseExpirationDate": "12/04/2026",
    "dataDate": "10/18/2025",
    "capacity": 0,
    "address": "3434 TRUXTUN AVE, SUITE 271",
    "city": "BAKERSFIELD",
    "zip": "93301",
    "county": "KERN",
    "phone": "(661) 528-1010",
    "lat": 35.37424098,
    "lng": -119.042222
  },
  {
    "id": "120000320",
    "name": "THE ORCHARDS POST-ACUTE",
    "npi": "1467076109",
    "hcaiId": "206150682",
    "businessName": "MALIBU BEACH HOLDINGS, LLC",
    "contactEmail": "JADEN.HOLLINGSHEAD@THEORCHARDS.COM",
    "categoryName": "SKILLED NURSING FACILITY",
    "categoryCode": "SNF",
    "licenseStatus": "ACTIVE",
    "inService": true,
    "licenseNumber": "120000147",
    "licenseEffectiveDate": "06/06/2025",
    "licenseExpirationDate": "06/05/2026",
    "dataDate": "10/18/2025",
    "capacity": 150,
    "address": "730 34TH ST",
    "city": "BAKERSFIELD",
    "zip": "93301",
    "county": "KERN",
    "phone": "(702) 449-2201",
    "lat": 35.390997,
    "lng": -119.0098665
  },
  {
    "id": "630023469",
    "name": "THV LIGHTHOUSE HOME HEALTH",
    "npi": null,
    "hcaiId": "406155237",
    "businessName": "THV CONSULTANT, INC",
    "contactEmail": "INFO@THVLIGHTHOUSE.COM",
    "categoryName": "HOME HEALTH AGENCY",
    "categoryCode": "HHA",
    "licenseStatus": "ACTIVE",
    "inService": true,
    "licenseNumber": "550007920",
    "licenseEffectiveDate": "03/31/2025",
    "licenseExpirationDate": "03/30/2026",
    "dataDate": "10/18/2025",
    "capacity": 0,
    "address": "622 34TH ST",
    "city": "BAKERSFIELD",
    "zip": "93301",
    "county": "KERN",
    "phone": "(661) 703-6359",
    "lat": 35.390745,
    "lng": -119.009268
  },
  {
    "id": "630017084",
    "name": "UNITED HOME HEALTH CARE LLC",
    "npi": "1639627433",
    "hcaiId": "406150268",
    "businessName": "UNITED HOME HEALTH CARE LLC",
    "contactEmail": "INFO@MYUNITEDHOME.COM",
    "categoryName": "HOME HEALTH AGENCY",
    "categoryCode": "HHA",
    "licenseStatus": "ACTIVE",
    "inService": true,
    "licenseNumber": "550004116",
    "licenseEffectiveDate": "12/18/2024",
    "licenseExpirationDate": "12/17/2025",
    "dataDate": "10/18/2025",
    "capacity": 0,
    "address": "1717 30TH STREET",
    "city": "BAKERSFIELD",
    "zip": "93301",
    "county": "KERN",
    "phone": "(661) 493-0373",
    "lat": 35.386299,
    "lng": -119.02194
  },
  {
    "id": "630026984",
    "name": "VITAS HEALTHCARE CORPORATION OF CALIFORNIA",
    "npi": null,
    "hcaiId": null,
    "businessName": "VITAS HEALTHCARE CORPORATION OF CALIFORNIA",
    "contactEmail": "RICKAY.HIDALGO@VITAS.COM",
    "categoryName": "HOSPICE",
    "categoryCode": "HOSPICE",
    "licenseStatus": "ACTIVE",
    "inService": true,
    "licenseNumber": "550009304",
    "licenseEffectiveDate": "07/31/2024",
    "licenseExpirationDate": "07/30/2026",
    "dataDate": "10/18/2025",
    "capacity": 0,
    "address": "1701 G ST, SUITE 200",
    "city": "BAKERSFIELD",
    "zip": "93301",
    "county": "KERN",
    "phone": "(714) 921-2273",
    "lat": 35.374626,
    "lng": -119.022822
  }
]