[
  {
    "id": "630015949",
    "name": "BAKER STREET VILLAGE COMMUNITY HEALTH CENTER",
    "npi": "1205222544",
    "hcaiId": "306154199",
    "businessName": "CLINICA SIERRA VISTA",
    "contactEmail": "CLAUDIA.CHAVEZ@CLINICASIERRAVISTA.ORG",
    "categoryName": "PRIMARY CARE CLINIC",
    "categoryCode": "COMTYC",
    "licenseStatus": "ACTIVE",
    "inService": true,
    "licenseNumber": "550007482",
    "licenseEffectiveDate": "10/22/2025",
    "licenseExpirationDate": "12/21/2025",
    "dataDate": "10/18/2025",
    "capacity": 0,
    "address": "1015 BAKER STREET, SUITE 4",
    "city": "BAKERSFIELD",
    "zip": "93305",
    "county": "KERN",
    "phone": "(559) 457-5800",
    "lat": 35.3795723,
    "lng": -118.994222
  },
  {
    "id": "120000331",
    "name": "HEIGHT STREET SKILLED CARE",
    "npi": "1467830836",
    "hcaiId": "206150698",
    "businessName": "HEIGHT STREET SKILLED CARE, LLC",
    "contactEmail": "CRASMUSSEN@HEIGHTST.COM",
    "categoryName": "SKILLED NURSING FACILITY",
    "categoryCode": "SNF",
    "licenseStatus": "ACTIVE",
    "inService": true,
    "licenseNumber": "120000162",
    "licenseEffectiveDate": "08/23/2025",
    "licenseExpirationDate": "08/07/2026",
    "dataDate": "10/18/2025",
    "capacity": 198,
    "address": "1611 HEIGHT ST",
    "city": "BAKERSFIELD",
    "zip": "93305",
    "county": "KERN",
    "phone": "(818) 749-9101",
    "lat": 35.393544,
    "lng": -118.9735965
  },
  {
    "id": "630019661",
    "name": "NEUROSCIENCE HEALTH CENTER",
    "npi": "1063496651",
    "hcaiId": null,
    "businessName": "PACIFIC CENTRAL COAST HEALTH CENTERS",
    "contactEmail": null,
    "categoryName": "PRIMARY CARE CLINIC",
    "categoryCode": "COMTYC",
    "licenseStatus": "ACTIVE",
    "inService": true,
    "licenseNumber": "050000415",
    "licenseEffectiveDate": "11/21/2024",
    "licenseExpirationDate": "11/20/2025",
    "dataDate": "10/18/2025",
    "capacity": 0,
    "address": "3807 UNION AVE, SUITE B",
    "city": "BAKERSFIELD",
    "zip": "93305",
    "county": "KERN",
    "phone": null,
    "lat": 35.394057,
    "lng": -119.003706
  }
]