[
  {
    "id": "120000318",
    "name": "EAST BAKERSFIELD COMMUNITY HEALTH CENTER",
    "npi": "1861494338",
    "hcaiId": "306150057",
    "businessName": "CLINICA SIERRA VISTA",
    "contactEmail": "LICENSING@CLINICASIERRAVISTA.ORG",
    "categoryName": "PRIMARY CARE CLINIC",
    "categoryCode": "COMTYC",
    "licenseStatus": "ACTIVE",
    "inService": true,
    "licenseNumber": "120000205",
    "licenseEffectiveDate": "03/01/2025",
    "licenseExpirationDate": "02/28/2026",
    "dataDate": "10/18/2025",
    "capacity": 0,
    "address": "815 DR. MARTIN LUTHER KING JR. BLVD",
    "city": "BAKERSFIELD",
    "zip": "93307",
    "county": "KERN",
    "phone": "(661) 635-3050",
    "lat": 35.365491,
    "lng": -118.984851
  },
  {
    "id": "630013077",
    "name": "EAST BAKERSFIELD DENTAL CENTER",
    "npi": "1942508270",
    "hcaiId": "306154163",
    "businessName": "CLINICA SIERRA VISTA",
    "contactEmail": "GRECIA.BARRERA@CLINICASIERRAVISTA.ORG",
    "categoryName": "PRIMARY CARE CLINIC",
    "categoryCode": "COMTYC",
    "licenseStatus": "ACTIVE",
    "inService": true,
    "licenseNumber": "550007482",
    "licenseEffectiveDate": "10/22/2025",
    "licenseExpirationDate": "12/21/2025",
    "dataDate": "10/18/2025",
    "capacity": 0,
    "address": "1125 E. CALIFORNIA AVENUE",
    "city": "BAKERSFIELD",
    "zip": "93307",
    "county": "KERN",
    "phone": "(661) 635-3050",
    "lat": 35.368128,
    "lng": -118.9880595
  },
  {
    "id": "630014366",
    "name": "GREENFIELD COMMUNITY HEALTH CENTER",
    "npi": "1790128536",
    "hcaiId": "306150749",
    "businessName": "CLINICA SIERRA VISTA",
    "contactEmail": "LICENSING@CLINICASIERRAVISTA.ORG",
    "categoryName": "PRIMARY CARE CLINIC",
    "categoryCode": "COMTYC",
    "licenseStatus": "ACTIVE",
    "inService": true,
    "licenseNumber": "550008200",
    "licenseEffectiveDate": "10/27/2025",
    "licenseExpirationDate": "10/26/2026",
    "dataDate": "10/18/2025",
    "capacity": 0,
    "address": "9001 S H ST",
    "city": "BAKERSFIELD",
    "zip": "93307",
    "county": "KERN",
    "phone": null,
    "lat": 35.272899,
    "lng": -119.021814
  },
  {
    "id": "120000838",
    "name": "NICHOLAS HOME",
    "npi": "1295462794",
    "hcaiId": null,
    "businessName": "GOOD AND WELL HOMES, INC.",
    "contactEmail": "NURSINGREGISTRY@YAHOO.COM",
    "categoryName": "INTERMEDIATE CARE FACILITY-DD/H/N/CN/IID",
    "categoryCode": "ICFDDH",
    "licenseStatus": "ACTIVE",
    "inService": true,
    "licenseNumber": "120000336",
    "licenseEffectiveDate": "04/19/2025",
    "licenseExpirationDate": "04/18/2026",
    "dataDate": "10/18/2025",
    "capacity": 6,
    "address": "7014 SHIRLEY LN",
    "city": "BAKERSFIELD",
    "zip": "93307",
    "county": "KERN",
    "phone": "(661) 556-4068",
    "lat": 35.343765,
    "lng": -118.9262745
  },
  {
    "id": "630020264",
    "name": "OMNI FAMILY HEALTH",
    "npi": null,
    "hcaiId": null,
    "businessName": "OMNI FAMILY HEALTH",
    "contactEmail": null,
    "categoryName": "PRIMARY CARE CLINIC",
    "categoryCode": "COMTYC",
    "licenseStatus": "ACTIVE",
    "inService": true,
    "licenseNumber": "550002960",
    "licenseEffectiveDate": "01/28/2025",
    "licenseExpirationDate": "01/27/2026",
    "dataDate": "10/18/2025",
    "capacity": 0,
    "address": "1451 WHITE LN",
    "city": "BAKERSFIELD",
    "zip": "93307",
    "county": "KERN",
    "phone": "(661) 459-1900",
    "lat": 35.31708,
    "lng": -119.019096
  },
  {
    "id": "630027646",
    "name": "OMNI FAMILY HEALTH",
    "npi": null,
    "hcaiId": null,
    "businessName": "OMNI FAMILY HEALTH",
    "contactEmail": "LICENSING@OMNIFAMILYHEALTH.ORG",
    "categoryName": "PRIMARY CARE CLINIC",
    "categoryCode": "COMTYC",
    "licenseStatus": "ACTIVE",
    "inService": true,
    "licenseNumber": "550009069",
    "licenseEffectiveDate": "04/17/2025",
    "licenseExpirationDate": "04/16/2026",
    "dataDate": "10/18/2025",
    "capacity": 0,
    "address": "1507 PANAMA LN, SUITE G100",
    "city": "BAKERSFIELD",
    "zip": "93307",
    "county": "KERN",
    "phone": "(661) 630-7063",
    "lat": 35.2952451,
    "lng": -119.018624
  },
  {
    "id": "630017386",
    "name": "THV ENTERPRISES",
    "npi": null,
    "hcaiId": null,
    "businessName": "THV ENTERPRISES",
    "contactEmail": "INFO@THVENTERPRISES.COM",
    "categoryName": "ADULT DAY HEALTH CARE",
    "categoryCode": "ADHC",
    "licenseStatus": "ACTIVE",
    "inService": true,
    "licenseNumber": "550004605",
    "licenseEffectiveDate": "03/29/2025",
    "licenseExpirationDate": "03/28/2026",
    "dataDate": "10/18/2025",
    "capacity": 0,
    "address": "3025 S FAIRFAX RD",
    "city": "BAKERSFIELD",
    "zip": "93307",
    "county": "KERN",
    "phone": "(661) 573-0150",
    "lat": 35.32737399,
    "lng": -118.932512
  }
]