[
  {
    "id": "630020798",
    "name": "A-Z HOSPICE CARE 366D 247",
    "npi": null,
    "hcaiId": "406197815",
    "businessName": "A-Z HOSPICE CARE 366D 247",
    "contactEmail": "AZHOSPICECARE366D247@GMAIL.COM",
    "categoryName": "HOSPICE",
    "categoryCode": "HOSPICE",
    "licenseStatus": "ACTIVE",
    "inService": true,
    "licenseNumber": "550006393",
    "licenseEffectiveDate": "01/15/2025",
    "licenseExpirationDate": "06/08/2025",
    "dataDate": "10/18/2025",
    "capacity": 0,
    "address": "4800 STOCKDALE HWY, SUITE 404",
    "city": "BAKERSFIELD",
    "zip": "93309",
    "county": "KERN",
    "phone": "(818) 626-4855",
    "lat": 35.35500221,
    "lng": -119.0561574
  },
  {
    "id": "120000568",
    "name": "ADVENTIST HEALTH HOME CARE SERVICES",
    "npi": "1174954689",
    "hcaiId": "406154024",
    "businessName": "WESTERN HEALTH RESOURCES",
    "contactEmail": "AINSWOLD@AH.ORG",
    "categoryName": "HOME HEALTH AGENCY",
    "categoryCode": "HHA",
    "licenseStatus": "ACTIVE",
    "inService": true,
    "licenseNumber": "120000251",
    "licenseEffectiveDate": "06/17/2025",
    "licenseExpirationDate": "06/16/2026",
    "dataDate": "10/18/2025",
    "capacity": 0,
    "address": "5500 MING AVE, SUITE 128",
    "city": "BAKERSFIELD",
    "zip": "93309",
    "county": "KERN",
    "phone": "(661) 869-2700",
    "lat": 35.33842402,
    "lng": -119.062348
  },
  {
    "id": "630015929",
    "name": "ADVENTIST HEALTH HOME CARE SERVICES",
    "npi": "1861886251",
    "hcaiId": "406154212",
    "businessName": "WESTERN HEALTH RESOURCES",
    "contactEmail": "CREDENTIALING@AH.ORG",
    "categoryName": "HOSPICE",
    "categoryCode": "HOSPICE",
    "licenseStatus": "ACTIVE",
    "inService": true,
    "licenseNumber": "550003710",
    "licenseEffectiveDate": "10/10/2024",
    "licenseExpirationDate": "10/09/2026",
    "dataDate": "10/18/2025",
    "capacity": 0,
    "address": "5500 MING AVE, SUITE 120",
    "city": "BAKERSFIELD",
    "zip": "93309",
    "county": "KERN",
    "phone": "(916) 406-1416",
    "lat": 35.33842402,
    "lng": -119.062348
  },
  {
    "id": "630021169",
    "name": "AHPC BAKERSFIELD, INC.",
    "npi": null,
    "hcaiId": "406153911",
    "businessName": "AHPC BAKERSFIELD, INC.",
    "contactEmail": "AHPCBAKERSFIELD@GMAIL.COM",
    "categoryName": "HOSPICE",
    "categoryCode": "HOSPICE",
    "licenseStatus": "ACTIVE",
    "inService": true,
    "licenseNumber": "550007040",
    "licenseEffectiveDate": "10/12/2023",
    "licenseExpirationDate": "10/11/2025",
    "dataDate": "10/18/2025",
    "capacity": 0,
    "address": "4900 CALIFORNIA AVE, SUITE 210B",
    "city": "BAKERSFIELD",
    "zip": "93309",
    "county": "KERN",
    "phone": "(661) 383-2013",
    "lat": 35.365104,
    "lng": -119.0566395
  },
  {
    "id": "630018514",
    "name": "AMERICAN COMPASSIONATE HOSPICE CARE INC",
    "npi": "1477021244",
    "hcaiId": "406151924",
    "businessName": "AMERICAN COMPASSIONATE HOSPICE CARE INC",
    "contactEmail": "ACHCBAKERS@GMAIL.COM",
    "categoryName": "HOSPICE",
    "categoryCode": "HOSPICE",
    "licenseStatus": "ACTIVE",
    "inService": true,
    "licenseNumber": "550004943",
    "licenseEffectiveDate": "09/13/2025",
    "licenseExpirationDate": "09/12/2027",
    "dataDate": "10/18/2025",
    "capacity": 0,
    "address": "5531 BUSINESS PARK S, SUITE 202A",
    "city": "BAKERSFIELD",
    "zip": "93309",
    "county": "KERN",
    "phone": "(661) 619-1271",
    "lat": 35.357355,
    "lng": -119.0596815
  },
  {
    "id": "120001210",
    "name": "AROUND THE CLOCK HOME CARE",
    "npi": "1922091107",
    "hcaiId": "406154149",
    "businessName": "VASINDAS' AROUND THE CLOCK CARE, INC.",
    "contactEmail": "MVASINDA@BAKERSFIELDCARE.COM",
    "categoryName": "HOME HEALTH AGENCY",
    "categoryCode": "HHA",
    "licenseStatus": "ACTIVE",
    "inService": true,
    "licenseNumber": "120000480",
    "licenseEffectiveDate": "11/06/2025",
    "licenseExpirationDate": "11/05/2026",
    "dataDate": "10/18/2025",
    "capacity": 0,
    "address": "5251 OFFICE PARK DR, SUITE 400",
    "city": "BAKERSFIELD",
    "zip": "93309",
    "county": "KERN",
    "phone": "(661) 395-5800",
    "lat": 35.365356,
    "lng": -119.060748
  },
  {
    "id": "630012522",
    "name": "BAHAMAS SURGERY CENTER, LLC",
    "npi": "1982873352",
    "hcaiId": null,
    "businessName": null,
    "contactEmail": null,
    "categoryName": "SURGICAL CLINIC",
    "categoryCode": "ASC",
    "licenseStatus": null,
    "inService": null,
    "licenseNumber": null,
    "licenseEffectiveDate": null,
    "licenseExpirationDate": null,
    "dataDate": "10/18/2025",
    "capacity": 0,
    "address": "2400 BAHAMAS DR, SUITE 100",
    "city": "BAKERSFIELD",
    "zip": "93309",
    "county": "KERN",
    "phone": "(661) 328-2333",
    "lat": 35.375544,
    "lng": -119.04507
  },
  {
    "id": "630016595",
    "name": "BAKERSFIELD BEHAVIORAL HEALTHCARE HOSPITAL. LLC",
    "npi": "1700259165",
    "hcaiId": "106154044",
    "businessName": "BAKERSFIELD BEHAVIORAL HEALTHCARE HOSPITAL, LLC",
    "contactEmail": "JASMINE.GARCIA@BAKERSFIELDBEHAVIORAL.COM",
    "categoryName": "ACUTE PSYCHIATRIC HOSPITAL",
    "categoryCode": "APH",
    "licenseStatus": "ACTIVE",
    "inService": true,
    "licenseNumber": "550003535",
    "licenseEffectiveDate": "06/01/2025",
    "licenseExpirationDate": "05/31/2026",
    "dataDate": "10/18/2025",
    "capacity": 90,
    "address": "5201 WHITE LANE",
    "city": "BAKERSFIELD",
    "zip": "93309",
    "county": "KERN",
    "phone": "(661) 241-5506",
    "lat": 35.316756,
    "lng": -119.060631
  },
  {
    "id": "120001040",
    "name": "BAKERSFIELD ENDOSCOPY CENTER",
    "npi": "1679791404",
    "hcaiId": "306154074",
    "businessName": null,
    "contactEmail": "WWW.YZHANG@SSMCIUC.COM",
    "categoryName": "SURGICAL CLINIC",
    "categoryCode": "ASC",
    "licenseStatus": "INACTIVE - CAPEN DECISION",
    "inService": false,
    "licenseNumber": "120000440",
    "licenseEffectiveDate": "11/17/2007",
    "licenseExpirationDate": "11/16/2008",
    "dataDate": "10/18/2025",
    "capacity": 0,
    "address": "1408 COMMERCIAL WAY",
    "city": "BAKERSFIELD",
    "zip": "93309",
    "county": "KERN",
    "phone": "(661) 869-2275",
    "lat": 35.367219,
    "lng": -119.059569
  },
  {
    "id": "630016156",
    "name": "BAKERSFIELD SPECIALTY SURGERY CENTER, PC",
    "npi": "1982954640",
    "hcaiId": null,
    "businessName": null,
    "contactEmail": "MICHELLES@LALASERCENTER.COM",
    "categoryName": "SURGICAL CLINIC",
    "categoryCode": "ASC",
    "licenseStatus": null,
    "inService": null,
    "licenseNumber": null,
    "licenseEffectiveDate": null,
    "licenseExpirationDate": null,
    "dataDate": "10/18/2025",
    "capacity": 0,
    "address": "5600 CALIFORNIA AVENUE, SUITE 102",
    "city": "BAKERSFIELD",
    "zip": "93309",
    "county": "KERN",
    "phone": "(661) 322-2700",
    "lat": 35.356212,
    "lng": -119.061783
  },
  {
    "id": "630011915",
    "name": "BLESSED HOME HEALTH CARE INC.",
    "npi": "1215413414",
    "hcaiId": "406156200",
    "businessName": "BLESSED HOME HEALTH CARE INC.",
    "contactEmail": "ADMIN@BLESSEDHHACARE.COM",
    "categoryName": "HOME HEALTH AGENCY",
    "categoryCode": "HHA",
    "licenseStatus": "ACTIVE",
    "inService": true,
    "licenseNumber": "550001004",
    "licenseEffectiveDate": "07/22/2025",
    "licenseExpirationDate": "04/09/2026",
    "dataDate": "10/18/2025",
    "capacity": 0,
    "address": "4900 CALIFORNIA AVE, SUITE 305A",
    "city": "BAKERSFIELD",
    "zip": "93309",
    "county": "KERN",
    "phone": "(661) 490-9433",
    "lat": 35.365104,
    "lng": -119.0566395
  },
  {
    "id": "070001253",
    "name": "BRISTOL HOSPICE - BAKERSFIELD",
    "npi": null,
    "hcaiId": "406154144",
    "businessName": "OPTIMAL HOSPICE, INC.",
    "contactEmail": "LINA.MEJIA@BRISTOLHOSPICE.COM",
    "categoryName": "HOSPICE",
    "categoryCode": "HOSPICE",
    "licenseStatus": "ACTIVE",
    "inService": true,
    "licenseNumber": "070000581",
    "licenseEffectiveDate": "08/11/2025",
    "licenseExpirationDate": "11/11/2026",
    "dataDate": "10/18/2025",
    "capacity": 0,
    "address": "4900 CALIFORNIA AVE, SUITE 110A",
    "city": "BAKERSFIELD",
    "zip": "93309",
    "county": "KERN",
    "phone": "(661) 716-4000",
    "lat": 35.365104,
    "lng": -119.0566395
  },
  {
    "id": "120001276",
    "name": "CBCC SURGERY CENTER, LLC",
    "npi": "3736184136",
    "hcaiId": null,
    "businessName": "CBCC PAIN MEDICINE & SURGERY CENTER, INC.",
    "contactEmail": "PSHAH@CBCCUSA.COM",
    "categoryName": "SURGICAL CLINIC",
    "categoryCode": "ASC",
    "licenseStatus": "INACTIVE - CAPEN DECISION",
    "inService": false,
    "licenseNumber": "120000512",
    "licenseEffectiveDate": "06/16/2007",
    "licenseExpirationDate": "06/15/2008",
    "dataDate": "10/18/2025",
    "capacity": 0,
    "address": "6501 TRUXTUN AVE, SUITE 190",
    "city": "BAKERSFIELD",
    "zip": "93309",
    "county": "KERN",
    "phone": "(661) 322-2206",
    "lat": 35.361342,
    "lng": -119.074176
  },
  {
    "id": "630018021",
    "name": "CENTRAL BAKERSFIELD DIALYSIS",
    "npi": "1700383601",
    "hcaiId": "306150480",
    "businessName": "GREATER BAKERSFIELD DIALYSIS CENTER LLC",
    "contactEmail": "MPOLANCO@AMERICANRENAL.COM",
    "categoryName": "CHRONIC DIALYSIS CLINIC",
    "categoryCode": "ESRD/CDC",
    "licenseStatus": "ACTIVE",
    "inService": true,
    "licenseNumber": "550004969",
    "licenseEffectiveDate": "09/18/2025",
    "licenseExpirationDate": "09/17/2026",
    "dataDate": "10/18/2025",
    "capacity": 30,
    "address": "5101 WHITE LN, SUITE A",
    "city": "BAKERSFIELD",
    "zip": "93309",
    "county": "KERN",
    "phone": "(661) 398-2251",
    "lat": 35.317188,
    "lng": -119.0591415
  },
  {
    "id": "630015907",
    "name": "CIRCLE OF FRIENDS PALLIATIVE CARE, INC.",
    "npi": null,
    "hcaiId": "406153009",
    "businessName": "CIRCLE OF FRIENDS PALLIATIVE CARE, INC.",
    "contactEmail": "CONTACT@CIRCLEOFFRIENDSHOSPICE.ORG",
    "categoryName": "HOSPICE",
    "categoryCode": "HOSPICE",
    "licenseStatus": "ACTIVE",
    "inService": true,
    "licenseNumber": "550003641",
    "licenseEffectiveDate": "08/10/2024",
    "licenseExpirationDate": "08/09/2026",
    "dataDate": "10/18/2025",
    "capacity": 0,
    "address": "5500 MING AVE, SUITE 480",
    "city": "BAKERSFIELD",
    "zip": "93309",
    "county": "KERN",
    "phone": "(661) 348-4534",
    "lat": 35.33842402,
    "lng": -119.062348
  },
  {
    "id": "120001368",
    "name": "EMPIRE SURGERY CENTER PARTNERS",
    "npi": "1033222989",
    "hcaiId": "306154107",
    "businessName": null,
    "contactEmail": "EMPIRESURGERY@YAHOO.COM",
    "categoryName": "SURGICAL CLINIC",
    "categoryCode": "ASC",
    "licenseStatus": "INACTIVE - CAPEN DECISION",
    "inService": false,
    "licenseNumber": "120000550",
    "licenseEffectiveDate": "12/17/2007",
    "licenseExpirationDate": "12/16/2008",
    "dataDate": "10/18/2025",
    "capacity": 0,
    "address": "4101 EMPIRE DR, SUITE 130",
    "city": "BAKERSFIELD",
    "zip": "93309",
    "county": "KERN",
    "phone": "(661) 325-1900",
    "lat": 35.374086,
    "lng": -119.0471445
  },
  {
    "id": "120000555",
    "name": "ENCOMPASS HEALTH REHABILITATION HOSPITAL OF BAKERSFIELD",
    "npi": "1568436798",
    "hcaiId": "106154022",
    "businessName": "ENCOMPASS HEALTH REHABILITATION HOSPITAL OF BAKERSFIELD, LLC",
    "contactEmail": "MARTHA.SAMORA@ENCOMPASSHEALTH.COM",
    "categoryName": "GENERAL ACUTE CARE HOSPITAL",
    "categoryCode": "GACH",
    "licenseStatus": "ACTIVE",
    "inService": true,
    "licenseNumber": "120000248",
    "licenseEffectiveDate": "01/01/2025",
    "licenseExpirationDate": "12/31/2025",
    "dataDate": "10/18/2025",
    "capacity": 86,
    "address": "5001 COMMERCE DR",
    "city": "BAKERSFIELD",
    "zip": "93309",
    "county": "KERN",
    "phone": "(661) 323-5500",
    "lat": 35.367345,
    "lng": -119.057472
  },
  {
    "id": "070001254",
    "name": "GENTIVA",
    "npi": "1740281633",
    "hcaiId": "406154099",
    "businessName": "ODYSSEY HEALTHCARE OPERATING A, L.P.",
    "contactEmail": "FACILITYLICENSURE@GENTIVAHS.COM",
    "categoryName": "HOSPICE",
    "categoryCode": "HOSPICE",
    "licenseStatus": "ACTIVE",
    "inService": true,
    "licenseNumber": "070000582",
    "licenseEffectiveDate": "06/19/2024",
    "licenseExpirationDate": "06/18/2026",
    "dataDate": "10/18/2025",
    "capacity": 0,
    "address": "5001 E COMMERCECENTER DR, SUITE 200",
    "city": "BAKERSFIELD",
    "zip": "93309",
    "county": "KERN",
    "phone": "(704) 664-2876",
    "lat": 35.361702,
    "lng": -119.0572695
  },
  {
    "id": "120001687",
    "name": "GIFTED ARMS HOME HEALTHCARE SERVICES",
    "npi": "1487670501",
    "hcaiId": "406154134",
    "businessName": "GIFTED ARMS INC.",
    "contactEmail": "GIFTEDARMSHHS@YAHOO.COM",
    "categoryName": "HOME HEALTH AGENCY",
    "categoryCode": "HHA",
    "licenseStatus": "ACTIVE",
    "inService": true,
    "licenseNumber": "550000057",
    "licenseEffectiveDate": "11/10/2025",
    "licenseExpirationDate": "11/09/2026",
    "dataDate": "10/18/2025",
    "capacity": 0,
    "address": "1400 EASTON DR, UNIT 141",
    "city": "BAKERSFIELD",
    "zip": "93309",
    "county": "KERN",
    "phone": "(661) 322-9207",
    "lat": 35.369703,
    "lng": -119.044674
  },
  {
    "id": "630015994",
    "name": "GUARDIAN ANGEL HOME CARE OF BAKERSFIELD, LLC",
    "npi": "1871138016",
    "hcaiId": "406154206",
    "businessName": "GUARDIAN ANGEL HOME CARE OF BAKERSFIELD, LLC",
    "contactEmail": "ADMIN@GAHC94.COM",
    "categoryName": "HOME HEALTH AGENCY",
    "categoryCode": "HHA",
    "licenseStatus": "ACTIVE",
    "inService": true,
    "licenseNumber": "550003306",
    "licenseEffectiveDate": "06/07/2025",
    "licenseExpirationDate": "06/06/2026",
    "dataDate": "10/18/2025",
    "capacity": 0,
    "address": "5001 E COMMERCECENTER DR, SUITE 240",
    "city": "BAKERSFIELD",
    "zip": "93309",
    "county": "KERN",
    "phone": "(248) 678-9078",
    "lat": 35.361738,
    "lng": -119.057157
  },
  {
    "id": "630028127",
    "name": "LAKEVIEW SURGERY CENTER",
    "npi": null,
    "hcaiId": null,
    "businessName": null,
    "contactEmail": "HARPREET@PARAGONHEALTHGROUP.COM",
    "categoryName": "SURGICAL CLINIC",
    "categoryCode": "ASC",
    "licenseStatus": null,
    "inService": null,
    "licenseNumber": null,
    "licenseEffectiveDate": null,
    "licenseExpirationDate": null,
    "dataDate": "10/18/2025",
    "capacity": 0,
    "address": "6501 TRUXTUN AVE, SUITE 180",
    "city": "BAKERSFIELD",
    "zip": "93309",
    "county": "KERN",
    "phone": "(661) 843-7880",
    "lat": 35.36128411,
    "lng": -119.0747289
  },
  {
    "id": "630018229",
    "name": "LENUS CARE LLC",
    "npi": null,
    "hcaiId": "406152228",
    "businessName": "LENUS CARE, LLC",
    "contactEmail": "LENUSCARELLC@GMAIL.COM",
    "categoryName": "HOSPICE",
    "categoryCode": "HOSPICE",
    "licenseStatus": "ACTIVE",
    "inService": true,
    "licenseNumber": "550005223",
    "licenseEffectiveDate": "09/10/2024",
    "licenseExpirationDate": "01/08/2026",
    "dataDate": "10/18/2025",
    "capacity": 0,
    "address": "5060 CALIFORNIA AVE, SUITE 415",
    "city": "BAKERSFIELD",
    "zip": "93309",
    "county": "KERN",
    "phone": "(800) 552-6054",
    "lat": 35.36245598,
    "lng": -119.060457
  },
  {
    "id": "630021483",
    "name": "LIBORAH HOSPICE",
    "npi": null,
    "hcaiId": "406184970",
    "businessName": "LIBORAH HOSPICE",
    "contactEmail": "LIBORAHHOSPICE@GMAIL.COM",
    "categoryName": "HOSPICE",
    "categoryCode": "HOSPICE",
    "licenseStatus": "ACTIVE",
    "inService": true,
    "licenseNumber": "550007058",
    "licenseEffectiveDate": "12/05/2024",
    "licenseExpirationDate": "10/28/2025",
    "dataDate": "10/18/2025",
    "capacity": 0,
    "address": "4800 STOCKDALE HWY, SUITE 403",
    "city": "BAKERSFIELD",
    "zip": "93309",
    "county": "KERN",
    "phone": "(818) 516-4565",
    "lat": 35.35500221,
    "lng": -119.0561574
  },
  {
    "id": "630014145",
    "name": "LIGHTHOUSE HOME HEALTH CARE, INC.",
    "npi": "1215297478",
    "hcaiId": "406154176",
    "businessName": "LIGHTHOUSE HOME HEALTH CARE INCORPORATED.",
    "contactEmail": "MARINA@LIGHTHOUSEHH.COM",
    "categoryName": "HOME HEALTH AGENCY",
    "categoryCode": "HHA",
    "licenseStatus": "ACTIVE",
    "inService": true,
    "licenseNumber": "550002282",
    "licenseEffectiveDate": "10/10/2024",
    "licenseExpirationDate": "10/09/2025",
    "dataDate": "10/18/2025",
    "capacity": 0,
    "address": "5500 MING AVE, SUITE 180",
    "city": "BAKERSFIELD",
    "zip": "93309",
    "county": "KERN",
    "phone": "(661) 374-4959",
    "lat": 35.338401,
    "lng": -119.0623455
  },
  {
    "id": "120000656",
    "name": "LOYD'S LIBERTY HOMES, INC. - ALTAVILLE LANE",
    "npi": "1447466818",
    "hcaiId": null,
    "businessName": "LOYD'S LIBERTY HOMES, INC.",
    "contactEmail": "GLORIA.DELACERDA@SEVITAHEALTH.COM",
    "categoryName": "INTERMEDIATE CARE FACILITY-DD/H/N/CN/IID",
    "categoryCode": "ICFDDN",
    "licenseStatus": "ACTIVE",
    "inService": true,
    "licenseNumber": "120000313",
    "licenseEffectiveDate": "03/11/2025",
    "licenseExpirationDate": "03/10/2026",
    "dataDate": "10/18/2025",
    "capacity": 6,
    "address": "7200 ALTAVILLE LN",
    "city": "BAKERSFIELD",
    "zip": "93309",
    "county": "KERN",
    "phone": "(559) 288-8274",
    "lat": 35.338428,
    "lng": -119.082474
  },
  {
    "id": "120000976",
    "name": "LOYD'S LIBERTY HOMES, INC. - CASWELL HOME",
    "npi": "1821203373",
    "hcaiId": null,
    "businessName": "LOYD'S LIBERTY HOMES, INC.",
    "contactEmail": "DEVAUGHN.LEE@SEVITAHEALTH.COM",
    "categoryName": "INTERMEDIATE CARE FACILITY-DD/H/N/CN/IID",
    "categoryCode": "ICFDDH",
    "licenseStatus": "ACTIVE",
    "inService": true,
    "licenseNumber": "120000393",
    "licenseEffectiveDate": "11/01/2025",
    "licenseExpirationDate": "10/31/2026",
    "dataDate": "10/18/2025",
    "capacity": 6,
    "address": "6505 CASWELL AVE",
    "city": "BAKERSFIELD",
    "zip": "93309",
    "county": "KERN",
    "phone": "(661) 398-1183",
    "lat": 35.33508,
    "lng": -119.074986
  },
  {
    "id": "120000914",
    "name": "LOYD'S LIBERTY HOMES, INC. - CHARTER OAK",
    "npi": "1356557722",
    "hcaiId": null,
    "businessName": "LOYD'S LIBERTY HOMES, INC.",
    "contactEmail": "GURINDER.KAUR@SEVITAHEALTH.COM",
    "categoryName": "INTERMEDIATE CARE FACILITY-DD/H/N/CN/IID",
    "categoryCode": "ICFDDN",
    "licenseStatus": "ACTIVE",
    "inService": true,
    "licenseNumber": "120000366",
    "licenseEffectiveDate": "03/11/2025",
    "licenseExpirationDate": "03/10/2026",
    "dataDate": "10/18/2025",
    "capacity": 6,
    "address": "4304 CHARTER OAKS AVE",
    "city": "BAKERSFIELD",
    "zip": "93309",
    "county": "KERN",
    "phone": "(661) 324-4317",
    "lat": 35.365698,
    "lng": -119.0506905
  },
  {
    "id": "120000589",
    "name": "LOYD'S LIBERTY HOMES, INC. - COLUMBIA LANE",
    "npi": "1265648638",
    "hcaiId": null,
    "businessName": "LOYD'S LIBERTY HOMES, INC.",
    "contactEmail": "MARCUS.EPPS@SEVITAHEALTH.COM",
    "categoryName": "INTERMEDIATE CARE FACILITY-DD/H/N/CN/IID",
    "categoryCode": "ICFDDN",
    "licenseStatus": "ACTIVE",
    "inService": true,
    "licenseNumber": "120000267",
    "licenseEffectiveDate": "03/11/2025",
    "licenseExpirationDate": "03/10/2026",
    "dataDate": "10/18/2025",
    "capacity": 6,
    "address": "6800 COLUMBIA LN",
    "city": "BAKERSFIELD",
    "zip": "93309",
    "county": "KERN",
    "phone": "(661) 832-2408",
    "lat": 35.337492,
    "lng": -119.0777715
  },
  {
    "id": "120000884",
    "name": "LOYD'S LIBERTY HOMES, INC. - DAGGETT HOME",
    "npi": "1992911358",
    "hcaiId": null,
    "businessName": "LOYD'S LIBERTY HOMES, INC.",
    "contactEmail": "HANH.MIRELES@SEVITAHEALTH.COM",
    "categoryName": "INTERMEDIATE CARE FACILITY-DD/H/N/CN/IID",
    "categoryCode": "ICFDDH",
    "licenseStatus": "ACTIVE",
    "inService": true,
    "licenseNumber": "120000351",
    "licenseEffectiveDate": "11/14/2025",
    "licenseExpirationDate": "11/13/2026",
    "dataDate": "10/18/2025",
    "capacity": 6,
    "address": "5801 DAGGETT AVE",
    "city": "BAKERSFIELD",
    "zip": "93309",
    "county": "KERN",
    "phone": "(661) 322-8984",
    "lat": 35.355834,
    "lng": -119.067183
  },
  {
    "id": "120000684",
    "name": "LOYD'S LIBERTY HOMES, INC. - KROLL WAY",
    "npi": "1982812939",
    "hcaiId": null,
    "businessName": "LOYD'S LIBERTY HOMES, INC.",
    "contactEmail": "GURINDER.KAUR@SEVITAHEALTH.COM",
    "categoryName": "INTERMEDIATE CARE FACILITY-DD/H/N/CN/IID",
    "categoryCode": "ICFDDN",
    "licenseStatus": "ACTIVE",
    "inService": true,
    "licenseNumber": "120000302",
    "licenseEffectiveDate": "03/11/2025",
    "licenseExpirationDate": "03/10/2026",
    "dataDate": "10/18/2025",
    "capacity": 6,
    "address": "7604 KROLL WAY",
    "city": "BAKERSFIELD",
    "zip": "93309",
    "county": "KERN",
    "phone": "(661) 599-7135",
    "lat": 35.350272,
    "lng": -119.087667
  },
  {
    "id": "120000339",
    "name": "LOYD'S LIBERTY HOMES, INC. - NEWPORT HOME",
    "npi": "1629284088",
    "hcaiId": null,
    "businessName": "LOYD'S LIBERTY HOMES, INC.",
    "contactEmail": "DEVAUGHN.LEE@SEVITAHEALTH.COM",
    "categoryName": "INTERMEDIATE CARE FACILITY-DD/H/N/CN/IID",
    "categoryCode": "ICFDDH",
    "licenseStatus": "ACTIVE",
    "inService": true,
    "licenseNumber": "120000171",
    "licenseEffectiveDate": "11/01/2025",
    "licenseExpirationDate": "10/31/2026",
    "dataDate": "10/18/2025",
    "capacity": 6,
    "address": "2518 NEWPORT LN",
    "city": "BAKERSFIELD",
    "zip": "93309",
    "county": "KERN",
    "phone": "(661) 833-8099",
    "lat": 35.331417,
    "lng": -119.0805615
  },
  {
    "id": "120000390",
    "name": "LOYD'S LIBERTY HOMES, INC. - WOODLAKE HOME",
    "npi": "1538375902",
    "hcaiId": null,
    "businessName": "LOYD'S LIBERTY HOMES, INC.",
    "contactEmail": null,
    "categoryName": "INTERMEDIATE CARE FACILITY-DD/H/N/CN/IID",
    "categoryCode": "ICFDDH",
    "licenseStatus": "ACTIVE",
    "inService": true,
    "licenseNumber": "120000176",
    "licenseEffectiveDate": "11/01/2025",
    "licenseExpirationDate": "10/31/2026",
    "dataDate": "10/18/2025",
    "capacity": 6,
    "address": "4315 WOODLAKE DR",
    "city": "BAKERSFIELD",
    "zip": "93309",
    "county": "KERN",
    "phone": "(661) 322-8984",
    "lat": 35.36271,
    "lng": -119.0511945
  },
  {
    "id": "120001650",
    "name": "MAXIM HEALTHCARE SERVICES, INC.",
    "npi": "1780616748",
    "hcaiId": "406154120",
    "businessName": "MAXIM HEALTHCARE SERVICES, INC.",
    "contactEmail": "BAKERSFIELDOFFICE@MAXHEALTH.COM",
    "categoryName": "HOME HEALTH AGENCY",
    "categoryCode": "HHA",
    "licenseStatus": "ACTIVE",
    "inService": true,
    "licenseNumber": "120000662",
    "licenseEffectiveDate": "09/15/2025",
    "licenseExpirationDate": "03/19/2026",
    "dataDate": "10/18/2025",
    "capacity": 0,
    "address": "4540 CALIFORNIA AVE, SUITE 550",
    "city": "BAKERSFIELD",
    "zip": "93309",
    "county": "KERN",
    "phone": "(661) 322-3039",
    "lat": 35.366636,
    "lng": -119.05278
  },
  {
    "id": "630014820",
    "name": "OMNI FAMILY HEALTH",
    "npi": "1851713929",
    "hcaiId": "306154186",
    "businessName": "OMNI FAMILY HEALTH",
    "contactEmail": "LICENSING@OMNIFAMILYHEALTH.ORG",
    "categoryName": "PRIMARY CARE CLINIC",
    "categoryCode": "COMTYC",
    "licenseStatus": "ACTIVE",
    "inService": true,
    "licenseNumber": "550002628",
    "licenseEffectiveDate": "03/14/2025",
    "licenseExpirationDate": "03/13/2026",
    "dataDate": "10/18/2025",
    "capacity": 0,
    "address": "4131 MING AVE",
    "city": "BAKERSFIELD",
    "zip": "93309",
    "county": "KERN",
    "phone": "(661) 459-1900",
    "lat": 35.338491,
    "lng": -119.050533
  },
  {
    "id": "630018055",
    "name": "OMNI FAMILY HEALTH",
    "npi": "1780195529",
    "hcaiId": "306150415",
    "businessName": "OMNI FAMILY HEALTH",
    "contactEmail": "LICENSING@OMNIFAMILYHEALTH.ORG",
    "categoryName": "PRIMARY CARE CLINIC",
    "categoryCode": "COMTYC",
    "licenseStatus": "ACTIVE",
    "inService": true,
    "licenseNumber": "550004429",
    "licenseEffectiveDate": "11/14/2025",
    "licenseExpirationDate": "11/13/2026",
    "dataDate": "10/18/2025",
    "capacity": 0,
    "address": "4900 CALIFORNIA AVE, SUITE 100-B",
    "city": "BAKERSFIELD",
    "zip": "93309",
    "county": "KERN",
    "phone": "(661) 630-7063",
    "lat": 35.365104,
    "lng": -119.0566395
  },
  {
    "id": "630018100",
    "name": "OMNI FAMILY HEALTH",
    "npi": "1558875203",
    "hcaiId": "306150443",
    "businessName": "OMNI FAMILY HEALTH",
    "contactEmail": "LICENSING@OMNIFAMILYHEALTH.ORG",
    "categoryName": "PRIMARY CARE CLINIC",
    "categoryCode": "COMTYC",
    "licenseStatus": "ACTIVE",
    "inService": true,
    "licenseNumber": "550004499",
    "licenseEffectiveDate": "01/11/2025",
    "licenseExpirationDate": "01/10/2026",
    "dataDate": "10/18/2025",
    "capacity": 0,
    "address": "1701 STINE RD",
    "city": "BAKERSFIELD",
    "zip": "93309",
    "county": "KERN",
    "phone": "(661) 459-1900",
    "lat": 35.338311,
    "lng": -119.051856
  },
  {
    "id": "630024573",
    "name": "OMNI FAMILY HEALTH MOBILE #1",
    "npi": "1780195529",
    "hcaiId": null,
    "businessName": "OMNI FAMILY HEALTH",
    "contactEmail": "CSTEWART@OMNIFAMILYHEALTH.ORG",
    "categoryName": "PRIMARY CARE CLINIC",
    "categoryCode": "COMTYC",
    "licenseStatus": "ACTIVE",
    "inService": true,
    "licenseNumber": "550004429",
    "licenseEffectiveDate": "11/14/2025",
    "licenseExpirationDate": "11/13/2026",
    "dataDate": "10/18/2025",
    "capacity": 0,
    "address": "4900 CALIFORNIA AVE, SUITE 400-B",
    "city": "BAKERSFIELD",
    "zip": "93309",
    "county": "KERN",
    "phone": "(661) 630-7063",
    "lat": 35.365104,
    "lng": -119.0566395
  },
  {
    "id": "630018930",
    "name": "PACIFIC HEALTH EDUCATION COGNITIVE CENTER, INC.",
    "npi": null,
    "hcaiId": null,
    "businessName": null,
    "contactEmail": "LISSETHCORTEZ@COGNITIVECENTER.US",
    "categoryName": "PSYCHOLOGY CLINIC",
    "categoryCode": "CMHC",
    "licenseStatus": null,
    "inService": null,
    "licenseNumber": null,
    "licenseEffectiveDate": null,
    "licenseExpirationDate": null,
    "dataDate": "10/18/2025",
    "capacity": 0,
    "address": "5300 CALIFORNIA AVE, SUITE 220",
    "city": "BAKERSFIELD",
    "zip": "93309",
    "county": "KERN",
    "phone": "(661) 282-9027",
    "lat": 35.359587,
    "lng": -119.0612745
  },
  {
    "id": "630018439",
    "name": "PARKSIDE CONGREGATE LIVING INC.",
    "npi": null,
    "hcaiId": "206150168",
    "businessName": "PARKSIDE CONGREGATE LIVING INC.",
    "contactEmail": "PARKSIDECONGREGATELIVING@GMAIL.COM",
    "categoryName": "CONGREGATE LIVING HEALTH FACILITY",
    "categoryCode": "CLHF",
    "licenseStatus": "ACTIVE",
    "inService": true,
    "licenseNumber": "550004890",
    "licenseEffectiveDate": "08/30/2025",
    "licenseExpirationDate": "08/29/2026",
    "dataDate": "10/18/2025",
    "capacity": 6,
    "address": "304 HAGGIN ST",
    "city": "BAKERSFIELD",
    "zip": "93309",
    "county": "KERN",
    "phone": "(661) 374-4079",
    "lat": 35.357355,
    "lng": -119.0709225
  },
  {
    "id": "630025261",
    "name": "PREMIER HOSPICE CARE INC",
    "npi": null,
    "hcaiId": "406150022",
    "businessName": "PREMIER HOSPICE CARE INC.",
    "contactEmail": "PREMIERHOSPICECAREINC@GMAIL.COM",
    "categoryName": "HOSPICE",
    "categoryCode": "HOSPICE",
    "licenseStatus": "ACTIVE",
    "inService": true,
    "licenseNumber": "550008936",
    "licenseEffectiveDate": "02/05/2024",
    "licenseExpirationDate": "02/04/2026",
    "dataDate": "10/18/2025",
    "capacity": 0,
    "address": "4540 CALIFORNIA AVE, SUITE 510",
    "city": "BAKERSFIELD",
    "zip": "93309",
    "county": "KERN",
    "phone": "(661) 374-0778",
    "lat": 35.367417,
    "lng": -119.0532555
  },
  {
    "id": "630024577",
    "name": "RELIABLE HEALTHCARE LLC",
    "npi": null,
    "hcaiId": "406155987",
    "businessName": "RELIABLE HEALTHCARE LLC",
    "contactEmail": "DCARACAS@RHCARE.COM",
    "categoryName": "HOME HEALTH AGENCY",
    "categoryCode": "HHA",
    "licenseStatus": "ACTIVE",
    "inService": true,
    "licenseNumber": "550008286",
    "licenseEffectiveDate": "12/08/2024",
    "licenseExpirationDate": "12/07/2025",
    "dataDate": "10/18/2025",
    "capacity": 0,
    "address": "200 NEW STINE RD, SUITE 250",
    "city": "BAKERSFIELD",
    "zip": "93309",
    "county": "KERN",
    "phone": "(661) 491-3131",
    "lat": 35.352567,
    "lng": -119.0605635
  },
  {
    "id": "630024388",
    "name": "RIO BRAVO CONGREGATE LIVING FACILITY, INC.",
    "npi": null,
    "hcaiId": "206150336",
    "businessName": "RIO BRAVO CONGREGATE LIVING FACILITY, INC.",
    "contactEmail": "RIOBRAVOCONGREGATELIVING@GMAIL.COM",
    "categoryName": "CONGREGATE LIVING HEALTH FACILITY",
    "categoryCode": "CLHF",
    "licenseStatus": "ACTIVE",
    "inService": true,
    "licenseNumber": "550007921",
    "licenseEffectiveDate": "03/29/2025",
    "licenseExpirationDate": "03/28/2026",
    "dataDate": "10/18/2025",
    "capacity": 6,
    "address": "5900 PRESTON CT",
    "city": "BAKERSFIELD",
    "zip": "93309",
    "county": "KERN",
    "phone": "(661) 496-2802",
    "lat": 35.361495,
    "lng": -119.068857
  },
  {
    "id": "630026621",
    "name": "ROSEDALE HOME HEALTH CARE",
    "npi": null,
    "hcaiId": null,
    "businessName": "ROSEDALE HOME HEALTH CARE",
    "contactEmail": "ROSEDALEHOMEHEALTHCARE@GMAIL.COM",
    "categoryName": "HOME HEALTH AGENCY",
    "categoryCode": "HHA",
    "licenseStatus": "ACTIVE",
    "inService": true,
    "licenseNumber": "550009366",
    "licenseEffectiveDate": "03/05/2025",
    "licenseExpirationDate": "09/04/2025",
    "dataDate": "10/18/2025",
    "capacity": 0,
    "address": "4700 EASTON DR, SUITE 10A",
    "city": "BAKERSFIELD",
    "zip": "93309",
    "county": "KERN",
    "phone": "(661) 843-7130",
    "lat": 35.367984,
    "lng": -119.055213
  },
  {
    "id": "120000369",
    "name": "ROSEWOOD HEALTH FACILITY",
    "npi": "1700967213",
    "hcaiId": "206152091",
    "businessName": "HUMANGOOD NORCAL",
    "contactEmail": "TRACIE.FAIRLEY@HUMANGOOD.ORG",
    "categoryName": "SKILLED NURSING FACILITY",
    "categoryCode": "SNF",
    "licenseStatus": "ACTIVE",
    "inService": true,
    "licenseNumber": "120000165",
    "licenseEffectiveDate": "11/01/2025",
    "licenseExpirationDate": "10/31/2026",
    "dataDate": "10/18/2025",
    "capacity": 79,
    "address": "1401 NEW STINE RD",
    "city": "BAKERSFIELD",
    "zip": "93309",
    "county": "KERN",
    "phone": "(661) 835-2506",
    "lat": 35.341767,
    "lng": -119.0620665
  },
  {
    "id": "630027825",
    "name": "SUNDALE CONGREGATE LIVING, INC.",
    "npi": null,
    "hcaiId": null,
    "businessName": "SUNDALE CONGREGATE LIVING, INC.",
    "contactEmail": "SUNDALECONGREGATELIVING@GMAIL.COM",
    "categoryName": "CONGREGATE LIVING HEALTH FACILITY",
    "categoryCode": "CLHF",
    "licenseStatus": "ACTIVE",
    "inService": true,
    "licenseNumber": "550009629",
    "licenseEffectiveDate": "08/19/2025",
    "licenseExpirationDate": "02/18/2026",
    "dataDate": "10/18/2025",
    "capacity": 6,
    "address": "1805 GLENMONT DR",
    "city": "BAKERSFIELD",
    "zip": "93309",
    "county": "KERN",
    "phone": "(661) 496-2802",
    "lat": 35.33788502,
    "lng": -119.068591
  },
  {
    "id": "630011524",
    "name": "TRADITIONS HEALTH",
    "npi": "1558541789",
    "hcaiId": "406154148",
    "businessName": "PROCARE HOSPICE, LLC",
    "contactEmail": "ASHLEY.HELTON@TRADITIONSHEALTH.COM",
    "categoryName": "HOSPICE",
    "categoryCode": "HOSPICE",
    "licenseStatus": "ACTIVE",
    "inService": true,
    "licenseNumber": "550000707",
    "licenseEffectiveDate": "04/16/2024",
    "licenseExpirationDate": "04/15/2026",
    "dataDate": "10/18/2025",
    "capacity": 0,
    "address": "5500 MING AVE, SUITE 190",
    "city": "BAKERSFIELD",
    "zip": "93309",
    "county": "KERN",
    "phone": "(661) 864-0490",
    "lat": 35.338401,
    "lng": -119.0623455
  },
  {
    "id": "120001186",
    "name": "TRUXTUN SURGERY CENTER, INC",
    "npi": "1578505079",
    "hcaiId": "306154089",
    "businessName": null,
    "contactEmail": "TSC@TRUXTUNSURGERY.COM",
    "categoryName": "SURGICAL CLINIC",
    "categoryCode": "ASC",
    "licenseStatus": "INACTIVE - CAPEN DECISION",
    "inService": false,
    "licenseNumber": "120000475",
    "licenseEffectiveDate": "11/10/2007",
    "licenseExpirationDate": "11/09/2008",
    "dataDate": "10/18/2025",
    "capacity": 0,
    "address": "4260 TRUXTUN AVE, SUITE 120",
    "city": "BAKERSFIELD",
    "zip": "93309",
    "county": "KERN",
    "phone": "(661) 327-3636",
    "lat": 35.373285,
    "lng": -119.0484585
  },
  {
    "id": "630015853",
    "name": "VFP HOMES",
    "npi": null,
    "hcaiId": "206154197",
    "businessName": "VFP HOMES, LLC",
    "contactEmail": "VFPHOMES@GMAIL.COM",
    "categoryName": "CONGREGATE LIVING HEALTH FACILITY",
    "categoryCode": "CLHF",
    "licenseStatus": "ACTIVE",
    "inService": true,
    "licenseNumber": "550003276",
    "licenseEffectiveDate": "04/27/2025",
    "licenseExpirationDate": "04/26/2026",
    "dataDate": "10/18/2025",
    "capacity": 6,
    "address": "6005 HARTMAN AVENUE",
    "city": "BAKERSFIELD",
    "zip": "93309",
    "county": "KERN",
    "phone": "(661) 800-5808",
    "lat": 35.355078,
    "lng": -119.069784
  },
  {
    "id": "240001911",
    "name": "WHITE LANE DIALYSIS",
    "npi": "1033183397",
    "hcaiId": "306154125",
    "businessName": "DVA HEALTHCARE RENAL CARE, INC.",
    "contactEmail": "CAL_C@DAVITA.COM",
    "categoryName": "CHRONIC DIALYSIS CLINIC",
    "categoryCode": "ESRD/CDC",
    "licenseStatus": "ACTIVE",
    "inService": true,
    "licenseNumber": "240000860",
    "licenseEffectiveDate": "11/17/2025",
    "licenseExpirationDate": "11/16/2026",
    "dataDate": "10/18/2025",
    "capacity": 20,
    "address": "7701 WHITE LN, SUITE D",
    "city": "BAKERSFIELD",
    "zip": "93309",
    "county": "KERN",
    "phone": "(661) 396-7158",
    "lat": 35.317278,
    "lng": -119.0889225
  }
]