[
  {
    "id": "630027767",
    "name": "ASHRAM",
    "npi": null,
    "hcaiId": null,
    "businessName": "ASHRAM INC",
    "contactEmail": "ASHRAM7500@GMAIL.COM",
    "categoryName": "ADULT DAY HEALTH CARE",
    "categoryCode": "ADHC",
    "licenseStatus": "ACTIVE",
    "inService": true,
    "licenseNumber": "550009765",
    "licenseEffectiveDate": "08/15/2025",
    "licenseExpirationDate": "03/09/2026",
    "dataDate": "10/18/2025",
    "capacity": 0,
    "address": "7500 DISTRICT BLVD",
    "city": "BAKERSFIELD",
    "zip": "93313",
    "county": "KERN",
    "phone": "(661) 282-8428",
    "lat": 35.31374099,
    "lng": -119.085389
  },
  {
    "id": "120000329",
    "name": "CENTRE FOR NEURO SKILLS",
    "npi": null,
    "hcaiId": "306154181",
    "businessName": "CENTRE FOR NEURO SKILLS",
    "contactEmail": "COMPLIANCE@NEUROSKILLS.COM",
    "categoryName": "REHABILITATION CLINIC",
    "categoryCode": "REHABC",
    "licenseStatus": "ACTIVE",
    "inService": true,
    "licenseNumber": "120000203",
    "licenseEffectiveDate": "11/03/2025",
    "licenseExpirationDate": "11/02/2026",
    "dataDate": "10/18/2025",
    "capacity": 0,
    "address": "5215 ASHE RD",
    "city": "BAKERSFIELD",
    "zip": "93313",
    "county": "KERN",
    "phone": "(661) 872-3408",
    "lat": 35.307252,
    "lng": -119.075022
  },
  {
    "id": "630027679",
    "name": "CONNIE-1 CONGREGATE FACILITY",
    "npi": null,
    "hcaiId": null,
    "businessName": "CONNIE-1 CONGREGATE FACILITY, LLC",
    "contactEmail": "CONNIE1FACILITY@YAHOO.COM",
    "categoryName": "CONGREGATE LIVING HEALTH FACILITY",
    "categoryCode": "CLHF",
    "licenseStatus": "ACTIVE",
    "inService": true,
    "licenseNumber": "550009399",
    "licenseEffectiveDate": "10/07/2025",
    "licenseExpirationDate": "10/06/2026",
    "dataDate": "10/18/2025",
    "capacity": 6,
    "address": "4701 BASQUE ST",
    "city": "BAKERSFIELD",
    "zip": "93313",
    "county": "KERN",
    "phone": "(831) 710-3258",
    "lat": 35.28351099,
    "lng": -119.054852
  },
  {
    "id": "630014033",
    "name": "OMNI FAMILY HEALTH",
    "npi": "1780928986",
    "hcaiId": "306154173",
    "businessName": "OMNI FAMILY HEALTH",
    "contactEmail": "LICENSING@OMNIFAMILYHEALTH.ORG",
    "categoryName": "PRIMARY CARE CLINIC",
    "categoryCode": "COMTYC",
    "licenseStatus": "ACTIVE",
    "inService": true,
    "licenseNumber": "550002190",
    "licenseEffectiveDate": "07/23/2025",
    "licenseExpirationDate": "07/22/2026",
    "dataDate": "10/18/2025",
    "capacity": 0,
    "address": "4600 PANAMA LN, SUITE 102B",
    "city": "BAKERSFIELD",
    "zip": "93313",
    "county": "KERN",
    "phone": "(661) 630-7063",
    "lat": 35.296443,
    "lng": -119.054286
  },
  {
    "id": "630016995",
    "name": "OMNI FAMILY HEALTH",
    "npi": "1073997326",
    "hcaiId": "306154191",
    "businessName": "OMNI FAMILY HEALTH",
    "contactEmail": "LICENSING@OMNIFAMILYHEALTH.ORG",
    "categoryName": "PRIMARY CARE CLINIC",
    "categoryCode": "COMTYC",
    "licenseStatus": "ACTIVE",
    "inService": true,
    "licenseNumber": "550003730",
    "licenseEffectiveDate": "12/12/2024",
    "licenseExpirationDate": "12/11/2025",
    "dataDate": "10/18/2025",
    "capacity": 0,
    "address": "4151 MEXICALI DRIVE",
    "city": "BAKERSFIELD",
    "zip": "93313",
    "county": "KERN",
    "phone": "(661) 459-1900",
    "lat": 35.317188,
    "lng": -119.0821995
  },
  {
    "id": "630012877",
    "name": "OPTION CARE",
    "npi": null,
    "hcaiId": "406154162",
    "businessName": "OPTION CARE ENTERPRISES, INC.",
    "contactEmail": "OC-PEANDL@OPTIONCARE.COM",
    "categoryName": "HOME HEALTH AGENCY",
    "categoryCode": "HHA",
    "licenseStatus": "ACTIVE",
    "inService": true,
    "licenseNumber": "550001631",
    "licenseEffectiveDate": "08/08/2025",
    "licenseExpirationDate": "08/07/2026",
    "dataDate": "10/18/2025",
    "capacity": 0,
    "address": "5800 DISTRICT BLVD, SUITE 200",
    "city": "BAKERSFIELD",
    "zip": "93313",
    "county": "KERN",
    "phone": "(866) 628-1820",
    "lat": 35.313669,
    "lng": -119.06676
  },
  {
    "id": "630024240",
    "name": "ORCHID PLUS INC.",
    "npi": null,
    "hcaiId": "206150340",
    "businessName": "ORCHID PLUS INC.",
    "contactEmail": "ORCHIDPLUS@YAHOO.COM",
    "categoryName": "CONGREGATE LIVING HEALTH FACILITY",
    "categoryCode": "CLHF",
    "licenseStatus": "ACTIVE",
    "inService": true,
    "licenseNumber": "550008042",
    "licenseEffectiveDate": "10/02/2025",
    "licenseExpirationDate": "06/26/2026",
    "dataDate": "10/18/2025",
    "capacity": 6,
    "address": "2207 MACAU ST",
    "city": "BAKERSFIELD",
    "zip": "93313",
    "county": "KERN",
    "phone": "(661) 558-0090",
    "lat": 35.277462,
    "lng": -119.027349
  }
]