[
  {
    "id": "630011584",
    "name": "APPLE SURGERY CENTER, INC.",
    "npi": null,
    "hcaiId": null,
    "businessName": null,
    "contactEmail": null,
    "categoryName": "SURGICAL CLINIC",
    "categoryCode": "ASC",
    "licenseStatus": null,
    "inService": null,
    "licenseNumber": null,
    "licenseEffectiveDate": null,
    "licenseExpirationDate": null,
    "dataDate": "10/18/2025",
    "capacity": 0,
    "address": "9870 BRIMHALL RD, SUITE 200",
    "city": "BAKERSFIELD",
    "zip": "93312",
    "county": "KERN",
    "phone": "(661) 587-4173",
    "lat": 35.36982,
    "lng": -119.1118995
  },
  {
    "id": "630023458",
    "name": "ASPIRE COUNSELING SERVICES INC",
    "npi": null,
    "hcaiId": null,
    "businessName": null,
    "contactEmail": "GREYNA@OPTIMAXCS.NET",
    "categoryName": "PSYCHOLOGY CLINIC",
    "categoryCode": "CMHC",
    "licenseStatus": null,
    "inService": null,
    "licenseNumber": null,
    "licenseEffectiveDate": null,
    "licenseExpirationDate": null,
    "dataDate": "10/18/2025",
    "capacity": 0,
    "address": "9830 BRIMHALL RD, SUITE 100",
    "city": "BAKERSFIELD",
    "zip": "93312",
    "county": "KERN",
    "phone": "(661) 249-6634",
    "lat": 35.370297,
    "lng": -119.1113685
  },
  {
    "id": "240001781",
    "name": "BAKERSFIELD BRIMHALL DIALYSIS",
    "npi": "1629042148",
    "hcaiId": "306154155",
    "businessName": "DVA HEALTHCARE RENAL CARE, INC.",
    "contactEmail": "CAL_C@DAVITA.COM",
    "categoryName": "CHRONIC DIALYSIS CLINIC",
    "categoryCode": "ESRD/CDC",
    "licenseStatus": "ACTIVE",
    "inService": true,
    "licenseNumber": "240000776",
    "licenseEffectiveDate": "11/29/2025",
    "licenseExpirationDate": "11/28/2026",
    "dataDate": "10/18/2025",
    "capacity": 20,
    "address": "8501 BRIMHALL RD, SUITE 500",
    "city": "BAKERSFIELD",
    "zip": "93312",
    "county": "KERN",
    "phone": "(661) 387-6603",
    "lat": 35.367777,
    "lng": -119.096451
  },
  {
    "id": "120001395",
    "name": "BROOKDALE RIVERWALK SNF (CA)",
    "npi": "1275697658",
    "hcaiId": "206154109",
    "businessName": "BLC GLENWOOD - GARDENS SNF-LH, LLC",
    "contactEmail": "MALLARD1@BROOKDALE.COM",
    "categoryName": "SKILLED NURSING FACILITY",
    "categoryCode": "SNF",
    "licenseStatus": "ACTIVE",
    "inService": true,
    "licenseNumber": "120000555",
    "licenseEffectiveDate": "03/01/2025",
    "licenseExpirationDate": "02/28/2026",
    "dataDate": "10/18/2025",
    "capacity": 120,
    "address": "350 CALLOWAY DR, BUILDING C",
    "city": "BAKERSFIELD",
    "zip": "93312",
    "county": "KERN",
    "phone": "(661) 587-0182",
    "lat": 35.360631,
    "lng": -119.113317
  },
  {
    "id": "630017213",
    "name": "CASA DEL RIO HOME TRAINING",
    "npi": "1548639792",
    "hcaiId": null,
    "businessName": null,
    "contactEmail": "CYNTHIA.HUTCHISON@DAVITA.COM",
    "categoryName": "CHRONIC DIALYSIS CLINIC",
    "categoryCode": "ESRD",
    "licenseStatus": null,
    "inService": null,
    "licenseNumber": null,
    "licenseEffectiveDate": null,
    "licenseExpirationDate": null,
    "dataDate": "10/18/2025",
    "capacity": 0,
    "address": "8331 BRIMHALL RD, SUITE 902, BUILDING 900",
    "city": "BAKERSFIELD",
    "zip": "93312",
    "county": "KERN",
    "phone": "(661) 387-6405",
    "lat": 35.36631,
    "lng": -119.095938
  },
  {
    "id": "630013326",
    "name": "NORTHWEST SURGERY CENTER, INC.",
    "npi": "1518280684",
    "hcaiId": null,
    "businessName": null,
    "contactEmail": "CCPMPARMAR@YAHOO.COM",
    "categoryName": "SURGICAL CLINIC",
    "categoryCode": "ASC",
    "licenseStatus": null,
    "inService": null,
    "licenseNumber": null,
    "licenseEffectiveDate": null,
    "licenseExpirationDate": null,
    "dataDate": "10/18/2025",
    "capacity": 0,
    "address": "8325 BRIMHALL RD",
    "city": "BAKERSFIELD",
    "zip": "93312",
    "county": "KERN",
    "phone": "(661) 587-6992",
    "lat": 35.367831,
    "lng": -119.0958255
  },
  {
    "id": "630011403",
    "name": "OMNI FAMILY HEALTH",
    "npi": "1841476686",
    "hcaiId": "306154146",
    "businessName": "OMNI FAMILY HEALTH",
    "contactEmail": "LICENSING@OMNIFAMILYHEALTH.ORG",
    "categoryName": "PRIMARY CARE CLINIC",
    "categoryCode": "COMTYC",
    "licenseStatus": "ACTIVE",
    "inService": true,
    "licenseNumber": "550000641",
    "licenseEffectiveDate": "01/01/2025",
    "licenseExpirationDate": "12/31/2025",
    "dataDate": "10/18/2025",
    "capacity": 0,
    "address": "3409 CALLOWAY DR, UNIT 300",
    "city": "BAKERSFIELD",
    "zip": "93312",
    "county": "KERN",
    "phone": "(661) 469-1900",
    "lat": 35.391474,
    "lng": -119.110455
  },
  {
    "id": "630012567",
    "name": "OMNI FAMILY HEALTH",
    "npi": "1033426002",
    "hcaiId": "306154161",
    "businessName": "OMNI FAMILY HEALTH",
    "contactEmail": "LICENSING@OMNIFAMILYHEALTH.ORG",
    "categoryName": "PRIMARY CARE CLINIC",
    "categoryCode": "COMTYC",
    "licenseStatus": "ACTIVE",
    "inService": true,
    "licenseNumber": "550001456",
    "licenseEffectiveDate": "12/21/2024",
    "licenseExpirationDate": "12/20/2025",
    "dataDate": "10/18/2025",
    "capacity": 0,
    "address": "1014 CALLOWAY DR, BUILDING F",
    "city": "BAKERSFIELD",
    "zip": "93312",
    "county": "KERN",
    "phone": "(661) 459-1900",
    "lat": 35.367093,
    "lng": -119.110167
  },
  {
    "id": "630016087",
    "name": "OMNI FAMILY HEALTH",
    "npi": "1164806410",
    "hcaiId": "306154205",
    "businessName": "OMNI FAMILY HEALTH",
    "contactEmail": "CSTEWART@OMNIFAMILYHEALTH.ORG",
    "categoryName": "PRIMARY CARE CLINIC",
    "categoryCode": "COMTYC",
    "licenseStatus": "ACTIVE",
    "inService": true,
    "licenseNumber": "550004429",
    "licenseEffectiveDate": "11/14/2025",
    "licenseExpirationDate": "11/13/2026",
    "dataDate": "10/18/2025",
    "capacity": 0,
    "address": "1022 CALLOWAY DRIVE",
    "city": "BAKERSFIELD, CA",
    "zip": "93312",
    "county": "KERN",
    "phone": "(661) 459-1900",
    "lat": 35.3673,
    "lng": -119.110662
  },
  {
    "id": "630014906",
    "name": "WESTSIDE SURGICAL CENTER, LLC",
    "npi": "1447539747",
    "hcaiId": null,
    "businessName": null,
    "contactEmail": "RNDIRECTOR@TEI2020.NET",
    "categoryName": "SURGICAL CLINIC",
    "categoryCode": "ASC",
    "licenseStatus": null,
    "inService": null,
    "licenseNumber": null,
    "licenseEffectiveDate": null,
    "licenseExpirationDate": null,
    "dataDate": "10/18/2025",
    "capacity": 0,
    "address": "9700 BRIMHALL RD",
    "city": "BAKERSFIELD",
    "zip": "93312",
    "county": "KERN",
    "phone": "(661) 588-5400",
    "lat": 35.369145,
    "lng": -119.1107745
  }
]