[
  {
    "id": "630024307",
    "name": "ABROMS DOUGHERTY VISION ASC",
    "npi": null,
    "hcaiId": null,
    "businessName": null,
    "contactEmail": "GCMERRICK@GMAIL.COM",
    "categoryName": "SURGICAL CLINIC",
    "categoryCode": "ASC",
    "licenseStatus": null,
    "inService": null,
    "licenseNumber": null,
    "licenseEffectiveDate": null,
    "licenseExpirationDate": null,
    "dataDate": "10/18/2025",
    "capacity": 0,
    "address": "4472 BROAD ST, SUITE 150",
    "city": "SAN LUIS OBISPO",
    "zip": "93401",
    "county": "SAN LUIS OBISPO",
    "phone": "(805) 545-8001",
    "lat": 35.24206078,
    "lng": -120.6388567
  },
  {
    "id": "630027937",
    "name": "ADVANCED CARE HOME HEALTH, LLC",
    "npi": null,
    "hcaiId": null,
    "businessName": "ADVANCED CARE HOME HEALTH, LLC",
    "contactEmail": "INFO@ADVANCEDCARE-HH.COM",
    "categoryName": "HOME HEALTH AGENCY",
    "categoryCode": "HHA",
    "licenseStatus": "ACTIVE",
    "inService": true,
    "licenseNumber": "550009959",
    "licenseEffectiveDate": "09/12/2025",
    "licenseExpirationDate": "03/11/2026",
    "dataDate": "10/18/2025",
    "capacity": 0,
    "address": "4349 OLD SANTA FE RD, UNIT G, STE. 101",
    "city": "SAN LUIS OBISPO",
    "zip": "93401",
    "county": "SAN LUIS OBISPO",
    "phone": "(805) 505-9955",
    "lat": 35.23961898,
    "lng": -120.648212
  },
  {
    "id": "630022553",
    "name": "AEROVISTA HEALTH CENTER",
    "npi": null,
    "hcaiId": null,
    "businessName": "PACIFIC CENTRAL COAST HEALTH CENTERS",
    "contactEmail": null,
    "categoryName": "PRIMARY CARE CLINIC",
    "categoryCode": "COMTYC",
    "licenseStatus": "ACTIVE",
    "inService": true,
    "licenseNumber": "050000415",
    "licenseEffectiveDate": "11/21/2024",
    "licenseExpirationDate": "11/20/2025",
    "dataDate": "10/18/2025",
    "capacity": 0,
    "address": "895 AEROVISTA PL, SUITE 103",
    "city": "SAN LUIS OBISPO",
    "zip": "93401",
    "county": "SAN LUIS OBISPO",
    "phone": null,
    "lat": 35.242371,
    "lng": -120.6400185
  },
  {
    "id": "630019246",
    "name": "AEVUM HOME HEALTH",
    "npi": "1598292435",
    "hcaiId": "406405311",
    "businessName": "AEVUM HOME HEALTH, INC.",
    "contactEmail": "ZOLI@AEVUMHOMEHEALTH.COM",
    "categoryName": "HOME HEALTH AGENCY",
    "categoryCode": "HHA",
    "licenseStatus": "ACTIVE",
    "inService": true,
    "licenseNumber": "550006258",
    "licenseEffectiveDate": "04/16/2025",
    "licenseExpirationDate": "04/15/2026",
    "dataDate": "10/18/2025",
    "capacity": 0,
    "address": "1302 MARSH ST",
    "city": "SAN LUIS OBISPO",
    "zip": "93401",
    "county": "SAN LUIS OBISPO",
    "phone": "(805) 586-3427",
    "lat": 35.28325999,
    "lng": -120.655941
  },
  {
    "id": "630028199",
    "name": "AEVUM HOSPICE LLC",
    "npi": null,
    "hcaiId": null,
    "businessName": "AEVUM HOSPICE LLC",
    "contactEmail": "CORINA@AEVUMHOMEHEALTH.COM",
    "categoryName": "HOSPICE",
    "categoryCode": "HOSPICE",
    "licenseStatus": "ACTIVE",
    "inService": true,
    "licenseNumber": "550009925",
    "licenseEffectiveDate": "08/13/2025",
    "licenseExpirationDate": "08/12/2027",
    "dataDate": "10/18/2025",
    "capacity": 0,
    "address": "1302 B MARSH ST",
    "city": "SAN LUIS OBISPO",
    "zip": "93401",
    "county": "SAN LUIS OBISPO",
    "phone": "(805) 586-2033",
    "lat": 35.28325999,
    "lng": -120.655941
  },
  {
    "id": "630019947",
    "name": "BISHOP STREET SPECIALTY CENTER",
    "npi": null,
    "hcaiId": null,
    "businessName": "PACIFIC CENTRAL COAST HEALTH CENTERS",
    "contactEmail": null,
    "categoryName": "PRIMARY CARE CLINIC",
    "categoryCode": "COMTYC",
    "licenseStatus": "ACTIVE",
    "inService": true,
    "licenseNumber": "050000415",
    "licenseEffectiveDate": "11/21/2024",
    "licenseExpirationDate": "11/20/2025",
    "dataDate": "10/18/2025",
    "capacity": 0,
    "address": "1551 BISHOP ST, SUITE 230",
    "city": "SAN LUIS OBISPO",
    "zip": "93401",
    "county": "SAN LUIS OBISPO",
    "phone": "(805) 994-5485",
    "lat": 35.274573,
    "lng": -120.6451305
  },
  {
    "id": "630013419",
    "name": "BISHOP'S PEAK WOMEN'S HEALTH CENTER",
    "npi": "1760896104",
    "hcaiId": "306404080",
    "businessName": "PACIFIC CENTRAL COAST HEALTH CENTERS",
    "contactEmail": "CHRISTINA.RODRIGUEZ@DIGNITYHEALTH.ORG",
    "categoryName": "PRIMARY CARE CLINIC",
    "categoryCode": "COMTYC",
    "licenseStatus": "ACTIVE",
    "inService": true,
    "licenseNumber": "050000415",
    "licenseEffectiveDate": "11/21/2024",
    "licenseExpirationDate": "11/20/2025",
    "dataDate": "10/18/2025",
    "capacity": 0,
    "address": "1941 JOHNSON AVE, SUITE 301",
    "city": "SAN LUIS OBISPO",
    "zip": "93401",
    "county": "SAN LUIS OBISPO",
    "phone": "(805) 597-6715",
    "lat": 35.277606,
    "lng": -120.650409
  },
  {
    "id": "630015876",
    "name": "BRIGHTSTAR HOME HEALTH AGENCY OF SAN LUIS OBISPO",
    "npi": null,
    "hcaiId": "406404098",
    "businessName": "PREMIUM LIFE CARE, INC",
    "contactEmail": "MV@BRIGHTSTARCARE.COM",
    "categoryName": "HOME HEALTH AGENCY",
    "categoryCode": "HHA",
    "licenseStatus": "ACTIVE",
    "inService": true,
    "licenseNumber": "550003349",
    "licenseEffectiveDate": "01/12/2025",
    "licenseExpirationDate": "01/11/2026",
    "dataDate": "10/18/2025",
    "capacity": 0,
    "address": "3220 SOUTH HIGUERA STREET, SUITE 315A",
    "city": "SAN LUIS OBISPO",
    "zip": "93401",
    "county": "SAN LUIS OBISPO",
    "phone": "(805) 548-8811",
    "lat": 35.256636,
    "lng": -120.669858
  },
  {
    "id": "630024467",
    "name": "CALIFORNIA MEDICAL SURGERY CENTER, LLC",
    "npi": null,
    "hcaiId": null,
    "businessName": null,
    "contactEmail": "JFALK@CALMEDSURGERYCENTER.COM",
    "categoryName": "SURGICAL CLINIC",
    "categoryCode": "ASC",
    "licenseStatus": null,
    "inService": null,
    "licenseNumber": null,
    "licenseEffectiveDate": null,
    "licenseExpirationDate": null,
    "dataDate": "10/18/2025",
    "capacity": 0,
    "address": "620 CALIFORNIA BLVD, SUITE M",
    "city": "SAN LUIS OBISPO",
    "zip": "93401",
    "county": "SAN LUIS OBISPO",
    "phone": "(805) 548-1070",
    "lat": 35.290719,
    "lng": -120.6571905
  },
  {
    "id": "050000097",
    "name": "CENTERWELL HOME HEALTH",
    "npi": "1861428567",
    "hcaiId": "406404061",
    "businessName": "CENTERWELL CERTIFIED HEALTHCARE CORP.",
    "contactEmail": "AIVARS.SICS@CENTERWELLHOMEHEALTH.COM",
    "categoryName": "HOME HEALTH AGENCY",
    "categoryCode": "HHA",
    "licenseStatus": "ACTIVE",
    "inService": true,
    "licenseNumber": "050000095",
    "licenseEffectiveDate": "06/01/2024",
    "licenseExpirationDate": "05/31/2025",
    "dataDate": "10/18/2025",
    "capacity": 0,
    "address": "805 AEROVISTA PL, SUITE 204",
    "city": "SAN LUIS OBISPO",
    "zip": "93401",
    "county": "SAN LUIS OBISPO",
    "phone": "(913) 814-2674",
    "lat": 35.241111,
    "lng": -120.6425295
  },
  {
    "id": "630019945",
    "name": "CENTRAL COAST GASTROENTEROLOGY - SAN LUIS OBISPO II",
    "npi": null,
    "hcaiId": null,
    "businessName": "PACIFIC CENTRAL COAST HEALTH CENTERS",
    "contactEmail": null,
    "categoryName": "PRIMARY CARE CLINIC",
    "categoryCode": "COMTYC",
    "licenseStatus": "ACTIVE",
    "inService": true,
    "licenseNumber": "050000415",
    "licenseEffectiveDate": "11/21/2024",
    "licenseExpirationDate": "11/20/2025",
    "dataDate": "10/18/2025",
    "capacity": 0,
    "address": "1551 BISHOP ST, SUITE 510",
    "city": "SAN LUIS OBISPO",
    "zip": "93401",
    "county": "SAN LUIS OBISPO",
    "phone": "(805) 994-5485",
    "lat": 35.274456,
    "lng": -120.6445905
  },
  {
    "id": "630011736",
    "name": "CENTRAL COAST HOME HEALTH INC",
    "npi": "1609044924",
    "hcaiId": "406404072",
    "businessName": "CENTRAL COAST HOME HEALTH INC",
    "contactEmail": "INFO@CCHH08.COM",
    "categoryName": "HOME HEALTH AGENCY",
    "categoryCode": "HHA",
    "licenseStatus": "ACTIVE",
    "inService": true,
    "licenseNumber": "550000764",
    "licenseEffectiveDate": "11/15/2024",
    "licenseExpirationDate": "11/14/2025",
    "dataDate": "10/18/2025",
    "capacity": 0,
    "address": "253 GRANADA DR, SUITE D",
    "city": "SAN LUIS OBISPO",
    "zip": "93401",
    "county": "SAN LUIS OBISPO",
    "phone": "(805) 543-2244",
    "lat": 35.250732,
    "lng": -120.666888
  },
  {
    "id": "630012768",
    "name": "CENTRAL COAST HOME HEALTH INC",
    "npi": null,
    "hcaiId": null,
    "businessName": "CENTRAL COAST HOME HEALTH INC",
    "contactEmail": null,
    "categoryName": "HOSPICE",
    "categoryCode": "HOSPICE",
    "licenseStatus": "ACTIVE",
    "inService": true,
    "licenseNumber": "550000764",
    "licenseEffectiveDate": "11/15/2024",
    "licenseExpirationDate": "11/14/2025",
    "dataDate": "10/18/2025",
    "capacity": 0,
    "address": "253 GRANADA DR, SUITE D",
    "city": "SAN LUIS OBISPO",
    "zip": "93401",
    "county": "SAN LUIS OBISPO",
    "phone": "(805) 543-2244",
    "lat": 35.250732,
    "lng": -120.666888
  },
  {
    "id": "050001345",
    "name": "CHUPARROSA STREET HOME",
    "npi": "1154458701",
    "hcaiId": null,
    "businessName": "RSCR CALIFORNIA, INC.",
    "contactEmail": "KHOUSER@RESCARE.COM",
    "categoryName": "INTERMEDIATE CARE FACILITY-DD/H/N/CN/IID",
    "categoryCode": "ICFDDH",
    "licenseStatus": "ACTIVE",
    "inService": true,
    "licenseNumber": "050000536",
    "licenseEffectiveDate": "11/04/2025",
    "licenseExpirationDate": "11/03/2026",
    "dataDate": "10/18/2025",
    "capacity": 6,
    "address": "60 CHUPARROSA DR",
    "city": "SAN LUIS OBISPO",
    "zip": "93401",
    "county": "SAN LUIS OBISPO",
    "phone": "(805) 541-5439",
    "lat": 35.24508,
    "lng": -120.6763605
  },
  {
    "id": "630011743",
    "name": "COMMUNITY HEALTH CENTERS MOBILE DENTAL",
    "npi": null,
    "hcaiId": "306404071",
    "businessName": "COMMUNITY HEALTH CENTERS OF THE CENTRAL COAST, INC.",
    "contactEmail": "SSOSA@CHCCC.ORG",
    "categoryName": "PRIMARY CARE CLINIC",
    "categoryCode": "COMTYC",
    "licenseStatus": "ACTIVE",
    "inService": true,
    "licenseNumber": "550000743",
    "licenseEffectiveDate": "06/06/2025",
    "licenseExpirationDate": "06/05/2026",
    "dataDate": "10/18/2025",
    "capacity": 0,
    "address": "1551 BISHOP ST",
    "city": "SAN LUIS OBISPO",
    "zip": "93401",
    "county": "SAN LUIS OBISPO",
    "phone": "(805) 346-3911",
    "lat": 35.274573,
    "lng": -120.6451305
  },
  {
    "id": "630019101",
    "name": "COMMUNITY HEALTH CENTERS PRADO",
    "npi": null,
    "hcaiId": null,
    "businessName": "COMMUNITY HEALTH CENTERS OF THE CENTRAL COAST, INC.",
    "contactEmail": null,
    "categoryName": "PRIMARY CARE CLINIC",
    "categoryCode": "COMTYC",
    "licenseStatus": "ACTIVE",
    "inService": true,
    "licenseNumber": "550000574",
    "licenseEffectiveDate": "11/05/2025",
    "licenseExpirationDate": "11/04/2026",
    "dataDate": "10/18/2025",
    "capacity": 0,
    "address": "40 PRADO RD",
    "city": "SAN LUIS OBISPO",
    "zip": "93401",
    "county": "SAN LUIS OBISPO",
    "phone": null,
    "lat": 35.25586037,
    "lng": -120.6719834
  },
  {
    "id": "630011199",
    "name": "COMMUNITY HEALTH CENTERS SAN LUIS OBISPO II",
    "npi": "1275553257",
    "hcaiId": "306404057",
    "businessName": "COMMUNITY HEALTH CENTERS OF THE CENTRAL COAST, INC.",
    "contactEmail": "SSOSA@CHCCC.ORG",
    "categoryName": "PRIMARY CARE CLINIC",
    "categoryCode": "COMTYC",
    "licenseStatus": "ACTIVE",
    "inService": true,
    "licenseNumber": "550000574",
    "licenseEffectiveDate": "11/05/2025",
    "licenseExpirationDate": "11/04/2026",
    "dataDate": "10/18/2025",
    "capacity": 0,
    "address": "1551 BISHOP ST, SUITE B-260",
    "city": "SAN LUIS OBISPO",
    "zip": "93401",
    "county": "SAN LUIS OBISPO",
    "phone": "(805) 346-3911",
    "lat": 35.274573,
    "lng": -120.6451305
  },
  {
    "id": "050001459",
    "name": "COMMUNITY HEALTH CENTERS WOMENS HEALTH",
    "npi": null,
    "hcaiId": "306404064",
    "businessName": "COMMUNITY HEALTH CENTERS OF THE CENTRAL COAST, INC.",
    "contactEmail": "SSOSA@CHCCC.ORG",
    "categoryName": "PRIMARY CARE CLINIC",
    "categoryCode": "COMTYC",
    "licenseStatus": "ACTIVE",
    "inService": true,
    "licenseNumber": "050000584",
    "licenseEffectiveDate": "06/03/2025",
    "licenseExpirationDate": "06/02/2026",
    "dataDate": "10/18/2025",
    "capacity": 0,
    "address": "1551 BISHOP ST, SUITE 240",
    "city": "SAN LUIS OBISPO",
    "zip": "93401",
    "county": "SAN LUIS OBISPO",
    "phone": "(805) 441-5365",
    "lat": 35.273547,
    "lng": -120.6450405
  },
  {
    "id": "630019594",
    "name": "DIGNITY HEALTH PERINATAL CENTER-SAN LUIS OBISPO",
    "npi": null,
    "hcaiId": null,
    "businessName": "PACIFIC CENTRAL COAST HEALTH CENTERS",
    "contactEmail": null,
    "categoryName": "PRIMARY CARE CLINIC",
    "categoryCode": "COMTYC",
    "licenseStatus": "ACTIVE",
    "inService": true,
    "licenseNumber": "050000415",
    "licenseEffectiveDate": "11/21/2024",
    "licenseExpirationDate": "11/20/2025",
    "dataDate": "10/18/2025",
    "capacity": 0,
    "address": "1941 JOHNSON AVE, SUITE 105B",
    "city": "SAN LUIS OBISPO",
    "zip": "93401",
    "county": "SAN LUIS OBISPO",
    "phone": null,
    "lat": 35.277606,
    "lng": -120.650409
  },
  {
    "id": "630019721",
    "name": "EDNA VALLEY HEALTH CENTER",
    "npi": null,
    "hcaiId": null,
    "businessName": "PACIFIC CENTRAL COAST HEALTH CENTERS",
    "contactEmail": null,
    "categoryName": "PRIMARY CARE CLINIC",
    "categoryCode": "COMTYC",
    "licenseStatus": "ACTIVE",
    "inService": true,
    "licenseNumber": "050000415",
    "licenseEffectiveDate": "11/21/2024",
    "licenseExpirationDate": "11/20/2025",
    "dataDate": "10/18/2025",
    "capacity": 0,
    "address": "4460 BROAD ST, SUITE 110",
    "city": "SAN LUIS OBISPO",
    "zip": "93401",
    "county": "SAN LUIS OBISPO",
    "phone": null,
    "lat": 35.24228033,
    "lng": -120.6390613
  },
  {
    "id": "630016005",
    "name": "ELLA STREET SPECIALTY CENTER",
    "npi": "1457741837",
    "hcaiId": "306404096",
    "businessName": "PACIFIC CENTRAL COAST HEALTH CENTERS",
    "contactEmail": "REBECCA.DIGIROLAMO@DIGNITYHEALTH.ORG",
    "categoryName": "PRIMARY CARE CLINIC",
    "categoryCode": "COMTYC",
    "licenseStatus": "ACTIVE",
    "inService": true,
    "licenseNumber": "550003294",
    "licenseEffectiveDate": "11/29/2024",
    "licenseExpirationDate": "11/28/2025",
    "dataDate": "10/18/2025",
    "capacity": 0,
    "address": "1304 ELLA STREET, SUITE A",
    "city": "SAN LUIS OBISPO",
    "zip": "93401",
    "county": "SAN LUIS OBISPO",
    "phone": "(805) 549-9555",
    "lat": 35.27721,
    "lng": -120.6497385
  },
  {
    "id": "050000016",
    "name": "FRENCH HOSPITAL MEDICAL CENTER",
    "npi": "1881760452",
    "hcaiId": "106400480",
    "businessName": "DIGNITY COMMUNITY CARE",
    "contactEmail": "SUE.ANDERSEN@COMMONSPIRIT.ORG",
    "categoryName": "GENERAL ACUTE CARE HOSPITAL",
    "categoryCode": "GACH",
    "licenseStatus": "ACTIVE",
    "inService": true,
    "licenseNumber": "050000031",
    "licenseEffectiveDate": "06/01/2025",
    "licenseExpirationDate": "05/31/2026",
    "dataDate": "10/18/2025",
    "capacity": 98,
    "address": "1911 JOHNSON AVE",
    "city": "SAN LUIS OBISPO",
    "zip": "93401",
    "county": "SAN LUIS OBISPO",
    "phone": "(805) 542-6300",
    "lat": 35.2780311,
    "lng": -120.6497426
  },
  {
    "id": "630015600",
    "name": "GUARDIAN ANGEL HOME CARE OF SAN LUIS OBISPO, LLC",
    "npi": "1942605076",
    "hcaiId": "406404097",
    "businessName": "GUARDIAN ANGEL HOME CARE OF SAN LUIS OBISPO, LLC",
    "contactEmail": "ADMIN@GAHC94.COM",
    "categoryName": "HOME HEALTH AGENCY",
    "categoryCode": "HHA",
    "licenseStatus": "ACTIVE",
    "inService": true,
    "licenseNumber": "550003212",
    "licenseEffectiveDate": "09/03/2025",
    "licenseExpirationDate": "09/02/2026",
    "dataDate": "10/18/2025",
    "capacity": 0,
    "address": "1428 PHILLIPS LN, SUITE B-2",
    "city": "SAN LUIS OBISPO",
    "zip": "93401",
    "county": "SAN LUIS OBISPO",
    "phone": "(805) 544-4001",
    "lat": 35.288172,
    "lng": -120.657528
  },
  {
    "id": "630020334",
    "name": "HIGUERA HEALTH CENTER",
    "npi": null,
    "hcaiId": null,
    "businessName": "PACIFIC CENTRAL COAST HEALTH CENTERS",
    "contactEmail": "PHC-LICENSING@DIGNITYHEALTH.ORG",
    "categoryName": "PRIMARY CARE CLINIC",
    "categoryCode": "COMTYC",
    "licenseStatus": "ACTIVE",
    "inService": true,
    "licenseNumber": "050000415",
    "licenseEffectiveDate": "11/21/2024",
    "licenseExpirationDate": "11/20/2025",
    "dataDate": "10/18/2025",
    "capacity": 0,
    "address": "1555 HIGUERA ST",
    "city": "SAN LUIS OBISPO",
    "zip": "93401",
    "county": "SAN LUIS OBISPO",
    "phone": "(805) 994-5485",
    "lat": 35.285571,
    "lng": -120.65265
  },
  {
    "id": "050000908",
    "name": "MAXIM HEALTHCARE SERVICES INC",
    "npi": "1326086786",
    "hcaiId": "406404059",
    "businessName": "MAXIM HEALTHCARE SERVICES, INC.",
    "contactEmail": "SANLUISOBISPOOFFICE@MAXHEALTH.COM",
    "categoryName": "HOME HEALTH AGENCY",
    "categoryCode": "HHA",
    "licenseStatus": "ACTIVE",
    "inService": true,
    "licenseNumber": "050000363",
    "licenseEffectiveDate": "11/03/2024",
    "licenseExpirationDate": "11/02/2025",
    "dataDate": "10/18/2025",
    "capacity": 0,
    "address": "735 TANK FARM RD, SUITE 290",
    "city": "SAN LUIS OBISPO",
    "zip": "93401",
    "county": "SAN LUIS OBISPO",
    "phone": "(805) 788-0456",
    "lat": 35.248032,
    "lng": -120.6413685
  },
  {
    "id": "630016026",
    "name": "MEDICAL CLINIC AT PEACH",
    "npi": "1184014565",
    "hcaiId": "306404093",
    "businessName": "PACIFIC CENTRAL COAST HEALTH CENTERS",
    "contactEmail": "VALERIE.MURGUIA@DIGNITYHEALTH.ORG",
    "categoryName": "PRIMARY CARE CLINIC",
    "categoryCode": "COMTYC",
    "licenseStatus": "ACTIVE",
    "inService": true,
    "licenseNumber": "550003152",
    "licenseEffectiveDate": "07/22/2024",
    "licenseExpirationDate": "07/21/2025",
    "dataDate": "10/18/2025",
    "capacity": 0,
    "address": "1250 PEACH STREET, SUITE A",
    "city": "SAN LUIS OBISPO",
    "zip": "93401",
    "county": "SAN LUIS OBISPO",
    "phone": "(805) 704-7177",
    "lat": 35.286579,
    "lng": -120.6599895
  },
  {
    "id": "630018927",
    "name": "MEDICAL CLINIC AT PEACH - NORTH",
    "npi": null,
    "hcaiId": null,
    "businessName": "PACIFIC CENTRAL COAST HEALTH CENTERS",
    "contactEmail": null,
    "categoryName": "PRIMARY CARE CLINIC",
    "categoryCode": "COMTYC",
    "licenseStatus": "ACTIVE",
    "inService": true,
    "licenseNumber": "050000415",
    "licenseEffectiveDate": "11/21/2024",
    "licenseExpirationDate": "11/20/2025",
    "dataDate": "10/18/2025",
    "capacity": 0,
    "address": "1250 PEACH ST, SUITE B",
    "city": "SAN LUIS OBISPO",
    "zip": "93401",
    "county": "SAN LUIS OBISPO",
    "phone": "(805) 543-4043",
    "lat": 35.286408,
    "lng": -120.660291
  },
  {
    "id": "050000051",
    "name": "MISSION VIEW HEALTH CENTER",
    "npi": "1811918279",
    "hcaiId": "206400484",
    "businessName": "COMPASS HEALTH, INC.",
    "contactEmail": "MARIE@COMPASS-HEALTH.COM",
    "categoryName": "SKILLED NURSING FACILITY",
    "categoryCode": "SNF",
    "licenseStatus": "ACTIVE",
    "inService": true,
    "licenseNumber": "050000035",
    "licenseEffectiveDate": "04/01/2025",
    "licenseExpirationDate": "03/31/2026",
    "dataDate": "10/18/2025",
    "capacity": 162,
    "address": "1425 WOODSIDE DR",
    "city": "SAN LUIS OBISPO",
    "zip": "93401",
    "county": "SAN LUIS OBISPO",
    "phone": "(805) 543-0210",
    "lat": 35.265492,
    "lng": -120.638322
  },
  {
    "id": "050000430",
    "name": "PLANNED PARENTHOOD OF SAN LUIS OBISPO COUNTY",
    "npi": "1700803285",
    "hcaiId": "306404001",
    "businessName": "PLANNED PARENTHOOD CALIFORNIA CENTRAL COAST",
    "contactEmail": "DALILA.CERVANTES@PPCENTRALCOAST.ORG",
    "categoryName": "PRIMARY CARE CLINIC",
    "categoryCode": "COMTYC",
    "licenseStatus": "ACTIVE",
    "inService": true,
    "licenseNumber": "050000206",
    "licenseEffectiveDate": "11/21/2024",
    "licenseExpirationDate": "11/20/2025",
    "dataDate": "10/18/2025",
    "capacity": 0,
    "address": "743 PISMO ST",
    "city": "SAN LUIS OBISPO",
    "zip": "93401",
    "county": "SAN LUIS OBISPO",
    "phone": "(805) 722-1509",
    "lat": 35.276769,
    "lng": -120.661668
  },
  {
    "id": "080001578",
    "name": "SAN LUIS OBISPO DIALYSIS",
    "npi": "1023327467",
    "hcaiId": "306404037",
    "businessName": "TOTAL RENAL CARE, INC.",
    "contactEmail": "CAL_C@DAVITA.COM",
    "categoryName": "CHRONIC DIALYSIS CLINIC",
    "categoryCode": "ESRD/CDC",
    "licenseStatus": "ACTIVE",
    "inService": true,
    "licenseNumber": "080000672",
    "licenseEffectiveDate": "12/01/2024",
    "licenseExpirationDate": "11/30/2025",
    "dataDate": "10/18/2025",
    "capacity": 20,
    "address": "1043 MARSH ST",
    "city": "SAN LUIS OBISPO",
    "zip": "93401",
    "county": "SAN LUIS OBISPO",
    "phone": "(805) 543-1013",
    "lat": 35.280621,
    "lng": -120.6589905
  },
  {
    "id": "050000283",
    "name": "SAN LUIS OBISPO SURGERY CENTER",
    "npi": "1073578126",
    "hcaiId": "306404006",
    "businessName": "SURGERY CENTER OF SAN LUIS OBISPO",
    "contactEmail": null,
    "categoryName": "SURGICAL CLINIC",
    "categoryCode": "ASC",
    "licenseStatus": "INACTIVE - CAPEN DECISION",
    "inService": false,
    "licenseNumber": "050000269",
    "licenseEffectiveDate": "11/22/2007",
    "licenseExpirationDate": "11/21/2008",
    "dataDate": "10/18/2025",
    "capacity": 0,
    "address": "1304 ELLA ST, SUITE C",
    "city": "SAN LUIS OBISPO",
    "zip": "93401",
    "county": "SAN LUIS OBISPO",
    "phone": "(805) 544-7874",
    "lat": 35.277066,
    "lng": -120.649968
  },
  {
    "id": "050000044",
    "name": "SAN LUIS POST ACUTE CENTER",
    "npi": "1295379931",
    "hcaiId": "206400699",
    "businessName": "COMPASS HEALTH, INC.",
    "contactEmail": "MMAXWELL@COMPASS-HEALTH.COM",
    "categoryName": "SKILLED NURSING FACILITY",
    "categoryCode": "SNF",
    "licenseStatus": "ACTIVE",
    "inService": true,
    "licenseNumber": "050000083",
    "licenseEffectiveDate": "02/08/2025",
    "licenseExpirationDate": "02/07/2026",
    "dataDate": "10/18/2025",
    "capacity": 162,
    "address": "3033 AUGUSTA ST",
    "city": "SAN LUIS OBISPO",
    "zip": "93401",
    "county": "SAN LUIS OBISPO",
    "phone": "(805) 544-5100",
    "lat": 35.266752,
    "lng": -120.641058
  },
  {
    "id": "050000964",
    "name": "SAN LUIS TRANSITIONAL CARE",
    "npi": "1497921936",
    "hcaiId": "206404041",
    "businessName": "COMPASS HEALTH, INC.",
    "contactEmail": "JACK@COMPASS-HEALTH.COM",
    "categoryName": "SKILLED NURSING FACILITY",
    "categoryCode": "SNF",
    "licenseStatus": "ACTIVE",
    "inService": true,
    "licenseNumber": "050000548",
    "licenseEffectiveDate": "06/13/2025",
    "licenseExpirationDate": "06/12/2026",
    "dataDate": "10/18/2025",
    "capacity": 23,
    "address": "1575 BISHOP ST",
    "city": "SAN LUIS OBISPO",
    "zip": "93401",
    "county": "SAN LUIS OBISPO",
    "phone": "(805) 545-7575",
    "lat": 35.274861,
    "lng": -120.644622
  },
  {
    "id": "630012753",
    "name": "SLO NOOR CLINIC",
    "npi": null,
    "hcaiId": "306404079",
    "businessName": "SLO NOOR FOUNDATION A NON PROFIT CORPORATION",
    "contactEmail": "INFO@SLONOORFOUNDATION.ORG",
    "categoryName": "PRIMARY CARE CLINIC",
    "categoryCode": "FREEC",
    "licenseStatus": "ACTIVE",
    "inService": true,
    "licenseNumber": "550001673",
    "licenseEffectiveDate": "05/20/2025",
    "licenseExpirationDate": "05/19/2026",
    "dataDate": "10/18/2025",
    "capacity": 0,
    "address": "1428 PHILLIPS LN",
    "city": "SAN LUIS OBISPO",
    "zip": "93401",
    "county": "SAN LUIS OBISPO",
    "phone": "(805) 439-1797",
    "lat": 35.288172,
    "lng": -120.657528
  },
  {
    "id": "630015913",
    "name": "SLO ONCOLOGY & HEMATOLOGY HEALTH CENTER",
    "npi": "1679978274",
    "hcaiId": "306404090",
    "businessName": "PACIFIC CENTRAL COAST HEALTH CENTERS",
    "contactEmail": "KATHERINE.GUTHRIE@DIGNITYHEALTH.ORG",
    "categoryName": "PRIMARY CARE CLINIC",
    "categoryCode": "COMTYC",
    "licenseStatus": "ACTIVE",
    "inService": true,
    "licenseNumber": "550003093",
    "licenseEffectiveDate": "12/10/2024",
    "licenseExpirationDate": "12/09/2025",
    "dataDate": "10/18/2025",
    "capacity": 0,
    "address": "715 TANK FARM ROAD, SUITE C",
    "city": "SAN LUIS OBISPO",
    "zip": "93401",
    "county": "SAN LUIS OBISPO",
    "phone": "(805) 543-5577",
    "lat": 35.24817924,
    "lng": -120.6432852
  },
  {
    "id": "050000111",
    "name": "THE CENTER FOR HEALTH & PREVENTION",
    "npi": null,
    "hcaiId": "306400771",
    "businessName": "THE COMMUNITY ACTION PARTNERSHIP OF SAN LUIS OBISPO COUNTY, INC.",
    "contactEmail": "KWILBURN@CAPSLO.ORG",
    "categoryName": "PRIMARY CARE CLINIC",
    "categoryCode": "COMTYC",
    "licenseStatus": "ACTIVE",
    "inService": true,
    "licenseNumber": "050000084",
    "licenseEffectiveDate": "03/05/2025",
    "licenseExpirationDate": "03/04/2026",
    "dataDate": "10/18/2025",
    "capacity": 0,
    "address": "705 GRAND AVE",
    "city": "SAN LUIS OBISPO",
    "zip": "93401",
    "county": "SAN LUIS OBISPO",
    "phone": "(805) 544-2498",
    "lat": 35.290089,
    "lng": -120.6535095
  },
  {
    "id": "630026849",
    "name": "VALHALLA SURGERY CENTER, LLC",
    "npi": null,
    "hcaiId": null,
    "businessName": null,
    "contactEmail": "ANAGAOKA@MEDBRIDGE.MD",
    "categoryName": "SURGICAL CLINIC",
    "categoryCode": "ASC",
    "licenseStatus": null,
    "inService": null,
    "licenseNumber": null,
    "licenseEffectiveDate": null,
    "licenseExpirationDate": null,
    "dataDate": "10/18/2025",
    "capacity": 0,
    "address": "4472 BROAD ST, SUITE 150",
    "city": "SAN LUIS OBISPO",
    "zip": "93401",
    "county": "SAN LUIS OBISPO",
    "phone": "(805) 548-1050",
    "lat": 35.24206078,
    "lng": -120.6388567
  },
  {
    "id": "050001224",
    "name": "WILSHIRE HOME HEALTH",
    "npi": "1235137738",
    "hcaiId": "406404033",
    "businessName": "WILSHIRE HEALTH AND COMMUNITY SERVICES INC",
    "contactEmail": "WKESSINGER@WILSHIREHCS.ORG",
    "categoryName": "HOME HEALTH AGENCY",
    "categoryCode": "HHA",
    "licenseStatus": "ACTIVE",
    "inService": true,
    "licenseNumber": "050000487",
    "licenseEffectiveDate": "01/28/2025",
    "licenseExpirationDate": "01/27/2026",
    "dataDate": "10/18/2025",
    "capacity": 0,
    "address": "277 SOUTH ST, SUITE W",
    "city": "SAN LUIS OBISPO",
    "zip": "93401",
    "county": "SAN LUIS OBISPO",
    "phone": "(805) 782-8600",
    "lat": 35.268111,
    "lng": -120.666168
  },
  {
    "id": "070001251",
    "name": "WILSHIRE HOSPICE",
    "npi": null,
    "hcaiId": "406404031",
    "businessName": "HOSPICE PARTNERS INC",
    "contactEmail": "WKESSINGER@WILSHIREHCS.ORG",
    "categoryName": "HOSPICE",
    "categoryCode": "HOSPICE",
    "licenseStatus": "ACTIVE",
    "inService": true,
    "licenseNumber": "070000579",
    "licenseEffectiveDate": "01/08/2025",
    "licenseExpirationDate": "01/07/2027",
    "dataDate": "10/18/2025",
    "capacity": 0,
    "address": "277 SOUTH ST, SUITE R",
    "city": "SAN LUIS OBISPO",
    "zip": "93401",
    "county": "SAN LUIS OBISPO",
    "phone": "(805) 782-8608",
    "lat": 35.268111,
    "lng": -120.666168
  }
]