[
  {
    "id": "050000031",
    "name": "ADVENTIST HEALTH SIERRA VISTA",
    "npi": "1639101116",
    "hcaiId": "106400524",
    "businessName": "SIERRA VISTA HOSPITAL INC",
    "contactEmail": "ASHLOCR1@AH.ORG",
    "categoryName": "GENERAL ACUTE CARE HOSPITAL",
    "categoryCode": "GACH",
    "licenseStatus": "ACTIVE",
    "inService": true,
    "licenseNumber": "050000059",
    "licenseEffectiveDate": "11/01/2025",
    "licenseExpirationDate": "10/31/2026",
    "dataDate": "10/18/2025",
    "capacity": 162,
    "address": "1010 MURRAY AVE",
    "city": "SAN LUIS OBISPO",
    "zip": "93405",
    "county": "SAN LUIS OBISPO",
    "phone": "(805) 546-7695",
    "lat": 35.292114,
    "lng": -120.665988
  },
  {
    "id": "050000045",
    "name": "CASA DE VIDA",
    "npi": "1689889131",
    "hcaiId": "206400792",
    "businessName": "RSCR CALIFORNIA, INC.",
    "contactEmail": "MPAYNE@RESCARE.COM",
    "categoryName": "INTERMEDIATE CARE FACILITY-DD/H/N/CN/IID",
    "categoryCode": "ICFDD",
    "licenseStatus": "ACTIVE",
    "inService": true,
    "licenseNumber": "050000085",
    "licenseEffectiveDate": "12/30/2024",
    "licenseExpirationDate": "12/29/2025",
    "dataDate": "10/18/2025",
    "capacity": 59,
    "address": "879 MEINECKE AVE",
    "city": "SAN LUIS OBISPO",
    "zip": "93405",
    "county": "SAN LUIS OBISPO",
    "phone": "(805) 544-5332",
    "lat": 35.291781,
    "lng": -120.6686115
  },
  {
    "id": "630015932",
    "name": "CASA ST HOME TRAINING",
    "npi": "1477961696",
    "hcaiId": null,
    "businessName": null,
    "contactEmail": "CYNTHIA.HUTCHISON@DAVITA.COM",
    "categoryName": "CHRONIC DIALYSIS CLINIC",
    "categoryCode": "ESRD",
    "licenseStatus": null,
    "inService": null,
    "licenseNumber": null,
    "licenseEffectiveDate": null,
    "licenseExpirationDate": null,
    "dataDate": "10/18/2025",
    "capacity": 0,
    "address": "35 CASA STREET, SUITE 11",
    "city": "SAN LUIS OBISPO",
    "zip": "93405",
    "county": "SAN LUIS OBISPO",
    "phone": "(805) 543-1013",
    "lat": 35.293248,
    "lng": -120.666312
  },
  {
    "id": "630013053",
    "name": "COMMUNITY HEALTH CENTERS CASA",
    "npi": "1629377452",
    "hcaiId": "306404078",
    "businessName": "COMMUNITY HEALTH CENTERS OF THE CENTRAL COAST, INC.",
    "contactEmail": "SSOSA@CHCCC.ORG",
    "categoryName": "PRIMARY CARE CLINIC",
    "categoryCode": "COMTYC",
    "licenseStatus": "ACTIVE",
    "inService": true,
    "licenseNumber": "550001593",
    "licenseEffectiveDate": "05/20/2025",
    "licenseExpirationDate": "05/19/2026",
    "dataDate": "10/18/2025",
    "capacity": 0,
    "address": "77 CASA ST, SUITE 201, 202, 203 & 204",
    "city": "SAN LUIS OBISPO",
    "zip": "93405",
    "county": "SAN LUIS OBISPO",
    "phone": "(805) 549-1851",
    "lat": 35.292888,
    "lng": -120.665259
  },
  {
    "id": "050001064",
    "name": "ENDOSCOPY CENTER OF THE CENTRAL COAST THE",
    "npi": "1487629986",
    "hcaiId": "306404021",
    "businessName": "THE SAN LUIS OBISPO CA ENDOSCOPY ASC LP",
    "contactEmail": "LANDC@AMSURG.COM",
    "categoryName": "SURGICAL CLINIC",
    "categoryCode": "ASC",
    "licenseStatus": "INACTIVE - CAPEN DECISION",
    "inService": false,
    "licenseNumber": "050000424",
    "licenseEffectiveDate": "06/20/2007",
    "licenseExpirationDate": "06/19/2008",
    "dataDate": "10/18/2025",
    "capacity": 0,
    "address": "77 CASA ST, SUITE 106",
    "city": "SAN LUIS OBISPO",
    "zip": "93405",
    "county": "SAN LUIS OBISPO",
    "phone": "(615) 263-4011",
    "lat": 35.292888,
    "lng": -120.665259
  },
  {
    "id": "050001338",
    "name": "GALILEO SURGERY CENTER",
    "npi": "1396748547",
    "hcaiId": "306404039",
    "businessName": null,
    "contactEmail": null,
    "categoryName": "SURGICAL CLINIC",
    "categoryCode": "ASC",
    "licenseStatus": "INACTIVE - CAPEN DECISION",
    "inService": false,
    "licenseNumber": "050000531",
    "licenseEffectiveDate": "11/20/2008",
    "licenseExpirationDate": "11/19/2009",
    "dataDate": "10/18/2025",
    "capacity": 0,
    "address": "1001 E FOOTHILL BLVD",
    "city": "SAN LUIS OBISPO",
    "zip": "93405",
    "county": "SAN LUIS OBISPO",
    "phone": "(805) 782-8222",
    "lat": 35.293437,
    "lng": -120.667212
  },
  {
    "id": "050001347",
    "name": "PEREIRA DRIVE HOME",
    "npi": "1902933666",
    "hcaiId": null,
    "businessName": "RSCR CALIFORNIA, INC.",
    "contactEmail": "KHOUSER@RESCARE.COM",
    "categoryName": "INTERMEDIATE CARE FACILITY-DD/H/N/CN/IID",
    "categoryCode": "ICFDDH",
    "licenseStatus": "ACTIVE",
    "inService": true,
    "licenseNumber": "050000537",
    "licenseEffectiveDate": "11/03/2025",
    "licenseExpirationDate": "11/02/2026",
    "dataDate": "10/18/2025",
    "capacity": 6,
    "address": "1645 PEREIRA DR",
    "city": "SAN LUIS OBISPO",
    "zip": "93405",
    "county": "SAN LUIS OBISPO",
    "phone": "(805) 783-0659",
    "lat": 35.256357,
    "lng": -120.6892215
  },
  {
    "id": "050001152",
    "name": "SAN LUIS OBISPO HOUSE",
    "npi": "1154407773",
    "hcaiId": null,
    "businessName": "OPTIONS FAMILY OF SERVICES, INC.",
    "contactEmail": "DBERTRANDO@OPTIONSFS.ORG",
    "categoryName": "INTERMEDIATE CARE FACILITY-DD/H/N/CN/IID",
    "categoryCode": "ICFDDH",
    "licenseStatus": "ACTIVE",
    "inService": true,
    "licenseNumber": "050000463",
    "licenseEffectiveDate": "05/22/2025",
    "licenseExpirationDate": "05/21/2026",
    "dataDate": "10/18/2025",
    "capacity": 6,
    "address": "1693 MCCOLLUM ST",
    "city": "SAN LUIS OBISPO",
    "zip": "93405",
    "county": "SAN LUIS OBISPO",
    "phone": "(805) 543-3120",
    "lat": 35.29386,
    "lng": -120.654612
  },
  {
    "id": "630027413",
    "name": "THE CENTER AT GRIZZLY YOUTH ACADEMY",
    "npi": null,
    "hcaiId": null,
    "businessName": "THE COMMUNITY ACTION PARTNERSHIP OF SAN LUIS OBISPO COUNTY, INC.",
    "contactEmail": null,
    "categoryName": "PRIMARY CARE CLINIC",
    "categoryCode": "COMTYC",
    "licenseStatus": "ACTIVE",
    "inService": true,
    "licenseNumber": "050000084",
    "licenseEffectiveDate": "03/05/2025",
    "licenseExpirationDate": "03/04/2026",
    "dataDate": "10/18/2025",
    "capacity": 0,
    "address": "721 MENDOCINO AVE",
    "city": "SAN LUIS OBISPO",
    "zip": "93405",
    "county": "SAN LUIS OBISPO",
    "phone": null,
    "lat": 35.3230391,
    "lng": -120.7324284
  }
]