[
  {
    "id": "050000003",
    "name": "ARROYO GRANDE CARE CENTER",
    "npi": "1780850222",
    "hcaiId": "206400527",
    "businessName": "COMPASS HEALTH, INC.",
    "contactEmail": "HAROLD@COMPASS-HEALTH.COM",
    "categoryName": "SKILLED NURSING FACILITY",
    "categoryCode": "SNF",
    "licenseStatus": "ACTIVE",
    "inService": true,
    "licenseNumber": "050000062",
    "licenseEffectiveDate": "11/01/2025",
    "licenseExpirationDate": "10/31/2026",
    "dataDate": "10/18/2025",
    "capacity": 99,
    "address": "1212 FARROLL AVE",
    "city": "ARROYO GRANDE",
    "zip": "93420",
    "county": "SAN LUIS OBISPO",
    "phone": "(805) 489-8137",
    "lat": 35.111502,
    "lng": -120.6020115
  },
  {
    "id": "630018849",
    "name": "ARROYO GRANDE SPECIALTY CENTER",
    "npi": null,
    "hcaiId": "306400460",
    "businessName": "PACIFIC CENTRAL COAST HEALTH CENTERS",
    "contactEmail": "CHRISTINA.RODRIGUEZ@DIGNITYHEALTH.ORG",
    "categoryName": "PRIMARY CARE CLINIC",
    "categoryCode": "COMTYC",
    "licenseStatus": "ACTIVE",
    "inService": true,
    "licenseNumber": "550004883",
    "licenseEffectiveDate": "08/26/2025",
    "licenseExpirationDate": "08/25/2026",
    "dataDate": "10/18/2025",
    "capacity": 0,
    "address": "850 FAIR OAKS AVE, SUITE 100",
    "city": "ARROYO GRANDE",
    "zip": "93420",
    "county": "SAN LUIS OBISPO",
    "phone": "(805) 473-0700",
    "lat": 35.11278562,
    "lng": -120.5897183
  },
  {
    "id": "630013055",
    "name": "COMMUNITY HEALTH CENTERS ARROYO GRANDE",
    "npi": "1598064008",
    "hcaiId": "306404076",
    "businessName": "COMMUNITY HEALTH CENTERS OF THE CENTRAL COAST, INC.",
    "contactEmail": "SSOSA@CHCCC.ORG",
    "categoryName": "PRIMARY CARE CLINIC",
    "categoryCode": "COMTYC",
    "licenseStatus": "ACTIVE",
    "inService": true,
    "licenseNumber": "550001581",
    "licenseEffectiveDate": "05/13/2025",
    "licenseExpirationDate": "05/12/2026",
    "dataDate": "10/18/2025",
    "capacity": 0,
    "address": "260 STATION WAY",
    "city": "ARROYO GRANDE",
    "zip": "93420",
    "county": "SAN LUIS OBISPO",
    "phone": "(805) 929-3211",
    "lat": 35.119701,
    "lng": -120.578319
  },
  {
    "id": "630017563",
    "name": "COMMUNITY HEALTH CENTERS ARROYO GRANDE",
    "npi": "1871010280",
    "hcaiId": "306400356",
    "businessName": "COMMUNITY HEALTH CENTERS OF THE CENTRAL COAST, INC.",
    "contactEmail": "SSOSA@CHCCC.ORG",
    "categoryName": "PRIMARY CARE CLINIC",
    "categoryCode": "COMTYC",
    "licenseStatus": "ACTIVE",
    "inService": true,
    "licenseNumber": "550004174",
    "licenseEffectiveDate": "03/09/2025",
    "licenseExpirationDate": "03/08/2026",
    "dataDate": "10/18/2025",
    "capacity": 0,
    "address": "1205 E GRAND AVE, SUITE H",
    "city": "ARROYO GRANDE",
    "zip": "93420",
    "county": "SAN LUIS OBISPO",
    "phone": "(805) 346-3911",
    "lat": 35.12047401,
    "lng": -120.6007749
  },
  {
    "id": "630014057",
    "name": "COMMUNITY HEALTH CENTERS OF THE CENTRAL COAST",
    "npi": null,
    "hcaiId": null,
    "businessName": null,
    "contactEmail": null,
    "categoryName": "PRIMARY CARE CLINIC",
    "categoryCode": "FQHC",
    "licenseStatus": null,
    "inService": null,
    "licenseNumber": null,
    "licenseEffectiveDate": null,
    "licenseExpirationDate": null,
    "dataDate": "10/18/2025",
    "capacity": 0,
    "address": "260 STATION WAY",
    "city": "ARROYO GRANDE",
    "zip": "93420",
    "county": "SAN LUIS OBISPO",
    "phone": null,
    "lat": 35.119701,
    "lng": -120.578319
  },
  {
    "id": "630023821",
    "name": "COMMUNITY HOME HEALTH INC",
    "npi": null,
    "hcaiId": "406405897",
    "businessName": "COMMUNITY HOME HEALTH INC",
    "contactEmail": "INFO@805COMMUNITYHH.COM",
    "categoryName": "HOME HEALTH AGENCY",
    "categoryCode": "HHA",
    "licenseStatus": "ACTIVE",
    "inService": true,
    "licenseNumber": "550008091",
    "licenseEffectiveDate": "07/15/2025",
    "licenseExpirationDate": "07/14/2026",
    "dataDate": "10/18/2025",
    "capacity": 0,
    "address": "131 BRIDGE ST, SUITE A",
    "city": "ARROYO GRANDE",
    "zip": "93420",
    "county": "SAN LUIS OBISPO",
    "phone": "(805) 270-4700",
    "lat": 35.122464,
    "lng": -120.5777295
  },
  {
    "id": "050001157",
    "name": "DOCTORS OFFICE/FAIR OAKS COMMUNITY HEALTH CENTERS",
    "npi": null,
    "hcaiId": "306404034",
    "businessName": "COMMUNITY HEALTH CENTERS OF THE CENTRAL COAST, INC.",
    "contactEmail": "SSOSA@CHCCC.ORG",
    "categoryName": "PRIMARY CARE CLINIC",
    "categoryCode": "COMTYC",
    "licenseStatus": "ACTIVE",
    "inService": true,
    "licenseNumber": "050000477",
    "licenseEffectiveDate": "11/22/2024",
    "licenseExpirationDate": "11/21/2025",
    "dataDate": "10/18/2025",
    "capacity": 0,
    "address": "1057 E GRAND AVE",
    "city": "ARROYO GRANDE",
    "zip": "93420",
    "county": "SAN LUIS OBISPO",
    "phone": "(805) 348-3911",
    "lat": 35.11897938,
    "lng": -120.5950599
  },
  {
    "id": "630024922",
    "name": "FAIR OAKS SPECIALTY CENTER",
    "npi": null,
    "hcaiId": null,
    "businessName": "PACIFIC CENTRAL COAST HEALTH CENTERS",
    "contactEmail": null,
    "categoryName": "PRIMARY CARE CLINIC",
    "categoryCode": "COMTYC",
    "licenseStatus": "ACTIVE",
    "inService": true,
    "licenseNumber": "050000415",
    "licenseEffectiveDate": "11/21/2024",
    "licenseExpirationDate": "11/20/2025",
    "dataDate": "10/18/2025",
    "capacity": 0,
    "address": "850 FAIR OAKS AVE, SUITE 220",
    "city": "ARROYO GRANDE",
    "zip": "93420",
    "county": "SAN LUIS OBISPO",
    "phone": null,
    "lat": 35.11278562,
    "lng": -120.5897183
  },
  {
    "id": "050001147",
    "name": "HALCYON LASER & SURGERY CENTER INC",
    "npi": "1396700753",
    "hcaiId": "306404027",
    "businessName": "HALCYON LASER & AMBULATORY SURGERY CENTER INC",
    "contactEmail": null,
    "categoryName": "SURGICAL CLINIC",
    "categoryCode": "ASC",
    "licenseStatus": "INACTIVE - CAPEN DECISION",
    "inService": false,
    "licenseNumber": "050000462",
    "licenseEffectiveDate": "05/02/2007",
    "licenseExpirationDate": "05/01/2008",
    "dataDate": "10/18/2025",
    "capacity": 0,
    "address": "303 S HALCYON RD",
    "city": "ARROYO GRANDE",
    "zip": "93420",
    "county": "SAN LUIS OBISPO",
    "phone": "(805) 489-8254",
    "lat": 35.114661,
    "lng": -120.590982
  },
  {
    "id": "050000871",
    "name": "MAGNOLIA COMMUNITY HOME",
    "npi": "1568598969",
    "hcaiId": null,
    "businessName": "NORMAL LIFE OF CALIFORNIA INC",
    "contactEmail": "KHOUSER@RESCARE.COM",
    "categoryName": "INTERMEDIATE CARE FACILITY-DD/H/N/CN/IID",
    "categoryCode": "ICFDDN",
    "licenseStatus": "ACTIVE",
    "inService": true,
    "licenseNumber": "050000347",
    "licenseEffectiveDate": "02/20/2025",
    "licenseExpirationDate": "02/19/2026",
    "dataDate": "10/18/2025",
    "capacity": 6,
    "address": "1011 MAGNOLIA DR",
    "city": "ARROYO GRANDE",
    "zip": "93420",
    "county": "SAN LUIS OBISPO",
    "phone": "(805) 489-2873",
    "lat": 35.106867,
    "lng": -120.594888
  },
  {
    "id": "050000009",
    "name": "MARIAN REGIONAL MEDICAL CENTER, ARROYO GRANDE",
    "npi": "1760510937",
    "hcaiId": "106400466",
    "businessName": "DIGNITY HEALTH",
    "contactEmail": "SUE.ANDERSON@DIGNITYHEALTH.ORG",
    "categoryName": "GENERAL ACUTE CARE HOSPITAL",
    "categoryCode": "GACH",
    "licenseStatus": "ACTIVE",
    "inService": true,
    "licenseNumber": "050000040",
    "licenseEffectiveDate": "11/26/2025",
    "licenseExpirationDate": "11/25/2026",
    "dataDate": "10/18/2025",
    "capacity": 67,
    "address": "345 S HALCYON RD",
    "city": "ARROYO GRANDE",
    "zip": "93420",
    "county": "SAN LUIS OBISPO",
    "phone": "(805) 739-3100",
    "lat": 35.113464,
    "lng": -120.590532
  },
  {
    "id": "630018720",
    "name": "MISSION HOPE MEDICAL ONCOLOGY - ARROYO GRANDE",
    "npi": "1861965055",
    "hcaiId": "306400470",
    "businessName": "PACIFIC CENTRAL COAST HEALTH CENTERS",
    "contactEmail": "DEREK.BADEN@COMMONSPIRIT.ORG",
    "categoryName": "PRIMARY CARE CLINIC",
    "categoryCode": "COMTYC",
    "licenseStatus": "ACTIVE",
    "inService": true,
    "licenseNumber": "550004783",
    "licenseEffectiveDate": "07/08/2025",
    "licenseExpirationDate": "07/07/2026",
    "dataDate": "10/18/2025",
    "capacity": 0,
    "address": "850 FAIR OAKS AVE, SUITE 310",
    "city": "ARROYO GRANDE",
    "zip": "93420",
    "county": "SAN LUIS OBISPO",
    "phone": "(405) 476-1785",
    "lat": 35.11278562,
    "lng": -120.5897183
  },
  {
    "id": "050001431",
    "name": "OAK PARK SURGERY CENTER",
    "npi": "1750308763",
    "hcaiId": "306404045",
    "businessName": "SURGICAL SPECIALISTS OF ARROYO GRANDE",
    "contactEmail": null,
    "categoryName": "SURGICAL CLINIC",
    "categoryCode": "ASC",
    "licenseStatus": "INACTIVE - CAPEN DECISION",
    "inService": false,
    "licenseNumber": "050000571",
    "licenseEffectiveDate": "11/30/2007",
    "licenseExpirationDate": "11/29/2008",
    "dataDate": "10/18/2025",
    "capacity": 0,
    "address": "860 OAK PARK BLVD, SUITE 102",
    "city": "ARROYO GRANDE",
    "zip": "93420",
    "county": "SAN LUIS OBISPO",
    "phone": "(805) 474-6383",
    "lat": 35.132976,
    "lng": -120.605211
  },
  {
    "id": "050001343",
    "name": "PIKE, THE",
    "npi": "1033246681",
    "hcaiId": null,
    "businessName": "RSCR CALIFORNIA, INC.",
    "contactEmail": "KHOUSER@RESCARE.COM",
    "categoryName": "INTERMEDIATE CARE FACILITY-DD/H/N/CN/IID",
    "categoryCode": "ICFDDH",
    "licenseStatus": "ACTIVE",
    "inService": true,
    "licenseNumber": "050000535",
    "licenseEffectiveDate": "11/05/2025",
    "licenseExpirationDate": "11/04/2026",
    "dataDate": "10/18/2025",
    "capacity": 6,
    "address": "988 THE PIKE",
    "city": "ARROYO GRANDE",
    "zip": "93420",
    "county": "SAN LUIS OBISPO",
    "phone": "(805) 473-4677",
    "lat": 35.10644899,
    "lng": -120.5940592
  },
  {
    "id": "050000931",
    "name": "TAYLOR COMMUNITY HOME",
    "npi": "1457487852",
    "hcaiId": null,
    "businessName": "NORMAL LIFE OF CALIFORNIA INC",
    "contactEmail": "KHOUSER@RESCARE.COM",
    "categoryName": "INTERMEDIATE CARE FACILITY-DD/H/N/CN/IID",
    "categoryCode": "ICFDDN",
    "licenseStatus": "ACTIVE",
    "inService": true,
    "licenseNumber": "050000372",
    "licenseEffectiveDate": "02/20/2025",
    "licenseExpirationDate": "02/19/2026",
    "dataDate": "10/18/2025",
    "capacity": 6,
    "address": "601 TAYLOR PL",
    "city": "ARROYO GRANDE",
    "zip": "93420",
    "county": "SAN LUIS OBISPO",
    "phone": "(805) 481-3864",
    "lat": 35.117739,
    "lng": -120.5887905
  },
  {
    "id": "050000110",
    "name": "THE CENTER FOR HEALTH & PREVENTION",
    "npi": null,
    "hcaiId": "306400795",
    "businessName": "THE COMMUNITY ACTION PARTNERSHIP OF SAN LUIS OBISPO COUNTY, INC.",
    "contactEmail": "KWILBURN@CAPSLO.ORG",
    "categoryName": "PRIMARY CARE CLINIC",
    "categoryCode": "COMTYC",
    "licenseStatus": "ACTIVE",
    "inService": true,
    "licenseNumber": "050000086",
    "licenseEffectiveDate": "01/15/2025",
    "licenseExpirationDate": "01/14/2026",
    "dataDate": "10/18/2025",
    "capacity": 0,
    "address": "1152 E GRAND AVE",
    "city": "ARROYO GRANDE",
    "zip": "93420",
    "county": "SAN LUIS OBISPO",
    "phone": "(805) 489-4026",
    "lat": 35.120718,
    "lng": -120.5974485
  },
  {
    "id": "630027408",
    "name": "THE CENTER FOR HEALTH & PREVENTION",
    "npi": null,
    "hcaiId": null,
    "businessName": "THE COMMUNITY ACTION PARTNERSHIP OF SAN LUIS OBISPO COUNTY, INC.",
    "contactEmail": null,
    "categoryName": "PRIMARY CARE CLINIC",
    "categoryCode": "COMTYC",
    "licenseStatus": "ACTIVE",
    "inService": true,
    "licenseNumber": "050000086",
    "licenseEffectiveDate": "01/15/2025",
    "licenseExpirationDate": "01/14/2026",
    "dataDate": "10/18/2025",
    "capacity": 0,
    "address": "1152 E GRAND AVE",
    "city": "ARROYO GRANDE",
    "zip": "93420",
    "county": "SAN LUIS OBISPO",
    "phone": null,
    "lat": 35.12088199,
    "lng": -120.597292
  }
]