[
  {
    "id": "050000649",
    "name": "ATASCADERO HOUSE",
    "npi": "1154407773",
    "hcaiId": null,
    "businessName": "OPTIONS FAMILY OF SERVICES, INC.",
    "contactEmail": "DBERTRANDO@OPTIONSFS.ORG",
    "categoryName": "INTERMEDIATE CARE FACILITY-DD/H/N/CN/IID",
    "categoryCode": "ICFDDH",
    "licenseStatus": "ACTIVE",
    "inService": true,
    "licenseNumber": "050000301",
    "licenseEffectiveDate": "04/14/2025",
    "licenseExpirationDate": "04/13/2026",
    "dataDate": "10/18/2025",
    "capacity": 6,
    "address": "8020 COROMAR AVE",
    "city": "ATASCADERO",
    "zip": "93422",
    "county": "SAN LUIS OBISPO",
    "phone": "(805) 461-3401",
    "lat": 35.474976,
    "lng": -120.65994
  },
  {
    "id": "050000048",
    "name": "COASTAL OAKS SPECIAL CARE CENTER",
    "npi": "1063688984",
    "hcaiId": "206400477",
    "businessName": "GHC OF ATASCADERO, LLC",
    "contactEmail": "STEPHENCRAIG@LIFEGEN.NET",
    "categoryName": "SKILLED NURSING FACILITY",
    "categoryCode": "SNF",
    "licenseStatus": "ACTIVE",
    "inService": true,
    "licenseNumber": "050000029",
    "licenseEffectiveDate": "08/01/2025",
    "licenseExpirationDate": "12/30/2025",
    "dataDate": "10/18/2025",
    "capacity": 65,
    "address": "10805 EL CAMINO REAL",
    "city": "ATASCADERO",
    "zip": "93422",
    "county": "SAN LUIS OBISPO",
    "phone": "(310) 384-9018",
    "lat": 35.457147,
    "lng": -120.639942
  },
  {
    "id": "050001460",
    "name": "COMMUNITY HEALTH CENTERS ATASCADERO",
    "npi": null,
    "hcaiId": "306404066",
    "businessName": "COMMUNITY HEALTH CENTERS OF THE CENTRAL COAST, INC.",
    "contactEmail": "SSOSA@CHCCC.ORG",
    "categoryName": "PRIMARY CARE CLINIC",
    "categoryCode": "COMTYC",
    "licenseStatus": "ACTIVE",
    "inService": true,
    "licenseNumber": "550009342",
    "licenseEffectiveDate": "09/06/2025",
    "licenseExpirationDate": "09/05/2026",
    "dataDate": "10/18/2025",
    "capacity": 0,
    "address": "7512 MORRO RD # 7516, SUITE 7512, 7520, 7524",
    "city": "ATASCADERO",
    "zip": "93422",
    "county": "SAN LUIS OBISPO",
    "phone": "(805) 792-1400",
    "lat": 35.477217,
    "lng": -120.667842
  },
  {
    "id": "150001243",
    "name": "DEPARTMENT OF STATE HOSPITALS - ATASCADERO",
    "npi": null,
    "hcaiId": "106400683",
    "businessName": "STATE OF CALIFORNIA, DEPARTMENT OF STATE HOSPITALS",
    "contactEmail": "ASHSTANDARDSCOMPLIANCELICENSING@DSH.CA.GOV",
    "categoryName": "ACUTE PSYCHIATRIC HOSPITAL",
    "categoryCode": "APH",
    "licenseStatus": "ACTIVE",
    "inService": true,
    "licenseNumber": "150000498",
    "licenseEffectiveDate": "11/30/2024",
    "licenseExpirationDate": "11/29/2025",
    "dataDate": "10/18/2025",
    "capacity": 311,
    "address": "10333 EL CAMINO REAL",
    "city": "ATASCADERO",
    "zip": "93422",
    "county": "SAN LUIS OBISPO",
    "phone": "(805) 468-2748",
    "lat": 35.46109506,
    "lng": -120.6443786
  },
  {
    "id": "150001245",
    "name": "DEPARTMENT OF STATE HOSPITALS - ATASCADERO",
    "npi": null,
    "hcaiId": null,
    "businessName": "STATE OF CALIFORNIA, DEPARTMENT OF STATE HOSPITALS",
    "contactEmail": "CONCEPCION.TIPTON@DSH.CA.GOV",
    "categoryName": "INTERMEDIATE CARE FACILITY",
    "categoryCode": "ICF",
    "licenseStatus": "ACTIVE",
    "inService": true,
    "licenseNumber": "150000498",
    "licenseEffectiveDate": "11/30/2024",
    "licenseExpirationDate": "11/29/2025",
    "dataDate": "10/18/2025",
    "capacity": 964,
    "address": "10333 EL CAMINO REAL",
    "city": "ATASCADERO",
    "zip": "93422",
    "county": "SAN LUIS OBISPO",
    "phone": "(805) 468-3248",
    "lat": 35.46109506,
    "lng": -120.6443786
  },
  {
    "id": "050001168",
    "name": "DIGNITY HEALTH HOME HEALTH - ATASCADERO",
    "npi": "1225184963",
    "hcaiId": "406404026",
    "businessName": "DIGNITY HEALTH",
    "contactEmail": null,
    "categoryName": "HOME HEALTH AGENCY",
    "categoryCode": "HHA",
    "licenseStatus": "ACTIVE",
    "inService": true,
    "licenseNumber": "050000233",
    "licenseEffectiveDate": "11/28/2024",
    "licenseExpirationDate": "11/27/2025",
    "dataDate": "10/18/2025",
    "capacity": 0,
    "address": "4555 EL CAMINO REAL, SUITE A",
    "city": "ATASCADERO",
    "zip": "93422",
    "county": "SAN LUIS OBISPO",
    "phone": "(805) 739-3831",
    "lat": 35.497656,
    "lng": -120.6808695
  },
  {
    "id": "630020650",
    "name": "DIGNITY HEALTH HOSPICE",
    "npi": "1821134040",
    "hcaiId": null,
    "businessName": "DIGNITY HEALTH",
    "contactEmail": "ANJU.AGARWAL@DIGNITYHEALTH.ORG",
    "categoryName": "HOSPICE",
    "categoryCode": "HOSPICE",
    "licenseStatus": "ACTIVE",
    "inService": true,
    "licenseNumber": "070000712",
    "licenseEffectiveDate": "11/06/2025",
    "licenseExpirationDate": "11/05/2027",
    "dataDate": "10/18/2025",
    "capacity": 0,
    "address": "4555 EL CAMINO REAL, UNIT A",
    "city": "ATASCADERO",
    "zip": "93422",
    "county": "SAN LUIS OBISPO",
    "phone": "(805) 739-3830",
    "lat": 35.497656,
    "lng": -120.6808695
  },
  {
    "id": "630016454",
    "name": "GALILEO SURGERY CENTER, LP",
    "npi": "1396748547",
    "hcaiId": null,
    "businessName": null,
    "contactEmail": null,
    "categoryName": "SURGICAL CLINIC",
    "categoryCode": "ASC",
    "licenseStatus": null,
    "inService": null,
    "licenseNumber": null,
    "licenseEffectiveDate": null,
    "licenseExpirationDate": null,
    "dataDate": "10/18/2025",
    "capacity": 0,
    "address": "5000 SAN PALO ROAD",
    "city": "ATASCADERO",
    "zip": "93422",
    "county": "SAN LUIS OBISPO",
    "phone": null,
    "lat": 35.494587,
    "lng": -120.680658
  },
  {
    "id": "630018552",
    "name": "MED PLUS ATASCADERO",
    "npi": null,
    "hcaiId": "306400459",
    "businessName": "PACIFIC CENTRAL COAST HEALTH CENTERS",
    "contactEmail": "AMBER.BUHL@COMMONSPIRIT.ORG",
    "categoryName": "PRIMARY CARE CLINIC",
    "categoryCode": "COMTYC",
    "licenseStatus": "ACTIVE",
    "inService": true,
    "licenseNumber": "550004658",
    "licenseEffectiveDate": "05/14/2025",
    "licenseExpirationDate": "05/13/2026",
    "dataDate": "10/18/2025",
    "capacity": 0,
    "address": "5920 WEST MALL",
    "city": "ATASCADERO",
    "zip": "93422",
    "county": "SAN LUIS OBISPO",
    "phone": "(915) 433-2545",
    "lat": 35.48943,
    "lng": -120.668229
  }
]