[
  {
    "id": "630001661",
    "name": "COMMUNITY HEALTH CENTERS LOMPOC",
    "npi": "1326065103",
    "hcaiId": "306424078",
    "businessName": "COMMUNITY HEALTH CENTERS OF THE CENTRAL COAST, INC.",
    "contactEmail": "SSOSA@CHCCC.ORG",
    "categoryName": "PRIMARY CARE CLINIC",
    "categoryCode": "COMTYC",
    "licenseStatus": "ACTIVE",
    "inService": true,
    "licenseNumber": "550000016",
    "licenseEffectiveDate": "04/29/2025",
    "licenseExpirationDate": "04/28/2026",
    "dataDate": "10/18/2025",
    "capacity": 0,
    "address": "1300 W OCEAN AVE",
    "city": "LOMPOC",
    "zip": "93436",
    "county": "SANTA BARBARA",
    "phone": "(805) 929-3211",
    "lat": 34.63839,
    "lng": -120.473658
  },
  {
    "id": "050000632",
    "name": "COUNTY HEALTH CLINIC LOMPOC",
    "npi": null,
    "hcaiId": null,
    "businessName": null,
    "contactEmail": null,
    "categoryName": "PRIMARY CARE CLINIC",
    "categoryCode": "FQHC",
    "licenseStatus": null,
    "inService": null,
    "licenseNumber": null,
    "licenseEffectiveDate": null,
    "licenseExpirationDate": null,
    "dataDate": "10/18/2025",
    "capacity": 0,
    "address": "301 N R ST",
    "city": "LOMPOC",
    "zip": "93436",
    "county": "SANTA BARBARA",
    "phone": "(805) 737-6400",
    "lat": 34.64239894,
    "lng": -120.4705784
  },
  {
    "id": "050000488",
    "name": "CROSS SPEECH REHABILITATION AGENCY",
    "npi": null,
    "hcaiId": null,
    "businessName": null,
    "contactEmail": null,
    "categoryName": "REHABILITATION CLINIC",
    "categoryCode": "OPT/SP",
    "licenseStatus": null,
    "inService": null,
    "licenseNumber": null,
    "licenseEffectiveDate": null,
    "licenseExpirationDate": null,
    "dataDate": "10/18/2025",
    "capacity": 0,
    "address": "191 BURTON MESA BLVD, SUITE D",
    "city": "LOMPOC",
    "zip": "93436",
    "county": "SANTA BARBARA",
    "phone": "(805) 733-4542",
    "lat": 34.704234,
    "lng": -120.464739
  },
  {
    "id": "050000678",
    "name": "LA PALOMA GROUP HOME",
    "npi": "1912126988",
    "hcaiId": null,
    "businessName": "LIFE OPTIONS VOCATIONAL & RESOURCE CENTER (LOVARC)",
    "contactEmail": "EVANDERHOOF@LOVARC.ORG",
    "categoryName": "INTERMEDIATE CARE FACILITY-DD/H/N/CN/IID",
    "categoryCode": "ICFDDH",
    "licenseStatus": "ACTIVE",
    "inService": true,
    "licenseNumber": "050000295",
    "licenseEffectiveDate": "02/04/2025",
    "licenseExpirationDate": "02/03/2026",
    "dataDate": "10/18/2025",
    "capacity": 6,
    "address": "229 N E ST",
    "city": "LOMPOC",
    "zip": "93436",
    "county": "SANTA BARBARA",
    "phone": "(805) 737-4328",
    "lat": 34.641666,
    "lng": -120.45438
  },
  {
    "id": "080001580",
    "name": "LOMPOC ARTIFICIAL KIDNEY CENTER LLC",
    "npi": "1770618571",
    "hcaiId": "306424042",
    "businessName": "LOMPOC ARTIFICIAL KIDNEY CENTER LLC",
    "contactEmail": "BKAMAL@SBAKC.COM",
    "categoryName": "CHRONIC DIALYSIS CLINIC",
    "categoryCode": "ESRD/CDC",
    "licenseStatus": "ACTIVE",
    "inService": true,
    "licenseNumber": "080000674",
    "licenseEffectiveDate": "11/15/2025",
    "licenseExpirationDate": "11/14/2026",
    "dataDate": "10/18/2025",
    "capacity": 20,
    "address": "127 W PINE AVE",
    "city": "LOMPOC",
    "zip": "93436",
    "county": "SANTA BARBARA",
    "phone": "(805) 740-2000",
    "lat": 34.65026694,
    "lng": -120.458819
  },
  {
    "id": "050001416",
    "name": "LOMPOC SKILLED NURSING & REHABILITATION CENTER",
    "npi": "1396081212",
    "hcaiId": "206424054",
    "businessName": "GHC OF LOMPOC, LLC",
    "contactEmail": "KIRKKLOTTHOR@LIFEGEN.NET",
    "categoryName": "SKILLED NURSING FACILITY",
    "categoryCode": "SNF",
    "licenseStatus": "ACTIVE",
    "inService": true,
    "licenseNumber": "050000567",
    "licenseEffectiveDate": "03/28/2025",
    "licenseExpirationDate": "03/27/2026",
    "dataDate": "10/18/2025",
    "capacity": 120,
    "address": "1428 W NORTH AVE",
    "city": "LOMPOC",
    "zip": "93436",
    "county": "SANTA BARBARA",
    "phone": "(805) 735-4010",
    "lat": 34.653042,
    "lng": -120.473532
  },
  {
    "id": "630028084",
    "name": "LOMPOC SURGERY CENTER, LLC",
    "npi": null,
    "hcaiId": null,
    "businessName": null,
    "contactEmail": "PBALDWIN@LOMPOCSURGERY.COM",
    "categoryName": "SURGICAL CLINIC",
    "categoryCode": "ASC",
    "licenseStatus": null,
    "inService": null,
    "licenseNumber": null,
    "licenseEffectiveDate": null,
    "licenseExpirationDate": null,
    "dataDate": "10/18/2025",
    "capacity": 0,
    "address": "215 N H ST, SUITE B",
    "city": "LOMPOC",
    "zip": "93436",
    "county": "SANTA BARBARA",
    "phone": "(805) 588-7984",
    "lat": 34.6413453,
    "lng": -120.4582509
  },
  {
    "id": "050000018",
    "name": "LOMPOC VALLEY MEDICAL CENTER",
    "npi": "1194711952",
    "hcaiId": "106420491",
    "businessName": "LOMPOC VALLEY MEDICAL CENTER",
    "contactEmail": "COPEY@LOMPOCVMC.COM",
    "categoryName": "GENERAL ACUTE CARE HOSPITAL",
    "categoryCode": "GACH",
    "licenseStatus": "ACTIVE",
    "inService": true,
    "licenseNumber": "050000038",
    "licenseEffectiveDate": "11/24/2024",
    "licenseExpirationDate": "11/23/2025",
    "dataDate": "10/18/2025",
    "capacity": 60,
    "address": "1515 E OCEAN AVE",
    "city": "LOMPOC",
    "zip": "93436",
    "county": "SANTA BARBARA",
    "phone": "(805) 737-3300",
    "lat": 34.639524,
    "lng": -120.4391974
  },
  {
    "id": "050000054",
    "name": "LOMPOC VALLEY MEDICAL CENTER COMPREHENSIVE CARE CENTER D/P SNF",
    "npi": "1376539130",
    "hcaiId": "206420552",
    "businessName": "LOMPOC VALLEY MEDICAL CENTER",
    "contactEmail": null,
    "categoryName": "SKILLED NURSING FACILITY",
    "categoryCode": "SNF",
    "licenseStatus": "ACTIVE",
    "inService": true,
    "licenseNumber": "050000038",
    "licenseEffectiveDate": "11/24/2024",
    "licenseExpirationDate": "11/23/2025",
    "dataDate": "10/18/2025",
    "capacity": 110,
    "address": "216 N 3RD ST",
    "city": "LOMPOC",
    "zip": "93436",
    "county": "SANTA BARBARA",
    "phone": "(805) 737-3301",
    "lat": 34.641306,
    "lng": -120.4445295
  },
  {
    "id": "630014858",
    "name": "MED PLUS LOMPOC",
    "npi": "1417294455",
    "hcaiId": "306424093",
    "businessName": "PACIFIC CENTRAL COAST HEALTH CENTERS",
    "contactEmail": "LINDA.PENNY@DIGNITYHEALTH.ORG",
    "categoryName": "PRIMARY CARE CLINIC",
    "categoryCode": "COMTYC",
    "licenseStatus": "ACTIVE",
    "inService": true,
    "licenseNumber": "550002624",
    "licenseEffectiveDate": "04/04/2024",
    "licenseExpirationDate": "04/03/2025",
    "dataDate": "10/18/2025",
    "capacity": 0,
    "address": "217 W CENTRAL AVE, SUITE E,F&G",
    "city": "LOMPOC",
    "zip": "93436",
    "county": "SANTA BARBARA",
    "phone": "(805) 735-4292",
    "lat": 34.661169,
    "lng": -120.460041
  },
  {
    "id": "630028197",
    "name": "SANTA BARBARA COUNTY PUBLIC HEALTH DEPARTMENT - BRIDGEHOUSE",
    "npi": null,
    "hcaiId": null,
    "businessName": null,
    "contactEmail": null,
    "categoryName": "PRIMARY CARE CLINIC",
    "categoryCode": "FQHC",
    "licenseStatus": null,
    "inService": null,
    "licenseNumber": null,
    "licenseEffectiveDate": null,
    "licenseExpirationDate": null,
    "dataDate": "10/18/2025",
    "capacity": 0,
    "address": "2025 SWEENEY RD",
    "city": "LOMPOC",
    "zip": "93436",
    "county": "SANTA BARBARA",
    "phone": null,
    "lat": 34.64525802,
    "lng": -120.427768
  },
  {
    "id": "630017955",
    "name": "SUPERIOR HOME HEALTH",
    "npi": "1750834719",
    "hcaiId": "406421541",
    "businessName": "IAATK INC",
    "contactEmail": "PMARTINEZ@SUPERIORHH.COM",
    "categoryName": "HOME HEALTH AGENCY",
    "categoryCode": "HHA",
    "licenseStatus": "ACTIVE",
    "inService": true,
    "licenseNumber": "550004518",
    "licenseEffectiveDate": "01/21/2025",
    "licenseExpirationDate": "01/20/2026",
    "dataDate": "10/18/2025",
    "capacity": 0,
    "address": "320 E WALNUT AVE",
    "city": "LOMPOC",
    "zip": "93436",
    "county": "SANTA BARBARA",
    "phone": "(805) 742-4514",
    "lat": 34.640424,
    "lng": -120.454398
  },
  {
    "id": "630019433",
    "name": "SUPERIOR HOSPICE, INC.",
    "npi": null,
    "hcaiId": "406422576",
    "businessName": "SUPERIOR HOSPICE, INC.",
    "contactEmail": "PMARTINEZ@SUPERIORHH.COM",
    "categoryName": "HOSPICE",
    "categoryCode": "HOSPICE",
    "licenseStatus": "ACTIVE",
    "inService": true,
    "licenseNumber": "550005472",
    "licenseEffectiveDate": "05/14/2024",
    "licenseExpirationDate": "05/13/2026",
    "dataDate": "10/18/2025",
    "capacity": 0,
    "address": "320 E WALNUT AVE, SUITE A",
    "city": "LOMPOC",
    "zip": "93436",
    "county": "SANTA BARBARA",
    "phone": "(805) 558-0213",
    "lat": 34.640424,
    "lng": -120.454398
  }
]