[
  {
    "id": "630019946",
    "name": "CENTRAL COAST GASTROENTEROLOGY - PISMO BEACH",
    "npi": null,
    "hcaiId": null,
    "businessName": "PACIFIC CENTRAL COAST HEALTH CENTERS",
    "contactEmail": null,
    "categoryName": "PRIMARY CARE CLINIC",
    "categoryCode": "COMTYC",
    "licenseStatus": "ACTIVE",
    "inService": true,
    "licenseNumber": "050000415",
    "licenseEffectiveDate": "11/21/2024",
    "licenseExpirationDate": "11/20/2025",
    "dataDate": "10/18/2025",
    "capacity": 0,
    "address": "2 JAMES WAY, SUITE 207",
    "city": "PISMO BEACH",
    "zip": "93449",
    "county": "SAN LUIS OBISPO",
    "phone": "(805) 994-5485",
    "lat": 35.138934,
    "lng": -120.6306585
  },
  {
    "id": "050001461",
    "name": "COASTAL SURGICAL INSTITUTE",
    "npi": "1821194754",
    "hcaiId": "306404053",
    "businessName": "COASTAL SURGICAL SPECIALISTS INC",
    "contactEmail": null,
    "categoryName": "SURGICAL CLINIC",
    "categoryCode": "ASC",
    "licenseStatus": "INACTIVE - CAPEN DECISION",
    "inService": false,
    "licenseNumber": "050000593",
    "licenseEffectiveDate": "11/18/2007",
    "licenseExpirationDate": "11/17/2008",
    "dataDate": "10/18/2025",
    "capacity": 0,
    "address": "921 OAK PARK BLVD, SUITE 101",
    "city": "PISMO BEACH",
    "zip": "93449",
    "county": "SAN LUIS OBISPO",
    "phone": "(805) 473-9850",
    "lat": 35.13458662,
    "lng": -120.6051212
  },
  {
    "id": "630020333",
    "name": "MED PLUS PISMO BEACH",
    "npi": null,
    "hcaiId": null,
    "businessName": "PACIFIC CENTRAL COAST HEALTH CENTERS",
    "contactEmail": "PHC-LICENSING@DIGNITYHEALTH.ORG",
    "categoryName": "PRIMARY CARE CLINIC",
    "categoryCode": "COMTYC",
    "licenseStatus": "ACTIVE",
    "inService": true,
    "licenseNumber": "050000415",
    "licenseEffectiveDate": "11/21/2024",
    "licenseExpirationDate": "11/20/2025",
    "dataDate": "10/18/2025",
    "capacity": 0,
    "address": "877 OAK PARK BLVD",
    "city": "PISMO BEACH",
    "zip": "93449",
    "county": "SAN LUIS OBISPO",
    "phone": "(805) 994-5485",
    "lat": 35.132121,
    "lng": -120.606471
  },
  {
    "id": "630010221",
    "name": "PISMO BEACH DIALYSIS",
    "npi": "1144539586",
    "hcaiId": "306404058",
    "businessName": "TOTAL RENAL CARE, INC.",
    "contactEmail": "CAL_C@DAVITA.COM",
    "categoryName": "CHRONIC DIALYSIS CLINIC",
    "categoryCode": "ESRD/CDC",
    "licenseStatus": "ACTIVE",
    "inService": true,
    "licenseNumber": "550000172",
    "licenseEffectiveDate": "12/01/2024",
    "licenseExpirationDate": "11/30/2025",
    "dataDate": "10/18/2025",
    "capacity": 14,
    "address": "320 JAMES WAY, SUITE 110",
    "city": "PISMO BEACH",
    "zip": "93449",
    "county": "SAN LUIS OBISPO",
    "phone": "(805) 556-0577",
    "lat": 35.138691,
    "lng": -120.6249795
  },
  {
    "id": "630022554",
    "name": "PISMO BEACH HEALTH CENTER",
    "npi": null,
    "hcaiId": null,
    "businessName": "PACIFIC CENTRAL COAST HEALTH CENTERS",
    "contactEmail": "PHC-LICENSING@DIGNITYHEALTH.ORG",
    "categoryName": "PRIMARY CARE CLINIC",
    "categoryCode": "COMTYC",
    "licenseStatus": "ACTIVE",
    "inService": true,
    "licenseNumber": "050000415",
    "licenseEffectiveDate": "11/21/2024",
    "licenseExpirationDate": "11/20/2025",
    "dataDate": "10/18/2025",
    "capacity": 0,
    "address": "901 OAK PARK BLVD, SUITE 202",
    "city": "PISMO BEACH",
    "zip": "93449",
    "county": "SAN LUIS OBISPO",
    "phone": "(809) 994-5485",
    "lat": 35.134614,
    "lng": -120.605499
  },
  {
    "id": "630020335",
    "name": "PISMO BEACH PEDIATRIC CENTER",
    "npi": null,
    "hcaiId": null,
    "businessName": "PACIFIC CENTRAL COAST HEALTH CENTERS",
    "contactEmail": "PHC-LICENSING@DIGNITYHEALTH.ORG",
    "categoryName": "PRIMARY CARE CLINIC",
    "categoryCode": "COMTYC",
    "licenseStatus": "ACTIVE",
    "inService": true,
    "licenseNumber": "050000415",
    "licenseEffectiveDate": "11/21/2024",
    "licenseExpirationDate": "11/20/2025",
    "dataDate": "10/18/2025",
    "capacity": 0,
    "address": "2 JAMES WAY, SUITE 209",
    "city": "PISMO BEACH",
    "zip": "93449",
    "county": "SAN LUIS OBISPO",
    "phone": "(805) 994-5485",
    "lat": 35.138934,
    "lng": -120.6306585
  },
  {
    "id": "630026847",
    "name": "TRINITY HOME HEALTH, LLC",
    "npi": null,
    "hcaiId": null,
    "businessName": "TRINITY HOME HEALTH, LLC",
    "contactEmail": "SHERRI@TRINITYHEALTHSVCS.COM",
    "categoryName": "HOME HEALTH AGENCY",
    "categoryCode": "HHA",
    "licenseStatus": "ACTIVE",
    "inService": true,
    "licenseNumber": "550009822",
    "licenseEffectiveDate": "11/15/2025",
    "licenseExpirationDate": "05/14/2026",
    "dataDate": "10/18/2025",
    "capacity": 0,
    "address": "500 CYPRESS ST, SUITE S-18",
    "city": "PISMO BEACH",
    "zip": "93449",
    "county": "SAN LUIS OBISPO",
    "phone": "(805) 936-5005",
    "lat": 35.13915,
    "lng": -120.6407205
  },
  {
    "id": "630020339",
    "name": "VENTANA HEALTH CENTER",
    "npi": null,
    "hcaiId": null,
    "businessName": "PACIFIC CENTRAL COAST HEALTH CENTERS",
    "contactEmail": "PHC-LICENSING@DIGNITYHEALTH.ORG",
    "categoryName": "PRIMARY CARE CLINIC",
    "categoryCode": "COMTYC",
    "licenseStatus": "ACTIVE",
    "inService": true,
    "licenseNumber": "050000415",
    "licenseEffectiveDate": "11/21/2024",
    "licenseExpirationDate": "11/20/2025",
    "dataDate": "10/18/2025",
    "capacity": 0,
    "address": "901 OAK PARK BLVD, SUITE 101",
    "city": "PISMO BEACH",
    "zip": "93449",
    "county": "SAN LUIS OBISPO",
    "phone": "(805) 994-5485",
    "lat": 35.134614,
    "lng": -120.605499
  }
]