[
  {
    "id": "630014207",
    "name": "COMMUNITY HEALTH CENTERS MOBILE MEDICAL VAN 1",
    "npi": null,
    "hcaiId": "306404082",
    "businessName": "COMMUNITY HEALTH CENTERS OF THE CENTRAL COAST, INC.",
    "contactEmail": "SSOSA@CHCCC.ORG",
    "categoryName": "PRIMARY CARE CLINIC",
    "categoryCode": "COMTYC",
    "licenseStatus": "ACTIVE",
    "inService": true,
    "licenseNumber": "550002256",
    "licenseEffectiveDate": "05/01/2025",
    "licenseExpirationDate": "04/30/2026",
    "dataDate": "10/18/2025",
    "capacity": 0,
    "address": "150 TEJAS PL",
    "city": "NIPOMO",
    "zip": "93444",
    "county": "SAN LUIS OBISPO",
    "phone": "(805) 929-3211",
    "lat": 35.026992,
    "lng": -120.4987995
  },
  {
    "id": "630014208",
    "name": "COMMUNITY HEALTH CENTERS MOBILE MEDICAL VAN 2",
    "npi": null,
    "hcaiId": "306404083",
    "businessName": "COMMUNITY HEALTH CENTERS OF THE CENTRAL COAST, INC.",
    "contactEmail": "SSOSA@CHCCC.ORG",
    "categoryName": "PRIMARY CARE CLINIC",
    "categoryCode": "COMTYC",
    "licenseStatus": "ACTIVE",
    "inService": true,
    "licenseNumber": "550002255",
    "licenseEffectiveDate": "05/01/2025",
    "licenseExpirationDate": "04/30/2026",
    "dataDate": "10/18/2025",
    "capacity": 0,
    "address": "150 TEJAS PL",
    "city": "NIPOMO",
    "zip": "93444",
    "county": "SAN LUIS OBISPO",
    "phone": "(805) 929-3211",
    "lat": 35.026992,
    "lng": -120.4987995
  },
  {
    "id": "630014209",
    "name": "COMMUNITY HEALTH CENTERS MOBILE MEDICAL VAN 3",
    "npi": null,
    "hcaiId": "306404084",
    "businessName": "COMMUNITY HEALTH CENTERS OF THE CENTRAL COAST, INC.",
    "contactEmail": "SOSSA@CHCCC.ORG",
    "categoryName": "PRIMARY CARE CLINIC",
    "categoryCode": "COMTYC",
    "licenseStatus": "ACTIVE",
    "inService": true,
    "licenseNumber": "550002254",
    "licenseEffectiveDate": "05/01/2025",
    "licenseExpirationDate": "04/30/2026",
    "dataDate": "10/18/2025",
    "capacity": 0,
    "address": "150 TEJAS PL",
    "city": "NIPOMO",
    "zip": "93444",
    "county": "SAN LUIS OBISPO",
    "phone": "(805) 929-3211",
    "lat": 35.026992,
    "lng": -120.4987995
  },
  {
    "id": "630013684",
    "name": "COMMUNITY HEALTH CENTERS, MOBILE DENTAL VAN 2",
    "npi": null,
    "hcaiId": "306404081",
    "businessName": "COMMUNITY HEALTH CENTERS OF THE CENTRAL COAST, INC.",
    "contactEmail": "SSOSA@CHCCC.ORG",
    "categoryName": "PRIMARY CARE CLINIC",
    "categoryCode": "COMTYC",
    "licenseStatus": "ACTIVE",
    "inService": true,
    "licenseNumber": "550002022",
    "licenseEffectiveDate": "08/10/2025",
    "licenseExpirationDate": "08/09/2026",
    "dataDate": "10/18/2025",
    "capacity": 0,
    "address": "150 TEJAS PL",
    "city": "NIPOMO",
    "zip": "93444",
    "county": "SAN LUIS OBISPO",
    "phone": "(805) 346-3911",
    "lat": 35.026992,
    "lng": -120.4987995
  },
  {
    "id": "630024241",
    "name": "MONARCH VILLAGE HEALTH CENTER",
    "npi": null,
    "hcaiId": null,
    "businessName": "PACIFIC CENTRAL COAST HEALTH CENTERS",
    "contactEmail": "PHC-LICENSING@DIGNITYHEALTH.ORG",
    "categoryName": "PRIMARY CARE CLINIC",
    "categoryCode": "COMTYC",
    "licenseStatus": "ACTIVE",
    "inService": true,
    "licenseNumber": "050000415",
    "licenseEffectiveDate": "11/21/2024",
    "licenseExpirationDate": "11/20/2025",
    "dataDate": "10/18/2025",
    "capacity": 0,
    "address": "1560 MESA RD, SUITE 100",
    "city": "NIPOMO",
    "zip": "93444",
    "county": "SAN LUIS OBISPO",
    "phone": "(805) 994-5485",
    "lat": 35.03007,
    "lng": -120.5496495
  },
  {
    "id": "050000115",
    "name": "NIPOMO COMMUNITY MEDICAL CENTER",
    "npi": null,
    "hcaiId": "306401170",
    "businessName": "COMMUNITY HEALTH CENTERS OF THE CENTRAL COAST, INC.",
    "contactEmail": "SSOSA@CHCC.ORG",
    "categoryName": "PRIMARY CARE CLINIC",
    "categoryCode": "COMTYC",
    "licenseStatus": "ACTIVE",
    "inService": true,
    "licenseNumber": "050000111",
    "licenseEffectiveDate": "11/25/2024",
    "licenseExpirationDate": "11/24/2025",
    "dataDate": "10/18/2025",
    "capacity": 0,
    "address": "150 TEJAS PL",
    "city": "NIPOMO",
    "zip": "93444",
    "county": "SAN LUIS OBISPO",
    "phone": "(805) 929-3211",
    "lat": 35.026992,
    "lng": -120.4987995
  },
  {
    "id": "630020336",
    "name": "NIPOMO HEALTH CENTER",
    "npi": null,
    "hcaiId": null,
    "businessName": "PACIFIC CENTRAL COAST HEALTH CENTERS",
    "contactEmail": "PHC-LICENSING@DIGNITYHEALTH.ORG",
    "categoryName": "PRIMARY CARE CLINIC",
    "categoryCode": "COMTYC",
    "licenseStatus": "ACTIVE",
    "inService": true,
    "licenseNumber": "050000415",
    "licenseEffectiveDate": "11/21/2024",
    "licenseExpirationDate": "11/20/2025",
    "dataDate": "10/18/2025",
    "capacity": 0,
    "address": "697 W TEFFT ST",
    "city": "NIPOMO",
    "zip": "93444",
    "county": "SAN LUIS OBISPO",
    "phone": "(805) 994-5485",
    "lat": 35.03407652,
    "lng": -120.4894506
  }
]