[
  {
    "id": "050000139",
    "name": "BAYSIDE CARE CENTER",
    "npi": "1588830020",
    "hcaiId": "206400497",
    "businessName": "COMPASS HEALTH, INC.",
    "contactEmail": "MARISSA@COMPASS-HEALTH.COM",
    "categoryName": "SKILLED NURSING FACILITY",
    "categoryCode": "SNF",
    "licenseStatus": "ACTIVE",
    "inService": true,
    "licenseNumber": "050000043",
    "licenseEffectiveDate": "11/01/2025",
    "licenseExpirationDate": "10/31/2026",
    "dataDate": "10/18/2025",
    "capacity": 145,
    "address": "1405 TERESA DR",
    "city": "MORRO BAY",
    "zip": "93442",
    "county": "SAN LUIS OBISPO",
    "phone": "(805) 772-2237",
    "lat": 35.365617,
    "lng": -120.825009
  },
  {
    "id": "630016585",
    "name": "MEDICAL CLINIC AT MORRO",
    "npi": "1821487414",
    "hcaiId": "306404101",
    "businessName": "PACIFIC CENTRAL COAST HEALTH CENTERS",
    "contactEmail": "AMBER.BUHL@DIGNITYHEALTH.ORG",
    "categoryName": "PRIMARY CARE CLINIC",
    "categoryCode": "COMTYC",
    "licenseStatus": "ACTIVE",
    "inService": true,
    "licenseNumber": "550003461",
    "licenseEffectiveDate": "04/12/2025",
    "licenseExpirationDate": "04/11/2026",
    "dataDate": "10/18/2025",
    "capacity": 0,
    "address": "658 MORRO AVENUE, SUITE C",
    "city": "MORRO BAY",
    "zip": "93442",
    "county": "SAN LUIS OBISPO",
    "phone": "(805) 772-7313",
    "lat": 35.36456741,
    "lng": -120.8510921
  },
  {
    "id": "050000648",
    "name": "MORRO BAY HOUSE",
    "npi": "1154407773",
    "hcaiId": null,
    "businessName": "OPTIONS FAMILY OF SERVICES, INC.",
    "contactEmail": "DBERTRANDO@OPTIONSFS.ORG",
    "categoryName": "INTERMEDIATE CARE FACILITY-DD/H/N/CN/IID",
    "categoryCode": "ICFDDH",
    "licenseStatus": "ACTIVE",
    "inService": true,
    "licenseNumber": "050000300",
    "licenseEffectiveDate": "04/02/2025",
    "licenseExpirationDate": "04/01/2026",
    "dataDate": "10/18/2025",
    "capacity": 6,
    "address": "490 BERNARDO AVE",
    "city": "MORRO BAY",
    "zip": "93442",
    "county": "SAN LUIS OBISPO",
    "phone": "(805) 772-5131",
    "lat": 35.361927,
    "lng": -120.843099
  }
]