[
  {
    "id": "630014885",
    "name": "CENTER FOR WOMEN'S HEALTH",
    "npi": "1275974461",
    "hcaiId": "306424092",
    "businessName": "PACIFIC CENTRAL COAST HEALTH CENTERS",
    "contactEmail": "CHRISTINA.RODRIGUEZ@COMMONSPIRIT.ORG",
    "categoryName": "PRIMARY CARE CLINIC",
    "categoryCode": "COMTYC",
    "licenseStatus": "ACTIVE",
    "inService": true,
    "licenseNumber": "550002625",
    "licenseEffectiveDate": "04/04/2025",
    "licenseExpirationDate": "04/03/2026",
    "dataDate": "10/18/2025",
    "capacity": 0,
    "address": "210 S PALISADE DR, SUITE 101",
    "city": "SANTA MARIA",
    "zip": "93454",
    "county": "SANTA BARBARA",
    "phone": "(805) 739-3898",
    "lat": 34.95168,
    "lng": -120.411648
  },
  {
    "id": "630013742",
    "name": "COASTAL VALLEY HEALTH CENTER",
    "npi": "1225307317",
    "hcaiId": "306424084",
    "businessName": "PACIFIC CENTRAL COAST HEALTH CENTERS",
    "contactEmail": "RAHUL.VINCHHI@DIGNITYHEALTH.ORG",
    "categoryName": "PRIMARY CARE CLINIC",
    "categoryCode": "COMTYC",
    "licenseStatus": "ACTIVE",
    "inService": true,
    "licenseNumber": "550001978",
    "licenseEffectiveDate": "06/27/2025",
    "licenseExpirationDate": "06/26/2026",
    "dataDate": "10/18/2025",
    "capacity": 0,
    "address": "1510 E MAIN ST, SUITE 104-C",
    "city": "SANTA MARIA",
    "zip": "93454",
    "county": "SANTA BARBARA",
    "phone": "(805) 349-8514",
    "lat": 34.952337,
    "lng": -120.410208
  },
  {
    "id": "630017615",
    "name": "COMMUNITY HEALTH CENTERS ADVANCED PRIMARY CARE",
    "npi": "1629595038",
    "hcaiId": "306420348",
    "businessName": "COMMUNITY HEALTH CENTERS OF THE CENTRAL COAST, INC.",
    "contactEmail": "SSOSA@CHCCC.ORG",
    "categoryName": "PRIMARY CARE CLINIC",
    "categoryCode": "COMTYC",
    "licenseStatus": "ACTIVE",
    "inService": true,
    "licenseNumber": "050000575",
    "licenseEffectiveDate": "05/23/2025",
    "licenseExpirationDate": "05/22/2026",
    "dataDate": "10/18/2025",
    "capacity": 0,
    "address": "1510 E MAIN ST, 104B",
    "city": "SANTA MARIA",
    "zip": "93454",
    "county": "SANTA BARBARA",
    "phone": "(805) 346-3911",
    "lat": 34.952397,
    "lng": -120.4101051
  },
  {
    "id": "630012496",
    "name": "COMMUNITY HEALTH CENTERS ARBOR",
    "npi": "1174859425",
    "hcaiId": "306414114",
    "businessName": "COMMUNITY HEALTH CENTERS OF THE CENTRAL COAST, INC.",
    "contactEmail": "SSOSA@CHCCC.ORG",
    "categoryName": "PRIMARY CARE CLINIC",
    "categoryCode": "COMTYC",
    "licenseStatus": "ACTIVE",
    "inService": true,
    "licenseNumber": "550001201",
    "licenseEffectiveDate": "01/07/2025",
    "licenseExpirationDate": "01/06/2026",
    "dataDate": "10/18/2025",
    "capacity": 0,
    "address": "1418 E MAIN ST, SUITE 210",
    "city": "SANTA MARIA",
    "zip": "93454",
    "county": "SANTA BARBARA",
    "phone": "(805) 346-3911",
    "lat": 34.952472,
    "lng": -120.413511
  },
  {
    "id": "630013150",
    "name": "COMMUNITY HEALTH CENTERS BROADWAY",
    "npi": "1861791378",
    "hcaiId": "306424079",
    "businessName": "COMMUNITY HEALTH CENTERS OF THE CENTRAL COAST, INC.",
    "contactEmail": "MMCKENZI@CHCCC.ORG",
    "categoryName": "PRIMARY CARE CLINIC",
    "categoryCode": "COMTYC",
    "licenseStatus": "ACTIVE",
    "inService": true,
    "licenseNumber": "550000402",
    "licenseEffectiveDate": "01/19/2025",
    "licenseExpirationDate": "01/18/2026",
    "dataDate": "10/18/2025",
    "capacity": 0,
    "address": "210 N BROADWAY",
    "city": "SANTA MARIA",
    "zip": "93454",
    "county": "SANTA BARBARA",
    "phone": "(805) 347-1171",
    "lat": 34.95454942,
    "lng": -120.4356846
  },
  {
    "id": "630017562",
    "name": "COMMUNITY HEALTH CENTERS COASTAL DENTAL",
    "npi": "1902323314",
    "hcaiId": "306420352",
    "businessName": "COMMUNITY HEALTH CENTERS OF THE CENTRAL COAST, INC.",
    "contactEmail": "SSOSA@CHCCC.ORG",
    "categoryName": "PRIMARY CARE CLINIC",
    "categoryCode": "COMTYC",
    "licenseStatus": "ACTIVE",
    "inService": true,
    "licenseNumber": "550007935",
    "licenseEffectiveDate": "04/05/2025",
    "licenseExpirationDate": "04/04/2026",
    "dataDate": "10/18/2025",
    "capacity": 0,
    "address": "1304 S MILLER ST",
    "city": "SANTA MARIA",
    "zip": "93454",
    "county": "SANTA BARBARA",
    "phone": "(805) 346-3911",
    "lat": 34.938243,
    "lng": -120.43107
  },
  {
    "id": "630026442",
    "name": "COMMUNITY HEALTH CENTERS PALISADE PRIMARY CARE",
    "npi": null,
    "hcaiId": null,
    "businessName": "COMMUNITY HEALTH CENTERS OF THE CENTRAL COAST, INC.",
    "contactEmail": "SSOSA@CHCCC.ORG",
    "categoryName": "PRIMARY CARE CLINIC",
    "categoryCode": "COMTYC",
    "licenseStatus": "ACTIVE",
    "inService": true,
    "licenseNumber": "050000575",
    "licenseEffectiveDate": "05/23/2025",
    "licenseExpirationDate": "05/22/2026",
    "dataDate": "10/18/2025",
    "capacity": 0,
    "address": "210 S PALISADE DR, SUITE 202A",
    "city": "SANTA MARIA",
    "zip": "93454",
    "county": "SANTA BARBARA",
    "phone": "(805) 346-3911",
    "lat": 34.95168,
    "lng": -120.411648
  },
  {
    "id": "630011011",
    "name": "COMMUNITY HEALTH CENTERS SANTA MARIA  II",
    "npi": "1851417703",
    "hcaiId": "306424094",
    "businessName": "COMMUNITY HEALTH CENTERS OF THE CENTRAL COAST, INC.",
    "contactEmail": "SSOSA@CHCCC.ORG",
    "categoryName": "PRIMARY CARE CLINIC",
    "categoryCode": "COMTYC",
    "licenseStatus": "ACTIVE",
    "inService": true,
    "licenseNumber": "550000402",
    "licenseEffectiveDate": "01/19/2025",
    "licenseExpirationDate": "01/18/2026",
    "dataDate": "10/18/2025",
    "capacity": 0,
    "address": "1835 N BROADWAY",
    "city": "SANTA MARIA",
    "zip": "93454",
    "county": "SANTA BARBARA",
    "phone": "(805) 346-2753",
    "lat": 34.97346013,
    "lng": -120.4356347
  },
  {
    "id": "630026583",
    "name": "COMMUNITY HEALTH CENTERS SANTA MARIA WOMEN'S HEALTH",
    "npi": null,
    "hcaiId": null,
    "businessName": "COMMUNITY HEALTH CENTERS OF THE CENTRAL COAST, INC.",
    "contactEmail": null,
    "categoryName": "PRIMARY CARE CLINIC",
    "categoryCode": "COMTYC",
    "licenseStatus": "ACTIVE",
    "inService": true,
    "licenseNumber": "550001201",
    "licenseEffectiveDate": "01/07/2025",
    "licenseExpirationDate": "01/06/2026",
    "dataDate": "10/18/2025",
    "capacity": 0,
    "address": "116 S PALISADE DR, SUITE 301 & 306",
    "city": "SANTA MARIA",
    "zip": "93454",
    "county": "SANTA BARBARA",
    "phone": null,
    "lat": 34.952373,
    "lng": -120.411279
  },
  {
    "id": "050001400",
    "name": "CYPRESS AMBULATORY SURGERY CENTER",
    "npi": "1235132481",
    "hcaiId": "306424050",
    "businessName": null,
    "contactEmail": "GEORGE@BLOCKPAIN.COM",
    "categoryName": "SURGICAL CLINIC",
    "categoryCode": "ASC",
    "licenseStatus": "INACTIVE - CAPEN DECISION",
    "inService": false,
    "licenseNumber": "050000559",
    "licenseEffectiveDate": "11/01/2008",
    "licenseExpirationDate": "10/31/2009",
    "dataDate": "10/18/2025",
    "capacity": 0,
    "address": "1300 E CYPRESS ST, SUITE E1",
    "city": "SANTA MARIA",
    "zip": "93454",
    "county": "SANTA BARBARA",
    "phone": "(805) 361-5088",
    "lat": 34.950708,
    "lng": -120.41532
  },
  {
    "id": "050000516",
    "name": "DIGNITY HEALTH HOME HEALTH",
    "npi": "1225184963",
    "hcaiId": "406424004",
    "businessName": "DIGNITY HEALTH",
    "contactEmail": "KAREN.NEGRI@DIGNITYHEALTH.ORG",
    "categoryName": "HOME HEALTH AGENCY",
    "categoryCode": "HHA",
    "licenseStatus": "ACTIVE",
    "inService": true,
    "licenseNumber": "050000233",
    "licenseEffectiveDate": "11/28/2024",
    "licenseExpirationDate": "11/27/2025",
    "dataDate": "10/18/2025",
    "capacity": 0,
    "address": "124 S. COLLEGE DRIVE",
    "city": "SANTA MARIA",
    "zip": "93454",
    "county": "SANTA BARBARA",
    "phone": "(805) 739-3835",
    "lat": 34.952076,
    "lng": -120.423591
  },
  {
    "id": "070001259",
    "name": "DIGNITY HEALTH HOSPICE",
    "npi": "1821134040",
    "hcaiId": "406424063",
    "businessName": "DIGNITY HEALTH",
    "contactEmail": "PAUL.KASSON@COMMONSPIRIT.ORG",
    "categoryName": "HOSPICE",
    "categoryCode": "HOSPICE",
    "licenseStatus": "ACTIVE",
    "inService": true,
    "licenseNumber": "070000712",
    "licenseEffectiveDate": "11/06/2025",
    "licenseExpirationDate": "11/05/2027",
    "dataDate": "10/18/2025",
    "capacity": 0,
    "address": "124 S COLLEGE DR, SUITE B",
    "city": "SANTA MARIA",
    "zip": "93454",
    "county": "SANTA BARBARA",
    "phone": "(805) 739-3828",
    "lat": 34.952076,
    "lng": -120.423591
  },
  {
    "id": "630026771",
    "name": "DIGNITY HEALTH PERINATAL AND WOMEN'S CENTER",
    "npi": "1962148726",
    "hcaiId": null,
    "businessName": "PACIFIC CENTRAL COAST HEALTH CENTERS",
    "contactEmail": null,
    "categoryName": "PRIMARY CARE CLINIC",
    "categoryCode": "COMTYC",
    "licenseStatus": "ACTIVE",
    "inService": true,
    "licenseNumber": "050000415",
    "licenseEffectiveDate": "11/21/2024",
    "licenseExpirationDate": "11/20/2025",
    "dataDate": "10/18/2025",
    "capacity": 0,
    "address": "116 S PALISADE DR, SUITE 103 & 104",
    "city": "SANTA MARIA",
    "zip": "93454",
    "county": "SANTA BARBARA",
    "phone": null,
    "lat": 34.952373,
    "lng": -120.411279
  },
  {
    "id": "630015803",
    "name": "DIGNITY HEALTH SURGICAL SPECIALTY CENTER",
    "npi": "1407272636",
    "hcaiId": "306424103",
    "businessName": "PACIFIC CENTRAL COAST HEALTH CENTERS",
    "contactEmail": "RAHUL.VINCHHI@DIGNITYHEALTH.ORG",
    "categoryName": "PRIMARY CARE CLINIC",
    "categoryCode": "COMTYC",
    "licenseStatus": "ACTIVE",
    "inService": true,
    "licenseNumber": "050000415",
    "licenseEffectiveDate": "11/21/2024",
    "licenseExpirationDate": "11/20/2025",
    "dataDate": "10/18/2025",
    "capacity": 0,
    "address": "316 SOUTH STRATFORD AVENUE",
    "city": "SANTA MARIA",
    "zip": "93454",
    "county": "SANTA BARBARA",
    "phone": "(805) 739-3552",
    "lat": 34.950186,
    "lng": -120.41442
  },
  {
    "id": "630020073",
    "name": "DISCOVERY HOME TRAINING",
    "npi": null,
    "hcaiId": null,
    "businessName": null,
    "contactEmail": null,
    "categoryName": "CHRONIC DIALYSIS CLINIC",
    "categoryCode": "ESRD",
    "licenseStatus": null,
    "inService": null,
    "licenseNumber": null,
    "licenseEffectiveDate": null,
    "licenseExpirationDate": null,
    "dataDate": "10/18/2025",
    "capacity": 0,
    "address": "1503 E MAIN ST",
    "city": "SANTA MARIA",
    "zip": "93454",
    "county": "SANTA BARBARA",
    "phone": null,
    "lat": 34.953093,
    "lng": -120.411018
  },
  {
    "id": "630014541",
    "name": "FAMILY MEDICINE CENTER",
    "npi": "1760723910",
    "hcaiId": "306420614",
    "businessName": "PACIFIC CENTRAL COAST HEALTH CENTERS",
    "contactEmail": "RAHUL.VINCHHI@DIGNITYHEALTH.ORG",
    "categoryName": "PRIMARY CARE CLINIC",
    "categoryCode": "COMTYC",
    "licenseStatus": "ACTIVE",
    "inService": true,
    "licenseNumber": "550002496",
    "licenseEffectiveDate": "11/14/2024",
    "licenseExpirationDate": "11/13/2025",
    "dataDate": "10/18/2025",
    "capacity": 0,
    "address": "235 S PALISADE DR",
    "city": "SANTA MARIA",
    "zip": "93454",
    "county": "SANTA BARBARA",
    "phone": "(805) 739-3552",
    "lat": 34.95165082,
    "lng": -120.4121777
  },
  {
    "id": "630013920",
    "name": "GRACE SURGERY CENTER",
    "npi": "1336166248",
    "hcaiId": "306424085",
    "businessName": "DENTAL SURGERY CENTERS OF AMERICA",
    "contactEmail": "JANEICE.MARTINEZ@BLUECLOUDPSC.COM",
    "categoryName": "SURGICAL CLINIC",
    "categoryCode": "ASC/SURGC",
    "licenseStatus": "ACTIVE",
    "inService": true,
    "licenseNumber": "550002038",
    "licenseEffectiveDate": "09/05/2025",
    "licenseExpirationDate": "09/04/2026",
    "dataDate": "10/18/2025",
    "capacity": 0,
    "address": "1418 E MAIN ST, SUITE 110",
    "city": "SANTA MARIA",
    "zip": "93454",
    "county": "SANTA BARBARA",
    "phone": "(805) 623-0330",
    "lat": 34.952472,
    "lng": -120.413511
  },
  {
    "id": "630020332",
    "name": "HANCOCK HEALTH CENTER",
    "npi": null,
    "hcaiId": null,
    "businessName": "PACIFIC CENTRAL COAST HEALTH CENTERS",
    "contactEmail": "PHC-LICENSING@DIGNITYHEALTH.ORG",
    "categoryName": "PRIMARY CARE CLINIC",
    "categoryCode": "COMTYC",
    "licenseStatus": "ACTIVE",
    "inService": true,
    "licenseNumber": "050000415",
    "licenseEffectiveDate": "11/21/2024",
    "licenseExpirationDate": "11/20/2025",
    "dataDate": "10/18/2025",
    "capacity": 0,
    "address": "116 S PALISADE DR, SUITE 200",
    "city": "SANTA MARIA",
    "zip": "93454",
    "county": "SANTA BARBARA",
    "phone": "(805) 994-5485",
    "lat": 34.952373,
    "lng": -120.411279
  },
  {
    "id": "050001028",
    "name": "MARIAN COMMUNITY CLINIC",
    "npi": "1063496651",
    "hcaiId": "306420717",
    "businessName": "PACIFIC CENTRAL COAST HEALTH CENTERS",
    "contactEmail": "JJULIANA.JARAMILLO@DIGNITYHEALTH.ORG",
    "categoryName": "PRIMARY CARE CLINIC",
    "categoryCode": "COMTYC",
    "licenseStatus": "ACTIVE",
    "inService": true,
    "licenseNumber": "050000415",
    "licenseEffectiveDate": "11/21/2024",
    "licenseExpirationDate": "11/20/2025",
    "dataDate": "10/18/2025",
    "capacity": 0,
    "address": "1745 N BROADWAY, SUITE 101",
    "city": "SANTA MARIA",
    "zip": "93454",
    "county": "SANTA BARBARA",
    "phone": "(805) 739-3890",
    "lat": 34.97175,
    "lng": -120.436299
  },
  {
    "id": "050000021",
    "name": "MARIAN REGIONAL MEDICAL CENTER",
    "npi": "1760510937",
    "hcaiId": "106420493",
    "businessName": "DIGNITY HEALTH",
    "contactEmail": "SUE.ANDERSEN@DIGNITYHEALTH.ORG",
    "categoryName": "GENERAL ACUTE CARE HOSPITAL",
    "categoryCode": "GACH",
    "licenseStatus": "ACTIVE",
    "inService": true,
    "licenseNumber": "050000040",
    "licenseEffectiveDate": "11/26/2025",
    "licenseExpirationDate": "11/25/2026",
    "dataDate": "10/18/2025",
    "capacity": 191,
    "address": "1400 E CHURCH ST",
    "city": "SANTA MARIA",
    "zip": "93454",
    "county": "SANTA BARBARA",
    "phone": "(805) 739-3100",
    "lat": 34.950978,
    "lng": -120.4132185
  },
  {
    "id": "050000140",
    "name": "MARIAN REGIONAL MEDICAL CENTER DP/SNF",
    "npi": "1144358953",
    "hcaiId": null,
    "businessName": "DIGNITY HEALTH",
    "contactEmail": null,
    "categoryName": "SKILLED NURSING FACILITY",
    "categoryCode": "SNF",
    "licenseStatus": "ACTIVE",
    "inService": true,
    "licenseNumber": "050000040",
    "licenseEffectiveDate": "11/26/2025",
    "licenseExpirationDate": "11/25/2026",
    "dataDate": "10/18/2025",
    "capacity": 95,
    "address": "1530 CYPRESS WAY",
    "city": "SANTA MARIA",
    "zip": "93454",
    "county": "SANTA BARBARA",
    "phone": "(805) 925-7747",
    "lat": 34.950384,
    "lng": -120.4105815
  },
  {
    "id": "630014542",
    "name": "MISSION HOPE HEALTH CENTER",
    "npi": "1265789721",
    "hcaiId": "306424090",
    "businessName": "PACIFIC CENTRAL COAST HEALTH CENTERS",
    "contactEmail": "KATHERINE.GUTHRIE@DIGNITYHEALTH.ORG",
    "categoryName": "PRIMARY CARE CLINIC",
    "categoryCode": "COMTYC",
    "licenseStatus": "ACTIVE",
    "inService": true,
    "licenseNumber": "550002497",
    "licenseEffectiveDate": "11/15/2024",
    "licenseExpirationDate": "11/14/2025",
    "dataDate": "10/18/2025",
    "capacity": 0,
    "address": "1325 E CHURCH ST, SUITE 202",
    "city": "SANTA MARIA",
    "zip": "93454",
    "county": "SANTA BARBARA",
    "phone": "(805) 346-3456",
    "lat": 34.952346,
    "lng": -120.4150995
  },
  {
    "id": "630021089",
    "name": "MISSION HOPE MEDICAL ONCOLOGY- SANTA MARIA",
    "npi": null,
    "hcaiId": null,
    "businessName": "PACIFIC CENTRAL COAST HEALTH CENTERS",
    "contactEmail": null,
    "categoryName": "PRIMARY CARE CLINIC",
    "categoryCode": "COMTYC",
    "licenseStatus": "ACTIVE",
    "inService": true,
    "licenseNumber": "050000415",
    "licenseEffectiveDate": "11/21/2024",
    "licenseExpirationDate": "11/20/2025",
    "dataDate": "10/18/2025",
    "capacity": 0,
    "address": "1325 E CHURCH ST, SUITE 301",
    "city": "SANTA MARIA",
    "zip": "93454",
    "county": "SANTA BARBARA",
    "phone": null,
    "lat": 34.952346,
    "lng": -120.4150995
  },
  {
    "id": "050001432",
    "name": "PLAZA SURGERY CENTER",
    "npi": "1740318153",
    "hcaiId": "306424060",
    "businessName": "PLAZA SURGERY CENTER LP",
    "contactEmail": null,
    "categoryName": "SURGICAL CLINIC",
    "categoryCode": "ASC",
    "licenseStatus": "INACTIVE - CAPEN DECISION",
    "inService": false,
    "licenseNumber": "050000578",
    "licenseEffectiveDate": "06/03/2007",
    "licenseExpirationDate": "06/02/2008",
    "dataDate": "10/18/2025",
    "capacity": 0,
    "address": "525 PLAZA DR, SUITE 100",
    "city": "SANTA MARIA",
    "zip": "93454",
    "county": "SANTA BARBARA",
    "phone": "(805) 739-3809",
    "lat": 34.937847,
    "lng": -120.42864
  },
  {
    "id": "630011054",
    "name": "PREMIER SURGERY CENTER OF SANTA MARIA",
    "npi": "1780752352",
    "hcaiId": "306424065",
    "businessName": "PREMIER SURGERY CENTER OF SANTA MARIA",
    "contactEmail": null,
    "categoryName": "SURGICAL CLINIC",
    "categoryCode": "ASC",
    "licenseStatus": "INACTIVE - CAPEN DECISION",
    "inService": false,
    "licenseNumber": "550000485",
    "licenseEffectiveDate": "12/01/2007",
    "licenseExpirationDate": "05/31/2008",
    "dataDate": "10/18/2025",
    "capacity": 0,
    "address": "816 E ENOS DR, SUITE B",
    "city": "SANTA MARIA",
    "zip": "93454",
    "county": "SANTA BARBARA",
    "phone": "(805) 347-7813",
    "lat": 34.934112,
    "lng": -120.42243
  },
  {
    "id": "050001337",
    "name": "SANTA MARIA AMBULATORY SURGERY & LASER CENTER INC",
    "npi": "1548353113",
    "hcaiId": "306424044",
    "businessName": "SANTA MARIA AMBULATORY SURGERY & LASER CENTER INC",
    "contactEmail": "ADMIN@SMASLC.COM",
    "categoryName": "SURGICAL CLINIC",
    "categoryCode": "ASC",
    "licenseStatus": "INACTIVE - CAPEN DECISION",
    "inService": false,
    "licenseNumber": "050000530",
    "licenseEffectiveDate": "11/21/2007",
    "licenseExpirationDate": "11/20/2008",
    "dataDate": "10/18/2025",
    "capacity": 0,
    "address": "120 N MILLER ST, SUITE C",
    "city": "SANTA MARIA",
    "zip": "93454",
    "county": "SANTA BARBARA",
    "phone": "(805) 739-1783",
    "lat": 34.953966,
    "lng": -120.4307685
  },
  {
    "id": "630022417",
    "name": "SANTA MARIA DIALYSIS",
    "npi": "1912584814",
    "hcaiId": "306420679",
    "businessName": "TOTAL RENAL CARE, INC.",
    "contactEmail": "CAL_C@DAVITA.COM",
    "categoryName": "CHRONIC DIALYSIS CLINIC",
    "categoryCode": "ESRD/CDC",
    "licenseStatus": "ACTIVE",
    "inService": true,
    "licenseNumber": "550007378",
    "licenseEffectiveDate": "11/23/2024",
    "licenseExpirationDate": "11/22/2025",
    "dataDate": "10/18/2025",
    "capacity": 25,
    "address": "1520 N BROADWAY",
    "city": "SANTA MARIA",
    "zip": "93454",
    "county": "SANTA BARBARA",
    "phone": "(805) 345-2416",
    "lat": 34.967187,
    "lng": -120.435228
  },
  {
    "id": "050001439",
    "name": "SANTA MARIA DIGESTIVE DIAGNOSTIC CENTER",
    "npi": "1730124124",
    "hcaiId": "306424057",
    "businessName": "THE ENDOSCOPY CENTER OF SANTA MARIA INC",
    "contactEmail": null,
    "categoryName": "SURGICAL CLINIC",
    "categoryCode": "ASC",
    "licenseStatus": "INACTIVE - CAPEN DECISION",
    "inService": false,
    "licenseNumber": "050000572",
    "licenseEffectiveDate": "03/26/2008",
    "licenseExpirationDate": "03/25/2009",
    "dataDate": "10/18/2025",
    "capacity": 0,
    "address": "1315 S MILLER ST, SUITE 101",
    "city": "SANTA MARIA",
    "zip": "93454",
    "county": "SANTA BARBARA",
    "phone": "(805) 349-2945",
    "lat": 34.938,
    "lng": -120.43188
  },
  {
    "id": "630027995",
    "name": "SANTA MARIA HEALTH CENTER",
    "npi": null,
    "hcaiId": null,
    "businessName": "PLANNED PARENTHOOD CALIFORNIA CENTRAL COAST",
    "contactEmail": "YOLANDA.ROBLES@PPCENTRALCOAST.ORG",
    "categoryName": "PRIMARY CARE CLINIC",
    "categoryCode": "COMTYC",
    "licenseStatus": "ACTIVE",
    "inService": true,
    "licenseNumber": "550009560",
    "licenseEffectiveDate": "12/23/2024",
    "licenseExpirationDate": "12/22/2025",
    "dataDate": "10/18/2025",
    "capacity": 0,
    "address": "501 E CHAPEL ST",
    "city": "SANTA MARIA",
    "zip": "93454",
    "county": "SANTA BARBARA",
    "phone": "(805) 722-1512",
    "lat": 34.954543,
    "lng": -120.429896
  },
  {
    "id": "630020337",
    "name": "SANTA MARIA SPECIALTY HEALTH CENTER",
    "npi": null,
    "hcaiId": null,
    "businessName": "PACIFIC CENTRAL COAST HEALTH CENTERS",
    "contactEmail": "PHC-LICENSING@DIGNITYHEALTH.ORG",
    "categoryName": "PRIMARY CARE CLINIC",
    "categoryCode": "COMTYC",
    "licenseStatus": "ACTIVE",
    "inService": true,
    "licenseNumber": "050000415",
    "licenseEffectiveDate": "11/21/2024",
    "licenseExpirationDate": "11/20/2025",
    "dataDate": "10/18/2025",
    "capacity": 0,
    "address": "300 S STRATFORD AVE",
    "city": "SANTA MARIA",
    "zip": "93454",
    "county": "SANTA BARBARA",
    "phone": "(805) 994-5485",
    "lat": 34.950861,
    "lng": -120.414411
  },
  {
    "id": "630016428",
    "name": "SANTA MARIA WOMEN'S HEALTH CENTER",
    "npi": "1770997033",
    "hcaiId": "306424110",
    "businessName": "PACIFIC CENTRAL COAST HEALTH CENTERS",
    "contactEmail": "CHRISTINA.RODRIGUEZ@DIGNITYHEALTH.ORG",
    "categoryName": "PRIMARY CARE CLINIC",
    "categoryCode": "COMTYC",
    "licenseStatus": "ACTIVE",
    "inService": true,
    "licenseNumber": "550003383",
    "licenseEffectiveDate": "02/06/2025",
    "licenseExpirationDate": "02/05/2026",
    "dataDate": "10/18/2025",
    "capacity": 0,
    "address": "220 SOUTH PALISADE DRIVE, SUITE 201,202,203-B & 204-B",
    "city": "SANTA MARIA",
    "zip": "93454",
    "county": "SANTA BARBARA",
    "phone": "(805) 354-7101",
    "lat": 34.951329,
    "lng": -120.411648
  },
  {
    "id": "050000722",
    "name": "SCHOOL STREET HOUSE",
    "npi": "1154407773",
    "hcaiId": null,
    "businessName": "OPTIONS FAMILY OF SERVICES, INC.",
    "contactEmail": "DBERTRANDO@OPTIONSFS.ORG",
    "categoryName": "INTERMEDIATE CARE FACILITY-DD/H/N/CN/IID",
    "categoryCode": "ICFDDH",
    "licenseStatus": "ACTIVE",
    "inService": true,
    "licenseNumber": "050000321",
    "licenseEffectiveDate": "04/01/2025",
    "licenseExpirationDate": "03/31/2026",
    "dataDate": "10/18/2025",
    "capacity": 6,
    "address": "1106 N SCHOOL ST",
    "city": "SANTA MARIA",
    "zip": "93454",
    "county": "SANTA BARBARA",
    "phone": "(805) 925-5182",
    "lat": 34.963119,
    "lng": -120.4300305
  },
  {
    "id": "630020338",
    "name": "STRATFORD HEALTH CENTER",
    "npi": null,
    "hcaiId": null,
    "businessName": "PACIFIC CENTRAL COAST HEALTH CENTERS",
    "contactEmail": "PHC-LICENSING@DIGNITYHEALTH.ORG",
    "categoryName": "PRIMARY CARE CLINIC",
    "categoryCode": "COMTYC",
    "licenseStatus": "ACTIVE",
    "inService": true,
    "licenseNumber": "050000415",
    "licenseEffectiveDate": "11/21/2024",
    "licenseExpirationDate": "11/20/2025",
    "dataDate": "10/18/2025",
    "capacity": 0,
    "address": "206 S STRATFORD AVE",
    "city": "SANTA MARIA",
    "zip": "93454",
    "county": "SANTA BARBARA",
    "phone": "(805) 994-5485",
    "lat": 34.951761,
    "lng": -120.4143885
  },
  {
    "id": "050000047",
    "name": "VALLEY OAKS POST ACUTE",
    "npi": "1801563077",
    "hcaiId": "206420474",
    "businessName": "VALLEY OAKS POST ACUTE, LLC",
    "contactEmail": "ADMINISTRATOR@VALLEYOAKSPA.COM",
    "categoryName": "SKILLED NURSING FACILITY",
    "categoryCode": "SNF",
    "licenseStatus": "ACTIVE",
    "inService": true,
    "licenseNumber": "050000027",
    "licenseEffectiveDate": "04/21/2025",
    "licenseExpirationDate": "11/30/2025",
    "dataDate": "10/18/2025",
    "capacity": 59,
    "address": "830 E CHAPEL ST",
    "city": "SANTA MARIA",
    "zip": "93454",
    "county": "SANTA BARBARA",
    "phone": "(805) 922-6657",
    "lat": 34.95402,
    "lng": -120.423339
  },
  {
    "id": "050000074",
    "name": "VILLA MARIA POST ACUTE",
    "npi": "1174510895",
    "hcaiId": "206421162",
    "businessName": "SANTA MARIA HEALTHCARE, INC.",
    "contactEmail": "RENEWALS@ENSIGNSERVICES.NET",
    "categoryName": "SKILLED NURSING FACILITY",
    "categoryCode": "SNF",
    "licenseStatus": "ACTIVE",
    "inService": true,
    "licenseNumber": "050000106",
    "licenseEffectiveDate": "11/17/2024",
    "licenseExpirationDate": "11/16/2025",
    "dataDate": "10/18/2025",
    "capacity": 81,
    "address": "425 BARCELLUS AVE",
    "city": "SANTA MARIA",
    "zip": "93454",
    "county": "SANTA BARBARA",
    "phone": "(805) 922-3558",
    "lat": 34.936992,
    "lng": -120.4304895
  },
  {
    "id": "050001413",
    "name": "WILSHIRE HOME HEALTH - BRANCH",
    "npi": "1235137738",
    "hcaiId": "406424067",
    "businessName": "WILSHIRE HEALTH AND COMMUNITY SERVICES INC",
    "contactEmail": null,
    "categoryName": "HOME HEALTH AGENCY",
    "categoryCode": "HHA",
    "licenseStatus": "ACTIVE",
    "inService": true,
    "licenseNumber": "050000487",
    "licenseEffectiveDate": "01/28/2025",
    "licenseExpirationDate": "01/27/2026",
    "dataDate": "10/18/2025",
    "capacity": 0,
    "address": "2353 S BROADWAY, SUITE A",
    "city": "SANTA MARIA",
    "zip": "93454",
    "county": "SANTA BARBARA",
    "phone": "(805) 782-8600",
    "lat": 34.917291,
    "lng": -120.4372305
  },
  {
    "id": "630011418",
    "name": "WILSHIRE HOSPICE - BRANCH",
    "npi": null,
    "hcaiId": "406424068",
    "businessName": "HOSPICE PARTNERS INC",
    "contactEmail": null,
    "categoryName": "HOSPICE",
    "categoryCode": "HOSPICE",
    "licenseStatus": "ACTIVE",
    "inService": true,
    "licenseNumber": "070000579",
    "licenseEffectiveDate": "01/08/2025",
    "licenseExpirationDate": "01/07/2027",
    "dataDate": "10/18/2025",
    "capacity": 0,
    "address": "2353 S BROADWAY, SUITE B",
    "city": "SANTA MARIA",
    "zip": "93454",
    "county": "SANTA BARBARA",
    "phone": "(805) 782-8608",
    "lat": 34.917291,
    "lng": -120.4372305
  }
]