[
  {
    "id": "630010341",
    "name": "CASA DEL MAR",
    "npi": "1689850802",
    "hcaiId": null,
    "businessName": null,
    "contactEmail": "CASADELMARGROUPHOME@COMCAST.NET",
    "categoryName": "INTERMEDIATE CARE FACILITY-DD/H/N/CN/IID",
    "categoryCode": "ICFDDH",
    "licenseStatus": "ACTIVE",
    "inService": true,
    "licenseNumber": "550000473",
    "licenseEffectiveDate": "05/17/2025",
    "licenseExpirationDate": "05/16/2026",
    "dataDate": "10/18/2025",
    "capacity": 6,
    "address": "4615 CAMEO DR",
    "city": "SANTA MARIA",
    "zip": "93455",
    "county": "SANTA BARBARA",
    "phone": "(805) 934-5974",
    "lat": 34.869942,
    "lng": -120.401838
  },
  {
    "id": "080001583",
    "name": "CENTRAL COAST KIDNEY CENTER",
    "npi": "1235594656",
    "hcaiId": "306424082",
    "businessName": "TOTAL RENAL CARE, INC.",
    "contactEmail": "CAL_C@DAVITA.COM",
    "categoryName": "CHRONIC DIALYSIS CLINIC",
    "categoryCode": "ESRD/CDC",
    "licenseStatus": "ACTIVE",
    "inService": true,
    "licenseNumber": "080000737",
    "licenseEffectiveDate": "09/13/2025",
    "licenseExpirationDate": "09/12/2026",
    "dataDate": "10/18/2025",
    "capacity": 42,
    "address": "2263 S DEPOT ST",
    "city": "SANTA MARIA",
    "zip": "93455",
    "county": "SANTA BARBARA",
    "phone": "(805) 349-8600",
    "lat": 34.917309,
    "lng": -120.4440885
  },
  {
    "id": "050000621",
    "name": "COMMUNITY HEALTH CENTERS SANTA MARIA",
    "npi": null,
    "hcaiId": "306424010",
    "businessName": "COMMUNITY HEALTH CENTERS OF THE CENTRAL COAST, INC.",
    "contactEmail": "SSOSA@CHCCC.ORG",
    "categoryName": "PRIMARY CARE CLINIC",
    "categoryCode": "COMTYC",
    "licenseStatus": "ACTIVE",
    "inService": true,
    "licenseNumber": "050000285",
    "licenseEffectiveDate": "11/12/2024",
    "licenseExpirationDate": "11/11/2025",
    "dataDate": "10/18/2025",
    "capacity": 0,
    "address": "2801 SANTA MARIA WAY, BUILDING A",
    "city": "SANTA MARIA",
    "zip": "93455",
    "county": "SANTA BARBARA",
    "phone": "(805) 346-3911",
    "lat": 34.908804,
    "lng": -120.4347195
  },
  {
    "id": "050000633",
    "name": "COUNTY HEALTH CLINIC SANTA MARIA",
    "npi": null,
    "hcaiId": null,
    "businessName": null,
    "contactEmail": null,
    "categoryName": "PRIMARY CARE CLINIC",
    "categoryCode": "FQHC",
    "licenseStatus": null,
    "inService": null,
    "licenseNumber": null,
    "licenseEffectiveDate": null,
    "licenseExpirationDate": null,
    "dataDate": "10/18/2025",
    "capacity": 0,
    "address": "2115 CENTERPOINTE PKWY",
    "city": "SANTA MARIA",
    "zip": "93455",
    "county": "SANTA BARBARA",
    "phone": "(805) 681-5217",
    "lat": 34.922628,
    "lng": -120.42972
  },
  {
    "id": "630019065",
    "name": "MED PLUS CENTRAL COAST",
    "npi": "1023523990",
    "hcaiId": "306420505",
    "businessName": "PACIFIC CENTRAL COAST HEALTH CENTERS",
    "contactEmail": "LINDA.PENNY@DIGNITYHEALTH.ORG",
    "categoryName": "PRIMARY CARE CLINIC",
    "categoryCode": "COMTYC",
    "licenseStatus": "ACTIVE",
    "inService": true,
    "licenseNumber": "550005155",
    "licenseEffectiveDate": "12/11/2024",
    "licenseExpirationDate": "12/10/2025",
    "dataDate": "10/18/2025",
    "capacity": 0,
    "address": "2271 S DEPOT ST",
    "city": "SANTA MARIA",
    "zip": "93455",
    "county": "SANTA BARBARA",
    "phone": "(805) 235-7088",
    "lat": 34.917309,
    "lng": -120.44466
  },
  {
    "id": "630016061",
    "name": "MED PLUS ORCUTT",
    "npi": "1306225941",
    "hcaiId": "306424106",
    "businessName": "PACIFIC CENTRAL COAST HEALTH CENTERS",
    "contactEmail": "LINDA.PENNY@DIGNITYHEALTH.ORG",
    "categoryName": "PRIMARY CARE CLINIC",
    "categoryCode": "COMTYC",
    "licenseStatus": "ACTIVE",
    "inService": true,
    "licenseNumber": "550003153",
    "licenseEffectiveDate": "07/22/2024",
    "licenseExpirationDate": "07/21/2025",
    "dataDate": "10/18/2025",
    "capacity": 0,
    "address": "1102 EAST CLARK AVENUE, SUITE 120A",
    "city": "SANTA MARIA",
    "zip": "93455",
    "county": "SANTA BARBARA",
    "phone": "(805) 332-8185",
    "lat": 34.86495629,
    "lng": -120.4185556
  },
  {
    "id": "630016029",
    "name": "ORCUTT FAMILY HEALTH CENTER",
    "npi": "1760861306",
    "hcaiId": "306424108",
    "businessName": "PACIFIC CENTRAL COAST HEALTH CENTERS",
    "contactEmail": "LINDA.PENNY@DIGNITYHEALTH.ORG",
    "categoryName": "PRIMARY CARE CLINIC",
    "categoryCode": "COMTYC",
    "licenseStatus": "ACTIVE",
    "inService": true,
    "licenseNumber": "550003178",
    "licenseEffectiveDate": "08/07/2024",
    "licenseExpirationDate": "08/06/2025",
    "dataDate": "10/18/2025",
    "capacity": 0,
    "address": "5075 SOUTH BRADLEY ROAD, SUITE 131",
    "city": "SANTA MARIA",
    "zip": "93455",
    "county": "SANTA BARBARA",
    "phone": "(805) 235-7088",
    "lat": 34.864254,
    "lng": -120.419541
  },
  {
    "id": "050000720",
    "name": "ORCUTT HOUSE",
    "npi": "1154407773",
    "hcaiId": null,
    "businessName": "OPTIONS FAMILY OF SERVICES, INC.",
    "contactEmail": "DBERTRANDO@OPTIONSFS.ORG",
    "categoryName": "INTERMEDIATE CARE FACILITY-DD/H/N/CN/IID",
    "categoryCode": "ICFDDH",
    "licenseStatus": "ACTIVE",
    "inService": true,
    "licenseNumber": "050000320",
    "licenseEffectiveDate": "01/26/2025",
    "licenseExpirationDate": "01/25/2026",
    "dataDate": "10/18/2025",
    "capacity": 6,
    "address": "4087 HILLVIEW RD",
    "city": "SANTA MARIA",
    "zip": "93455",
    "county": "SANTA BARBARA",
    "phone": "(805) 938-5344",
    "lat": 34.883469,
    "lng": -120.4247205
  },
  {
    "id": "070001198",
    "name": "SANTA MARIA WISDOM CENTER",
    "npi": null,
    "hcaiId": null,
    "businessName": "WISDOM ADULT DAY PARTNERS, LLC",
    "contactEmail": "AMANDA@SMWISDOMCENTER.ORG",
    "categoryName": "ADULT DAY HEALTH CARE",
    "categoryCode": "ADHC",
    "licenseStatus": "ACTIVE",
    "inService": true,
    "licenseNumber": "070000540",
    "licenseEffectiveDate": "04/12/2025",
    "licenseExpirationDate": "04/11/2026",
    "dataDate": "10/18/2025",
    "capacity": 0,
    "address": "2255 S DEPOT ST",
    "city": "SANTA MARIA",
    "zip": "93455",
    "county": "SANTA BARBARA",
    "phone": "(805) 917-2005",
    "lat": 34.917849,
    "lng": -120.4438815
  }
]