[
  {
    "id": "050000064",
    "name": "ATTERDAG CARE CENTER",
    "npi": "1720086077",
    "hcaiId": "206420523",
    "businessName": "SOLVANG LUTHERAN HOME, INC.",
    "contactEmail": "CHRIS@PEOPLEWHOCARE.COM",
    "categoryName": "SKILLED NURSING FACILITY",
    "categoryCode": "SNF",
    "licenseStatus": "ACTIVE",
    "inService": true,
    "licenseNumber": "050000058",
    "licenseEffectiveDate": "11/18/2024",
    "licenseExpirationDate": "11/17/2025",
    "dataDate": "10/18/2025",
    "capacity": 54,
    "address": "636 ATTERDAG RD",
    "city": "SOLVANG",
    "zip": "93463",
    "county": "SANTA BARBARA",
    "phone": "(805) 705-0615",
    "lat": 34.600923,
    "lng": -120.1400505
  },
  {
    "id": "630013520",
    "name": "SANTA YNEZ TRIBAL HEALTH CLINIC",
    "npi": null,
    "hcaiId": null,
    "businessName": null,
    "contactEmail": null,
    "categoryName": "PRIMARY CARE CLINIC",
    "categoryCode": "FQHC",
    "licenseStatus": null,
    "inService": null,
    "licenseNumber": null,
    "licenseEffectiveDate": null,
    "licenseExpirationDate": null,
    "dataDate": "10/18/2025",
    "capacity": 0,
    "address": "680 ALAMO PINTADO RD",
    "city": "SOLVANG",
    "zip": "93463",
    "county": "SANTA BARBARA",
    "phone": "(805) 688-7070",
    "lat": 34.601733,
    "lng": -120.1279005
  },
  {
    "id": "050000030",
    "name": "SANTA YNEZ VALLEY COTTAGE HOSPITAL",
    "npi": "1952301863",
    "hcaiId": "106420522",
    "businessName": "SANTA YNEZ VALLEY COTTAGE HOSPITAL INC",
    "contactEmail": "KGORNDT@SBCH.ORG",
    "categoryName": "GENERAL ACUTE CARE HOSPITAL",
    "categoryCode": "GACH",
    "licenseStatus": "ACTIVE",
    "inService": true,
    "licenseNumber": "050000057",
    "licenseEffectiveDate": "04/13/2025",
    "licenseExpirationDate": "04/12/2026",
    "dataDate": "10/18/2025",
    "capacity": 11,
    "address": "2050 VIBORG RD",
    "city": "SOLVANG",
    "zip": "93463",
    "county": "SANTA BARBARA",
    "phone": "(805) 688-6971",
    "lat": 34.602093,
    "lng": -120.1259205
  },
  {
    "id": "630012678",
    "name": "VISITING NURSE AND HOSPICE CARE VALLEY BRANCH",
    "npi": "1477560035",
    "hcaiId": "406424080",
    "businessName": "VISITING NURSE AND HOSPICE CARE OF SANTA BARBARA",
    "contactEmail": "LTANNER@VNHCSB.ORG",
    "categoryName": "HOME HEALTH AGENCY",
    "categoryCode": "HHA",
    "licenseStatus": "ACTIVE",
    "inService": true,
    "licenseNumber": "050000054",
    "licenseEffectiveDate": "11/10/2025",
    "licenseExpirationDate": "11/09/2026",
    "dataDate": "10/18/2025",
    "capacity": 0,
    "address": "2029 VILLAGE ROAD, SUITE 103",
    "city": "SOLVANG",
    "zip": "93463",
    "county": "SANTA BARBARA",
    "phone": "(805) 693-5555",
    "lat": 34.601238,
    "lng": -120.1267215
  },
  {
    "id": "630015414",
    "name": "VISITING NURSE AND HOSPICE CARE VALLEY BRANCH",
    "npi": null,
    "hcaiId": "406424100",
    "businessName": "VISITING NURSE AND HOSPICE CARE OF SANTA BARBARA",
    "contactEmail": null,
    "categoryName": "HOSPICE",
    "categoryCode": "HOSPICE",
    "licenseStatus": "ACTIVE",
    "inService": true,
    "licenseNumber": "550002709",
    "licenseEffectiveDate": "06/13/2024",
    "licenseExpirationDate": "06/12/2026",
    "dataDate": "10/18/2025",
    "capacity": 0,
    "address": "2029 VILLAGE ROAD, SUITE 102",
    "city": "SOLVANG",
    "zip": "93463",
    "county": "SANTA BARBARA",
    "phone": null,
    "lat": 34.601238,
    "lng": -120.1267215
  }
]