[
  {
    "id": "050000037",
    "name": "ADVENTIST HEALTH TWIN CITIES",
    "npi": "1396778197",
    "hcaiId": "106400548",
    "businessName": "TWIN CITIES COMMUNITY HOSPITAL INC.",
    "contactEmail": "COOKR@AH.ORG",
    "categoryName": "GENERAL ACUTE CARE HOSPITAL",
    "categoryCode": "GACH",
    "licenseStatus": "ACTIVE",
    "inService": true,
    "licenseNumber": "050000078",
    "licenseEffectiveDate": "06/01/2025",
    "licenseExpirationDate": "05/31/2026",
    "dataDate": "10/18/2025",
    "capacity": 122,
    "address": "1100 LAS TABLAS ROAD",
    "city": "TEMPLETON",
    "zip": "93465",
    "county": "SAN LUIS OBISPO",
    "phone": "(805) 286-1880",
    "lat": 35.555346,
    "lng": -120.7206585
  },
  {
    "id": "050001425",
    "name": "ARC PHYSICAL OCCUPATIONAL HAND AND SPEECH THERAPY",
    "npi": "1316364920",
    "hcaiId": null,
    "businessName": null,
    "contactEmail": null,
    "categoryName": "REHABILITATION CLINIC",
    "categoryCode": "OPT/SP",
    "licenseStatus": null,
    "inService": null,
    "licenseNumber": null,
    "licenseEffectiveDate": null,
    "licenseExpirationDate": null,
    "dataDate": "10/18/2025",
    "capacity": 0,
    "address": "1051 LAS TABLAS RD",
    "city": "TEMPLETON",
    "zip": "93465",
    "county": "SAN LUIS OBISPO",
    "phone": "(805) 434-4885",
    "lat": 35.553978,
    "lng": -120.7179495
  },
  {
    "id": "050001427",
    "name": "CENTRAL COAST FACIAL SURGERY CENTER",
    "npi": "1083671358",
    "hcaiId": null,
    "businessName": null,
    "contactEmail": null,
    "categoryName": "SURGICAL CLINIC",
    "categoryCode": "ASC",
    "licenseStatus": null,
    "inService": null,
    "licenseNumber": null,
    "licenseEffectiveDate": null,
    "licenseExpirationDate": null,
    "dataDate": "10/18/2025",
    "capacity": 0,
    "address": "295 POSADA LN",
    "city": "TEMPLETON",
    "zip": "93465",
    "county": "SAN LUIS OBISPO",
    "phone": "(805) 434-5960",
    "lat": 35.553222,
    "lng": -120.7208115
  },
  {
    "id": "630019944",
    "name": "CENTRAL COAST GASTROENTEROLOGY - TEMPLETON",
    "npi": null,
    "hcaiId": null,
    "businessName": "PACIFIC CENTRAL COAST HEALTH CENTERS",
    "contactEmail": null,
    "categoryName": "PRIMARY CARE CLINIC",
    "categoryCode": "COMTYC",
    "licenseStatus": "ACTIVE",
    "inService": true,
    "licenseNumber": "050000415",
    "licenseEffectiveDate": "11/21/2024",
    "licenseExpirationDate": "11/20/2025",
    "dataDate": "10/18/2025",
    "capacity": 0,
    "address": "1255 LAS TABLAS RD, SUITE 201",
    "city": "TEMPLETON",
    "zip": "93465",
    "county": "SAN LUIS OBISPO",
    "phone": "(805) 994-5485",
    "lat": 35.55405,
    "lng": -120.7218915
  },
  {
    "id": "630016229",
    "name": "CHC TEMPLETON WOMEN'S HEALTH",
    "npi": "1548648801",
    "hcaiId": "306404099",
    "businessName": "COMMUNITY HEALTH CENTERS OF THE CENTRAL COAST, INC.",
    "contactEmail": "SSOSA@CHCCC.ORG",
    "categoryName": "PRIMARY CARE CLINIC",
    "categoryCode": "COMTYC",
    "licenseStatus": "ACTIVE",
    "inService": true,
    "licenseNumber": "550003370",
    "licenseEffectiveDate": "02/02/2025",
    "licenseExpirationDate": "02/01/2026",
    "dataDate": "10/18/2025",
    "capacity": 0,
    "address": "292 POSADA LANE, SUITE A",
    "city": "TEMPLETON",
    "zip": "93465",
    "county": "SAN LUIS OBISPO",
    "phone": "(805) 542-6701",
    "lat": 35.552988,
    "lng": -120.7216395
  },
  {
    "id": "050001456",
    "name": "COAST AMBULATORY SURGERY CENTER",
    "npi": "1841396850",
    "hcaiId": null,
    "businessName": null,
    "contactEmail": null,
    "categoryName": "SURGICAL CLINIC",
    "categoryCode": "ASC",
    "licenseStatus": null,
    "inService": null,
    "licenseNumber": null,
    "licenseEffectiveDate": null,
    "licenseExpirationDate": null,
    "dataDate": "10/18/2025",
    "capacity": 0,
    "address": "1101 LAS TABLAS RD, SUITE K",
    "city": "TEMPLETON",
    "zip": "93465",
    "county": "SAN LUIS OBISPO",
    "phone": "(805) 434-2009",
    "lat": 35.553897,
    "lng": -120.7184715
  },
  {
    "id": "050001404",
    "name": "COMMUNITY HEALTH CENTERS TEMPLETON",
    "npi": "1275550295",
    "hcaiId": "306400506",
    "businessName": "COMMUNITY HEALTH CENTERS OF THE CENTRAL COAST, INC.",
    "contactEmail": "SSOSA@CHCCC.ORG",
    "categoryName": "PRIMARY CARE CLINIC",
    "categoryCode": "COMTYC",
    "licenseStatus": "ACTIVE",
    "inService": true,
    "licenseNumber": "050000565",
    "licenseEffectiveDate": "01/18/2025",
    "licenseExpirationDate": "01/17/2026",
    "dataDate": "10/18/2025",
    "capacity": 0,
    "address": "1330 LAS TABLAS RD",
    "city": "TEMPLETON",
    "zip": "93465",
    "county": "SAN LUIS OBISPO",
    "phone": "(805) 346-3911",
    "lat": 35.55447127,
    "lng": -120.7234591
  },
  {
    "id": "630027882",
    "name": "KALLOS SURGERY CENTER INC",
    "npi": null,
    "hcaiId": null,
    "businessName": null,
    "contactEmail": null,
    "categoryName": "SURGICAL CLINIC",
    "categoryCode": "ASC",
    "licenseStatus": null,
    "inService": null,
    "licenseNumber": null,
    "licenseEffectiveDate": null,
    "licenseExpirationDate": null,
    "dataDate": "10/18/2025",
    "capacity": 0,
    "address": "225 POSADA LN, SUITE 110",
    "city": "TEMPLETON",
    "zip": "93465",
    "county": "SAN LUIS OBISPO",
    "phone": null,
    "lat": 35.55409399,
    "lng": -120.720811
  },
  {
    "id": "630016158",
    "name": "MEDICAL CLINIC AT POSADA",
    "npi": null,
    "hcaiId": "306404087",
    "businessName": "PACIFIC CENTRAL COAST HEALTH CENTERS",
    "contactEmail": "AMBER.BUHL@COMMONSPIRIT.ORG",
    "categoryName": "PRIMARY CARE CLINIC",
    "categoryCode": "COMTYC",
    "licenseStatus": "ACTIVE",
    "inService": true,
    "licenseNumber": "550003273",
    "licenseEffectiveDate": "04/28/2025",
    "licenseExpirationDate": "04/27/2026",
    "dataDate": "10/18/2025",
    "capacity": 0,
    "address": "265 POSADA LANE, SUITE B",
    "city": "TEMPLETON",
    "zip": "93465",
    "county": "SAN LUIS OBISPO",
    "phone": "(805) 434-0900",
    "lat": 35.553699,
    "lng": -120.7206585
  },
  {
    "id": "050001449",
    "name": "POSADA AMBULATORY SURGERY CENTER",
    "npi": "1942239751",
    "hcaiId": "306404047",
    "businessName": "POSADA AMBULATORY SURGERY CENTER LP",
    "contactEmail": null,
    "categoryName": "SURGICAL CLINIC",
    "categoryCode": "ASC",
    "licenseStatus": "INACTIVE - CAPEN DECISION",
    "inService": false,
    "licenseNumber": "050000580",
    "licenseEffectiveDate": "11/08/2010",
    "licenseExpirationDate": "11/07/2011",
    "dataDate": "10/18/2025",
    "capacity": 0,
    "address": "322 POSADA LN, SUITE B",
    "city": "TEMPLETON",
    "zip": "93465",
    "county": "SAN LUIS OBISPO",
    "phone": "(805) 591-3344",
    "lat": 35.552682,
    "lng": -120.7218915
  },
  {
    "id": "050000179",
    "name": "SANI EYE SURGERY CENTER",
    "npi": "1477562148",
    "hcaiId": "306404022",
    "businessName": "SANI SURGERY CENTER",
    "contactEmail": null,
    "categoryName": "SURGICAL CLINIC",
    "categoryCode": "ASC",
    "licenseStatus": "INACTIVE - CAPEN DECISION",
    "inService": false,
    "licenseNumber": "050000434",
    "licenseEffectiveDate": "03/16/2007",
    "licenseExpirationDate": "03/15/2008",
    "dataDate": "10/18/2025",
    "capacity": 0,
    "address": "1315 LAS TABLAS RD",
    "city": "TEMPLETON",
    "zip": "93465",
    "county": "SAN LUIS OBISPO",
    "phone": "(805) 434-2533",
    "lat": 35.553933,
    "lng": -120.722481
  },
  {
    "id": "630010975",
    "name": "TEMPLETON DIALYSIS",
    "npi": "1326357773",
    "hcaiId": "306404063",
    "businessName": "TOTAL RENAL CARE, INC.",
    "contactEmail": "CAL_C@DAVITA.COM",
    "categoryName": "CHRONIC DIALYSIS CLINIC",
    "categoryCode": "ESRD/CDC",
    "licenseStatus": "ACTIVE",
    "inService": true,
    "licenseNumber": "550000271",
    "licenseEffectiveDate": "12/01/2024",
    "licenseExpirationDate": "11/30/2025",
    "dataDate": "10/18/2025",
    "capacity": 16,
    "address": "1310 LAS TABLAS RD, SUITE 101",
    "city": "TEMPLETON",
    "zip": "93465",
    "county": "SAN LUIS OBISPO",
    "phone": "(805) 434-3473",
    "lat": 35.555283,
    "lng": -120.723219
  },
  {
    "id": "050001452",
    "name": "TEMPLETON ENDOSCOPY CENTER",
    "npi": "1184699241",
    "hcaiId": "306404048",
    "businessName": "THE SAN LUIS OBISPO CA ENDOSCOPY ASC LP",
    "contactEmail": "DMILLER@CCGASTRO.COM",
    "categoryName": "SURGICAL CLINIC",
    "categoryCode": "ASC",
    "licenseStatus": "INACTIVE - CAPEN DECISION",
    "inService": false,
    "licenseNumber": "050000582",
    "licenseEffectiveDate": "04/29/2007",
    "licenseExpirationDate": "04/28/2008",
    "dataDate": "10/18/2025",
    "capacity": 0,
    "address": "1320 LAS TABLAS RD, SUITE A",
    "city": "TEMPLETON",
    "zip": "93465",
    "county": "SAN LUIS OBISPO",
    "phone": "(805) 434-2353",
    "lat": 35.555688,
    "lng": -120.72258
  },
  {
    "id": "630015950",
    "name": "TEMPLETON SPECIALTY CENTER",
    "npi": "1336553767",
    "hcaiId": "306404091",
    "businessName": "PACIFIC CENTRAL COAST HEALTH CENTERS",
    "contactEmail": "CHRISTINA.RODRIGUEZ@DIGNITYHEALTH.ORG",
    "categoryName": "PRIMARY CARE CLINIC",
    "categoryCode": "COMTYC",
    "licenseStatus": "ACTIVE",
    "inService": true,
    "licenseNumber": "550003092",
    "licenseEffectiveDate": "12/10/2024",
    "licenseExpirationDate": "12/09/2025",
    "dataDate": "10/18/2025",
    "capacity": 0,
    "address": "350 POSADA LANE, SUITE 202",
    "city": "TEMPLETON",
    "zip": "93465",
    "county": "SAN LUIS OBISPO",
    "phone": "(805) 434-5497",
    "lat": 35.552133,
    "lng": -120.7218195
  },
  {
    "id": "630009441",
    "name": "TEMPLETON SURGERY CENTER LLC",
    "npi": "1063453561",
    "hcaiId": "306404065",
    "businessName": "TEMPLETON SURGERY CENTER LLC",
    "contactEmail": null,
    "categoryName": "SURGICAL CLINIC",
    "categoryCode": "ASC",
    "licenseStatus": "INACTIVE - CAPEN DECISION",
    "inService": false,
    "licenseNumber": "550000366",
    "licenseEffectiveDate": "01/11/2008",
    "licenseExpirationDate": "01/10/2009",
    "dataDate": "10/18/2025",
    "capacity": 0,
    "address": "1310 LAS TABLAS RD, SUITE 104",
    "city": "TEMPLETON",
    "zip": "93465",
    "county": "SAN LUIS OBISPO",
    "phone": "(805) 434-3550",
    "lat": 35.555283,
    "lng": -120.723219
  },
  {
    "id": "050000131",
    "name": "VINEYARD HILLS HEALTH CENTER",
    "npi": "1629066071",
    "hcaiId": "206401892",
    "businessName": "COASTAL LLC",
    "contactEmail": "DGOSSELIN@COMPASS-HEALTH.COM",
    "categoryName": "SKILLED NURSING FACILITY",
    "categoryCode": "SNF",
    "licenseStatus": "ACTIVE",
    "inService": true,
    "licenseNumber": "050000125",
    "licenseEffectiveDate": "01/24/2025",
    "licenseExpirationDate": "01/23/2026",
    "dataDate": "10/18/2025",
    "capacity": 99,
    "address": "290 HEATHER CT",
    "city": "TEMPLETON",
    "zip": "93465",
    "county": "SAN LUIS OBISPO",
    "phone": "(805) 434-3035",
    "lat": 35.55288,
    "lng": -120.718152
  }
]