[
  {
    "id": "240001854",
    "name": "BISHOP CARE CENTER",
    "npi": "1225336373",
    "hcaiId": "206144006",
    "businessName": "IXIA HOLDINGS, LLC",
    "contactEmail": "DYLAN.GRANT@BISHOPCARECENTER.COM",
    "categoryName": "SKILLED NURSING FACILITY",
    "categoryCode": "SNF",
    "licenseStatus": "ACTIVE",
    "inService": true,
    "licenseNumber": "240000831",
    "licenseEffectiveDate": "06/07/2025",
    "licenseExpirationDate": "06/06/2026",
    "dataDate": "10/18/2025",
    "capacity": 99,
    "address": "151 PIONEER LN",
    "city": "BISHOP",
    "zip": "93514",
    "county": "INYO",
    "phone": "(760) 872-9314",
    "lat": 37.3617,
    "lng": -118.4085495
  },
  {
    "id": "630020618",
    "name": "BISHOP COMMUNITY HEALTH CENTER",
    "npi": null,
    "hcaiId": null,
    "businessName": "VALLEY HEALTH TEAM, INC.",
    "contactEmail": null,
    "categoryName": "PRIMARY CARE CLINIC",
    "categoryCode": "COMTYC",
    "licenseStatus": "ACTIVE",
    "inService": true,
    "licenseNumber": "550003996",
    "licenseEffectiveDate": "11/13/2025",
    "licenseExpirationDate": "11/12/2026",
    "dataDate": "10/18/2025",
    "capacity": 0,
    "address": "459 W LINE ST, SUITE C",
    "city": "BISHOP",
    "zip": "93514",
    "county": "INYO",
    "phone": null,
    "lat": 37.361619,
    "lng": -118.3989285
  },
  {
    "id": "630026147",
    "name": "BISHOP COMMUNITY HEALTH CENTER",
    "npi": null,
    "hcaiId": null,
    "businessName": "VALLEY HEALTH TEAM, INC.",
    "contactEmail": null,
    "categoryName": "PRIMARY CARE CLINIC",
    "categoryCode": "COMTYC",
    "licenseStatus": "ACTIVE",
    "inService": true,
    "licenseNumber": "550003996",
    "licenseEffectiveDate": "11/13/2025",
    "licenseExpirationDate": "11/12/2026",
    "dataDate": "10/18/2025",
    "capacity": 0,
    "address": "459 W LINE ST, SUITE B",
    "city": "BISHOP",
    "zip": "93514",
    "county": "INYO",
    "phone": null,
    "lat": 37.361619,
    "lng": -118.3989285
  },
  {
    "id": "630016074",
    "name": "HOSPICE OF THE OWENS VALLEY",
    "npi": "1679905996",
    "hcaiId": "406144007",
    "businessName": "PIONEER HOME HEALTH CARE, INC.",
    "contactEmail": "HMULLANIX@PIONEERHHC.COM",
    "categoryName": "HOSPICE",
    "categoryCode": "HOSPICE",
    "licenseStatus": "ACTIVE",
    "inService": true,
    "licenseNumber": "550003343",
    "licenseEffectiveDate": "10/15/2025",
    "licenseExpirationDate": "10/14/2027",
    "dataDate": "10/18/2025",
    "capacity": 0,
    "address": "363 ACADEMY ST",
    "city": "BISHOP",
    "zip": "93514",
    "county": "INYO",
    "phone": "(760) 872-4663",
    "lat": 37.363329,
    "lng": -118.3979115
  },
  {
    "id": "240000037",
    "name": "NORTHERN INYO HOSPITAL",
    "npi": "1922198712",
    "hcaiId": "106141273",
    "businessName": "NORTHERN INYO HEALTHCARE DISTRICT",
    "contactEmail": "CORI.STEARNS@NIH.ORG",
    "categoryName": "GENERAL ACUTE CARE HOSPITAL",
    "categoryCode": "GACH",
    "licenseStatus": "ACTIVE",
    "inService": true,
    "licenseNumber": "240000179",
    "licenseEffectiveDate": "11/01/2025",
    "licenseExpirationDate": "10/31/2026",
    "dataDate": "10/18/2025",
    "capacity": 25,
    "address": "150 PIONEER LN",
    "city": "BISHOP",
    "zip": "93514",
    "county": "INYO",
    "phone": "(760) 873-2838",
    "lat": 37.362177,
    "lng": -118.40715
  },
  {
    "id": "240000899",
    "name": "PIONEER HOME HEALTH CARE",
    "npi": "1790782241",
    "hcaiId": "406144002",
    "businessName": "PIONEER HOME HEALTH CARE, INC.",
    "contactEmail": "RALLEN@PIONEERHHC.COM",
    "categoryName": "HOME HEALTH AGENCY",
    "categoryCode": "HHA",
    "licenseStatus": "ACTIVE",
    "inService": true,
    "licenseNumber": "240000403",
    "licenseEffectiveDate": "05/10/2025",
    "licenseExpirationDate": "05/09/2026",
    "dataDate": "10/18/2025",
    "capacity": 0,
    "address": "363 ACADEMY AVE",
    "city": "BISHOP",
    "zip": "93514",
    "county": "INYO",
    "phone": "(760) 872-4663",
    "lat": 37.363329,
    "lng": -118.3979115
  },
  {
    "id": "240001910",
    "name": "TOIYABE INDIAN HEALTH PROJECT INC.",
    "npi": null,
    "hcaiId": null,
    "businessName": null,
    "contactEmail": null,
    "categoryName": "PRIMARY CARE CLINIC",
    "categoryCode": "RHC",
    "licenseStatus": null,
    "inService": null,
    "licenseNumber": null,
    "licenseEffectiveDate": null,
    "licenseExpirationDate": null,
    "dataDate": "10/18/2025",
    "capacity": 0,
    "address": "52 N TU SU LN",
    "city": "BISHOP",
    "zip": "93514",
    "county": "INYO",
    "phone": "(760) 873-8464",
    "lat": 37.36217346,
    "lng": -118.4183168
  },
  {
    "id": "240001700",
    "name": "TOIYABE INDIAN HEALTH PROJECT INC.-DIALYSIS CTR",
    "npi": "1447374012",
    "hcaiId": null,
    "businessName": null,
    "contactEmail": null,
    "categoryName": "PRIMARY CARE CLINIC",
    "categoryCode": "FQHC",
    "licenseStatus": null,
    "inService": null,
    "licenseNumber": null,
    "licenseEffectiveDate": null,
    "licenseExpirationDate": null,
    "dataDate": "10/18/2025",
    "capacity": 0,
    "address": "44 N TU SU LN",
    "city": "BISHOP",
    "zip": "93514",
    "county": "INYO",
    "phone": "(760) 873-7611",
    "lat": 37.36204345,
    "lng": -118.418318
  },
  {
    "id": "240000725",
    "name": "TOIYABE INDIAN HEALTH PROJECT, INC.",
    "npi": null,
    "hcaiId": null,
    "businessName": null,
    "contactEmail": null,
    "categoryName": "PRIMARY CARE CLINIC",
    "categoryCode": "FQHC",
    "licenseStatus": null,
    "inService": null,
    "licenseNumber": null,
    "licenseEffectiveDate": null,
    "licenseExpirationDate": null,
    "dataDate": "10/18/2025",
    "capacity": 0,
    "address": "52 N TU SU LN",
    "city": "BISHOP",
    "zip": "93514",
    "county": "INYO",
    "phone": "(760) 873-8464",
    "lat": 37.36217346,
    "lng": -118.4183168
  },
  {
    "id": "630020851",
    "name": "VALLEY HEALTH TEAM MOBILE MEDICAL",
    "npi": null,
    "hcaiId": null,
    "businessName": "VALLEY HEALTH TEAM, INC.",
    "contactEmail": "YRENTERIA@VHT.ORG",
    "categoryName": "PRIMARY CARE CLINIC",
    "categoryCode": "COMTYC",
    "licenseStatus": "ACTIVE",
    "inService": true,
    "licenseNumber": "550003996",
    "licenseEffectiveDate": "11/13/2025",
    "licenseExpirationDate": "11/12/2026",
    "dataDate": "10/18/2025",
    "capacity": 0,
    "address": "459 W LINE ST",
    "city": "BISHOP",
    "zip": "93514",
    "county": "INYO",
    "phone": "(559) 364-2938",
    "lat": 37.361619,
    "lng": -118.3989285
  }
]