[
  {
    "id": "630004361",
    "name": "ADVANCED ENDOSCOPY AND PAIN CENTER, LLC",
    "npi": "1205195716",
    "hcaiId": "306196769",
    "businessName": "UNITED MEDICAL ENDOSCOPY CENTER, A MEDICAL CORP.",
    "contactEmail": "UMEC@ADELPHIA.NET",
    "categoryName": "SURGICAL CLINIC",
    "categoryCode": "ASC",
    "licenseStatus": "INACTIVE - CAPEN DECISION",
    "inService": false,
    "licenseNumber": "550000201",
    "licenseEffectiveDate": "06/26/2007",
    "licenseExpirationDate": "06/25/2008",
    "dataDate": "10/18/2025",
    "capacity": 0,
    "address": "1753 W AVENUE J, SUITE A",
    "city": "LANCASTER",
    "zip": "93534",
    "county": "LOS ANGELES",
    "phone": "(661) 948-0803",
    "lat": 34.689942,
    "lng": -118.163097
  },
  {
    "id": "060001943",
    "name": "ANTELOPE VALLEY ADULT DAY HEALTH CARE CENTER",
    "npi": null,
    "hcaiId": null,
    "businessName": "LIFE'S GOLDEN HORIZON'S INC.",
    "contactEmail": "ADMINISTRATOR@AVADHC.COM",
    "categoryName": "ADULT DAY HEALTH CARE",
    "categoryCode": "ADHC",
    "licenseStatus": "ACTIVE",
    "inService": true,
    "licenseNumber": "060000760",
    "licenseEffectiveDate": "01/17/2025",
    "licenseExpirationDate": "01/16/2026",
    "dataDate": "10/18/2025",
    "capacity": 0,
    "address": "44902 10TH ST W",
    "city": "LANCASTER",
    "zip": "93534",
    "county": "LOS ANGELES",
    "phone": "(661) 949-6278",
    "lat": 34.699203,
    "lng": -118.1475
  },
  {
    "id": "920000280",
    "name": "ANTELOPE VALLEY CARE CENTER",
    "npi": "1083302350",
    "hcaiId": "206194202",
    "businessName": "ANTELOPE VALLEY SNF HEALTHCARE, LLC",
    "contactEmail": "DALLIN.BENSON@AVCARECENTER.COM",
    "categoryName": "SKILLED NURSING FACILITY",
    "categoryCode": "SNF",
    "licenseStatus": "ACTIVE",
    "inService": true,
    "licenseNumber": "920000122",
    "licenseEffectiveDate": "12/20/2024",
    "licenseExpirationDate": "11/23/2025",
    "dataDate": "10/18/2025",
    "capacity": 199,
    "address": "44567 15TH ST W",
    "city": "LANCASTER",
    "zip": "93534",
    "county": "LOS ANGELES",
    "phone": "(661) 949-5524",
    "lat": 34.692615,
    "lng": -118.1574855
  },
  {
    "id": "930000204",
    "name": "ANTELOPE VALLEY DIALYSIS",
    "npi": "1083898001",
    "hcaiId": "306196737",
    "businessName": "TOTAL RENAL CARE, INC.",
    "contactEmail": "CAL_C@DAVITA.COM",
    "categoryName": "CHRONIC DIALYSIS CLINIC",
    "categoryCode": "ESRD/CDC",
    "licenseStatus": "ACTIVE",
    "inService": true,
    "licenseNumber": "930000210",
    "licenseEffectiveDate": "12/01/2024",
    "licenseExpirationDate": "11/30/2025",
    "dataDate": "10/18/2025",
    "capacity": 31,
    "address": "1759 W AVENUE J # 102",
    "city": "LANCASTER",
    "zip": "93534",
    "county": "LOS ANGELES",
    "phone": "(661) 942-6400",
    "lat": 34.690815,
    "lng": -118.163169
  },
  {
    "id": "980000954",
    "name": "ANTELOPE VALLEY HOME CARE",
    "npi": "1487657235",
    "hcaiId": "406194066",
    "businessName": "ANTELOPE VALLEY HEALTHCARE DISTRICT",
    "contactEmail": "COLLEEN.MORGENSTERN@AVMC.ORG",
    "categoryName": "HOME HEALTH AGENCY",
    "categoryCode": "HHA",
    "licenseStatus": "ACTIVE",
    "inService": true,
    "licenseNumber": "980000472",
    "licenseEffectiveDate": "11/16/2024",
    "licenseExpirationDate": "11/15/2025",
    "dataDate": "10/18/2025",
    "capacity": 0,
    "address": "44335 LOWTREE AVE",
    "city": "LANCASTER",
    "zip": "93534",
    "county": "LOS ANGELES",
    "phone": "(661) 949-5938",
    "lat": 34.688727,
    "lng": -118.1545065
  },
  {
    "id": "630027647",
    "name": "ANTELOPE VALLEY HOME TRAINING",
    "npi": null,
    "hcaiId": null,
    "businessName": null,
    "contactEmail": "BRAD.GRIFFITHS@DAVITA.COM",
    "categoryName": "CHRONIC DIALYSIS CLINIC",
    "categoryCode": "ESRD",
    "licenseStatus": null,
    "inService": null,
    "licenseNumber": null,
    "licenseEffectiveDate": null,
    "licenseExpirationDate": null,
    "dataDate": "10/18/2025",
    "capacity": 0,
    "address": "44151 15TH ST W",
    "city": "LANCASTER",
    "zip": "93534",
    "county": "LOS ANGELES",
    "phone": "(661) 743-0001",
    "lat": 34.68553101,
    "lng": -118.158357
  },
  {
    "id": "930000630",
    "name": "ANTELOPE VALLEY HOSPITAL D/P APH",
    "npi": "1366419517",
    "hcaiId": null,
    "businessName": "ANTELOPE VALLEY HEALTHCARE DISTRICT",
    "contactEmail": null,
    "categoryName": "ACUTE PSYCHIATRIC HOSPITAL",
    "categoryCode": "APH",
    "licenseStatus": "ACTIVE",
    "inService": true,
    "licenseNumber": "930000008",
    "licenseEffectiveDate": "11/01/2024",
    "licenseExpirationDate": "10/31/2025",
    "dataDate": "10/18/2025",
    "capacity": 30,
    "address": "1600 W AVENUE J",
    "city": "LANCASTER",
    "zip": "93534",
    "county": "LOS ANGELES",
    "phone": "(661) 949-5000",
    "lat": 34.68935389,
    "lng": -118.1585617
  },
  {
    "id": "630011081",
    "name": "ANTELOPE VALLEY KIDNEY INSTITUTE",
    "npi": "1770609711",
    "hcaiId": "306197066",
    "businessName": "ANTELOPE VALLEY KIDNEY INSTITUTE, A PROFESSIONAL CORPORATION",
    "contactEmail": "KKATKORIA@AVKIDIALYSIS.COM",
    "categoryName": "CHRONIC DIALYSIS CLINIC",
    "categoryCode": "ESRD/CDC",
    "licenseStatus": "ACTIVE",
    "inService": true,
    "licenseNumber": "550000633",
    "licenseEffectiveDate": "11/07/2025",
    "licenseExpirationDate": "11/06/2026",
    "dataDate": "10/18/2025",
    "capacity": 22,
    "address": "43932 15TH ST W, SUITE 103",
    "city": "LANCASTER",
    "zip": "93534",
    "county": "LOS ANGELES",
    "phone": "(661) 945-7755",
    "lat": 34.681104,
    "lng": -118.156266
  },
  {
    "id": "930000008",
    "name": "ANTELOPE VALLEY MEDICAL CENTER",
    "npi": "1366419517",
    "hcaiId": "106190034",
    "businessName": "ANTELOPE VALLEY HEALTHCARE DISTRICT",
    "contactEmail": "EDWARD.MIRZABEGIAN@AVMC.ORG",
    "categoryName": "GENERAL ACUTE CARE HOSPITAL",
    "categoryCode": "GACH",
    "licenseStatus": "ACTIVE",
    "inService": true,
    "licenseNumber": "930000008",
    "licenseEffectiveDate": "11/01/2024",
    "licenseExpirationDate": "10/31/2025",
    "dataDate": "10/18/2025",
    "capacity": 390,
    "address": "1600 W AVENUE J",
    "city": "LANCASTER",
    "zip": "93534",
    "county": "LOS ANGELES",
    "phone": "(661) 949-5000",
    "lat": 34.68935389,
    "lng": -118.1585617
  },
  {
    "id": "630015790",
    "name": "ANTELOPE VALLEY SUPPORTIVE CARE AND HOSPICE, INC.",
    "npi": "1225436967",
    "hcaiId": "406198455",
    "businessName": "ANTELOPE VALLEY SUPPORTIVE CARE AND HOSPICE, INC.",
    "contactEmail": "CLITTLEJOHN@AVSUPPORTIVECARE.COM",
    "categoryName": "HOSPICE",
    "categoryCode": "HOSPICE",
    "licenseStatus": "ACTIVE",
    "inService": true,
    "licenseNumber": "550003814",
    "licenseEffectiveDate": "01/24/2025",
    "licenseExpirationDate": "01/23/2027",
    "dataDate": "10/18/2025",
    "capacity": 0,
    "address": "1505 W AVENUE J, SUITE 303",
    "city": "LANCASTER",
    "zip": "93534",
    "county": "LOS ANGELES",
    "phone": "(661) 247-8345",
    "lat": 34.689708,
    "lng": -118.1570895
  },
  {
    "id": "630012392",
    "name": "ANTELOPE VALLEY SURGICAL INSTITUTE",
    "npi": "1568532737",
    "hcaiId": null,
    "businessName": null,
    "contactEmail": null,
    "categoryName": "SURGICAL CLINIC",
    "categoryCode": "ASC",
    "licenseStatus": null,
    "inService": null,
    "licenseNumber": null,
    "licenseEffectiveDate": null,
    "licenseExpirationDate": null,
    "dataDate": "10/18/2025",
    "capacity": 0,
    "address": "1720 W AVENUE J",
    "city": "LANCASTER",
    "zip": "93534",
    "county": "LOS ANGELES",
    "phone": "(661) 940-6060",
    "lat": 34.688745,
    "lng": -118.161945
  },
  {
    "id": "630020306",
    "name": "ANTHEM HOSPICE",
    "npi": "1669096376",
    "hcaiId": "406363185",
    "businessName": "ALB HOSPICE CARE, INC.",
    "contactEmail": "ALBHOSPICECARE@GMAIL.COM",
    "categoryName": "HOSPICE",
    "categoryCode": "HOSPICE",
    "licenseStatus": "ACTIVE",
    "inService": true,
    "licenseNumber": "550006236",
    "licenseEffectiveDate": "06/24/2025",
    "licenseExpirationDate": "03/22/2027",
    "dataDate": "10/18/2025",
    "capacity": 0,
    "address": "44215 15TH ST W, SUITE 308",
    "city": "LANCASTER",
    "zip": "93534",
    "county": "LOS ANGELES",
    "phone": "(661) 310-3256",
    "lat": 34.686643,
    "lng": -118.158558
  },
  {
    "id": "630027126",
    "name": "APOLLO SURGERY CENTER LLC",
    "npi": null,
    "hcaiId": null,
    "businessName": null,
    "contactEmail": "KPERUMALSAMY@GCIAV.COM",
    "categoryName": "SURGICAL CLINIC",
    "categoryCode": "ASC",
    "licenseStatus": null,
    "inService": null,
    "licenseNumber": null,
    "licenseEffectiveDate": null,
    "licenseExpirationDate": null,
    "dataDate": "10/18/2025",
    "capacity": 0,
    "address": "43944 15TH ST W, SUITE 101",
    "city": "LANCASTER",
    "zip": "93534",
    "county": "LOS ANGELES",
    "phone": "(661) 579-4700",
    "lat": 34.68162299,
    "lng": -118.156282
  },
  {
    "id": "630015501",
    "name": "AZALEA MANOR",
    "npi": null,
    "hcaiId": null,
    "businessName": "AZALEA MANOR",
    "contactEmail": "MUNOZANDERSON23@YAHOO.COM",
    "categoryName": "CONGREGATE LIVING HEALTH FACILITY",
    "categoryCode": "CLHF",
    "licenseStatus": "ACTIVE",
    "inService": true,
    "licenseNumber": "550009614",
    "licenseEffectiveDate": "04/22/2025",
    "licenseExpirationDate": "10/21/2025",
    "dataDate": "10/18/2025",
    "capacity": 6,
    "address": "1759 WINDERMERE DR",
    "city": "LANCASTER",
    "zip": "93534",
    "county": "LOS ANGELES",
    "phone": "(818) 687-3830",
    "lat": 34.71624892,
    "lng": -118.1632637
  },
  {
    "id": "630016997",
    "name": "BRISTOL HOSPICE - LANCASTER",
    "npi": "1689181323",
    "hcaiId": "406190506",
    "businessName": "OPTIMAL HOSPICE, INC.",
    "contactEmail": "BASIL.FELIX@BRISTOLHOSPICE.COM",
    "categoryName": "HOSPICE",
    "categoryCode": "HOSPICE",
    "licenseStatus": "ACTIVE",
    "inService": true,
    "licenseNumber": "550004054",
    "licenseEffectiveDate": "11/16/2025",
    "licenseExpirationDate": "11/15/2027",
    "dataDate": "10/18/2025",
    "capacity": 0,
    "address": "44151 15TH ST W, SUITE 201",
    "city": "LANCASTER",
    "zip": "93534",
    "county": "LOS ANGELES",
    "phone": "(661) 674-3000",
    "lat": 34.68513472,
    "lng": -118.1568994
  },
  {
    "id": "630012504",
    "name": "CALIFORNIA CARE HOME HEALTH AGENCY, INC.",
    "npi": "1710110408",
    "hcaiId": "406197478",
    "businessName": "CALIFORNIA CARE HOME HEALTH AGENCY, INC.",
    "contactEmail": "CALIFORNIACAREHHA@GMAIL.COM",
    "categoryName": "HOME HEALTH AGENCY",
    "categoryCode": "HHA",
    "licenseStatus": "ACTIVE",
    "inService": true,
    "licenseNumber": "550001434",
    "licenseEffectiveDate": "11/30/2024",
    "licenseExpirationDate": "11/29/2025",
    "dataDate": "10/18/2025",
    "capacity": 0,
    "address": "315 W PONDERA ST, SUITE F",
    "city": "LANCASTER",
    "zip": "93534",
    "county": "LOS ANGELES",
    "phone": "(661) 945-1577",
    "lat": 34.69024903,
    "lng": -118.1327664
  },
  {
    "id": "630004721",
    "name": "CARE NET WOMEN'S RESOURCE CENTER OF NORTH COUNTY",
    "npi": "1518004654",
    "hcaiId": "306196851",
    "businessName": "CARE NET WOMEN'S RESOURCE CENTER OF NORTH COUNTY",
    "contactEmail": "DIRECTOR@AVCARENET.COM",
    "categoryName": "PRIMARY CARE CLINIC",
    "categoryCode": "COMTYC",
    "licenseStatus": "ACTIVE",
    "inService": true,
    "licenseNumber": "550000272",
    "licenseEffectiveDate": "11/05/2024",
    "licenseExpirationDate": "11/04/2025",
    "dataDate": "10/18/2025",
    "capacity": 0,
    "address": "44733 10TH ST W",
    "city": "LANCASTER",
    "zip": "93534",
    "county": "LOS ANGELES",
    "phone": "(661) 729-4277",
    "lat": 34.696377,
    "lng": -118.148382
  },
  {
    "id": "630013623",
    "name": "CERTIFIED HOSPICE CARE, INC.",
    "npi": "1013280239",
    "hcaiId": "406197802",
    "businessName": "CERTIFIED HOSPICE CARE, INC.",
    "contactEmail": "INFO@CERTIFIEDHOSPICE.COM",
    "categoryName": "HOSPICE",
    "categoryCode": "HOSPICE",
    "licenseStatus": "ACTIVE",
    "inService": true,
    "licenseNumber": "550002181",
    "licenseEffectiveDate": "01/04/2025",
    "licenseExpirationDate": "01/03/2027",
    "dataDate": "10/18/2025",
    "capacity": 0,
    "address": "1817 W AVENUE K, UNIT 211B",
    "city": "LANCASTER",
    "zip": "93534",
    "county": "LOS ANGELES",
    "phone": "(661) 244-8210",
    "lat": 34.675659,
    "lng": -118.164096
  },
  {
    "id": "630020203",
    "name": "CRYSTAL LIGHT HOSPICE, INC.",
    "npi": null,
    "hcaiId": "406193555",
    "businessName": "CRYSTAL LIGHT HOSPICE, INC.",
    "contactEmail": "CRYSTALHOSPICE1@YAHOO.COM",
    "categoryName": "HOSPICE",
    "categoryCode": "HOSPICE",
    "licenseStatus": "ACTIVE",
    "inService": true,
    "licenseNumber": "550006577",
    "licenseEffectiveDate": "05/25/2025",
    "licenseExpirationDate": "05/24/2027",
    "dataDate": "10/18/2025",
    "capacity": 0,
    "address": "1817 W AVENUE K, UNIT 201",
    "city": "LANCASTER",
    "zip": "93534",
    "county": "LOS ANGELES",
    "phone": "(818) 635-4249",
    "lat": 34.675659,
    "lng": -118.164096
  },
  {
    "id": "630015339",
    "name": "CRYSTAL ROSE HOME HEALTH CARE, INC.",
    "npi": "1740678457",
    "hcaiId": "406198150",
    "businessName": "CRYSTAL ROSE HOME HEALTH CARE, INC.",
    "contactEmail": "CRYSTALROSEHOMEHEALTH@YAHOO.COM",
    "categoryName": "HOME HEALTH AGENCY",
    "categoryCode": "HHA",
    "licenseStatus": "ACTIVE",
    "inService": false,
    "licenseNumber": "550003326",
    "licenseEffectiveDate": "10/27/2025",
    "licenseExpirationDate": "10/26/2026",
    "dataDate": "10/18/2025",
    "capacity": 0,
    "address": "44841 DATE AVE",
    "city": "LANCASTER",
    "zip": "93534",
    "county": "LOS ANGELES",
    "phone": "(661) 949-8877",
    "lat": 34.69684861,
    "lng": -118.1406615
  },
  {
    "id": "920000051",
    "name": "DESERT CANYON POST ACUTE, LLC",
    "npi": "1912403718",
    "hcaiId": "206190456",
    "businessName": "DESERT CANYON POST ACUTE, LLC",
    "contactEmail": "MICHELLE.JIMENEZ@DESERTCANYONPOSTACUTE.COM",
    "categoryName": "SKILLED NURSING FACILITY",
    "categoryCode": "SNF",
    "licenseStatus": "ACTIVE",
    "inService": true,
    "licenseNumber": "920000046",
    "licenseEffectiveDate": "12/01/2024",
    "licenseExpirationDate": "11/30/2025",
    "dataDate": "10/18/2025",
    "capacity": 99,
    "address": "1642 W AVENUE J",
    "city": "LANCASTER",
    "zip": "93534",
    "county": "LOS ANGELES",
    "phone": "(661) 942-8463",
    "lat": 34.688763,
    "lng": -118.1598345
  },
  {
    "id": "630021600",
    "name": "DIRECT HOME CARE",
    "npi": null,
    "hcaiId": "406195904",
    "businessName": "DIRECT HOME CARE",
    "contactEmail": "DIRECTHCI@YAHOO.COM",
    "categoryName": "HOME HEALTH AGENCY",
    "categoryCode": "HHA",
    "licenseStatus": "ACTIVE",
    "inService": true,
    "licenseNumber": "550008100",
    "licenseEffectiveDate": "07/08/2025",
    "licenseExpirationDate": "07/07/2026",
    "dataDate": "10/18/2025",
    "capacity": 0,
    "address": "936 W AVENUE J4, UNIT 201",
    "city": "LANCASTER",
    "zip": "93534",
    "county": "LOS ANGELES",
    "phone": "(661) 255-5777",
    "lat": 34.685568,
    "lng": -118.146906
  },
  {
    "id": "630021566",
    "name": "DIVINE INTERVENTION HOSPICE, INC.",
    "npi": null,
    "hcaiId": "406193929",
    "businessName": "DIVINE INTERVENTION HOSPICE, INC.",
    "contactEmail": "DIVINEINTERVENTIONHOSPICE@GMAIL.COM",
    "categoryName": "HOSPICE",
    "categoryCode": "HOSPICE",
    "licenseStatus": "ACTIVE",
    "inService": true,
    "licenseNumber": "550007325",
    "licenseEffectiveDate": "11/22/2023",
    "licenseExpirationDate": "11/21/2025",
    "dataDate": "10/18/2025",
    "capacity": 0,
    "address": "44008 10TH ST W, SUITE A",
    "city": "LANCASTER",
    "zip": "93534",
    "county": "LOS ANGELES",
    "phone": "(661) 802-4224",
    "lat": 34.68251202,
    "lng": -118.147712
  },
  {
    "id": "630017762",
    "name": "EMBASSY SURGERY CENTER LLC",
    "npi": "1174063788",
    "hcaiId": null,
    "businessName": null,
    "contactEmail": "DRTSN@YAHOO.COM",
    "categoryName": "SURGICAL CLINIC",
    "categoryCode": "ASC",
    "licenseStatus": null,
    "inService": null,
    "licenseNumber": null,
    "licenseEffectiveDate": null,
    "licenseExpirationDate": null,
    "dataDate": "10/18/2025",
    "capacity": 0,
    "address": "42135 10TH ST W, SUITE 325",
    "city": "LANCASTER",
    "zip": "93534",
    "county": "LOS ANGELES",
    "phone": "(661) 675-6562",
    "lat": 34.64823431,
    "lng": -118.1478298
  },
  {
    "id": "630012759",
    "name": "ENVISION SURGERY CENTER, LLC",
    "npi": "1467786889",
    "hcaiId": null,
    "businessName": null,
    "contactEmail": null,
    "categoryName": "SURGICAL CLINIC",
    "categoryCode": "ASC",
    "licenseStatus": null,
    "inService": null,
    "licenseNumber": null,
    "licenseEffectiveDate": null,
    "licenseExpirationDate": null,
    "dataDate": "10/18/2025",
    "capacity": 0,
    "address": "42442 10TH ST W, SUITE G",
    "city": "LANCASTER",
    "zip": "93534",
    "county": "LOS ANGELES",
    "phone": null,
    "lat": 34.65427712,
    "lng": -118.1475871
  },
  {
    "id": "630018957",
    "name": "GOLDEN AGES PALLIATIVE AND HOSPICE CARE INC.",
    "npi": null,
    "hcaiId": "406192187",
    "businessName": "GOLDEN AGES PALLIATIVE AND HOSPICE CARE INC.",
    "contactEmail": "ADMIN@GOLDENAGESHOSPICE.US",
    "categoryName": "HOSPICE",
    "categoryCode": "HOSPICE",
    "licenseStatus": "ACTIVE",
    "inService": true,
    "licenseNumber": "550005170",
    "licenseEffectiveDate": "12/09/2023",
    "licenseExpirationDate": "12/08/2025",
    "dataDate": "10/18/2025",
    "capacity": 0,
    "address": "44140 20TH ST W, SUITE 103",
    "city": "LANCASTER",
    "zip": "93534",
    "county": "LOS ANGELES",
    "phone": "(661) 579-6915",
    "lat": 34.68479057,
    "lng": -118.1656226
  },
  {
    "id": "630013149",
    "name": "HUMAN TOUCH HOME HEALTH CARE AGENCY",
    "npi": "1528153244",
    "hcaiId": "406198055",
    "businessName": "HUMAN TOUCH HOME HEALTH CARE AGENCY, INC.",
    "contactEmail": "ARLENE@HUMANTOUCHHOMEHEALTHCA.COM",
    "categoryName": "HOME HEALTH AGENCY",
    "categoryCode": "HHA",
    "licenseStatus": "ACTIVE",
    "inService": true,
    "licenseNumber": "550002726",
    "licenseEffectiveDate": "04/24/2025",
    "licenseExpirationDate": "04/23/2026",
    "dataDate": "10/18/2025",
    "capacity": 0,
    "address": "1122 WEST AVE L12, SUITE 103",
    "city": "LANCASTER",
    "zip": "93534",
    "county": "LOS ANGELES",
    "phone": "(661) 726-4200",
    "lat": 34.6488082,
    "lng": -118.1531769
  },
  {
    "id": "980002104",
    "name": "KAISER FOUNDATION HOSPITAL VALLEYS CONTINUING CARE-LANCASTER BRANCH",
    "npi": null,
    "hcaiId": "406197054",
    "businessName": "KAISER FOUNDATION HOSPITALS",
    "contactEmail": "NONE@DHS.CA.GOV",
    "categoryName": "HOME HEALTH AGENCY",
    "categoryCode": "HHA",
    "licenseStatus": "ACTIVE",
    "inService": true,
    "licenseNumber": "980000511",
    "licenseEffectiveDate": "11/27/2025",
    "licenseExpirationDate": "11/26/2026",
    "dataDate": "10/18/2025",
    "capacity": 0,
    "address": "1050 COMMERCE CENTER DR, SUITE A",
    "city": "LANCASTER",
    "zip": "93534",
    "county": "LOS ANGELES",
    "phone": "(661) 729-7250",
    "lat": 34.67241811,
    "lng": -118.1490255
  },
  {
    "id": "930001167",
    "name": "KAISER FOUNDATION HOSPITAL, AMBULATORY SURGERY CENTER, ANTELOPE VALLEY",
    "npi": "1699732131",
    "hcaiId": "306194300",
    "businessName": "KAISER FOUNDATION HOSPITALS",
    "contactEmail": "SUZY.GHAZAROSSIAN@KP.ORG",
    "categoryName": "SURGICAL CLINIC",
    "categoryCode": "ASC/SURGC",
    "licenseStatus": "ACTIVE",
    "inService": true,
    "licenseNumber": "550009215",
    "licenseEffectiveDate": "10/13/2025",
    "licenseExpirationDate": "06/12/2026",
    "dataDate": "10/18/2025",
    "capacity": 0,
    "address": "44301 LORIMER AVE",
    "city": "LANCASTER",
    "zip": "93534",
    "county": "LOS ANGELES",
    "phone": "(661) 723-2488",
    "lat": 34.687881,
    "lng": -118.160676
  },
  {
    "id": "060001874",
    "name": "LANCASTER ADULT DAY HEALTH CARE",
    "npi": null,
    "hcaiId": null,
    "businessName": "JWCH INSTITUTE, INC.",
    "contactEmail": "AIRIE@JWCH.ORG",
    "categoryName": "ADULT DAY HEALTH CARE",
    "categoryCode": "ADHC",
    "licenseStatus": "ACTIVE",
    "inService": true,
    "licenseNumber": "060000691",
    "licenseEffectiveDate": "03/15/2025",
    "licenseExpirationDate": "03/14/2026",
    "dataDate": "10/18/2025",
    "capacity": 0,
    "address": "844 W AVENUE I",
    "city": "LANCASTER",
    "zip": "93534",
    "county": "LOS ANGELES",
    "phone": "(323) 201-4516",
    "lat": 34.70389269,
    "lng": -118.1470258
  },
  {
    "id": "630016392",
    "name": "MAGNIFIQUE CONGREGATE LIVING, INC.",
    "npi": null,
    "hcaiId": "206190078",
    "businessName": "MAGNIFIQUE CONGREGATE LIVING, INC.",
    "contactEmail": "MAGNIFIQUECLHF@GMAIL.COM",
    "categoryName": "CONGREGATE LIVING HEALTH FACILITY",
    "categoryCode": "CLHF",
    "licenseStatus": "ACTIVE",
    "inService": true,
    "licenseNumber": "550004342",
    "licenseEffectiveDate": "06/12/2024",
    "licenseExpirationDate": "06/11/2025",
    "dataDate": "10/18/2025",
    "capacity": 6,
    "address": "1827 W AVENUE, SUITE K12",
    "city": "LANCASTER",
    "zip": "93534",
    "county": "LOS ANGELES",
    "phone": "(661) 418-0084",
    "lat": 34.7770685,
    "lng": -118.1633668
  },
  {
    "id": "630019120",
    "name": "MAXIMUM PALLIATIVE CARE AND HOSPICE, INC.",
    "npi": null,
    "hcaiId": "406192714",
    "businessName": "MAXIMUM PALLIATIVE CARE AND HOSPICE, INC.",
    "contactEmail": "MPCHOSPICE@GMAIL.COM",
    "categoryName": "HOSPICE",
    "categoryCode": "HOSPICE",
    "licenseStatus": "ACTIVE",
    "inService": true,
    "licenseNumber": "550005576",
    "licenseEffectiveDate": "07/08/2024",
    "licenseExpirationDate": "07/07/2026",
    "dataDate": "10/18/2025",
    "capacity": 0,
    "address": "44501 16TH ST W, SUITE 105",
    "city": "LANCASTER",
    "zip": "93534",
    "county": "LOS ANGELES",
    "phone": "(661) 495-2051",
    "lat": 34.69108635,
    "lng": -118.1585828
  },
  {
    "id": "630025378",
    "name": "MED PRO HOME HEALTH CARE INC",
    "npi": null,
    "hcaiId": null,
    "businessName": "MED PRO HOME HEALTH CARE INC.",
    "contactEmail": "MEDPROHHCARE@GMAIL.COM",
    "categoryName": "HOME HEALTH AGENCY",
    "categoryCode": "HHA",
    "licenseStatus": "ACTIVE",
    "inService": true,
    "licenseNumber": "550008645",
    "licenseEffectiveDate": "07/11/2025",
    "licenseExpirationDate": "07/10/2026",
    "dataDate": "10/18/2025",
    "capacity": 0,
    "address": "1817 W AVENUE K, UNIT 207C",
    "city": "LANCASTER",
    "zip": "93534",
    "county": "LOS ANGELES",
    "phone": "(818) 284-7136",
    "lat": 34.675659,
    "lng": -118.164096
  },
  {
    "id": "920000048",
    "name": "MIRAGE POST ACUTE",
    "npi": "1801584164",
    "hcaiId": "206190033",
    "businessName": "LANCASTER SNF HEALTHCARE, LLC",
    "contactEmail": "JOSEPH.GARIBAY@MIRAGEPOSTACUTE.COM",
    "categoryName": "SKILLED NURSING FACILITY",
    "categoryCode": "SNF",
    "licenseStatus": "ACTIVE",
    "inService": true,
    "licenseNumber": "920000003",
    "licenseEffectiveDate": "11/01/2025",
    "licenseExpirationDate": "10/31/2026",
    "dataDate": "10/18/2025",
    "capacity": 299,
    "address": "44445 15TH ST W",
    "city": "LANCASTER",
    "zip": "93534",
    "county": "LOS ANGELES",
    "phone": "(661) 948-7501",
    "lat": 34.690217,
    "lng": -118.157431
  },
  {
    "id": "630014699",
    "name": "OASIS HOSPICE",
    "npi": "1992132112",
    "hcaiId": "406198126",
    "businessName": "OASIS HOSPICE",
    "contactEmail": "OASISHOSPICE@YAHOO.COM",
    "categoryName": "HOSPICE",
    "categoryCode": "HOSPICE",
    "licenseStatus": "ACTIVE",
    "inService": true,
    "licenseNumber": "550003314",
    "licenseEffectiveDate": "11/17/2023",
    "licenseExpirationDate": "11/16/2025",
    "dataDate": "10/18/2025",
    "capacity": 0,
    "address": "43845 10TH ST W, SUITE 2C",
    "city": "LANCASTER",
    "zip": "93534",
    "county": "LOS ANGELES",
    "phone": "(661) 206-7741",
    "lat": 34.680168,
    "lng": -118.150218
  },
  {
    "id": "630019624",
    "name": "ROSE DESERT HOSPICE",
    "npi": null,
    "hcaiId": null,
    "businessName": "ROSE DESERT HOSPICE",
    "contactEmail": "ELINA.FARMANOVA@GMAIL.COM",
    "categoryName": "HOSPICE",
    "categoryCode": "HOSPICE",
    "licenseStatus": "ACTIVE",
    "inService": true,
    "licenseNumber": "550005911",
    "licenseEffectiveDate": "12/11/2024",
    "licenseExpirationDate": "12/10/2026",
    "dataDate": "10/18/2025",
    "capacity": 0,
    "address": "42156 10TH ST W, UNIT 106",
    "city": "LANCASTER",
    "zip": "93534",
    "county": "LOS ANGELES",
    "phone": "(818) 697-3356",
    "lat": 34.649172,
    "lng": -118.146402
  },
  {
    "id": "960002448",
    "name": "TARZANA TREATMENT CTR. FAMILY MED.CLINIC-LANCASTER",
    "npi": null,
    "hcaiId": "306195049",
    "businessName": "TARZANA TREATMENT CENTERS, INC.",
    "contactEmail": "ASENELLA@TARZANATC.ORG",
    "categoryName": "PRIMARY CARE CLINIC",
    "categoryCode": "COMTYC",
    "licenseStatus": "ACTIVE",
    "inService": true,
    "licenseNumber": "960001115",
    "licenseEffectiveDate": "07/01/2025",
    "licenseExpirationDate": "03/09/2026",
    "dataDate": "10/18/2025",
    "capacity": 0,
    "address": "907 W LANCASTER BLVD",
    "city": "LANCASTER",
    "zip": "93534",
    "county": "LOS ANGELES",
    "phone": "(818) 654-3815",
    "lat": 34.697538,
    "lng": -118.147401
  },
  {
    "id": "630016910",
    "name": "THE ELLISON JOHN TRANSITIONAL CARE CENTER",
    "npi": null,
    "hcaiId": "206197667",
    "businessName": "PREMIERE REHABILITATION & WELLNESS CENTER OF LANCASTER, LP",
    "contactEmail": "SHANE.CARLSON@THEELLISONJOHNTCC.COM",
    "categoryName": "SKILLED NURSING FACILITY",
    "categoryCode": "SNF",
    "licenseStatus": "ACTIVE",
    "inService": true,
    "licenseNumber": "550003919",
    "licenseEffectiveDate": "07/20/2025",
    "licenseExpirationDate": "07/19/2026",
    "dataDate": "10/18/2025",
    "capacity": 170,
    "address": "43830 10TH STREET WEST",
    "city": "LANCASTER",
    "zip": "93534",
    "county": "LOS ANGELES",
    "phone": "(661) 494-8600",
    "lat": 34.678971,
    "lng": -118.146771
  },
  {
    "id": "980002172",
    "name": "TRADITIONS HEALTH",
    "npi": "1528087483",
    "hcaiId": "406196125",
    "businessName": "PROCARE HOSPICE, LLC",
    "contactEmail": "ALVIN.PEDROCHE@TRADITIONSHEALTH.COM",
    "categoryName": "HOSPICE",
    "categoryCode": "HOSPICE",
    "licenseStatus": "ACTIVE",
    "inService": true,
    "licenseNumber": "980001302",
    "licenseEffectiveDate": "11/01/2025",
    "licenseExpirationDate": "10/31/2027",
    "dataDate": "10/18/2025",
    "capacity": 0,
    "address": "42442 10TH ST W, SUITE E",
    "city": "LANCASTER",
    "zip": "93534",
    "county": "LOS ANGELES",
    "phone": "(661) 951-1146",
    "lat": 34.65427712,
    "lng": -118.1475871
  },
  {
    "id": "630014144",
    "name": "TRINITY SURGICAL SOLUTION INC",
    "npi": "1285907188",
    "hcaiId": null,
    "businessName": null,
    "contactEmail": "CREDENTIALING@ACUITEYEGROUP.COM",
    "categoryName": "SURGICAL CLINIC",
    "categoryCode": "ASC",
    "licenseStatus": null,
    "inService": null,
    "licenseNumber": null,
    "licenseEffectiveDate": null,
    "licenseExpirationDate": null,
    "dataDate": "10/18/2025",
    "capacity": 0,
    "address": "44815 FIG AVE, SUITE 100",
    "city": "LANCASTER",
    "zip": "93534",
    "county": "LOS ANGELES",
    "phone": "(800) 898-2020",
    "lat": 34.69626,
    "lng": -118.143378
  },
  {
    "id": "630014162",
    "name": "UNITED ALLIANCE HOSPICE CARE, INC.",
    "npi": null,
    "hcaiId": "406198035",
    "businessName": "UNITED ALLIANCE HOSPICE CARE, INC.",
    "contactEmail": "UAHOSPICEINC@GMAIL.COM",
    "categoryName": "HOSPICE",
    "categoryCode": "HOSPICE",
    "licenseStatus": "ACTIVE",
    "inService": true,
    "licenseNumber": "550002680",
    "licenseEffectiveDate": "04/24/2024",
    "licenseExpirationDate": "04/23/2026",
    "dataDate": "10/18/2025",
    "capacity": 0,
    "address": "566 W LANCASTER BLVD, UNIT 19",
    "city": "LANCASTER",
    "zip": "93534",
    "county": "LOS ANGELES",
    "phone": "(619) 829-3982",
    "lat": 34.697817,
    "lng": -118.139103
  },
  {
    "id": "630014473",
    "name": "VALLEY'S BEST HOSPICE - AV",
    "npi": null,
    "hcaiId": "406198206",
    "businessName": "KAYA HOSPICE, INC.",
    "contactEmail": "FSTAAGUEDA@VBHOSPICE.COM",
    "categoryName": "HOSPICE",
    "categoryCode": "HOSPICE",
    "licenseStatus": "ACTIVE",
    "inService": true,
    "licenseNumber": "550002670",
    "licenseEffectiveDate": "05/05/2024",
    "licenseExpirationDate": "05/04/2026",
    "dataDate": "10/18/2025",
    "capacity": 0,
    "address": "43805 15TH STREET WEST",
    "city": "LANCASTER",
    "zip": "93534",
    "county": "LOS ANGELES",
    "phone": "(661) 942-2923",
    "lat": 34.67824539,
    "lng": -118.1568577
  },
  {
    "id": "630016778",
    "name": "VIVIAN HOME HEALTH, INC.",
    "npi": "1457700528",
    "hcaiId": "406190313",
    "businessName": "VIVIAN HOME HEALTH, INC.",
    "contactEmail": "VIVIANHOMEHEALTH@YAHOO.COM",
    "categoryName": "HOME HEALTH AGENCY",
    "categoryCode": "HHA",
    "licenseStatus": "ACTIVE",
    "inService": true,
    "licenseNumber": "550003958",
    "licenseEffectiveDate": "02/02/2023",
    "licenseExpirationDate": "07/12/2023",
    "dataDate": "10/18/2025",
    "capacity": 0,
    "address": "936 W AVENUE J4, UNIT 201A",
    "city": "LANCASTER",
    "zip": "93534",
    "county": "LOS ANGELES",
    "phone": "(909) 532-8788",
    "lat": 34.68558398,
    "lng": -118.146932
  },
  {
    "id": "630019777",
    "name": "WESLEY HEALTH CENTERS - HEALTH AND WELLNESS CENTER",
    "npi": null,
    "hcaiId": null,
    "businessName": "JWCH INSTITUTE, INC.",
    "contactEmail": null,
    "categoryName": "PRIMARY CARE CLINIC",
    "categoryCode": "COMTYC",
    "licenseStatus": "ACTIVE",
    "inService": true,
    "licenseNumber": "960001445",
    "licenseEffectiveDate": "06/16/2025",
    "licenseExpirationDate": "06/15/2026",
    "dataDate": "10/18/2025",
    "capacity": 0,
    "address": "45104 10TH ST W",
    "city": "LANCASTER",
    "zip": "93534",
    "county": "LOS ANGELES",
    "phone": "(661) 942-2391",
    "lat": 34.70247536,
    "lng": -118.1480636
  },
  {
    "id": "630027246",
    "name": "WESLEY HEALTH CENTERS - HEALTH AND WELLNESS CENTER 2",
    "npi": null,
    "hcaiId": null,
    "businessName": "JWCH INSTITUTE, INC.",
    "contactEmail": null,
    "categoryName": "PRIMARY CARE CLINIC",
    "categoryCode": "COMTYC",
    "licenseStatus": "ACTIVE",
    "inService": true,
    "licenseNumber": "960001445",
    "licenseEffectiveDate": "06/16/2025",
    "licenseExpirationDate": "06/15/2026",
    "dataDate": "10/18/2025",
    "capacity": 0,
    "address": "45124 10TH ST W",
    "city": "LANCASTER",
    "zip": "93534",
    "county": "LOS ANGELES",
    "phone": null,
    "lat": 34.70292799,
    "lng": -118.147229
  }
]