[
  {
    "id": "960002851",
    "name": "BARTZ-ALTADONNA COMMUNITY HEALTH CENTER",
    "npi": "1811279763",
    "hcaiId": "306197701",
    "businessName": "BARTZ-ALTADONNA COMMUNITY HEALTH CENTER",
    "contactEmail": "MCUMMINGS@BACHC.ORG",
    "categoryName": "PRIMARY CARE CLINIC",
    "categoryCode": "COMTYC",
    "licenseStatus": "ACTIVE",
    "inService": true,
    "licenseNumber": "960001428",
    "licenseEffectiveDate": "11/06/2025",
    "licenseExpirationDate": "11/05/2026",
    "dataDate": "10/18/2025",
    "capacity": 0,
    "address": "43322 GINGHAM AVE",
    "city": "LANCASTER",
    "zip": "93535",
    "county": "LOS ANGELES",
    "phone": "(661) 874-4050",
    "lat": 34.66992009,
    "lng": -118.1222447
  },
  {
    "id": "630023833",
    "name": "BARTZ-ALTADONNA COMMUNITY HEALTH CENTER-INTEGRATED CARE BUILDING",
    "npi": "1811279763",
    "hcaiId": null,
    "businessName": "BARTZ-ALTADONNA COMMUNITY HEALTH CENTER",
    "contactEmail": null,
    "categoryName": "PRIMARY CARE CLINIC",
    "categoryCode": "COMTYC",
    "licenseStatus": "ACTIVE",
    "inService": true,
    "licenseNumber": "960001428",
    "licenseEffectiveDate": "11/06/2025",
    "licenseExpirationDate": "11/05/2026",
    "dataDate": "10/18/2025",
    "capacity": 0,
    "address": "43210 GINGHAM AVE",
    "city": "LANCASTER",
    "zip": "93535",
    "county": "LOS ANGELES",
    "phone": null,
    "lat": 34.668108,
    "lng": -118.121733
  },
  {
    "id": "630013062",
    "name": "CAPRI IN THE DESERT",
    "npi": null,
    "hcaiId": "206197616",
    "businessName": "LJMP, LP",
    "contactEmail": "TATYANA@INTHEDESERTCLHF.COM",
    "categoryName": "CONGREGATE LIVING HEALTH FACILITY",
    "categoryCode": "CLHF",
    "licenseStatus": "ACTIVE",
    "inService": true,
    "licenseNumber": "550001735",
    "licenseEffectiveDate": "11/13/2024",
    "licenseExpirationDate": "11/12/2025",
    "dataDate": "10/18/2025",
    "capacity": 6,
    "address": "44726 CERISA ST",
    "city": "LANCASTER",
    "zip": "93535",
    "county": "LOS ANGELES",
    "phone": "(661) 206-5108",
    "lat": 34.696008,
    "lng": -118.084014
  },
  {
    "id": "630014468",
    "name": "EVERLASTING HEALTHCARE",
    "npi": null,
    "hcaiId": "206198167",
    "businessName": "EVERLASTING HEALTHCARE",
    "contactEmail": "MUNOZANDERSON23@YAHOO.COM",
    "categoryName": "CONGREGATE LIVING HEALTH FACILITY",
    "categoryCode": "CLHF",
    "licenseStatus": "ACTIVE",
    "inService": true,
    "licenseNumber": "550002981",
    "licenseEffectiveDate": "02/25/2025",
    "licenseExpirationDate": "02/24/2026",
    "dataDate": "10/18/2025",
    "capacity": 6,
    "address": "1603 ROYWOOD DR",
    "city": "LANCASTER",
    "zip": "93535",
    "county": "LOS ANGELES",
    "phone": "(661) 418-0712",
    "lat": 34.689231,
    "lng": -118.10133
  },
  {
    "id": "060002136",
    "name": "HIGH DESERT HEALTH SYSTEM AMBULATORY SURGICAL CTR",
    "npi": "1366453045",
    "hcaiId": "306197943",
    "businessName": "LOS ANGELES COUNTY DEPARTMENT OF HEALTH SERVICES",
    "contactEmail": "LDUNHAM@DHS.LACOUNTY.GOV",
    "categoryName": "SURGICAL CLINIC",
    "categoryCode": "ASC/SURGC",
    "licenseStatus": "ACTIVE",
    "inService": true,
    "licenseNumber": "060000872",
    "licenseEffectiveDate": "11/01/2025",
    "licenseExpirationDate": "10/31/2026",
    "dataDate": "10/18/2025",
    "capacity": 0,
    "address": "335 EAST AVENUE I",
    "city": "LANCASTER",
    "zip": "93535",
    "county": "LOS ANGELES",
    "phone": "(661) 471-4200",
    "lat": 34.70412354,
    "lng": -118.1247243
  }
]