[
  {
    "id": "630016976",
    "name": "ALDERBROOK",
    "npi": null,
    "hcaiId": "206190054",
    "businessName": "ALDERBROOK, INC.",
    "contactEmail": "KRISTIN@ALDERBROOKHEALTH.COM",
    "categoryName": "CONGREGATE LIVING HEALTH FACILITY",
    "categoryCode": "CLHF",
    "licenseStatus": "ACTIVE",
    "inService": true,
    "licenseNumber": "550004324",
    "licenseEffectiveDate": "07/24/2025",
    "licenseExpirationDate": "07/23/2026",
    "dataDate": "10/18/2025",
    "capacity": 6,
    "address": "2540 W AVENUE K",
    "city": "LANCASTER",
    "zip": "93536",
    "county": "LOS ANGELES",
    "phone": "(661) 609-9190",
    "lat": 34.674471,
    "lng": -118.1762415
  },
  {
    "id": "170001853",
    "name": "CALIFORNIA STATE PRISON - LOS ANGELES COUNTY",
    "npi": null,
    "hcaiId": null,
    "businessName": "CA DEPARTMENT OF CORRECTIONS AND REHABILITATION",
    "contactEmail": "YAVON.GIBBONS@CDCR.CA.GOV",
    "categoryName": "CORRECTIONAL TREATMENT CENTER",
    "categoryCode": "CTC",
    "licenseStatus": "ACTIVE",
    "inService": true,
    "licenseNumber": "170000829",
    "licenseEffectiveDate": "05/01/2025",
    "licenseExpirationDate": "04/30/2026",
    "dataDate": "10/18/2025",
    "capacity": 18,
    "address": "44750 60TH ST W",
    "city": "LANCASTER",
    "zip": "93536",
    "county": "LOS ANGELES",
    "phone": "(661) 729-2000",
    "lat": 34.69142296,
    "lng": -118.2365741
  },
  {
    "id": "630016431",
    "name": "CARE & SUPPORT HOME HEALTH, INC.",
    "npi": "1982074738",
    "hcaiId": "406190668",
    "businessName": "CARE & SUPPORT HOME HEALTH, INC.",
    "contactEmail": "CAREHHCI@GMAIL.COM",
    "categoryName": "HOME HEALTH AGENCY",
    "categoryCode": "HHA",
    "licenseStatus": "ACTIVE",
    "inService": true,
    "licenseNumber": "550004164",
    "licenseEffectiveDate": "03/01/2025",
    "licenseExpirationDate": "02/28/2026",
    "dataDate": "10/18/2025",
    "capacity": 0,
    "address": "43801 HALCOM AVE",
    "city": "LANCASTER",
    "zip": "93536",
    "county": "LOS ANGELES",
    "phone": "(661) 466-2400",
    "lat": 34.679142,
    "lng": -118.178874
  },
  {
    "id": "930001775",
    "name": "FMC DIALYSIS SERVICES OF ANTELOPE VALLEY",
    "npi": "1407968209",
    "hcaiId": "306196339",
    "businessName": "BIO-MEDICAL APPLICATIONS OF CALIFORNIA, INC.",
    "contactEmail": "CLINIC3104@FMC-NA.COM",
    "categoryName": "CHRONIC DIALYSIS CLINIC",
    "categoryCode": "ESRD/CDC",
    "licenseStatus": "ACTIVE",
    "inService": true,
    "licenseNumber": "930000983",
    "licenseEffectiveDate": "12/01/2024",
    "licenseExpirationDate": "11/30/2025",
    "dataDate": "10/18/2025",
    "capacity": 23,
    "address": "44950 VALLEY CENTER WAY, SUITE 108-109",
    "city": "LANCASTER",
    "zip": "93536",
    "county": "LOS ANGELES",
    "phone": "(661) 802-0600",
    "lat": 34.6991523,
    "lng": -118.1761442
  },
  {
    "id": "630017057",
    "name": "OAK  FENCE CONGREGATE LIVING HEALTH FACILITY #2",
    "npi": null,
    "hcaiId": "206190151",
    "businessName": "OAK FENCE SENIOR LIVING LLC",
    "contactEmail": "THANTAYE@AOL.COM",
    "categoryName": "CONGREGATE LIVING HEALTH FACILITY",
    "categoryCode": "CLHF",
    "licenseStatus": "ACTIVE",
    "inService": true,
    "licenseNumber": "550004777",
    "licenseEffectiveDate": "06/27/2025",
    "licenseExpirationDate": "06/26/2026",
    "dataDate": "10/18/2025",
    "capacity": 6,
    "address": "6036 WEST OAK FENCE LANE",
    "city": "LANCASTER",
    "zip": "93536",
    "county": "LOS ANGELES",
    "phone": "(909) 967-1872",
    "lat": 34.667757,
    "lng": -118.237599
  },
  {
    "id": "630013784",
    "name": "OAK FENCE CONGREGATE LIVING HEALTH FACILITY",
    "npi": null,
    "hcaiId": "206198169",
    "businessName": "OAK FENCE SENIOR LIVING LLC",
    "contactEmail": "NURSINGADMIN@OAKFENCE.ORG",
    "categoryName": "CONGREGATE LIVING HEALTH FACILITY",
    "categoryCode": "CLHF",
    "licenseStatus": "ACTIVE",
    "inService": true,
    "licenseNumber": "550002982",
    "licenseEffectiveDate": "04/23/2025",
    "licenseExpirationDate": "02/24/2026",
    "dataDate": "10/18/2025",
    "capacity": 6,
    "address": "6067 OAK FENCE LN",
    "city": "LANCASTER",
    "zip": "93536",
    "county": "LOS ANGELES",
    "phone": "(909) 270-2140",
    "lat": 34.668216,
    "lng": -118.238634
  },
  {
    "id": "630015806",
    "name": "ROSE DESERT CONGREGATE CARE INC.",
    "npi": null,
    "hcaiId": "206198358",
    "businessName": "ROSE DESERT CONGREGATE CARE INC.",
    "contactEmail": "TAMMY@ROSEDESERTCARE.COM",
    "categoryName": "CONGREGATE LIVING HEALTH FACILITY",
    "categoryCode": "CLHF",
    "licenseStatus": "ACTIVE",
    "inService": true,
    "licenseNumber": "550003740",
    "licenseEffectiveDate": "11/21/2024",
    "licenseExpirationDate": "11/20/2025",
    "dataDate": "10/18/2025",
    "capacity": 6,
    "address": "3032 W. MILLING STREET",
    "city": "LANCASTER",
    "zip": "93536",
    "county": "LOS ANGELES",
    "phone": "(661) 522-3774",
    "lat": 34.694424,
    "lng": -118.1850075
  },
  {
    "id": "630015814",
    "name": "ROYAL CONGREGATE LIVING FACILITY",
    "npi": null,
    "hcaiId": "206190997",
    "businessName": "SPIRITUS HOME HEALTH CARE INC",
    "contactEmail": "ADMIN@SPIRITUSHEALTHCARE.ORG",
    "categoryName": "CONGREGATE LIVING HEALTH FACILITY",
    "categoryCode": "CLHF",
    "licenseStatus": "ACTIVE",
    "inService": true,
    "licenseNumber": "550003631",
    "licenseEffectiveDate": "08/25/2025",
    "licenseExpirationDate": "08/24/2026",
    "dataDate": "10/18/2025",
    "capacity": 6,
    "address": "3100 MILDWOOD CT",
    "city": "LANCASTER",
    "zip": "93536",
    "county": "LOS ANGELES",
    "phone": "(661) 579-6898",
    "lat": 34.664472,
    "lng": -118.1862135
  },
  {
    "id": "630014961",
    "name": "SAN MARINO IN THE DESERT",
    "npi": null,
    "hcaiId": "206198279",
    "businessName": "SAN MARINO IN THE DESERT",
    "contactEmail": "TATYANA@INTHEDESERTCLHF.COM",
    "categoryName": "CONGREGATE LIVING HEALTH FACILITY",
    "categoryCode": "CLHF",
    "licenseStatus": "ACTIVE",
    "inService": true,
    "licenseNumber": "550003405",
    "licenseEffectiveDate": "02/05/2025",
    "licenseExpirationDate": "02/04/2026",
    "dataDate": "10/18/2025",
    "capacity": 6,
    "address": "2017 W AVENUE K13",
    "city": "LANCASTER",
    "zip": "93536",
    "county": "LOS ANGELES",
    "phone": "(818) 371-3474",
    "lat": 34.663905,
    "lng": -118.166139
  },
  {
    "id": "630013966",
    "name": "STONEBRIDGE MANOR",
    "npi": null,
    "hcaiId": "206197965",
    "businessName": "SUNBEAM, LLC",
    "contactEmail": "SUNBEAMLLC.23@OUTLOOK.COM",
    "categoryName": "CONGREGATE LIVING HEALTH FACILITY",
    "categoryCode": "CLHF",
    "licenseStatus": "ACTIVE",
    "inService": true,
    "licenseNumber": "550002488",
    "licenseEffectiveDate": "11/08/2024",
    "licenseExpirationDate": "11/07/2025",
    "dataDate": "10/18/2025",
    "capacity": 6,
    "address": "44723 STONEBRIDGE LN",
    "city": "LANCASTER",
    "zip": "93536",
    "county": "LOS ANGELES",
    "phone": "(661) 524-0771",
    "lat": 34.695333,
    "lng": -118.176588
  }
]