[
  {
    "id": "240000005",
    "name": "MAMMOTH HOSPITAL",
    "npi": "1962444059",
    "hcaiId": "106260011",
    "businessName": "SOUTHERN MONO HEALTH CARE DISTRICT",
    "contactEmail": "LENNA.MONTE@MAMMOTHHOSPITAL.COM",
    "categoryName": "GENERAL ACUTE CARE HOSPITAL",
    "categoryCode": "GACH",
    "licenseStatus": "ACTIVE",
    "inService": true,
    "licenseNumber": "240000008",
    "licenseEffectiveDate": "11/15/2025",
    "licenseExpirationDate": "11/14/2026",
    "dataDate": "10/18/2025",
    "capacity": 17,
    "address": "85 SIERRA PARK RD",
    "city": "MAMMOTH LAKES",
    "zip": "93546",
    "county": "MONO",
    "phone": "(760) 924-4110",
    "lat": 37.64575873,
    "lng": -118.9639063
  },
  {
    "id": "240001733",
    "name": "MAMMOTH HOSPITAL",
    "npi": "1053456400",
    "hcaiId": null,
    "businessName": "SOUTHERN MONO HEALTH CARE DISTRICT",
    "contactEmail": null,
    "categoryName": "PRIMARY CARE CLINIC",
    "categoryCode": "RHC",
    "licenseStatus": "ACTIVE",
    "inService": true,
    "licenseNumber": "240000008",
    "licenseEffectiveDate": "11/15/2025",
    "licenseExpirationDate": "11/14/2026",
    "dataDate": "10/18/2025",
    "capacity": 0,
    "address": "85 SIERRA PARK RD",
    "city": "MAMMOTH LAKES",
    "zip": "93546",
    "county": "MONO",
    "phone": "(760) 934-3311",
    "lat": 37.64575873,
    "lng": -118.9639063
  },
  {
    "id": "240001612",
    "name": "SIERRA PARK FAMILY MEDICINE AND URGENT CARE CENTER",
    "npi": null,
    "hcaiId": null,
    "businessName": null,
    "contactEmail": null,
    "categoryName": "PRIMARY CARE CLINIC",
    "categoryCode": "RHC",
    "licenseStatus": null,
    "inService": null,
    "licenseNumber": null,
    "licenseEffectiveDate": null,
    "licenseExpirationDate": null,
    "dataDate": "10/18/2025",
    "capacity": 0,
    "address": "85 SIERRA PARK RD",
    "city": "MAMMOTH LAKES",
    "zip": "93546",
    "county": "MONO",
    "phone": "(760) 934-3311",
    "lat": 37.64575873,
    "lng": -118.9639063
  }
]