[
  {
    "id": "980001962",
    "name": "ALDEN HOME HEALTH, INC.",
    "npi": "1821089830",
    "hcaiId": "406196594",
    "businessName": "ALDEN HOME HEALTH, INC.",
    "contactEmail": "ALDEN.SERVICES9@GMAIL.COM",
    "categoryName": "HOME HEALTH AGENCY",
    "categoryCode": "HHA",
    "licenseStatus": "ACTIVE",
    "inService": true,
    "licenseNumber": "980001151",
    "licenseEffectiveDate": "02/06/2025",
    "licenseExpirationDate": "02/05/2026",
    "dataDate": "10/18/2025",
    "capacity": 0,
    "address": "1061 W AVENUE M14, SUITE A",
    "city": "PALMDALE",
    "zip": "93551",
    "county": "LOS ANGELES",
    "phone": "(661) 266-8560",
    "lat": 34.633503,
    "lng": -118.1497905
  },
  {
    "id": "630013613",
    "name": "ALDEN HOSPICE",
    "npi": null,
    "hcaiId": "406197806",
    "businessName": "ANTELOPE HOSPICE CORPORATION",
    "contactEmail": "ALDEN.SERVICES9@GMAIL.COM",
    "categoryName": "HOSPICE",
    "categoryCode": "HOSPICE",
    "licenseStatus": "ACTIVE",
    "inService": true,
    "licenseNumber": "550002204",
    "licenseEffectiveDate": "12/26/2024",
    "licenseExpirationDate": "12/25/2026",
    "dataDate": "10/18/2025",
    "capacity": 0,
    "address": "1061 W AVENUE M14, SUITE D",
    "city": "PALMDALE",
    "zip": "93551",
    "county": "LOS ANGELES",
    "phone": "(661) 272-0001",
    "lat": 34.633503,
    "lng": -118.1497905
  },
  {
    "id": "630015683",
    "name": "ANGEL CONGREGATE LIVING, INC.",
    "npi": null,
    "hcaiId": "206190998",
    "businessName": "ANGEL CONGREGATE LIVING, INC.",
    "contactEmail": "HRANT@ANGELCONGREGATE.COM",
    "categoryName": "CONGREGATE LIVING HEALTH FACILITY",
    "categoryCode": "CLHF",
    "licenseStatus": "ACTIVE",
    "inService": true,
    "licenseNumber": "550003642",
    "licenseEffectiveDate": "08/09/2024",
    "licenseExpirationDate": "08/08/2025",
    "dataDate": "10/18/2025",
    "capacity": 6,
    "address": "38536 DESERT VIEW DR.",
    "city": "PALMDALE",
    "zip": "93551",
    "county": "LOS ANGELES",
    "phone": "(661) 418-5830",
    "lat": 34.582743,
    "lng": -118.1493045
  },
  {
    "id": "630020128",
    "name": "ANTELOPE VALLEY HOME HEALTH AGENCY",
    "npi": null,
    "hcaiId": "406193420",
    "businessName": "ANTELOPE VALLEY HOME HEALTH AGENCY",
    "contactEmail": "JACKPONO@ICLOUD.COM",
    "categoryName": "HOME HEALTH AGENCY",
    "categoryCode": "HHA",
    "licenseStatus": "ACTIVE",
    "inService": true,
    "licenseNumber": "550006911",
    "licenseEffectiveDate": "10/05/2025",
    "licenseExpirationDate": "10/04/2026",
    "dataDate": "10/18/2025",
    "capacity": 0,
    "address": "445 W PALMDALE BLVD, SUITE L",
    "city": "PALMDALE",
    "zip": "93551",
    "county": "LOS ANGELES",
    "phone": "(310) 562-0334",
    "lat": 34.5834,
    "lng": -118.137312
  },
  {
    "id": "630013583",
    "name": "ANTELOPE VALLEY SURGERY CENTER, PC",
    "npi": "1831496231",
    "hcaiId": null,
    "businessName": null,
    "contactEmail": "DANTAHERI@GMAIL.COM",
    "categoryName": "SURGICAL CLINIC",
    "categoryCode": "ASC",
    "licenseStatus": null,
    "inService": null,
    "licenseNumber": null,
    "licenseEffectiveDate": null,
    "licenseExpirationDate": null,
    "dataDate": "10/18/2025",
    "capacity": 0,
    "address": "631 W AVENUE Q, SUITE C",
    "city": "PALMDALE",
    "zip": "93551",
    "county": "LOS ANGELES",
    "phone": "(661) 947-4600",
    "lat": 34.587981,
    "lng": -118.141722
  },
  {
    "id": "980001787",
    "name": "ASAP HOME HEALTH SERVICE",
    "npi": "1003969114",
    "hcaiId": "406197092",
    "businessName": "ASAP HOME HEALTH, INC.",
    "contactEmail": "ROY.W@ASAPHOMEHEALTH.COM",
    "categoryName": "HOME HEALTH AGENCY",
    "categoryCode": "HHA",
    "licenseStatus": "ACTIVE",
    "inService": true,
    "licenseNumber": "980001089",
    "licenseEffectiveDate": "12/19/2024",
    "licenseExpirationDate": "12/18/2025",
    "dataDate": "10/18/2025",
    "capacity": 0,
    "address": "602 COMMERCE AVE, SUITE C",
    "city": "PALMDALE",
    "zip": "93551",
    "county": "LOS ANGELES",
    "phone": "(661) 274-0800",
    "lat": 34.589277,
    "lng": -118.1410515
  },
  {
    "id": "630021708",
    "name": "ELITE ROBOTIC SURGERY",
    "npi": null,
    "hcaiId": null,
    "businessName": null,
    "contactEmail": "DAVID@ELITEROBOTICSURGERY.COM",
    "categoryName": "SURGICAL CLINIC",
    "categoryCode": "ASC",
    "licenseStatus": null,
    "inService": null,
    "licenseNumber": null,
    "licenseEffectiveDate": null,
    "licenseExpirationDate": null,
    "dataDate": "10/18/2025",
    "capacity": 0,
    "address": "38920 TRADE CENTER DR",
    "city": "PALMDALE",
    "zip": "93551",
    "county": "LOS ANGELES",
    "phone": "(661) 488-7048",
    "lat": 34.58963586,
    "lng": -118.1431774
  },
  {
    "id": "630017692",
    "name": "FRESENIUS KIDNEY CARE PALMDALE",
    "npi": "1285144840",
    "hcaiId": "306190465",
    "businessName": "BIO-MEDICAL APPLICATIONS OF CALIFORNIA, INC.",
    "contactEmail": null,
    "categoryName": "CHRONIC DIALYSIS CLINIC",
    "categoryCode": "ESRD/CDC",
    "licenseStatus": "ACTIVE",
    "inService": true,
    "licenseNumber": "550004886",
    "licenseEffectiveDate": "07/30/2025",
    "licenseExpirationDate": "07/29/2026",
    "dataDate": "10/18/2025",
    "capacity": 25,
    "address": "38910 TRADE CENTER DR",
    "city": "PALMDALE",
    "zip": "93551",
    "county": "LOS ANGELES",
    "phone": "(661) 265-8001",
    "lat": 34.58959599,
    "lng": -118.1431733
  },
  {
    "id": "630027778",
    "name": "GIOVANNI POST ACUTE CENTER",
    "npi": null,
    "hcaiId": null,
    "businessName": "SOCAL RESPITE LLC",
    "contactEmail": "SOCALRESPITE@GMAIL.COM",
    "categoryName": "CONGREGATE LIVING HEALTH FACILITY",
    "categoryCode": "CLHF",
    "licenseStatus": "ACTIVE",
    "inService": true,
    "licenseNumber": "550009844",
    "licenseEffectiveDate": "11/21/2025",
    "licenseExpirationDate": "05/20/2026",
    "dataDate": "10/18/2025",
    "capacity": 6,
    "address": "6327 GIOVANNI WAY",
    "city": "PALMDALE",
    "zip": "93551",
    "county": "LOS ANGELES",
    "phone": "(909) 896-4539",
    "lat": 34.6502524,
    "lng": -118.2613637
  },
  {
    "id": "630012909",
    "name": "GRACEFUL PALMS HOSPICE AND PALLIATIVE CARE CORP.",
    "npi": "1639484678",
    "hcaiId": "406197511",
    "businessName": "GRACEFUL PALMS HOSPICE AND PALLIATIVE CARE CORP.",
    "contactEmail": "REGULATORY@GRACEFULPALMS.COM",
    "categoryName": "HOSPICE",
    "categoryCode": "HOSPICE",
    "licenseStatus": "ACTIVE",
    "inService": true,
    "licenseNumber": "550001586",
    "licenseEffectiveDate": "05/05/2025",
    "licenseExpirationDate": "05/04/2027",
    "dataDate": "10/18/2025",
    "capacity": 0,
    "address": "38700 5TH ST W, SUITE G",
    "city": "PALMDALE",
    "zip": "93551",
    "county": "LOS ANGELES",
    "phone": "(661) 538-1435",
    "lat": 34.58489884,
    "lng": -118.138525
  },
  {
    "id": "630015114",
    "name": "HEAVENLY HOSPICE CARE, INC.",
    "npi": "1699193052",
    "hcaiId": "406198315",
    "businessName": "HEAVENLY HOSPICE CARE, INC.",
    "contactEmail": "HEAVENLYHOSPICE0312@GMAIL.COM",
    "categoryName": "HOSPICE",
    "categoryCode": "HOSPICE",
    "licenseStatus": "ACTIVE",
    "inService": true,
    "licenseNumber": "550003662",
    "licenseEffectiveDate": "07/06/2024",
    "licenseExpirationDate": "07/05/2026",
    "dataDate": "10/18/2025",
    "capacity": 0,
    "address": "514 COMMERCE AVE, SUITE G",
    "city": "PALMDALE",
    "zip": "93551",
    "county": "LOS ANGELES",
    "phone": "(818) 666-4015",
    "lat": 34.589277,
    "lng": -118.1410515
  },
  {
    "id": "930000884",
    "name": "HIGH DESERT HEMODIALYSIS",
    "npi": "1811917362",
    "hcaiId": "306194171",
    "businessName": "JOHN H. FISHER",
    "contactEmail": "KATHYHDH@YAHOO.COM",
    "categoryName": "CHRONIC DIALYSIS CLINIC",
    "categoryCode": "ESRD/CDC",
    "licenseStatus": "ACTIVE",
    "inService": true,
    "licenseNumber": "930000449",
    "licenseEffectiveDate": "11/20/2024",
    "licenseExpirationDate": "11/19/2025",
    "dataDate": "10/18/2025",
    "capacity": 10,
    "address": "1007 W AVENUE M14, SUITE B",
    "city": "PALMDALE",
    "zip": "93551",
    "county": "LOS ANGELES",
    "phone": "(661) 265-7810",
    "lat": 34.633503,
    "lng": -118.148148
  },
  {
    "id": "630013603",
    "name": "NAPOLI IN THE DESERT",
    "npi": null,
    "hcaiId": "206197918",
    "businessName": "PIECES GROUP, LP",
    "contactEmail": "TATYANA@INTHEDESERTCLHF.COM",
    "categoryName": "CONGREGATE LIVING HEALTH FACILITY",
    "categoryCode": "CLHF",
    "licenseStatus": "ACTIVE",
    "inService": true,
    "licenseNumber": "550002272",
    "licenseEffectiveDate": "05/03/2025",
    "licenseExpirationDate": "05/02/2026",
    "dataDate": "10/18/2025",
    "capacity": 6,
    "address": "3731 TOURNAMENT DR",
    "city": "PALMDALE",
    "zip": "93551",
    "county": "LOS ANGELES",
    "phone": "(661) 526-5188",
    "lat": 34.623495,
    "lng": -118.19673
  },
  {
    "id": "630011092",
    "name": "OASIS SURGERY CENTER",
    "npi": "1255429700",
    "hcaiId": null,
    "businessName": null,
    "contactEmail": null,
    "categoryName": "SURGICAL CLINIC",
    "categoryCode": "ASC",
    "licenseStatus": null,
    "inService": null,
    "licenseNumber": null,
    "licenseEffectiveDate": null,
    "licenseExpirationDate": null,
    "dataDate": "10/18/2025",
    "capacity": 0,
    "address": "819 AUTO CENTER DR",
    "city": "PALMDALE",
    "zip": "93551",
    "county": "LOS ANGELES",
    "phone": "(661) 206-6262",
    "lat": 34.591977,
    "lng": -118.1464515
  },
  {
    "id": "930000077",
    "name": "PALMDALE REGIONAL MEDICAL CENTER",
    "npi": "1508856535",
    "hcaiId": "106196405",
    "businessName": "LANCASTER HOSPITAL CORPORATION",
    "contactEmail": "DEBORAH.COCKERHAM@UHSINC.COM",
    "categoryName": "GENERAL ACUTE CARE HOSPITAL",
    "categoryCode": "GACH",
    "licenseStatus": "ACTIVE",
    "inService": true,
    "licenseNumber": "930000085",
    "licenseEffectiveDate": "05/28/2025",
    "licenseExpirationDate": "01/31/2026",
    "dataDate": "10/18/2025",
    "capacity": 184,
    "address": "38600 MEDICAL CENTER DR",
    "city": "PALMDALE",
    "zip": "93551",
    "county": "LOS ANGELES",
    "phone": "(661) 382-5000",
    "lat": 34.58392859,
    "lng": -118.1445469
  },
  {
    "id": "630016915",
    "name": "PALMS VALLEY DIALYSIS",
    "npi": null,
    "hcaiId": "306190350",
    "businessName": "TWAIN DIALYSIS LLC",
    "contactEmail": "CAL_C@DAVITA.COM",
    "categoryName": "CHRONIC DIALYSIS CLINIC",
    "categoryCode": "ESRD/CDC",
    "licenseStatus": "ACTIVE",
    "inService": true,
    "licenseNumber": "550004227",
    "licenseEffectiveDate": "04/10/2025",
    "licenseExpirationDate": "04/09/2026",
    "dataDate": "10/18/2025",
    "capacity": 33,
    "address": "38454 5TH ST W",
    "city": "PALMDALE",
    "zip": "93551",
    "county": "LOS ANGELES",
    "phone": "(661) 225-9416",
    "lat": 34.5814258,
    "lng": -118.1384525
  },
  {
    "id": "630018082",
    "name": "SANDHU SURGERY CENTER, LLC.",
    "npi": "1699274464",
    "hcaiId": null,
    "businessName": null,
    "contactEmail": null,
    "categoryName": "SURGICAL CLINIC",
    "categoryCode": "ASC",
    "licenseStatus": null,
    "inService": null,
    "licenseNumber": null,
    "licenseEffectiveDate": null,
    "licenseExpirationDate": null,
    "dataDate": "10/18/2025",
    "capacity": 0,
    "address": "41324 12TH ST W, SUITE C",
    "city": "PALMDALE",
    "zip": "93551",
    "county": "LOS ANGELES",
    "phone": "(661) 945-0818",
    "lat": 34.6333965,
    "lng": -118.1517182
  },
  {
    "id": "630013798",
    "name": "TRADE CENTER OUTPATIENT SURGERY INC",
    "npi": "1023341757",
    "hcaiId": null,
    "businessName": null,
    "contactEmail": null,
    "categoryName": "SURGICAL CLINIC",
    "categoryCode": "ASC",
    "licenseStatus": null,
    "inService": null,
    "licenseNumber": null,
    "licenseEffectiveDate": null,
    "licenseExpirationDate": null,
    "dataDate": "10/18/2025",
    "capacity": 0,
    "address": "38925 TRADE CENTER DR, SUITE B",
    "city": "PALMDALE",
    "zip": "93551",
    "county": "LOS ANGELES",
    "phone": null,
    "lat": 34.590222,
    "lng": -118.1442015
  }
]