[
  {
    "id": "120000323",
    "name": "BELLA SERA",
    "npi": "1447253125",
    "hcaiId": "206154001",
    "businessName": "RIDGECREST REGIONAL HOSPITAL",
    "contactEmail": "ROMULO.LOMIBAO@RRH.ORG",
    "categoryName": "SKILLED NURSING FACILITY",
    "categoryCode": "SNF",
    "licenseStatus": "ACTIVE",
    "inService": true,
    "licenseNumber": "120000186",
    "licenseEffectiveDate": "11/01/2025",
    "licenseExpirationDate": "10/31/2026",
    "dataDate": "10/18/2025",
    "capacity": 99,
    "address": "1131 N CHINA LAKE BLVD",
    "city": "RIDGECREST",
    "zip": "93555",
    "county": "KERN",
    "phone": "(760) 446-3591",
    "lat": 35.64200358,
    "lng": -117.6698779
  },
  {
    "id": "630021119",
    "name": "CHINA LAKE COMMUNITY HEALTH CLINIC",
    "npi": null,
    "hcaiId": null,
    "businessName": "RIDGECREST REGIONAL HOSPITAL",
    "contactEmail": "JAMES.SUVER@RRH.ORG",
    "categoryName": "PRIMARY CARE CLINIC",
    "categoryCode": "RHC/OP",
    "licenseStatus": "ACTIVE",
    "inService": true,
    "licenseNumber": "120000186",
    "licenseEffectiveDate": "11/01/2025",
    "licenseExpirationDate": "10/31/2026",
    "dataDate": "10/18/2025",
    "capacity": 0,
    "address": "1041 N CHINA LAKE BLVD",
    "city": "RIDGECREST",
    "zip": "93555",
    "county": "KERN",
    "phone": "(760) 446-3551",
    "lat": 35.63953943,
    "lng": -117.6698779
  },
  {
    "id": "120001203",
    "name": "CHINA LAKE SURGERY CENTER, LLC",
    "npi": "1821223827",
    "hcaiId": "306154091",
    "businessName": null,
    "contactEmail": "CHINALAKESC@AOL.COM",
    "categoryName": "SURGICAL CLINIC",
    "categoryCode": "ASC",
    "licenseStatus": "INACTIVE - CAPEN DECISION",
    "inService": false,
    "licenseNumber": "120000489",
    "licenseEffectiveDate": "01/28/2008",
    "licenseExpirationDate": "01/27/2009",
    "dataDate": "10/18/2025",
    "capacity": 0,
    "address": "1111 N CHINA LAKE BLVD # 2A",
    "city": "RIDGECREST",
    "zip": "93555",
    "county": "KERN",
    "phone": "(760) 446-8100",
    "lat": 35.6418,
    "lng": -117.6711795
  },
  {
    "id": "120001244",
    "name": "FIRST VALLEY MEDICAL GROUP",
    "npi": "1427227735",
    "hcaiId": null,
    "businessName": null,
    "contactEmail": null,
    "categoryName": "PRIMARY CARE CLINIC",
    "categoryCode": "RHC/MD",
    "licenseStatus": null,
    "inService": null,
    "licenseNumber": null,
    "licenseEffectiveDate": null,
    "licenseExpirationDate": null,
    "dataDate": "10/18/2025",
    "capacity": 0,
    "address": "1535 N CHINA LAKE BLVD, SUITE A",
    "city": "RIDGECREST",
    "zip": "93555",
    "county": "KERN",
    "phone": "(760) 446-1691",
    "lat": 35.648991,
    "lng": -117.6702705
  },
  {
    "id": "120001412",
    "name": "HERITAGE PHYSICAL THERAPY",
    "npi": "1477667525",
    "hcaiId": null,
    "businessName": null,
    "contactEmail": "REHABPT@RIDGENET.NET",
    "categoryName": "REHABILITATION CLINIC",
    "categoryCode": "OPT/SP",
    "licenseStatus": null,
    "inService": null,
    "licenseNumber": null,
    "licenseEffectiveDate": null,
    "licenseExpirationDate": null,
    "dataDate": "10/18/2025",
    "capacity": 0,
    "address": "540 PERDEW AVE, SUITE C",
    "city": "RIDGECREST",
    "zip": "93555",
    "county": "KERN",
    "phone": "(760) 446-3611",
    "lat": 35.64918,
    "lng": -117.6806385
  },
  {
    "id": "120000546",
    "name": "KERN COUNTY HEALTH DEPARTMENT - RIDGECREST CLINIC",
    "npi": null,
    "hcaiId": null,
    "businessName": null,
    "contactEmail": null,
    "categoryName": "OTHER",
    "categoryCode": "UNLICEN",
    "licenseStatus": null,
    "inService": null,
    "licenseNumber": null,
    "licenseEffectiveDate": null,
    "licenseExpirationDate": null,
    "dataDate": "10/18/2025",
    "capacity": 0,
    "address": "250 RIDGECREST BLVD.",
    "city": "RIDGECREST",
    "zip": "93555",
    "county": "KERN",
    "phone": "(760) 375-5157",
    "lat": 35.62255633,
    "lng": -117.6734234
  },
  {
    "id": "630011886",
    "name": "OMNI FAMILY HEALTH",
    "npi": "1821237355",
    "hcaiId": "306154156",
    "businessName": "OMNI FAMILY HEALTH",
    "contactEmail": "LICENSING@OMNIFAMILYHEALTH.ORG",
    "categoryName": "PRIMARY CARE CLINIC",
    "categoryCode": "COMTYC",
    "licenseStatus": "ACTIVE",
    "inService": true,
    "licenseNumber": "550000882",
    "licenseEffectiveDate": "02/05/2025",
    "licenseExpirationDate": "02/04/2026",
    "dataDate": "10/18/2025",
    "capacity": 0,
    "address": "1133 CHELSEA ST",
    "city": "RIDGECREST",
    "zip": "93555",
    "county": "KERN",
    "phone": "(661) 459-1900",
    "lat": 35.642376,
    "lng": -117.66789
  },
  {
    "id": "630016894",
    "name": "RIDGECREST OBSTETRICS CLINIC",
    "npi": "1730544313",
    "hcaiId": null,
    "businessName": "RIDGECREST REGIONAL HOSPITAL",
    "contactEmail": null,
    "categoryName": "PRIMARY CARE CLINIC",
    "categoryCode": "RHC/OP",
    "licenseStatus": "ACTIVE",
    "inService": true,
    "licenseNumber": "120000186",
    "licenseEffectiveDate": "11/01/2025",
    "licenseExpirationDate": "10/31/2026",
    "dataDate": "10/18/2025",
    "capacity": 0,
    "address": "1011 N. CHINA LAKE BLVD., SUITE A&B",
    "city": "RIDGECREST",
    "zip": "93555",
    "county": "KERN",
    "phone": null,
    "lat": 35.639937,
    "lng": -117.671409
  },
  {
    "id": "120000696",
    "name": "RIDGECREST PREGNANCY CARE CENTER",
    "npi": null,
    "hcaiId": "306150444",
    "businessName": "RIGHT TO LIFE LEAGUE OF SOUTHERN CALIFORNIA",
    "contactEmail": "DIRECTOR.RCPCC@GMAIL.COM",
    "categoryName": "PRIMARY CARE CLINIC",
    "categoryCode": "COMTYC",
    "licenseStatus": "ACTIVE",
    "inService": true,
    "licenseNumber": "120000305",
    "licenseEffectiveDate": "11/16/2025",
    "licenseExpirationDate": "11/15/2026",
    "dataDate": "10/18/2025",
    "capacity": 0,
    "address": "341 E RIDGECREST BLVD, SUITE A",
    "city": "RIDGECREST",
    "zip": "93555",
    "county": "KERN",
    "phone": "(760) 384-2273",
    "lat": 35.622171,
    "lng": -117.663471
  },
  {
    "id": "120000409",
    "name": "RIDGECREST REGIONAL HOSPITAL",
    "npi": "1447253125",
    "hcaiId": "106150782",
    "businessName": "RIDGECREST REGIONAL HOSPITAL",
    "contactEmail": "JAMES.SUVER@RRH.ORG",
    "categoryName": "GENERAL ACUTE CARE HOSPITAL",
    "categoryCode": "GACH",
    "licenseStatus": "ACTIVE",
    "inService": true,
    "licenseNumber": "120000186",
    "licenseEffectiveDate": "11/01/2025",
    "licenseExpirationDate": "10/31/2026",
    "dataDate": "10/18/2025",
    "capacity": 72,
    "address": "1081 N CHINA LAKE BLVD",
    "city": "RIDGECREST",
    "zip": "93555",
    "county": "KERN",
    "phone": "(760) 446-3551",
    "lat": 35.640846,
    "lng": -117.6711795
  },
  {
    "id": "630019561",
    "name": "RIDGECREST REGIONAL HOSPITAL AMBULATORY SURGERY CENTER",
    "npi": null,
    "hcaiId": "306150798",
    "businessName": "RIDGECREST REGIONAL HOSPITAL",
    "contactEmail": "JAMES.SUVER@RRH.ORG",
    "categoryName": "SURGICAL CLINIC",
    "categoryCode": "ASC/SURGC",
    "licenseStatus": "ACTIVE",
    "inService": true,
    "licenseNumber": "550008170",
    "licenseEffectiveDate": "09/20/2025",
    "licenseExpirationDate": "09/19/2026",
    "dataDate": "10/18/2025",
    "capacity": 0,
    "address": "1111 N CHINA LAKE BLVD, SUITE 220",
    "city": "RIDGECREST",
    "zip": "93555",
    "county": "KERN",
    "phone": "(760) 499-3900",
    "lat": 35.6418,
    "lng": -117.6711795
  },
  {
    "id": "630012831",
    "name": "RIDGECREST REGIONAL HOSPITAL RURAL HEALTH CLINIC",
    "npi": "1972813087",
    "hcaiId": null,
    "businessName": "RIDGECREST REGIONAL HOSPITAL",
    "contactEmail": "J.SUVER@RRH.ORG",
    "categoryName": "PRIMARY CARE CLINIC",
    "categoryCode": "RHC/OP",
    "licenseStatus": "ACTIVE",
    "inService": true,
    "licenseNumber": "120000186",
    "licenseEffectiveDate": "11/01/2025",
    "licenseExpirationDate": "10/31/2026",
    "dataDate": "10/18/2025",
    "capacity": 0,
    "address": "1111 N CHINA LAKE BLVD, SUITE 190",
    "city": "RIDGECREST",
    "zip": "93555",
    "county": "KERN",
    "phone": "(760) 499-3855",
    "lat": 35.6418,
    "lng": -117.6711795
  },
  {
    "id": "630013665",
    "name": "RIDGECREST REGIONAL TRANSITIONAL CARE AND REHABILITATION UNIT",
    "npi": "1669734653",
    "hcaiId": null,
    "businessName": "RIDGECREST REGIONAL HOSPITAL",
    "contactEmail": "JAMES.SUVER@RRH.ORG",
    "categoryName": "SKILLED NURSING FACILITY",
    "categoryCode": "SNF",
    "licenseStatus": "ACTIVE",
    "inService": true,
    "licenseNumber": "120000186",
    "licenseEffectiveDate": "11/01/2025",
    "licenseExpirationDate": "10/31/2026",
    "dataDate": "10/18/2025",
    "capacity": 26,
    "address": "1081 N CHINA LAKE BLVD",
    "city": "RIDGECREST",
    "zip": "93555",
    "county": "KERN",
    "phone": "(760) 446-3551",
    "lat": 35.640846,
    "lng": -117.6711795
  },
  {
    "id": "630014330",
    "name": "RIDGECREST SPECIALTY SURGERY CENTER",
    "npi": "1851678981",
    "hcaiId": null,
    "businessName": null,
    "contactEmail": null,
    "categoryName": "SURGICAL CLINIC",
    "categoryCode": "ASC",
    "licenseStatus": null,
    "inService": null,
    "licenseNumber": null,
    "licenseEffectiveDate": null,
    "licenseExpirationDate": null,
    "dataDate": "10/18/2025",
    "capacity": 0,
    "address": "1200 N CHINA LAKE BLVD",
    "city": "RIDGECREST",
    "zip": "93555",
    "county": "KERN",
    "phone": "(760) 446-9007",
    "lat": 35.64187704,
    "lng": -117.6697631
  },
  {
    "id": "630016272",
    "name": "RRH MOBILE HEALTH CLINIC",
    "npi": "1407231210",
    "hcaiId": null,
    "businessName": "RIDGECREST REGIONAL HOSPITAL",
    "contactEmail": null,
    "categoryName": "PRIMARY CARE CLINIC",
    "categoryCode": "RHC/OP",
    "licenseStatus": "ACTIVE",
    "inService": true,
    "licenseNumber": "120000186",
    "licenseEffectiveDate": "11/01/2025",
    "licenseExpirationDate": "10/31/2026",
    "dataDate": "10/18/2025",
    "capacity": 0,
    "address": "1111 N CHINA LAKE BLVD, SUITE 190",
    "city": "RIDGECREST",
    "zip": "93555",
    "county": "KERN",
    "phone": "(760) 446-3551",
    "lat": 35.6418,
    "lng": -117.6711795
  },
  {
    "id": "630018991",
    "name": "SOUTHERN SIERRA MEDICAL CLINIC",
    "npi": "1679038434",
    "hcaiId": null,
    "businessName": "RIDGECREST REGIONAL HOSPITAL",
    "contactEmail": "JAMES.SUVER@RRH.ORG",
    "categoryName": "PRIMARY CARE CLINIC",
    "categoryCode": "RHC/OP",
    "licenseStatus": "ACTIVE",
    "inService": true,
    "licenseNumber": "120000186",
    "licenseEffectiveDate": "11/01/2025",
    "licenseExpirationDate": "10/31/2026",
    "dataDate": "10/18/2025",
    "capacity": 0,
    "address": "105 E SYDNOR AVE, SUITE 100 AND 204",
    "city": "RIDGECREST",
    "zip": "93555",
    "county": "KERN",
    "phone": "(760) 446-6404",
    "lat": 35.640504,
    "lng": -117.6687315
  },
  {
    "id": "240001784",
    "name": "SRS-RIDGECREST",
    "npi": "1770767493",
    "hcaiId": "306154083",
    "businessName": "SRS-RIDGECREST",
    "contactEmail": "DRUPP@SANDERLINGLLC.COM",
    "categoryName": "CHRONIC DIALYSIS CLINIC",
    "categoryCode": "ESRD/CDC",
    "licenseStatus": "ACTIVE",
    "inService": true,
    "licenseNumber": "240000779",
    "licenseEffectiveDate": "12/01/2024",
    "licenseExpirationDate": "11/30/2025",
    "dataDate": "10/18/2025",
    "capacity": 12,
    "address": "212 S RICHMOND RD",
    "city": "RIDGECREST",
    "zip": "93555",
    "county": "KERN",
    "phone": "(615) 988-1060",
    "lat": 35.620083,
    "lng": -117.6473385
  }
]