[
  {
    "id": "630021724",
    "name": "AMERICAN UNITED HOME CARE",
    "npi": "1740752997",
    "hcaiId": null,
    "businessName": "PINE STREET HEALTHCARE PARTNERS, LLC",
    "contactEmail": "JSASSOVER@AMERICANUNITEDHOMECARE.COM",
    "categoryName": "HOME HEALTH AGENCY",
    "categoryCode": "HHA",
    "licenseStatus": "ACTIVE",
    "inService": true,
    "licenseNumber": "980000988",
    "licenseEffectiveDate": "11/23/2024",
    "licenseExpirationDate": "11/22/2025",
    "dataDate": "10/18/2025",
    "capacity": 0,
    "address": "38733 9TH ST E, SUITE N",
    "city": "PALMDALE",
    "zip": "93550",
    "county": "LOS ANGELES",
    "phone": "(800) 324-9770",
    "lat": 34.586784,
    "lng": -118.115298
  },
  {
    "id": "960002862",
    "name": "ANTELOPE VALLEY PREGNANCY CARE CENTER & WOMEN'S CLINIC",
    "npi": null,
    "hcaiId": "306198074",
    "businessName": "ANTELOPE VALLEY PREGNANCY CARE CENTER & WOMENS CLINIC",
    "contactEmail": "DIRECTOR@WOMENSCLINICAV.COM",
    "categoryName": "PRIMARY CARE CLINIC",
    "categoryCode": "FREEC",
    "licenseStatus": "ACTIVE",
    "inService": true,
    "licenseNumber": "960001433",
    "licenseEffectiveDate": "07/23/2025",
    "licenseExpirationDate": "05/13/2026",
    "dataDate": "10/18/2025",
    "capacity": 0,
    "address": "1334 E PALMDALE BLVD, SUITE D-E",
    "city": "PALMDALE",
    "zip": "93550",
    "county": "LOS ANGELES",
    "phone": "(661) 947-0400",
    "lat": 34.57923951,
    "lng": -118.1041958
  },
  {
    "id": "630014361",
    "name": "AVEANNA HEALTHCARE",
    "npi": "1811238967",
    "hcaiId": "406198042",
    "businessName": "PREMIER HEALTHCARE SERVICES, LLC",
    "contactEmail": "CREDENTIALING@AVEANNA.COM",
    "categoryName": "HOME HEALTH AGENCY",
    "categoryCode": "HHA",
    "licenseStatus": "ACTIVE",
    "inService": true,
    "licenseNumber": "550002794",
    "licenseEffectiveDate": "08/04/2025",
    "licenseExpirationDate": "08/03/2026",
    "dataDate": "10/18/2025",
    "capacity": 0,
    "address": "40015 SIERRA HIGHWAY, SUITE B-180",
    "city": "PALMDALE",
    "zip": "93550",
    "county": "LOS ANGELES",
    "phone": "(661) 237-3875",
    "lat": 34.609797,
    "lng": -118.124001
  },
  {
    "id": "630020225",
    "name": "BARTZ-ALTADONNA COMMUNITY HEALTH CENTER",
    "npi": null,
    "hcaiId": null,
    "businessName": "BARTZ-ALTADONNA COMMUNITY HEALTH CENTER",
    "contactEmail": "JVASQUEZ@BACHC.ORG",
    "categoryName": "PRIMARY CARE CLINIC",
    "categoryCode": "COMTYC",
    "licenseStatus": "ACTIVE",
    "inService": true,
    "licenseNumber": "960001428",
    "licenseEffectiveDate": "11/06/2025",
    "licenseExpirationDate": "11/05/2026",
    "dataDate": "10/18/2025",
    "capacity": 0,
    "address": "2520 E PALMDALE BLVD, SUITE A",
    "city": "PALMDALE",
    "zip": "93550",
    "county": "LOS ANGELES",
    "phone": "(661) 522-5452",
    "lat": 34.579206,
    "lng": -118.0843335
  },
  {
    "id": "930001719",
    "name": "EAST PALMDALE DIALYSIS CENTER, LLC",
    "npi": "1316968977",
    "hcaiId": "306196206",
    "businessName": "EAST PALMDALE DIALYSIS CENTER, LLC",
    "contactEmail": "KATHYHDH@YAHOO.COM",
    "categoryName": "CHRONIC DIALYSIS CLINIC",
    "categoryCode": "ESRD/CDC",
    "licenseStatus": "ACTIVE",
    "inService": true,
    "licenseNumber": "930000959",
    "licenseEffectiveDate": "04/05/2025",
    "licenseExpirationDate": "04/04/2026",
    "dataDate": "10/18/2025",
    "capacity": 21,
    "address": "2710 E PALMDALE BLVD",
    "city": "PALMDALE",
    "zip": "93550",
    "county": "LOS ANGELES",
    "phone": "(661) 265-7810",
    "lat": 34.579746,
    "lng": -118.080774
  },
  {
    "id": "630020830",
    "name": "ENSURE HOSPICE INC.",
    "npi": null,
    "hcaiId": "406193334",
    "businessName": "ENSURE HOSPICE INC.",
    "contactEmail": "ENSUREHOSPICE@GMAIL.COM",
    "categoryName": "HOSPICE",
    "categoryCode": "HOSPICE",
    "licenseStatus": "ACTIVE",
    "inService": true,
    "licenseNumber": "550007025",
    "licenseEffectiveDate": "10/19/2025",
    "licenseExpirationDate": "10/18/2027",
    "dataDate": "10/18/2025",
    "capacity": 0,
    "address": "1609 E PALMDALE BLVD, SUITE B",
    "city": "PALMDALE",
    "zip": "93550",
    "county": "LOS ANGELES",
    "phone": "(747) 262-5572",
    "lat": 34.57998,
    "lng": -118.100754
  },
  {
    "id": "630020103",
    "name": "MY CHOICE HOSPICE INC.",
    "npi": null,
    "hcaiId": "406196029",
    "businessName": "MY CHOICE HOSPICE INC.",
    "contactEmail": "LJAUREQUI@INTERIMHEALTHCARE.COM",
    "categoryName": "HOSPICE",
    "categoryCode": "HOSPICE",
    "licenseStatus": "ACTIVE",
    "inService": true,
    "licenseNumber": "550005979",
    "licenseEffectiveDate": "01/11/2025",
    "licenseExpirationDate": "01/10/2027",
    "dataDate": "10/18/2025",
    "capacity": 0,
    "address": "1050 E PALMDALE BLVD, SUITE 209A",
    "city": "PALMDALE",
    "zip": "93550",
    "county": "LOS ANGELES",
    "phone": "(661) 400-4960",
    "lat": 34.57887498,
    "lng": -118.110498
  },
  {
    "id": "630022813",
    "name": "OPTION ONE HOME HEALTH INC",
    "npi": null,
    "hcaiId": "406196258",
    "businessName": "OPTION ONE HOME HEALTH INC",
    "contactEmail": "OPTIONONEHOMEHEALTH@YAHOO.COM",
    "categoryName": "HOME HEALTH AGENCY",
    "categoryCode": "HHA",
    "licenseStatus": "ACTIVE",
    "inService": true,
    "licenseNumber": "550008150",
    "licenseEffectiveDate": "09/14/2025",
    "licenseExpirationDate": "09/13/2026",
    "dataDate": "10/18/2025",
    "capacity": 0,
    "address": "40015 SIERRA HWY, SUITE B210",
    "city": "PALMDALE",
    "zip": "93550",
    "county": "LOS ANGELES",
    "phone": "(661) 526-3480",
    "lat": 34.609797,
    "lng": -118.124001
  },
  {
    "id": "630015868",
    "name": "PALMDALE CONGREGATE LIVING, INC.",
    "npi": null,
    "hcaiId": "206190993",
    "businessName": "PALMDALE CONGREGATE LIVING, INC.",
    "contactEmail": "JPERCAL@SOE.CARE",
    "categoryName": "CONGREGATE LIVING HEALTH FACILITY",
    "categoryCode": "CLHF",
    "licenseStatus": "ACTIVE",
    "inService": true,
    "licenseNumber": "550003864",
    "licenseEffectiveDate": "04/28/2025",
    "licenseExpirationDate": "04/27/2026",
    "dataDate": "10/18/2025",
    "capacity": 6,
    "address": "38702 12TH ST. E.",
    "city": "PALMDALE",
    "zip": "93550",
    "county": "LOS ANGELES",
    "phone": "(661) 480-5200",
    "lat": 34.585596,
    "lng": -118.1073195
  },
  {
    "id": "930001718",
    "name": "PALMDALE REGIONAL",
    "npi": "1528242542",
    "hcaiId": "306196215",
    "businessName": "TOTAL RENAL CARE, INC.",
    "contactEmail": "CAL_C@DAVITA.COM",
    "categoryName": "CHRONIC DIALYSIS CLINIC",
    "categoryCode": "ESRD/CDC",
    "licenseStatus": "ACTIVE",
    "inService": true,
    "licenseNumber": "930000961",
    "licenseEffectiveDate": "12/01/2024",
    "licenseExpirationDate": "11/30/2025",
    "dataDate": "10/18/2025",
    "capacity": 24,
    "address": "1643 E PALMDALE BLVD",
    "city": "PALMDALE",
    "zip": "93550",
    "county": "LOS ANGELES",
    "phone": "(661) 540-0925",
    "lat": 34.580016,
    "lng": -118.0995075
  },
  {
    "id": "630013965",
    "name": "PLANNED PARENTHOOD LOS ANGELES ANTELOPE VALLEY CENTER",
    "npi": "1902109580",
    "hcaiId": "306197463",
    "businessName": "PLANNED PARENTHOOD LOS ANGELES",
    "contactEmail": "BRENDA.GUERRERO@PP-LA.ORG",
    "categoryName": "PRIMARY CARE CLINIC",
    "categoryCode": "COMTYC",
    "licenseStatus": "ACTIVE",
    "inService": true,
    "licenseNumber": "550002184",
    "licenseEffectiveDate": "01/16/2025",
    "licenseExpirationDate": "01/15/2026",
    "dataDate": "10/18/2025",
    "capacity": 0,
    "address": "533 E PALMDALE BLVD, SUITE A-1",
    "city": "PALMDALE",
    "zip": "93550",
    "county": "LOS ANGELES",
    "phone": "(213) 284-3200",
    "lat": 34.580646,
    "lng": -118.119564
  },
  {
    "id": "630012906",
    "name": "PRIORITYCARE PROFESSIONAL HOME HEALTH, INC.",
    "npi": null,
    "hcaiId": "406197619",
    "businessName": "PRIORITYCARE PROFESSIONAL HOME HEALTH, INC.",
    "contactEmail": "PRIORITYCAREPROFESSIONAL@YAHOO.COM",
    "categoryName": "HOME HEALTH AGENCY",
    "categoryCode": "HHA",
    "licenseStatus": "ACTIVE",
    "inService": true,
    "licenseNumber": "550001770",
    "licenseEffectiveDate": "11/01/2025",
    "licenseExpirationDate": "10/31/2026",
    "dataDate": "10/18/2025",
    "capacity": 0,
    "address": "1605 E PALMDALE BLVD, SUITE E",
    "city": "PALMDALE",
    "zip": "93550",
    "county": "LOS ANGELES",
    "phone": "(661) 267-2771",
    "lat": 34.580997,
    "lng": -118.101006
  },
  {
    "id": "630013454",
    "name": "SORRENTO IN THE DESERT",
    "npi": null,
    "hcaiId": "206197738",
    "businessName": "STJ, LP",
    "contactEmail": "ADMIN@ROSEDESERTCARE.COM",
    "categoryName": "CONGREGATE LIVING HEALTH FACILITY",
    "categoryCode": "CLHF",
    "licenseStatus": "ACTIVE",
    "inService": true,
    "licenseNumber": "550002103",
    "licenseEffectiveDate": "10/11/2023",
    "licenseExpirationDate": "10/10/2024",
    "dataDate": "10/18/2025",
    "capacity": 6,
    "address": "3833 E AVENUE R12",
    "city": "PALMDALE",
    "zip": "93550",
    "county": "LOS ANGELES",
    "phone": "(661) 522-3174",
    "lat": 34.562115,
    "lng": -118.059705
  },
  {
    "id": "630021940",
    "name": "ST SOFIA PALLIATIVE AND HOSPICE CARE, INC.",
    "npi": null,
    "hcaiId": "406194897",
    "businessName": "ST SOFIA PALLIATIVE AND HOSPICE CARE, INC.",
    "contactEmail": "STSOFIAPANDHCAREINC@GMAIL.COM",
    "categoryName": "HOSPICE",
    "categoryCode": "HOSPICE",
    "licenseStatus": "ACTIVE",
    "inService": true,
    "licenseNumber": "550007222",
    "licenseEffectiveDate": "11/17/2025",
    "licenseExpirationDate": "11/16/2027",
    "dataDate": "10/18/2025",
    "capacity": 0,
    "address": "1607 E PALMDALE BLVD, UNIT H",
    "city": "PALMDALE",
    "zip": "93550",
    "county": "LOS ANGELES",
    "phone": "(818) 401-9914",
    "lat": 34.58054922,
    "lng": -118.1007835
  },
  {
    "id": "630013197",
    "name": "TARZANA TREATMENT CENTERS, INC.",
    "npi": null,
    "hcaiId": "306197593",
    "businessName": "TARZANA TREATMENT CENTERS, INC.",
    "contactEmail": "ASENELLA@TARZANATC.ORG",
    "categoryName": "PRIMARY CARE CLINIC",
    "categoryCode": "COMTYC",
    "licenseStatus": "ACTIVE",
    "inService": true,
    "licenseNumber": "550001678",
    "licenseEffectiveDate": "11/15/2025",
    "licenseExpirationDate": "11/14/2026",
    "dataDate": "10/18/2025",
    "capacity": 0,
    "address": "320 E PALMDALE BLVD",
    "city": "PALMDALE",
    "zip": "93550",
    "county": "LOS ANGELES",
    "phone": "(818) 654-3815",
    "lat": 34.578864,
    "lng": -118.123956
  },
  {
    "id": "630028385",
    "name": "TARZANA TREATMENT CENTERS, LNC.",
    "npi": null,
    "hcaiId": null,
    "businessName": "TARZANA TREATMENT CENTERS, INC.",
    "contactEmail": null,
    "categoryName": "PRIMARY CARE CLINIC",
    "categoryCode": "FQHC/COMTYC",
    "licenseStatus": "ACTIVE",
    "inService": true,
    "licenseNumber": "960001115",
    "licenseEffectiveDate": "07/01/2025",
    "licenseExpirationDate": "03/09/2026",
    "dataDate": "10/18/2025",
    "capacity": 0,
    "address": "1037 E PALMDALE BLVD",
    "city": "PALMDALE",
    "zip": "93550",
    "county": "LOS ANGELES",
    "phone": null,
    "lat": 34.580137,
    "lng": -118.110469
  },
  {
    "id": "630020299",
    "name": "THE 7C'S HOSPICE, INC.",
    "npi": null,
    "hcaiId": "406196084",
    "businessName": "THE 7C'S HOSPICE, INC.",
    "contactEmail": "7CSHOSPICE@GMAIL.COM",
    "categoryName": "HOSPICE",
    "categoryCode": "HOSPICE",
    "licenseStatus": "ACTIVE",
    "inService": true,
    "licenseNumber": "550006100",
    "licenseEffectiveDate": "02/05/2025",
    "licenseExpirationDate": "02/04/2027",
    "dataDate": "10/18/2025",
    "capacity": 0,
    "address": "190 SIERRA CT, SUITE B-109",
    "city": "PALMDALE",
    "zip": "93550",
    "county": "LOS ANGELES",
    "phone": "(213) 973-0019",
    "lat": 34.639452,
    "lng": -118.1290725
  },
  {
    "id": "060001864",
    "name": "ULTRA CARE PLUS ADULT DAY HEALTH CARE",
    "npi": null,
    "hcaiId": null,
    "businessName": "ULTRA CARE PLUS ADHC",
    "contactEmail": "UCPADHC@PRODIGY.NET",
    "categoryName": "ADULT DAY HEALTH CARE",
    "categoryCode": "ADHC",
    "licenseStatus": "ACTIVE",
    "inService": true,
    "licenseNumber": "060000681",
    "licenseEffectiveDate": "11/10/2024",
    "licenseExpirationDate": "11/09/2025",
    "dataDate": "10/18/2025",
    "capacity": 0,
    "address": "38424 10TH ST E, SUITE A",
    "city": "PALMDALE",
    "zip": "93550",
    "county": "LOS ANGELES",
    "phone": "(661) 538-0899",
    "lat": 34.580493,
    "lng": -118.1116575
  },
  {
    "id": "980001534",
    "name": "VISTA HOME HEALTH SERVICES, INC.",
    "npi": "1841291002",
    "hcaiId": "406194678",
    "businessName": "VISTA HOME HEALTH SERVICES, INC.",
    "contactEmail": "JMLVISTAHHS@GMAIL.COM",
    "categoryName": "HOME HEALTH AGENCY",
    "categoryCode": "HHA",
    "licenseStatus": "ACTIVE",
    "inService": true,
    "licenseNumber": "980000877",
    "licenseEffectiveDate": "10/01/2025",
    "licenseExpirationDate": "11/22/2025",
    "dataDate": "10/18/2025",
    "capacity": 0,
    "address": "343 E PALMDALE BLVD, SUITE 4",
    "city": "PALMDALE",
    "zip": "93550",
    "county": "LOS ANGELES",
    "phone": "(661) 267-0097",
    "lat": 34.580412,
    "lng": -118.1232765
  },
  {
    "id": "630012200",
    "name": "VITAS HEALTHCARE CORPORATION OF CALIFORNIA - BRANCH",
    "npi": null,
    "hcaiId": "406197484",
    "businessName": "VITAS HEALTHCARE CORPORATION OF CALIFORNIA",
    "contactEmail": "ELO.SAHAGIAN@VITAS.COM",
    "categoryName": "HOSPICE",
    "categoryCode": "HOSPICE",
    "licenseStatus": "ACTIVE",
    "inService": true,
    "licenseNumber": "980000729",
    "licenseEffectiveDate": "05/09/2025",
    "licenseExpirationDate": "05/08/2027",
    "dataDate": "10/18/2025",
    "capacity": 0,
    "address": "40015 SIERRA HWY, SUITE B170",
    "city": "PALMDALE",
    "zip": "93550",
    "county": "LOS ANGELES",
    "phone": "(661) 942-3595",
    "lat": 34.609797,
    "lng": -118.124001
  },
  {
    "id": "630020832",
    "name": "WELL CARE HOSPICE INC",
    "npi": null,
    "hcaiId": "406193695",
    "businessName": "WELL CARE HOSPICE INC",
    "contactEmail": "WELLCAREHOSPICEINC@GMAIL.COM",
    "categoryName": "HOSPICE",
    "categoryCode": "HOSPICE",
    "licenseStatus": "ACTIVE",
    "inService": true,
    "licenseNumber": "550006923",
    "licenseEffectiveDate": "10/04/2023",
    "licenseExpirationDate": "10/03/2025",
    "dataDate": "10/18/2025",
    "capacity": 0,
    "address": "1543 E PALMDALE BLVD, SUITE J",
    "city": "PALMDALE",
    "zip": "93550",
    "county": "LOS ANGELES",
    "phone": "(661) 365-0078",
    "lat": 34.580394,
    "lng": -118.1015685
  },
  {
    "id": "630019779",
    "name": "WESLEY HEALTH CENTERS - PALMDALE CENTRAL",
    "npi": null,
    "hcaiId": null,
    "businessName": "JWCH INSTITUTE, INC.",
    "contactEmail": "ACARRILLO@JWCH.ORG",
    "categoryName": "PRIMARY CARE CLINIC",
    "categoryCode": "COMTYC",
    "licenseStatus": "ACTIVE",
    "inService": true,
    "licenseNumber": "960001445",
    "licenseEffectiveDate": "06/16/2025",
    "licenseExpirationDate": "06/15/2026",
    "dataDate": "10/18/2025",
    "capacity": 0,
    "address": "2151 E PALMDALE BLVD",
    "city": "PALMDALE",
    "zip": "93550",
    "county": "LOS ANGELES",
    "phone": "(661) 485-7500",
    "lat": 34.580457,
    "lng": -118.0899135
  }
]