[
  {
    "id": "120000413",
    "name": "ADVENTIST HEALTH TEHACHAPI VALLEY",
    "npi": "1275538530",
    "hcaiId": "106154168",
    "businessName": "ADVENTIST HEALTH MEDICAL CENTER TEHACHAPI",
    "contactEmail": "BUENTIG01@AH.ORG",
    "categoryName": "GENERAL ACUTE CARE HOSPITAL",
    "categoryCode": "GACH",
    "licenseStatus": "ACTIVE",
    "inService": true,
    "licenseNumber": "120000188",
    "licenseEffectiveDate": "11/01/2024",
    "licenseExpirationDate": "10/31/2025",
    "dataDate": "10/18/2025",
    "capacity": 25,
    "address": "1100 MAGELLAN DR",
    "city": "TEHACHAPI",
    "zip": "93561",
    "county": "KERN",
    "phone": "(661) 823-3000",
    "lat": 35.14682622,
    "lng": -118.4507385
  },
  {
    "id": "120001411",
    "name": "ADVENTIST HEALTH TEHACHAPI VALLEY",
    "npi": "1275841629",
    "hcaiId": null,
    "businessName": "ADVENTIST HEALTH MEDICAL CENTER TEHACHAPI",
    "contactEmail": "EASTMADO@AH.ORG",
    "categoryName": "PRIMARY CARE CLINIC",
    "categoryCode": "RHC/OP",
    "licenseStatus": "ACTIVE",
    "inService": true,
    "licenseNumber": "120000188",
    "licenseEffectiveDate": "11/01/2024",
    "licenseExpirationDate": "10/31/2025",
    "dataDate": "10/18/2025",
    "capacity": 0,
    "address": "105 WEST E ST",
    "city": "TEHACHAPI",
    "zip": "93561",
    "county": "KERN",
    "phone": "(661) 823-7070",
    "lat": 35.13002995,
    "lng": -118.4480707
  },
  {
    "id": "630002381",
    "name": "OMNI FAMILY HEALTH",
    "npi": "1851325021",
    "hcaiId": "306154137",
    "businessName": "OMNI FAMILY HEALTH",
    "contactEmail": "LICENSING@OMNIFAMILYHEALTH.ORG",
    "categoryName": "PRIMARY CARE CLINIC",
    "categoryCode": "COMTYC",
    "licenseStatus": "ACTIVE",
    "inService": true,
    "licenseNumber": "550000030",
    "licenseEffectiveDate": "05/02/2025",
    "licenseExpirationDate": "05/01/2026",
    "dataDate": "10/18/2025",
    "capacity": 0,
    "address": "161 N MILL ST",
    "city": "TEHACHAPI",
    "zip": "93561",
    "county": "KERN",
    "phone": "(661) 630-7063",
    "lat": 35.134218,
    "lng": -118.4524695
  },
  {
    "id": "630016324",
    "name": "SANDERLING DIALYSIS OF TEHACHAPI",
    "npi": "1932524683",
    "hcaiId": "306154202",
    "businessName": "SRS-TEHACHAPI, LLC",
    "contactEmail": "JST@SANDERLINGLLC.COM",
    "categoryName": "CHRONIC DIALYSIS CLINIC",
    "categoryCode": "ESRD/CDC",
    "licenseStatus": "ACTIVE",
    "inService": true,
    "licenseNumber": "550003451",
    "licenseEffectiveDate": "09/08/2025",
    "licenseExpirationDate": "09/07/2026",
    "dataDate": "10/18/2025",
    "capacity": 9,
    "address": "711 WEST VALLEY BOULEVARD",
    "city": "TEHACHAPI",
    "zip": "93561",
    "county": "KERN",
    "phone": "(615) 467-0140",
    "lat": 35.12438484,
    "lng": -118.4596357
  },
  {
    "id": "630027036",
    "name": "TEHACHAPI ADHC",
    "npi": null,
    "hcaiId": null,
    "businessName": "TEHACHAPI ADHC, INC.",
    "contactEmail": "LARUTYUNYAN@TEHACHAPIADHC.COM",
    "categoryName": "ADULT DAY HEALTH CARE",
    "categoryCode": "ADHC",
    "licenseStatus": "ACTIVE",
    "inService": true,
    "licenseNumber": "550008626",
    "licenseEffectiveDate": "06/26/2025",
    "licenseExpirationDate": "06/25/2026",
    "dataDate": "10/18/2025",
    "capacity": 0,
    "address": "123 W F ST",
    "city": "TEHACHAPI",
    "zip": "93561",
    "county": "KERN",
    "phone": "(661) 863-9998",
    "lat": 35.131419,
    "lng": -118.448919
  },
  {
    "id": "630026906",
    "name": "TEHACHAPI MEDICAL CLINIC",
    "npi": null,
    "hcaiId": null,
    "businessName": null,
    "contactEmail": "JOGDOC@GMAIL.COM",
    "categoryName": "PRIMARY CARE CLINIC",
    "categoryCode": "RHC",
    "licenseStatus": null,
    "inService": null,
    "licenseNumber": null,
    "licenseEffectiveDate": null,
    "licenseExpirationDate": null,
    "dataDate": "10/18/2025",
    "capacity": 0,
    "address": "432A W J ST",
    "city": "TEHACHAPI",
    "zip": "93561",
    "county": "KERN",
    "phone": "(661) 332-4278",
    "lat": 35.1354648,
    "lng": -118.4538953
  },
  {
    "id": "120001367",
    "name": "TEHACHAPI SURGERY CENTER, INC.",
    "npi": "1104969179",
    "hcaiId": "306154104",
    "businessName": null,
    "contactEmail": "WWW.TEHACHAPISURGERY@ATT.NET",
    "categoryName": "SURGICAL CLINIC",
    "categoryCode": "ASC",
    "licenseStatus": "INACTIVE - CAPEN DECISION",
    "inService": false,
    "licenseNumber": "120000546",
    "licenseEffectiveDate": "11/20/2007",
    "licenseExpirationDate": "11/19/2008",
    "dataDate": "10/18/2025",
    "capacity": 0,
    "address": "20960 SAGE LN, SUITE A",
    "city": "TEHACHAPI",
    "zip": "93561",
    "county": "KERN",
    "phone": "(661) 822-2890",
    "lat": 35.123751,
    "lng": -118.4780205
  }
]