[
  {
    "id": "630002301",
    "name": "ADVENTIST HEALTH REEDLEY",
    "npi": "1427025691",
    "hcaiId": null,
    "businessName": "REEDLEY COMMUNITY HOSPITAL",
    "contactEmail": null,
    "categoryName": "PRIMARY CARE CLINIC",
    "categoryCode": "RHC/OP",
    "licenseStatus": "ACTIVE",
    "inService": true,
    "licenseNumber": "040000149",
    "licenseEffectiveDate": "11/09/2024",
    "licenseExpirationDate": "11/08/2025",
    "dataDate": "10/18/2025",
    "capacity": 0,
    "address": "1451 E EL MONTE WAY",
    "city": "DINUBA",
    "zip": "93618",
    "county": "TULARE",
    "phone": "(559) 583-2100",
    "lat": 36.545868,
    "lng": -119.379798
  },
  {
    "id": "630013435",
    "name": "ADVENTIST HEALTH REEDLEY",
    "npi": "1508881376",
    "hcaiId": null,
    "businessName": "REEDLEY COMMUNITY HOSPITAL",
    "contactEmail": null,
    "categoryName": "PRIMARY CARE CLINIC",
    "categoryCode": "RHC/OP",
    "licenseStatus": "ACTIVE",
    "inService": true,
    "licenseNumber": "040000149",
    "licenseEffectiveDate": "11/09/2024",
    "licenseExpirationDate": "11/08/2025",
    "dataDate": "10/18/2025",
    "capacity": 0,
    "address": "250 W EL MONTE WAY",
    "city": "DINUBA",
    "zip": "93618",
    "county": "TULARE",
    "phone": null,
    "lat": 36.54583736,
    "lng": -119.3966809
  },
  {
    "id": "630014659",
    "name": "ADVENTIST HEALTH REEDLEY",
    "npi": "1235578444",
    "hcaiId": null,
    "businessName": "REEDLEY COMMUNITY HOSPITAL",
    "contactEmail": null,
    "categoryName": "PRIMARY CARE CLINIC",
    "categoryCode": "RHC/OP",
    "licenseStatus": "ACTIVE",
    "inService": true,
    "licenseNumber": "040000149",
    "licenseEffectiveDate": "11/09/2024",
    "licenseExpirationDate": "11/08/2025",
    "dataDate": "10/18/2025",
    "capacity": 0,
    "address": "444 W EL MONTE WAY",
    "city": "DINUBA",
    "zip": "93618",
    "county": "TULARE",
    "phone": null,
    "lat": 36.54587336,
    "lng": -119.3990052
  },
  {
    "id": "630018179",
    "name": "ARIA COMMUNITY HEALTH CENTER",
    "npi": null,
    "hcaiId": null,
    "businessName": "AVENAL COMMUNITY HEALTH CENTER",
    "contactEmail": null,
    "categoryName": "PRIMARY CARE CLINIC",
    "categoryCode": "COMTYC",
    "licenseStatus": "ACTIVE",
    "inService": true,
    "licenseNumber": "550002822",
    "licenseEffectiveDate": "09/17/2025",
    "licenseExpirationDate": "09/16/2026",
    "dataDate": "10/18/2025",
    "capacity": 0,
    "address": "247 NL ST",
    "city": "DINUBA",
    "zip": "93618",
    "county": "TULARE",
    "phone": null,
    "lat": 36.542273,
    "lng": -119.391862
  },
  {
    "id": "630018180",
    "name": "ARIA COMMUNITY HEALTH CENTER",
    "npi": null,
    "hcaiId": null,
    "businessName": "AVENAL COMMUNITY HEALTH CENTER",
    "contactEmail": null,
    "categoryName": "PRIMARY CARE CLINIC",
    "categoryCode": "COMTYC",
    "licenseStatus": "ACTIVE",
    "inService": true,
    "licenseNumber": "550002822",
    "licenseEffectiveDate": "09/17/2025",
    "licenseExpirationDate": "09/16/2026",
    "dataDate": "10/18/2025",
    "capacity": 0,
    "address": "271 NL ST",
    "city": "DINUBA",
    "zip": "93618",
    "county": "TULARE",
    "phone": null,
    "lat": 36.542273,
    "lng": -119.391862
  },
  {
    "id": "120001542",
    "name": "DINUBA COMMUNITY HEALTH CENTER",
    "npi": null,
    "hcaiId": "306544053",
    "businessName": "VALLEY HEALTH TEAM, INC.",
    "contactEmail": "SGRIFFIN@VHT.ORG",
    "categoryName": "PRIMARY CARE CLINIC",
    "categoryCode": "COMTYC",
    "licenseStatus": "ACTIVE",
    "inService": true,
    "licenseNumber": "120000633",
    "licenseEffectiveDate": "09/11/2025",
    "licenseExpirationDate": "09/10/2026",
    "dataDate": "10/18/2025",
    "capacity": 0,
    "address": "888 N ALTA AVE",
    "city": "DINUBA",
    "zip": "93618",
    "county": "TULARE",
    "phone": "(559) 595-1000",
    "lat": 36.552861,
    "lng": -119.394711
  },
  {
    "id": "630019467",
    "name": "DINUBA COMMUNITY HEALTH CENTER",
    "npi": null,
    "hcaiId": null,
    "businessName": null,
    "contactEmail": null,
    "categoryName": "PRIMARY CARE CLINIC",
    "categoryCode": "COMTYC",
    "licenseStatus": null,
    "inService": null,
    "licenseNumber": null,
    "licenseEffectiveDate": null,
    "licenseExpirationDate": null,
    "dataDate": "10/18/2025",
    "capacity": 0,
    "address": "889 N ALTA AVE",
    "city": "DINUBA",
    "zip": "93618",
    "county": "TULARE",
    "phone": null,
    "lat": 36.553095,
    "lng": -119.395728
  },
  {
    "id": "630027106",
    "name": "DINUBA COMMUNITY HEALTH CENTER (BEHAVIORAL HEALTH SUITE)",
    "npi": null,
    "hcaiId": null,
    "businessName": "VALLEY HEALTH TEAM, INC.",
    "contactEmail": "YRENTERIA@VHT.ORG",
    "categoryName": "PRIMARY CARE CLINIC",
    "categoryCode": "COMTYC",
    "licenseStatus": "ACTIVE",
    "inService": true,
    "licenseNumber": "550003342",
    "licenseEffectiveDate": "01/14/2025",
    "licenseExpirationDate": "01/13/2026",
    "dataDate": "10/18/2025",
    "capacity": 0,
    "address": "920 N ALTA AVE",
    "city": "DINUBA",
    "zip": "93618",
    "county": "TULARE",
    "phone": "(559) 364-2938",
    "lat": 36.55339501,
    "lng": -119.3950353
  },
  {
    "id": "630014683",
    "name": "DINUBA DIALYSIS",
    "npi": "1437592292",
    "hcaiId": "306544094",
    "businessName": "TOTAL RENAL CARE, INC.",
    "contactEmail": "CAL_C@DAVITA.COM",
    "categoryName": "CHRONIC DIALYSIS CLINIC",
    "categoryCode": "ESRD/CDC",
    "licenseStatus": "ACTIVE",
    "inService": true,
    "licenseNumber": "550002515",
    "licenseEffectiveDate": "05/18/2025",
    "licenseExpirationDate": "05/17/2026",
    "dataDate": "10/18/2025",
    "capacity": 20,
    "address": "510 E NORTH WAY",
    "city": "DINUBA",
    "zip": "93618",
    "county": "TULARE",
    "phone": "(559) 595-9462",
    "lat": 36.54931328,
    "lng": -119.3904237
  },
  {
    "id": "120001440",
    "name": "DINUBA HEALTHCARE",
    "npi": "1356746606",
    "hcaiId": "206540709",
    "businessName": "COLLEGE OPERATIONS, LLC",
    "contactEmail": "AP-DINUBA@MADISON.CARE",
    "categoryName": "SKILLED NURSING FACILITY",
    "categoryCode": "SNF",
    "licenseStatus": "ACTIVE",
    "inService": true,
    "licenseNumber": "120000578",
    "licenseEffectiveDate": "12/10/2024",
    "licenseExpirationDate": "12/09/2025",
    "dataDate": "10/18/2025",
    "capacity": 94,
    "address": "1730 S COLLEGE AVE",
    "city": "DINUBA",
    "zip": "93618",
    "county": "TULARE",
    "phone": "(559) 591-3300",
    "lat": 36.530739,
    "lng": -119.385531
  },
  {
    "id": "120001635",
    "name": "DINUBA RURAL HEALTH CENTER",
    "npi": "1467112607",
    "hcaiId": null,
    "businessName": null,
    "contactEmail": "DRKALEKA@GMAIL.COM",
    "categoryName": "PRIMARY CARE CLINIC",
    "categoryCode": "RHC/MD",
    "licenseStatus": null,
    "inService": null,
    "licenseNumber": null,
    "licenseEffectiveDate": null,
    "licenseExpirationDate": null,
    "dataDate": "10/18/2025",
    "capacity": 0,
    "address": "420 E EL MONTE WAY",
    "city": "DINUBA",
    "zip": "93618",
    "county": "TULARE",
    "phone": "(559) 449-1340",
    "lat": 36.545589,
    "lng": -119.3907555
  },
  {
    "id": "630027182",
    "name": "DINUBA UNIFIED SCHOOL DISTRICT BEHAVIORAL HEALTH CENTER",
    "npi": null,
    "hcaiId": null,
    "businessName": "VALLEY HEALTH TEAM, INC.",
    "contactEmail": null,
    "categoryName": "PRIMARY CARE CLINIC",
    "categoryCode": "COMTYC",
    "licenseStatus": "ACTIVE",
    "inService": true,
    "licenseNumber": "550003342",
    "licenseEffectiveDate": "01/14/2025",
    "licenseExpirationDate": "01/13/2026",
    "dataDate": "10/18/2025",
    "capacity": 0,
    "address": "340 E KERN ST",
    "city": "DINUBA",
    "zip": "93618",
    "county": "TULARE",
    "phone": null,
    "lat": 36.54110999,
    "lng": -119.384495
  },
  {
    "id": "630018686",
    "name": "FAMILY HEALTHCARE NETWORK",
    "npi": null,
    "hcaiId": null,
    "businessName": "FAMILY HEALTHCARE NETWORK",
    "contactEmail": null,
    "categoryName": "PRIMARY CARE CLINIC",
    "categoryCode": "COMTYC",
    "licenseStatus": "ACTIVE",
    "inService": true,
    "licenseNumber": "550003369",
    "licenseEffectiveDate": "01/22/2025",
    "licenseExpirationDate": "01/21/2026",
    "dataDate": "10/18/2025",
    "capacity": 0,
    "address": "324 N VERMONT AVE",
    "city": "DINUBA",
    "zip": "93618",
    "county": "TULARE",
    "phone": null,
    "lat": 36.547785,
    "lng": -119.3890725
  },
  {
    "id": "630015590",
    "name": "KAWEAH HEALTH DINUBA CLINIC",
    "npi": "1841607801",
    "hcaiId": null,
    "businessName": "KAWEAH DELTA HEALTH CARE DISTRICT",
    "contactEmail": "CLABLUE@KDHCD.ORG",
    "categoryName": "PRIMARY CARE CLINIC",
    "categoryCode": "RHC/OP",
    "licenseStatus": "ACTIVE",
    "inService": true,
    "licenseNumber": "120000580",
    "licenseEffectiveDate": "11/01/2025",
    "licenseExpirationDate": "10/31/2026",
    "dataDate": "10/18/2025",
    "capacity": 0,
    "address": "355 MONTE VISTA DRIVE, SUITE A",
    "city": "DINUBA",
    "zip": "93618",
    "county": "TULARE",
    "phone": "(559) 624-2000",
    "lat": 36.54439108,
    "lng": -119.4041569
  },
  {
    "id": "630020415",
    "name": "NARAYAN MEDICAL CLINIC",
    "npi": "1477177210",
    "hcaiId": null,
    "businessName": null,
    "contactEmail": "ANARAYAN295@GMAIL.COM",
    "categoryName": "PRIMARY CARE CLINIC",
    "categoryCode": "RHC/MD",
    "licenseStatus": null,
    "inService": null,
    "licenseNumber": null,
    "licenseEffectiveDate": null,
    "licenseExpirationDate": null,
    "dataDate": "10/18/2025",
    "capacity": 0,
    "address": "317 W EL MONTE WAY",
    "city": "DINUBA",
    "zip": "93618",
    "county": "TULARE",
    "phone": "(559) 591-6200",
    "lat": 36.546138,
    "lng": -119.397456
  },
  {
    "id": "630027917",
    "name": "NARAYAN MEDICAL CLINIC",
    "npi": null,
    "hcaiId": null,
    "businessName": null,
    "contactEmail": "ANARAYAN295@GMAIL.COM",
    "categoryName": "PRIMARY CARE CLINIC",
    "categoryCode": "RHC",
    "licenseStatus": null,
    "inService": null,
    "licenseNumber": null,
    "licenseEffectiveDate": null,
    "licenseExpirationDate": null,
    "dataDate": "10/18/2025",
    "capacity": 0,
    "address": "2160 E EL MONTE WAY",
    "city": "DINUBA",
    "zip": "93618",
    "county": "TULARE",
    "phone": "(510) 541-3598",
    "lat": 36.54542768,
    "lng": -119.3710731
  },
  {
    "id": "630021405",
    "name": "UNITED HEALTH CENTERS OF THE SAN JOAQUIN VALLEY",
    "npi": null,
    "hcaiId": "306544060",
    "businessName": "UNITED HEALTH CENTERS OF THE SAN JOAQUIN VALLEY",
    "contactEmail": "PREASJ@UNITEDHEALTHCENTERS.ORG",
    "categoryName": "PRIMARY CARE CLINIC",
    "categoryCode": "COMTYC",
    "licenseStatus": "ACTIVE",
    "inService": true,
    "licenseNumber": "550006069",
    "licenseEffectiveDate": "03/04/2025",
    "licenseExpirationDate": "03/03/2026",
    "dataDate": "10/18/2025",
    "capacity": 0,
    "address": "300 WESTGATE WAY",
    "city": "DINUBA",
    "zip": "93618",
    "county": "TULARE",
    "phone": "(559) 646-7400",
    "lat": 36.5447878,
    "lng": -119.4081804
  }
]