[
  {
    "id": "630026735",
    "name": "CARE TOUCH HEALTHCARE, INC.",
    "npi": null,
    "hcaiId": null,
    "businessName": "CARE TOUCH HEALTHCARE, INC.",
    "contactEmail": "CARETOUCHHEALTHCARE@GMAIL.COM",
    "categoryName": "HOME HEALTH AGENCY",
    "categoryCode": "HHA",
    "licenseStatus": "ACTIVE",
    "inService": true,
    "licenseNumber": "550009343",
    "licenseEffectiveDate": "09/05/2025",
    "licenseExpirationDate": "09/04/2026",
    "dataDate": "10/18/2025",
    "capacity": 0,
    "address": "516 VILLA AVE, SUITE 20",
    "city": "CLOVIS",
    "zip": "93612",
    "county": "FRESNO",
    "phone": "(559) 777-5722",
    "lat": 36.82401502,
    "lng": -119.713975
  },
  {
    "id": "630020345",
    "name": "CENTRAL VALLEY INDIAN HEALTH, BEHAVIORAL HEALTH CLINIC",
    "npi": null,
    "hcaiId": "306100660",
    "businessName": "CENTRAL VALLEY INDIAN HEALTH, INC.",
    "contactEmail": "JRAMSEY@CVIH.ORG",
    "categoryName": "PRIMARY CARE CLINIC",
    "categoryCode": "COMTYC",
    "licenseStatus": "ACTIVE",
    "inService": true,
    "licenseNumber": "550003941",
    "licenseEffectiveDate": "08/14/2025",
    "licenseExpirationDate": "08/13/2026",
    "dataDate": "10/18/2025",
    "capacity": 0,
    "address": "255 W BULLARD AVE, SUITE 101",
    "city": "CLOVIS",
    "zip": "93612",
    "county": "FRESNO",
    "phone": "(559) 299-2435",
    "lat": 36.823239,
    "lng": -119.7144855
  },
  {
    "id": "630017261",
    "name": "CENTRAL VALLEY INDIAN HEALTH, BULLARD CLINIC",
    "npi": null,
    "hcaiId": "306105140",
    "businessName": "CENTRAL VALLEY INDIAN HEALTH, INC.",
    "contactEmail": "CVIH@CVIH.ORG",
    "categoryName": "PRIMARY CARE CLINIC",
    "categoryCode": "COMTYC",
    "licenseStatus": "ACTIVE",
    "inService": true,
    "licenseNumber": "550003941",
    "licenseEffectiveDate": "08/14/2025",
    "licenseExpirationDate": "08/13/2026",
    "dataDate": "10/18/2025",
    "capacity": 0,
    "address": "255 W BULLARD AVE, SUITE 109",
    "city": "CLOVIS",
    "zip": "93612",
    "county": "FRESNO",
    "phone": "(559) 299-2578",
    "lat": 36.823266,
    "lng": -119.71485
  },
  {
    "id": "630015004",
    "name": "CLOVIS COMMUNITY HEALTH CENTER",
    "npi": "1750703237",
    "hcaiId": "306105112",
    "businessName": "VALLEY HEALTH TEAM, INC.",
    "contactEmail": "DLINVOICES@VHT.ORG",
    "categoryName": "PRIMARY CARE CLINIC",
    "categoryCode": "COMTYC",
    "licenseStatus": "ACTIVE",
    "inService": true,
    "licenseNumber": "550002676",
    "licenseEffectiveDate": "05/27/2025",
    "licenseExpirationDate": "05/26/2026",
    "dataDate": "10/18/2025",
    "capacity": 0,
    "address": "180 W SHAW AVE, SUITE B",
    "city": "CLOVIS",
    "zip": "93612",
    "county": "FRESNO",
    "phone": "(559) 203-6600",
    "lat": 36.80793,
    "lng": -119.7126585
  },
  {
    "id": "630013003",
    "name": "FRESNO YOSEMITE HEALTH CARE, INC.",
    "npi": null,
    "hcaiId": "406105082",
    "businessName": "FRESNO YOSEMITE HEALTH CARE, INC.",
    "contactEmail": "GHOPPER@FRESNOYOSEMITEHEALTHCARE.COM",
    "categoryName": "HOME HEALTH AGENCY",
    "categoryCode": "HHA",
    "licenseStatus": "ACTIVE",
    "inService": true,
    "licenseNumber": "550001653",
    "licenseEffectiveDate": "11/16/2025",
    "licenseExpirationDate": "11/15/2026",
    "dataDate": "10/18/2025",
    "capacity": 0,
    "address": "3100 WILLOW AVE, SUITE 110",
    "city": "CLOVIS",
    "zip": "93612",
    "county": "FRESNO",
    "phone": "(559) 255-9965",
    "lat": 36.795717,
    "lng": -119.728638
  },
  {
    "id": "630017549",
    "name": "GRAND VILLA CONGREGATE LIVING HEALTH FACILITY",
    "npi": null,
    "hcaiId": "206100107",
    "businessName": "VANIK & ARSEN, LLC",
    "contactEmail": "SAMANTHA.WALKER@GRANDVILLACLHF.ORG",
    "categoryName": "CONGREGATE LIVING HEALTH FACILITY",
    "categoryCode": "CLHF",
    "licenseStatus": "ACTIVE",
    "inService": true,
    "licenseNumber": "550004491",
    "licenseEffectiveDate": "12/24/2024",
    "licenseExpirationDate": "12/23/2025",
    "dataDate": "10/18/2025",
    "capacity": 18,
    "address": "250 VILLA AVE",
    "city": "CLOVIS",
    "zip": "93612",
    "county": "FRESNO",
    "phone": "(559) 797-4948",
    "lat": 36.827334,
    "lng": -119.713806
  },
  {
    "id": "630019355",
    "name": "KURE HOME HEALTH",
    "npi": null,
    "hcaiId": "406104484",
    "businessName": "KURE MEDICAL SOLUTIONS INC.",
    "contactEmail": "PARMB@KURE-MEDICAL.COM",
    "categoryName": "HOME HEALTH AGENCY",
    "categoryCode": "HHA",
    "licenseStatus": "ACTIVE",
    "inService": true,
    "licenseNumber": "550005863",
    "licenseEffectiveDate": "11/02/2024",
    "licenseExpirationDate": "11/01/2025",
    "dataDate": "10/18/2025",
    "capacity": 0,
    "address": "1050 SHAW AVE, SUITE 1053",
    "city": "CLOVIS",
    "zip": "93612",
    "county": "FRESNO",
    "phone": "(559) 283-0176",
    "lat": 36.806184,
    "lng": -119.695374
  },
  {
    "id": "040000019",
    "name": "MORNING STAR POST ACUTE",
    "npi": "1952014524",
    "hcaiId": "206100694",
    "businessName": "CLOVIS SKILLED CARE LLC",
    "contactEmail": "BENJAMIN.CARTER@JERICHO.COM",
    "categoryName": "SKILLED NURSING FACILITY",
    "categoryCode": "SNF",
    "licenseStatus": "ACTIVE",
    "inService": true,
    "licenseNumber": "040000084",
    "licenseEffectiveDate": "11/29/2025",
    "licenseExpirationDate": "11/28/2026",
    "dataDate": "10/18/2025",
    "capacity": 57,
    "address": "111 BARSTOW AVE",
    "city": "CLOVIS",
    "zip": "93612",
    "county": "FRESNO",
    "phone": "(559) 299-2591",
    "lat": 36.817101,
    "lng": -119.7074385
  },
  {
    "id": "630015120",
    "name": "OMNIA HEALTHCARE LLC",
    "npi": "1154748465",
    "hcaiId": "406105124",
    "businessName": "OMNIA HEALTHCARE, LLC",
    "contactEmail": "EXSARABOSING@GMAIL.COM",
    "categoryName": "HOME HEALTH AGENCY",
    "categoryCode": "HHA",
    "licenseStatus": "ACTIVE",
    "inService": true,
    "licenseNumber": "550003082",
    "licenseEffectiveDate": "05/13/2025",
    "licenseExpirationDate": "05/12/2026",
    "dataDate": "10/18/2025",
    "capacity": 0,
    "address": "105 BULLARD AVE",
    "city": "CLOVIS",
    "zip": "93612",
    "county": "FRESNO",
    "phone": "(559) 761-9656",
    "lat": 36.82323,
    "lng": -119.708154
  },
  {
    "id": "630012889",
    "name": "SEQUOIA HOME HEALTH, INC.",
    "npi": "1518277102",
    "hcaiId": "406105085",
    "businessName": "SEQUOIA HOME HEALTH, INC.",
    "contactEmail": "KRIS@SEQUOIAHH.NET",
    "categoryName": "HOME HEALTH AGENCY",
    "categoryCode": "HHA",
    "licenseStatus": "ACTIVE",
    "inService": true,
    "licenseNumber": "550001622",
    "licenseEffectiveDate": "11/15/2024",
    "licenseExpirationDate": "11/14/2025",
    "dataDate": "10/18/2025",
    "capacity": 0,
    "address": "55 SHAW AVE, SUITE 107",
    "city": "CLOVIS",
    "zip": "93612",
    "county": "FRESNO",
    "phone": "(559) 765-4315",
    "lat": 36.809874,
    "lng": -119.708505
  },
  {
    "id": "630019987",
    "name": "SEQUOIA HOSPICE, INC",
    "npi": null,
    "hcaiId": "406104749",
    "businessName": "SEQUOIA HOSPICE, INC",
    "contactEmail": "KAMORINO13@AOL.COM",
    "categoryName": "HOSPICE",
    "categoryCode": "HOSPICE",
    "licenseStatus": "ACTIVE",
    "inService": true,
    "licenseNumber": "550006028",
    "licenseEffectiveDate": "01/27/2025",
    "licenseExpirationDate": "01/26/2027",
    "dataDate": "10/18/2025",
    "capacity": 0,
    "address": "55 SHAW AVE, SUITE 112",
    "city": "CLOVIS",
    "zip": "93612",
    "county": "FRESNO",
    "phone": "(559) 321-8054",
    "lat": 36.809847,
    "lng": -119.708496
  },
  {
    "id": "630017833",
    "name": "SIERRA CARE CLOVIS",
    "npi": null,
    "hcaiId": "206100230",
    "businessName": "SIERRA CARE AT THE LAKE, LLC",
    "contactEmail": "ART@SIERRACARE.COM",
    "categoryName": "CONGREGATE LIVING HEALTH FACILITY",
    "categoryCode": "CLHF",
    "licenseStatus": "ACTIVE",
    "inService": true,
    "licenseNumber": "550005420",
    "licenseEffectiveDate": "04/16/2025",
    "licenseExpirationDate": "04/15/2026",
    "dataDate": "10/18/2025",
    "capacity": 15,
    "address": "648 WEST SIERRA AVENUE",
    "city": "CLOVIS",
    "zip": "93612",
    "county": "FRESNO",
    "phone": "(559) 325-6100",
    "lat": 36.829908,
    "lng": -119.722869
  },
  {
    "id": "630024824",
    "name": "UNITED HEALTH CENTERS OF THE SAN JOAQUIN VALLEY",
    "npi": null,
    "hcaiId": "306100685",
    "businessName": "UNITED HEALTH CENTERS OF THE SAN JOAQUIN VALLEY",
    "contactEmail": "PREASJ@UNITEDHEALTHCENTERS.ORG",
    "categoryName": "PRIMARY CARE CLINIC",
    "categoryCode": "COMTYC",
    "licenseStatus": "ACTIVE",
    "inService": true,
    "licenseNumber": "550007736",
    "licenseEffectiveDate": "12/31/2024",
    "licenseExpirationDate": "12/30/2025",
    "dataDate": "10/18/2025",
    "capacity": 0,
    "address": "313 W SHAW AVE",
    "city": "CLOVIS",
    "zip": "93612",
    "county": "FRESNO",
    "phone": "(559) 646-6618",
    "lat": 36.8088884,
    "lng": -119.7184862
  }
]