[
  {
    "id": "630017432",
    "name": "AGRILAND HEALTH CENTER",
    "npi": "1891778114",
    "hcaiId": null,
    "businessName": "CAMARENA HEALTH",
    "contactEmail": null,
    "categoryName": "PRIMARY CARE CLINIC",
    "categoryCode": "COMTYC",
    "licenseStatus": "ACTIVE",
    "inService": true,
    "licenseNumber": "040000045",
    "licenseEffectiveDate": "11/10/2024",
    "licenseExpirationDate": "11/09/2025",
    "dataDate": "10/18/2025",
    "capacity": 0,
    "address": "23500 ROAD 24",
    "city": "CHOWCHILLA",
    "zip": "93610",
    "county": "MADERA",
    "phone": null,
    "lat": 37.09085741,
    "lng": -120.1108984
  },
  {
    "id": "630003361",
    "name": "CAMARENA HEALTH",
    "npi": "1447309885",
    "hcaiId": "306200498",
    "businessName": "CAMARENA HEALTH",
    "contactEmail": "NMOSQUEDA@CAMARENAHEALTH.ORG",
    "categoryName": "PRIMARY CARE CLINIC",
    "categoryCode": "RHC/COMTYC",
    "licenseStatus": "ACTIVE",
    "inService": true,
    "licenseNumber": "550000137",
    "licenseEffectiveDate": "12/06/2024",
    "licenseExpirationDate": "12/05/2025",
    "dataDate": "10/18/2025",
    "capacity": 0,
    "address": "300 PROSPERITY BLVD, BUILDING A & B",
    "city": "CHOWCHILLA",
    "zip": "93610",
    "county": "MADERA",
    "phone": "(559) 664-4339",
    "lat": 37.125027,
    "lng": -120.2538195
  },
  {
    "id": "630027753",
    "name": "CAMARENA HEALTH - CHOWCHILLA NORTH",
    "npi": "1104603620",
    "hcaiId": null,
    "businessName": "CAMARENA HEALTH",
    "contactEmail": "PSOARES@CAMARENAHEALTH.ORG",
    "categoryName": "PRIMARY CARE CLINIC",
    "categoryCode": "FQHC/COMTYC",
    "licenseStatus": "ACTIVE",
    "inService": true,
    "licenseNumber": "550009274",
    "licenseEffectiveDate": "08/08/2025",
    "licenseExpirationDate": "08/07/2026",
    "dataDate": "10/18/2025",
    "capacity": 0,
    "address": "285 HOSPITAL DR",
    "city": "CHOWCHILLA",
    "zip": "93610",
    "county": "MADERA",
    "phone": "(559) 664-4089",
    "lat": 37.12121143,
    "lng": -120.2733938
  },
  {
    "id": "040001296",
    "name": "CHOWCHILLA FAMILY CLINIC",
    "npi": "1598183238",
    "hcaiId": null,
    "businessName": null,
    "contactEmail": null,
    "categoryName": "PRIMARY CARE CLINIC",
    "categoryCode": "RHC/MD",
    "licenseStatus": null,
    "inService": null,
    "licenseNumber": null,
    "licenseEffectiveDate": null,
    "licenseExpirationDate": null,
    "dataDate": "10/18/2025",
    "capacity": 0,
    "address": "129 N 5TH ST",
    "city": "CHOWCHILLA",
    "zip": "93610",
    "county": "MADERA",
    "phone": "(559) 665-0275",
    "lat": 37.121121,
    "lng": -120.2636115
  },
  {
    "id": "040000790",
    "name": "CHOWCHILLA MEMORIAL HEALTHCARE DISTRICT",
    "npi": "1104990688",
    "hcaiId": "206204023",
    "businessName": "CHOWCHILLA MEMORIAL HEALTHCARE DISTRICT",
    "contactEmail": "CJFLORESCDMH@AOL.COM",
    "categoryName": "SKILLED NURSING FACILITY",
    "categoryCode": "SNF",
    "licenseStatus": "ACTIVE",
    "inService": true,
    "licenseNumber": "550000252",
    "licenseEffectiveDate": "06/24/2025",
    "licenseExpirationDate": "06/23/2026",
    "dataDate": "10/18/2025",
    "capacity": 31,
    "address": "1104 VENTURA AVE",
    "city": "CHOWCHILLA",
    "zip": "93610",
    "county": "MADERA",
    "phone": "(559) 665-3781",
    "lat": 37.12185,
    "lng": -120.273939
  },
  {
    "id": "630027461",
    "name": "COMMUNITY HEALTH CENTERS OF AMERICA",
    "npi": null,
    "hcaiId": null,
    "businessName": "COMMUNITY HEALTH CENTERS OF AMERICA",
    "contactEmail": null,
    "categoryName": "PRIMARY CARE CLINIC",
    "categoryCode": "COMTYC",
    "licenseStatus": "ACTIVE",
    "inService": true,
    "licenseNumber": "550005091",
    "licenseEffectiveDate": "11/07/2025",
    "licenseExpirationDate": "11/06/2026",
    "dataDate": "10/18/2025",
    "capacity": 0,
    "address": "101 N FRONT ST, SUITE A & B",
    "city": "CHOWCHILLA",
    "zip": "93610",
    "county": "MADERA",
    "phone": null,
    "lat": 37.12511402,
    "lng": -120.258933
  },
  {
    "id": "040000018",
    "name": "PALMS CARE CENTER",
    "npi": "1942868021",
    "hcaiId": "206200691",
    "businessName": "PALMS CARE CENTER LLC",
    "contactEmail": "ADMINISTRATOR@PALMSCARECENTER.ORG",
    "categoryName": "SKILLED NURSING FACILITY",
    "categoryCode": "SNF",
    "licenseStatus": "ACTIVE",
    "inService": true,
    "licenseNumber": "040000082",
    "licenseEffectiveDate": "05/01/2025",
    "licenseExpirationDate": "04/30/2026",
    "dataDate": "10/18/2025",
    "capacity": 62,
    "address": "1010 VENTURA AVE",
    "city": "CHOWCHILLA",
    "zip": "93610",
    "county": "MADERA",
    "phone": "(559) 665-4826",
    "lat": 37.12161885,
    "lng": -120.2724786
  },
  {
    "id": "170001882",
    "name": "PARIS-LAMB HEALTH CENTER",
    "npi": null,
    "hcaiId": null,
    "businessName": "CA DEPARTMENT OF CORRECTIONS AND REHABILITATION",
    "contactEmail": "SELENA.VELA@CDCR.CA.GOV",
    "categoryName": "SKILLED NURSING FACILITY",
    "categoryCode": "SNF",
    "licenseStatus": "ACTIVE",
    "inService": true,
    "licenseNumber": "170000839",
    "licenseEffectiveDate": "05/25/2025",
    "licenseExpirationDate": "05/24/2026",
    "dataDate": "10/18/2025",
    "capacity": 38,
    "address": "23370 ROAD 22",
    "city": "CHOWCHILLA",
    "zip": "93610",
    "county": "MADERA",
    "phone": "(559) 665-5531",
    "lat": 37.090683,
    "lng": -120.1564395
  },
  {
    "id": "040000880",
    "name": "WHITEHEAD, CHRIS",
    "npi": null,
    "hcaiId": null,
    "businessName": null,
    "contactEmail": null,
    "categoryName": "OTHER",
    "categoryCode": "UNLICEN",
    "licenseStatus": null,
    "inService": null,
    "licenseNumber": null,
    "licenseEffectiveDate": null,
    "licenseExpirationDate": null,
    "dataDate": "10/18/2025",
    "capacity": 0,
    "address": "285 HOSPITAL DR",
    "city": "CHOWCHILLA",
    "zip": "93610",
    "county": "MADERA",
    "phone": "(559) 665-5436",
    "lat": 37.12121248,
    "lng": -120.2732342
  }
]