[
  {
    "id": "040001390",
    "name": "ADVENTIST HEALTH REEDLEY",
    "npi": "1093732554",
    "hcaiId": null,
    "businessName": "REEDLEY COMMUNITY HOSPITAL",
    "contactEmail": null,
    "categoryName": "PRIMARY CARE CLINIC",
    "categoryCode": "RHC/OP",
    "licenseStatus": "ACTIVE",
    "inService": true,
    "licenseNumber": "040000149",
    "licenseEffectiveDate": "11/09/2024",
    "licenseExpirationDate": "11/08/2025",
    "dataDate": "10/18/2025",
    "capacity": 0,
    "address": "300 S. LEON S. PETERS BLVD.",
    "city": "FOWLER",
    "zip": "93625",
    "county": "FRESNO",
    "phone": "(559) 834-1614",
    "lat": 36.7242037,
    "lng": -119.8787049
  },
  {
    "id": "630019064",
    "name": "ARIA COMMUNITY HEALTH CENTER",
    "npi": null,
    "hcaiId": null,
    "businessName": "AVENAL COMMUNITY HEALTH CENTER",
    "contactEmail": null,
    "categoryName": "PRIMARY CARE CLINIC",
    "categoryCode": "COMTYC",
    "licenseStatus": "ACTIVE",
    "inService": true,
    "licenseNumber": "550002822",
    "licenseEffectiveDate": "09/17/2025",
    "licenseExpirationDate": "09/16/2026",
    "dataDate": "10/18/2025",
    "capacity": 0,
    "address": "210 E MERCED ST",
    "city": "FOWLER",
    "zip": "93625",
    "county": "FRESNO",
    "phone": null,
    "lat": 36.630918,
    "lng": -119.678769
  },
  {
    "id": "040000025",
    "name": "FOWLER CARE CENTER",
    "npi": "1952969024",
    "hcaiId": "206100744",
    "businessName": "FOWLER CARE CENTER LLC",
    "contactEmail": "ADMINISTRATOR@FOWLERCARECENTER.ORG",
    "categoryName": "SKILLED NURSING FACILITY",
    "categoryCode": "SNF",
    "licenseStatus": "ACTIVE",
    "inService": true,
    "licenseNumber": "040000115",
    "licenseEffectiveDate": "11/04/2025",
    "licenseExpirationDate": "11/03/2026",
    "dataDate": "10/18/2025",
    "capacity": 46,
    "address": "8448 E ADAMS AVE",
    "city": "FOWLER",
    "zip": "93625",
    "county": "FRESNO",
    "phone": "(559) 834-2519",
    "lat": 36.634752,
    "lng": -119.637756
  },
  {
    "id": "630019368",
    "name": "HARRY CHEN, M.D., INC., A PROFESSIONAL CORPORATION",
    "npi": null,
    "hcaiId": null,
    "businessName": null,
    "contactEmail": "FPHARRYC@GMAIL.COM",
    "categoryName": "PRIMARY CARE CLINIC",
    "categoryCode": "RHC",
    "licenseStatus": null,
    "inService": null,
    "licenseNumber": null,
    "licenseEffectiveDate": null,
    "licenseExpirationDate": null,
    "dataDate": "10/18/2025",
    "capacity": 0,
    "address": "128 N 6TH ST",
    "city": "FOWLER",
    "zip": "93625",
    "county": "FRESNO",
    "phone": "(559) 676-3975",
    "lat": 36.631017,
    "lng": -119.6801145
  },
  {
    "id": "630027490",
    "name": "UNITED HEALTH CENTERS OF THE SAN JOAQUIN VALLEY",
    "npi": "1902475833",
    "hcaiId": null,
    "businessName": "UNITED HEALTH CENTERS OF THE SAN JOAQUIN VALLEY",
    "contactEmail": null,
    "categoryName": "PRIMARY CARE CLINIC",
    "categoryCode": "COMTYC",
    "licenseStatus": "ACTIVE",
    "inService": true,
    "licenseNumber": "550002830",
    "licenseEffectiveDate": "09/30/2025",
    "licenseExpirationDate": "09/29/2026",
    "dataDate": "10/18/2025",
    "capacity": 0,
    "address": "130 S 6TH ST",
    "city": "FOWLER",
    "zip": "93625",
    "county": "FRESNO",
    "phone": null,
    "lat": 36.62945902,
    "lng": -119.678201
  },
  {
    "id": "630028190",
    "name": "UNITED HEALTH CENTERS OF THE SAN JOAQUIN VALLEY",
    "npi": null,
    "hcaiId": null,
    "businessName": "UNITED HEALTH CENTERS OF THE SAN JOAQUIN VALLEY",
    "contactEmail": null,
    "categoryName": "PRIMARY CARE CLINIC",
    "categoryCode": "FQHC/COMTYC",
    "licenseStatus": "ACTIVE",
    "inService": true,
    "licenseNumber": "550002830",
    "licenseEffectiveDate": "09/30/2025",
    "licenseExpirationDate": "09/29/2026",
    "dataDate": "10/18/2025",
    "capacity": 0,
    "address": "106 E MAIN ST",
    "city": "FOWLER",
    "zip": "93625",
    "county": "FRESNO",
    "phone": null,
    "lat": 36.62913078,
    "lng": -119.6786997
  },
  {
    "id": "040000033",
    "name": "VINEYARDS AT FOWLER",
    "npi": "1376201046",
    "hcaiId": "206100713",
    "businessName": "THE VINEYARDS AT FOWLER  LLC",
    "contactEmail": "ADMINISTRATOR@VINEYARDSATFOWLER.ORG",
    "categoryName": "SKILLED NURSING FACILITY",
    "categoryCode": "SNF",
    "licenseStatus": "ACTIVE",
    "inService": true,
    "licenseNumber": "040000092",
    "licenseEffectiveDate": "03/28/2025",
    "licenseExpirationDate": "03/27/2026",
    "dataDate": "10/18/2025",
    "capacity": 49,
    "address": "1306 E SUMNER AVE",
    "city": "FOWLER",
    "zip": "93625",
    "county": "FRESNO",
    "phone": "(559) 940-1105",
    "lat": 36.627588,
    "lng": -119.673054
  }
]