[
  {
    "id": "630016509",
    "name": "ADVENTIST HEALTH REEDLEY",
    "npi": "1720459514",
    "hcaiId": null,
    "businessName": "REEDLEY COMMUNITY HOSPITAL",
    "contactEmail": null,
    "categoryName": "PRIMARY CARE CLINIC",
    "categoryCode": "RHC/OP",
    "licenseStatus": "ACTIVE",
    "inService": true,
    "licenseNumber": "040000149",
    "licenseEffectiveDate": "11/09/2024",
    "licenseExpirationDate": "11/08/2025",
    "dataDate": "10/18/2025",
    "capacity": 0,
    "address": "11976 ROAD 37",
    "city": "MADERA",
    "zip": "93636",
    "county": "MADERA",
    "phone": null,
    "lat": 36.922689,
    "lng": -119.8764315
  },
  {
    "id": "630027010",
    "name": "CAMARENA HEALTH- TESORO VIEJO",
    "npi": null,
    "hcaiId": null,
    "businessName": "CAMARENA HEALTH",
    "contactEmail": "NMOSQUEDA@CAMARENAHEALTH.ORG",
    "categoryName": "PRIMARY CARE CLINIC",
    "categoryCode": "COMTYC",
    "licenseStatus": "ACTIVE",
    "inService": true,
    "licenseNumber": "550004158",
    "licenseEffectiveDate": "03/06/2025",
    "licenseExpirationDate": "03/05/2026",
    "dataDate": "10/18/2025",
    "capacity": 0,
    "address": "4148 TOWN CENTER BLVD",
    "city": "MADERA",
    "zip": "93636",
    "county": "MADERA",
    "phone": "(559) 664-4339",
    "lat": 36.9629717,
    "lng": -119.7878191
  },
  {
    "id": "040001418",
    "name": "CHARLIE MITCHELL RURAL HEALTH CLINIC",
    "npi": "1063573962",
    "hcaiId": null,
    "businessName": "VALLEY CHILDREN'S HOSPITAL",
    "contactEmail": null,
    "categoryName": "PRIMARY CARE CLINIC",
    "categoryCode": "RHC/OP",
    "licenseStatus": "ACTIVE",
    "inService": true,
    "licenseNumber": "040000160",
    "licenseEffectiveDate": "11/01/2025",
    "licenseExpirationDate": "10/31/2026",
    "dataDate": "10/18/2025",
    "capacity": 0,
    "address": "41169 GOODWIN WAY, ROOM 100",
    "city": "MADERA",
    "zip": "93636",
    "county": "MADERA",
    "phone": "(559) 353-6430",
    "lat": 36.886446,
    "lng": -119.7993105
  },
  {
    "id": "630027163",
    "name": "RIVER VISTA BEHAVIORAL HEALTH",
    "npi": "1295464600",
    "hcaiId": "106200030",
    "businessName": "UHS OF MADERA, INC.",
    "contactEmail": "ALEX.ROCHA2@UHSINC.COM",
    "categoryName": "ACUTE PSYCHIATRIC HOSPITAL",
    "categoryCode": "APH",
    "licenseStatus": "ACTIVE",
    "inService": true,
    "licenseNumber": "550008678",
    "licenseEffectiveDate": "08/03/2025",
    "licenseExpirationDate": "08/02/2026",
    "dataDate": "10/18/2025",
    "capacity": 128,
    "address": "40886 GOODWIN WAY",
    "city": "MADERA",
    "zip": "93636",
    "county": "MADERA",
    "phone": "(559) 824-8635",
    "lat": 37.0190703,
    "lng": -120.195837
  },
  {
    "id": "040000129",
    "name": "VALLEY CHILDREN'S HOSPITAL",
    "npi": "1952312043",
    "hcaiId": "106204019",
    "businessName": "VALLEY CHILDREN'S HOSPITAL",
    "contactEmail": "CCOSTELLO@VALLEYCHILDRENS.ORG",
    "categoryName": "GENERAL ACUTE CARE HOSPITAL",
    "categoryCode": "GACH",
    "licenseStatus": "ACTIVE",
    "inService": true,
    "licenseNumber": "040000160",
    "licenseEffectiveDate": "11/01/2025",
    "licenseExpirationDate": "10/31/2026",
    "dataDate": "10/18/2025",
    "capacity": 358,
    "address": "9300 VALLEY CHILDRENS PLACE",
    "city": "MADERA",
    "zip": "93636",
    "county": "MADERA",
    "phone": "(559) 353-6269",
    "lat": 36.884142,
    "lng": -119.8010205
  },
  {
    "id": "040001058",
    "name": "VALLEY CHILDREN'S HOSPITAL - PSYCHOLOGY CLINIC",
    "npi": null,
    "hcaiId": null,
    "businessName": null,
    "contactEmail": null,
    "categoryName": "PSYCHOLOGY CLINIC",
    "categoryCode": "PSYCHC",
    "licenseStatus": null,
    "inService": null,
    "licenseNumber": null,
    "licenseEffectiveDate": null,
    "licenseExpirationDate": null,
    "dataDate": "10/18/2025",
    "capacity": 0,
    "address": "9300 VALLEY CHILDRENS PL",
    "city": "MADERA",
    "zip": "93636",
    "county": "MADERA",
    "phone": "(559) 225-3000",
    "lat": 36.884142,
    "lng": -119.8010205
  }
]