[
  {
    "id": "630017431",
    "name": "ALMOND WOMEN'S HEALTH",
    "npi": null,
    "hcaiId": null,
    "businessName": "CAMARENA HEALTH",
    "contactEmail": null,
    "categoryName": "PRIMARY CARE CLINIC",
    "categoryCode": "COMTYC",
    "licenseStatus": "ACTIVE",
    "inService": true,
    "licenseNumber": "040000045",
    "licenseEffectiveDate": "11/10/2024",
    "licenseExpirationDate": "11/09/2025",
    "dataDate": "10/18/2025",
    "capacity": 0,
    "address": "363 E ALMOND AVE, SUITE 101",
    "city": "MADERA",
    "zip": "93637",
    "county": "MADERA",
    "phone": null,
    "lat": 36.94559769,
    "lng": -120.052725
  },
  {
    "id": "240001797",
    "name": "ALMOND WOOD DIALYSIS",
    "npi": "1134170830",
    "hcaiId": "306204025",
    "businessName": "TOTAL RENAL CARE, INC.",
    "contactEmail": "KHUSHBUJIT.SANDHU@DAVITA.COM",
    "categoryName": "CHRONIC DIALYSIS CLINIC",
    "categoryCode": "ESRD/CDC",
    "licenseStatus": "ACTIVE",
    "inService": true,
    "licenseNumber": "240000791",
    "licenseEffectiveDate": "06/22/2025",
    "licenseExpirationDate": "06/21/2026",
    "dataDate": "10/18/2025",
    "capacity": 22,
    "address": "501 E ALMOND AVE",
    "city": "MADERA",
    "zip": "93637",
    "county": "MADERA",
    "phone": "(559) 664-9252",
    "lat": 36.94617,
    "lng": -120.0511215
  },
  {
    "id": "630026041",
    "name": "ARX HOME HEALTH INC.",
    "npi": null,
    "hcaiId": null,
    "businessName": "ARX HOME HEALTH INC.",
    "contactEmail": "ARXHOMECARE@GMAIL.COM",
    "categoryName": "HOME HEALTH AGENCY",
    "categoryCode": "HHA",
    "licenseStatus": "ACTIVE",
    "inService": true,
    "licenseNumber": "550009564",
    "licenseEffectiveDate": "06/11/2025",
    "licenseExpirationDate": "12/10/2025",
    "dataDate": "10/18/2025",
    "capacity": 0,
    "address": "401 W OLIVE AVE, SUITE 5A",
    "city": "MADERA",
    "zip": "93637",
    "county": "MADERA",
    "phone": "(424) 354-9081",
    "lat": 36.95307998,
    "lng": -120.060447
  },
  {
    "id": "630013383",
    "name": "CAMARENA HEALTH",
    "npi": "1902185630",
    "hcaiId": "306204027",
    "businessName": "CAMARENA HEALTH",
    "contactEmail": "PSOARES@CAMARENAHEALTH.ORG",
    "categoryName": "PRIMARY CARE CLINIC",
    "categoryCode": "COMTYC",
    "licenseStatus": "ACTIVE",
    "inService": true,
    "licenseNumber": "550004158",
    "licenseEffectiveDate": "03/06/2025",
    "licenseExpirationDate": "03/05/2026",
    "dataDate": "10/18/2025",
    "capacity": 0,
    "address": "505 E ALMOND AVE, SUITE 101",
    "city": "MADERA",
    "zip": "93637",
    "county": "MADERA",
    "phone": "(559) 664-4089",
    "lat": 36.94555696,
    "lng": -120.0508819
  },
  {
    "id": "630020683",
    "name": "CAMARENA HEALTH - ALMOND CAMPUS DENTAL CARE",
    "npi": null,
    "hcaiId": null,
    "businessName": "CAMARENA HEALTH",
    "contactEmail": null,
    "categoryName": "PRIMARY CARE CLINIC",
    "categoryCode": "COMTYC",
    "licenseStatus": "ACTIVE",
    "inService": true,
    "licenseNumber": "550004158",
    "licenseEffectiveDate": "03/06/2025",
    "licenseExpirationDate": "03/05/2026",
    "dataDate": "10/18/2025",
    "capacity": 0,
    "address": "750 E ALMOND AVE",
    "city": "MADERA",
    "zip": "93637",
    "county": "MADERA",
    "phone": null,
    "lat": 36.94541081,
    "lng": -120.0488409
  },
  {
    "id": "630024611",
    "name": "CAMARENA HEALTH - ALMOND CAMPUS MEDICAL",
    "npi": null,
    "hcaiId": null,
    "businessName": "CAMARENA HEALTH",
    "contactEmail": null,
    "categoryName": "PRIMARY CARE CLINIC",
    "categoryCode": "COMTYC",
    "licenseStatus": "ACTIVE",
    "inService": true,
    "licenseNumber": "550004158",
    "licenseEffectiveDate": "03/06/2025",
    "licenseExpirationDate": "03/05/2026",
    "dataDate": "10/18/2025",
    "capacity": 0,
    "address": "740 E ALMOND AVE",
    "city": "MADERA",
    "zip": "93637",
    "county": "MADERA",
    "phone": null,
    "lat": 36.94541058,
    "lng": -120.0489131
  },
  {
    "id": "630020686",
    "name": "CAMARENA HEALTH - ALMOND CAMPUS URGENT CARE",
    "npi": null,
    "hcaiId": "306200640",
    "businessName": "CAMARENA HEALTH",
    "contactEmail": "INFO@CAMARENAHEALTH.ORG",
    "categoryName": "PRIMARY CARE CLINIC",
    "categoryCode": "COMTYC",
    "licenseStatus": "ACTIVE",
    "inService": true,
    "licenseNumber": "550007205",
    "licenseEffectiveDate": "11/23/2024",
    "licenseExpirationDate": "11/22/2025",
    "dataDate": "10/18/2025",
    "capacity": 0,
    "address": "760 E ALMOND AVE",
    "city": "MADERA",
    "zip": "93637",
    "county": "MADERA",
    "phone": "(559) 664-4000",
    "lat": 36.94541104,
    "lng": -120.0487688
  },
  {
    "id": "630027710",
    "name": "CAMARENA HEALTH - EAST ALMOND",
    "npi": null,
    "hcaiId": null,
    "businessName": "CAMARENA HEALTH",
    "contactEmail": null,
    "categoryName": "PRIMARY CARE CLINIC",
    "categoryCode": "COMTYC",
    "licenseStatus": "ACTIVE",
    "inService": true,
    "licenseNumber": "550000137",
    "licenseEffectiveDate": "12/06/2024",
    "licenseExpirationDate": "12/05/2025",
    "dataDate": "10/18/2025",
    "capacity": 0,
    "address": "1050 E ALMOND AVE",
    "city": "MADERA",
    "zip": "93637",
    "county": "MADERA",
    "phone": null,
    "lat": 36.94520301,
    "lng": -120.046615
  },
  {
    "id": "630019698",
    "name": "CAMARENA HEALTH I STREET",
    "npi": null,
    "hcaiId": null,
    "businessName": "CAMARENA HEALTH",
    "contactEmail": null,
    "categoryName": "PRIMARY CARE CLINIC",
    "categoryCode": "COMTYC",
    "licenseStatus": "ACTIVE",
    "inService": true,
    "licenseNumber": "040000045",
    "licenseEffectiveDate": "11/10/2024",
    "licenseExpirationDate": "11/09/2025",
    "dataDate": "10/18/2025",
    "capacity": 0,
    "address": "509 S I ST, SUITE C",
    "city": "MADERA",
    "zip": "93637",
    "county": "MADERA",
    "phone": null,
    "lat": 36.954756,
    "lng": -120.0586995
  },
  {
    "id": "630016934",
    "name": "CAMARENA HEALTH URGENT CARE",
    "npi": null,
    "hcaiId": null,
    "businessName": "CAMARENA HEALTH",
    "contactEmail": null,
    "categoryName": "PRIMARY CARE CLINIC",
    "categoryCode": "COMTYC",
    "licenseStatus": "ACTIVE",
    "inService": true,
    "licenseNumber": "040000045",
    "licenseEffectiveDate": "11/10/2024",
    "licenseExpirationDate": "11/09/2025",
    "dataDate": "10/18/2025",
    "capacity": 0,
    "address": "720 E ALMOND AVE",
    "city": "MADERA",
    "zip": "93637",
    "county": "MADERA",
    "phone": null,
    "lat": 36.945189,
    "lng": -120.0496815
  },
  {
    "id": "630018845",
    "name": "CAMARENA HEALTH- CLEVELAND AVENUE",
    "npi": null,
    "hcaiId": null,
    "businessName": "CAMARENA HEALTH",
    "contactEmail": null,
    "categoryName": "PRIMARY CARE CLINIC",
    "categoryCode": "COMTYC",
    "licenseStatus": "ACTIVE",
    "inService": true,
    "licenseNumber": "040000045",
    "licenseEffectiveDate": "11/10/2024",
    "licenseExpirationDate": "11/09/2025",
    "dataDate": "10/18/2025",
    "capacity": 0,
    "address": "2339 W CLEVELAND AVE, SUITE 103",
    "city": "MADERA",
    "zip": "93637",
    "county": "MADERA",
    "phone": null,
    "lat": 36.975042,
    "lng": -120.085731
  },
  {
    "id": "040000826",
    "name": "MADERA AMBULATORY ENDOSCOPY CENTER",
    "npi": "1629135843",
    "hcaiId": "306204021",
    "businessName": null,
    "contactEmail": "CGADOCS@HOTMAIL.COM",
    "categoryName": "SURGICAL CLINIC",
    "categoryCode": "ASC",
    "licenseStatus": "INACTIVE - CAPEN DECISION",
    "inService": false,
    "licenseNumber": "040000337",
    "licenseEffectiveDate": "06/01/2007",
    "licenseExpirationDate": "05/31/2008",
    "dataDate": "10/18/2025",
    "capacity": 0,
    "address": "451 E ALMOND AVE, SUITE 105",
    "city": "MADERA",
    "zip": "93637",
    "county": "MADERA",
    "phone": "(559) 673-4000",
    "lat": 36.947466,
    "lng": -120.051972
  },
  {
    "id": "040000073",
    "name": "MADERA CARE CENTER",
    "npi": "1730173725",
    "hcaiId": "206200831",
    "businessName": "MADERA POST ACUTE LLC",
    "contactEmail": "ASOLL@EVERGREENHCG.COM",
    "categoryName": "SKILLED NURSING FACILITY",
    "categoryCode": "SNF",
    "licenseStatus": "ACTIVE",
    "inService": true,
    "licenseNumber": "040000166",
    "licenseEffectiveDate": "11/04/2025",
    "licenseExpirationDate": "11/30/2025",
    "dataDate": "10/18/2025",
    "capacity": 64,
    "address": "1700 HOWARD RD",
    "city": "MADERA",
    "zip": "93637",
    "county": "MADERA",
    "phone": "(559) 673-9278",
    "lat": 36.951723,
    "lng": -120.07773
  },
  {
    "id": "040000111",
    "name": "MADERA COMMUNITY HOSPITAL",
    "npi": "1669673646",
    "hcaiId": "106201281",
    "businessName": "MADERA COMMUNITY HOSPITAL",
    "contactEmail": "KPAOLINELLI@MADERAHOSPITAL.ORG",
    "categoryName": "GENERAL ACUTE CARE HOSPITAL",
    "categoryCode": "GACH",
    "licenseStatus": "ACTIVE",
    "inService": false,
    "licenseNumber": "040000191",
    "licenseEffectiveDate": "10/10/2025",
    "licenseExpirationDate": "05/26/2026",
    "dataDate": "10/18/2025",
    "capacity": 103,
    "address": "1250 E ALMOND AVE",
    "city": "MADERA",
    "zip": "93637",
    "county": "MADERA",
    "phone": "(559) 706-8226",
    "lat": 36.944811,
    "lng": -120.043692
  },
  {
    "id": "630028557",
    "name": "MADERA FAMILY HEALTH SERVICES",
    "npi": null,
    "hcaiId": null,
    "businessName": "MADERA COMMUNITY HOSPITAL",
    "contactEmail": null,
    "categoryName": "PRIMARY CARE CLINIC",
    "categoryCode": "RHC/OP",
    "licenseStatus": "ACTIVE",
    "inService": true,
    "licenseNumber": "040000191",
    "licenseEffectiveDate": "10/10/2025",
    "licenseExpirationDate": "05/26/2026",
    "dataDate": "10/18/2025",
    "capacity": 0,
    "address": "1210 E ALMOND AVE, SUITE A&B",
    "city": "MADERA",
    "zip": "93637",
    "county": "MADERA",
    "phone": null,
    "lat": 36.94446,
    "lng": -120.045888
  },
  {
    "id": "630017708",
    "name": "MADERA SOUTH HIGH SCHOOL: SBHC",
    "npi": null,
    "hcaiId": "306200358",
    "businessName": "CAMARENA HEALTH",
    "contactEmail": "NMOSQUEDA@CAMARENAHEALTH.ORG",
    "categoryName": "PRIMARY CARE CLINIC",
    "categoryCode": "COMTYC",
    "licenseStatus": "ACTIVE",
    "inService": true,
    "licenseNumber": "550004158",
    "licenseEffectiveDate": "03/06/2025",
    "licenseExpirationDate": "03/05/2026",
    "dataDate": "10/18/2025",
    "capacity": 0,
    "address": "705 W PECAN AVE",
    "city": "MADERA",
    "zip": "93637",
    "county": "MADERA",
    "phone": "(559) 664-4339",
    "lat": 36.93842391,
    "lng": -120.0572069
  },
  {
    "id": "630014121",
    "name": "NORTH MADERA DIALYSIS",
    "npi": "1649514654",
    "hcaiId": "306204030",
    "businessName": "CLEAREE DIALYSIS, LLC",
    "contactEmail": "CAL_C@DAVITA.COM",
    "categoryName": "CHRONIC DIALYSIS CLINIC",
    "categoryCode": "ESRD/CDC",
    "licenseStatus": "ACTIVE",
    "inService": true,
    "licenseNumber": "550002353",
    "licenseEffectiveDate": "07/24/2025",
    "licenseExpirationDate": "07/23/2026",
    "dataDate": "10/18/2025",
    "capacity": 20,
    "address": "720 N I ST",
    "city": "MADERA",
    "zip": "93637",
    "county": "MADERA",
    "phone": "(559) 664-8780",
    "lat": 36.964737,
    "lng": -120.0694995
  },
  {
    "id": "630021796",
    "name": "ONE GOOD HOMEHEALTH INC.",
    "npi": null,
    "hcaiId": "406205502",
    "businessName": "ONE GOOD HOMEHEALTH INC.",
    "contactEmail": "ONEGOODHH@GMAIL.COM",
    "categoryName": "HOME HEALTH AGENCY",
    "categoryCode": "HHA",
    "licenseStatus": "ACTIVE",
    "inService": true,
    "licenseNumber": "550007810",
    "licenseEffectiveDate": "01/25/2025",
    "licenseExpirationDate": "01/24/2026",
    "dataDate": "10/18/2025",
    "capacity": 0,
    "address": "401 W OLIVE AVE, SUITE 7",
    "city": "MADERA",
    "zip": "93637",
    "county": "MADERA",
    "phone": "(818) 987-1096",
    "lat": 36.95307998,
    "lng": -120.060447
  },
  {
    "id": "630021789",
    "name": "ONE GOOD HOSPICE INC.",
    "npi": null,
    "hcaiId": "406203677",
    "businessName": "ONE GOOD HOSPICE INC.",
    "contactEmail": "ONEGOODHOSPI@GMAIL.COM",
    "categoryName": "HOSPICE",
    "categoryCode": "HOSPICE",
    "licenseStatus": "ACTIVE",
    "inService": true,
    "licenseNumber": "550006864",
    "licenseEffectiveDate": "10/01/2025",
    "licenseExpirationDate": "09/30/2027",
    "dataDate": "10/18/2025",
    "capacity": 0,
    "address": "401 W OLIVE AVE, SUITE 5",
    "city": "MADERA",
    "zip": "93637",
    "county": "MADERA",
    "phone": "(559) 481-4668",
    "lat": 36.95307998,
    "lng": -120.060447
  },
  {
    "id": "040000954",
    "name": "OUR HOUSE BERRY",
    "npi": "1700941267",
    "hcaiId": null,
    "businessName": "OUR HOUSE RESIDENTIAL CARE, INC.",
    "contactEmail": "DANA@OHRCSTAR.COM",
    "categoryName": "INTERMEDIATE CARE FACILITY-DD/H/N/CN/IID",
    "categoryCode": "ICFDDN",
    "licenseStatus": "ACTIVE",
    "inService": false,
    "licenseNumber": "040000396",
    "licenseEffectiveDate": "11/13/2024",
    "licenseExpirationDate": "11/12/2025",
    "dataDate": "10/18/2025",
    "capacity": 6,
    "address": "100 BERRY DR",
    "city": "MADERA",
    "zip": "93637",
    "county": "MADERA",
    "phone": "(559) 673-0819",
    "lat": 36.953109,
    "lng": -120.0947715
  },
  {
    "id": "040000956",
    "name": "OUR HOUSE SHANNON",
    "npi": "1467517912",
    "hcaiId": null,
    "businessName": "OUR HOUSE RESIDENTIAL CARE, INC.",
    "contactEmail": "DANA@OHRCSTAR.COM",
    "categoryName": "INTERMEDIATE CARE FACILITY-DD/H/N/CN/IID",
    "categoryCode": "ICFDDN",
    "licenseStatus": "ACTIVE",
    "inService": true,
    "licenseNumber": "040000393",
    "licenseEffectiveDate": "11/13/2024",
    "licenseExpirationDate": "11/12/2025",
    "dataDate": "10/18/2025",
    "capacity": 6,
    "address": "525 SHANNON AVE",
    "city": "MADERA",
    "zip": "93637",
    "county": "MADERA",
    "phone": "(559) 661-0426",
    "lat": 36.959832,
    "lng": -120.085812
  },
  {
    "id": "040000834",
    "name": "OUR HOUSE SUNSET",
    "npi": "1306901855",
    "hcaiId": null,
    "businessName": "OUR HOUSE RESIDENTIAL CARE, INC.",
    "contactEmail": "DANA@OHRCSTAR.COM",
    "categoryName": "INTERMEDIATE CARE FACILITY-DD/H/N/CN/IID",
    "categoryCode": "ICFDDN",
    "licenseStatus": "ACTIVE",
    "inService": true,
    "licenseNumber": "040000342",
    "licenseEffectiveDate": "11/13/2024",
    "licenseExpirationDate": "11/12/2025",
    "dataDate": "10/18/2025",
    "capacity": 6,
    "address": "405 SHANNON AVE",
    "city": "MADERA",
    "zip": "93637",
    "county": "MADERA",
    "phone": "(559) 674-2239",
    "lat": 36.956889,
    "lng": -120.086298
  },
  {
    "id": "040001408",
    "name": "OUR HOUSE WESTBERRY",
    "npi": "1881759348",
    "hcaiId": null,
    "businessName": "OUR HOUSE RESIDENTIAL CARE, INC.",
    "contactEmail": "DANA@OHRCSTAR.COM",
    "categoryName": "INTERMEDIATE CARE FACILITY-DD/H/N/CN/IID",
    "categoryCode": "ICFDDN",
    "licenseStatus": "ACTIVE",
    "inService": true,
    "licenseNumber": "040000556",
    "licenseEffectiveDate": "11/13/2024",
    "licenseExpirationDate": "11/12/2025",
    "dataDate": "10/18/2025",
    "capacity": 6,
    "address": "2701 WESTGATE DR",
    "city": "MADERA",
    "zip": "93637",
    "county": "MADERA",
    "phone": "(559) 673-1566",
    "lat": 36.956259,
    "lng": -120.093282
  },
  {
    "id": "040000782",
    "name": "OUR HOUSE WILLIAMS",
    "npi": "1346305893",
    "hcaiId": null,
    "businessName": "OUR HOUSE RESIDENTIAL CARE, INC.",
    "contactEmail": "DANA@OHRCSTAR.COM",
    "categoryName": "INTERMEDIATE CARE FACILITY-DD/H/N/CN/IID",
    "categoryCode": "ICFDDN",
    "licenseStatus": "ACTIVE",
    "inService": true,
    "licenseNumber": "040000320",
    "licenseEffectiveDate": "11/13/2024",
    "licenseExpirationDate": "11/12/2025",
    "dataDate": "10/18/2025",
    "capacity": 6,
    "address": "501 WILLIAMS AVE",
    "city": "MADERA",
    "zip": "93637",
    "county": "MADERA",
    "phone": "(559) 674-6456",
    "lat": 36.958383,
    "lng": -120.0786705
  },
  {
    "id": "040000202",
    "name": "PLANNED PARENTHOOD MAR MONTE - MADERA HEALTH CENTER",
    "npi": null,
    "hcaiId": "306200087",
    "businessName": "PLANNED PARENTHOOD MAR MONTE, INC.",
    "contactEmail": "SERVICES_ADMIN@PPMARMONTE.ORG",
    "categoryName": "PRIMARY CARE CLINIC",
    "categoryCode": "COMTYC",
    "licenseStatus": "ACTIVE",
    "inService": true,
    "licenseNumber": "040000067",
    "licenseEffectiveDate": "06/21/2025",
    "licenseExpirationDate": "06/20/2026",
    "dataDate": "10/18/2025",
    "capacity": 0,
    "address": "500 E ALMOND AVE, SUITE 1",
    "city": "MADERA",
    "zip": "93637",
    "county": "MADERA",
    "phone": "(408) 799-6574",
    "lat": 36.945189,
    "lng": -120.051279
  },
  {
    "id": "630026848",
    "name": "SEVA HOME HEALTH-BRANCH",
    "npi": null,
    "hcaiId": null,
    "businessName": "SEVA HOME HEALTH",
    "contactEmail": "ADHILLON@SEVACARES.COM",
    "categoryName": "HOME HEALTH AGENCY",
    "categoryCode": "HHA",
    "licenseStatus": "ACTIVE",
    "inService": true,
    "licenseNumber": "550002405",
    "licenseEffectiveDate": "09/19/2025",
    "licenseExpirationDate": "09/18/2026",
    "dataDate": "10/18/2025",
    "capacity": 0,
    "address": "363 E ALMOND AVE, SUITE 101B",
    "city": "MADERA",
    "zip": "93637",
    "county": "MADERA",
    "phone": "(559) 853-4585",
    "lat": 36.94559769,
    "lng": -120.052725
  },
  {
    "id": "630027189",
    "name": "SEVA HOSPICE - MULTIPLE LOCATION",
    "npi": null,
    "hcaiId": "406200020",
    "businessName": "SEVA HOSPICE INC.",
    "contactEmail": "SDHILLON@SEVAHOSPICE.COM",
    "categoryName": "HOSPICE",
    "categoryCode": "HOSPICE",
    "licenseStatus": "ACTIVE",
    "inService": true,
    "licenseNumber": "550003563",
    "licenseEffectiveDate": "06/23/2024",
    "licenseExpirationDate": "06/22/2026",
    "dataDate": "10/18/2025",
    "capacity": 0,
    "address": "363 E ALMOND AVE, SUITE 101A",
    "city": "MADERA",
    "zip": "93637",
    "county": "MADERA",
    "phone": "(209) 848-9488",
    "lat": 36.945935,
    "lng": -120.053118
  }
]