[
  {
    "id": "630017904",
    "name": "APEX ANNEX HEALTH CENTER, INC.",
    "npi": null,
    "hcaiId": null,
    "businessName": null,
    "contactEmail": "DEBBIEP@APEXMEDICALGROUP.ORG",
    "categoryName": "PRIMARY CARE CLINIC",
    "categoryCode": "RHC",
    "licenseStatus": null,
    "inService": null,
    "licenseNumber": null,
    "licenseEffectiveDate": null,
    "licenseExpirationDate": null,
    "dataDate": "10/18/2025",
    "capacity": 0,
    "address": "400 WI ST",
    "city": "LOS BANOS",
    "zip": "93635",
    "county": "MERCED",
    "phone": "(209) 827-9999",
    "lat": 37.063476,
    "lng": -120.858082
  },
  {
    "id": "630002141",
    "name": "APEX MEDICAL GROUP, INC.",
    "npi": "1518089507",
    "hcaiId": null,
    "businessName": null,
    "contactEmail": null,
    "categoryName": "PRIMARY CARE CLINIC",
    "categoryCode": "RHC/MD",
    "licenseStatus": null,
    "inService": null,
    "licenseNumber": null,
    "licenseEffectiveDate": null,
    "licenseExpirationDate": null,
    "dataDate": "10/18/2025",
    "capacity": 0,
    "address": "311 W I ST",
    "city": "LOS BANOS",
    "zip": "93635",
    "county": "MERCED",
    "phone": "(209) 826-2222",
    "lat": 37.063116,
    "lng": -120.857022
  },
  {
    "id": "630028217",
    "name": "CAMARENA HEALTH-LOS BANOS",
    "npi": null,
    "hcaiId": null,
    "businessName": "CAMARENA HEALTH",
    "contactEmail": null,
    "categoryName": "PRIMARY CARE CLINIC",
    "categoryCode": "COMTYC",
    "licenseStatus": "ACTIVE",
    "inService": true,
    "licenseNumber": "550009835",
    "licenseEffectiveDate": "06/05/2025",
    "licenseExpirationDate": "06/04/2026",
    "dataDate": "10/18/2025",
    "capacity": 0,
    "address": "2520 E PACHECO BLVD",
    "city": "LOS BANOS",
    "zip": "93635",
    "county": "MERCED",
    "phone": null,
    "lat": 37.05702573,
    "lng": -120.8160458
  },
  {
    "id": "630012542",
    "name": "FAMILY HEALTH MEDICAL CENTER",
    "npi": "1841525862",
    "hcaiId": null,
    "businessName": null,
    "contactEmail": null,
    "categoryName": "PRIMARY CARE CLINIC",
    "categoryCode": "RHC",
    "licenseStatus": null,
    "inService": null,
    "licenseNumber": null,
    "licenseEffectiveDate": null,
    "licenseExpirationDate": null,
    "dataDate": "10/18/2025",
    "capacity": 0,
    "address": "1045 5TH ST",
    "city": "LOS BANOS",
    "zip": "93635",
    "county": "MERCED",
    "phone": "(559) 665-0275",
    "lat": 37.06002,
    "lng": -120.8507085
  },
  {
    "id": "040000192",
    "name": "GOLDEN VALLEY HEALTH CENTER - LOS BANOS",
    "npi": null,
    "hcaiId": "306242279",
    "businessName": "GOLDEN VALLEY HEALTH CENTERS",
    "contactEmail": "EVILLARAMA@GVHC.ORG",
    "categoryName": "PRIMARY CARE CLINIC",
    "categoryCode": "COMTYC",
    "licenseStatus": "ACTIVE",
    "inService": true,
    "licenseNumber": "040000215",
    "licenseEffectiveDate": "03/31/2025",
    "licenseExpirationDate": "03/30/2026",
    "dataDate": "10/18/2025",
    "capacity": 0,
    "address": "821 TEXAS AVE",
    "city": "LOS BANOS",
    "zip": "93635",
    "county": "MERCED",
    "phone": "(209) 385-5554",
    "lat": 37.063809,
    "lng": -120.8609505
  },
  {
    "id": "040001404",
    "name": "GOLDEN VALLEY HEALTH CENTERS",
    "npi": null,
    "hcaiId": "306244037",
    "businessName": "GOLDEN VALLEY HEALTH CENTERS",
    "contactEmail": "EVILLARAMA@GVHC.ORG",
    "categoryName": "PRIMARY CARE CLINIC",
    "categoryCode": "COMTYC",
    "licenseStatus": "ACTIVE",
    "inService": true,
    "licenseNumber": "040000180",
    "licenseEffectiveDate": "11/01/2025",
    "licenseExpirationDate": "10/31/2026",
    "dataDate": "10/18/2025",
    "capacity": 0,
    "address": "725 W I ST",
    "city": "LOS BANOS",
    "zip": "93635",
    "county": "MERCED",
    "phone": "(209) 385-5554",
    "lat": 37.062441,
    "lng": -120.861711
  },
  {
    "id": "240001800",
    "name": "LOS BANOS DIALYSIS",
    "npi": "1134193006",
    "hcaiId": "306244056",
    "businessName": "DVA HEALTHCARE RENAL CARE, INC.",
    "contactEmail": "CAL_C@DAVITA.COM",
    "categoryName": "CHRONIC DIALYSIS CLINIC",
    "categoryCode": "ESRD/CDC",
    "licenseStatus": "ACTIVE",
    "inService": true,
    "licenseNumber": "240000794",
    "licenseEffectiveDate": "11/01/2025",
    "licenseExpirationDate": "10/31/2026",
    "dataDate": "10/18/2025",
    "capacity": 24,
    "address": "60 W G ST, BUILDING 5",
    "city": "LOS BANOS",
    "zip": "93635",
    "county": "MERCED",
    "phone": "(209) 826-2787",
    "lat": 37.06722,
    "lng": -120.855159
  },
  {
    "id": "040000031",
    "name": "LOS BANOS POST ACUTE",
    "npi": "1477615797",
    "hcaiId": "206241879",
    "businessName": "NAPILI BAY LLC",
    "contactEmail": "BSWEENEY@KALESTAHC.COM",
    "categoryName": "SKILLED NURSING FACILITY",
    "categoryCode": "SNF",
    "licenseStatus": "ACTIVE",
    "inService": true,
    "licenseNumber": "040000202",
    "licenseEffectiveDate": "03/28/2025",
    "licenseExpirationDate": "03/27/2026",
    "dataDate": "10/18/2025",
    "capacity": 59,
    "address": "931 IDAHO AVE",
    "city": "LOS BANOS",
    "zip": "93635",
    "county": "MERCED",
    "phone": "(916) 879-6560",
    "lat": 37.062459,
    "lng": -120.860604
  },
  {
    "id": "630019235",
    "name": "LOS BANOS PRIMARY CARE, INC.",
    "npi": null,
    "hcaiId": null,
    "businessName": null,
    "contactEmail": null,
    "categoryName": "PRIMARY CARE CLINIC",
    "categoryCode": "RHC/MD",
    "licenseStatus": null,
    "inService": null,
    "licenseNumber": null,
    "licenseEffectiveDate": null,
    "licenseExpirationDate": null,
    "dataDate": "10/18/2025",
    "capacity": 0,
    "address": "1120 W I ST, SUITE B",
    "city": "LOS BANOS",
    "zip": "93635",
    "county": "MERCED",
    "phone": "(209) 500-4500",
    "lat": 37.060533,
    "lng": -120.863133
  },
  {
    "id": "040000110",
    "name": "MEMORIAL HOSPITAL LOS BANOS",
    "npi": "1366896300",
    "hcaiId": "106240924",
    "businessName": "SUTTER VALLEY HOSPITALS",
    "contactEmail": "KRISTIE.MARION@SUTTERHEALTH.ORG",
    "categoryName": "GENERAL ACUTE CARE HOSPITAL",
    "categoryCode": "GACH",
    "licenseStatus": "ACTIVE",
    "inService": true,
    "licenseNumber": "040000177",
    "licenseEffectiveDate": "05/01/2025",
    "licenseExpirationDate": "04/30/2026",
    "dataDate": "10/18/2025",
    "capacity": 38,
    "address": "520 W I ST",
    "city": "LOS BANOS",
    "zip": "93635",
    "county": "MERCED",
    "phone": "(209) 826-0591",
    "lat": 37.064061,
    "lng": -120.8595015
  },
  {
    "id": "040000952",
    "name": "MEMORIAL HOSPITAL LOS BANOS RURAL HEALTH CLINIC",
    "npi": "1487017471",
    "hcaiId": null,
    "businessName": "SUTTER VALLEY HOSPITALS",
    "contactEmail": null,
    "categoryName": "PRIMARY CARE CLINIC",
    "categoryCode": "RHC/OP",
    "licenseStatus": "ACTIVE",
    "inService": true,
    "licenseNumber": "040000177",
    "licenseEffectiveDate": "05/01/2025",
    "licenseExpirationDate": "04/30/2026",
    "dataDate": "10/18/2025",
    "capacity": 0,
    "address": "1253 WI ST",
    "city": "LOS BANOS",
    "zip": "93635",
    "county": "MERCED",
    "phone": "(209) 710-6333",
    "lat": 37.05919,
    "lng": -120.864901
  },
  {
    "id": "040001259",
    "name": "NEW BETHANY",
    "npi": "1083602304",
    "hcaiId": "206244031",
    "businessName": "FRANCISCAN HOSPITALLER SISTERS OF THE I.C.",
    "contactEmail": "LUCIF@NEWBETHANYCONFHIC.ORG",
    "categoryName": "SKILLED NURSING FACILITY",
    "categoryCode": "SNF",
    "licenseStatus": "ACTIVE",
    "inService": true,
    "licenseNumber": "040000489",
    "licenseEffectiveDate": "06/22/2025",
    "licenseExpirationDate": "06/21/2026",
    "dataDate": "10/18/2025",
    "capacity": 35,
    "address": "1441 BERKELEY DR",
    "city": "LOS BANOS",
    "zip": "93635",
    "county": "MERCED",
    "phone": "(209) 827-8949",
    "lat": 37.046781,
    "lng": -120.834576
  },
  {
    "id": "630016494",
    "name": "PACHECO DIALYSIS",
    "npi": "1518341171",
    "hcaiId": "306244060",
    "businessName": "CROFT DIALYSIS, LLC",
    "contactEmail": "CAL_C@DAVITA.COM",
    "categoryName": "CHRONIC DIALYSIS CLINIC",
    "categoryCode": "ESRD/CDC",
    "licenseStatus": "ACTIVE",
    "inService": true,
    "licenseNumber": "550003516",
    "licenseEffectiveDate": "05/16/2025",
    "licenseExpirationDate": "05/15/2026",
    "dataDate": "10/18/2025",
    "capacity": 24,
    "address": "1245 W PACHECO BLVD",
    "city": "LOS BANOS",
    "zip": "93635",
    "county": "MERCED",
    "phone": "(209) 827-3934",
    "lat": 37.055214,
    "lng": -120.871242
  },
  {
    "id": "630027417",
    "name": "U.S. RENAL CARE LOS BANOS HOME PROGRAM",
    "npi": "1972287605",
    "hcaiId": null,
    "businessName": null,
    "contactEmail": "LEGAL@USRENALCARE.COM",
    "categoryName": "CHRONIC DIALYSIS CLINIC",
    "categoryCode": "ESRD",
    "licenseStatus": null,
    "inService": null,
    "licenseNumber": null,
    "licenseEffectiveDate": null,
    "licenseExpirationDate": null,
    "dataDate": "10/18/2025",
    "capacity": 0,
    "address": "1451 W PACHECO BLVD, SUITE G",
    "city": "LOS BANOS",
    "zip": "93635",
    "county": "MERCED",
    "phone": "(214) 736-2700",
    "lat": 37.05550801,
    "lng": -120.876962
  }
]