[
  {
    "id": "630015340",
    "name": "ADVENTIST HEALTH REEDLEY",
    "npi": null,
    "hcaiId": null,
    "businessName": "REEDLEY COMMUNITY HOSPITAL",
    "contactEmail": null,
    "categoryName": "PRIMARY CARE CLINIC",
    "categoryCode": "RHC/OP",
    "licenseStatus": "ACTIVE",
    "inService": true,
    "licenseNumber": "040000149",
    "licenseEffectiveDate": "11/09/2024",
    "licenseExpirationDate": "11/08/2025",
    "dataDate": "10/18/2025",
    "capacity": 0,
    "address": "48677 VICTORIA LN",
    "city": "OAKHURST",
    "zip": "93644",
    "county": "MADERA",
    "phone": null,
    "lat": 37.328103,
    "lng": -119.6594595
  },
  {
    "id": "630019215",
    "name": "CAMARENA HEALTH - OAKHURST URGENT CARE",
    "npi": null,
    "hcaiId": "306200531",
    "businessName": "CAMARENA HEALTH",
    "contactEmail": "NMOSQUEDA@CAMARENAHEALTH.ORG",
    "categoryName": "PRIMARY CARE CLINIC",
    "categoryCode": "COMTYC",
    "licenseStatus": "ACTIVE",
    "inService": true,
    "licenseNumber": "550005233",
    "licenseEffectiveDate": "01/27/2025",
    "licenseExpirationDate": "01/26/2026",
    "dataDate": "10/18/2025",
    "capacity": 0,
    "address": "49165 ROAD 426",
    "city": "OAKHURST",
    "zip": "93644",
    "county": "MADERA",
    "phone": "(559) 664-4339",
    "lat": 37.330254,
    "lng": -119.6501085
  },
  {
    "id": "630016933",
    "name": "CAMARENA HEALTH OAKHURST DENTAL",
    "npi": "1891778114",
    "hcaiId": null,
    "businessName": "CAMARENA HEALTH",
    "contactEmail": null,
    "categoryName": "PRIMARY CARE CLINIC",
    "categoryCode": "COMTYC",
    "licenseStatus": "ACTIVE",
    "inService": true,
    "licenseNumber": "040000045",
    "licenseEffectiveDate": "11/10/2024",
    "licenseExpirationDate": "11/09/2025",
    "dataDate": "10/18/2025",
    "capacity": 0,
    "address": "49127 ROAD 426, SUITE 1",
    "city": "OAKHURST",
    "zip": "93644",
    "county": "MADERA",
    "phone": null,
    "lat": 37.330686,
    "lng": -119.6500185
  },
  {
    "id": "630014043",
    "name": "CAMARENA HEALTH OAKHURST HEALTH CENTER",
    "npi": "1437407582",
    "hcaiId": "306204031",
    "businessName": "CAMARENA HEALTH",
    "contactEmail": "NMOSQUEDA@CAMARENAHEALTH.ORG",
    "categoryName": "PRIMARY CARE CLINIC",
    "categoryCode": "COMTYC",
    "licenseStatus": "ACTIVE",
    "inService": true,
    "licenseNumber": "550004158",
    "licenseEffectiveDate": "03/06/2025",
    "licenseExpirationDate": "03/05/2026",
    "dataDate": "10/18/2025",
    "capacity": 0,
    "address": "49169 ROAD 426",
    "city": "OAKHURST",
    "zip": "93644",
    "county": "MADERA",
    "phone": "(559) 664-4339",
    "lat": 37.33024765,
    "lng": -119.6505028
  },
  {
    "id": "040000992",
    "name": "COMMUNITY MEDICAL CENTER - OAKHURST",
    "npi": null,
    "hcaiId": null,
    "businessName": null,
    "contactEmail": null,
    "categoryName": "PRIMARY CARE CLINIC",
    "categoryCode": "RHC/OP",
    "licenseStatus": null,
    "inService": null,
    "licenseNumber": null,
    "licenseEffectiveDate": null,
    "licenseExpirationDate": null,
    "dataDate": "10/18/2025",
    "capacity": 0,
    "address": "48677 VICTORIA LN",
    "city": "OAKHURST",
    "zip": "93644",
    "county": "MADERA",
    "phone": "(559) 683-2992",
    "lat": 37.328103,
    "lng": -119.6594595
  },
  {
    "id": "040000058",
    "name": "MAJESTIC MOUNTAIN CARE CENTER",
    "npi": "1578701942",
    "hcaiId": "206201802",
    "businessName": "OAKHURST SKILLED CARE LLC",
    "contactEmail": "SCOTT@BAYSHIRE.COM",
    "categoryName": "SKILLED NURSING FACILITY",
    "categoryCode": "SNF",
    "licenseStatus": "ACTIVE",
    "inService": true,
    "licenseNumber": "040000198",
    "licenseEffectiveDate": "06/11/2025",
    "licenseExpirationDate": "06/10/2026",
    "dataDate": "10/18/2025",
    "capacity": 66,
    "address": "40131 HIGHWAY 49",
    "city": "OAKHURST",
    "zip": "93644",
    "county": "MADERA",
    "phone": "(559) 683-2244",
    "lat": 37.33501905,
    "lng": -119.6617393
  }
]