[
  {
    "id": "630014610",
    "name": "ADVENTIST HEALTH REEDLEY",
    "npi": "1427497866",
    "hcaiId": null,
    "businessName": "REEDLEY COMMUNITY HOSPITAL",
    "contactEmail": "BORGES1M@AH.ORG",
    "categoryName": "PRIMARY CARE CLINIC",
    "categoryCode": "RHC/OP",
    "licenseStatus": "ACTIVE",
    "inService": true,
    "licenseNumber": "040000149",
    "licenseEffectiveDate": "11/09/2024",
    "licenseExpirationDate": "11/08/2025",
    "dataDate": "10/18/2025",
    "capacity": 0,
    "address": "41696 ROAD 128",
    "city": "OROSI",
    "zip": "93647",
    "county": "TULARE",
    "phone": "(559) 528-6966",
    "lat": 36.54685355,
    "lng": -119.2868809
  },
  {
    "id": "630016836",
    "name": "EAST VALLEY FAMILY HEALTHCARE, INC.",
    "npi": null,
    "hcaiId": null,
    "businessName": null,
    "contactEmail": "OROSIFMC@GMAIL.COM",
    "categoryName": "PRIMARY CARE CLINIC",
    "categoryCode": "RHC",
    "licenseStatus": null,
    "inService": null,
    "licenseNumber": null,
    "licenseEffectiveDate": null,
    "licenseExpirationDate": null,
    "dataDate": "10/18/2025",
    "capacity": 0,
    "address": "12683 AVENUE 416",
    "city": "OROSI",
    "zip": "93647",
    "county": "TULARE",
    "phone": "(559) 528-4717",
    "lat": 36.544554,
    "lng": -119.289627
  },
  {
    "id": "120001568",
    "name": "FAMILY HEALTHCARE NETWORK",
    "npi": "1912093451",
    "hcaiId": "306544061",
    "businessName": "FAMILY HEALTHCARE NETWORK",
    "contactEmail": "RISKMANAGEMENT@FHCN.ORG",
    "categoryName": "PRIMARY CARE CLINIC",
    "categoryCode": "COMTYC",
    "licenseStatus": "ACTIVE",
    "inService": true,
    "licenseNumber": "120000651",
    "licenseEffectiveDate": "11/01/2025",
    "licenseExpirationDate": "10/31/2026",
    "dataDate": "10/18/2025",
    "capacity": 0,
    "address": "12586 AVENUE 408",
    "city": "OROSI",
    "zip": "93647",
    "county": "TULARE",
    "phone": "(559) 737-4294",
    "lat": 36.530568,
    "lng": -119.291238
  },
  {
    "id": "630013005",
    "name": "GREEN VALLEY MEDICAL CLINIC",
    "npi": "1598072662",
    "hcaiId": null,
    "businessName": null,
    "contactEmail": "AUGRACEMD@AOL.COM",
    "categoryName": "PRIMARY CARE CLINIC",
    "categoryCode": "RHC",
    "licenseStatus": null,
    "inService": null,
    "licenseNumber": null,
    "licenseEffectiveDate": null,
    "licenseExpirationDate": null,
    "dataDate": "10/18/2025",
    "capacity": 0,
    "address": "41689 ROAD 128",
    "city": "OROSI",
    "zip": "93647",
    "county": "TULARE",
    "phone": "(559) 528-1777",
    "lat": 36.546768,
    "lng": -119.2872285
  },
  {
    "id": "120001554",
    "name": "OROSI FAMILY MEDICAL CARE",
    "npi": "1588725972",
    "hcaiId": "306544054",
    "businessName": "SAN JOAQUIN FAMILY HEALTHCARE ASSOCIATION INC.",
    "contactEmail": "OROSIFMC@GMAIL.COM",
    "categoryName": "PRIMARY CARE CLINIC",
    "categoryCode": "COMTYC",
    "licenseStatus": "ACTIVE",
    "inService": true,
    "licenseNumber": "120000641",
    "licenseEffectiveDate": "06/10/2025",
    "licenseExpirationDate": "06/09/2026",
    "dataDate": "10/18/2025",
    "capacity": 0,
    "address": "12683 AVENUE 416",
    "city": "OROSI",
    "zip": "93647",
    "county": "TULARE",
    "phone": "(559) 528-4717",
    "lat": 36.544554,
    "lng": -119.289627
  },
  {
    "id": "120001636",
    "name": "OROSI RURAL HEALTH",
    "npi": "1306506530",
    "hcaiId": null,
    "businessName": null,
    "contactEmail": "DR.KALEKA@GMAIL.COM",
    "categoryName": "PRIMARY CARE CLINIC",
    "categoryCode": "RHC/MD",
    "licenseStatus": null,
    "inService": null,
    "licenseNumber": null,
    "licenseEffectiveDate": null,
    "licenseExpirationDate": null,
    "dataDate": "10/18/2025",
    "capacity": 0,
    "address": "12572 AVENUE 416",
    "city": "OROSI",
    "zip": "93647",
    "county": "TULARE",
    "phone": "(909) 996-3341",
    "lat": 36.54487531,
    "lng": -119.2919866
  }
]