[
  {
    "id": "630011057",
    "name": "ADVENTIST HEALTH REEDLEY",
    "npi": "1235154006",
    "hcaiId": null,
    "businessName": "REEDLEY COMMUNITY HOSPITAL",
    "contactEmail": null,
    "categoryName": "PRIMARY CARE CLINIC",
    "categoryCode": "RHC/OP",
    "licenseStatus": "ACTIVE",
    "inService": true,
    "licenseNumber": "040000149",
    "licenseEffectiveDate": "11/09/2024",
    "licenseExpirationDate": "11/08/2025",
    "dataDate": "10/18/2025",
    "capacity": 0,
    "address": "1455 PARK BLVD",
    "city": "ORANGE COVE",
    "zip": "93646",
    "county": "FRESNO",
    "phone": "(559) 638-8155",
    "lat": 36.62459649,
    "lng": -119.3225446
  },
  {
    "id": "630024482",
    "name": "ORCHARD MEDICAL CENTER",
    "npi": null,
    "hcaiId": null,
    "businessName": "CENTER FOR FAMILY HEALTH & EDUCATION, INC.",
    "contactEmail": null,
    "categoryName": "PRIMARY CARE CLINIC",
    "categoryCode": "COMTYC",
    "licenseStatus": "ACTIVE",
    "inService": true,
    "licenseNumber": "550005891",
    "licenseEffectiveDate": "04/23/2025",
    "licenseExpirationDate": "12/15/2025",
    "dataDate": "10/18/2025",
    "capacity": 0,
    "address": "555 6TH ST",
    "city": "ORANGE COVE",
    "zip": "93646",
    "county": "FRESNO",
    "phone": "(559) 626-7118",
    "lat": 36.62528564,
    "lng": -119.3124496
  },
  {
    "id": "040000214",
    "name": "UNITED HEALTH CENTERS OF THE SAN JOAQUIN VALLEY",
    "npi": null,
    "hcaiId": "306100771",
    "businessName": "UNITED HEALTH CENTERS OF THE SAN JOAQUIN VALLEY",
    "contactEmail": "CURTISC@UNITEDHEALTHCENTERS.ORG",
    "categoryName": "PRIMARY CARE CLINIC",
    "categoryCode": "COMTYC",
    "licenseStatus": "ACTIVE",
    "inService": true,
    "licenseNumber": "550002830",
    "licenseEffectiveDate": "09/30/2025",
    "licenseExpirationDate": "09/29/2026",
    "dataDate": "10/18/2025",
    "capacity": 0,
    "address": "445 11TH ST",
    "city": "ORANGE COVE",
    "zip": "93646",
    "county": "FRESNO",
    "phone": "(559) 646-6618",
    "lat": 36.626715,
    "lng": -119.3196285
  }
]