[
  {
    "id": "040000902",
    "name": "11TH STREET CLINIC",
    "npi": null,
    "hcaiId": null,
    "businessName": null,
    "contactEmail": null,
    "categoryName": "PRIMARY CARE CLINIC",
    "categoryCode": "RHC/OP",
    "licenseStatus": null,
    "inService": null,
    "licenseNumber": null,
    "licenseEffectiveDate": null,
    "licenseExpirationDate": null,
    "dataDate": "10/18/2025",
    "capacity": 0,
    "address": "1311 11TH ST",
    "city": "REEDLEY",
    "zip": "93654",
    "county": "FRESNO",
    "phone": "(559) 637-8888",
    "lat": 36.599364,
    "lng": -119.447028
  },
  {
    "id": "040000124",
    "name": "ADVENTIST HEALTH REEDLEY",
    "npi": "1336167550",
    "hcaiId": "106100797",
    "businessName": "REEDLEY COMMUNITY HOSPITAL",
    "contactEmail": "SMITHIW@AH.ORG",
    "categoryName": "GENERAL ACUTE CARE HOSPITAL",
    "categoryCode": "GACH",
    "licenseStatus": "ACTIVE",
    "inService": true,
    "licenseNumber": "040000149",
    "licenseEffectiveDate": "11/09/2024",
    "licenseExpirationDate": "11/08/2025",
    "dataDate": "10/18/2025",
    "capacity": 49,
    "address": "372 W CYPRESS AVE",
    "city": "REEDLEY",
    "zip": "93654",
    "county": "FRESNO",
    "phone": "(559) 537-2029",
    "lat": 36.608229,
    "lng": -119.452023
  },
  {
    "id": "040001126",
    "name": "ADVENTIST HEALTH REEDLEY",
    "npi": "1083647036",
    "hcaiId": null,
    "businessName": "REEDLEY COMMUNITY HOSPITAL",
    "contactEmail": null,
    "categoryName": "PRIMARY CARE CLINIC",
    "categoryCode": "RHC/OP",
    "licenseStatus": "ACTIVE",
    "inService": true,
    "licenseNumber": "040000149",
    "licenseEffectiveDate": "11/09/2024",
    "licenseExpirationDate": "11/08/2025",
    "dataDate": "10/18/2025",
    "capacity": 0,
    "address": "1433 N ACACIA AVE",
    "city": "REEDLEY",
    "zip": "93654",
    "county": "FRESNO",
    "phone": "(559) 638-8867",
    "lat": 36.60898735,
    "lng": -119.4510679
  },
  {
    "id": "040001368",
    "name": "ADVENTIST HEALTH REEDLEY",
    "npi": "1326063199",
    "hcaiId": null,
    "businessName": "REEDLEY COMMUNITY HOSPITAL",
    "contactEmail": null,
    "categoryName": "PRIMARY CARE CLINIC",
    "categoryCode": "RHC/OP",
    "licenseStatus": "ACTIVE",
    "inService": true,
    "licenseNumber": "040000149",
    "licenseEffectiveDate": "11/09/2024",
    "licenseExpirationDate": "11/08/2025",
    "dataDate": "10/18/2025",
    "capacity": 0,
    "address": "372 W CYPRESS AVE",
    "city": "REEDLEY",
    "zip": "93654",
    "county": "FRESNO",
    "phone": "(559) 638-8155",
    "lat": 36.608229,
    "lng": -119.452023
  },
  {
    "id": "630011733",
    "name": "ADVENTIST HEALTH REEDLEY",
    "npi": "1598941825",
    "hcaiId": null,
    "businessName": "REEDLEY COMMUNITY HOSPITAL",
    "contactEmail": "BORGESLM@AH.ORG",
    "categoryName": "PRIMARY CARE CLINIC",
    "categoryCode": "RHC/OP",
    "licenseStatus": "ACTIVE",
    "inService": true,
    "licenseNumber": "040000149",
    "licenseEffectiveDate": "11/09/2024",
    "licenseExpirationDate": "11/08/2025",
    "dataDate": "10/18/2025",
    "capacity": 0,
    "address": "811 E. 11TH STREET",
    "city": "REEDLEY",
    "zip": "93654",
    "county": "FRESNO",
    "phone": "(559) 638-8115",
    "lat": 36.60344824,
    "lng": -119.4404573
  },
  {
    "id": "630014036",
    "name": "ADVENTIST HEALTH REEDLEY",
    "npi": "1497006126",
    "hcaiId": null,
    "businessName": "REEDLEY COMMUNITY HOSPITAL",
    "contactEmail": null,
    "categoryName": "PRIMARY CARE CLINIC",
    "categoryCode": "RHC/OP",
    "licenseStatus": "ACTIVE",
    "inService": true,
    "licenseNumber": "040000149",
    "licenseEffectiveDate": "11/09/2024",
    "licenseExpirationDate": "11/08/2025",
    "dataDate": "10/18/2025",
    "capacity": 0,
    "address": "1150 E. WASHINGTON AVENUE",
    "city": "REEDLEY",
    "zip": "93654",
    "county": "FRESNO",
    "phone": "(559) 638-2154",
    "lat": 36.591516,
    "lng": -119.4378705
  },
  {
    "id": "630015634",
    "name": "ADVENTIST HEALTH REEDLEY",
    "npi": null,
    "hcaiId": null,
    "businessName": "REEDLEY COMMUNITY HOSPITAL",
    "contactEmail": "ALVARAJM@AH.ORG",
    "categoryName": "PRIMARY CARE CLINIC",
    "categoryCode": "RHC/OP",
    "licenseStatus": "ACTIVE",
    "inService": true,
    "licenseNumber": "040000149",
    "licenseEffectiveDate": "11/09/2024",
    "licenseExpirationDate": "11/08/2025",
    "dataDate": "10/18/2025",
    "capacity": 0,
    "address": "550 W. CYPRESS AVENUE",
    "city": "REEDLEY",
    "zip": "93654",
    "county": "FRESNO",
    "phone": "(559) 391-3115",
    "lat": 36.60786821,
    "lng": -119.4522975
  },
  {
    "id": "240001789",
    "name": "BMA OF CENTRAL VALLEY RURAL DIALYSIS",
    "npi": "1316359367",
    "hcaiId": "306105135",
    "businessName": "FRESENIUS MEDICAL CARE REEDLEY, LLC",
    "contactEmail": "MICHAEL.HERNANDEZ@FMC-NA.COM",
    "categoryName": "CHRONIC DIALYSIS CLINIC",
    "categoryCode": "ESRD/CDC",
    "licenseStatus": "ACTIVE",
    "inService": true,
    "licenseNumber": "240000783",
    "licenseEffectiveDate": "08/20/2024",
    "licenseExpirationDate": "08/19/2025",
    "dataDate": "10/18/2025",
    "capacity": 17,
    "address": "810 E. MANNING AVENUE",
    "city": "REEDLEY",
    "zip": "93654",
    "county": "FRESNO",
    "phone": "(559) 637-1676",
    "lat": 36.60422884,
    "lng": -119.4407375
  },
  {
    "id": "630019528",
    "name": "FAMILY HEALTHCARE NETWORK",
    "npi": null,
    "hcaiId": null,
    "businessName": "FAMILY HEALTHCARE NETWORK",
    "contactEmail": null,
    "categoryName": "PRIMARY CARE CLINIC",
    "categoryCode": "COMTYC",
    "licenseStatus": "ACTIVE",
    "inService": true,
    "licenseNumber": "550004220",
    "licenseEffectiveDate": "06/24/2025",
    "licenseExpirationDate": "04/21/2026",
    "dataDate": "10/18/2025",
    "capacity": 0,
    "address": "826 E MANNING AVE",
    "city": "REEDLEY",
    "zip": "93654",
    "county": "FRESNO",
    "phone": null,
    "lat": 36.604611,
    "lng": -119.440683
  },
  {
    "id": "630026156",
    "name": "FRESENIUS MEDICAL CARE REEDLEY HOME",
    "npi": null,
    "hcaiId": null,
    "businessName": null,
    "contactEmail": "KENDAL.CRANE@FRESENIUSMEDICALCARE.COM",
    "categoryName": "CHRONIC DIALYSIS CLINIC",
    "categoryCode": "ESRD",
    "licenseStatus": null,
    "inService": null,
    "licenseNumber": null,
    "licenseEffectiveDate": null,
    "licenseExpirationDate": null,
    "dataDate": "10/18/2025",
    "capacity": 0,
    "address": "790 E MANNING AVE",
    "city": "REEDLEY",
    "zip": "93654",
    "county": "FRESNO",
    "phone": "(559) 463-2275",
    "lat": 36.60423221,
    "lng": -119.440973
  },
  {
    "id": "040001150",
    "name": "HOLLYWOOD HOME",
    "npi": "1598948036",
    "hcaiId": null,
    "businessName": "ALLELUIA",
    "contactEmail": "DALEWMSR@AOL.COM",
    "categoryName": "INTERMEDIATE CARE FACILITY-DD/H/N/CN/IID",
    "categoryCode": "ICFDDH",
    "licenseStatus": "ACTIVE",
    "inService": true,
    "licenseNumber": "040000449",
    "licenseEffectiveDate": "01/29/2025",
    "licenseExpirationDate": "01/28/2026",
    "dataDate": "10/18/2025",
    "capacity": 6,
    "address": "405 W HOLLYWOOD CT",
    "city": "REEDLEY",
    "zip": "93654",
    "county": "FRESNO",
    "phone": "(559) 638-6640",
    "lat": 36.610209,
    "lng": -119.4520545
  },
  {
    "id": "630012010",
    "name": "JAVIER AMU, M.D., PROFESSIONAL CORPORATION",
    "npi": "1346491651",
    "hcaiId": null,
    "businessName": null,
    "contactEmail": "AMUJAS@GMAIL.COM",
    "categoryName": "PRIMARY CARE CLINIC",
    "categoryCode": "RHC",
    "licenseStatus": null,
    "inService": null,
    "licenseNumber": null,
    "licenseEffectiveDate": null,
    "licenseExpirationDate": null,
    "dataDate": "10/18/2025",
    "capacity": 0,
    "address": "1093 11TH ST",
    "city": "REEDLEY",
    "zip": "93654",
    "county": "FRESNO",
    "phone": "(559) 743-7340",
    "lat": 36.601119,
    "lng": -119.4448815
  },
  {
    "id": "630017253",
    "name": "OMNI FAMILY HEALTH",
    "npi": null,
    "hcaiId": "306105138",
    "businessName": "OMNI FAMILY HEALTH",
    "contactEmail": "LICENSING@OMNIFAMILYHEALTH.ORG",
    "categoryName": "PRIMARY CARE CLINIC",
    "categoryCode": "COMTYC",
    "licenseStatus": "ACTIVE",
    "inService": true,
    "licenseNumber": "550003912",
    "licenseEffectiveDate": "07/11/2025",
    "licenseExpirationDate": "07/10/2026",
    "dataDate": "10/18/2025",
    "capacity": 0,
    "address": "925 G ST",
    "city": "REEDLEY",
    "zip": "93654",
    "county": "FRESNO",
    "phone": "(661) 630-7063",
    "lat": 36.597933,
    "lng": -119.4527295
  },
  {
    "id": "630017491",
    "name": "OMNI FAMILY HEALTH",
    "npi": null,
    "hcaiId": "306100938",
    "businessName": "OMNI FAMILY HEALTH",
    "contactEmail": "LICENSING@OMNIFAMILYHEALTH.ORG",
    "categoryName": "PRIMARY CARE CLINIC",
    "categoryCode": "COMTYC",
    "licenseStatus": "ACTIVE",
    "inService": true,
    "licenseNumber": "550004106",
    "licenseEffectiveDate": "01/18/2025",
    "licenseExpirationDate": "01/17/2026",
    "dataDate": "10/18/2025",
    "capacity": 0,
    "address": "1530 E MANNING AVE",
    "city": "REEDLEY",
    "zip": "93654",
    "county": "FRESNO",
    "phone": "(661) 459-1900",
    "lat": 36.60418044,
    "lng": -119.4326805
  },
  {
    "id": "040000010",
    "name": "PALM VILLAGE RETIREMENT COMMUNITY HEALTH CARE CTR.",
    "npi": "1225142755",
    "hcaiId": "206100778",
    "businessName": "MENNONITE BRETHREN HOMES, INC.",
    "contactEmail": "JIMHIGBEE@PALMVILLAGE.COM",
    "categoryName": "SKILLED NURSING FACILITY",
    "categoryCode": "SNF",
    "licenseStatus": "ACTIVE",
    "inService": true,
    "licenseNumber": "040000136",
    "licenseEffectiveDate": "11/01/2024",
    "licenseExpirationDate": "10/31/2025",
    "dataDate": "10/18/2025",
    "capacity": 120,
    "address": "703 W HERBERT AVE",
    "city": "REEDLEY",
    "zip": "93654",
    "county": "FRESNO",
    "phone": "(559) 638-6933",
    "lat": 36.580104,
    "lng": -119.45592
  },
  {
    "id": "040000060",
    "name": "SIERRA VIEW HOMES INC.",
    "npi": "1558382598",
    "hcaiId": "206100799",
    "businessName": "SIERRA VIEW HOMES, INC.",
    "contactEmail": "RLINSCHEID@SIERRAVIEW.ORG",
    "categoryName": "SKILLED NURSING FACILITY",
    "categoryCode": "SNF",
    "licenseStatus": "ACTIVE",
    "inService": true,
    "licenseNumber": "040000151",
    "licenseEffectiveDate": "12/01/2024",
    "licenseExpirationDate": "11/30/2025",
    "dataDate": "10/18/2025",
    "capacity": 59,
    "address": "1155 E SPRINGFIELD AVE",
    "city": "REEDLEY",
    "zip": "93654",
    "county": "FRESNO",
    "phone": "(559) 638-9226",
    "lat": 36.596097,
    "lng": -119.4368805
  },
  {
    "id": "630015218",
    "name": "UNITED HEALTH CENTERS OF THE SAN JOAQUIN VALLEY",
    "npi": null,
    "hcaiId": "306105116",
    "businessName": "UNITED HEALTH CENTERS OF THE SAN JOAQUIN VALLEY",
    "contactEmail": "PREASJ@UNITEDHEALTHCENTERS.ORG",
    "categoryName": "PRIMARY CARE CLINIC",
    "categoryCode": "COMTYC",
    "licenseStatus": "ACTIVE",
    "inService": true,
    "licenseNumber": "550002829",
    "licenseEffectiveDate": "09/30/2025",
    "licenseExpirationDate": "09/29/2026",
    "dataDate": "10/18/2025",
    "capacity": 0,
    "address": "1790 E MANNING AVE",
    "city": "REEDLEY",
    "zip": "93654",
    "county": "FRESNO",
    "phone": "(559) 646-6618",
    "lat": 36.60416921,
    "lng": -119.4303713
  },
  {
    "id": "040000067",
    "name": "VINEYARD CARE CENTER",
    "npi": "1144933714",
    "hcaiId": "206100781",
    "businessName": "REEDLEY SKILLED CARE LLC",
    "contactEmail": "ADAM.SALOW@JERICHOCARE.COM",
    "categoryName": "SKILLED NURSING FACILITY",
    "categoryCode": "SNF",
    "licenseStatus": "ACTIVE",
    "inService": true,
    "licenseNumber": "040000138",
    "licenseEffectiveDate": "11/01/2025",
    "licenseExpirationDate": "10/31/2026",
    "dataDate": "10/18/2025",
    "capacity": 56,
    "address": "1090 E DINUBA AVE",
    "city": "REEDLEY",
    "zip": "93654",
    "county": "FRESNO",
    "phone": "(916) 607-3760",
    "lat": 36.590058,
    "lng": -119.43765
  }
]