[
  {
    "id": "040001414",
    "name": "ADVENTIST HEALTH REEDLEY",
    "npi": "1811914377",
    "hcaiId": null,
    "businessName": "REEDLEY COMMUNITY HOSPITAL",
    "contactEmail": null,
    "categoryName": "PRIMARY CARE CLINIC",
    "categoryCode": "RHC/OP",
    "licenseStatus": "ACTIVE",
    "inService": true,
    "licenseNumber": "040000149",
    "licenseEffectiveDate": "11/09/2024",
    "licenseExpirationDate": "11/08/2025",
    "dataDate": "10/18/2025",
    "capacity": 0,
    "address": "2141 HIGH ST",
    "city": "SELMA",
    "zip": "93662",
    "county": "FRESNO",
    "phone": "(559) 891-3115",
    "lat": 36.570348,
    "lng": -119.6142795
  },
  {
    "id": "630002321",
    "name": "ADVENTIST HEALTH REEDLEY",
    "npi": "1265530018",
    "hcaiId": null,
    "businessName": "REEDLEY COMMUNITY HOSPITAL",
    "contactEmail": null,
    "categoryName": "PRIMARY CARE CLINIC",
    "categoryCode": "RHC/OP",
    "licenseStatus": "ACTIVE",
    "inService": true,
    "licenseNumber": "040000149",
    "licenseEffectiveDate": "11/09/2024",
    "licenseExpirationDate": "11/08/2025",
    "dataDate": "10/18/2025",
    "capacity": 0,
    "address": "1041 ROSE AVE",
    "city": "SELMA",
    "zip": "93662",
    "county": "FRESNO",
    "phone": "(559) 891-6345",
    "lat": 36.567972,
    "lng": -119.596239
  },
  {
    "id": "040000122",
    "name": "ADVENTIST HEALTH SELMA",
    "npi": "1538141627",
    "hcaiId": "106100793",
    "businessName": "HANFORD COMMUNITY HOSPITAL",
    "contactEmail": "SMITHIW@AH.ORG",
    "categoryName": "GENERAL ACUTE CARE HOSPITAL",
    "categoryCode": "GACH",
    "licenseStatus": "ACTIVE",
    "inService": true,
    "licenseNumber": "550001439",
    "licenseEffectiveDate": "12/05/2024",
    "licenseExpirationDate": "12/04/2025",
    "dataDate": "10/18/2025",
    "capacity": 62,
    "address": "1141 ROSE AVE",
    "city": "SELMA",
    "zip": "93662",
    "county": "FRESNO",
    "phone": "(559) 537-2037",
    "lat": 36.567954,
    "lng": -119.598426
  },
  {
    "id": "040000015",
    "name": "BETHEL LUTHERAN HOME, INC.",
    "npi": "1255446415",
    "hcaiId": "206100684",
    "businessName": "BETHEL LUTHERAN HOME, INC.",
    "contactEmail": "SPATTESON@BETHELHOME.NET",
    "categoryName": "SKILLED NURSING FACILITY",
    "categoryCode": "SNF",
    "licenseStatus": "ACTIVE",
    "inService": true,
    "licenseNumber": "040000077",
    "licenseEffectiveDate": "12/31/2024",
    "licenseExpirationDate": "12/30/2025",
    "dataDate": "10/18/2025",
    "capacity": 59,
    "address": "2280 DOCKERY AVE",
    "city": "SELMA",
    "zip": "93662",
    "county": "FRESNO",
    "phone": "(559) 896-4900",
    "lat": 36.566586,
    "lng": -119.6008245
  },
  {
    "id": "630011532",
    "name": "DR. OCHOA FAMILY CLINIC",
    "npi": "1376674770",
    "hcaiId": null,
    "businessName": null,
    "contactEmail": null,
    "categoryName": "PRIMARY CARE CLINIC",
    "categoryCode": "RHC/MD",
    "licenseStatus": null,
    "inService": null,
    "licenseNumber": null,
    "licenseEffectiveDate": null,
    "licenseExpirationDate": null,
    "dataDate": "10/18/2025",
    "capacity": 0,
    "address": "3275 MCCALL AVE, SUITE 102",
    "city": "SELMA",
    "zip": "93662",
    "county": "FRESNO",
    "phone": "(559) 896-3808",
    "lat": 36.583326,
    "lng": -119.611827
  },
  {
    "id": "630019479",
    "name": "FAMILY HEALTHCARE NETWORK",
    "npi": null,
    "hcaiId": null,
    "businessName": "FAMILY HEALTHCARE NETWORK",
    "contactEmail": null,
    "categoryName": "PRIMARY CARE CLINIC",
    "categoryCode": "COMTYC",
    "licenseStatus": "ACTIVE",
    "inService": true,
    "licenseNumber": "550004220",
    "licenseEffectiveDate": "06/24/2025",
    "licenseExpirationDate": "04/21/2026",
    "dataDate": "10/18/2025",
    "capacity": 0,
    "address": "1850 WHITSON ST",
    "city": "SELMA",
    "zip": "93662",
    "county": "FRESNO",
    "phone": null,
    "lat": 36.565794,
    "lng": -119.612556
  },
  {
    "id": "630027974",
    "name": "NARAYAN MEDICAL CLINIC",
    "npi": null,
    "hcaiId": null,
    "businessName": null,
    "contactEmail": "ANARAYAN295@GMAIL.COM",
    "categoryName": "PRIMARY CARE CLINIC",
    "categoryCode": "RHC",
    "licenseStatus": null,
    "inService": null,
    "licenseNumber": null,
    "licenseEffectiveDate": null,
    "licenseExpirationDate": null,
    "dataDate": "10/18/2025",
    "capacity": 0,
    "address": "3352 FLORAL AVE, SUITE 103",
    "city": "SELMA",
    "zip": "93662",
    "county": "FRESNO",
    "phone": "(510) 541-3598",
    "lat": 36.57898701,
    "lng": -119.634661
  },
  {
    "id": "040001243",
    "name": "NOVACARE OUTPATIENT REHABILITATION",
    "npi": null,
    "hcaiId": null,
    "businessName": null,
    "contactEmail": null,
    "categoryName": "OTHER",
    "categoryCode": "UNLICEN",
    "licenseStatus": null,
    "inService": null,
    "licenseNumber": null,
    "licenseEffectiveDate": null,
    "licenseExpirationDate": null,
    "dataDate": "10/18/2025",
    "capacity": 0,
    "address": "3275 MCCALL AVE",
    "city": "SELMA",
    "zip": "93662",
    "county": "FRESNO",
    "phone": "(559) 891-1688",
    "lat": 36.583308,
    "lng": -119.610981
  },
  {
    "id": "040000052",
    "name": "ROLLING HILLS CARE CENTER",
    "npi": "1801148952",
    "hcaiId": "206100792",
    "businessName": "ROLLING HILLS CARE CENTER LLC",
    "contactEmail": "ADMINISTRATOR@ROLLINGHILLSCARECENTER.ORG",
    "categoryName": "SKILLED NURSING FACILITY",
    "categoryCode": "SNF",
    "licenseStatus": "ACTIVE",
    "inService": true,
    "licenseNumber": "040000145",
    "licenseEffectiveDate": "08/28/2025",
    "licenseExpirationDate": "08/27/2026",
    "dataDate": "10/18/2025",
    "capacity": 34,
    "address": "2108 STILLMAN ST",
    "city": "SELMA",
    "zip": "93662",
    "county": "FRESNO",
    "phone": "(559) 896-4990",
    "lat": 36.572724,
    "lng": -119.6128575
  },
  {
    "id": "240001803",
    "name": "SELMA DIALYSIS",
    "npi": "1295700219",
    "hcaiId": "306105073",
    "businessName": "DVA HEALTHCARE RENAL CARE, INC.",
    "contactEmail": "CAL_C@DAVITA.COM",
    "categoryName": "CHRONIC DIALYSIS CLINIC",
    "categoryCode": "ESRD/CDC",
    "licenseStatus": "ACTIVE",
    "inService": true,
    "licenseNumber": "240000797",
    "licenseEffectiveDate": "11/13/2024",
    "licenseExpirationDate": "11/12/2025",
    "dataDate": "10/18/2025",
    "capacity": 30,
    "address": "2711 CINEMA WAY, SUITE 111",
    "city": "SELMA",
    "zip": "93662",
    "county": "FRESNO",
    "phone": "(559) 891-2750",
    "lat": 36.57356768,
    "lng": -119.6242431
  },
  {
    "id": "040001328",
    "name": "SELMA RURAL HEALTH CLINIC",
    "npi": "1265192512",
    "hcaiId": null,
    "businessName": null,
    "contactEmail": null,
    "categoryName": "PRIMARY CARE CLINIC",
    "categoryCode": "RHC/MD",
    "licenseStatus": null,
    "inService": null,
    "licenseNumber": null,
    "licenseEffectiveDate": null,
    "licenseExpirationDate": null,
    "dataDate": "10/18/2025",
    "capacity": 0,
    "address": "2057 HIGH ST",
    "city": "SELMA",
    "zip": "93662",
    "county": "FRESNO",
    "phone": "(559) 891-9100",
    "lat": 36.56952,
    "lng": -119.6132715
  },
  {
    "id": "630019518",
    "name": "UNITED HEALTH CENTERS OF THE SAN JOAQUIN VALLEY",
    "npi": null,
    "hcaiId": null,
    "businessName": "UNITED HEALTH CENTERS OF THE SAN JOAQUIN VALLEY",
    "contactEmail": null,
    "categoryName": "PRIMARY CARE CLINIC",
    "categoryCode": "COMTYC",
    "licenseStatus": "ACTIVE",
    "inService": true,
    "licenseNumber": "550002829",
    "licenseEffectiveDate": "09/30/2025",
    "licenseExpirationDate": "09/29/2026",
    "dataDate": "10/18/2025",
    "capacity": 0,
    "address": "1201 ROSE AVE",
    "city": "SELMA",
    "zip": "93662",
    "county": "FRESNO",
    "phone": null,
    "lat": 36.568521,
    "lng": -119.599803
  },
  {
    "id": "630019524",
    "name": "UNITED HEALTH CENTERS OF THE SAN JOAQUIN VALLEY",
    "npi": null,
    "hcaiId": null,
    "businessName": "UNITED HEALTH CENTERS OF THE SAN JOAQUIN VALLEY",
    "contactEmail": null,
    "categoryName": "PRIMARY CARE CLINIC",
    "categoryCode": "COMTYC",
    "licenseStatus": "ACTIVE",
    "inService": true,
    "licenseNumber": "550002829",
    "licenseEffectiveDate": "09/30/2025",
    "licenseExpirationDate": "09/29/2026",
    "dataDate": "10/18/2025",
    "capacity": 0,
    "address": "2705 HIGHLAND AVE",
    "city": "SELMA",
    "zip": "93662",
    "county": "FRESNO",
    "phone": null,
    "lat": 36.57322702,
    "lng": -119.6288744
  },
  {
    "id": "040001124",
    "name": "VIRENDER S. KALEKA, M.D.",
    "npi": null,
    "hcaiId": null,
    "businessName": null,
    "contactEmail": null,
    "categoryName": "OTHER",
    "categoryCode": "UNLICEN",
    "licenseStatus": null,
    "inService": null,
    "licenseNumber": null,
    "licenseEffectiveDate": null,
    "licenseExpirationDate": null,
    "dataDate": "10/18/2025",
    "capacity": 0,
    "address": "2057 HIGH ST",
    "city": "SELMA",
    "zip": "93662",
    "county": "FRESNO",
    "phone": "(559) 891-9100",
    "lat": 36.56952,
    "lng": -119.6132715
  }
]