[
  {
    "id": "040000026",
    "name": "COUNTRYSIDE CARE CENTER",
    "npi": "1841875234",
    "hcaiId": "206100704",
    "businessName": "COUNTRYSIDE CARE CENTER LLC",
    "contactEmail": "JAY@SKILLED-HEALTHCARE.COM",
    "categoryName": "SKILLED NURSING FACILITY",
    "categoryCode": "SNF",
    "licenseStatus": "ACTIVE",
    "inService": true,
    "licenseNumber": "040000088",
    "licenseEffectiveDate": "02/27/2025",
    "licenseExpirationDate": "02/26/2026",
    "dataDate": "10/18/2025",
    "capacity": 59,
    "address": "925 N CORNELIA AVE",
    "city": "FRESNO",
    "zip": "93706",
    "county": "FRESNO",
    "phone": "(559) 275-4785",
    "lat": 36.749484,
    "lng": -119.8806885
  },
  {
    "id": "040000513",
    "name": "ELM COMMUNITY HEALTH CENTER",
    "npi": "1245489814",
    "hcaiId": "306104012",
    "businessName": "CLINICA SIERRA VISTA",
    "contactEmail": "LICENSING@CLINICASIERRAVISTA.ORG",
    "categoryName": "PRIMARY CARE CLINIC",
    "categoryCode": "COMTYC",
    "licenseStatus": "ACTIVE",
    "inService": true,
    "licenseNumber": "040000244",
    "licenseEffectiveDate": "11/15/2025",
    "licenseExpirationDate": "11/14/2026",
    "dataDate": "10/18/2025",
    "capacity": 0,
    "address": "2740 S ELM AVE",
    "city": "FRESNO",
    "zip": "93706",
    "county": "FRESNO",
    "phone": "(559) 457-5800",
    "lat": 36.701046,
    "lng": -119.791305
  },
  {
    "id": "630012777",
    "name": "ELM DENTAL CENTER",
    "npi": "1770895138",
    "hcaiId": "306105081",
    "businessName": "CLINICA SIERRA VISTA",
    "contactEmail": "MARIBEL.NUNEZ@CLINICASIERRAVISTA.ORG",
    "categoryName": "PRIMARY CARE CLINIC",
    "categoryCode": "FQHC/COMTYC",
    "licenseStatus": "ACTIVE",
    "inService": true,
    "licenseNumber": "550007482",
    "licenseEffectiveDate": "10/22/2025",
    "licenseExpirationDate": "12/21/2025",
    "dataDate": "10/18/2025",
    "capacity": 0,
    "address": "2756 S ELM AVE",
    "city": "FRESNO",
    "zip": "93706",
    "county": "FRESNO",
    "phone": "(559) 457-5800",
    "lat": 36.700911,
    "lng": -119.791917
  },
  {
    "id": "630010881",
    "name": "ELM WOMEN'S & PEDIATRIC COMMUNITY HEALTH CENTER",
    "npi": "1669621447",
    "hcaiId": "306105094",
    "businessName": "CLINICA SIERRA VISTA",
    "contactEmail": "LICENSING@CLINICASIERRAVISTA.ORG",
    "categoryName": "PRIMARY CARE CLINIC",
    "categoryCode": "COMTYC",
    "licenseStatus": "ACTIVE",
    "inService": true,
    "licenseNumber": "550000525",
    "licenseEffectiveDate": "11/15/2025",
    "licenseExpirationDate": "11/14/2026",
    "dataDate": "10/18/2025",
    "capacity": 0,
    "address": "2760 S ELM AVE",
    "city": "FRESNO",
    "zip": "93706",
    "county": "FRESNO",
    "phone": "(559) 457-5800",
    "lat": 36.700686,
    "lng": -119.792115
  },
  {
    "id": "040000004",
    "name": "FRESNO POSTACUTE CARE",
    "npi": "1952766693",
    "hcaiId": "206100751",
    "businessName": "FRESNO POSTACUTE CARE, LLC",
    "contactEmail": "ADMINISTRATOR@FRESNOPOSTACUTE.COM",
    "categoryName": "SKILLED NURSING FACILITY",
    "categoryCode": "SNF",
    "licenseStatus": "ACTIVE",
    "inService": true,
    "licenseNumber": "040000120",
    "licenseEffectiveDate": "04/28/2025",
    "licenseExpirationDate": "04/27/2026",
    "dataDate": "10/18/2025",
    "capacity": 80,
    "address": "1233 A ST",
    "city": "FRESNO",
    "zip": "93706",
    "county": "FRESNO",
    "phone": "(559) 268-6317",
    "lat": 36.72927,
    "lng": -119.803167
  },
  {
    "id": "630014952",
    "name": "GASTON MIDDLE SCHOOL HEALTH AND WELLNESS CENTER",
    "npi": "1790100402",
    "hcaiId": "306105117",
    "businessName": "CLINICA SIERRA VISTA",
    "contactEmail": "LICENSING@CLINICASIERRAVISTA.ORG",
    "categoryName": "PRIMARY CARE CLINIC",
    "categoryCode": "COMTYC",
    "licenseStatus": "ACTIVE",
    "inService": true,
    "licenseNumber": "550007482",
    "licenseEffectiveDate": "10/22/2025",
    "licenseExpirationDate": "12/21/2025",
    "dataDate": "10/18/2025",
    "capacity": 0,
    "address": "1120 E CHURCH AVE",
    "city": "FRESNO",
    "zip": "93706",
    "county": "FRESNO",
    "phone": "(661) 635-3050",
    "lat": 36.713853,
    "lng": -119.798073
  },
  {
    "id": "070001313",
    "name": "VALLEY ADULT DAY HEALTH CARE CENTER",
    "npi": null,
    "hcaiId": null,
    "businessName": "VALLEY ADULT DAY HEALTH CARE CENTER, INC.",
    "contactEmail": "EDWARDSALIBA@SBCGLOBAL.NET",
    "categoryName": "ADULT DAY HEALTH CARE",
    "categoryCode": "ADHC",
    "licenseStatus": "ACTIVE",
    "inService": true,
    "licenseNumber": "070000632",
    "licenseEffectiveDate": "11/04/2025",
    "licenseExpirationDate": "11/03/2026",
    "dataDate": "10/18/2025",
    "capacity": 0,
    "address": "1052 C ST",
    "city": "FRESNO",
    "zip": "93706",
    "county": "FRESNO",
    "phone": "(559) 454-0386",
    "lat": 36.729126,
    "lng": -119.79819
  },
  {
    "id": "630014894",
    "name": "VETERANS HOME OF CALIFORNIA - FRESNO",
    "npi": "1770903775",
    "hcaiId": "206105128",
    "businessName": "CALIFORNIA DEPARTMENT OF VETERANS AFFAIRS",
    "contactEmail": "CAROLINE.VIGIL@CALVET.CA.GOV",
    "categoryName": "SKILLED NURSING FACILITY",
    "categoryCode": "SNF",
    "licenseStatus": "ACTIVE",
    "inService": true,
    "licenseNumber": "550002640",
    "licenseEffectiveDate": "10/24/2025",
    "licenseExpirationDate": "10/23/2026",
    "dataDate": "10/18/2025",
    "capacity": 120,
    "address": "2811 W CESAR CHAVEZ BLVD",
    "city": "FRESNO",
    "zip": "93706",
    "county": "FRESNO",
    "phone": "(559) 493-4241",
    "lat": 36.719734,
    "lng": -119.8435552
  },
  {
    "id": "040001388",
    "name": "WEST FRESNO COMMUNITY HEALTH CENTER",
    "npi": "1326297904",
    "hcaiId": "306105035",
    "businessName": "CLINICA SIERRA VISTA",
    "contactEmail": "CLAUDIA.CHAVEZ@CLINICASIERRAVISTA.ORG",
    "categoryName": "PRIMARY CARE CLINIC",
    "categoryCode": "COMTYC",
    "licenseStatus": "ACTIVE",
    "inService": true,
    "licenseNumber": "040000549",
    "licenseEffectiveDate": "11/15/2025",
    "licenseExpirationDate": "11/14/2026",
    "dataDate": "10/18/2025",
    "capacity": 0,
    "address": "302 FRESNO ST, SUITE 101",
    "city": "FRESNO",
    "zip": "93706",
    "county": "FRESNO",
    "phone": "(559) 457-5875",
    "lat": 36.723654,
    "lng": -119.8089045
  }
]