[
  {
    "id": "630026858",
    "name": "FAMILY HEALTHCARE NETWORK",
    "npi": null,
    "hcaiId": null,
    "businessName": "FAMILY HEALTHCARE NETWORK",
    "contactEmail": null,
    "categoryName": "PRIMARY CARE CLINIC",
    "categoryCode": "COMTYC",
    "licenseStatus": "ACTIVE",
    "inService": true,
    "licenseNumber": "550004220",
    "licenseEffectiveDate": "06/24/2025",
    "licenseExpirationDate": "04/21/2026",
    "dataDate": "10/18/2025",
    "capacity": 0,
    "address": "1344 W CLINTON AVE",
    "city": "FRESNO",
    "zip": "93705",
    "county": "FRESNO",
    "phone": null,
    "lat": 36.772218,
    "lng": -119.8274355
  },
  {
    "id": "070001195",
    "name": "HERITAGE ADULT DAY HEALTH CARE CENTER",
    "npi": null,
    "hcaiId": null,
    "businessName": "HERITAGE ADULT DAY HEALTH CARE CENTER",
    "contactEmail": "HERITAGEADHC@YAHOO.COM",
    "categoryName": "ADULT DAY HEALTH CARE",
    "categoryCode": "ADHC",
    "licenseStatus": "ACTIVE",
    "inService": true,
    "licenseNumber": "070000594",
    "licenseEffectiveDate": "11/01/2025",
    "licenseExpirationDate": "10/31/2026",
    "dataDate": "10/18/2025",
    "capacity": 0,
    "address": "2020 N WEBER AVE, UNIT 123",
    "city": "FRESNO",
    "zip": "93705",
    "county": "FRESNO",
    "phone": "(559) 222-0304",
    "lat": 36.769365,
    "lng": -119.8330515
  },
  {
    "id": "630016461",
    "name": "UNITED HEALTH CENTERS OF THE SAN JOAQUIN VALLEY",
    "npi": null,
    "hcaiId": "306100023",
    "businessName": "UNITED HEALTH CENTERS OF THE SAN JOAQUIN VALLEY",
    "contactEmail": "PREASJ@UNITEDHEALTHCENTERS.ORG",
    "categoryName": "PRIMARY CARE CLINIC",
    "categoryCode": "COMTYC",
    "licenseStatus": "ACTIVE",
    "inService": true,
    "licenseNumber": "550003363",
    "licenseEffectiveDate": "01/29/2025",
    "licenseExpirationDate": "01/28/2026",
    "dataDate": "10/18/2025",
    "capacity": 0,
    "address": "2848 W ASHLAN AVE",
    "city": "FRESNO",
    "zip": "93705",
    "county": "FRESNO",
    "phone": "(559) 646-7400",
    "lat": 36.79441299,
    "lng": -119.843772
  }
]