[
  {
    "id": "630018275",
    "name": "ACME CARE, INC",
    "npi": null,
    "hcaiId": "206100177",
    "businessName": "ACME CARE, INC",
    "contactEmail": "ACMECARECLHF@GMAIL.COM",
    "categoryName": "CONGREGATE LIVING HEALTH FACILITY",
    "categoryCode": "CLHF",
    "licenseStatus": "ACTIVE",
    "inService": true,
    "licenseNumber": "550004939",
    "licenseEffectiveDate": "09/05/2025",
    "licenseExpirationDate": "09/04/2026",
    "dataDate": "10/18/2025",
    "capacity": 6,
    "address": "6253 N COLONIAL AVE",
    "city": "FRESNO",
    "zip": "93704",
    "county": "FRESNO",
    "phone": "(818) 319-6062",
    "lat": 36.827361,
    "lng": -119.8035945
  },
  {
    "id": "040001077",
    "name": "ALLEN-SPEES FAMILY HOME",
    "npi": "1770635450",
    "hcaiId": null,
    "businessName": "SUE ALLEN - TERRY SPEES",
    "contactEmail": "ASFH.CHRIS.ALLEN@GMAIL.COM",
    "categoryName": "INTERMEDIATE CARE FACILITY-DD/H/N/CN/IID",
    "categoryCode": "ICFDDN",
    "licenseStatus": "ACTIVE",
    "inService": true,
    "licenseNumber": "040000424",
    "licenseEffectiveDate": "04/02/2025",
    "licenseExpirationDate": "04/01/2026",
    "dataDate": "10/18/2025",
    "capacity": 6,
    "address": "524 W ROBERTS AVE",
    "city": "FRESNO",
    "zip": "93704",
    "county": "FRESNO",
    "phone": "(559) 432-3664",
    "lat": 36.820449,
    "lng": -119.8021455
  },
  {
    "id": "040001203",
    "name": "ALLEN-SPEES FAMILY HOME II",
    "npi": "1346392412",
    "hcaiId": null,
    "businessName": "SUE ALLEN - TERRY SPEES",
    "contactEmail": "ASFH.CHRIS.ALLEN@GMAIL.COM",
    "categoryName": "INTERMEDIATE CARE FACILITY-DD/H/N/CN/IID",
    "categoryCode": "ICFDDN",
    "licenseStatus": "ACTIVE",
    "inService": true,
    "licenseNumber": "040000466",
    "licenseEffectiveDate": "11/25/2024",
    "licenseExpirationDate": "11/24/2025",
    "dataDate": "10/18/2025",
    "capacity": 6,
    "address": "6391 N DEL MAR AVE",
    "city": "FRESNO",
    "zip": "93704",
    "county": "FRESNO",
    "phone": "(559) 432-7151",
    "lat": 36.829899,
    "lng": -119.794887
  },
  {
    "id": "040001317",
    "name": "ALLEN-SPEES FAMILY HOME III",
    "npi": "1235281304",
    "hcaiId": null,
    "businessName": "SUE ALLEN - TERRY SPEES",
    "contactEmail": "ASFH.CHRIS.ALLEN@GMAIL.COM",
    "categoryName": "INTERMEDIATE CARE FACILITY-DD/H/N/CN/IID",
    "categoryCode": "ICFDDCN",
    "licenseStatus": "ACTIVE",
    "inService": false,
    "licenseNumber": "040000511",
    "licenseEffectiveDate": "01/04/2025",
    "licenseExpirationDate": "01/03/2026",
    "dataDate": "10/18/2025",
    "capacity": 6,
    "address": "286 W SIERRA AVE",
    "city": "FRESNO",
    "zip": "93704",
    "county": "FRESNO",
    "phone": "(559) 432-3664",
    "lat": 36.830403,
    "lng": -119.7967185
  },
  {
    "id": "630015900",
    "name": "AVEANNA HEALTHCARE",
    "npi": "1437555984",
    "hcaiId": "406100848",
    "businessName": "PREMIER HEALTHCARE SERVICES, LLC",
    "contactEmail": "JELYNE.FLORO@AVEANNA.COM",
    "categoryName": "HOME HEALTH AGENCY",
    "categoryCode": "HHA",
    "licenseStatus": "ACTIVE",
    "inService": true,
    "licenseNumber": "550004224",
    "licenseEffectiveDate": "03/13/2025",
    "licenseExpirationDate": "03/12/2026",
    "dataDate": "10/18/2025",
    "capacity": 0,
    "address": "5250 NORTH PALM AVENUE, SUITE 227",
    "city": "FRESNO",
    "zip": "93704",
    "county": "FRESNO",
    "phone": "(559) 540-3698",
    "lat": 36.812916,
    "lng": -119.8065645
  },
  {
    "id": "040000284",
    "name": "CASA FAIAL",
    "npi": "1457404055",
    "hcaiId": null,
    "businessName": "NOIA RESIDENTIAL SERVICES, INC.",
    "contactEmail": "MONTOYA1155@HOTMAIL.COM",
    "categoryName": "INTERMEDIATE CARE FACILITY-DD/H/N/CN/IID",
    "categoryCode": "ICFDDH",
    "licenseStatus": "ACTIVE",
    "inService": true,
    "licenseNumber": "040000232",
    "licenseEffectiveDate": "02/10/2025",
    "licenseExpirationDate": "02/09/2026",
    "dataDate": "10/18/2025",
    "capacity": 6,
    "address": "668 W ROBINWOOD LN",
    "city": "FRESNO",
    "zip": "93704",
    "county": "FRESNO",
    "phone": "(559) 435-6010",
    "lat": 36.816786,
    "lng": -119.8053675
  },
  {
    "id": "040000875",
    "name": "CASA SANTA MARIA",
    "npi": "1063564169",
    "hcaiId": null,
    "businessName": "NOIA RESIDENTIAL SERVICES, INC.",
    "contactEmail": "SKLI@ATTITUDE.COM",
    "categoryName": "INTERMEDIATE CARE FACILITY-DD/H/N/CN/IID",
    "categoryCode": "ICFDDH",
    "licenseStatus": "ACTIVE",
    "inService": true,
    "licenseNumber": "040000366",
    "licenseEffectiveDate": "11/23/2024",
    "licenseExpirationDate": "11/22/2025",
    "dataDate": "10/18/2025",
    "capacity": 6,
    "address": "1236 E GETTYSBURG AVE",
    "city": "FRESNO",
    "zip": "93704",
    "county": "FRESNO",
    "phone": "(559) 227-8748",
    "lat": 36.800973,
    "lng": -119.795382
  },
  {
    "id": "040000307",
    "name": "CASA SAO JORGE",
    "npi": "1548313141",
    "hcaiId": null,
    "businessName": "NOIA RESIDENTIAL SERVICES, INC.",
    "contactEmail": "SKLI@ATTITUDE.COM",
    "categoryName": "INTERMEDIATE CARE FACILITY-DD/H/N/CN/IID",
    "categoryCode": "ICFDDH",
    "licenseStatus": "ACTIVE",
    "inService": true,
    "licenseNumber": "040000233",
    "licenseEffectiveDate": "02/19/2025",
    "licenseExpirationDate": "02/18/2026",
    "dataDate": "10/18/2025",
    "capacity": 6,
    "address": "5555 N MAROA AVE",
    "city": "FRESNO",
    "zip": "93704",
    "county": "FRESNO",
    "phone": "(559) 485-5970",
    "lat": 36.818487,
    "lng": -119.79972
  },
  {
    "id": "630018361",
    "name": "HEAL HOME HEALTH INC.",
    "npi": "1730664376",
    "hcaiId": "406102417",
    "businessName": "HEAL HOME HEALTH INC.",
    "contactEmail": "HEALHOMEHEALTH@GMAIL.COM",
    "categoryName": "HOME HEALTH AGENCY",
    "categoryCode": "HHA",
    "licenseStatus": "ACTIVE",
    "inService": true,
    "licenseNumber": "550005295",
    "licenseEffectiveDate": "01/07/2025",
    "licenseExpirationDate": "01/06/2026",
    "dataDate": "10/18/2025",
    "capacity": 0,
    "address": "1041 E SHIELDS AVE, UNIT B",
    "city": "FRESNO",
    "zip": "93704",
    "county": "FRESNO",
    "phone": "(559) 570-8520",
    "lat": 36.779796,
    "lng": -119.797668
  },
  {
    "id": "040000224",
    "name": "LOYD'S LIBERTY HOMES, INC. - COLONIAL",
    "npi": "1467674705",
    "hcaiId": null,
    "businessName": "LOYD'S LIBERTY HOMES, INC.",
    "contactEmail": "BRITTANY.CUPPS@THEMENTORNETWORK.COM",
    "categoryName": "INTERMEDIATE CARE FACILITY-DD/H/N/CN/IID",
    "categoryCode": "ICFDDH",
    "licenseStatus": "ACTIVE",
    "inService": true,
    "licenseNumber": "040000065",
    "licenseEffectiveDate": "11/01/2025",
    "licenseExpirationDate": "10/31/2026",
    "dataDate": "10/18/2025",
    "capacity": 6,
    "address": "6520 N COLONIAL AVE",
    "city": "FRESNO",
    "zip": "93704",
    "county": "FRESNO",
    "phone": "(559) 438-9098",
    "lat": 36.832302,
    "lng": -119.8034685
  },
  {
    "id": "630027908",
    "name": "NAVEN HEALTH, INC.",
    "npi": null,
    "hcaiId": null,
    "businessName": "NAVEN HEALTH, INC.",
    "contactEmail": "OC-PEANDL@OPTIONCARE.COM",
    "categoryName": "HOME HEALTH AGENCY",
    "categoryCode": "HHA",
    "licenseStatus": "ACTIVE",
    "inService": true,
    "licenseNumber": "550009905",
    "licenseEffectiveDate": "07/22/2025",
    "licenseExpirationDate": "01/21/2026",
    "dataDate": "10/18/2025",
    "capacity": 0,
    "address": "285 W SHAW AVE, SUITE 103",
    "city": "FRESNO",
    "zip": "93704",
    "county": "FRESNO",
    "phone": "(219) 208-8846",
    "lat": 36.808271,
    "lng": -119.796768
  }
]