[
  {
    "id": "630018906",
    "name": "FAMILY HEALTHCARE NETWORK",
    "npi": null,
    "hcaiId": null,
    "businessName": "FAMILY HEALTHCARE NETWORK",
    "contactEmail": null,
    "categoryName": "PRIMARY CARE CLINIC",
    "categoryCode": "COMTYC",
    "licenseStatus": "ACTIVE",
    "inService": true,
    "licenseNumber": "550004220",
    "licenseEffectiveDate": "06/24/2025",
    "licenseExpirationDate": "04/21/2026",
    "dataDate": "10/18/2025",
    "capacity": 0,
    "address": "2210 E ILLINOIS AVE, SUITE 206",
    "city": "FRESNO",
    "zip": "93701",
    "county": "FRESNO",
    "phone": null,
    "lat": 36.743571,
    "lng": -119.78451
  },
  {
    "id": "630018912",
    "name": "FAMILY HEALTHCARE NETWORK",
    "npi": null,
    "hcaiId": null,
    "businessName": null,
    "contactEmail": null,
    "categoryName": "PRIMARY CARE CLINIC",
    "categoryCode": "COMTYC",
    "licenseStatus": null,
    "inService": null,
    "licenseNumber": null,
    "licenseEffectiveDate": null,
    "licenseExpirationDate": null,
    "dataDate": "10/18/2025",
    "capacity": 0,
    "address": "2315 E ILLINOIS AVE",
    "city": "FRESNO",
    "zip": "93701",
    "county": "FRESNO",
    "phone": null,
    "lat": 36.745407,
    "lng": -119.7833085
  },
  {
    "id": "630022325",
    "name": "UNITED HEALTH CENTERS OF THE SAN JOAQUIN VALLEY",
    "npi": null,
    "hcaiId": "306100714",
    "businessName": "UNITED HEALTH CENTERS OF THE SAN JOAQUIN VALLEY",
    "contactEmail": "PREASJ@UNITEDHEALTHCENTERS.ORG",
    "categoryName": "PRIMARY CARE CLINIC",
    "categoryCode": "COMTYC",
    "licenseStatus": "ACTIVE",
    "inService": true,
    "licenseNumber": "550006262",
    "licenseEffectiveDate": "05/14/2025",
    "licenseExpirationDate": "05/13/2026",
    "dataDate": "10/18/2025",
    "capacity": 0,
    "address": "1110 N BLACKSTONE AVE",
    "city": "FRESNO",
    "zip": "93701",
    "county": "FRESNO",
    "phone": "(559) 646-7400",
    "lat": 36.756684,
    "lng": -119.7901125
  },
  {
    "id": "630027489",
    "name": "UNITED HEALTH CENTERS OF THE SAN JOAQUIN VALLEY",
    "npi": null,
    "hcaiId": null,
    "businessName": "UNITED HEALTH CENTERS OF THE SAN JOAQUIN VALLEY",
    "contactEmail": null,
    "categoryName": "PRIMARY CARE CLINIC",
    "categoryCode": "COMTYC",
    "licenseStatus": "ACTIVE",
    "inService": true,
    "licenseNumber": "550002829",
    "licenseEffectiveDate": "09/30/2025",
    "licenseExpirationDate": "09/29/2026",
    "dataDate": "10/18/2025",
    "capacity": 0,
    "address": "2210 E ILLINOIS AVE, SUITE 501",
    "city": "FRESNO",
    "zip": "93701",
    "county": "FRESNO",
    "phone": null,
    "lat": 36.74406499,
    "lng": -119.784664
  },
  {
    "id": "630028329",
    "name": "UNITED HEALTH CENTERS OF THE SAN JOAQUIN VALLEY",
    "npi": null,
    "hcaiId": null,
    "businessName": "UNITED HEALTH CENTERS OF THE SAN JOAQUIN VALLEY",
    "contactEmail": "LOPEZML@UNITEDHEALTHCENTERS.ORG",
    "categoryName": "PRIMARY CARE CLINIC",
    "categoryCode": "COMTYC",
    "licenseStatus": "ACTIVE",
    "inService": true,
    "licenseNumber": "550009896",
    "licenseEffectiveDate": "07/30/2025",
    "licenseExpirationDate": "07/29/2026",
    "dataDate": "10/18/2025",
    "capacity": 0,
    "address": "290 N WAYTE LN, SUITE 1200-1400, 1600-1800, 2100-2700",
    "city": "FRESNO",
    "zip": "93701",
    "county": "FRESNO",
    "phone": "(800) 492-4227",
    "lat": 36.7465286,
    "lng": -119.7831756
  },
  {
    "id": "630028337",
    "name": "UNITED HEALTH CENTERS OF THE SAN JOAQUIN VALLEY",
    "npi": null,
    "hcaiId": null,
    "businessName": "UNITED HEALTH CENTERS OF THE SAN JOAQUIN VALLEY",
    "contactEmail": null,
    "categoryName": "PRIMARY CARE CLINIC",
    "categoryCode": "COMTYC",
    "licenseStatus": "ACTIVE",
    "inService": true,
    "licenseNumber": "550009901",
    "licenseEffectiveDate": "08/01/2025",
    "licenseExpirationDate": "07/31/2026",
    "dataDate": "10/18/2025",
    "capacity": 0,
    "address": "255 N HERWALDT DR",
    "city": "FRESNO",
    "zip": "93701",
    "county": "FRESNO",
    "phone": null,
    "lat": 36.74565965,
    "lng": -119.7832895
  }
]