[
  {
    "id": "630022330",
    "name": "1ST CHOICE HOME HEALTHCARE",
    "npi": null,
    "hcaiId": "406105339",
    "businessName": "1ST CHOICE HOME HEALTHCARE FRESNO INC.",
    "contactEmail": "AAMIR@FIRSTCHOICE-HHA.COM",
    "categoryName": "HOME HEALTH AGENCY",
    "categoryCode": "HHA",
    "licenseStatus": "ACTIVE",
    "inService": true,
    "licenseNumber": "550007893",
    "licenseEffectiveDate": "03/07/2025",
    "licenseExpirationDate": "03/06/2026",
    "dataDate": "10/18/2025",
    "capacity": 0,
    "address": "1318 E SHAW AVE, SUITE 180B",
    "city": "FRESNO",
    "zip": "93710",
    "county": "FRESNO",
    "phone": "(650) 822-3398",
    "lat": 36.811665,
    "lng": -119.7640935
  },
  {
    "id": "630022346",
    "name": "1ST CHOICE HOSPICE",
    "npi": null,
    "hcaiId": null,
    "businessName": "1ST CHOICE HOME HEALTHCARE FRESNO INC.",
    "contactEmail": "AAMIR@FIRSTCHOICE-HHA.COM",
    "categoryName": "HOSPICE",
    "categoryCode": "HOSPICE",
    "licenseStatus": "ACTIVE",
    "inService": true,
    "licenseNumber": "550008615",
    "licenseEffectiveDate": "06/09/2025",
    "licenseExpirationDate": "06/08/2027",
    "dataDate": "10/18/2025",
    "capacity": 0,
    "address": "1318 E SHAW AVE, SUITE 180",
    "city": "FRESNO",
    "zip": "93710",
    "county": "FRESNO",
    "phone": "(559) 293-3470",
    "lat": 36.811665,
    "lng": -119.7640935
  },
  {
    "id": "070001347",
    "name": "ADULT DAY HEALTH CARE OF FRESNO AND CLOVIS",
    "npi": null,
    "hcaiId": null,
    "businessName": "ADHC OF FRESNO AND CLOVIS",
    "contactEmail": "ADHCFRESNOCLOVIS@YAHOO.COM",
    "categoryName": "ADULT DAY HEALTH CARE",
    "categoryCode": "ADHC",
    "licenseStatus": "ACTIVE",
    "inService": true,
    "licenseNumber": "070000657",
    "licenseEffectiveDate": "12/01/2024",
    "licenseExpirationDate": "11/30/2025",
    "dataDate": "10/18/2025",
    "capacity": 0,
    "address": "5757 N 1ST ST",
    "city": "FRESNO",
    "zip": "93710",
    "county": "FRESNO",
    "phone": "(559) 227-8600",
    "lat": 36.82179,
    "lng": -119.772513
  },
  {
    "id": "040001125",
    "name": "ADVANCED SURGERY CENTER",
    "npi": null,
    "hcaiId": "306105009",
    "businessName": "ADVANCED SURGERY CENTER",
    "contactEmail": null,
    "categoryName": "SURGICAL CLINIC",
    "categoryCode": "ASC",
    "licenseStatus": "INACTIVE - CAPEN DECISION",
    "inService": false,
    "licenseNumber": "040000443",
    "licenseEffectiveDate": "11/24/2007",
    "licenseExpirationDate": "11/23/2008",
    "dataDate": "10/18/2025",
    "capacity": 0,
    "address": "5771 N FRESNO ST, SUITE 101",
    "city": "FRESNO",
    "zip": "93710",
    "county": "FRESNO",
    "phone": "(559) 448-9900",
    "lat": 36.822447,
    "lng": -119.781864
  },
  {
    "id": "040001363",
    "name": "ALLEN-FLORER FAMILY HOME - NINTH",
    "npi": "1225124993",
    "hcaiId": null,
    "businessName": "ALLEN-FLORER FAMILY HOMES, INC.",
    "contactEmail": "LAURAPHARRISRN@YAHOO.COM",
    "categoryName": "INTERMEDIATE CARE FACILITY-DD/H/N/CN/IID",
    "categoryCode": "ICFDDN",
    "licenseStatus": "ACTIVE",
    "inService": true,
    "licenseNumber": "040000533",
    "licenseEffectiveDate": "03/20/2025",
    "licenseExpirationDate": "03/19/2026",
    "dataDate": "10/18/2025",
    "capacity": 6,
    "address": "6074 N 9TH ST",
    "city": "FRESNO",
    "zip": "93710",
    "county": "FRESNO",
    "phone": null,
    "lat": 36.824391,
    "lng": -119.7579735
  },
  {
    "id": "630017316",
    "name": "ANGEL'S BEST HOSPICE CARE, INC.",
    "npi": null,
    "hcaiId": "406102939",
    "businessName": "ANGEL'S BEST HOSPICE CARE, INC.",
    "contactEmail": "ANGELSBESTHOSPICECARE@GMAIL.COM",
    "categoryName": "HOSPICE",
    "categoryCode": "HOSPICE",
    "licenseStatus": "ACTIVE",
    "inService": true,
    "licenseNumber": "550005788",
    "licenseEffectiveDate": "10/15/2024",
    "licenseExpirationDate": "10/14/2026",
    "dataDate": "10/18/2025",
    "capacity": 0,
    "address": "5070 N 6TH ST, SUITE 185",
    "city": "FRESNO",
    "zip": "93710",
    "county": "FRESNO",
    "phone": "(559) 825-1210",
    "lat": 36.810225,
    "lng": -119.762802
  },
  {
    "id": "630025288",
    "name": "ANGELS CARE HOME HEALTH AGENCY",
    "npi": null,
    "hcaiId": "406106607",
    "businessName": "ANGELS CARE HOME HEALTH AGENCY",
    "contactEmail": "ANGELSCAREHOMEHEALTH.INC@GMAIL.COM",
    "categoryName": "HOME HEALTH AGENCY",
    "categoryCode": "HHA",
    "licenseStatus": "ACTIVE",
    "inService": true,
    "licenseNumber": "550008550",
    "licenseEffectiveDate": "05/24/2025",
    "licenseExpirationDate": "05/23/2026",
    "dataDate": "10/18/2025",
    "capacity": 0,
    "address": "125 E BARSTOW AVE, SUITE 113",
    "city": "FRESNO",
    "zip": "93710",
    "county": "FRESNO",
    "phone": "(559) 293-4975",
    "lat": 36.815274,
    "lng": -119.7872865
  },
  {
    "id": "630016831",
    "name": "BRIDGE HOME HEALTH",
    "npi": "1528419165",
    "hcaiId": "406101285",
    "businessName": "SENIOR BRIDGE HOME HEALTH CARE, INC.",
    "contactEmail": "GBOGDAN@BRIDGEHH.COM",
    "categoryName": "HOME HEALTH AGENCY",
    "categoryCode": "HHA",
    "licenseStatus": "ACTIVE",
    "inService": true,
    "licenseNumber": "550004277",
    "licenseEffectiveDate": "05/17/2025",
    "licenseExpirationDate": "05/16/2026",
    "dataDate": "10/18/2025",
    "capacity": 0,
    "address": "155 E SHAW AVE, SUITE 204",
    "city": "FRESNO",
    "zip": "93710",
    "county": "FRESNO",
    "phone": "(708) 218-1661",
    "lat": 36.808281,
    "lng": -119.787228
  },
  {
    "id": "630016641",
    "name": "CALIFORNIA HOME HEALTH",
    "npi": "1629437520",
    "hcaiId": "406105142",
    "businessName": "CALIFORNIA HOME HEALTH",
    "contactEmail": "PUNEET.DHILLON@CAHHCARE.COM",
    "categoryName": "HOME HEALTH AGENCY",
    "categoryCode": "HHA",
    "licenseStatus": "ACTIVE",
    "inService": true,
    "licenseNumber": "550003991",
    "licenseEffectiveDate": "09/22/2025",
    "licenseExpirationDate": "09/21/2026",
    "dataDate": "10/18/2025",
    "capacity": 0,
    "address": "6081 N 1ST ST, SUITE 104",
    "city": "FRESNO",
    "zip": "93710",
    "county": "FRESNO",
    "phone": "(559) 432-8700",
    "lat": 36.824994,
    "lng": -119.7748845
  },
  {
    "id": "040000308",
    "name": "CASA FLAMENGOS",
    "npi": "1992858591",
    "hcaiId": null,
    "businessName": "NOIA RESIDENTIAL SERVICES, INC.",
    "contactEmail": "SKLI@ATTITUDE.COM",
    "categoryName": "INTERMEDIATE CARE FACILITY-DD/H/N/CN/IID",
    "categoryCode": "ICFDDH",
    "licenseStatus": "ACTIVE",
    "inService": true,
    "licenseNumber": "040000234",
    "licenseEffectiveDate": "02/19/2025",
    "licenseExpirationDate": "02/18/2026",
    "dataDate": "10/18/2025",
    "capacity": 6,
    "address": "1580 E ALMENDRA DR",
    "city": "FRESNO",
    "zip": "93710",
    "county": "FRESNO",
    "phone": "(559) 489-5970",
    "lat": 36.818955,
    "lng": -119.75913
  },
  {
    "id": "040000151",
    "name": "COMMUNITY HOME CARE",
    "npi": "1588745137",
    "hcaiId": "406100011",
    "businessName": "FRESNO COMMUNITY HOSPITAL AND MEDICAL CENTER",
    "contactEmail": "RSMART@COMMUNITYMEDICAL.ORG",
    "categoryName": "HOME HEALTH AGENCY",
    "categoryCode": "HHA",
    "licenseStatus": "ACTIVE",
    "inService": true,
    "licenseNumber": "040000008",
    "licenseEffectiveDate": "02/21/2025",
    "licenseExpirationDate": "02/20/2026",
    "dataDate": "10/18/2025",
    "capacity": 0,
    "address": "1630 EAST SHAW, SUITE 154",
    "city": "FRESNO",
    "zip": "93710",
    "county": "FRESNO",
    "phone": "(559) 724-4175",
    "lat": 36.809946,
    "lng": -119.7573885
  },
  {
    "id": "630012013",
    "name": "FRESENIUS MEDICAL CARE OF FRESNO NORTH",
    "npi": null,
    "hcaiId": "306105076",
    "businessName": "BIO-MEDICAL APPLICATIONS OF CALIFORNIA INC.",
    "contactEmail": "CLINIC6119@FMC-NA.COM",
    "categoryName": "CHRONIC DIALYSIS CLINIC",
    "categoryCode": "ESRD/CDC",
    "licenseStatus": "ACTIVE",
    "inService": true,
    "licenseNumber": "550001316",
    "licenseEffectiveDate": "12/01/2024",
    "licenseExpirationDate": "11/30/2025",
    "dataDate": "10/18/2025",
    "capacity": 20,
    "address": "6737 N WILLOW AVE, BLDG C",
    "city": "FRESNO",
    "zip": "93710",
    "county": "FRESNO",
    "phone": "(559) 324-1070",
    "lat": 36.83476649,
    "lng": -119.7296823
  },
  {
    "id": "630019276",
    "name": "FRESNO AMERICAN INDIAN HEALTH PROJECT",
    "npi": null,
    "hcaiId": "306100650",
    "businessName": "FRESNO AMERICAN INDIAN HEALTH PROJECT",
    "contactEmail": "SDELAPENA@FAIHP.ORG",
    "categoryName": "PRIMARY CARE CLINIC",
    "categoryCode": "COMTYC",
    "licenseStatus": "ACTIVE",
    "inService": true,
    "licenseNumber": "550005860",
    "licenseEffectiveDate": "11/17/2025",
    "licenseExpirationDate": "11/16/2026",
    "dataDate": "10/18/2025",
    "capacity": 0,
    "address": "1551 E SHAW AVE, SUITE 128 & 139",
    "city": "FRESNO",
    "zip": "93710",
    "county": "FRESNO",
    "phone": "(559) 320-0490",
    "lat": 36.807849,
    "lng": -119.7590625
  },
  {
    "id": "630012152",
    "name": "FRESNO AT HOME CENTER",
    "npi": "1073705018",
    "hcaiId": null,
    "businessName": null,
    "contactEmail": "CYNTHIA.HUTCHISON@DAVITA.COM",
    "categoryName": "CHRONIC DIALYSIS CLINIC",
    "categoryCode": "ESRD",
    "licenseStatus": null,
    "inService": null,
    "licenseNumber": null,
    "licenseEffectiveDate": null,
    "licenseExpirationDate": null,
    "dataDate": "10/18/2025",
    "capacity": 0,
    "address": "6121 N THESTA ST, SUITE 102",
    "city": "FRESNO",
    "zip": "93710",
    "county": "FRESNO",
    "phone": "559-448-0127",
    "lat": 36.824931,
    "lng": -119.783799
  },
  {
    "id": "630021858",
    "name": "FRESNO COMMUNITY HOME HEALTH CARE, INC.",
    "npi": null,
    "hcaiId": "406105488",
    "businessName": "FRESNO COMMUNITY HOME HEALTH CARE, INC.",
    "contactEmail": "FRESNOCOMMUNITYHH@GMAIL.COM",
    "categoryName": "HOME HEALTH AGENCY",
    "categoryCode": "HHA",
    "licenseStatus": "ACTIVE",
    "inService": true,
    "licenseNumber": "550007418",
    "licenseEffectiveDate": "12/09/2024",
    "licenseExpirationDate": "12/08/2025",
    "dataDate": "10/18/2025",
    "capacity": 0,
    "address": "5070 N SIXTH ST, SUITE 185A",
    "city": "FRESNO",
    "zip": "93710",
    "county": "FRESNO",
    "phone": "(659) 704-5430",
    "lat": 36.80979722,
    "lng": -119.7630141
  },
  {
    "id": "630018800",
    "name": "FRESNO SPECIALTY SURGERY CENTER",
    "npi": "1861930729",
    "hcaiId": null,
    "businessName": null,
    "contactEmail": null,
    "categoryName": "SURGICAL CLINIC",
    "categoryCode": "ASC",
    "licenseStatus": null,
    "inService": null,
    "licenseNumber": null,
    "licenseEffectiveDate": null,
    "licenseExpirationDate": null,
    "dataDate": "10/18/2025",
    "capacity": 0,
    "address": "6181 N THESTA ST, SUITE 102",
    "city": "FRESNO",
    "zip": "93710",
    "county": "FRESNO",
    "phone": "(559) 418-5000",
    "lat": 36.826272,
    "lng": -119.783421
  },
  {
    "id": "040000254",
    "name": "FRESNO SURGICAL HOSPITAL",
    "npi": null,
    "hcaiId": "106104047",
    "businessName": "FRESNO SURGERY CENTER",
    "contactEmail": "JCLARK@FSHOSP.COM",
    "categoryName": "GENERAL ACUTE CARE HOSPITAL",
    "categoryCode": "GACH",
    "licenseStatus": "ACTIVE",
    "inService": true,
    "licenseNumber": "040000332",
    "licenseEffectiveDate": "02/23/2025",
    "licenseExpirationDate": "02/22/2026",
    "dataDate": "10/18/2025",
    "capacity": 27,
    "address": "6125 N FRESNO ST",
    "city": "FRESNO",
    "zip": "93710",
    "county": "FRESNO",
    "phone": "(559) 447-7606",
    "lat": 36.825012,
    "lng": -119.781774
  },
  {
    "id": "630018789",
    "name": "GENTLE CARE HOMEHEALTH",
    "npi": null,
    "hcaiId": "406100024",
    "businessName": "CITADEL & IVAN LLC",
    "contactEmail": "CITADEL3174@GMAIL.COM",
    "categoryName": "HOME HEALTH AGENCY",
    "categoryCode": "HHA",
    "licenseStatus": "ACTIVE",
    "inService": true,
    "licenseNumber": "550008142",
    "licenseEffectiveDate": "09/01/2025",
    "licenseExpirationDate": "08/31/2026",
    "dataDate": "10/18/2025",
    "capacity": 0,
    "address": "5100 N 6TH ST, SUITE 154",
    "city": "FRESNO",
    "zip": "93710",
    "county": "FRESNO",
    "phone": "(559) 705-6553",
    "lat": 36.811008,
    "lng": -119.76192
  },
  {
    "id": "630011741",
    "name": "GOLDEN STATE DERMATOLOGY ASSOCIATES, INC.",
    "npi": "1346373271",
    "hcaiId": null,
    "businessName": null,
    "contactEmail": null,
    "categoryName": "SURGICAL CLINIC",
    "categoryCode": "ASC",
    "licenseStatus": null,
    "inService": null,
    "licenseNumber": null,
    "licenseEffectiveDate": null,
    "licenseExpirationDate": null,
    "dataDate": "10/18/2025",
    "capacity": 0,
    "address": "6769 N FRESNO ST, SUITE 101",
    "city": "FRESNO",
    "zip": "93710",
    "county": "FRESNO",
    "phone": "(559) 435-0337",
    "lat": 36.837018,
    "lng": -119.781531
  },
  {
    "id": "040001416",
    "name": "HCC HEALTHCARE AT HOME",
    "npi": "1912007097",
    "hcaiId": "406105066",
    "businessName": "HEALTHCARE CALIFORNIA",
    "contactEmail": "CONTRACTING@IMPACTHC.ORG",
    "categoryName": "HOME HEALTH AGENCY",
    "categoryCode": "HHA",
    "licenseStatus": "ACTIVE",
    "inService": true,
    "licenseNumber": "550000020",
    "licenseEffectiveDate": "04/29/2025",
    "licenseExpirationDate": "01/04/2026",
    "dataDate": "10/18/2025",
    "capacity": 0,
    "address": "6327 N FRESNO ST, SUITE 104",
    "city": "FRESNO",
    "zip": "93710",
    "county": "FRESNO",
    "phone": "(559) 243-9990",
    "lat": 36.82893779,
    "lng": -119.7814442
  },
  {
    "id": "630019282",
    "name": "HEALTHCARE CALIFORNIA HOSPICE",
    "npi": null,
    "hcaiId": null,
    "businessName": "HEALTHCARE CALIFORNIA",
    "contactEmail": "HTD@HEALTHCAL.COM",
    "categoryName": "HOSPICE",
    "categoryCode": "HOSPICE",
    "licenseStatus": "ACTIVE",
    "inService": true,
    "licenseNumber": "550006176",
    "licenseEffectiveDate": "06/05/2025",
    "licenseExpirationDate": "04/04/2027",
    "dataDate": "10/18/2025",
    "capacity": 0,
    "address": "6327 N FRESNO ST, SUITE 104B",
    "city": "FRESNO",
    "zip": "93710",
    "county": "FRESNO",
    "phone": "(559) 240-6717",
    "lat": 36.82893779,
    "lng": -119.7814442
  },
  {
    "id": "630017092",
    "name": "HOSPICE OF THE VALLEY",
    "npi": "1982147492",
    "hcaiId": "406101318",
    "businessName": "CITADEL & IVAN LLC",
    "contactEmail": "CITADEL3174@GMAIL.COM",
    "categoryName": "HOSPICE",
    "categoryCode": "HOSPICE",
    "licenseStatus": "ACTIVE",
    "inService": true,
    "licenseNumber": "550004350",
    "licenseEffectiveDate": "08/06/2024",
    "licenseExpirationDate": "08/05/2026",
    "dataDate": "10/18/2025",
    "capacity": 0,
    "address": "5100 N 6TH ST, SUITE 150",
    "city": "FRESNO",
    "zip": "93710",
    "county": "FRESNO",
    "phone": "(559) 227-7202",
    "lat": 36.811008,
    "lng": -119.76192
  },
  {
    "id": "630026837",
    "name": "J&P HEALTH, LLC",
    "npi": null,
    "hcaiId": null,
    "businessName": "J&P HEALTH, LLC",
    "contactEmail": "MARYANN@NORTHPOINTSC.NET",
    "categoryName": "HOME HEALTH AGENCY",
    "categoryCode": "HHA",
    "licenseStatus": "ACTIVE",
    "inService": true,
    "licenseNumber": "550009838",
    "licenseEffectiveDate": "05/23/2025",
    "licenseExpirationDate": "11/22/2025",
    "dataDate": "10/18/2025",
    "capacity": 0,
    "address": "6073 N FRESNO ST, SUITE 105",
    "city": "FRESNO",
    "zip": "93710",
    "county": "FRESNO",
    "phone": "(559) 295-2273",
    "lat": 36.824085,
    "lng": -119.781639
  },
  {
    "id": "630027725",
    "name": "MAGNOLIA HEALTH SYSTEM LLC",
    "npi": null,
    "hcaiId": null,
    "businessName": "MAGNOLIA HEALTH SYSTEM LLC",
    "contactEmail": "CCOECHOLS@GMAIL.COM",
    "categoryName": "HOSPICE",
    "categoryCode": "HOSPICE",
    "licenseStatus": "ACTIVE",
    "inService": true,
    "licenseNumber": "550009680",
    "licenseEffectiveDate": "08/26/2025",
    "licenseExpirationDate": "02/11/2027",
    "dataDate": "10/18/2025",
    "capacity": 0,
    "address": "1130 E SHAW AVE, SUITE 105",
    "city": "FRESNO",
    "zip": "93710",
    "county": "FRESNO",
    "phone": "(559) 940-3319",
    "lat": 36.80942359,
    "lng": -119.7692281
  },
  {
    "id": "630027929",
    "name": "MAGNOLIA HEALTH SYSTEM LLC",
    "npi": null,
    "hcaiId": null,
    "businessName": "MAGNOLIA HEALTH SYSTEM LLC",
    "contactEmail": "CCOECHOLS@GMAIL.COM",
    "categoryName": "HOME HEALTH AGENCY",
    "categoryCode": "HHA",
    "licenseStatus": "ACTIVE",
    "inService": true,
    "licenseNumber": "550009884",
    "licenseEffectiveDate": "07/02/2025",
    "licenseExpirationDate": "01/01/2026",
    "dataDate": "10/18/2025",
    "capacity": 0,
    "address": "1130 E SHAW AVE, SUITE 104",
    "city": "FRESNO",
    "zip": "93710",
    "county": "FRESNO",
    "phone": "(559) 940-3319",
    "lat": 36.80942359,
    "lng": -119.7692281
  },
  {
    "id": "630006901",
    "name": "MARIA'S HOUSE",
    "npi": "1447417811",
    "hcaiId": null,
    "businessName": "HARMONY HOMES, INC.",
    "contactEmail": "JWINANS@HARMONYHOMESINC.ORG",
    "categoryName": "INTERMEDIATE CARE FACILITY-DD/H/N/CN/IID",
    "categoryCode": "ICFDDN",
    "licenseStatus": "ACTIVE",
    "inService": true,
    "licenseNumber": "550000472",
    "licenseEffectiveDate": "06/29/2025",
    "licenseExpirationDate": "06/28/2026",
    "dataDate": "10/18/2025",
    "capacity": 6,
    "address": "6258 N CALLISCH AVE",
    "city": "FRESNO",
    "zip": "93710",
    "county": "FRESNO",
    "phone": "(559) 449-1605",
    "lat": 36.827748,
    "lng": -119.7760635
  },
  {
    "id": "040000579",
    "name": "MAXIM HEALTHCARE SERVICES, INC.",
    "npi": "1972559565",
    "hcaiId": "406104020",
    "businessName": "MAXIM HEALTHCARE SERVICES, INC.",
    "contactEmail": "FRESNOHH@MAXHEALTH.COM",
    "categoryName": "HOME HEALTH AGENCY",
    "categoryCode": "HHA",
    "licenseStatus": "ACTIVE",
    "inService": true,
    "licenseNumber": "040000267",
    "licenseEffectiveDate": "11/01/2025",
    "licenseExpirationDate": "10/31/2026",
    "dataDate": "10/18/2025",
    "capacity": 0,
    "address": "6051 N FRESNO ST, SUITE 102",
    "city": "FRESNO",
    "zip": "93710",
    "county": "FRESNO",
    "phone": "(559) 224-9078",
    "lat": 36.824058,
    "lng": -119.782593
  },
  {
    "id": "630002861",
    "name": "MY HOUSE",
    "npi": "1619353091",
    "hcaiId": null,
    "businessName": "HARMONY HOMES, INC.",
    "contactEmail": "JWINANS@HARMONYHOMESINC.ORG",
    "categoryName": "INTERMEDIATE CARE FACILITY-DD/H/N/CN/IID",
    "categoryCode": "ICFDDN",
    "licenseStatus": "ACTIVE",
    "inService": true,
    "licenseNumber": "550000034",
    "licenseEffectiveDate": "11/07/2024",
    "licenseExpirationDate": "11/06/2025",
    "dataDate": "10/18/2025",
    "capacity": 6,
    "address": "2597 E PAUL AVE",
    "city": "FRESNO",
    "zip": "93710",
    "county": "FRESNO",
    "phone": "(559) 449-1605",
    "lat": 36.831591,
    "lng": -119.7431235
  },
  {
    "id": "630026609",
    "name": "NAVITAS HOME HEALTH CARE",
    "npi": null,
    "hcaiId": null,
    "businessName": "NAVITAS HOME HEALTH CARE",
    "contactEmail": "NAVITASHOMEHEALTHCARE@GMAIL.COM",
    "categoryName": "HOME HEALTH AGENCY",
    "categoryCode": "HHA",
    "licenseStatus": "ACTIVE",
    "inService": true,
    "licenseNumber": "550009426",
    "licenseEffectiveDate": "10/04/2025",
    "licenseExpirationDate": "10/03/2026",
    "dataDate": "10/18/2025",
    "capacity": 0,
    "address": "5067 N MARIPOSA ST, SUITE 102",
    "city": "FRESNO",
    "zip": "93710",
    "county": "FRESNO",
    "phone": "(559) 383-2002",
    "lat": 36.809712,
    "lng": -119.7795645
  },
  {
    "id": "040000059",
    "name": "NORTH POINT HEALTHCARE & WELLNESS CENTRE, LP",
    "npi": "1346642592",
    "hcaiId": "206100800",
    "businessName": "NORTH POINT HEALTHCARE & WELLNESS CENTRE, LP",
    "contactEmail": "ADMINISTRATOR@NORTHPOINTHC.COM",
    "categoryName": "SKILLED NURSING FACILITY",
    "categoryCode": "SNF",
    "licenseStatus": "ACTIVE",
    "inService": true,
    "licenseNumber": "040000152",
    "licenseEffectiveDate": "11/10/2024",
    "licenseExpirationDate": "11/09/2025",
    "dataDate": "10/18/2025",
    "capacity": 99,
    "address": "668 E BULLARD AVE",
    "city": "FRESNO",
    "zip": "93710",
    "county": "FRESNO",
    "phone": "(559) 320-2200",
    "lat": 36.823932,
    "lng": -119.7755505
  },
  {
    "id": "630024613",
    "name": "OBRIA MEDICAL CLINICS FRESNO",
    "npi": "1861516809",
    "hcaiId": null,
    "businessName": "OBRIA MEDICAL CLINICS OF SOUTHERN CALIFORNIA, INC.",
    "contactEmail": null,
    "categoryName": "PRIMARY CARE CLINIC",
    "categoryCode": "COMTYC",
    "licenseStatus": "ACTIVE",
    "inService": true,
    "licenseNumber": "550000188",
    "licenseEffectiveDate": "06/12/2025",
    "licenseExpirationDate": "06/11/2026",
    "dataDate": "10/18/2025",
    "capacity": 0,
    "address": "5359 N FRESNO ST, SUITE 109",
    "city": "FRESNO",
    "zip": "93710",
    "county": "FRESNO",
    "phone": null,
    "lat": 36.815157,
    "lng": -119.7815985
  },
  {
    "id": "630018409",
    "name": "OMNI FAMILY HEALTH",
    "npi": null,
    "hcaiId": null,
    "businessName": "OMNI FAMILY HEALTH",
    "contactEmail": null,
    "categoryName": "PRIMARY CARE CLINIC",
    "categoryCode": "COMTYC",
    "licenseStatus": "ACTIVE",
    "inService": true,
    "licenseNumber": "120000668",
    "licenseEffectiveDate": "12/13/2024",
    "licenseExpirationDate": "12/12/2025",
    "dataDate": "10/18/2025",
    "capacity": 0,
    "address": "6107 N 1ST ST",
    "city": "FRESNO",
    "zip": "93710",
    "county": "FRESNO",
    "phone": null,
    "lat": 36.825237,
    "lng": -119.7726795
  },
  {
    "id": "630015398",
    "name": "OYUNA HOSPICE, INC",
    "npi": "1508270844",
    "hcaiId": "406105130",
    "businessName": "OYUNA HOSPICE INC",
    "contactEmail": "OYUNAHOSPICE@GMAIL.COM",
    "categoryName": "HOSPICE",
    "categoryCode": "HOSPICE",
    "licenseStatus": "ACTIVE",
    "inService": true,
    "licenseNumber": "550003193",
    "licenseEffectiveDate": "08/17/2025",
    "licenseExpirationDate": "08/16/2027",
    "dataDate": "10/18/2025",
    "capacity": 0,
    "address": "5067 N MARIPOSA ST, SUITE 104",
    "city": "FRESNO",
    "zip": "93710",
    "county": "FRESNO",
    "phone": "(559) 374-2726",
    "lat": 36.809721,
    "lng": -119.779344
  },
  {
    "id": "630028079",
    "name": "PCCC SURGERY CENTER INC",
    "npi": "1124533492",
    "hcaiId": null,
    "businessName": null,
    "contactEmail": "TJONES@PAINCLINICSCC.COM",
    "categoryName": "SURGICAL CLINIC",
    "categoryCode": "ASC",
    "licenseStatus": null,
    "inService": null,
    "licenseNumber": null,
    "licenseEffectiveDate": null,
    "licenseExpirationDate": null,
    "dataDate": "10/18/2025",
    "capacity": 0,
    "address": "5771 N FRESNO ST, SUITE 101",
    "city": "FRESNO",
    "zip": "93710",
    "county": "FRESNO",
    "phone": "(833) 748-1818",
    "lat": 36.82244148,
    "lng": -119.7818798
  },
  {
    "id": "630016532",
    "name": "PRO HOME HEALTH",
    "npi": "1578933149",
    "hcaiId": "406105137",
    "businessName": "PROFESSIONAL HEALTHCARE GROUP, INC.",
    "contactEmail": "CLG@PROHOMEHEALTH.NET",
    "categoryName": "HOME HEALTH AGENCY",
    "categoryCode": "HHA",
    "licenseStatus": "ACTIVE",
    "inService": true,
    "licenseNumber": "550003760",
    "licenseEffectiveDate": "12/19/2024",
    "licenseExpirationDate": "12/18/2025",
    "dataDate": "10/18/2025",
    "capacity": 0,
    "address": "5100 N 6TH ST, SUITE 155",
    "city": "FRESNO",
    "zip": "93710",
    "county": "FRESNO",
    "phone": "(559) 753-8181",
    "lat": 36.81066298,
    "lng": -119.762913
  },
  {
    "id": "040001235",
    "name": "REED, LEWIS",
    "npi": null,
    "hcaiId": null,
    "businessName": null,
    "contactEmail": null,
    "categoryName": "OTHER",
    "categoryCode": "UNLICEN",
    "licenseStatus": null,
    "inService": null,
    "licenseNumber": null,
    "licenseEffectiveDate": null,
    "licenseExpirationDate": null,
    "dataDate": "10/18/2025",
    "capacity": 0,
    "address": "6049 N 1ST ST, SUITE 101",
    "city": "FRESNO",
    "zip": "93710",
    "county": "FRESNO",
    "phone": "(559) 432-0524",
    "lat": 36.824067,
    "lng": -119.772945
  },
  {
    "id": "630027458",
    "name": "RISING HOME HEALTH CARE, INC.",
    "npi": null,
    "hcaiId": null,
    "businessName": "RISING HOME HEALTH CARE, INC.",
    "contactEmail": "RISINGHHCARE@GMAIL.COM",
    "categoryName": "HOME HEALTH AGENCY",
    "categoryCode": "HHA",
    "licenseStatus": "ACTIVE",
    "inService": true,
    "licenseNumber": "550009511",
    "licenseEffectiveDate": "05/15/2025",
    "licenseExpirationDate": "11/14/2025",
    "dataDate": "10/18/2025",
    "capacity": 0,
    "address": "125 E BARSTOW AVE, SUITE 143",
    "city": "FRESNO",
    "zip": "93710",
    "county": "FRESNO",
    "phone": "(559) 878-2331",
    "lat": 36.81540701,
    "lng": -119.787653
  },
  {
    "id": "100001748",
    "name": "SAINT AGNES HOME HEALTH & HOSPICE",
    "npi": null,
    "hcaiId": "406104077",
    "businessName": "TRINITY HOME HEALTH SERVICES",
    "contactEmail": null,
    "categoryName": "HOSPICE",
    "categoryCode": "HOSPICE",
    "licenseStatus": "ACTIVE",
    "inService": true,
    "licenseNumber": "040000174",
    "licenseEffectiveDate": "04/08/2025",
    "licenseExpirationDate": "04/07/2026",
    "dataDate": "10/18/2025",
    "capacity": 0,
    "address": "6729 N WILLOW AVE, SUITE 103",
    "city": "FRESNO",
    "zip": "93710",
    "county": "FRESNO",
    "phone": null,
    "lat": 36.83418,
    "lng": -119.731251
  },
  {
    "id": "040000169",
    "name": "SAINT AGNES HOME HEALTH AND HOSPICE",
    "npi": "1790873149",
    "hcaiId": "406100908",
    "businessName": "TRINITY HOME HEALTH SERVICES",
    "contactEmail": "JUSTIN.RATLIFF@SAMC.COM",
    "categoryName": "HOME HEALTH AGENCY",
    "categoryCode": "HHA",
    "licenseStatus": "ACTIVE",
    "inService": true,
    "licenseNumber": "040000174",
    "licenseEffectiveDate": "04/08/2025",
    "licenseExpirationDate": "04/07/2026",
    "dataDate": "10/18/2025",
    "capacity": 0,
    "address": "6729 N WILLOW AVE, SUITE 103",
    "city": "FRESNO",
    "zip": "93710",
    "county": "FRESNO",
    "phone": "(559) 450-5463",
    "lat": 36.834048,
    "lng": -119.7313335
  },
  {
    "id": "040000076",
    "name": "THE TERRACES AT SAN JOAQUIN GARDENS VILLAGE",
    "npi": "1134480817",
    "hcaiId": "206100789",
    "businessName": "HUMANGOOD FRESNO",
    "contactEmail": "PARM.CHAHAL@HUMANGOOD.ORG",
    "categoryName": "SKILLED NURSING FACILITY",
    "categoryCode": "SNF",
    "licenseStatus": "ACTIVE",
    "inService": true,
    "licenseNumber": "040000142",
    "licenseEffectiveDate": "11/01/2025",
    "licenseExpirationDate": "10/31/2026",
    "dataDate": "10/18/2025",
    "capacity": 54,
    "address": "5551 N FRESNO ST",
    "city": "FRESNO",
    "zip": "93710",
    "county": "FRESNO",
    "phone": "(559) 430-8215",
    "lat": 36.818001,
    "lng": -119.784555
  },
  {
    "id": "040001114",
    "name": "THUMMANOND, PATRICIA",
    "npi": null,
    "hcaiId": null,
    "businessName": null,
    "contactEmail": null,
    "categoryName": "OTHER",
    "categoryCode": "UNLICEN",
    "licenseStatus": null,
    "inService": null,
    "licenseNumber": null,
    "licenseEffectiveDate": null,
    "licenseExpirationDate": null,
    "dataDate": "10/18/2025",
    "capacity": 0,
    "address": "6049 N 1ST ST, SUITE 101",
    "city": "FRESNO",
    "zip": "93710",
    "county": "FRESNO",
    "phone": "(559) 432-0524",
    "lat": 36.824067,
    "lng": -119.772945
  },
  {
    "id": "630020245",
    "name": "UNITED HEALTH CENTERS OF THE SAN JOAQUIN VALLEY",
    "npi": null,
    "hcaiId": null,
    "businessName": "UNITED HEALTH CENTERS OF THE SAN JOAQUIN VALLEY",
    "contactEmail": "CORPORATE@UNITEDHEALTHCENTERS.ORG",
    "categoryName": "PRIMARY CARE CLINIC",
    "categoryCode": "COMTYC",
    "licenseStatus": "ACTIVE",
    "inService": true,
    "licenseNumber": "550005820",
    "licenseEffectiveDate": "11/10/2024",
    "licenseExpirationDate": "11/09/2025",
    "dataDate": "10/18/2025",
    "capacity": 0,
    "address": "1780 E BULLARD AVE",
    "city": "FRESNO",
    "zip": "93710",
    "county": "FRESNO",
    "phone": "(559) 646-6618",
    "lat": 36.8235,
    "lng": -119.75454
  },
  {
    "id": "630026874",
    "name": "UNITED HEALTH CENTERS OF THE SAN JOAQUIN VALLEY",
    "npi": null,
    "hcaiId": null,
    "businessName": "UNITED HEALTH CENTERS OF THE SAN JOAQUIN VALLEY",
    "contactEmail": null,
    "categoryName": "PRIMARY CARE CLINIC",
    "categoryCode": "COMTYC",
    "licenseStatus": "ACTIVE",
    "inService": true,
    "licenseNumber": "550002830",
    "licenseEffectiveDate": "09/30/2025",
    "licenseExpirationDate": "09/29/2026",
    "dataDate": "10/18/2025",
    "capacity": 0,
    "address": "1782 E BULLARD AVE, SUITE 102",
    "city": "FRESNO",
    "zip": "93710",
    "county": "FRESNO",
    "phone": null,
    "lat": 36.823464,
    "lng": -119.754765
  },
  {
    "id": "630014499",
    "name": "VALLEY REGIONAL HOME HEALTH, INC.",
    "npi": "1275975138",
    "hcaiId": "406105105",
    "businessName": "VALLEY REGIONAL HOME HEALTH, INC",
    "contactEmail": "MARI.ZAKARYAN@VALLEYREGIONALCARE.COM",
    "categoryName": "HOME HEALTH AGENCY",
    "categoryCode": "HHA",
    "licenseStatus": "ACTIVE",
    "inService": true,
    "licenseNumber": "550002633",
    "licenseEffectiveDate": "04/11/2025",
    "licenseExpirationDate": "04/10/2026",
    "dataDate": "10/18/2025",
    "capacity": 0,
    "address": "6311 N FRESNO ST, SUITE 102",
    "city": "FRESNO",
    "zip": "93710",
    "county": "FRESNO",
    "phone": "(559) 431-3333",
    "lat": 36.828675,
    "lng": -119.782008
  },
  {
    "id": "630017504",
    "name": "VALLEY REGIONAL HOSPICE, INC.",
    "npi": "1750804712",
    "hcaiId": "406101598",
    "businessName": "VALLEY REGIONAL HOSPICE, INC.",
    "contactEmail": "MZAKARYAN@VRHOMEHEALTH.COM",
    "categoryName": "HOSPICE",
    "categoryCode": "HOSPICE",
    "licenseStatus": "ACTIVE",
    "inService": true,
    "licenseNumber": "550004356",
    "licenseEffectiveDate": "08/17/2024",
    "licenseExpirationDate": "08/16/2026",
    "dataDate": "10/18/2025",
    "capacity": 0,
    "address": "6311 N FRESNO ST, SUITE 103",
    "city": "FRESNO",
    "zip": "93710",
    "county": "FRESNO",
    "phone": "(559) 431-3333",
    "lat": 36.82863,
    "lng": -119.781837
  },
  {
    "id": "040000683",
    "name": "VERA BRODER SILBERSTEIN FAMILY FIRST HEALTH CENTER",
    "npi": "1023062593",
    "hcaiId": "306105075",
    "businessName": "PLANNED PARENTHOOD MAR MONTE, INC.",
    "contactEmail": "LAURA_DALTON@PPMARMONTE.ORG",
    "categoryName": "PRIMARY CARE CLINIC",
    "categoryCode": "COMTYC",
    "licenseStatus": "ACTIVE",
    "inService": true,
    "licenseNumber": "040000294",
    "licenseEffectiveDate": "11/01/2025",
    "licenseExpirationDate": "10/31/2026",
    "dataDate": "10/18/2025",
    "capacity": 0,
    "address": "6095 N 1ST ST",
    "city": "FRESNO",
    "zip": "93710",
    "county": "FRESNO",
    "phone": "(408) 799-6574",
    "lat": 36.825228,
    "lng": -119.773863
  },
  {
    "id": "630015104",
    "name": "VIDA CARE HOME HEALTH",
    "npi": "1609115021",
    "hcaiId": "406105131",
    "businessName": "VIDA HEALTHCARE SYSTEMS, LLC",
    "contactEmail": "ERECINOS86@YAHOO.COM",
    "categoryName": "HOME HEALTH AGENCY",
    "categoryCode": "HHA",
    "licenseStatus": "ACTIVE",
    "inService": true,
    "licenseNumber": "550003251",
    "licenseEffectiveDate": "10/07/2025",
    "licenseExpirationDate": "10/06/2026",
    "dataDate": "10/18/2025",
    "capacity": 0,
    "address": "5100 N 6TH ST, SUITE 112",
    "city": "FRESNO",
    "zip": "93710",
    "county": "FRESNO",
    "phone": "(559) 248-0277",
    "lat": 36.810999,
    "lng": -119.761335
  },
  {
    "id": "630026654",
    "name": "VISITING NURSES HEALTHCARE, INC.",
    "npi": null,
    "hcaiId": null,
    "businessName": "VISITING NURSES HEALTHCARE, INC.",
    "contactEmail": "VISITINGNURSESHHA@GMAIL.COM",
    "categoryName": "HOME HEALTH AGENCY",
    "categoryCode": "HHA",
    "licenseStatus": "ACTIVE",
    "inService": true,
    "licenseNumber": "550009513",
    "licenseEffectiveDate": "05/18/2025",
    "licenseExpirationDate": "11/17/2025",
    "dataDate": "10/18/2025",
    "capacity": 0,
    "address": "371 E BULLARD AVE, SUITE 102",
    "city": "FRESNO",
    "zip": "93710",
    "county": "FRESNO",
    "phone": "(747) 307-3822",
    "lat": 36.82266201,
    "lng": -119.782362
  }
]