[
  {
    "id": "630018230",
    "name": "A PLUS HOME HEALTH, INC.",
    "npi": null,
    "hcaiId": "406102100",
    "businessName": "A PLUS HOME HEALTH, INC.",
    "contactEmail": "APLUSHOMEHEALTH2@GMAIL.COM",
    "categoryName": "HOME HEALTH AGENCY",
    "categoryCode": "HHA",
    "licenseStatus": "ACTIVE",
    "inService": true,
    "licenseNumber": "550005178",
    "licenseEffectiveDate": "12/18/2024",
    "licenseExpirationDate": "12/17/2025",
    "dataDate": "10/18/2025",
    "capacity": 0,
    "address": "3455 W SHAW AVE, SUITE 107",
    "city": "FRESNO",
    "zip": "93711",
    "county": "FRESNO",
    "phone": "(559) 270-4744",
    "lat": 36.805347,
    "lng": -119.8549755
  },
  {
    "id": "040000642",
    "name": "ABLELIGHT INC. - BROWNING",
    "npi": "1417010604",
    "hcaiId": null,
    "businessName": "ABLELIGHT INC.",
    "contactEmail": "ANGEL.RANDALL@ABLELIGHT.ORG",
    "categoryName": "INTERMEDIATE CARE FACILITY-DD/H/N/CN/IID",
    "categoryCode": "ICFDDH",
    "licenseStatus": "ACTIVE",
    "inService": true,
    "licenseNumber": "040000282",
    "licenseEffectiveDate": "06/02/2025",
    "licenseExpirationDate": "06/01/2026",
    "dataDate": "10/18/2025",
    "capacity": 6,
    "address": "1088 W BROWNING AVE",
    "city": "FRESNO",
    "zip": "93711",
    "county": "FRESNO",
    "phone": "(559) 349-8006",
    "lat": 36.819531,
    "lng": -119.810457
  },
  {
    "id": "630027736",
    "name": "ABSOLUTE CARE HOME HEALTH, INC",
    "npi": null,
    "hcaiId": null,
    "businessName": "ABSOLUTE CARE HOME HEALTH, INC",
    "contactEmail": "SERGEIH@ABSOLUTECAREHOME.COM",
    "categoryName": "HOME HEALTH AGENCY",
    "categoryCode": "HHA",
    "licenseStatus": "ACTIVE",
    "inService": true,
    "licenseNumber": "550010006",
    "licenseEffectiveDate": "11/06/2025",
    "licenseExpirationDate": "05/05/2026",
    "dataDate": "10/18/2025",
    "capacity": 0,
    "address": "3249 W FIGARDEN DR, SUITE 101",
    "city": "FRESNO",
    "zip": "93711",
    "county": "FRESNO",
    "phone": "(559) 999-9838",
    "lat": 36.8230958,
    "lng": -119.8503242
  },
  {
    "id": "630019362",
    "name": "ATHENA HOME HEALTH CARE",
    "npi": null,
    "hcaiId": "406102519",
    "businessName": "ATHENA CARE INC.",
    "contactEmail": "ATHENAHOMEHEALTHCARE@YAHOO.COM",
    "categoryName": "HOME HEALTH AGENCY",
    "categoryCode": "HHA",
    "licenseStatus": "ACTIVE",
    "inService": true,
    "licenseNumber": "550005496",
    "licenseEffectiveDate": "05/15/2025",
    "licenseExpirationDate": "05/14/2026",
    "dataDate": "10/18/2025",
    "capacity": 0,
    "address": "7636 N INGRAM AVE, SUITE 107",
    "city": "FRESNO",
    "zip": "93711",
    "county": "FRESNO",
    "phone": "(559) 446-0900",
    "lat": 36.849006,
    "lng": -119.8012455
  },
  {
    "id": "630018077",
    "name": "ATHENA HOSPICE",
    "npi": "1871081471",
    "hcaiId": "406101756",
    "businessName": "ATHENA INC",
    "contactEmail": "ATHENAHOSPICE@YAHOO.COM",
    "categoryName": "HOSPICE",
    "categoryCode": "HOSPICE",
    "licenseStatus": "ACTIVE",
    "inService": true,
    "licenseNumber": "550004734",
    "licenseEffectiveDate": "06/04/2025",
    "licenseExpirationDate": "06/03/2027",
    "dataDate": "10/18/2025",
    "capacity": 0,
    "address": "7636 N INGRAM AVE, SUITE 105",
    "city": "FRESNO",
    "zip": "93711",
    "county": "FRESNO",
    "phone": "(559) 446-0900",
    "lat": 36.848898,
    "lng": -119.8016055
  },
  {
    "id": "630020213",
    "name": "BLOSSOM HOME HEALTH",
    "npi": null,
    "hcaiId": "406103154",
    "businessName": "BLOSSOM CARE INC.",
    "contactEmail": "ANNIEKESH3@GMAIL.COM",
    "categoryName": "HOME HEALTH AGENCY",
    "categoryCode": "HHA",
    "licenseStatus": "ACTIVE",
    "inService": true,
    "licenseNumber": "550006188",
    "licenseEffectiveDate": "04/12/2025",
    "licenseExpirationDate": "04/11/2026",
    "dataDate": "10/18/2025",
    "capacity": 0,
    "address": "1500 W SHAW AVE, SUITE 302",
    "city": "FRESNO",
    "zip": "93711",
    "county": "FRESNO",
    "phone": "(559) 430-5895",
    "lat": 36.808668,
    "lng": -119.820492
  },
  {
    "id": "070001369",
    "name": "BRIGHT HORIZON ADHC",
    "npi": null,
    "hcaiId": null,
    "businessName": "HERITAGE WEST ADHC, LLC",
    "contactEmail": "HERITAGE.WEST@YAHOO.COM",
    "categoryName": "ADULT DAY HEALTH CARE",
    "categoryCode": "ADHC",
    "licenseStatus": "ACTIVE",
    "inService": true,
    "licenseNumber": "070000667",
    "licenseEffectiveDate": "11/03/2025",
    "licenseExpirationDate": "11/02/2026",
    "dataDate": "10/18/2025",
    "capacity": 0,
    "address": "3677 W BEECHWOOD AVE",
    "city": "FRESNO",
    "zip": "93711",
    "county": "FRESNO",
    "phone": "(559) 261-0707",
    "lat": 36.83818672,
    "lng": -119.8597127
  },
  {
    "id": "630012316",
    "name": "BRIGHT HORIZON HOSPICE SERVICES",
    "npi": null,
    "hcaiId": "406105071",
    "businessName": "HARMANN INC.",
    "contactEmail": "BRIGHTHORIZONHOSPICE@YAHOO.COM",
    "categoryName": "HOSPICE",
    "categoryCode": "HOSPICE",
    "licenseStatus": "ACTIVE",
    "inService": true,
    "licenseNumber": "550001162",
    "licenseEffectiveDate": "11/26/2023",
    "licenseExpirationDate": "11/25/2025",
    "dataDate": "10/18/2025",
    "capacity": 0,
    "address": "3649 W BEECHWOOD AVE, SUITE 106-A",
    "city": "FRESNO",
    "zip": "93711",
    "county": "FRESNO",
    "phone": "(559) 443-0303",
    "lat": 36.838134,
    "lng": -119.859039
  },
  {
    "id": "100001819",
    "name": "BRISTOL HOSPICE - FRESNO",
    "npi": "1164590089",
    "hcaiId": "406105062",
    "businessName": "OPTIMAL HOSPICE, INC.",
    "contactEmail": "MEE.YANG@BRISTOLHOSPICE.COM",
    "categoryName": "HOSPICE",
    "categoryCode": "HOSPICE",
    "licenseStatus": "ACTIVE",
    "inService": true,
    "licenseNumber": "100000782",
    "licenseEffectiveDate": "06/08/2024",
    "licenseExpirationDate": "06/07/2026",
    "dataDate": "10/18/2025",
    "capacity": 0,
    "address": "2787 W BULLARD AVE, SUITE 101",
    "city": "FRESNO",
    "zip": "93711",
    "county": "FRESNO",
    "phone": "(559) 320-4000",
    "lat": 36.822276,
    "lng": -119.843757
  },
  {
    "id": "040000823",
    "name": "CASA SAO MIGUEL",
    "npi": "1922151521",
    "hcaiId": null,
    "businessName": "NOIA RESIDENTIAL SERVICES, INC.",
    "contactEmail": "SKLI@ATTITUDE.COM",
    "categoryName": "INTERMEDIATE CARE FACILITY-DD/H/N/CN/IID",
    "categoryCode": "ICFDDH",
    "licenseStatus": "ACTIVE",
    "inService": true,
    "licenseNumber": "040000340",
    "licenseEffectiveDate": "06/30/2025",
    "licenseExpirationDate": "06/29/2026",
    "dataDate": "10/18/2025",
    "capacity": 6,
    "address": "1173 W SIERRA AVE",
    "city": "FRESNO",
    "zip": "93711",
    "county": "FRESNO",
    "phone": "(559) 485-9705",
    "lat": 36.829818,
    "lng": -119.812257
  },
  {
    "id": "040001382",
    "name": "COMPASSIONATE CARE HOME HEALTH AGENCY, LLC",
    "npi": "1609826387",
    "hcaiId": "406105055",
    "businessName": "COMPASSIONATE CARE HOME HEALTH AGENCY, LLC",
    "contactEmail": "FRESNO@CCHHA.COM",
    "categoryName": "HOME HEALTH AGENCY",
    "categoryCode": "HHA",
    "licenseStatus": "ACTIVE",
    "inService": true,
    "licenseNumber": "040000541",
    "licenseEffectiveDate": "11/04/2025",
    "licenseExpirationDate": "02/15/2026",
    "dataDate": "10/18/2025",
    "capacity": 0,
    "address": "7545 N DEL MAR AVE, SUITE 103",
    "city": "FRESNO",
    "zip": "93711",
    "county": "FRESNO",
    "phone": "(559) 432-2003",
    "lat": 36.846747,
    "lng": -119.796408
  },
  {
    "id": "630018042",
    "name": "COMPASSIONATE CARE HOSPICE CENTRAL CALIFORNIA, LLC",
    "npi": "1740741529",
    "hcaiId": "406101799",
    "businessName": "COMPASSIONATE CARE HOSPICE CENTRAL CALIFORNIA, LLC",
    "contactEmail": "CRISTIANE@HOSPICECC.COM",
    "categoryName": "HOSPICE",
    "categoryCode": "HOSPICE",
    "licenseStatus": "ACTIVE",
    "inService": true,
    "licenseNumber": "550004768",
    "licenseEffectiveDate": "07/02/2025",
    "licenseExpirationDate": "07/01/2027",
    "dataDate": "10/18/2025",
    "capacity": 0,
    "address": "7545 N DEL MAR AVE, SUITE 204",
    "city": "FRESNO",
    "zip": "93711",
    "county": "FRESNO",
    "phone": "(559) 432-2003",
    "lat": 36.846774,
    "lng": -119.796471
  },
  {
    "id": "630025318",
    "name": "DAKMEN HOME HEALTHCARE AGENCY, LLC",
    "npi": null,
    "hcaiId": null,
    "businessName": "DAKMEN HOME HEALTHCARE AGENCY, LLC",
    "contactEmail": "INFO@DAKMENHOMEHEALTH.COM",
    "categoryName": "HOME HEALTH AGENCY",
    "categoryCode": "HHA",
    "licenseStatus": "ACTIVE",
    "inService": true,
    "licenseNumber": "550009203",
    "licenseEffectiveDate": "06/03/2025",
    "licenseExpirationDate": "06/02/2026",
    "dataDate": "10/18/2025",
    "capacity": 0,
    "address": "7600 N INGRAM AVE, SUITE 224",
    "city": "FRESNO",
    "zip": "93711",
    "county": "FRESNO",
    "phone": "(774) 253-2935",
    "lat": 36.8483059,
    "lng": -119.8012784
  },
  {
    "id": "630018885",
    "name": "DIGNITY HOME HEALTH CARE",
    "npi": null,
    "hcaiId": "406102686",
    "businessName": "DIGNITY HOME HEALTH CARE",
    "contactEmail": "DIGNITYHOMEHEALTH19@GMAIL.COM",
    "categoryName": "HOME HEALTH AGENCY",
    "categoryCode": "HHA",
    "licenseStatus": "ACTIVE",
    "inService": true,
    "licenseNumber": "550005618",
    "licenseEffectiveDate": "07/16/2025",
    "licenseExpirationDate": "07/15/2026",
    "dataDate": "10/18/2025",
    "capacity": 0,
    "address": "1589 W SHAW AVE, SUITE 10",
    "city": "FRESNO",
    "zip": "93711",
    "county": "FRESNO",
    "phone": "(559) 375-1234",
    "lat": 36.808011,
    "lng": -119.821563
  },
  {
    "id": "040001080",
    "name": "FOCUS HEALTH",
    "npi": "1184896193",
    "hcaiId": "406104084",
    "businessName": "REHABFOCUS HOME HEALTH, INC.",
    "contactEmail": "FOCUSFRESNOREG@COVENANTCARE.COM",
    "categoryName": "HOME HEALTH AGENCY",
    "categoryCode": "HHA",
    "licenseStatus": "ACTIVE",
    "inService": true,
    "licenseNumber": "040000426",
    "licenseEffectiveDate": "05/19/2025",
    "licenseExpirationDate": "05/18/2026",
    "dataDate": "10/18/2025",
    "capacity": 0,
    "address": "377 W FALLBROOK AVE, SUITE 101",
    "city": "FRESNO",
    "zip": "93711",
    "county": "FRESNO",
    "phone": "(559) 432-2257",
    "lat": 36.849006,
    "lng": -119.799009
  },
  {
    "id": "630021203",
    "name": "FRESNO HOSPICE",
    "npi": "1912510470",
    "hcaiId": null,
    "businessName": "MERCED HOSPICE, INC.",
    "contactEmail": "MERCED@APPHOSPICE.COM",
    "categoryName": "HOSPICE",
    "categoryCode": "HOSPICE",
    "licenseStatus": "ACTIVE",
    "inService": true,
    "licenseNumber": "550006777",
    "licenseEffectiveDate": "09/07/2025",
    "licenseExpirationDate": "09/06/2027",
    "dataDate": "10/18/2025",
    "capacity": 0,
    "address": "7541 N REMINGTON AVE, SUITE 105",
    "city": "FRESNO",
    "zip": "93711",
    "county": "FRESNO",
    "phone": "(209) 727-2470",
    "lat": 36.84687301,
    "lng": -119.803541
  },
  {
    "id": "240001893",
    "name": "FRESNO PALM BLUFFS DIALYSIS",
    "npi": "1437123643",
    "hcaiId": "306105031",
    "businessName": "DVA RENAL HEALTHCARE, INC.",
    "contactEmail": "CAL_C@DAVITA.COM",
    "categoryName": "CHRONIC DIALYSIS CLINIC",
    "categoryCode": "ESRD/CDC",
    "licenseStatus": "ACTIVE",
    "inService": true,
    "licenseNumber": "240000849",
    "licenseEffectiveDate": "01/27/2025",
    "licenseExpirationDate": "01/26/2026",
    "dataDate": "10/18/2025",
    "capacity": 25,
    "address": "770 W PINEDALE AVE",
    "city": "FRESNO",
    "zip": "93711",
    "county": "FRESNO",
    "phone": "(559) 438-8512",
    "lat": 36.845505,
    "lng": -119.8069785
  },
  {
    "id": "630016014",
    "name": "GUARDIAN ANGEL HOME CARE OF FRESNO LLC",
    "npi": "1073905188",
    "hcaiId": "406105136",
    "businessName": "GUARDIAN ANGEL HOME CARE OF FRESNO LLC",
    "contactEmail": "S.FREILINO@GAHC94.COM",
    "categoryName": "HOME HEALTH AGENCY",
    "categoryCode": "HHA",
    "licenseStatus": "ACTIVE",
    "inService": true,
    "licenseNumber": "550003650",
    "licenseEffectiveDate": "03/08/2025",
    "licenseExpirationDate": "03/07/2026",
    "dataDate": "10/18/2025",
    "capacity": 0,
    "address": "1100 W SHAW AVE, SUITE 130",
    "city": "FRESNO",
    "zip": "93711",
    "county": "FRESNO",
    "phone": "(559) 224-1103",
    "lat": 36.808749,
    "lng": -119.8112805
  },
  {
    "id": "040000857",
    "name": "HARMONY HOUSE",
    "npi": "1679890750",
    "hcaiId": null,
    "businessName": "HARMONY HOMES, INC.",
    "contactEmail": "JWINANS@HARMONYHOMESINC.ORG",
    "categoryName": "INTERMEDIATE CARE FACILITY-DD/H/N/CN/IID",
    "categoryCode": "ICFDDN",
    "licenseStatus": "ACTIVE",
    "inService": true,
    "licenseNumber": "040000347",
    "licenseEffectiveDate": "11/16/2024",
    "licenseExpirationDate": "11/15/2025",
    "dataDate": "10/18/2025",
    "capacity": 6,
    "address": "1034 W MESA AVE",
    "city": "FRESNO",
    "zip": "93711",
    "county": "FRESNO",
    "phone": "(559) 449-1668",
    "lat": 36.824985,
    "lng": -119.809314
  },
  {
    "id": "100001750",
    "name": "HINDS HOSPICE - FRESNO",
    "npi": "1538143318",
    "hcaiId": "406104087",
    "businessName": "HINDS HOSPICE",
    "contactEmail": "EKLIMES@HINDSHOSPICE.ORG",
    "categoryName": "HOSPICE",
    "categoryCode": "HOSPICE",
    "licenseStatus": "ACTIVE",
    "inService": true,
    "licenseNumber": "100000749",
    "licenseEffectiveDate": "02/22/2025",
    "licenseExpirationDate": "02/21/2027",
    "dataDate": "10/18/2025",
    "capacity": 0,
    "address": "2490 W SHAW AVE, SUITE 101",
    "city": "FRESNO",
    "zip": "93711",
    "county": "FRESNO",
    "phone": "(559) 320-0310",
    "lat": 36.808893,
    "lng": -119.8372095
  },
  {
    "id": "040000588",
    "name": "HINDS HOSPICE HOME",
    "npi": null,
    "hcaiId": "206104022",
    "businessName": "HINDS HOSPICE",
    "contactEmail": "SFLAMMANG@HINDSHOSPICE.ORG",
    "categoryName": "HOSPICE FACILITY",
    "categoryCode": "HOFA",
    "licenseStatus": "ACTIVE",
    "inService": true,
    "licenseNumber": "040000268",
    "licenseEffectiveDate": "09/09/2025",
    "licenseExpirationDate": "09/08/2026",
    "dataDate": "10/18/2025",
    "capacity": 6,
    "address": "1416 W TWAIN AVE",
    "city": "FRESNO",
    "zip": "93711",
    "county": "FRESNO",
    "phone": "(559) 222-0793",
    "lat": 36.809514,
    "lng": -119.817792
  },
  {
    "id": "630014942",
    "name": "HORIZON HOME CARE, LLC",
    "npi": "1427470202",
    "hcaiId": "406105123",
    "businessName": "HORIZON HOME CARE, LLC",
    "contactEmail": "DPCS@HORIZONHOMECARELLC.COM",
    "categoryName": "HOME HEALTH AGENCY",
    "categoryCode": "HHA",
    "licenseStatus": "ACTIVE",
    "inService": true,
    "licenseNumber": "550003100",
    "licenseEffectiveDate": "06/15/2025",
    "licenseExpirationDate": "06/14/2026",
    "dataDate": "10/18/2025",
    "capacity": 0,
    "address": "255 W FALLBROOK AVE, SUITE 101",
    "city": "FRESNO",
    "zip": "93711",
    "county": "FRESNO",
    "phone": "(559) 840-1559",
    "lat": 36.849114,
    "lng": -119.796309
  },
  {
    "id": "630018977",
    "name": "LENITY HOSPICE, LLC",
    "npi": "1982168803",
    "hcaiId": "406101927",
    "businessName": "LENITY HOSPICE, LLC",
    "contactEmail": "P.HERNANDEZ@LENITYHOSPICE.COM",
    "categoryName": "HOSPICE",
    "categoryCode": "HOSPICE",
    "licenseStatus": "ACTIVE",
    "inService": true,
    "licenseNumber": "550004951",
    "licenseEffectiveDate": "10/09/2025",
    "licenseExpirationDate": "09/18/2027",
    "dataDate": "10/18/2025",
    "capacity": 0,
    "address": "1170 W SHAW AVE, SUITE 101",
    "city": "FRESNO",
    "zip": "93711",
    "county": "FRESNO",
    "phone": "(559) 974-4731",
    "lat": 36.808677,
    "lng": -119.8123785
  },
  {
    "id": "040000532",
    "name": "LOYD'S LIBERTY HOMES, INC. - FELAND",
    "npi": "1861614265",
    "hcaiId": null,
    "businessName": "LOYD'S LIBERTY HOMES, INC.",
    "contactEmail": "BRITTANY.CUPPS@THEMENTORNETWORK.COM",
    "categoryName": "INTERMEDIATE CARE FACILITY-DD/H/N/CN/IID",
    "categoryCode": "ICFDDH",
    "licenseStatus": "ACTIVE",
    "inService": true,
    "licenseNumber": "040000251",
    "licenseEffectiveDate": "11/01/2024",
    "licenseExpirationDate": "10/31/2025",
    "dataDate": "10/18/2025",
    "capacity": 6,
    "address": "6249 N FELAND AVE",
    "city": "FRESNO",
    "zip": "93711",
    "county": "FRESNO",
    "phone": "(559) 439-4269",
    "lat": 36.82719,
    "lng": -119.849256
  },
  {
    "id": "040000842",
    "name": "LOYD'S LIBERTY HOMES, INC. - LIBERTY HOME",
    "npi": "1811103278",
    "hcaiId": null,
    "businessName": "LOYD'S LIBERTY HOMES, INC.",
    "contactEmail": "BRITTANY.CUPPS@SEVITAHEALTH.COM",
    "categoryName": "INTERMEDIATE CARE FACILITY-DD/H/N/CN/IID",
    "categoryCode": "ICFDDH",
    "licenseStatus": "ACTIVE",
    "inService": true,
    "licenseNumber": "040000339",
    "licenseEffectiveDate": "06/23/2025",
    "licenseExpirationDate": "06/22/2026",
    "dataDate": "10/18/2025",
    "capacity": 6,
    "address": "5493 N FELAND AVE",
    "city": "FRESNO",
    "zip": "93711",
    "county": "FRESNO",
    "phone": "(445) 367-2439",
    "lat": 36.81711,
    "lng": -119.8487565
  },
  {
    "id": "040000920",
    "name": "LOYD'S LIBERTY HOMES, INC. - NORTH KNOLL",
    "npi": "1366658726",
    "hcaiId": null,
    "businessName": "LOYD'S LIBERTY HOMES, INC.",
    "contactEmail": null,
    "categoryName": "INTERMEDIATE CARE FACILITY-DD/H/N/CN/IID",
    "categoryCode": "ICFDDH",
    "licenseStatus": "ACTIVE",
    "inService": true,
    "licenseNumber": "040000378",
    "licenseEffectiveDate": "01/13/2025",
    "licenseExpirationDate": "01/12/2026",
    "dataDate": "10/18/2025",
    "capacity": 6,
    "address": "6062 N KNOLL AVE",
    "city": "FRESNO",
    "zip": "93711",
    "county": "FRESNO",
    "phone": "(559) 447-8568",
    "lat": 36.82386,
    "lng": -119.859867
  },
  {
    "id": "630014688",
    "name": "MIJI CARE OF FRESNO, INC.",
    "npi": "1477969335",
    "hcaiId": "406105110",
    "businessName": "MIJI CARE OF FRESNO, INC.",
    "contactEmail": "JISTRIN@LIBERTANA.COM",
    "categoryName": "HOME HEALTH AGENCY",
    "categoryCode": "HHA",
    "licenseStatus": "ACTIVE",
    "inService": true,
    "licenseNumber": "550002697",
    "licenseEffectiveDate": "06/03/2025",
    "licenseExpirationDate": "06/02/2026",
    "dataDate": "10/18/2025",
    "capacity": 0,
    "address": "3433 W SHAW AVE, SUITE 105",
    "city": "FRESNO",
    "zip": "93711",
    "county": "FRESNO",
    "phone": "(559) 742-7000",
    "lat": 36.806283,
    "lng": -119.8539675
  },
  {
    "id": "040000610",
    "name": "NEURORESTORATIVE CALIFORNIA",
    "npi": null,
    "hcaiId": "206104021",
    "businessName": "CAREMERIDIAN, LLC",
    "contactEmail": "NANCY.VU-LEE@SEVITAHEALTH.COM",
    "categoryName": "CONGREGATE LIVING HEALTH FACILITY",
    "categoryCode": "CLHF",
    "licenseStatus": "ACTIVE",
    "inService": true,
    "licenseNumber": "040000276",
    "licenseEffectiveDate": "05/30/2025",
    "licenseExpirationDate": "05/29/2026",
    "dataDate": "10/18/2025",
    "capacity": 12,
    "address": "6385 N MARKS AVE",
    "city": "FRESNO",
    "zip": "93711",
    "county": "FRESNO",
    "phone": "(559) 431-8594",
    "lat": 36.829521,
    "lng": -119.845116
  },
  {
    "id": "040001320",
    "name": "NORTH POINT SURGERY CENTER, INC.",
    "npi": "1760518609",
    "hcaiId": "306105016",
    "businessName": "NORTH POINT SURGERY CENTER, INC.",
    "contactEmail": "MARYANNCOLEMAN@NORTHPOINTSC.NET",
    "categoryName": "SURGICAL CLINIC",
    "categoryCode": "ASC",
    "licenseStatus": "INACTIVE - CAPEN DECISION",
    "inService": false,
    "licenseNumber": "040000515",
    "licenseEffectiveDate": "06/02/2007",
    "licenseExpirationDate": "06/01/2008",
    "dataDate": "10/18/2025",
    "capacity": 0,
    "address": "1332 W HERNDON AVE, SUITE 102",
    "city": "FRESNO",
    "zip": "93711",
    "county": "FRESNO",
    "phone": "(559) 440-9640",
    "lat": 36.837729,
    "lng": -119.8147095
  },
  {
    "id": "040001187",
    "name": "NOVACARE OUTPATIENT REHABILITATION",
    "npi": null,
    "hcaiId": null,
    "businessName": null,
    "contactEmail": null,
    "categoryName": "OTHER",
    "categoryCode": "UNLICEN",
    "licenseStatus": null,
    "inService": null,
    "licenseNumber": null,
    "licenseEffectiveDate": null,
    "licenseExpirationDate": null,
    "dataDate": "10/18/2025",
    "capacity": 0,
    "address": "1357 W SHAW AVE, SUITE 101",
    "city": "FRESNO",
    "zip": "93711",
    "county": "FRESNO",
    "phone": "(559) 221-7390",
    "lat": 36.808002,
    "lng": -119.8162305
  },
  {
    "id": "630027700",
    "name": "PALM BLUFFS SURGERY CENTER LLC",
    "npi": null,
    "hcaiId": null,
    "businessName": null,
    "contactEmail": "JDPRIETO10@GMAIL.COM",
    "categoryName": "SURGICAL CLINIC",
    "categoryCode": "ASC",
    "licenseStatus": null,
    "inService": null,
    "licenseNumber": null,
    "licenseEffectiveDate": null,
    "licenseExpirationDate": null,
    "dataDate": "10/18/2025",
    "capacity": 0,
    "address": "7766 N PALM AVE, SUITE 104",
    "city": "FRESNO",
    "zip": "93711",
    "county": "FRESNO",
    "phone": "(559) 492-8098",
    "lat": 36.85069902,
    "lng": -119.804794
  },
  {
    "id": "630013025",
    "name": "THERAPEUTIC HOME HEALTHCARE",
    "npi": "1750685822",
    "hcaiId": "406105084",
    "businessName": "CENTRAL CALIFORNIA HEALTHCARE INCORPORATED",
    "contactEmail": "ADMIN@THERAPEUTICHH.COM",
    "categoryName": "HOME HEALTH AGENCY",
    "categoryCode": "HHA",
    "licenseStatus": "ACTIVE",
    "inService": true,
    "licenseNumber": "550001755",
    "licenseEffectiveDate": "11/02/2024",
    "licenseExpirationDate": "11/01/2025",
    "dataDate": "10/18/2025",
    "capacity": 0,
    "address": "2440 W SHAW AVE, SUITE 110",
    "city": "FRESNO",
    "zip": "93711",
    "county": "FRESNO",
    "phone": "(559) 224-8585",
    "lat": 36.808861,
    "lng": -119.836285
  },
  {
    "id": "630027724",
    "name": "TRILLIUM HOSPICE, INC.",
    "npi": null,
    "hcaiId": null,
    "businessName": "TRILLIUM HOSPICE, INC.",
    "contactEmail": "LEHMAN.S1@COMCAST.NET",
    "categoryName": "HOSPICE",
    "categoryCode": "HOSPICE",
    "licenseStatus": "ACTIVE",
    "inService": true,
    "licenseNumber": "550009640",
    "licenseEffectiveDate": "02/24/2025",
    "licenseExpirationDate": "02/23/2027",
    "dataDate": "10/18/2025",
    "capacity": 0,
    "address": "8050 N PALM AVE, SUITE 323",
    "city": "FRESNO",
    "zip": "93711",
    "county": "FRESNO",
    "phone": "(559) 269-9707",
    "lat": 36.85251701,
    "lng": -119.804654
  },
  {
    "id": "630012102",
    "name": "VALLEY HOME HEALTH",
    "npi": "1952434185",
    "hcaiId": "406105077",
    "businessName": "VALLEY MEDICAL SYSTEMS, INC.",
    "contactEmail": "MATT@VALLEYHHA.COM",
    "categoryName": "HOME HEALTH AGENCY",
    "categoryCode": "HHA",
    "licenseStatus": "ACTIVE",
    "inService": true,
    "licenseNumber": "550001358",
    "licenseEffectiveDate": "02/09/2025",
    "licenseExpirationDate": "02/08/2026",
    "dataDate": "10/18/2025",
    "capacity": 0,
    "address": "2511 WEST SHAW AVENUE, SUITE 101",
    "city": "FRESNO",
    "zip": "93711",
    "county": "FRESNO",
    "phone": "(559) 222-4060",
    "lat": 36.806472,
    "lng": -119.8370475
  },
  {
    "id": "630026983",
    "name": "VITAS HEALTHCARE CORPORATION OF CALIFORNIA",
    "npi": null,
    "hcaiId": null,
    "businessName": "VITAS HEALTHCARE CORPORATION OF CALIFORNIA",
    "contactEmail": "ZANE.FISHER@VITAS.COM",
    "categoryName": "HOSPICE",
    "categoryCode": "HOSPICE",
    "licenseStatus": "ACTIVE",
    "inService": true,
    "licenseNumber": "550009326",
    "licenseEffectiveDate": "08/15/2024",
    "licenseExpirationDate": "08/14/2026",
    "dataDate": "10/18/2025",
    "capacity": 0,
    "address": "7485 N PALM AVE, SUITE 106",
    "city": "FRESNO",
    "zip": "93711",
    "county": "FRESNO",
    "phone": "(559) 603-8100",
    "lat": 36.845973,
    "lng": -119.809089
  },
  {
    "id": "630013468",
    "name": "WEST SHAW COMMUNITY HEALTH CENTER",
    "npi": "1033486048",
    "hcaiId": "306105141",
    "businessName": "CLINICA SIERRA VISTA",
    "contactEmail": "SCHILLING@CLINICASIERRAVISTA.ORG",
    "categoryName": "PRIMARY CARE CLINIC",
    "categoryCode": "COMTYC",
    "licenseStatus": "ACTIVE",
    "inService": true,
    "licenseNumber": "040000557",
    "licenseEffectiveDate": "11/15/2025",
    "licenseExpirationDate": "11/14/2026",
    "dataDate": "10/18/2025",
    "capacity": 0,
    "address": "3645 W SHAW AVE, SUITE 101",
    "city": "FRESNO",
    "zip": "93711",
    "county": "FRESNO",
    "phone": "(661) 635-3050",
    "lat": 36.805734,
    "lng": -119.858616
  }
]