[
  {
    "id": "630021339",
    "name": "ARISE HOSPICE AND PALLIATIVE CARE, LLC",
    "npi": null,
    "hcaiId": "406105097",
    "businessName": "ARISE HOSPICE AND PALLIATIVE CARE, LLC",
    "contactEmail": "ADMIN@PASSOVERHOSPICE.COM",
    "categoryName": "HOSPICE",
    "categoryCode": "HOSPICE",
    "licenseStatus": "ACTIVE",
    "inService": true,
    "licenseNumber": "550007608",
    "licenseEffectiveDate": "11/19/2024",
    "licenseExpirationDate": "12/20/2025",
    "dataDate": "10/18/2025",
    "capacity": 0,
    "address": "4274 N BLACKSTONE AVE, SUITE 104",
    "city": "FRESNO",
    "zip": "93726",
    "county": "FRESNO",
    "phone": "(800) 666-5223",
    "lat": 36.79523701,
    "lng": -119.7902304
  },
  {
    "id": "630020587",
    "name": "BLESSED HANDS HOSPICE, INC.",
    "npi": null,
    "hcaiId": null,
    "businessName": "BLESSED HANDS HOSPICE, INC.",
    "contactEmail": "BLESSEDHANDS07@YAHOO.COM",
    "categoryName": "HOSPICE",
    "categoryCode": "HOSPICE",
    "licenseStatus": "ACTIVE",
    "inService": true,
    "licenseNumber": "550007394",
    "licenseEffectiveDate": "12/01/2023",
    "licenseExpirationDate": "11/30/2025",
    "dataDate": "10/18/2025",
    "capacity": 0,
    "address": "4045 N FRESNO ST, SUITE 103B",
    "city": "FRESNO",
    "zip": "93726",
    "county": "FRESNO",
    "phone": "(559) 449-3390",
    "lat": 36.791136,
    "lng": -119.7817425
  },
  {
    "id": "630025405",
    "name": "BLOSSOMING HOME HEALTH CARE",
    "npi": null,
    "hcaiId": "406100023",
    "businessName": "BLOSSOMING HOME HEALTH CARE",
    "contactEmail": "BLOSSOMINGHOMECARE@YAHOO.COM",
    "categoryName": "HOME HEALTH AGENCY",
    "categoryCode": "HHA",
    "licenseStatus": "ACTIVE",
    "inService": true,
    "licenseNumber": "550008719",
    "licenseEffectiveDate": "08/04/2025",
    "licenseExpirationDate": "08/03/2026",
    "dataDate": "10/18/2025",
    "capacity": 0,
    "address": "4045 N FRESNO ST, SUITE 103",
    "city": "FRESNO",
    "zip": "93726",
    "county": "FRESNO",
    "phone": "(559) 449-3225",
    "lat": 36.791136,
    "lng": -119.7817425
  },
  {
    "id": "630017938",
    "name": "CEDAR UNIVERSITY CLINIC",
    "npi": null,
    "hcaiId": null,
    "businessName": "GREATER FRESNO HEALTH ORGANIZATION, INC.",
    "contactEmail": null,
    "categoryName": "PRIMARY CARE CLINIC",
    "categoryCode": "COMTYC",
    "licenseStatus": "ACTIVE",
    "inService": true,
    "licenseNumber": "550002654",
    "licenseEffectiveDate": "05/01/2025",
    "licenseExpirationDate": "04/30/2026",
    "dataDate": "10/18/2025",
    "capacity": 0,
    "address": "4770 N CEDAR AVE",
    "city": "FRESNO",
    "zip": "93726",
    "county": "FRESNO",
    "phone": null,
    "lat": 36.804609,
    "lng": -119.7538155
  },
  {
    "id": "040000049",
    "name": "COVENANT POST ACUTE",
    "npi": "1104401595",
    "hcaiId": "206100731",
    "businessName": "SHIELDS SKILLED CARE, LLC",
    "contactEmail": "BRAEDEN.CARTER@JERICHOCARE.COM",
    "categoryName": "SKILLED NURSING FACILITY",
    "categoryCode": "SNF",
    "licenseStatus": "ACTIVE",
    "inService": true,
    "licenseNumber": "040000106",
    "licenseEffectiveDate": "07/10/2025",
    "licenseExpirationDate": "07/09/2026",
    "dataDate": "10/18/2025",
    "capacity": 121,
    "address": "3408 E SHIELDS AVE",
    "city": "FRESNO",
    "zip": "93726",
    "county": "FRESNO",
    "phone": "(714) 767-6861",
    "lat": 36.778986,
    "lng": -119.767788
  },
  {
    "id": "630026736",
    "name": "DAY LIGHT HEALTHCARE, INC.",
    "npi": null,
    "hcaiId": null,
    "businessName": "DAY LIGHT HEALTHCARE, INC.",
    "contactEmail": "DAYLIGHTHH22@GMAIL.COM",
    "categoryName": "HOME HEALTH AGENCY",
    "categoryCode": "HHA",
    "licenseStatus": "ACTIVE",
    "inService": true,
    "licenseNumber": "550009476",
    "licenseEffectiveDate": "10/18/2025",
    "licenseExpirationDate": "10/17/2026",
    "dataDate": "10/18/2025",
    "capacity": 0,
    "address": "4747 N 1ST ST, SUITE 132",
    "city": "FRESNO",
    "zip": "93726",
    "county": "FRESNO",
    "phone": "(559) 336-6477",
    "lat": 36.804213,
    "lng": -119.7738495
  },
  {
    "id": "630026276",
    "name": "FAITHFUL HOME HEALTH SERVICES",
    "npi": null,
    "hcaiId": null,
    "businessName": "FAITHFUL HOME HEALTH SERVICES",
    "contactEmail": "FAITHFULHOMEHEALTH@YAHOO.COM",
    "categoryName": "HOME HEALTH AGENCY",
    "categoryCode": "HHA",
    "licenseStatus": "ACTIVE",
    "inService": true,
    "licenseNumber": "550009753",
    "licenseEffectiveDate": "10/03/2025",
    "licenseExpirationDate": "04/02/2026",
    "dataDate": "10/18/2025",
    "capacity": 0,
    "address": "4045 N FRESNO ST, 103C",
    "city": "FRESNO",
    "zip": "93726",
    "county": "FRESNO",
    "phone": "(559) 230-1336",
    "lat": 36.791136,
    "lng": -119.7817425
  },
  {
    "id": "630019607",
    "name": "FAMILY HEALTHCARE NETWORK",
    "npi": null,
    "hcaiId": null,
    "businessName": "FAMILY HEALTHCARE NETWORK",
    "contactEmail": null,
    "categoryName": "PRIMARY CARE CLINIC",
    "categoryCode": "COMTYC",
    "licenseStatus": "ACTIVE",
    "inService": true,
    "licenseNumber": "550004220",
    "licenseEffectiveDate": "06/24/2025",
    "licenseExpirationDate": "04/21/2026",
    "dataDate": "10/18/2025",
    "capacity": 0,
    "address": "3505 E SHIELDS AVE",
    "city": "FRESNO",
    "zip": "93726",
    "county": "FRESNO",
    "phone": null,
    "lat": 36.780039,
    "lng": -119.7659835
  },
  {
    "id": "630026392",
    "name": "FAMILY HEALTHCARE NETWORK",
    "npi": null,
    "hcaiId": null,
    "businessName": "FAMILY HEALTHCARE NETWORK",
    "contactEmail": "PESTRADA@FHCN.ORG",
    "categoryName": "PRIMARY CARE CLINIC",
    "categoryCode": "COMTYC",
    "licenseStatus": "ACTIVE",
    "inService": true,
    "licenseNumber": "550004220",
    "licenseEffectiveDate": "06/24/2025",
    "licenseExpirationDate": "04/21/2026",
    "dataDate": "10/18/2025",
    "capacity": 0,
    "address": "3837 N CLARK ST",
    "city": "FRESNO",
    "zip": "93726",
    "county": "FRESNO",
    "phone": "(559) 737-4717",
    "lat": 36.788031,
    "lng": -119.785383
  },
  {
    "id": "630027269",
    "name": "FAMILY HEALTHCARE NETWORK",
    "npi": "1346953155",
    "hcaiId": null,
    "businessName": "FAMILY HEALTHCARE NETWORK",
    "contactEmail": null,
    "categoryName": "PRIMARY CARE CLINIC",
    "categoryCode": "COMTYC",
    "licenseStatus": "ACTIVE",
    "inService": true,
    "licenseNumber": "550004220",
    "licenseEffectiveDate": "06/24/2025",
    "licenseExpirationDate": "04/21/2026",
    "dataDate": "10/18/2025",
    "capacity": 0,
    "address": "3425 N 1ST ST",
    "city": "FRESNO",
    "zip": "93726",
    "county": "FRESNO",
    "phone": null,
    "lat": 36.781874,
    "lng": -119.77312
  },
  {
    "id": "040000043",
    "name": "KEYSTONE POST-ACUTE",
    "npi": "1033987912",
    "hcaiId": "206100728",
    "businessName": "FIRST SKILLED CARE LLC",
    "contactEmail": "BRAEDEN.CARTER@JERICHOCARE.COM",
    "categoryName": "SKILLED NURSING FACILITY",
    "categoryCode": "SNF",
    "licenseStatus": "ACTIVE",
    "inService": true,
    "licenseNumber": "040000104",
    "licenseEffectiveDate": "07/26/2025",
    "licenseExpirationDate": "07/25/2026",
    "dataDate": "10/18/2025",
    "capacity": 65,
    "address": "3672 N 1ST ST",
    "city": "FRESNO",
    "zip": "93726",
    "county": "FRESNO",
    "phone": "(559) 227-5383",
    "lat": 36.784566,
    "lng": -119.771856
  },
  {
    "id": "630017022",
    "name": "KY ADVANCED SURGICAL CENTER",
    "npi": "1730514027",
    "hcaiId": null,
    "businessName": null,
    "contactEmail": null,
    "categoryName": "SURGICAL CLINIC",
    "categoryCode": "SURGC",
    "licenseStatus": null,
    "inService": null,
    "licenseNumber": null,
    "licenseEffectiveDate": null,
    "licenseExpirationDate": null,
    "dataDate": "10/18/2025",
    "capacity": 0,
    "address": "3976 N. FRESNO ST., SUITE 103",
    "city": "FRESNO",
    "zip": "93726",
    "county": "FRESNO",
    "phone": null,
    "lat": 36.79037085,
    "lng": -119.7812186
  },
  {
    "id": "630011850",
    "name": "LORETTA'S LITTLE MIRACLES",
    "npi": null,
    "hcaiId": null,
    "businessName": "BAKER HICKS, INC.",
    "contactEmail": "LORETTA@LORETTASLITTLEMIRACLES.COM",
    "categoryName": "PEDIATRIC DAY HEALTH & RESPITE CARE FACILITY",
    "categoryCode": "PDHRCF",
    "licenseStatus": "ACTIVE",
    "inService": true,
    "licenseNumber": "550001075",
    "licenseEffectiveDate": "05/20/2025",
    "licenseExpirationDate": "05/19/2026",
    "dataDate": "10/18/2025",
    "capacity": 35,
    "address": "4747 N FIRST ST, SUITE 181",
    "city": "FRESNO",
    "zip": "93726",
    "county": "FRESNO",
    "phone": "(661) 364-1200",
    "lat": 36.804213,
    "lng": -119.7738495
  },
  {
    "id": "040000051",
    "name": "OAKWOOD GARDENS CARE CENTER",
    "npi": "1326346552",
    "hcaiId": "206100732",
    "businessName": "LILY HOLDINGS, LLC",
    "contactEmail": "JASDEEP.DHARIWAL@OAKWOODCARES.COM",
    "categoryName": "SKILLED NURSING FACILITY",
    "categoryCode": "SNF",
    "licenseStatus": "ACTIVE",
    "inService": true,
    "licenseNumber": "040000107",
    "licenseEffectiveDate": "06/07/2025",
    "licenseExpirationDate": "06/06/2026",
    "dataDate": "10/18/2025",
    "capacity": 103,
    "address": "3510 E SHIELDS AVE",
    "city": "FRESNO",
    "zip": "93726",
    "county": "FRESNO",
    "phone": "(559) 367-3127",
    "lat": 36.778284,
    "lng": -119.765925
  },
  {
    "id": "630018060",
    "name": "OMNI FAMILY HEALTH",
    "npi": null,
    "hcaiId": "306100515",
    "businessName": "OMNI FAMILY HEALTH",
    "contactEmail": "LICENSING@OMNIFAMILYHEALTH.ORG",
    "categoryName": "PRIMARY CARE CLINIC",
    "categoryCode": "COMTYC",
    "licenseStatus": "ACTIVE",
    "inService": true,
    "licenseNumber": "550004922",
    "licenseEffectiveDate": "09/19/2025",
    "licenseExpirationDate": "09/18/2026",
    "dataDate": "10/18/2025",
    "capacity": 0,
    "address": "4646 N 1ST ST",
    "city": "FRESNO",
    "zip": "93726",
    "county": "FRESNO",
    "phone": "(661) 459-1900",
    "lat": 36.802179,
    "lng": -119.7717615
  },
  {
    "id": "630018358",
    "name": "OMNI FAMILY HEALTH",
    "npi": "1700804556",
    "hcaiId": null,
    "businessName": "OMNI FAMILY HEALTH",
    "contactEmail": null,
    "categoryName": "PRIMARY CARE CLINIC",
    "categoryCode": "COMTYC",
    "licenseStatus": "ACTIVE",
    "inService": true,
    "licenseNumber": "120000668",
    "licenseEffectiveDate": "12/13/2024",
    "licenseExpirationDate": "12/12/2025",
    "dataDate": "10/18/2025",
    "capacity": 0,
    "address": "4844 N 1ST ST, SUITE 104",
    "city": "FRESNO",
    "zip": "93726",
    "county": "FRESNO",
    "phone": null,
    "lat": 36.805689,
    "lng": -119.7712935
  },
  {
    "id": "630018359",
    "name": "OMNI FAMILY HEALTH",
    "npi": null,
    "hcaiId": null,
    "businessName": "OMNI FAMILY HEALTH",
    "contactEmail": null,
    "categoryName": "PRIMARY CARE CLINIC",
    "categoryCode": "COMTYC",
    "licenseStatus": "ACTIVE",
    "inService": true,
    "licenseNumber": "120000668",
    "licenseEffectiveDate": "12/13/2024",
    "licenseExpirationDate": "12/12/2025",
    "dataDate": "10/18/2025",
    "capacity": 0,
    "address": "3748 E SHIELDS AVE",
    "city": "FRESNO",
    "zip": "93726",
    "county": "FRESNO",
    "phone": null,
    "lat": 36.779373,
    "lng": -119.7622755
  },
  {
    "id": "240001796",
    "name": "SAN JOAQUIN VALLEY DIALYSIS CENTER",
    "npi": "1215049119",
    "hcaiId": "306104015",
    "businessName": "BIO-MEDICAL APPLICATIONS OF FRESNO, INC.",
    "contactEmail": "CLINIC1359@FMC-NA.COM",
    "categoryName": "CHRONIC DIALYSIS CLINIC",
    "categoryCode": "ESRD/CDC",
    "licenseStatus": "ACTIVE",
    "inService": true,
    "licenseNumber": "240000790",
    "licenseEffectiveDate": "01/20/2024",
    "licenseExpirationDate": "01/19/2025",
    "dataDate": "10/18/2025",
    "capacity": 22,
    "address": "3636 N 1ST ST, SUITE 144",
    "city": "FRESNO",
    "zip": "93726",
    "county": "FRESNO",
    "phone": "(559) 221-6311",
    "lat": 36.78372,
    "lng": -119.7710685
  },
  {
    "id": "630012899",
    "name": "SAN LORENZO HOME HEALTH LLC",
    "npi": "1326050879",
    "hcaiId": "406105087",
    "businessName": "SAN LORENZO HOME HEALTH LLC",
    "contactEmail": "SLHH3995@GMAIL.COM",
    "categoryName": "HOME HEALTH AGENCY",
    "categoryCode": "HHA",
    "licenseStatus": "ACTIVE",
    "inService": true,
    "licenseNumber": "550001857",
    "licenseEffectiveDate": "03/07/2025",
    "licenseExpirationDate": "03/06/2026",
    "dataDate": "10/18/2025",
    "capacity": 0,
    "address": "4021 N FRESNO ST, SUITE 105",
    "city": "FRESNO",
    "zip": "93726",
    "county": "FRESNO",
    "phone": "(559) 230-0516",
    "lat": 36.790632,
    "lng": -119.7827235
  },
  {
    "id": "040001377",
    "name": "ST. MARY'S HOME HEALTH SERVICES, INC.",
    "npi": "1669560801",
    "hcaiId": "406105030",
    "businessName": null,
    "contactEmail": "INFO@STMARYSHHA.COM",
    "categoryName": "HOME HEALTH AGENCY",
    "categoryCode": "HHA",
    "licenseStatus": "ACTIVE",
    "inService": true,
    "licenseNumber": "040000544",
    "licenseEffectiveDate": "04/11/2025",
    "licenseExpirationDate": "04/10/2026",
    "dataDate": "10/18/2025",
    "capacity": 0,
    "address": "3180 E SHIELDS AVE, SUITE 105",
    "city": "FRESNO",
    "zip": "93726",
    "county": "FRESNO",
    "phone": "(559) 221-9919",
    "lat": 36.779184,
    "lng": -119.770704
  },
  {
    "id": "630014426",
    "name": "ST. MARY'S HOSPICE SERVICES, INC.",
    "npi": null,
    "hcaiId": "406105107",
    "businessName": null,
    "contactEmail": "GARY@STMARYSHHA.COM",
    "categoryName": "HOSPICE",
    "categoryCode": "HOSPICE",
    "licenseStatus": "ACTIVE",
    "inService": true,
    "licenseNumber": "550002711",
    "licenseEffectiveDate": "06/06/2024",
    "licenseExpirationDate": "06/05/2026",
    "dataDate": "10/18/2025",
    "capacity": 0,
    "address": "3180 E SHIELDS AVE, SUITE 105A",
    "city": "FRESNO",
    "zip": "93726",
    "county": "FRESNO",
    "phone": "(559) 222-1291",
    "lat": 36.779355,
    "lng": -119.7708525
  },
  {
    "id": "630016730",
    "name": "TODOS PARA LA SALUD",
    "npi": null,
    "hcaiId": "306105139",
    "businessName": "TODOS PARA LA SALUD",
    "contactEmail": "TODOSPARADESALUD@GMAIL.COM",
    "categoryName": "PRIMARY CARE CLINIC",
    "categoryCode": "COMTYC",
    "licenseStatus": "ACTIVE",
    "inService": true,
    "licenseNumber": "550003902",
    "licenseEffectiveDate": "06/19/2025",
    "licenseExpirationDate": "06/18/2026",
    "dataDate": "10/18/2025",
    "capacity": 0,
    "address": "4420 N. 1ST STREET, SUITE 123",
    "city": "FRESNO",
    "zip": "93726",
    "county": "FRESNO",
    "phone": "(559) 231-5366",
    "lat": 36.798174,
    "lng": -119.771991
  },
  {
    "id": "630028121",
    "name": "TODOS PARA LA SALUD",
    "npi": null,
    "hcaiId": null,
    "businessName": "TODOS PARA LA SALUD",
    "contactEmail": null,
    "categoryName": "PRIMARY CARE CLINIC",
    "categoryCode": "COMTYC",
    "licenseStatus": "ACTIVE",
    "inService": true,
    "licenseNumber": "550009995",
    "licenseEffectiveDate": "10/22/2025",
    "licenseExpirationDate": "04/21/2026",
    "dataDate": "10/18/2025",
    "capacity": 0,
    "address": "3830 N FIRST ST",
    "city": "FRESNO",
    "zip": "93726",
    "county": "FRESNO",
    "phone": null,
    "lat": 36.78760818,
    "lng": -119.77223
  },
  {
    "id": "630016663",
    "name": "UNITED HEALTH CENTERS OF THE SAN JOAQUIN VALLEY",
    "npi": "1982079620",
    "hcaiId": "306105134",
    "businessName": "UNITED HEALTH CENTERS OF THE SAN JOAQUIN VALLEY",
    "contactEmail": "PREASJ@UNITEDHEALTHCENTERS.ORG",
    "categoryName": "PRIMARY CARE CLINIC",
    "categoryCode": "COMTYC",
    "licenseStatus": "ACTIVE",
    "inService": true,
    "licenseNumber": "550003570",
    "licenseEffectiveDate": "07/07/2025",
    "licenseExpirationDate": "07/06/2026",
    "dataDate": "10/18/2025",
    "capacity": 0,
    "address": "4615 N 1ST ST",
    "city": "FRESNO",
    "zip": "93726",
    "county": "FRESNO",
    "phone": "(559) 646-6618",
    "lat": 36.8016295,
    "lng": -119.7776362
  },
  {
    "id": "630021565",
    "name": "UNITED HEALTH CENTERS OF THE SAN JOAQUIN VALLEY",
    "npi": null,
    "hcaiId": null,
    "businessName": "UNITED HEALTH CENTERS OF THE SAN JOAQUIN VALLEY",
    "contactEmail": null,
    "categoryName": "PRIMARY CARE CLINIC",
    "categoryCode": "COMTYC",
    "licenseStatus": "ACTIVE",
    "inService": true,
    "licenseNumber": "550002829",
    "licenseEffectiveDate": "09/30/2025",
    "licenseExpirationDate": "09/29/2026",
    "dataDate": "10/18/2025",
    "capacity": 0,
    "address": "1901 E SHIELDS AVE, SUITE 130",
    "city": "FRESNO",
    "zip": "93726",
    "county": "FRESNO",
    "phone": null,
    "lat": 36.780705,
    "lng": -119.788038
  },
  {
    "id": "630027854",
    "name": "VINEYARDS HOSPICE INC",
    "npi": null,
    "hcaiId": null,
    "businessName": "VINEYARDS HOSPICE INC",
    "contactEmail": "VINEYARDSHOSPICE@GMAIL.COM",
    "categoryName": "HOSPICE",
    "categoryCode": "HOSPICE",
    "licenseStatus": "ACTIVE",
    "inService": true,
    "licenseNumber": "550009679",
    "licenseEffectiveDate": "03/03/2025",
    "licenseExpirationDate": "03/02/2027",
    "dataDate": "10/18/2025",
    "capacity": 0,
    "address": "4848 N FIRST ST, SUITE 104",
    "city": "FRESNO",
    "zip": "93726",
    "county": "FRESNO",
    "phone": "(559) 778-6558",
    "lat": 36.80565496,
    "lng": -119.7716705
  }
]