[
  {
    "id": "630026962",
    "name": "ADVANCED COSMETIC & AESTHETIC SURGERY CENTER",
    "npi": null,
    "hcaiId": null,
    "businessName": null,
    "contactEmail": "GSBMD69@GMAIL.COM",
    "categoryName": "SURGICAL CLINIC",
    "categoryCode": "ASC",
    "licenseStatus": null,
    "inService": null,
    "licenseNumber": null,
    "licenseEffectiveDate": null,
    "licenseExpirationDate": null,
    "dataDate": "10/18/2025",
    "capacity": 0,
    "address": "1050 E PERRIN AVE, SUITE 103",
    "city": "FRESNO",
    "zip": "93720",
    "county": "FRESNO",
    "phone": "(559) 838-3028",
    "lat": 36.873117,
    "lng": -119.764044
  },
  {
    "id": "630011045",
    "name": "ASERACARE HOSPICE",
    "npi": "1336229970",
    "hcaiId": "406105059",
    "businessName": "HOSPICE PREFERRED CHOICE, INC.",
    "contactEmail": "3528@AMEDISYS.COM",
    "categoryName": "HOSPICE",
    "categoryCode": "HOSPICE",
    "licenseStatus": "ACTIVE",
    "inService": true,
    "licenseNumber": "550000603",
    "licenseEffectiveDate": "11/05/2023",
    "licenseExpirationDate": "11/04/2025",
    "dataDate": "10/18/2025",
    "capacity": 0,
    "address": "545 E ALLUVIAL AVE, SUITE 108",
    "city": "FRESNO",
    "zip": "93720",
    "county": "FRESNO",
    "phone": "(559) 447-2540",
    "lat": 36.844092,
    "lng": -119.776023
  },
  {
    "id": "630013202",
    "name": "CALIFORNIA COLON AND RECTAL CANCER SCREENING CTR.",
    "npi": "1558672626",
    "hcaiId": null,
    "businessName": null,
    "contactEmail": null,
    "categoryName": "SURGICAL CLINIC",
    "categoryCode": "ASC",
    "licenseStatus": null,
    "inService": null,
    "licenseNumber": null,
    "licenseEffectiveDate": null,
    "licenseExpirationDate": null,
    "dataDate": "10/18/2025",
    "capacity": 0,
    "address": "7121 N. WHITNEY AVE",
    "city": "FRESNO",
    "zip": "93720",
    "county": "FRESNO",
    "phone": "(559) 299-9396",
    "lat": 36.839214,
    "lng": -119.743002
  },
  {
    "id": "630027905",
    "name": "CAMARENA HEALTH - SAMC URGENT CARE",
    "npi": null,
    "hcaiId": null,
    "businessName": "CAMARENA HEALTH",
    "contactEmail": "NMOSQUEDA@CAMARENAHEALTH.ORG",
    "categoryName": "PRIMARY CARE CLINIC",
    "categoryCode": "FQHC/COMTYC",
    "licenseStatus": "ACTIVE",
    "inService": true,
    "licenseNumber": "550009781",
    "licenseEffectiveDate": "05/07/2025",
    "licenseExpirationDate": "05/06/2026",
    "dataDate": "10/18/2025",
    "capacity": 0,
    "address": "1245 E HERNDON AVE",
    "city": "FRESNO",
    "zip": "93720",
    "county": "FRESNO",
    "phone": "(559) 664-4339",
    "lat": 36.8367878,
    "lng": -119.7693542
  },
  {
    "id": "630019992",
    "name": "CAMARENA HEALTH-MILLBROOK HEALTH CENTER",
    "npi": null,
    "hcaiId": null,
    "businessName": "CAMARENA HEALTH",
    "contactEmail": null,
    "categoryName": "PRIMARY CARE CLINIC",
    "categoryCode": "COMTYC",
    "licenseStatus": "ACTIVE",
    "inService": true,
    "licenseNumber": "550000137",
    "licenseEffectiveDate": "12/06/2024",
    "licenseExpirationDate": "12/05/2025",
    "dataDate": "10/18/2025",
    "capacity": 0,
    "address": "7202 N MILLBROOK AVE, SUITE 202",
    "city": "FRESNO",
    "zip": "93720",
    "county": "FRESNO",
    "phone": null,
    "lat": 36.839826,
    "lng": -119.764296
  },
  {
    "id": "040001329",
    "name": "CENTRAL CALIFORNIA ENDOSCOPY CENTER",
    "npi": "1508869645",
    "hcaiId": "306105019",
    "businessName": "FRESNO CA ENDOSCOPY ASC, LP",
    "contactEmail": "SLEVEQUE@CCENDOSCOPY.COM",
    "categoryName": "SURGICAL CLINIC",
    "categoryCode": "ASC",
    "licenseStatus": "INACTIVE - CAPEN DECISION",
    "inService": false,
    "licenseNumber": "040000525",
    "licenseEffectiveDate": "02/20/2007",
    "licenseExpirationDate": "02/19/2008",
    "dataDate": "10/18/2025",
    "capacity": 0,
    "address": "7055 N FRESNO ST, SUITE 100",
    "city": "FRESNO",
    "zip": "93720",
    "county": "FRESNO",
    "phone": "(559) 448-8356",
    "lat": 36.838746,
    "lng": -119.7818685
  },
  {
    "id": "630027853",
    "name": "CENTRAL VALLEY HOSPICE PALLIATIVE MEDICINE",
    "npi": null,
    "hcaiId": null,
    "businessName": "CENTRAL VALLEY HOSPICE PALLIATIVE MEDICINE, PROFESSIONAL CORPORATION",
    "contactEmail": "SUNNYGRANDHE@GMAIL.COM",
    "categoryName": "HOSPICE",
    "categoryCode": "HOSPICE",
    "licenseStatus": "ACTIVE",
    "inService": true,
    "licenseNumber": "550009591",
    "licenseEffectiveDate": "01/06/2025",
    "licenseExpirationDate": "01/05/2027",
    "dataDate": "10/18/2025",
    "capacity": 0,
    "address": "1805 E FIR AVE, SUITE 104",
    "city": "FRESNO",
    "zip": "93720",
    "county": "FRESNO",
    "phone": "(661) 529-5558",
    "lat": 36.83884399,
    "lng": -119.749871
  },
  {
    "id": "040001240",
    "name": "CHESTNUT SURGERY CENTER",
    "npi": "1194720730",
    "hcaiId": "306105010",
    "businessName": "UROLOGY ASSOCIATES OF CENTRAL CALIFORNIA, INC.",
    "contactEmail": null,
    "categoryName": "SURGICAL CLINIC",
    "categoryCode": "ASC",
    "licenseStatus": "INACTIVE - CAPEN DECISION",
    "inService": false,
    "licenseNumber": "040000484",
    "licenseEffectiveDate": "01/06/2008",
    "licenseExpirationDate": "01/05/2009",
    "dataDate": "10/18/2025",
    "capacity": 0,
    "address": "7014 N WHITNEY AVE, SUITE B",
    "city": "FRESNO",
    "zip": "93720",
    "county": "FRESNO",
    "phone": "(559) 321-2800",
    "lat": 36.838107,
    "lng": -119.7417105
  },
  {
    "id": "040000259",
    "name": "COMMUNITY BEHAVIORAL HEALTH CENTER",
    "npi": null,
    "hcaiId": "106104008",
    "businessName": "FRESNO COMMUNITY HOSPITAL AND MEDICAL CENTER",
    "contactEmail": null,
    "categoryName": "ACUTE PSYCHIATRIC HOSPITAL",
    "categoryCode": "APH",
    "licenseStatus": "ACTIVE",
    "inService": true,
    "licenseNumber": "040000096",
    "licenseEffectiveDate": "11/07/2025",
    "licenseExpirationDate": "11/06/2026",
    "dataDate": "10/18/2025",
    "capacity": 73,
    "address": "7171 N CEDAR AVE",
    "city": "FRESNO",
    "zip": "93720",
    "county": "FRESNO",
    "phone": "(559) 449-4417",
    "lat": 36.84042,
    "lng": -119.758023
  },
  {
    "id": "040001304",
    "name": "COMPREHENSIVE PAIN MANAGEMENT CENTER",
    "npi": "1225123227",
    "hcaiId": "306105017",
    "businessName": "COMPREHENSIVE PAIN MANAGEMENT CENTER, INC.",
    "contactEmail": "MIKER.CPMC@SBCGLOBAL.NET",
    "categoryName": "SURGICAL CLINIC",
    "categoryCode": "ASC",
    "licenseStatus": "INACTIVE - CAPEN DECISION",
    "inService": false,
    "licenseNumber": "040000514",
    "licenseEffectiveDate": "06/01/2007",
    "licenseExpirationDate": "05/31/2008",
    "dataDate": "10/18/2025",
    "capacity": 0,
    "address": "7152 N SHARON AVE, SUITE 104",
    "city": "FRESNO",
    "zip": "93720",
    "county": "FRESNO",
    "phone": "(559) 447-4898",
    "lat": 36.840204,
    "lng": -119.7591615
  },
  {
    "id": "040000682",
    "name": "E.N.T. FACIAL SURGERY CENTER",
    "npi": "1841259694",
    "hcaiId": "306104050",
    "businessName": "CENTRAL CALIFORNIA E.N.T. MEDICAL GROUP",
    "contactEmail": "WWW.JLOFORTI@CCENT.COM",
    "categoryName": "SURGICAL CLINIC",
    "categoryCode": "ASC",
    "licenseStatus": "INACTIVE - CAPEN DECISION",
    "inService": false,
    "licenseNumber": "040000345",
    "licenseEffectiveDate": "11/15/2007",
    "licenseExpirationDate": "11/14/2008",
    "dataDate": "10/18/2025",
    "capacity": 0,
    "address": "1351 E SPRUCE AVE",
    "city": "FRESNO",
    "zip": "93720",
    "county": "FRESNO",
    "phone": "(559) 432-3303",
    "lat": 36.840744,
    "lng": -119.759103
  },
  {
    "id": "040000697",
    "name": "EVANGELHO, MICHAEL JOHN",
    "npi": null,
    "hcaiId": null,
    "businessName": null,
    "contactEmail": null,
    "categoryName": "OTHER",
    "categoryCode": "UNLICEN",
    "licenseStatus": null,
    "inService": null,
    "licenseNumber": null,
    "licenseEffectiveDate": null,
    "licenseExpirationDate": null,
    "dataDate": "10/18/2025",
    "capacity": 0,
    "address": "1189 E HERNDON AVE, SUITE 106",
    "city": "FRESNO",
    "zip": "93720",
    "county": "FRESNO",
    "phone": "(559) 436-8525",
    "lat": 36.836775,
    "lng": -119.7686925
  },
  {
    "id": "630028123",
    "name": "EVERMORE HOSPICE INC",
    "npi": null,
    "hcaiId": null,
    "businessName": "EVERMORE HOSPICE INC",
    "contactEmail": "EVERMOREHOSPICECA@GMAIL.COM",
    "categoryName": "HOSPICE",
    "categoryCode": "HOSPICE",
    "licenseStatus": "ACTIVE",
    "inService": true,
    "licenseNumber": "550009921",
    "licenseEffectiveDate": "08/07/2025",
    "licenseExpirationDate": "08/06/2027",
    "dataDate": "10/18/2025",
    "capacity": 0,
    "address": "265 E RIVER PARK CIR, SUITE 110 OFFICE 149",
    "city": "FRESNO",
    "zip": "93720",
    "county": "FRESNO",
    "phone": "(949) 331-4843",
    "lat": 36.85478633,
    "lng": -119.785115
  },
  {
    "id": "630019873",
    "name": "FAMILY HEALTHCARE NETWORK",
    "npi": null,
    "hcaiId": null,
    "businessName": "FAMILY HEALTHCARE NETWORK",
    "contactEmail": null,
    "categoryName": "PRIMARY CARE CLINIC",
    "categoryCode": "COMTYC",
    "licenseStatus": "ACTIVE",
    "inService": true,
    "licenseNumber": "550004220",
    "licenseEffectiveDate": "06/24/2025",
    "licenseExpirationDate": "04/21/2026",
    "dataDate": "10/18/2025",
    "capacity": 0,
    "address": "7060 N RECREATION AVE, SUITE 101",
    "city": "FRESNO",
    "zip": "93720",
    "county": "FRESNO",
    "phone": null,
    "lat": 36.838647,
    "lng": -119.7397125
  },
  {
    "id": "630018207",
    "name": "FRESNO AMBULATORY SURGERY CENTER",
    "npi": "1417474867",
    "hcaiId": null,
    "businessName": null,
    "contactEmail": "MAYC@THENEPHROLOGYGROUPINC.COM",
    "categoryName": "SURGICAL CLINIC",
    "categoryCode": "ASC",
    "licenseStatus": null,
    "inService": null,
    "licenseNumber": null,
    "licenseEffectiveDate": null,
    "licenseExpirationDate": null,
    "dataDate": "10/18/2025",
    "capacity": 0,
    "address": "568 E HERNDON AVE, SUITE 103",
    "city": "FRESNO",
    "zip": "93720",
    "county": "FRESNO",
    "phone": "(559) 431-0066",
    "lat": 36.838665,
    "lng": -119.7777375
  },
  {
    "id": "040001233",
    "name": "FRESNO ENDOSCOPY CENTER",
    "npi": "1225245723",
    "hcaiId": "306105006",
    "businessName": "FRESNO ENDOSCOPY CENTER",
    "contactEmail": null,
    "categoryName": "SURGICAL CLINIC",
    "categoryCode": "ASC",
    "licenseStatus": "INACTIVE - CAPEN DECISION",
    "inService": false,
    "licenseNumber": "040000483",
    "licenseEffectiveDate": "06/24/2007",
    "licenseExpirationDate": "06/23/2008",
    "dataDate": "10/18/2025",
    "capacity": 0,
    "address": "7405 N FRESNO ST",
    "city": "FRESNO",
    "zip": "93720",
    "county": "FRESNO",
    "phone": "(559) 438-9400",
    "lat": 36.845091,
    "lng": -119.784249
  },
  {
    "id": "040001397",
    "name": "FRESNO HEART AND SURGICAL HOSPITAL",
    "npi": "1104906569",
    "hcaiId": "106105029",
    "businessName": "FRESNO COMMUNITY HOSPITAL AND MEDICAL CENTER",
    "contactEmail": "WHOLDERMAN@FRESNOHEARTANDSURGICAL.ORG",
    "categoryName": "GENERAL ACUTE CARE HOSPITAL",
    "categoryCode": "GACH",
    "licenseStatus": "ACTIVE",
    "inService": true,
    "licenseNumber": "040000096",
    "licenseEffectiveDate": "11/07/2025",
    "licenseExpirationDate": "11/06/2026",
    "dataDate": "10/18/2025",
    "capacity": 57,
    "address": "15 E AUDUBON DR",
    "city": "FRESNO",
    "zip": "93720",
    "county": "FRESNO",
    "phone": "(559) 433-8000",
    "lat": 36.860085,
    "lng": -119.7882225
  },
  {
    "id": "040001387",
    "name": "GASTROENTEROLOGY & LIVER DISEASE MEDICAL CTR, INC",
    "npi": "1780631127",
    "hcaiId": "306105033",
    "businessName": "GASTROENTEROLOGY & LIVER DISEASE MEDICAL CTR., INC",
    "contactEmail": "OFFICE@DR.MITTAL.NET",
    "categoryName": "SURGICAL CLINIC",
    "categoryCode": "ASC",
    "licenseStatus": "INACTIVE - CAPEN DECISION",
    "inService": false,
    "licenseNumber": "040000547",
    "licenseEffectiveDate": "03/27/2007",
    "licenseExpirationDate": "03/26/2008",
    "dataDate": "10/18/2025",
    "capacity": 0,
    "address": "7215 N FRESNO ST, SUITE 101",
    "city": "FRESNO",
    "zip": "93720",
    "county": "FRESNO",
    "phone": "(559) 449-0309",
    "lat": 36.841563,
    "lng": -119.783349
  },
  {
    "id": "630013695",
    "name": "HERNDON DIALYSIS",
    "npi": "1659647808",
    "hcaiId": "306105080",
    "businessName": "SOUTH FORK DIALYSIS, LLC",
    "contactEmail": "CAL_C@DAVITA.COM",
    "categoryName": "CHRONIC DIALYSIS CLINIC",
    "categoryCode": "ESRD/CDC",
    "licenseStatus": "ACTIVE",
    "inService": true,
    "licenseNumber": "550002083",
    "licenseEffectiveDate": "09/25/2025",
    "licenseExpirationDate": "09/24/2026",
    "dataDate": "10/18/2025",
    "capacity": 48,
    "address": "560 E HERNDON AVE, SUITE 101",
    "city": "FRESNO",
    "zip": "93720",
    "county": "FRESNO",
    "phone": "(559) 432-5278",
    "lat": 36.837963,
    "lng": -119.7778635
  },
  {
    "id": "630011349",
    "name": "HERNDON SURGERY CENTER",
    "npi": "1538403670",
    "hcaiId": null,
    "businessName": null,
    "contactEmail": "CAROL@PSC-ASC.COM",
    "categoryName": "SURGICAL CLINIC",
    "categoryCode": "ASC",
    "licenseStatus": null,
    "inService": null,
    "licenseNumber": null,
    "licenseEffectiveDate": null,
    "licenseExpirationDate": null,
    "dataDate": "10/18/2025",
    "capacity": 0,
    "address": "1843 E FIR AVE, SUITE 104",
    "city": "FRESNO",
    "zip": "93720",
    "county": "FRESNO",
    "phone": "(559) 323-6611",
    "lat": 36.838179,
    "lng": -119.7492435
  },
  {
    "id": "040000014",
    "name": "HORIZON HEALTH & SUBACUTE CENTER",
    "npi": "1235363904",
    "hcaiId": "206105014",
    "businessName": "GHC OF FRESNO, LLC",
    "contactEmail": "LESLIEBECK@LIFEGEN.NET",
    "categoryName": "SKILLED NURSING FACILITY",
    "categoryCode": "SNF",
    "licenseStatus": "ACTIVE",
    "inService": true,
    "licenseNumber": "040000076",
    "licenseEffectiveDate": "03/01/2025",
    "licenseExpirationDate": "02/28/2026",
    "dataDate": "10/18/2025",
    "capacity": 180,
    "address": "3034 E HERNDON AVE",
    "city": "FRESNO",
    "zip": "93720",
    "county": "FRESNO",
    "phone": "(559) 308-5624",
    "lat": 36.838683,
    "lng": -119.734947
  },
  {
    "id": "040000136",
    "name": "INTERIM HEALTHCARE OF THE CENTRAL VALLEY",
    "npi": "1710922471",
    "hcaiId": "406100047",
    "businessName": "AC HEALTH, INC",
    "contactEmail": "SAHMED@INTERIMHEALTHCARE.COM",
    "categoryName": "HOME HEALTH AGENCY",
    "categoryCode": "HHA",
    "licenseStatus": "ACTIVE",
    "inService": true,
    "licenseNumber": "040000033",
    "licenseEffectiveDate": "11/22/2024",
    "licenseExpirationDate": "11/21/2025",
    "dataDate": "10/18/2025",
    "capacity": 0,
    "address": "1843 E FIR AVE, SUITE 101",
    "city": "FRESNO",
    "zip": "93720",
    "county": "FRESNO",
    "phone": "(559) 224-0560",
    "lat": 36.837846,
    "lng": -119.7493335
  },
  {
    "id": "040000949",
    "name": "KAISER FOUNDATION HOSPITAL - FRESNO",
    "npi": "1083784672",
    "hcaiId": "106104062",
    "businessName": "KAISER FOUNDATION HOSPITALS",
    "contactEmail": "VONNIE.A.NUNES@KP.ORG",
    "categoryName": "GENERAL ACUTE CARE HOSPITAL",
    "categoryCode": "GACH",
    "licenseStatus": "ACTIVE",
    "inService": true,
    "licenseNumber": "040000384",
    "licenseEffectiveDate": "12/01/2024",
    "licenseExpirationDate": "11/30/2025",
    "dataDate": "10/18/2025",
    "capacity": 169,
    "address": "7300 N FRESNO ST",
    "city": "FRESNO",
    "zip": "93720",
    "county": "FRESNO",
    "phone": "(559) 448-5997",
    "lat": 36.843201,
    "lng": -119.783376
  },
  {
    "id": "630011955",
    "name": "NEURORESTORATIVE CALIFORNIA",
    "npi": null,
    "hcaiId": "206105046",
    "businessName": "CAREMERIDIAN, LLC",
    "contactEmail": "BECKY.AVILA@NEURORESTORATIVE.COM",
    "categoryName": "CONGREGATE LIVING HEALTH FACILITY",
    "categoryCode": "CLHF",
    "licenseStatus": "ACTIVE",
    "inService": true,
    "licenseNumber": "550000897",
    "licenseEffectiveDate": "02/06/2025",
    "licenseExpirationDate": "02/05/2026",
    "dataDate": "10/18/2025",
    "capacity": 18,
    "address": "2792 E ALLUVIAL AVE",
    "city": "FRESNO",
    "zip": "93720",
    "county": "FRESNO",
    "phone": "(559) 264-0535",
    "lat": 36.84487186,
    "lng": -119.7329958
  },
  {
    "id": "630015510",
    "name": "NEURORESTORATIVE CALIFORNIA",
    "npi": null,
    "hcaiId": "206105121",
    "businessName": "CAREMERIDIAN, LLC",
    "contactEmail": "CRISTY.BLAZEVICH@SEVITAHEALTH.COM",
    "categoryName": "CONGREGATE LIVING HEALTH FACILITY",
    "categoryCode": "CLHF",
    "licenseStatus": "ACTIVE",
    "inService": true,
    "licenseNumber": "550002963",
    "licenseEffectiveDate": "03/16/2025",
    "licenseExpirationDate": "03/15/2026",
    "dataDate": "10/18/2025",
    "capacity": 12,
    "address": "1733 E ALLUVIAL AVENUE",
    "city": "FRESNO",
    "zip": "93720",
    "county": "FRESNO",
    "phone": "(559) 299-1200",
    "lat": 36.844452,
    "lng": -119.7520155
  },
  {
    "id": "630020240",
    "name": "NOBLE HOSPICE AND PALLIATIVE",
    "npi": null,
    "hcaiId": null,
    "businessName": "CENTRAL VALLEY HOSPICE CARE, INC.",
    "contactEmail": "NOBLE.ANDY@AOL.COM",
    "categoryName": "HOSPICE",
    "categoryCode": "HOSPICE",
    "licenseStatus": "ACTIVE",
    "inService": true,
    "licenseNumber": "550004846",
    "licenseEffectiveDate": "07/25/2025",
    "licenseExpirationDate": "07/24/2027",
    "dataDate": "10/18/2025",
    "capacity": 0,
    "address": "2575 E PERRIN AVE, SUITE 109",
    "city": "FRESNO",
    "zip": "93720",
    "county": "FRESNO",
    "phone": "(925) 594-1122",
    "lat": 36.873396,
    "lng": -119.7382275
  },
  {
    "id": "220001121",
    "name": "OPTUM WOMEN'S AND CHILDREN'S HEALTH, LLC",
    "npi": null,
    "hcaiId": "406105096",
    "businessName": "OPTUM WOMEN'S AND CHILDREN'S HEALTH, LLC",
    "contactEmail": "TINA.TUBB@OPTUM.COM",
    "categoryName": "HOME HEALTH AGENCY",
    "categoryCode": "HHA",
    "licenseStatus": "ACTIVE",
    "inService": true,
    "licenseNumber": "220000459",
    "licenseEffectiveDate": "03/08/2025",
    "licenseExpirationDate": "03/07/2026",
    "dataDate": "10/18/2025",
    "capacity": 0,
    "address": "7067 N MARIPOSA ST, SUITE 101",
    "city": "FRESNO",
    "zip": "93720",
    "county": "FRESNO",
    "phone": "(800) 950-3963",
    "lat": 36.8388,
    "lng": -119.7796815
  },
  {
    "id": "630014443",
    "name": "PREGNANCY CARE CENTER",
    "npi": null,
    "hcaiId": "306105120",
    "businessName": "CENTRAL VALLEY CRISIS PREGNANCY CENTER",
    "contactEmail": "KELLI@PREGNANCYCARECENTER.COM",
    "categoryName": "PRIMARY CARE CLINIC",
    "categoryCode": "COMTYC",
    "licenseStatus": "ACTIVE",
    "inService": true,
    "licenseNumber": "550000424",
    "licenseEffectiveDate": "11/06/2025",
    "licenseExpirationDate": "11/05/2026",
    "dataDate": "10/18/2025",
    "capacity": 0,
    "address": "7005 N MAPLE AVE, SUITE 101B",
    "city": "FRESNO",
    "zip": "93720",
    "county": "FRESNO",
    "phone": "(559) 326-7529",
    "lat": 36.838269,
    "lng": -119.745639
  },
  {
    "id": "630013305",
    "name": "PRISTINE SURGERY CENTER",
    "npi": "1831371749",
    "hcaiId": null,
    "businessName": null,
    "contactEmail": "ACTONGOALS@AOL.COM",
    "categoryName": "SURGICAL CLINIC",
    "categoryCode": "ASC",
    "licenseStatus": null,
    "inService": null,
    "licenseNumber": null,
    "licenseEffectiveDate": null,
    "licenseExpirationDate": null,
    "dataDate": "10/18/2025",
    "capacity": 0,
    "address": "7085 N MAPLE AVE",
    "city": "FRESNO",
    "zip": "93720",
    "county": "FRESNO",
    "phone": "(559) 431-8888",
    "lat": 36.83898,
    "lng": -119.7456615
  },
  {
    "id": "040001369",
    "name": "REGIONAL HAND CENTER OF CENTRAL CALIFORNIA",
    "npi": "1891770814",
    "hcaiId": "306105032",
    "businessName": "REGIONAL HAND CENTER OF CENTRAL CALIFORNIA",
    "contactEmail": null,
    "categoryName": "SURGICAL CLINIC",
    "categoryCode": "ASC",
    "licenseStatus": "INACTIVE - CAPEN DECISION",
    "inService": false,
    "licenseNumber": "040000548",
    "licenseEffectiveDate": "06/04/2007",
    "licenseExpirationDate": "06/03/2008",
    "dataDate": "10/18/2025",
    "capacity": 0,
    "address": "2139 E BEECHWOOD AVE",
    "city": "FRESNO",
    "zip": "93720",
    "county": "FRESNO",
    "phone": "(559) 322-6600",
    "lat": 36.838035,
    "lng": -119.7442035
  },
  {
    "id": "630011186",
    "name": "RENAISSANCE SURGERY CENTER",
    "npi": "1013068642",
    "hcaiId": "306105060",
    "businessName": null,
    "contactEmail": null,
    "categoryName": "SURGICAL CLINIC",
    "categoryCode": "ASC",
    "licenseStatus": "INACTIVE - CAPEN DECISION",
    "inService": false,
    "licenseNumber": "550000544",
    "licenseEffectiveDate": "03/28/2008",
    "licenseExpirationDate": "09/27/2008",
    "dataDate": "10/18/2025",
    "capacity": 0,
    "address": "2365 E FIR AVE",
    "city": "FRESNO",
    "zip": "93720",
    "county": "FRESNO",
    "phone": "(559) 974-0885",
    "lat": 36.839259,
    "lng": -119.740194
  },
  {
    "id": "040000126",
    "name": "SAINT AGNES MEDICAL CENTER",
    "npi": "1205845567",
    "hcaiId": "106100899",
    "businessName": "SAINT AGNES MEDICAL CENTER",
    "contactEmail": "GURVINDER.KAUR@SAMC.COM",
    "categoryName": "GENERAL ACUTE CARE HOSPITAL",
    "categoryCode": "GACH",
    "licenseStatus": "ACTIVE",
    "inService": true,
    "licenseNumber": "040000173",
    "licenseEffectiveDate": "03/22/2025",
    "licenseExpirationDate": "03/21/2026",
    "dataDate": "10/18/2025",
    "capacity": 436,
    "address": "1303 E HERNDON AVE",
    "city": "FRESNO",
    "zip": "93720",
    "county": "FRESNO",
    "phone": "(559) 450-3301",
    "lat": 36.8352022,
    "lng": -119.7655278
  },
  {
    "id": "040000613",
    "name": "SAN JOAQUIN VALLEY REHABILITATION HOSPITAL",
    "npi": "1831144716",
    "hcaiId": "106104023",
    "businessName": "7173 NORTH SHARON AVENUE OPERATING COMPANY LLC",
    "contactEmail": "MJACOBSON@SJVREHAB.COM",
    "categoryName": "GENERAL ACUTE CARE HOSPITAL",
    "categoryCode": "GACH",
    "licenseStatus": "ACTIVE",
    "inService": true,
    "licenseNumber": "040000280",
    "licenseEffectiveDate": "05/01/2025",
    "licenseExpirationDate": "10/31/2025",
    "dataDate": "10/18/2025",
    "capacity": 62,
    "address": "7173 N SHARON AVE",
    "city": "FRESNO",
    "zip": "93720",
    "county": "FRESNO",
    "phone": "(559) 436-3600",
    "lat": 36.840339,
    "lng": -119.760678
  },
  {
    "id": "040001354",
    "name": "SUMMIT SURGICAL",
    "npi": "1942245725",
    "hcaiId": "306105021",
    "businessName": "SIERRA PACIFIC SURGERY CENTER, LP",
    "contactEmail": "KRIS@SUMMITOR.COM",
    "categoryName": "SURGICAL CLINIC",
    "categoryCode": "ASC",
    "licenseStatus": "INACTIVE - CAPEN DECISION",
    "inService": false,
    "licenseNumber": "040000527",
    "licenseEffectiveDate": "05/02/2007",
    "licenseExpirationDate": "05/01/2008",
    "dataDate": "10/18/2025",
    "capacity": 0,
    "address": "1630 E HERNDON AVE, SUITE 100",
    "city": "FRESNO",
    "zip": "93720",
    "county": "FRESNO",
    "phone": "(559) 449-2888",
    "lat": 36.838341,
    "lng": -119.7586395
  },
  {
    "id": "040000305",
    "name": "VALLEY MEDICAL PLAZA AMBULATORY SURGICAL CENTER",
    "npi": "1992794580",
    "hcaiId": "306104006",
    "businessName": "VALLEY MEDICAL PLAZA AMBULATORY SURGICAL CENTER",
    "contactEmail": "EMILE.SHARIFI@GMAIL.COM",
    "categoryName": "SURGICAL CLINIC",
    "categoryCode": "ASC",
    "licenseStatus": "INACTIVE - CAPEN DECISION",
    "inService": false,
    "licenseNumber": "040000241",
    "licenseEffectiveDate": "05/06/2007",
    "licenseExpirationDate": "05/05/2008",
    "dataDate": "10/18/2025",
    "capacity": 0,
    "address": "1680 E HERNDON AVE, SUITE 101",
    "city": "FRESNO",
    "zip": "93720",
    "county": "FRESNO",
    "phone": "(559) 432-4200",
    "lat": 36.838017,
    "lng": -119.7570825
  },
  {
    "id": "040000304",
    "name": "VISION CARE SURGERY CENTER",
    "npi": "1023283413",
    "hcaiId": "306104040",
    "businessName": "VISION CARE CENTER",
    "contactEmail": "MHERMAN@EYEQVC.COM",
    "categoryName": "SURGICAL CLINIC",
    "categoryCode": "ASC",
    "licenseStatus": "INACTIVE - CAPEN DECISION",
    "inService": false,
    "licenseNumber": "040000312",
    "licenseEffectiveDate": "11/01/2007",
    "licenseExpirationDate": "10/31/2008",
    "dataDate": "10/18/2025",
    "capacity": 0,
    "address": "7075 N SHARON AVE",
    "city": "FRESNO",
    "zip": "93720",
    "county": "FRESNO",
    "phone": "(559) 486-2000",
    "lat": 36.838863,
    "lng": -119.75994
  },
  {
    "id": "630019961",
    "name": "WELLPOINTE HOME HEALTH",
    "npi": null,
    "hcaiId": "406103111",
    "businessName": "XENCARE, INC.",
    "contactEmail": "CONTACT@WELLPOINTEHOMEHEALTH.COM",
    "categoryName": "HOME HEALTH AGENCY",
    "categoryCode": "HHA",
    "licenseStatus": "ACTIVE",
    "inService": true,
    "licenseNumber": "550005977",
    "licenseEffectiveDate": "03/15/2025",
    "licenseExpirationDate": "03/14/2026",
    "dataDate": "10/18/2025",
    "capacity": 0,
    "address": "7086 N MAPLE AVE, SUITE 104",
    "city": "FRESNO",
    "zip": "93720",
    "county": "FRESNO",
    "phone": "(559) 434-1839",
    "lat": 36.839007,
    "lng": -119.7442485
  },
  {
    "id": "630021240",
    "name": "WELLPOINTE HOSPICE",
    "npi": null,
    "hcaiId": null,
    "businessName": "XENCARE, INC.",
    "contactEmail": "ABALLARD@WELLPOINTE.COM",
    "categoryName": "HOSPICE",
    "categoryCode": "HOSPICE",
    "licenseStatus": "ACTIVE",
    "inService": true,
    "licenseNumber": "550007645",
    "licenseEffectiveDate": "03/28/2024",
    "licenseExpirationDate": "12/22/2025",
    "dataDate": "10/18/2025",
    "capacity": 0,
    "address": "7086 N MAPLE AVE, SUITE 101B",
    "city": "FRESNO",
    "zip": "93720",
    "county": "FRESNO",
    "phone": "(559) 434-1836",
    "lat": 36.839007,
    "lng": -119.7442485
  }
]