[
  {
    "id": "040000644",
    "name": "ABLELIGHT INC. - HELM",
    "npi": "1417010604",
    "hcaiId": null,
    "businessName": "ABLELIGHT INC.",
    "contactEmail": "KAMILLE.WILLIAMS@ABLELIGHT.ORG",
    "categoryName": "INTERMEDIATE CARE FACILITY-DD/H/N/CN/IID",
    "categoryCode": "ICFDDH",
    "licenseStatus": "ACTIVE",
    "inService": true,
    "licenseNumber": "040000284",
    "licenseEffectiveDate": "06/02/2025",
    "licenseExpirationDate": "06/01/2026",
    "dataDate": "10/18/2025",
    "capacity": 6,
    "address": "1696 S HELM AVE",
    "city": "FRESNO",
    "zip": "93727",
    "county": "FRESNO",
    "phone": "(559) 547-0186",
    "lat": 36.725967,
    "lng": -119.722653
  },
  {
    "id": "240001792",
    "name": "ASH TREE DIALYSIS",
    "npi": "1710939863",
    "hcaiId": "306101074",
    "businessName": "TOTAL RENAL CARE, INC.",
    "contactEmail": "CAL_C@DAVITA.COM",
    "categoryName": "CHRONIC DIALYSIS CLINIC",
    "categoryCode": "ESRD/CDC",
    "licenseStatus": "ACTIVE",
    "inService": true,
    "licenseNumber": "240000786",
    "licenseEffectiveDate": "06/21/2025",
    "licenseExpirationDate": "06/20/2026",
    "dataDate": "10/18/2025",
    "capacity": 36,
    "address": "2666 N GROVE INDUSTRIAL DR, SUITE 106",
    "city": "FRESNO",
    "zip": "93727",
    "county": "FRESNO",
    "phone": "(559) 251-1919",
    "lat": 36.77427,
    "lng": -119.729277
  },
  {
    "id": "040000013",
    "name": "CALIFORNIA HOME FOR THE AGED, INC.",
    "npi": "1205903176",
    "hcaiId": "206100689",
    "businessName": "CALIFORNIA HOME FOR THE AGED, INC. DBA CALIFORNIA ARMENIAN HOME",
    "contactEmail": "AHOPKINS@ARMENIANHOME.NET",
    "categoryName": "SKILLED NURSING FACILITY",
    "categoryCode": "SNF",
    "licenseStatus": "ACTIVE",
    "inService": true,
    "licenseNumber": "040000081",
    "licenseEffectiveDate": "02/01/2025",
    "licenseExpirationDate": "01/31/2026",
    "dataDate": "10/18/2025",
    "capacity": 120,
    "address": "6720 E KINGS CANYON RD",
    "city": "FRESNO",
    "zip": "93727",
    "county": "FRESNO",
    "phone": "(559) 251-8414",
    "lat": 36.74322,
    "lng": -119.6700975
  },
  {
    "id": "040000012",
    "name": "EVERGREEN CARE CENTER",
    "npi": "1598323669",
    "hcaiId": "206100780",
    "businessName": "EVERGREEN CARE CENTER LLC",
    "contactEmail": "ADMINISTRATOR@EVERGREENCARECENTER.ORG",
    "categoryName": "SKILLED NURSING FACILITY",
    "categoryCode": "SNF",
    "licenseStatus": "ACTIVE",
    "inService": true,
    "licenseNumber": "040000137",
    "licenseEffectiveDate": "11/01/2025",
    "licenseExpirationDate": "10/31/2026",
    "dataDate": "10/18/2025",
    "capacity": 49,
    "address": "5265 E HUNTINGTON AVE",
    "city": "FRESNO",
    "zip": "93727",
    "county": "FRESNO",
    "phone": "(559) 251-8245",
    "lat": 36.73998,
    "lng": -119.715615
  },
  {
    "id": "630017855",
    "name": "FAMILY HEALTHCARE NETWORK",
    "npi": null,
    "hcaiId": "306100373",
    "businessName": "FAMILY HEALTHCARE NETWORK",
    "contactEmail": "RISKMANAGEMENT@FHCN.ORG",
    "categoryName": "PRIMARY CARE CLINIC",
    "categoryCode": "COMTYC",
    "licenseStatus": "ACTIVE",
    "inService": true,
    "licenseNumber": "550004220",
    "licenseEffectiveDate": "06/24/2025",
    "licenseExpirationDate": "04/21/2026",
    "dataDate": "10/18/2025",
    "capacity": 0,
    "address": "5166 E OLIVE AVE",
    "city": "FRESNO",
    "zip": "93727",
    "county": "FRESNO",
    "phone": "(559) 737-4717",
    "lat": 36.75687015,
    "lng": -119.7199722
  },
  {
    "id": "630017242",
    "name": "FRESENIUS KIDNEY CARE CENTRAL VALLEY HOME THERAPY",
    "npi": null,
    "hcaiId": null,
    "businessName": null,
    "contactEmail": null,
    "categoryName": "CHRONIC DIALYSIS CLINIC",
    "categoryCode": "ESRD",
    "licenseStatus": null,
    "inService": null,
    "licenseNumber": null,
    "licenseEffectiveDate": null,
    "licenseExpirationDate": null,
    "dataDate": "10/18/2025",
    "capacity": 0,
    "address": "1899 N HELM AVE, SUITE 102",
    "city": "FRESNO",
    "zip": "93727",
    "county": "FRESNO",
    "phone": "(559) 452-1014",
    "lat": 36.767718,
    "lng": -119.724435
  },
  {
    "id": "630016483",
    "name": "FRESENIUS MEDICAL CARE FRESNO AIRPORT EAST",
    "npi": null,
    "hcaiId": "306105108",
    "businessName": "FRESENIUS MEDICAL CARE OF FRESNO, LLC",
    "contactEmail": "CACLINICLICENSE@FRESENIUSMEDICALCARE.COM",
    "categoryName": "CHRONIC DIALYSIS CLINIC",
    "categoryCode": "ESRD/CDC",
    "licenseStatus": "ACTIVE",
    "inService": true,
    "licenseNumber": "550003601",
    "licenseEffectiveDate": "07/06/2025",
    "licenseExpirationDate": "07/05/2026",
    "dataDate": "10/18/2025",
    "capacity": 24,
    "address": "1899 N. HELM AVENUE",
    "city": "FRESNO",
    "zip": "93727",
    "county": "FRESNO",
    "phone": "(559) 452-1480",
    "lat": 36.767754,
    "lng": -119.7240525
  },
  {
    "id": "630027122",
    "name": "FRESNO MOBILE UNIT",
    "npi": null,
    "hcaiId": null,
    "businessName": "CLINICA SIERRA VISTA",
    "contactEmail": null,
    "categoryName": "PRIMARY CARE CLINIC",
    "categoryCode": "COMTYC",
    "licenseStatus": "ACTIVE",
    "inService": true,
    "licenseNumber": "040000557",
    "licenseEffectiveDate": "11/15/2025",
    "licenseExpirationDate": "11/14/2026",
    "dataDate": "10/18/2025",
    "capacity": 0,
    "address": "1945 N FINE AVE, SUITE 108",
    "city": "FRESNO",
    "zip": "93727",
    "county": "FRESNO",
    "phone": null,
    "lat": 36.768493,
    "lng": -119.729632
  },
  {
    "id": "040000138",
    "name": "INHOME HEALTHCARE SERVICES",
    "npi": "1417956921",
    "hcaiId": "406104009",
    "businessName": "BBT HEALTH, LLC",
    "contactEmail": "ADAM.FRERICHS@INHOMEHCS.COM",
    "categoryName": "HOME HEALTH AGENCY",
    "categoryCode": "HHA",
    "licenseStatus": "ACTIVE",
    "inService": true,
    "licenseNumber": "040000006",
    "licenseEffectiveDate": "04/04/2025",
    "licenseExpirationDate": "04/03/2026",
    "dataDate": "10/18/2025",
    "capacity": 0,
    "address": "5105 E DAKOTA AVE, SUITE 101",
    "city": "FRESNO",
    "zip": "93727",
    "county": "FRESNO",
    "phone": "(559) 248-0131",
    "lat": 36.787419,
    "lng": -119.7230715
  },
  {
    "id": "040000787",
    "name": "KINGS WINERY MEDICAL CLINIC",
    "npi": null,
    "hcaiId": "306104048",
    "businessName": "GREATER FRESNO HEALTH ORGANIZATION, INC.",
    "contactEmail": "BMOUANOUTOUA@GFHO.ORG",
    "categoryName": "PRIMARY CARE CLINIC",
    "categoryCode": "COMTYC",
    "licenseStatus": "ACTIVE",
    "inService": true,
    "licenseNumber": "550002654",
    "licenseEffectiveDate": "05/01/2025",
    "licenseExpirationDate": "04/30/2026",
    "dataDate": "10/18/2025",
    "capacity": 0,
    "address": "4929 E KINGS CANYON RD",
    "city": "FRESNO",
    "zip": "93727",
    "county": "FRESNO",
    "phone": "(559) 255-6476",
    "lat": 36.7362,
    "lng": -119.7305685
  },
  {
    "id": "630018551",
    "name": "LENITY HOME CARE LLC",
    "npi": "1790251619",
    "hcaiId": "406152229",
    "businessName": "LENITY HOME CARE LLC",
    "contactEmail": "R.SHERGILL@LENITY3.COM",
    "categoryName": "HOME HEALTH AGENCY",
    "categoryCode": "HHA",
    "licenseStatus": "ACTIVE",
    "inService": true,
    "licenseNumber": "550004813",
    "licenseEffectiveDate": "08/05/2025",
    "licenseExpirationDate": "08/04/2026",
    "dataDate": "10/18/2025",
    "capacity": 0,
    "address": "4950 E YALE AVE",
    "city": "FRESNO",
    "zip": "93727",
    "county": "FRESNO",
    "phone": "(559) 742-8005",
    "lat": 36.76992027,
    "lng": -119.7297693
  },
  {
    "id": "630024925",
    "name": "MOUNTAIN VALLEY HEALTHCARE LLC",
    "npi": null,
    "hcaiId": "406100025",
    "businessName": "MOUNTAIN VALLEY HEALTHCARE LLC",
    "contactEmail": "ABDULMARCABAN@YAHOO.COM",
    "categoryName": "HOME HEALTH AGENCY",
    "categoryCode": "HHA",
    "licenseStatus": "ACTIVE",
    "inService": true,
    "licenseNumber": "550009041",
    "licenseEffectiveDate": "03/14/2025",
    "licenseExpirationDate": "03/13/2026",
    "dataDate": "10/18/2025",
    "capacity": 0,
    "address": "5816 E SHIELDS AVE, SUITE 109",
    "city": "FRESNO",
    "zip": "93727",
    "county": "FRESNO",
    "phone": "(669) 224-9120",
    "lat": 36.779067,
    "lng": -119.6910315
  },
  {
    "id": "630014276",
    "name": "NORTH FINE COMMUNITY HEALTH CENTER",
    "npi": "1720347149",
    "hcaiId": "306105097",
    "businessName": "CLINICA SIERRA VISTA",
    "contactEmail": "LICENSING@CLINICASIERRAVISTA.ORG",
    "categoryName": "PRIMARY CARE CLINIC",
    "categoryCode": "COMTYC",
    "licenseStatus": "ACTIVE",
    "inService": true,
    "licenseNumber": "550002258",
    "licenseEffectiveDate": "05/16/2025",
    "licenseExpirationDate": "05/15/2026",
    "dataDate": "10/18/2025",
    "capacity": 0,
    "address": "1945 N FINE AVE, SUITE 100",
    "city": "FRESNO",
    "zip": "93727",
    "county": "FRESNO",
    "phone": "(559) 457-5800",
    "lat": 36.768393,
    "lng": -119.7295965
  },
  {
    "id": "630028442",
    "name": "OMNI FAMILY HEALTH",
    "npi": null,
    "hcaiId": null,
    "businessName": "OMNI FAMILY HEALTH",
    "contactEmail": null,
    "categoryName": "PRIMARY CARE CLINIC",
    "categoryCode": "COMTYC",
    "licenseStatus": "ACTIVE",
    "inService": true,
    "licenseNumber": "550004429",
    "licenseEffectiveDate": "11/14/2025",
    "licenseExpirationDate": "11/13/2026",
    "dataDate": "10/18/2025",
    "capacity": 0,
    "address": "4815 E BUTLER AVE, SUITE A",
    "city": "FRESNO",
    "zip": "93727",
    "county": "FRESNO",
    "phone": null,
    "lat": 36.72963814,
    "lng": -119.7356821
  },
  {
    "id": "040000069",
    "name": "ORCHARD POST ACUTE",
    "npi": "1508854795",
    "hcaiId": "206100820",
    "businessName": "FRESNO VALLEY SNF, LLC",
    "contactEmail": "JOSH.MATIACO@ORCHARDPA.COM",
    "categoryName": "SKILLED NURSING FACILITY",
    "categoryCode": "SNF",
    "licenseStatus": "ACTIVE",
    "inService": true,
    "licenseNumber": "040000161",
    "licenseEffectiveDate": "11/15/2024",
    "licenseExpirationDate": "11/14/2025",
    "dataDate": "10/18/2025",
    "capacity": 99,
    "address": "4840 E TULARE AVE",
    "city": "FRESNO",
    "zip": "93727",
    "county": "FRESNO",
    "phone": "(559) 251-7161",
    "lat": 36.742545,
    "lng": -119.734632
  },
  {
    "id": "040000063",
    "name": "PACIFIC GARDENS NURSING AND REHABILITATION CENTER",
    "npi": "1528100013",
    "hcaiId": "206100772",
    "businessName": "JUNIPER SPRINGS HEALTHCARE, INC.",
    "contactEmail": "RENEWALS@ENSIGNSERVICES.NET",
    "categoryName": "SKILLED NURSING FACILITY",
    "categoryCode": "SNF",
    "licenseStatus": "ACTIVE",
    "inService": true,
    "licenseNumber": "040000130",
    "licenseEffectiveDate": "08/01/2025",
    "licenseExpirationDate": "02/13/2026",
    "dataDate": "10/18/2025",
    "capacity": 180,
    "address": "577 S PEACH AVE",
    "city": "FRESNO",
    "zip": "93727",
    "county": "FRESNO",
    "phone": "(559) 251-8463",
    "lat": 36.736929,
    "lng": -119.7180945
  },
  {
    "id": "630027626",
    "name": "PREGNANCY CARE CENTER - MOBILE CLINIC",
    "npi": null,
    "hcaiId": null,
    "businessName": "CENTRAL VALLEY CRISIS PREGNANCY CENTER",
    "contactEmail": null,
    "categoryName": "PRIMARY CARE CLINIC",
    "categoryCode": "COMTYC",
    "licenseStatus": "ACTIVE",
    "inService": true,
    "licenseNumber": "550000424",
    "licenseEffectiveDate": "11/06/2025",
    "licenseExpirationDate": "11/05/2026",
    "dataDate": "10/18/2025",
    "capacity": 0,
    "address": "1441 N CLOVIS AVE",
    "city": "FRESNO",
    "zip": "93727",
    "county": "FRESNO",
    "phone": null,
    "lat": 36.76191098,
    "lng": -119.701084
  },
  {
    "id": "630011872",
    "name": "SAINT CLARE HOME",
    "npi": "1669701223",
    "hcaiId": null,
    "businessName": "MERIDIAN HEALTH CARE SERVICES, INC.",
    "contactEmail": "EJAMILI39@GMAIL.COM",
    "categoryName": "INTERMEDIATE CARE FACILITY-DD/H/N/CN/IID",
    "categoryCode": "ICFDDN",
    "licenseStatus": "ACTIVE",
    "inService": true,
    "licenseNumber": "550001033",
    "licenseEffectiveDate": "04/23/2025",
    "licenseExpirationDate": "04/22/2026",
    "dataDate": "10/18/2025",
    "capacity": 6,
    "address": "5294 E HEATON AVE",
    "city": "FRESNO",
    "zip": "93727",
    "county": "FRESNO",
    "phone": "(559) 999-2030",
    "lat": 36.727002,
    "lng": -119.7138555
  },
  {
    "id": "630005961",
    "name": "ST. JOSEPH GARDENS",
    "npi": "1487703302",
    "hcaiId": null,
    "businessName": "MERIDIAN HEALTH CARE SERVICES, INC.",
    "contactEmail": "EJAMILI39@GMAIL.COM",
    "categoryName": "INTERMEDIATE CARE FACILITY-DD/H/N/CN/IID",
    "categoryCode": "ICFDDN",
    "licenseStatus": "ACTIVE",
    "inService": true,
    "licenseNumber": "550000085",
    "licenseEffectiveDate": "11/01/2024",
    "licenseExpirationDate": "10/31/2025",
    "dataDate": "10/18/2025",
    "capacity": 6,
    "address": "5180 E BALCH AVE",
    "city": "FRESNO",
    "zip": "93727",
    "county": "FRESNO",
    "phone": "(559) 251-8489",
    "lat": 36.738108,
    "lng": -119.7191745
  },
  {
    "id": "040000064",
    "name": "STONEHAVEN SENIOR LIVING",
    "npi": "1881446946",
    "hcaiId": "206100817",
    "businessName": "WINERY SKILLED CARE LLC",
    "contactEmail": "BENJAMIN.CARTER@JERICHOCARE.COM",
    "categoryName": "SKILLED NURSING FACILITY",
    "categoryCode": "SNF",
    "licenseStatus": "ACTIVE",
    "inService": true,
    "licenseNumber": "040000158",
    "licenseEffectiveDate": "02/01/2025",
    "licenseExpirationDate": "11/30/2025",
    "dataDate": "10/18/2025",
    "capacity": 50,
    "address": "1717 S WINERY AVE",
    "city": "FRESNO",
    "zip": "93727",
    "county": "FRESNO",
    "phone": "(858) 342-4998",
    "lat": 36.725814,
    "lng": -119.734506
  },
  {
    "id": "630015965",
    "name": "SUNNY J CARE HOME LLC",
    "npi": "1386034783",
    "hcaiId": null,
    "businessName": "SUNNY J CARE HOME LLC",
    "contactEmail": "ADMIN@SUNNYJCARE.COM",
    "categoryName": "INTERMEDIATE CARE FACILITY-DD/H/N/CN/IID",
    "categoryCode": "ICFDDN",
    "licenseStatus": "ACTIVE",
    "inService": true,
    "licenseNumber": "550003883",
    "licenseEffectiveDate": "05/22/2025",
    "licenseExpirationDate": "05/21/2026",
    "dataDate": "10/18/2025",
    "capacity": 6,
    "address": "6127 E. TOWNSEND AVE.",
    "city": "FRESNO",
    "zip": "93727",
    "county": "FRESNO",
    "phone": "(559) 385-5430",
    "lat": 36.72837,
    "lng": -119.6796555
  },
  {
    "id": "630020232",
    "name": "THE FRESNO CENTER ADHC",
    "npi": null,
    "hcaiId": null,
    "businessName": "THE FRESNO CENTER",
    "contactEmail": "TENG.VANG@FRESNOCENTER.ORG",
    "categoryName": "ADULT DAY HEALTH CARE",
    "categoryCode": "ADHC",
    "licenseStatus": "ACTIVE",
    "inService": true,
    "licenseNumber": "550006606",
    "licenseEffectiveDate": "10/02/2025",
    "licenseExpirationDate": "08/09/2026",
    "dataDate": "10/18/2025",
    "capacity": 0,
    "address": "4855 E. CESAR CHAVEZ BOULEVARD",
    "city": "FRESNO",
    "zip": "93727",
    "county": "FRESNO",
    "phone": "(559) 255-8395",
    "lat": 36.7368494,
    "lng": -119.7360161
  },
  {
    "id": "630012424",
    "name": "TZU CHI MOBILE CLINIC",
    "npi": null,
    "hcaiId": "306105095",
    "businessName": "BUDDHIST TZU CHI MEDICAL  FOUNDATION",
    "contactEmail": "FRESNOMOBILECLINIC@TZUCHIMEDICAL.US",
    "categoryName": "PRIMARY CARE CLINIC",
    "categoryCode": "FREEC",
    "licenseStatus": "ACTIVE",
    "inService": true,
    "licenseNumber": "550001826",
    "licenseEffectiveDate": "03/22/2025",
    "licenseExpirationDate": "03/21/2026",
    "dataDate": "10/18/2025",
    "capacity": 0,
    "address": "3898 N ANN AVE",
    "city": "FRESNO",
    "zip": "93727",
    "county": "FRESNO",
    "phone": "(559) 259-6362",
    "lat": 36.788526,
    "lng": -119.727468
  },
  {
    "id": "630026297",
    "name": "UNITED HEALTH CENTERS OF THE SAN JOAQUIN VALLEY",
    "npi": null,
    "hcaiId": "306100719",
    "businessName": "UNITED HEALTH CENTERS OF THE SAN JOAQUIN VALLEY",
    "contactEmail": "PREASJ@UNITEDHEALTHCENTERS.ORG",
    "categoryName": "PRIMARY CARE CLINIC",
    "categoryCode": "COMTYC",
    "licenseStatus": "ACTIVE",
    "inService": true,
    "licenseNumber": "550008138",
    "licenseEffectiveDate": "09/01/2025",
    "licenseExpirationDate": "08/31/2026",
    "dataDate": "10/18/2025",
    "capacity": 0,
    "address": "645 S MINNEWAWA AVE",
    "city": "FRESNO",
    "zip": "93727",
    "county": "FRESNO",
    "phone": "(559) 646-7400",
    "lat": 36.7362425,
    "lng": -119.7084868
  },
  {
    "id": "630028091",
    "name": "UNITED HEALTH CENTERS OF THE SAN JOAQUIN VALLEY",
    "npi": "1285464172",
    "hcaiId": null,
    "businessName": "UNITED HEALTH CENTERS OF THE SAN JOAQUIN VALLEY",
    "contactEmail": null,
    "categoryName": "PRIMARY CARE CLINIC",
    "categoryCode": "COMTYC",
    "licenseStatus": "ACTIVE",
    "inService": true,
    "licenseNumber": "550002829",
    "licenseEffectiveDate": "09/30/2025",
    "licenseExpirationDate": "09/29/2026",
    "dataDate": "10/18/2025",
    "capacity": 0,
    "address": "5539 E KINGS CANYON RD",
    "city": "FRESNO",
    "zip": "93727",
    "county": "FRESNO",
    "phone": null,
    "lat": 36.73631676,
    "lng": -119.7031409
  },
  {
    "id": "040001053",
    "name": "VALLEY CHILDREN'S HOME HEALTH",
    "npi": "1275612673",
    "hcaiId": "406104079",
    "businessName": "VALLEY CHILDREN'S HOSPITAL",
    "contactEmail": "GRODRIGUEZ2@VALLEYCHILDRENS.ORG",
    "categoryName": "HOME HEALTH AGENCY",
    "categoryCode": "HHA",
    "licenseStatus": "ACTIVE",
    "inService": true,
    "licenseNumber": "040000416",
    "licenseEffectiveDate": "01/22/2025",
    "licenseExpirationDate": "01/21/2026",
    "dataDate": "10/18/2025",
    "capacity": 0,
    "address": "5085 E MCKINLEY AVE",
    "city": "FRESNO",
    "zip": "93727",
    "county": "FRESNO",
    "phone": "(559) 353-7125",
    "lat": 36.765675,
    "lng": -119.7243315
  }
]