[
  {
    "id": "630019238",
    "name": "ADDAMS ELEMENTARY HEALTH AND WELLNESS CENTER",
    "npi": null,
    "hcaiId": null,
    "businessName": "CLINICA SIERRA VISTA",
    "contactEmail": null,
    "categoryName": "PRIMARY CARE CLINIC",
    "categoryCode": "COMTYC",
    "licenseStatus": "ACTIVE",
    "inService": true,
    "licenseNumber": "040000244",
    "licenseEffectiveDate": "11/15/2025",
    "licenseExpirationDate": "11/14/2026",
    "dataDate": "10/18/2025",
    "capacity": 0,
    "address": "1510 N LAFAYETTE AVE",
    "city": "FRESNO",
    "zip": "93728",
    "county": "FRESNO",
    "phone": "(559) 457-6860",
    "lat": 36.763245,
    "lng": -119.837511
  },
  {
    "id": "630026452",
    "name": "BLACKSTONE COMMUNITY HEALTH CENTER",
    "npi": null,
    "hcaiId": "306100760",
    "businessName": "CLINICA SIERRA VISTA",
    "contactEmail": "CLAUDIA.CHAVEZ@CLINICASIERRAVISTA.ORG",
    "categoryName": "PRIMARY CARE CLINIC",
    "categoryCode": "COMTYC",
    "licenseStatus": "ACTIVE",
    "inService": true,
    "licenseNumber": "550008373",
    "licenseEffectiveDate": "02/09/2025",
    "licenseExpirationDate": "02/08/2026",
    "dataDate": "10/18/2025",
    "capacity": 0,
    "address": "1685 E HOME AVE",
    "city": "FRESNO",
    "zip": "93728",
    "county": "FRESNO",
    "phone": "(559) 457-5843",
    "lat": 36.76326549,
    "lng": -119.7909399
  },
  {
    "id": "040000200",
    "name": "PLANNED PARENTHOOD MAR MONTE - FULTON HEALTH CENTER",
    "npi": null,
    "hcaiId": "306100777",
    "businessName": "PLANNED PARENTHOOD MAR MONTE, INC.",
    "contactEmail": "SERVICESAD@PPMARMONTE.ORG",
    "categoryName": "PRIMARY CARE CLINIC",
    "categoryCode": "COMTYC",
    "licenseStatus": "ACTIVE",
    "inService": true,
    "licenseNumber": "040000135",
    "licenseEffectiveDate": "11/01/2025",
    "licenseExpirationDate": "10/31/2026",
    "dataDate": "10/18/2025",
    "capacity": 0,
    "address": "650 N FULTON ST",
    "city": "FRESNO",
    "zip": "93728",
    "county": "FRESNO",
    "phone": "(408) 795-3695",
    "lat": 36.752193,
    "lng": -119.799945
  },
  {
    "id": "630009264",
    "name": "PREGNANCY CARE CENTER",
    "npi": null,
    "hcaiId": "306100414",
    "businessName": "CENTRAL VALLEY CRISIS PREGNANCY CENTER",
    "contactEmail": "KRISTI@PREGNANCYCARECENTER.COM",
    "categoryName": "PRIMARY CARE CLINIC",
    "categoryCode": "COMTYC",
    "licenseStatus": "ACTIVE",
    "inService": true,
    "licenseNumber": "550000424",
    "licenseEffectiveDate": "11/06/2025",
    "licenseExpirationDate": "11/05/2026",
    "dataDate": "10/18/2025",
    "capacity": 0,
    "address": "1127 E OLIVE AVE, SUITE 105",
    "city": "FRESNO",
    "zip": "93728",
    "county": "FRESNO",
    "phone": "(559) 237-0683",
    "lat": 36.757989,
    "lng": -119.7974385
  }
]