[
  {
    "id": "040001106",
    "name": "ALLEN-COX FAMILY HOME IV",
    "npi": "1467667998",
    "hcaiId": null,
    "businessName": "ALLEN-COX FAMILY HOMES",
    "contactEmail": "LAURAPHARRISRN@YAHOO.COM",
    "categoryName": "INTERMEDIATE CARE FACILITY-DD/H/N/CN/IID",
    "categoryCode": "ICFDDN",
    "licenseStatus": "ACTIVE",
    "inService": true,
    "licenseNumber": "040000432",
    "licenseEffectiveDate": "11/01/2025",
    "licenseExpirationDate": "10/31/2026",
    "dataDate": "10/18/2025",
    "capacity": 6,
    "address": "3831 N BRIX AVE",
    "city": "FRESNO",
    "zip": "93722",
    "county": "FRESNO",
    "phone": "(559) 905-6583",
    "lat": 36.791568,
    "lng": -119.8815345
  },
  {
    "id": "040001378",
    "name": "ALLEN-FLORER FAMILY HOME - WHEELER",
    "npi": "1922237098",
    "hcaiId": null,
    "businessName": "ALLEN-FLORER FAMILY HOMES, INC.",
    "contactEmail": "ANGLER67@GMAIL.COM",
    "categoryName": "INTERMEDIATE CARE FACILITY-DD/H/N/CN/IID",
    "categoryCode": "ICFDDN",
    "licenseStatus": "ACTIVE",
    "inService": true,
    "licenseNumber": "040000543",
    "licenseEffectiveDate": "04/25/2025",
    "licenseExpirationDate": "04/24/2026",
    "dataDate": "10/18/2025",
    "capacity": 6,
    "address": "5704 N WHEELER AVE",
    "city": "FRESNO",
    "zip": "93722",
    "county": "FRESNO",
    "phone": "(559) 433-8976",
    "lat": 36.820512,
    "lng": -119.889459
  },
  {
    "id": "040000856",
    "name": "BUCKINGHAM HOME",
    "npi": "1558062224",
    "hcaiId": null,
    "businessName": "SAPPHIRE CARE SERVICES & MARKETING",
    "contactEmail": "ARLENESERVICES@YAHOO.COM",
    "categoryName": "INTERMEDIATE CARE FACILITY-DD/H/N/CN/IID",
    "categoryCode": "ICFDDN",
    "licenseStatus": "ACTIVE",
    "inService": true,
    "licenseNumber": "040000352",
    "licenseEffectiveDate": "11/26/2024",
    "licenseExpirationDate": "11/25/2025",
    "dataDate": "10/18/2025",
    "capacity": 6,
    "address": "4644 N BARCUS AVE",
    "city": "FRESNO",
    "zip": "93722",
    "county": "FRESNO",
    "phone": "(559) 515-6823",
    "lat": 36.802737,
    "lng": -119.885157
  },
  {
    "id": "630017397",
    "name": "CENTRAL FRESNO COMMUNITY HEALTH CENTER",
    "npi": null,
    "hcaiId": "306100674",
    "businessName": "VALLEY HEALTH TEAM, INC.",
    "contactEmail": "SGRIFFIN@VHT.ORG",
    "categoryName": "PRIMARY CARE CLINIC",
    "categoryCode": "COMTYC",
    "licenseStatus": "ACTIVE",
    "inService": true,
    "licenseNumber": "550003996",
    "licenseEffectiveDate": "11/13/2025",
    "licenseExpirationDate": "11/12/2026",
    "dataDate": "10/18/2025",
    "capacity": 0,
    "address": "4711 W ASHLAN AVE",
    "city": "FRESNO",
    "zip": "93722",
    "county": "FRESNO",
    "phone": "(559) 203-6660",
    "lat": 36.793116,
    "lng": -119.878326
  },
  {
    "id": "040000833",
    "name": "CLAREMY HOUSE",
    "npi": "1942527023",
    "hcaiId": null,
    "businessName": "HARMONY HOMES, INC.",
    "contactEmail": "JWINANS@HARMONYHOMESINC.ORG",
    "categoryName": "INTERMEDIATE CARE FACILITY-DD/H/N/CN/IID",
    "categoryCode": "ICFDDN",
    "licenseStatus": "ACTIVE",
    "inService": true,
    "licenseNumber": "040000343",
    "licenseEffectiveDate": "11/10/2024",
    "licenseExpirationDate": "11/09/2025",
    "dataDate": "10/18/2025",
    "capacity": 6,
    "address": "5288 W RAMONA AVE",
    "city": "FRESNO",
    "zip": "93722",
    "county": "FRESNO",
    "phone": "(559) 275-7715",
    "lat": 36.786006,
    "lng": -119.8855665
  },
  {
    "id": "240001788",
    "name": "FRESNO DIALYSIS",
    "npi": "1851365852",
    "hcaiId": "306100490",
    "businessName": "DVA HEALTHCARE RENAL CARE, INC.",
    "contactEmail": "CAL_C@DAVITA.COM",
    "categoryName": "CHRONIC DIALYSIS CLINIC",
    "categoryCode": "ESRD/CDC",
    "licenseStatus": "ACTIVE",
    "inService": true,
    "licenseNumber": "240000782",
    "licenseEffectiveDate": "11/20/2024",
    "licenseExpirationDate": "11/19/2025",
    "dataDate": "10/18/2025",
    "capacity": 40,
    "address": "4308 W SHAW AVE, SUITE 101",
    "city": "FRESNO",
    "zip": "93722",
    "county": "FRESNO",
    "phone": "(559) 276-4231",
    "lat": 36.809307,
    "lng": -119.8693665
  },
  {
    "id": "630024249",
    "name": "FRESNO METRO DIALYSIS",
    "npi": null,
    "hcaiId": "306100692",
    "businessName": "EAVERS DIALYSIS, LLC",
    "contactEmail": "CAL_C@DAVITA.COM",
    "categoryName": "CHRONIC DIALYSIS CLINIC",
    "categoryCode": "ESRD/CDC",
    "licenseStatus": "ACTIVE",
    "inService": true,
    "licenseNumber": "550007803",
    "licenseEffectiveDate": "01/26/2025",
    "licenseExpirationDate": "01/25/2026",
    "dataDate": "10/18/2025",
    "capacity": 32,
    "address": "4679 W SPRUCE AVE, SUITE 101",
    "city": "FRESNO",
    "zip": "93722",
    "county": "FRESNO",
    "phone": "(559) 899-2360",
    "lat": 36.83968647,
    "lng": -119.8769893
  },
  {
    "id": "630015956",
    "name": "FRESNO NORTH HOME TRAINING",
    "npi": "1497157820",
    "hcaiId": null,
    "businessName": null,
    "contactEmail": "CYNTHIA.HUTCHINSON@DAVITA.COM",
    "categoryName": "CHRONIC DIALYSIS CLINIC",
    "categoryCode": "ESRD",
    "licenseStatus": null,
    "inService": null,
    "licenseNumber": null,
    "licenseEffectiveDate": null,
    "licenseExpirationDate": null,
    "dataDate": "10/18/2025",
    "capacity": 0,
    "address": "6655 N. MILBURN AVE.",
    "city": "FRESNO",
    "zip": "93722",
    "county": "FRESNO",
    "phone": "(615) 341-5895",
    "lat": 36.834372,
    "lng": -119.880162
  },
  {
    "id": "630005941",
    "name": "GOETHE HOUSE",
    "npi": "1083081954",
    "hcaiId": null,
    "businessName": "HARMONY HOMES, INC.",
    "contactEmail": "ARIVAS@HARMONYHOMESINC.ORG",
    "categoryName": "INTERMEDIATE CARE FACILITY-DD/H/N/CN/IID",
    "categoryCode": "ICFDDN",
    "licenseStatus": "ACTIVE",
    "inService": true,
    "licenseNumber": "550000259",
    "licenseEffectiveDate": "09/29/2025",
    "licenseExpirationDate": "09/28/2026",
    "dataDate": "10/18/2025",
    "capacity": 6,
    "address": "5409 W ROBINSON AVE",
    "city": "FRESNO",
    "zip": "93722",
    "county": "FRESNO",
    "phone": "(559) 449-1605",
    "lat": 36.78489,
    "lng": -119.887659
  },
  {
    "id": "630026813",
    "name": "K & M HOME HEALTH SERVICES INC",
    "npi": null,
    "hcaiId": null,
    "businessName": "K & M HOME HEALTH SERVICES INC",
    "contactEmail": "KMHOMEHEALTH@YAHOO.COM",
    "categoryName": "HOME HEALTH AGENCY",
    "categoryCode": "HHA",
    "licenseStatus": "ACTIVE",
    "inService": true,
    "licenseNumber": "550009284",
    "licenseEffectiveDate": "07/31/2025",
    "licenseExpirationDate": "07/30/2026",
    "dataDate": "10/18/2025",
    "capacity": 0,
    "address": "4721 W JENNIFER AVE, SUITE 23",
    "city": "FRESNO",
    "zip": "93722",
    "county": "FRESNO",
    "phone": "(559) 512-2454",
    "lat": 36.811395,
    "lng": -119.8787895
  },
  {
    "id": "630014922",
    "name": "NORTH MARKS MEDICAL CLINIC",
    "npi": "1184049793",
    "hcaiId": "306105106",
    "businessName": "GREATER FRESNO HEALTH ORGANIZATION, INC.",
    "contactEmail": "BMOUANOUTOUA@GFHO.ORG",
    "categoryName": "PRIMARY CARE CLINIC",
    "categoryCode": "COMTYC",
    "licenseStatus": "ACTIVE",
    "inService": true,
    "licenseNumber": "550002654",
    "licenseEffectiveDate": "05/01/2025",
    "licenseExpirationDate": "04/30/2026",
    "dataDate": "10/18/2025",
    "capacity": 0,
    "address": "4011 N MARKS AVE",
    "city": "FRESNO",
    "zip": "93722",
    "county": "FRESNO",
    "phone": "(559) 860-4904",
    "lat": 36.794673,
    "lng": -119.844513
  },
  {
    "id": "630016811",
    "name": "SENIOR MED CARE LIVING, INC.",
    "npi": null,
    "hcaiId": "206100988",
    "businessName": "SENIOR MED CARE LIVING, INC.",
    "contactEmail": "SENIORMEDCARECLHF@GMAIL.COM",
    "categoryName": "CONGREGATE LIVING HEALTH FACILITY",
    "categoryCode": "CLHF",
    "licenseStatus": "ACTIVE",
    "inService": true,
    "licenseNumber": "550004036",
    "licenseEffectiveDate": "11/03/2024",
    "licenseExpirationDate": "11/02/2025",
    "dataDate": "10/18/2025",
    "capacity": 6,
    "address": "2275 N SARATOGA AVE",
    "city": "FRESNO",
    "zip": "93722",
    "county": "FRESNO",
    "phone": "(818) 334-0568",
    "lat": 36.769464,
    "lng": -119.864268
  },
  {
    "id": "630020048",
    "name": "UNITED HEALTH CENTERS OF THE SAN JOAQUIN VALLEY",
    "npi": null,
    "hcaiId": "306100653",
    "businessName": "UNITED HEALTH CENTERS OF THE SAN JOAQUIN VALLEY",
    "contactEmail": "CORPORATE@UNITEDHEALTHCENTERS.ORG",
    "categoryName": "PRIMARY CARE CLINIC",
    "categoryCode": "COMTYC",
    "licenseStatus": "ACTIVE",
    "inService": true,
    "licenseNumber": "550005757",
    "licenseEffectiveDate": "09/29/2025",
    "licenseExpirationDate": "09/28/2026",
    "dataDate": "10/18/2025",
    "capacity": 0,
    "address": "6810 N MILBURN AVE",
    "city": "FRESNO",
    "zip": "93722",
    "county": "FRESNO",
    "phone": "(559) 646-6618",
    "lat": 36.836586,
    "lng": -119.8770975
  }
]