[
  {
    "id": "630028219",
    "name": "ALTARA HOSPICE",
    "npi": null,
    "hcaiId": null,
    "businessName": "ALTARA HOSPICE",
    "contactEmail": "ALTARAHOSPICE@GMAIL.COM",
    "categoryName": "HOSPICE",
    "categoryCode": "HOSPICE",
    "licenseStatus": "ACTIVE",
    "inService": true,
    "licenseNumber": "550009981",
    "licenseEffectiveDate": "10/08/2025",
    "licenseExpirationDate": "10/07/2027",
    "dataDate": "10/18/2025",
    "capacity": 0,
    "address": "3060 MARIPOSA ST, SUITE 109",
    "city": "FRESNO",
    "zip": "93721",
    "county": "FRESNO",
    "phone": "(559) 840-8400",
    "lat": 36.74269936,
    "lng": -119.7801161
  },
  {
    "id": "630028517",
    "name": "BURNETT EXTENDED CARE CENTER",
    "npi": null,
    "hcaiId": null,
    "businessName": "FRESNO COMMUNITY HOSPITAL AND MEDICAL CENTER",
    "contactEmail": null,
    "categoryName": "SKILLED NURSING FACILITY",
    "categoryCode": "SNF",
    "licenseStatus": "ACTIVE",
    "inService": true,
    "licenseNumber": "040000096",
    "licenseEffectiveDate": "11/07/2025",
    "licenseExpirationDate": "11/06/2026",
    "dataDate": "10/18/2025",
    "capacity": 154,
    "address": "2715 FRESNO ST",
    "city": "FRESNO",
    "zip": "93721",
    "county": "FRESNO",
    "phone": null,
    "lat": 36.741618,
    "lng": -119.785347
  },
  {
    "id": "630025711",
    "name": "CENTRAL VALLEY HOME HEALTH CARE INC",
    "npi": null,
    "hcaiId": "406100020",
    "businessName": "CENTRAL VALLEY HOME HEALTH CARE INC",
    "contactEmail": "CENTRALVALLEYHOMEH@GMAIL.COM",
    "categoryName": "HOME HEALTH AGENCY",
    "categoryCode": "HHA",
    "licenseStatus": "ACTIVE",
    "inService": true,
    "licenseNumber": "550008829",
    "licenseEffectiveDate": "11/27/2025",
    "licenseExpirationDate": "11/26/2026",
    "dataDate": "10/18/2025",
    "capacity": 0,
    "address": "1221 VAN NESS AVE, SUITE 403",
    "city": "FRESNO",
    "zip": "93721",
    "county": "FRESNO",
    "phone": "(559) 917-1436",
    "lat": 36.73674,
    "lng": -119.79171
  },
  {
    "id": "630014840",
    "name": "CENTRAL VALLEY MEDICAL SERVICES CORPORATION",
    "npi": null,
    "hcaiId": "306105113",
    "businessName": "CENTRAL VALLEY MEDICAL SERVICES CORPORATION",
    "contactEmail": "AMAROUF@FRESNOPACE.ORG",
    "categoryName": "PRIMARY CARE CLINIC",
    "categoryCode": "COMTYC",
    "licenseStatus": "ACTIVE",
    "inService": true,
    "licenseNumber": "550002646",
    "licenseEffectiveDate": "04/29/2025",
    "licenseExpirationDate": "04/28/2026",
    "dataDate": "10/18/2025",
    "capacity": 0,
    "address": "851 VAN NESS AVE",
    "city": "FRESNO",
    "zip": "93721",
    "county": "FRESNO",
    "phone": "(949) 228-5577",
    "lat": 36.733338,
    "lng": -119.788038
  },
  {
    "id": "040001359",
    "name": "COMMUNITY DIALYSIS CENTER - FRESNO",
    "npi": "1821179656",
    "hcaiId": null,
    "businessName": "FRESNO COMMUNITY HOSPITAL AND MEDICAL CENTER",
    "contactEmail": null,
    "categoryName": "CHRONIC DIALYSIS CLINIC",
    "categoryCode": "ESRD",
    "licenseStatus": "ACTIVE",
    "inService": true,
    "licenseNumber": "040000096",
    "licenseEffectiveDate": "11/07/2025",
    "licenseExpirationDate": "11/06/2026",
    "dataDate": "10/18/2025",
    "capacity": 0,
    "address": "215 N FRESNO ST, SUITE 150",
    "city": "FRESNO",
    "zip": "93721",
    "county": "FRESNO",
    "phone": "(559) 459-2579",
    "lat": 36.745254,
    "lng": -119.782368
  },
  {
    "id": "040000101",
    "name": "COMMUNITY REGIONAL MEDICAL CENTER",
    "npi": "1104906569",
    "hcaiId": "106100717",
    "businessName": "FRESNO COMMUNITY HOSPITAL AND MEDICAL CENTER",
    "contactEmail": "KGILMORE@COMMUNITYMEDICAL.ORG",
    "categoryName": "GENERAL ACUTE CARE HOSPITAL",
    "categoryCode": "GACH",
    "licenseStatus": "ACTIVE",
    "inService": true,
    "licenseNumber": "040000096",
    "licenseEffectiveDate": "11/07/2025",
    "licenseExpirationDate": "11/06/2026",
    "dataDate": "10/18/2025",
    "capacity": 685,
    "address": "2823 FRESNO ST",
    "city": "FRESNO",
    "zip": "93721",
    "county": "FRESNO",
    "phone": "(559) 459-3138",
    "lat": 36.74313,
    "lng": -119.783502
  },
  {
    "id": "630017658",
    "name": "FRESNO COMMUNITY BASED ADULT SERVICES CENTER",
    "npi": null,
    "hcaiId": null,
    "businessName": "FRESNO COMMUNITY BASED ADULT SERVICES CENTER, LLC",
    "contactEmail": "SHAGINIANSUREN@GMAIL.COM",
    "categoryName": "ADULT DAY HEALTH CARE",
    "categoryCode": "ADHC",
    "licenseStatus": "ACTIVE",
    "inService": true,
    "licenseNumber": "550005031",
    "licenseEffectiveDate": "10/12/2025",
    "licenseExpirationDate": "10/11/2026",
    "dataDate": "10/18/2025",
    "capacity": 0,
    "address": "1060 FULTON MALL",
    "city": "FRESNO",
    "zip": "93721",
    "county": "FRESNO",
    "phone": "(559) 512-2227",
    "lat": 36.734536,
    "lng": -119.790746
  },
  {
    "id": "040000195",
    "name": "FRESNO COUNTY E.O.C. HEALTH CLINIC",
    "npi": null,
    "hcaiId": "306100716",
    "businessName": "FRESNO COUNTY ECONOMIC OPPORTUNITIES COMMISSION",
    "contactEmail": "JANE.THOMAS@FRESNOEOC.ORG",
    "categoryName": "PRIMARY CARE CLINIC",
    "categoryCode": "COMTYC",
    "licenseStatus": "ACTIVE",
    "inService": true,
    "licenseNumber": "040000095",
    "licenseEffectiveDate": "06/01/2025",
    "licenseExpirationDate": "05/31/2026",
    "dataDate": "10/18/2025",
    "capacity": 0,
    "address": "1047 R ST",
    "city": "FRESNO",
    "zip": "93721",
    "county": "FRESNO",
    "phone": "(559) 263-1010",
    "lat": 36.740196,
    "lng": -119.782818
  },
  {
    "id": "630010912",
    "name": "FRESNO DENTAL SURGERY CENTER, A VALLARINE DENTAL PRACTICE",
    "npi": "1982709572",
    "hcaiId": "306105047",
    "businessName": "VALLARINE DENTAL CORPORATION",
    "contactEmail": "CHELSEA@VALLEY-DENTAL.COM",
    "categoryName": "SURGICAL CLINIC",
    "categoryCode": "ASC/SURGC",
    "licenseStatus": "ACTIVE",
    "inService": true,
    "licenseNumber": "550000219",
    "licenseEffectiveDate": "11/01/2025",
    "licenseExpirationDate": "10/31/2026",
    "dataDate": "10/18/2025",
    "capacity": 0,
    "address": "2828 FRESNO ST, SUITE 100",
    "city": "FRESNO",
    "zip": "93721",
    "county": "FRESNO",
    "phone": "(559) 263-9648",
    "lat": 36.741672,
    "lng": -119.783502
  },
  {
    "id": "630025715",
    "name": "GOLDEN LEAF HOME HEALTH INC",
    "npi": null,
    "hcaiId": "406100022",
    "businessName": "GOLDEN LEAF HOME HEALTH INC",
    "contactEmail": "GOLDENLEAFHOMEHEALTH@GMAIL.COM",
    "categoryName": "HOME HEALTH AGENCY",
    "categoryCode": "HHA",
    "licenseStatus": "ACTIVE",
    "inService": true,
    "licenseNumber": "550008830",
    "licenseEffectiveDate": "11/27/2024",
    "licenseExpirationDate": "11/26/2025",
    "dataDate": "10/18/2025",
    "capacity": 0,
    "address": "1221 VAN NESS AVE, SUITE 405",
    "city": "FRESNO",
    "zip": "93721",
    "county": "FRESNO",
    "phone": "(559) 917-1436",
    "lat": 36.73674,
    "lng": -119.79171
  },
  {
    "id": "630018067",
    "name": "GRANITE RIDGE HOME HEALTH NURSING CARE, INC.",
    "npi": "1275043770",
    "hcaiId": "406205538",
    "businessName": "GRANITE RIDGE HOME HEALTH NURSING CARE, INC.",
    "contactEmail": "GRANITERIDGEHHC@GMAIL.COM",
    "categoryName": "HOME HEALTH AGENCY",
    "categoryCode": "HHA",
    "licenseStatus": "ACTIVE",
    "inService": true,
    "licenseNumber": "550004692",
    "licenseEffectiveDate": "04/25/2025",
    "licenseExpirationDate": "04/24/2026",
    "dataDate": "10/18/2025",
    "capacity": 0,
    "address": "1060 FULTON ST, SUITE 714",
    "city": "FRESNO",
    "zip": "93721",
    "county": "FRESNO",
    "phone": "(559) 977-3952",
    "lat": 36.73490801,
    "lng": -119.790675
  },
  {
    "id": "040000047",
    "name": "HEALTHCARE CENTRE OF FRESNO",
    "npi": "1104064575",
    "hcaiId": "206101843",
    "businessName": "FRESNO SKILLED NURSING & WELLNESS CENTRE, LLC",
    "contactEmail": "ADMINISTRATOR@HCFRESNO.COM",
    "categoryName": "SKILLED NURSING FACILITY",
    "categoryCode": "SNF",
    "licenseStatus": "ACTIVE",
    "inService": true,
    "licenseNumber": "040000200",
    "licenseEffectiveDate": "06/11/2025",
    "licenseExpirationDate": "06/10/2026",
    "dataDate": "10/18/2025",
    "capacity": 155,
    "address": "1665 M ST",
    "city": "FRESNO",
    "zip": "93721",
    "county": "FRESNO",
    "phone": "(559) 268-5361",
    "lat": 36.742482,
    "lng": -119.7943515
  },
  {
    "id": "630018357",
    "name": "OMNI FAMILY HEALTH",
    "npi": null,
    "hcaiId": null,
    "businessName": "OMNI FAMILY HEALTH",
    "contactEmail": "LICENSING@OMNIFAMILYHEALTH.ORG",
    "categoryName": "PRIMARY CARE CLINIC",
    "categoryCode": "COMTYC",
    "licenseStatus": "ACTIVE",
    "inService": true,
    "licenseNumber": "550008128",
    "licenseEffectiveDate": "08/15/2025",
    "licenseExpirationDate": "08/14/2026",
    "dataDate": "10/18/2025",
    "capacity": 0,
    "address": "2505 MERCED ST",
    "city": "FRESNO",
    "zip": "93721",
    "county": "FRESNO",
    "phone": "(661) 630-7063",
    "lat": 36.740988,
    "lng": -119.7881685
  },
  {
    "id": "040001417",
    "name": "REGIONAL MEDICAL COMMUNITY HEALTH CENTER",
    "npi": null,
    "hcaiId": "306105040",
    "businessName": "CLINICA SIERRA VISTA",
    "contactEmail": "GRECIA.BARRERA@CLINICASIERRAVISTA.ORG",
    "categoryName": "PRIMARY CARE CLINIC",
    "categoryCode": "RHC/COMTYC",
    "licenseStatus": "ACTIVE",
    "inService": true,
    "licenseNumber": "040000557",
    "licenseEffectiveDate": "11/15/2025",
    "licenseExpirationDate": "11/14/2026",
    "dataDate": "10/18/2025",
    "capacity": 0,
    "address": "2505 E DIVISADERO ST",
    "city": "FRESNO",
    "zip": "93721",
    "county": "FRESNO",
    "phone": "(559) 457-5800",
    "lat": 36.743499,
    "lng": -119.7810585
  },
  {
    "id": "630023019",
    "name": "UNITED HEALTH CENTERS OF THE SAN JOAQUIN VALLEY",
    "npi": null,
    "hcaiId": null,
    "businessName": "UNITED HEALTH CENTERS OF THE SAN JOAQUIN VALLEY",
    "contactEmail": "SINGHN@UNITEDHEALTHCENTERS.ORG",
    "categoryName": "PRIMARY CARE CLINIC",
    "categoryCode": "COMTYC",
    "licenseStatus": "ACTIVE",
    "inService": true,
    "licenseNumber": "550002829",
    "licenseEffectiveDate": "09/30/2025",
    "licenseExpirationDate": "09/29/2026",
    "dataDate": "10/18/2025",
    "capacity": 0,
    "address": "2610 TUOLUMNE ST",
    "city": "FRESNO",
    "zip": "93721",
    "county": "FRESNO",
    "phone": "(559) 646-6618",
    "lat": 36.742338,
    "lng": -119.7878625
  },
  {
    "id": "630026876",
    "name": "UNITED HEALTH CENTERS OF THE SAN JOAQUIN VALLEY",
    "npi": null,
    "hcaiId": null,
    "businessName": "UNITED HEALTH CENTERS OF THE SAN JOAQUIN VALLEY",
    "contactEmail": null,
    "categoryName": "PRIMARY CARE CLINIC",
    "categoryCode": "COMTYC",
    "licenseStatus": "ACTIVE",
    "inService": true,
    "licenseNumber": "550002830",
    "licenseEffectiveDate": "09/30/2025",
    "licenseExpirationDate": "09/29/2026",
    "dataDate": "10/18/2025",
    "capacity": 0,
    "address": "1122 S ST",
    "city": "FRESNO",
    "zip": "93721",
    "county": "FRESNO",
    "phone": null,
    "lat": 36.74187,
    "lng": -119.781918
  },
  {
    "id": "630027329",
    "name": "UNITED HEALTH CENTERS OF THE SAN JOAQUIN VALLEY",
    "npi": null,
    "hcaiId": null,
    "businessName": "UNITED HEALTH CENTERS OF THE SAN JOAQUIN VALLEY",
    "contactEmail": null,
    "categoryName": "PRIMARY CARE CLINIC",
    "categoryCode": "COMTYC",
    "licenseStatus": "ACTIVE",
    "inService": true,
    "licenseNumber": "550002829",
    "licenseEffectiveDate": "09/30/2025",
    "licenseExpirationDate": "09/29/2026",
    "dataDate": "10/18/2025",
    "capacity": 0,
    "address": "2630 TUOLUMNE ST",
    "city": "FRESNO",
    "zip": "93721",
    "county": "FRESNO",
    "phone": null,
    "lat": 36.74232302,
    "lng": -119.787205
  }
]