[
  {
    "id": "070001442",
    "name": "ADVANCED MEDICAL SURGERY CENTER",
    "npi": "1841229705",
    "hcaiId": "306274063",
    "businessName": null,
    "contactEmail": "LASTROUD2007@YAHOO.COM",
    "categoryName": "SURGICAL CLINIC",
    "categoryCode": "ASC",
    "licenseStatus": "INACTIVE - CAPEN DECISION",
    "inService": false,
    "licenseNumber": "070000711",
    "licenseEffectiveDate": "11/04/2007",
    "licenseExpirationDate": "11/03/2008",
    "dataDate": "10/18/2025",
    "capacity": 0,
    "address": "1117 LOS PALOS DR",
    "city": "SALINAS",
    "zip": "93901",
    "county": "MONTEREY",
    "phone": "(831) 758-3851",
    "lat": 36.657477,
    "lng": -121.6450395
  },
  {
    "id": "070000995",
    "name": "CENTRAL COAST VNA & HOSPICE, INC.",
    "npi": "1972520468",
    "hcaiId": "406274070",
    "businessName": "CENTRAL COAST VNA & HOSPICE, INC.",
    "contactEmail": "JSJOBLOM@CCVNA.COM",
    "categoryName": "HOSPICE",
    "categoryCode": "HOSPICE",
    "licenseStatus": "ACTIVE",
    "inService": true,
    "licenseNumber": "070000426",
    "licenseEffectiveDate": "01/22/2024",
    "licenseExpirationDate": "01/21/2026",
    "dataDate": "10/18/2025",
    "capacity": 0,
    "address": "45 PLAZA CIR",
    "city": "SALINAS",
    "zip": "93901",
    "county": "MONTEREY",
    "phone": "(831) 372-6668",
    "lat": 36.657504,
    "lng": -121.658256
  },
  {
    "id": "630015851",
    "name": "CENTRAL COAST VNA & HOSPICE, INC.",
    "npi": "1093718884",
    "hcaiId": "406274069",
    "businessName": "CENTRAL COAST VNA & HOSPICE, INC.",
    "contactEmail": "SCBOLES@CCVNA.COM",
    "categoryName": "HOME HEALTH AGENCY",
    "categoryCode": "HHA",
    "licenseStatus": "ACTIVE",
    "inService": true,
    "licenseNumber": "070000067",
    "licenseEffectiveDate": "04/16/2025",
    "licenseExpirationDate": "04/15/2026",
    "dataDate": "10/18/2025",
    "capacity": 0,
    "address": "6 & 10 SAN MIGUEL AVENUE",
    "city": "SALINAS",
    "zip": "93901",
    "county": "MONTEREY",
    "phone": "(831) 375-9537",
    "lat": 36.659277,
    "lng": -121.6582695
  },
  {
    "id": "630026550",
    "name": "CLINICA DE SALUD DEL VALLE DE SALINAS - PLAZA CIRCLE",
    "npi": "1689048241",
    "hcaiId": null,
    "businessName": "CLINICA DE SALUD DEL VALLE DE SALINAS",
    "contactEmail": null,
    "categoryName": "PRIMARY CARE CLINIC",
    "categoryCode": "COMTYC",
    "licenseStatus": "ACTIVE",
    "inService": true,
    "licenseNumber": "550003463",
    "licenseEffectiveDate": "04/06/2025",
    "licenseExpirationDate": "04/05/2026",
    "dataDate": "10/18/2025",
    "capacity": 0,
    "address": "55 PLAZA CIR",
    "city": "SALINAS",
    "zip": "93901",
    "county": "MONTEREY",
    "phone": null,
    "lat": 36.657261,
    "lng": -121.657752
  },
  {
    "id": "630001601",
    "name": "COASTAL KIDS HOME CARE",
    "npi": "1598828436",
    "hcaiId": "406274068",
    "businessName": "COASTAL KIDS HOME CARE",
    "contactEmail": "COASTALKIDSHOMECARE@GMAIL.COM",
    "categoryName": "HOME HEALTH AGENCY",
    "categoryCode": "HHA",
    "licenseStatus": "ACTIVE",
    "inService": true,
    "licenseNumber": "550000046",
    "licenseEffectiveDate": "01/20/2025",
    "licenseExpirationDate": "01/19/2026",
    "dataDate": "10/18/2025",
    "capacity": 0,
    "address": "427 PAJARO ST, #1",
    "city": "SALINAS",
    "zip": "93901",
    "county": "MONTEREY",
    "phone": "(800) 214-5439",
    "lat": 36.671274,
    "lng": -121.651641
  },
  {
    "id": "070001114",
    "name": "CONFIDENCE PREGNANCY CENTER",
    "npi": "1083190409",
    "hcaiId": "306274049",
    "businessName": "CONFIDENCE PREGNANCY CENTER",
    "contactEmail": "CONFIDENCEPC@SBCGLOBAL.NET",
    "categoryName": "PRIMARY CARE CLINIC",
    "categoryCode": "COMTYC",
    "licenseStatus": "ACTIVE",
    "inService": true,
    "licenseNumber": "070000476",
    "licenseEffectiveDate": "06/18/2025",
    "licenseExpirationDate": "06/17/2026",
    "dataDate": "10/18/2025",
    "capacity": 0,
    "address": "780 E ROMIE LN, SUITE C",
    "city": "SALINAS",
    "zip": "93901",
    "county": "MONTEREY",
    "phone": "(831) 757-5500",
    "lat": 36.658386,
    "lng": -121.640355
  },
  {
    "id": "630028236",
    "name": "HOME CONNECT HOSPICE",
    "npi": null,
    "hcaiId": null,
    "businessName": "HOME CONNECT HOSPICE, LLC",
    "contactEmail": "INFO@HOMECONNECTHOSPICE.COM",
    "categoryName": "HOSPICE",
    "categoryCode": "HOSPICE",
    "licenseStatus": "ACTIVE",
    "inService": true,
    "licenseNumber": "550006316",
    "licenseEffectiveDate": "04/17/2025",
    "licenseExpirationDate": "09/07/2026",
    "dataDate": "10/18/2025",
    "capacity": 0,
    "address": "306 CAPITOL ST, SUITE 203",
    "city": "SALINAS",
    "zip": "93901",
    "county": "MONTEREY",
    "phone": "(831) 737-3133",
    "lat": 36.67275872,
    "lng": -121.6603103
  },
  {
    "id": "070000066",
    "name": "KATHERINE HEALTHCARE",
    "npi": "1114649589",
    "hcaiId": "206270807",
    "businessName": "KATHERINE HEALTHCARE LLC",
    "contactEmail": "VICTORIA.PATO@KATHERINEHC.COM",
    "categoryName": "SKILLED NURSING FACILITY",
    "categoryCode": "SNF",
    "licenseStatus": "ACTIVE",
    "inService": true,
    "licenseNumber": "070000058",
    "licenseEffectiveDate": "02/14/2025",
    "licenseExpirationDate": "02/13/2026",
    "dataDate": "10/18/2025",
    "capacity": 51,
    "address": "315 ALAMEDA AVE",
    "city": "SALINAS",
    "zip": "93901",
    "county": "MONTEREY",
    "phone": "(831) 424-1878",
    "lat": 36.662076,
    "lng": -121.6477935
  },
  {
    "id": "630012618",
    "name": "LA CASA ADULT DAY HEALTH CENTER, INC.",
    "npi": null,
    "hcaiId": null,
    "businessName": "LA CASA ADULT DAY HEALTH CENTER, INC.",
    "contactEmail": "MARIA@LACASACENTER.COM",
    "categoryName": "ADULT DAY HEALTH CARE",
    "categoryCode": "ADHC",
    "licenseStatus": "ACTIVE",
    "inService": true,
    "licenseNumber": "550001526",
    "licenseEffectiveDate": "09/04/2025",
    "licenseExpirationDate": "09/03/2026",
    "dataDate": "10/18/2025",
    "capacity": 0,
    "address": "909 BLANCO CIR, SUITE B",
    "city": "SALINAS",
    "zip": "93901",
    "county": "MONTEREY",
    "phone": "(831) 998-8130",
    "lat": 36.653796,
    "lng": -121.638798
  },
  {
    "id": "630025247",
    "name": "MONTEREY BAY ENDOSCOPY CENTER, LLC",
    "npi": null,
    "hcaiId": null,
    "businessName": null,
    "contactEmail": "DLUBA@MONTEREYGI.COM",
    "categoryName": "SURGICAL CLINIC",
    "categoryCode": "ASC",
    "licenseStatus": null,
    "inService": null,
    "licenseNumber": null,
    "licenseEffectiveDate": null,
    "licenseExpirationDate": null,
    "dataDate": "10/18/2025",
    "capacity": 0,
    "address": "212 SAN JOSE ST, SUITE 100",
    "city": "SALINAS",
    "zip": "93901",
    "county": "MONTEREY",
    "phone": "(831) 375-3577",
    "lat": 36.65808,
    "lng": -121.6477665
  },
  {
    "id": "070000035",
    "name": "PACIFIC COAST POST ACUTE",
    "npi": "1801319363",
    "hcaiId": "206271712",
    "businessName": "SALINASIDENCE OPCO, LLC",
    "contactEmail": "AMMON.RASMUSSEN@PACIFICCOASTPA.COM",
    "categoryName": "SKILLED NURSING FACILITY",
    "categoryCode": "SNF",
    "licenseStatus": "ACTIVE",
    "inService": true,
    "licenseNumber": "070000130",
    "licenseEffectiveDate": "04/09/2025",
    "licenseExpirationDate": "04/08/2026",
    "dataDate": "10/18/2025",
    "capacity": 149,
    "address": "720 E ROMIE LN",
    "city": "SALINAS",
    "zip": "93901",
    "county": "MONTEREY",
    "phone": "(831) 424-8072",
    "lat": 36.658548,
    "lng": -121.6424565
  },
  {
    "id": "070000185",
    "name": "PLANNED PARENTHOOD MAR MONTE - SALINAS HEALTH CENTER",
    "npi": null,
    "hcaiId": "306271860",
    "businessName": "PLANNED PARENTHOOD MAR MONTE, INC.",
    "contactEmail": "SERVICESAD@PPMARMONTE.ORG",
    "categoryName": "PRIMARY CARE CLINIC",
    "categoryCode": "COMTYC",
    "licenseStatus": "ACTIVE",
    "inService": true,
    "licenseNumber": "070000169",
    "licenseEffectiveDate": "11/01/2025",
    "licenseExpirationDate": "10/31/2026",
    "dataDate": "10/18/2025",
    "capacity": 0,
    "address": "316 N MAIN ST",
    "city": "SALINAS",
    "zip": "93901",
    "county": "MONTEREY",
    "phone": "(408) 795-3695",
    "lat": 36.682614,
    "lng": -121.6528425
  },
  {
    "id": "070000825",
    "name": "SALINAS SURGERY CENTER",
    "npi": "1275892481",
    "hcaiId": "306274026",
    "businessName": null,
    "contactEmail": "CGALLAGHER@SALINASSURGERY.COM",
    "categoryName": "SURGICAL CLINIC",
    "categoryCode": "ASC",
    "licenseStatus": "INACTIVE - CAPEN DECISION",
    "inService": false,
    "licenseNumber": "070000345",
    "licenseEffectiveDate": "06/01/2007",
    "licenseExpirationDate": "05/31/2008",
    "dataDate": "10/18/2025",
    "capacity": 0,
    "address": "955 BLANCO CIR, SUITE A",
    "city": "SALINAS",
    "zip": "93901",
    "county": "MONTEREY",
    "phone": "(831) 753-5800",
    "lat": 36.655929,
    "lng": -121.6375515
  },
  {
    "id": "140001256",
    "name": "SALINAS VALLEY DIALYSIS CENTER",
    "npi": "1336102433",
    "hcaiId": "306271888",
    "businessName": "TOTAL RENAL CARE, INC.",
    "contactEmail": "CAL_C@DAVITA.COM",
    "categoryName": "CHRONIC DIALYSIS CLINIC",
    "categoryCode": "ESRD/CDC",
    "licenseStatus": "ACTIVE",
    "inService": true,
    "licenseNumber": "140000640",
    "licenseEffectiveDate": "06/08/2025",
    "licenseExpirationDate": "06/07/2026",
    "dataDate": "10/18/2025",
    "capacity": 34,
    "address": "955 BLANCO CIR, SUITE C",
    "city": "SALINAS",
    "zip": "93901",
    "county": "MONTEREY",
    "phone": "(831) 758-6222",
    "lat": 36.655929,
    "lng": -121.6375515
  },
  {
    "id": "070000147",
    "name": "SALINAS VALLEY HEALTH MEDICAL CENTER",
    "npi": "1750384079",
    "hcaiId": "106270875",
    "businessName": "SALINAS VALLEY MEMORIAL HEALTH CARE SYSTEM",
    "contactEmail": "BINMAN@SALINASVALLEYHEALTH.COM",
    "categoryName": "GENERAL ACUTE CARE HOSPITAL",
    "categoryCode": "GACH",
    "licenseStatus": "ACTIVE",
    "inService": true,
    "licenseNumber": "070000083",
    "licenseEffectiveDate": "12/01/2025",
    "licenseExpirationDate": "11/30/2026",
    "dataDate": "10/18/2025",
    "capacity": 263,
    "address": "450 E ROMIE LN",
    "city": "SALINAS",
    "zip": "93901",
    "county": "MONTEREY",
    "phone": "(831) 257-4783",
    "lat": 36.659097,
    "lng": -121.6462995
  },
  {
    "id": "070000084",
    "name": "SALINAS VALLEY POST ACUTE",
    "npi": "1568178267",
    "hcaiId": "206270871",
    "businessName": "SALINAS COMMUNITY HEALTHCARE, LLC",
    "contactEmail": "REGULATORY@PACS.COM",
    "categoryName": "SKILLED NURSING FACILITY",
    "categoryCode": "SNF",
    "licenseStatus": "ACTIVE",
    "inService": true,
    "licenseNumber": "070000081",
    "licenseEffectiveDate": "06/26/2025",
    "licenseExpirationDate": "06/25/2026",
    "dataDate": "10/18/2025",
    "capacity": 99,
    "address": "637 E ROMIE LN",
    "city": "SALINAS",
    "zip": "93901",
    "county": "MONTEREY",
    "phone": "(831) 424-0687",
    "lat": 36.659844,
    "lng": -121.643091
  }
]