[
  {
    "id": "630015597",
    "name": "BIENESTAR",
    "npi": null,
    "hcaiId": null,
    "businessName": null,
    "contactEmail": null,
    "categoryName": "PRIMARY CARE CLINIC",
    "categoryCode": "FQHC",
    "licenseStatus": null,
    "inService": null,
    "licenseNumber": null,
    "licenseEffectiveDate": null,
    "licenseExpirationDate": null,
    "dataDate": "10/18/2025",
    "capacity": 0,
    "address": "1441 CONSTITUTION BLVD., BLDG. 400, SUITE 201",
    "city": "SALINAS",
    "zip": "93906",
    "county": "MONTEREY",
    "phone": null,
    "lat": 36.697248,
    "lng": -121.6340235
  },
  {
    "id": "630011184",
    "name": "CLINICA DE SALUD DEL VALLE DE SALINAS-ALVIN",
    "npi": "1508994930",
    "hcaiId": "306274074",
    "businessName": "CLINICA DE SALUD DEL VALLE DE SALINAS",
    "contactEmail": "QA@CSVS.ORG",
    "categoryName": "PRIMARY CARE CLINIC",
    "categoryCode": "COMTYC",
    "licenseStatus": "ACTIVE",
    "inService": true,
    "licenseNumber": "550000618",
    "licenseEffectiveDate": "05/15/2025",
    "licenseExpirationDate": "05/14/2026",
    "dataDate": "10/18/2025",
    "capacity": 0,
    "address": "620 E ALVIN DR, SUITE G",
    "city": "SALINAS",
    "zip": "93906",
    "county": "MONTEREY",
    "phone": "(831) 757-8689",
    "lat": 36.703449,
    "lng": -121.6323
  },
  {
    "id": "630020005",
    "name": "COUNTY OF MONTEREY",
    "npi": null,
    "hcaiId": null,
    "businessName": null,
    "contactEmail": null,
    "categoryName": "PRIMARY CARE CLINIC",
    "categoryCode": "FQHC",
    "licenseStatus": null,
    "inService": null,
    "licenseNumber": null,
    "licenseEffectiveDate": null,
    "licenseExpirationDate": null,
    "dataDate": "10/18/2025",
    "capacity": 0,
    "address": "1441 CONSTITUTION BLVD, BUILDING 760",
    "city": "SALINAS",
    "zip": "93906",
    "county": "MONTEREY",
    "phone": "(831) 796-1393",
    "lat": 36.697248,
    "lng": -121.6340235
  },
  {
    "id": "630016440",
    "name": "CSVS NORTH MAIN",
    "npi": "1962876417",
    "hcaiId": "306274093",
    "businessName": "CLINICA DE SALUD DEL VALLE DE SALINAS",
    "contactEmail": "QA@CSVS.ORG",
    "categoryName": "PRIMARY CARE CLINIC",
    "categoryCode": "COMTYC",
    "licenseStatus": "ACTIVE",
    "inService": true,
    "licenseNumber": "550003464",
    "licenseEffectiveDate": "04/06/2025",
    "licenseExpirationDate": "04/05/2026",
    "dataDate": "10/18/2025",
    "capacity": 0,
    "address": "2180 NORTH MAIN STREET",
    "city": "SALINAS",
    "zip": "93906",
    "county": "MONTEREY",
    "phone": "(831) 757-8689",
    "lat": 36.726714,
    "lng": -121.6558575
  },
  {
    "id": "630012532",
    "name": "LAUREL FAMILY PRACTICE CLINIC",
    "npi": null,
    "hcaiId": null,
    "businessName": null,
    "contactEmail": null,
    "categoryName": "PRIMARY CARE CLINIC",
    "categoryCode": "FQHC",
    "licenseStatus": null,
    "inService": null,
    "licenseNumber": null,
    "licenseEffectiveDate": null,
    "licenseExpirationDate": null,
    "dataDate": "10/18/2025",
    "capacity": 0,
    "address": "1441 CONSTITUTION BLVD",
    "city": "SALINAS",
    "zip": "93906",
    "county": "MONTEREY",
    "phone": null,
    "lat": 36.697248,
    "lng": -121.6340235
  },
  {
    "id": "630012529",
    "name": "LAUREL INTERNAL MEDICINE CLINIC",
    "npi": null,
    "hcaiId": null,
    "businessName": null,
    "contactEmail": null,
    "categoryName": "PRIMARY CARE CLINIC",
    "categoryCode": "FQHC",
    "licenseStatus": null,
    "inService": null,
    "licenseNumber": null,
    "licenseEffectiveDate": null,
    "licenseExpirationDate": null,
    "dataDate": "10/18/2025",
    "capacity": 0,
    "address": "1441 CONSTITUTION BLVD, BLDG 151",
    "city": "SALINAS",
    "zip": "93906",
    "county": "MONTEREY",
    "phone": null,
    "lat": 36.696285,
    "lng": -121.6322775
  },
  {
    "id": "630012531",
    "name": "LAUREL PEDIATRICS CLINIC",
    "npi": null,
    "hcaiId": null,
    "businessName": null,
    "contactEmail": null,
    "categoryName": "PRIMARY CARE CLINIC",
    "categoryCode": "FQHC",
    "licenseStatus": null,
    "inService": null,
    "licenseNumber": null,
    "licenseEffectiveDate": null,
    "licenseExpirationDate": null,
    "dataDate": "10/18/2025",
    "capacity": 0,
    "address": "1441 CONSTITUTION BLVD",
    "city": "SALINAS",
    "zip": "93906",
    "county": "MONTEREY",
    "phone": null,
    "lat": 36.697248,
    "lng": -121.6340235
  },
  {
    "id": "630012530",
    "name": "LAUREL WOMENâ€™S HEALTH CLINIC",
    "npi": null,
    "hcaiId": null,
    "businessName": null,
    "contactEmail": null,
    "categoryName": "PRIMARY CARE CLINIC",
    "categoryCode": "FQHC",
    "licenseStatus": null,
    "inService": null,
    "licenseNumber": null,
    "licenseEffectiveDate": null,
    "licenseExpirationDate": null,
    "dataDate": "10/18/2025",
    "capacity": 0,
    "address": "1441 CONSTITUTION BLVD, BLDG 200",
    "city": "SALINAS",
    "zip": "93906",
    "county": "MONTEREY",
    "phone": null,
    "lat": 36.697248,
    "lng": -121.6340235
  },
  {
    "id": "070000145",
    "name": "NATIVIDAD MEDICAL CENTER",
    "npi": "1699979245",
    "hcaiId": "106274043",
    "businessName": "COUNTY OF MONTEREY",
    "contactEmail": "LICENSINGANDCERTIFICATION@NATIVIDAD.COM",
    "categoryName": "GENERAL ACUTE CARE HOSPITAL",
    "categoryCode": "GACH",
    "licenseStatus": "ACTIVE",
    "inService": true,
    "licenseNumber": "070000070",
    "licenseEffectiveDate": "12/22/2024",
    "licenseExpirationDate": "12/21/2025",
    "dataDate": "10/18/2025",
    "capacity": 150,
    "address": "1441 CONSTITUTION BLVD",
    "city": "SALINAS",
    "zip": "93906",
    "county": "MONTEREY",
    "phone": "(831) 783-2512",
    "lat": 36.697248,
    "lng": -121.6340235
  },
  {
    "id": "070000306",
    "name": "NATIVIDAD MEDICAL CENTER D/P APH",
    "npi": "1699979245",
    "hcaiId": null,
    "businessName": "COUNTY OF MONTEREY",
    "contactEmail": null,
    "categoryName": "ACUTE PSYCHIATRIC HOSPITAL",
    "categoryCode": "APH",
    "licenseStatus": "ACTIVE",
    "inService": true,
    "licenseNumber": "070000070",
    "licenseEffectiveDate": "12/22/2024",
    "licenseExpirationDate": "12/21/2025",
    "dataDate": "10/18/2025",
    "capacity": 22,
    "address": "1441 CONSTITUTION BLVD",
    "city": "SALINAS",
    "zip": "93906",
    "county": "MONTEREY",
    "phone": "(831) 755-4111",
    "lat": 36.697248,
    "lng": -121.6340235
  },
  {
    "id": "070000088",
    "name": "SALINAS POST ACUTE",
    "npi": "1689710048",
    "hcaiId": "206270897",
    "businessName": "WINDSOR SKYLINE CARE CENTER, LLC",
    "contactEmail": "ADMINISTRATOR@WINDSORSKYLINE.COM",
    "categoryName": "SKILLED NURSING FACILITY",
    "categoryCode": "SNF",
    "licenseStatus": "ACTIVE",
    "inService": true,
    "licenseNumber": "070000088",
    "licenseEffectiveDate": "09/04/2025",
    "licenseExpirationDate": "02/28/2026",
    "dataDate": "10/18/2025",
    "capacity": 80,
    "address": "348 IRIS DR",
    "city": "SALINAS",
    "zip": "93906",
    "county": "MONTEREY",
    "phone": "(831) 449-5496",
    "lat": 36.694512,
    "lng": -121.6572885
  },
  {
    "id": "070000042",
    "name": "WINDSOR THE RIDGE REHABILITATION CENTER",
    "npi": "1073659447",
    "hcaiId": "206270757",
    "businessName": "WINDSOR THE RIDGE REHABILITATION CENTER, LLC",
    "contactEmail": "ADMINISTRATOR@WINDSORTHERIDGE.COM",
    "categoryName": "SKILLED NURSING FACILITY",
    "categoryCode": "SNF",
    "licenseStatus": "ACTIVE",
    "inService": true,
    "licenseNumber": "070000032",
    "licenseEffectiveDate": "03/01/2025",
    "licenseExpirationDate": "02/28/2026",
    "dataDate": "10/18/2025",
    "capacity": 103,
    "address": "350 IRIS DR",
    "city": "SALINAS",
    "zip": "93906",
    "county": "MONTEREY",
    "phone": "(831) 449-1515",
    "lat": 36.694512,
    "lng": -121.6572885
  }
]