[
  {
    "id": "630012030",
    "name": "ADOBE HOME HEALTH, INC.",
    "npi": "1871742114",
    "hcaiId": "406274076",
    "businessName": "ADOBE HOME HEALTH, INC.",
    "contactEmail": "LAGATTUTA@COMCAST.NET",
    "categoryName": "HOME HEALTH AGENCY",
    "categoryCode": "HHA",
    "licenseStatus": "ACTIVE",
    "inService": true,
    "licenseNumber": "550001134",
    "licenseEffectiveDate": "11/14/2025",
    "licenseExpirationDate": "11/13/2026",
    "dataDate": "10/18/2025",
    "capacity": 0,
    "address": "19045 PORTOLA DR, SUITE E",
    "city": "SALINAS",
    "zip": "93908",
    "county": "MONTEREY",
    "phone": "(831) 424-1311",
    "lat": 36.623133,
    "lng": -121.6853505
  },
  {
    "id": "630015733",
    "name": "RANCHO CIELO",
    "npi": null,
    "hcaiId": null,
    "businessName": null,
    "contactEmail": null,
    "categoryName": "PRIMARY CARE CLINIC",
    "categoryCode": "FQHC",
    "licenseStatus": null,
    "inService": null,
    "licenseNumber": null,
    "licenseEffectiveDate": null,
    "licenseExpirationDate": null,
    "dataDate": "10/18/2025",
    "capacity": 0,
    "address": "710 OLD STAGE ROAD",
    "city": "SALINAS",
    "zip": "93908",
    "county": "MONTEREY",
    "phone": null,
    "lat": 36.73119501,
    "lng": -121.5965518
  },
  {
    "id": "070001446",
    "name": "SUTTER CARE AT HOME",
    "npi": "1437525326",
    "hcaiId": "406274065",
    "businessName": "SUTTER VISITING NURSE ASSOCIATION AND HOSPICE",
    "contactEmail": "SVNAHREGULATORY@SUTTERHEALTH.ORG",
    "categoryName": "HOME HEALTH AGENCY",
    "categoryCode": "HHA",
    "licenseStatus": "ACTIVE",
    "inService": true,
    "licenseNumber": "070000717",
    "licenseEffectiveDate": "12/07/2024",
    "licenseExpirationDate": "12/06/2025",
    "dataDate": "10/18/2025",
    "capacity": 0,
    "address": "19045 PORTOLA DR, SUITE B",
    "city": "SALINAS",
    "zip": "93908",
    "county": "MONTEREY",
    "phone": "(831) 455-8901",
    "lat": 36.623133,
    "lng": -121.6853505
  }
]