[
  {
    "id": "630019963",
    "name": "BRIDGE HOME HEALTH",
    "npi": "1396378709",
    "hcaiId": "406273153",
    "businessName": "BRIDGE HOME HEALTH CENTRAL COAST, LLC",
    "contactEmail": "BRIDGEGROUP@BRIDGEHH.COM",
    "categoryName": "HOME HEALTH AGENCY",
    "categoryCode": "HHA",
    "licenseStatus": "ACTIVE",
    "inService": true,
    "licenseNumber": "550006501",
    "licenseEffectiveDate": "07/09/2025",
    "licenseExpirationDate": "07/08/2026",
    "dataDate": "10/18/2025",
    "capacity": 0,
    "address": "6 QUAIL RUN CIR, SUITE 104",
    "city": "SALINAS",
    "zip": "93907",
    "county": "MONTEREY",
    "phone": "(831) 220-0211",
    "lat": 36.686682,
    "lng": -121.670172
  },
  {
    "id": "630018464",
    "name": "BRIDGE HOSPICE",
    "npi": "1710479233",
    "hcaiId": "406271805",
    "businessName": "BRIDGE HOSPICE CENTRAL COAST, LLC",
    "contactEmail": "CYOUNG@BRIDGEHH.COM",
    "categoryName": "HOSPICE",
    "categoryCode": "HOSPICE",
    "licenseStatus": "ACTIVE",
    "inService": true,
    "licenseNumber": "550004759",
    "licenseEffectiveDate": "06/21/2025",
    "licenseExpirationDate": "06/20/2027",
    "dataDate": "10/18/2025",
    "capacity": 0,
    "address": "6 QUAIL RUN CIR, SUITE 103",
    "city": "SALINAS",
    "zip": "93907",
    "county": "MONTEREY",
    "phone": "(831) 216-5585",
    "lat": 36.686682,
    "lng": -121.670172
  },
  {
    "id": "630014192",
    "name": "LAUREL MEADOWS DIALYSIS",
    "npi": "1447506043",
    "hcaiId": "306274086",
    "businessName": "CONCONULLY DIALYSIS LLC",
    "contactEmail": "CAL_C@DAVITA.COM",
    "categoryName": "CHRONIC DIALYSIS CLINIC",
    "categoryCode": "ESRD/CDC",
    "licenseStatus": "ACTIVE",
    "inService": true,
    "licenseNumber": "550002232",
    "licenseEffectiveDate": "04/10/2025",
    "licenseExpirationDate": "04/09/2026",
    "dataDate": "10/18/2025",
    "capacity": 24,
    "address": "3 ROSSI CIR, SUITE A",
    "city": "SALINAS",
    "zip": "93907",
    "county": "MONTEREY",
    "phone": "(831) 424-5726",
    "lat": 36.686808,
    "lng": -121.6709685
  },
  {
    "id": "630014230",
    "name": "LAUREL MEADOWS HOME TRAINING",
    "npi": null,
    "hcaiId": null,
    "businessName": null,
    "contactEmail": null,
    "categoryName": "CHRONIC DIALYSIS CLINIC",
    "categoryCode": "ESRD",
    "licenseStatus": null,
    "inService": null,
    "licenseNumber": null,
    "licenseEffectiveDate": null,
    "licenseExpirationDate": null,
    "dataDate": "10/18/2025",
    "capacity": 0,
    "address": "3 ROSSI CIR, SUITE B",
    "city": "SALINAS",
    "zip": "93907",
    "county": "MONTEREY",
    "phone": "(831) 757-4360",
    "lat": 36.686808,
    "lng": -121.6709685
  },
  {
    "id": "630016224",
    "name": "LAUREL VISTA",
    "npi": null,
    "hcaiId": null,
    "businessName": null,
    "contactEmail": null,
    "categoryName": "PRIMARY CARE CLINIC",
    "categoryCode": "FQHC",
    "licenseStatus": null,
    "inService": null,
    "licenseNumber": null,
    "licenseEffectiveDate": null,
    "licenseExpirationDate": null,
    "dataDate": "10/18/2025",
    "capacity": 0,
    "address": "1441 CONSTITUTION BLVD., BLDG 400, SUITE 301",
    "city": "SALINAS",
    "zip": "93907",
    "county": "MONTEREY",
    "phone": "(831) 755-4000",
    "lat": 36.697248,
    "lng": -121.6340235
  }
]