[
  {
    "id": "070000034",
    "name": "CARMEL VALLEY MANOR",
    "npi": null,
    "hcaiId": "206270736",
    "businessName": "NORTHERN CA CONGREGATIONAL RETIREMENT HOMES, INC.",
    "contactEmail": "CREGAN@CVMANOR.COM",
    "categoryName": "SKILLED NURSING FACILITY",
    "categoryCode": "SNF",
    "licenseStatus": "ACTIVE",
    "inService": true,
    "licenseNumber": "070000233",
    "licenseEffectiveDate": "03/01/2025",
    "licenseExpirationDate": "02/28/2026",
    "dataDate": "10/18/2025",
    "capacity": 36,
    "address": "8545 CARMEL VALLEY RD",
    "city": "CARMEL",
    "zip": "93923",
    "county": "MONTEREY",
    "phone": "(831) 624-1281",
    "lat": 36.53118,
    "lng": -121.825791
  },
  {
    "id": "630020659",
    "name": "MOGO URGENT CARE",
    "npi": "1770145682",
    "hcaiId": "306270628",
    "businessName": "MOGO URGENT CARE",
    "contactEmail": "CHRIS.STEGGE@MOGO.ORG",
    "categoryName": "PRIMARY CARE CLINIC",
    "categoryCode": "COMTYC",
    "licenseStatus": "ACTIVE",
    "inService": true,
    "licenseNumber": "550006154",
    "licenseEffectiveDate": "04/15/2025",
    "licenseExpirationDate": "04/14/2026",
    "dataDate": "10/18/2025",
    "capacity": 0,
    "address": "26135 CARMEL RANCHO BLVD, SUITE B-1",
    "city": "CARMEL",
    "zip": "93923",
    "county": "MONTEREY",
    "phone": "(831) 622-5805",
    "lat": 36.543096,
    "lng": -121.903371
  },
  {
    "id": "630012303",
    "name": "MONTAGE MEDICAL GROUP",
    "npi": "1770710709",
    "hcaiId": "306274077",
    "businessName": "MONTAGE MEDICAL GROUP",
    "contactEmail": "JASMINE.ENSLEY@MONTAGEMEDICALGROUP.ORG",
    "categoryName": "PRIMARY CARE CLINIC",
    "categoryCode": "COMTYC",
    "licenseStatus": "ACTIVE",
    "inService": true,
    "licenseNumber": "550001152",
    "licenseEffectiveDate": "11/30/2024",
    "licenseExpirationDate": "11/29/2025",
    "dataDate": "10/18/2025",
    "capacity": 0,
    "address": "275 THE CROSSROADS BLVD, SUITE A",
    "city": "CARMEL",
    "zip": "93923",
    "county": "MONTEREY",
    "phone": "(831) 718-9701",
    "lat": 36.53675362,
    "lng": -121.9088163
  }
]