[
  {
    "id": "630015586",
    "name": "INTEGRATED HEALTH CARE SERVICES",
    "npi": null,
    "hcaiId": null,
    "businessName": null,
    "contactEmail": null,
    "categoryName": "PRIMARY CARE CLINIC",
    "categoryCode": "FQHC",
    "licenseStatus": null,
    "inService": null,
    "licenseNumber": null,
    "licenseEffectiveDate": null,
    "licenseExpirationDate": null,
    "dataDate": "10/18/2025",
    "capacity": 0,
    "address": "299 12TH STREET",
    "city": "MARINA",
    "zip": "93933",
    "county": "MONTEREY",
    "phone": null,
    "lat": 36.668331,
    "lng": -121.8008925
  },
  {
    "id": "630017087",
    "name": "MARINA DIALYSIS",
    "npi": "1942654595",
    "hcaiId": "306274095",
    "businessName": "MARSEILLE DIALYSIS LLC",
    "contactEmail": "CAL_C@DAVITA.COM",
    "categoryName": "CHRONIC DIALYSIS CLINIC",
    "categoryCode": "ESRD/CDC",
    "licenseStatus": "ACTIVE",
    "inService": true,
    "licenseNumber": "550003934",
    "licenseEffectiveDate": "08/07/2025",
    "licenseExpirationDate": "08/06/2026",
    "dataDate": "10/18/2025",
    "capacity": 24,
    "address": "930 2ND AVE",
    "city": "MARINA",
    "zip": "93933",
    "county": "MONTEREY",
    "phone": "(831) 384-7831",
    "lat": 36.66807701,
    "lng": -121.8084503
  },
  {
    "id": "630019502",
    "name": "MOGO URGENT CARE",
    "npi": "1770145682",
    "hcaiId": "306270537",
    "businessName": "MOGO URGENT CARE",
    "contactEmail": "CHRIS.STEGGE@MOGO.ORG",
    "categoryName": "PRIMARY CARE CLINIC",
    "categoryCode": "COMTYC",
    "licenseStatus": "ACTIVE",
    "inService": true,
    "licenseNumber": "550005391",
    "licenseEffectiveDate": "03/26/2025",
    "licenseExpirationDate": "03/25/2026",
    "dataDate": "10/18/2025",
    "capacity": 0,
    "address": "2930 2ND AVE, SUITE 120",
    "city": "MARINA",
    "zip": "93933",
    "county": "MONTEREY",
    "phone": "(831) 622-5805",
    "lat": 36.666936,
    "lng": -121.807701
  },
  {
    "id": "630013129",
    "name": "MONTAGE MEDICAL GROUP",
    "npi": "1770710709",
    "hcaiId": "306274080",
    "businessName": "MONTAGE MEDICAL GROUP",
    "contactEmail": "JASMINE.ENSLEY@CHP-DOD.ORG",
    "categoryName": "PRIMARY CARE CLINIC",
    "categoryCode": "COMTYC",
    "licenseStatus": "ACTIVE",
    "inService": true,
    "licenseNumber": "550001647",
    "licenseEffectiveDate": "11/08/2025",
    "licenseExpirationDate": "11/07/2026",
    "dataDate": "10/18/2025",
    "capacity": 0,
    "address": "2930 2ND AVENUE, SUITE 200",
    "city": "MARINA",
    "zip": "93933",
    "county": "MONTEREY",
    "phone": "(831) 582-2100",
    "lat": 36.666936,
    "lng": -121.807701
  },
  {
    "id": "070000958",
    "name": "MONTEREY COUNTY HEALTH CLINIC AT MARINA",
    "npi": null,
    "hcaiId": null,
    "businessName": null,
    "contactEmail": null,
    "categoryName": "OTHER",
    "categoryCode": "UNLICEN",
    "licenseStatus": null,
    "inService": null,
    "licenseNumber": null,
    "licenseEffectiveDate": null,
    "licenseExpirationDate": null,
    "dataDate": "10/18/2025",
    "capacity": 0,
    "address": "3155 DE FOREST RD",
    "city": "MARINA",
    "zip": "93933",
    "county": "MONTEREY",
    "phone": "(831) 384-1445",
    "lat": 36.685332,
    "lng": -121.7932965
  }
]