[
  {
    "id": "630015967",
    "name": "BIENESTAR-KING CITY",
    "npi": null,
    "hcaiId": null,
    "businessName": null,
    "contactEmail": null,
    "categoryName": "PRIMARY CARE CLINIC",
    "categoryCode": "FQHC",
    "licenseStatus": null,
    "inService": null,
    "licenseNumber": null,
    "licenseEffectiveDate": null,
    "licenseExpirationDate": null,
    "dataDate": "10/18/2025",
    "capacity": 0,
    "address": "200 BROADWAY STREET",
    "city": "KING CITY",
    "zip": "93930",
    "county": "MONTEREY",
    "phone": "(831) 769-8800",
    "lat": 36.213471,
    "lng": -121.1257935
  },
  {
    "id": "070000623",
    "name": "CLINICA DE SALUD DEL VALLE DE SALINAS-KING CITY",
    "npi": "1376684456",
    "hcaiId": "306274085",
    "businessName": "CLINICA DE SALUD DEL VALLE DE SALINAS",
    "contactEmail": "QA@CSVS.ORG",
    "categoryName": "PRIMARY CARE CLINIC",
    "categoryCode": "COMTYC",
    "licenseStatus": "ACTIVE",
    "inService": true,
    "licenseNumber": "070000264",
    "licenseEffectiveDate": "05/22/2025",
    "licenseExpirationDate": "05/21/2026",
    "dataDate": "10/18/2025",
    "capacity": 0,
    "address": "122 E SAN ANTONIO DR",
    "city": "KING CITY",
    "zip": "93930",
    "county": "MONTEREY",
    "phone": "(831) 757-8689",
    "lat": 36.219492,
    "lng": -121.1312025
  },
  {
    "id": "070000141",
    "name": "GEORGE L. MEE MEMORIAL HOSPITAL",
    "npi": "1114917564",
    "hcaiId": "106270777",
    "businessName": "SOUTHERN MONTEREY COUNTY MEMORIAL HOSPITAL",
    "contactEmail": "KFEATHERSTONE@MEEMEMORIAL.COM",
    "categoryName": "GENERAL ACUTE CARE HOSPITAL",
    "categoryCode": "GACH",
    "licenseStatus": "ACTIVE",
    "inService": true,
    "licenseNumber": "070000047",
    "licenseEffectiveDate": "06/01/2025",
    "licenseExpirationDate": "05/31/2026",
    "dataDate": "10/18/2025",
    "capacity": 25,
    "address": "300 CANAL ST",
    "city": "KING CITY",
    "zip": "93930",
    "county": "MONTEREY",
    "phone": "(831) 385-7128",
    "lat": 36.206028,
    "lng": -121.133088
  },
  {
    "id": "070000324",
    "name": "GEORGE L. MEE MEMORIAL HOSPITAL D/P SNF",
    "npi": "1114917564",
    "hcaiId": null,
    "businessName": "SOUTHERN MONTEREY COUNTY MEMORIAL HOSPITAL",
    "contactEmail": null,
    "categoryName": "SKILLED NURSING FACILITY",
    "categoryCode": "SNF",
    "licenseStatus": "ACTIVE",
    "inService": true,
    "licenseNumber": "070000047",
    "licenseEffectiveDate": "06/01/2025",
    "licenseExpirationDate": "05/31/2026",
    "dataDate": "10/18/2025",
    "capacity": 48,
    "address": "300 CANAL ST",
    "city": "KING CITY",
    "zip": "93930",
    "county": "MONTEREY",
    "phone": "(831) 385-6000",
    "lat": 36.206028,
    "lng": -121.133088
  },
  {
    "id": "630027677",
    "name": "MEE MEMORIAL CHILDREN'S HEALTH AND WELLNESS CENTER",
    "npi": null,
    "hcaiId": null,
    "businessName": "SOUTHERN MONTEREY COUNTY MEMORIAL HOSPITAL",
    "contactEmail": null,
    "categoryName": "PRIMARY CARE CLINIC",
    "categoryCode": "RHC/OP",
    "licenseStatus": "ACTIVE",
    "inService": true,
    "licenseNumber": "070000047",
    "licenseEffectiveDate": "06/01/2025",
    "licenseExpirationDate": "05/31/2026",
    "dataDate": "10/18/2025",
    "capacity": 0,
    "address": "809 BROADWAY ST, SUITE D",
    "city": "KING CITY",
    "zip": "93930",
    "county": "MONTEREY",
    "phone": null,
    "lat": 36.207462,
    "lng": -121.133265
  },
  {
    "id": "070001393",
    "name": "MEE MEMORIAL HOSPITAL MEDICAL CLINIC",
    "npi": "1811188188",
    "hcaiId": null,
    "businessName": "SOUTHERN MONTEREY COUNTY MEMORIAL HOSPITAL",
    "contactEmail": null,
    "categoryName": "PRIMARY CARE CLINIC",
    "categoryCode": "RHC/OP",
    "licenseStatus": "ACTIVE",
    "inService": true,
    "licenseNumber": "070000047",
    "licenseEffectiveDate": "06/01/2025",
    "licenseExpirationDate": "05/31/2026",
    "dataDate": "10/18/2025",
    "capacity": 0,
    "address": "210 CANAL ST",
    "city": "KING CITY",
    "zip": "93930",
    "county": "MONTEREY",
    "phone": "(831) 385-5471",
    "lat": 36.207,
    "lng": -121.1331195
  },
  {
    "id": "140001264",
    "name": "MEE MEMORIAL OUTPATIENT CENTER",
    "npi": "1326238742",
    "hcaiId": null,
    "businessName": null,
    "contactEmail": null,
    "categoryName": "CHRONIC DIALYSIS CLINIC",
    "categoryCode": "ESRD",
    "licenseStatus": null,
    "inService": null,
    "licenseNumber": null,
    "licenseEffectiveDate": null,
    "licenseExpirationDate": null,
    "dataDate": "10/18/2025",
    "capacity": 0,
    "address": "809 BROADWAY ST",
    "city": "KING CITY",
    "zip": "93930",
    "county": "MONTEREY",
    "phone": "(831) 385-7100",
    "lat": 36.207558,
    "lng": -121.1333445
  }
]