[
  {
    "id": "630027813",
    "name": "BRIGHTSTAR CARE OF THE MONTEREY PENINSULA",
    "npi": null,
    "hcaiId": null,
    "businessName": "SCENIC HEALTH",
    "contactEmail": "RICHARD.BLUT@BRIGHTSTARCARE.COM",
    "categoryName": "HOME HEALTH AGENCY",
    "categoryCode": "HHA",
    "licenseStatus": "ACTIVE",
    "inService": true,
    "licenseNumber": "550009958",
    "licenseEffectiveDate": "08/19/2025",
    "licenseExpirationDate": "02/18/2026",
    "dataDate": "10/18/2025",
    "capacity": 0,
    "address": "2511 GARDEN RD, SUITE C250-A",
    "city": "MONTEREY",
    "zip": "93940",
    "county": "MONTEREY",
    "phone": "(831) 200-4555",
    "lat": 36.58660599,
    "lng": -121.853245
  },
  {
    "id": "070000027",
    "name": "CARMEL HILLS CARE CENTER",
    "npi": "1093733776",
    "hcaiId": "206270722",
    "businessName": "PATER DIGNITAS, INC.",
    "contactEmail": "JCHRISTENSEN@CARMEL-HILLS.COM",
    "categoryName": "SKILLED NURSING FACILITY",
    "categoryCode": "SNF",
    "licenseStatus": "ACTIVE",
    "inService": true,
    "licenseNumber": "070000015",
    "licenseEffectiveDate": "05/01/2025",
    "licenseExpirationDate": "04/30/2026",
    "dataDate": "10/18/2025",
    "capacity": 99,
    "address": "23795 HOLMAN HWY",
    "city": "MONTEREY",
    "zip": "93940",
    "county": "MONTEREY",
    "phone": "(831) 624-1875",
    "lat": 36.57671503,
    "lng": -121.9143678
  },
  {
    "id": "070000105",
    "name": "CENTRAL COAST VNA & HOSPICE, INC.",
    "npi": "1093718884",
    "hcaiId": "406270827",
    "businessName": "CENTRAL COAST VNA & HOSPICE, INC.",
    "contactEmail": "JSJOBLOM@CCVNA.COM",
    "categoryName": "HOME HEALTH AGENCY",
    "categoryCode": "HHA",
    "licenseStatus": "ACTIVE",
    "inService": true,
    "licenseNumber": "070000067",
    "licenseEffectiveDate": "04/16/2025",
    "licenseExpirationDate": "04/15/2026",
    "dataDate": "10/18/2025",
    "capacity": 0,
    "address": "5 LOWER RAGSDALE DRIVE",
    "city": "MONTEREY",
    "zip": "93940",
    "county": "MONTEREY",
    "phone": "(831) 372-6668",
    "lat": 36.57663,
    "lng": -121.8159045
  },
  {
    "id": "070000888",
    "name": "CHOICE HOME HEALTH CARE",
    "npi": "1558392209",
    "hcaiId": "406274071",
    "businessName": "COASTAL HOME CARE SERVICES, INC.",
    "contactEmail": "CHOICEHHCREG@COVENANTCARE.COM",
    "categoryName": "HOME HEALTH AGENCY",
    "categoryCode": "HHA",
    "licenseStatus": "ACTIVE",
    "inService": true,
    "licenseNumber": "070000367",
    "licenseEffectiveDate": "01/18/2025",
    "licenseExpirationDate": "01/17/2026",
    "dataDate": "10/18/2025",
    "capacity": 0,
    "address": "80 GARDEN CT, SUITE 105",
    "city": "MONTEREY",
    "zip": "93940",
    "county": "MONTEREY",
    "phone": "(831) 645-1400",
    "lat": 36.584163,
    "lng": -121.8543705
  },
  {
    "id": "070000137",
    "name": "COMMUNITY HOSPITAL OF THE MONTEREY PENINSULA",
    "npi": "1932197258",
    "hcaiId": "106270744",
    "businessName": "COMMUNITY HOSPITAL OF THE MONTEREY PENINSULA",
    "contactEmail": "SPACKER@MONTAGEHEALTH.ORG",
    "categoryName": "GENERAL ACUTE CARE HOSPITAL",
    "categoryCode": "GACH",
    "licenseStatus": "ACTIVE",
    "inService": true,
    "licenseNumber": "070000026",
    "licenseEffectiveDate": "12/01/2024",
    "licenseExpirationDate": "11/30/2025",
    "dataDate": "10/18/2025",
    "capacity": 240,
    "address": "23625 W.R. HOLMAN HWY",
    "city": "MONTEREY",
    "zip": "93940",
    "county": "MONTEREY",
    "phone": "(831) 625-4500",
    "lat": 36.57916153,
    "lng": -121.9152286
  },
  {
    "id": "070000288",
    "name": "COMMUNITY HOSPITAL OF THE MONTEREY PENINSULA D/P A",
    "npi": "1932197258",
    "hcaiId": null,
    "businessName": "COMMUNITY HOSPITAL OF THE MONTEREY PENINSULA",
    "contactEmail": null,
    "categoryName": "ACUTE PSYCHIATRIC HOSPITAL",
    "categoryCode": "APH",
    "licenseStatus": "ACTIVE",
    "inService": true,
    "licenseNumber": "070000026",
    "licenseEffectiveDate": "12/01/2024",
    "licenseExpirationDate": "11/30/2025",
    "dataDate": "10/18/2025",
    "capacity": 18,
    "address": "23625 W.R. HOLMAN HWY",
    "city": "MONTEREY",
    "zip": "93940",
    "county": "MONTEREY",
    "phone": "(831) 624-5311",
    "lat": 36.57916153,
    "lng": -121.9152286
  },
  {
    "id": "070001030",
    "name": "COMPASSION PREGNANCY CTR & CLINIC OF MONTEREY BAY",
    "npi": null,
    "hcaiId": "306274040",
    "businessName": "COMPASSION PREGNANCY CENTER AND CLINIC OF THE MONTEREY BAY",
    "contactEmail": "COMPASSIONMONTEREY@GMAIL.COM",
    "categoryName": "PRIMARY CARE CLINIC",
    "categoryCode": "COMTYC",
    "licenseStatus": "ACTIVE",
    "inService": true,
    "licenseNumber": "070000441",
    "licenseEffectiveDate": "11/17/2024",
    "licenseExpirationDate": "11/16/2025",
    "dataDate": "10/18/2025",
    "capacity": 0,
    "address": "640 CASS ST",
    "city": "MONTEREY",
    "zip": "93940",
    "county": "MONTEREY",
    "phone": "(831) 373-8535",
    "lat": 36.595566,
    "lng": -121.894785
  },
  {
    "id": "070000074",
    "name": "CYPRESS RIDGE CARE CENTER",
    "npi": "1962700195",
    "hcaiId": "206270898",
    "businessName": "MARJORAM HOLDINGS, LLC",
    "contactEmail": "MATT.HOWARD@CYPRESSRIDGECC.COM",
    "categoryName": "SKILLED NURSING FACILITY",
    "categoryCode": "SNF",
    "licenseStatus": "ACTIVE",
    "inService": true,
    "licenseNumber": "070000089",
    "licenseEffectiveDate": "06/07/2025",
    "licenseExpirationDate": "06/06/2026",
    "dataDate": "10/18/2025",
    "capacity": 99,
    "address": "1501 SKYLINE DR",
    "city": "MONTEREY",
    "zip": "93940",
    "county": "MONTEREY",
    "phone": "(831) 373-3716",
    "lat": 36.592875,
    "lng": -121.9165245
  },
  {
    "id": "630027382",
    "name": "GOLDEN STATE HEART & VASCULAR ASSOCIATES",
    "npi": null,
    "hcaiId": null,
    "businessName": null,
    "contactEmail": "MISTEVENS@GSHAV.COM",
    "categoryName": "SURGICAL CLINIC",
    "categoryCode": "ASC",
    "licenseStatus": null,
    "inService": null,
    "licenseNumber": null,
    "licenseEffectiveDate": null,
    "licenseExpirationDate": null,
    "dataDate": "10/18/2025",
    "capacity": 0,
    "address": "2 LOWER RAGSDALE DR, SUITE 160",
    "city": "MONTEREY",
    "zip": "93940",
    "county": "MONTEREY",
    "phone": "(831) 717-4687",
    "lat": 36.57652801,
    "lng": -121.820308
  },
  {
    "id": "070000528",
    "name": "HOSPICE OF THE CENTRAL COAST",
    "npi": "1508854423",
    "hcaiId": "406274032",
    "businessName": "COMMUNITY HOSPITAL OF THE MONTEREY PENINSULA",
    "contactEmail": "CARA.ALLARD@CHOMP.ORG",
    "categoryName": "HOSPICE",
    "categoryCode": "HOSPICE",
    "licenseStatus": "ACTIVE",
    "inService": true,
    "licenseNumber": "070000395",
    "licenseEffectiveDate": "11/01/2023",
    "licenseExpirationDate": "10/31/2025",
    "dataDate": "10/18/2025",
    "capacity": 0,
    "address": "2 UPPER RAGSDALE DR, SUITE D120",
    "city": "MONTEREY",
    "zip": "93940",
    "county": "MONTEREY",
    "phone": "(831) 649-7750",
    "lat": 36.577863,
    "lng": -121.8144735
  },
  {
    "id": "630012202",
    "name": "INHOME HEALTHCARE SERVICES",
    "npi": "1235370107",
    "hcaiId": "406274078",
    "businessName": "DEUS DIGNITAS, INC.",
    "contactEmail": "ADAM.FRERICHS@INHOMEHCS.COM",
    "categoryName": "HOME HEALTH AGENCY",
    "categoryCode": "HHA",
    "licenseStatus": "ACTIVE",
    "inService": true,
    "licenseNumber": "550001231",
    "licenseEffectiveDate": "12/18/2024",
    "licenseExpirationDate": "12/17/2025",
    "dataDate": "10/18/2025",
    "capacity": 0,
    "address": "22 LOWER RAGSDALE DR, SUITE B",
    "city": "MONTEREY",
    "zip": "93940",
    "county": "MONTEREY",
    "phone": "(831) 646-2046",
    "lat": 36.573984,
    "lng": -121.810059
  },
  {
    "id": "630017809",
    "name": "MAXIM HEALTHCARE SERVICES, INC.",
    "npi": null,
    "hcaiId": "406274072",
    "businessName": "MAXIM HEALTHCARE SERVICES, INC.",
    "contactEmail": "SANJOSEHH@MAXHEALTH.COM",
    "categoryName": "HOME HEALTH AGENCY",
    "categoryCode": "HHA",
    "licenseStatus": "ACTIVE",
    "inService": true,
    "licenseNumber": "070000287",
    "licenseEffectiveDate": "04/29/2025",
    "licenseExpirationDate": "04/28/2026",
    "dataDate": "10/18/2025",
    "capacity": 0,
    "address": "30 RAGSDALE DR, SUITE 202",
    "city": "MONTEREY",
    "zip": "93940",
    "county": "MONTEREY",
    "phone": "(831) 641-9565",
    "lat": 36.57769599,
    "lng": -121.822835
  },
  {
    "id": "630015807",
    "name": "MISSION HOME HEALTH OF MONTEREY",
    "npi": "1063801488",
    "hcaiId": "406274091",
    "businessName": "HEALTHY LIVING AT HOME - MONTEREY, LLC",
    "contactEmail": "GPINERO@MISSIONHH.COM",
    "categoryName": "HOME HEALTH AGENCY",
    "categoryCode": "HHA",
    "licenseStatus": "ACTIVE",
    "inService": true,
    "licenseNumber": "550003302",
    "licenseEffectiveDate": "06/17/2025",
    "licenseExpirationDate": "06/16/2026",
    "dataDate": "10/18/2025",
    "capacity": 0,
    "address": "2100 GARDEN RD, SUITE G",
    "city": "MONTEREY",
    "zip": "93940",
    "county": "MONTEREY",
    "phone": "(619) 642-1310",
    "lat": 36.585873,
    "lng": -121.8607875
  },
  {
    "id": "630019293",
    "name": "MOGO URGENT CARE",
    "npi": "1770145682",
    "hcaiId": "306270532",
    "businessName": "MOGO URGENT CARE",
    "contactEmail": null,
    "categoryName": "PRIMARY CARE CLINIC",
    "categoryCode": "COMTYC",
    "licenseStatus": "ACTIVE",
    "inService": true,
    "licenseNumber": "550005377",
    "licenseEffectiveDate": "03/26/2025",
    "licenseExpirationDate": "03/25/2026",
    "dataDate": "10/18/2025",
    "capacity": 0,
    "address": "2020 DEL MONTE AVE, SUITE B",
    "city": "MONTEREY",
    "zip": "93940",
    "county": "MONTEREY",
    "phone": "(831) 622-6930",
    "lat": 36.600687,
    "lng": -121.868757
  },
  {
    "id": "630014740",
    "name": "MONTAGE MEDICAL GROUP",
    "npi": "1770710709",
    "hcaiId": "306274089",
    "businessName": "MONTAGE MEDICAL GROUP",
    "contactEmail": "JENSLEY@CYPRESSHEALTHCARE.COM",
    "categoryName": "PRIMARY CARE CLINIC",
    "categoryCode": "COMTYC",
    "licenseStatus": "ACTIVE",
    "inService": true,
    "licenseNumber": "550002703",
    "licenseEffectiveDate": "06/09/2025",
    "licenseExpirationDate": "06/08/2026",
    "dataDate": "10/18/2025",
    "capacity": 0,
    "address": "30 GARDEN CT, SUITE B",
    "city": "MONTEREY",
    "zip": "93940",
    "county": "MONTEREY",
    "phone": "(831) 647-1123",
    "lat": 36.584622,
    "lng": -121.8553785
  },
  {
    "id": "630015396",
    "name": "MONTAGE MEDICAL GROUP",
    "npi": "1770710709",
    "hcaiId": "306274090",
    "businessName": "MONTAGE MEDICAL GROUP",
    "contactEmail": "JASMINE.ENSLEY@MONTAGEMEDICALGROUP.ORG",
    "categoryName": "PRIMARY CARE CLINIC",
    "categoryCode": "COMTYC",
    "licenseStatus": "ACTIVE",
    "inService": true,
    "licenseNumber": "550001152",
    "licenseEffectiveDate": "11/30/2024",
    "licenseExpirationDate": "11/29/2025",
    "dataDate": "10/18/2025",
    "capacity": 0,
    "address": "23845 HOLMAN HWY, SUITE 227",
    "city": "MONTEREY",
    "zip": "93940",
    "county": "MONTEREY",
    "phone": "(831) 624-3579",
    "lat": 36.57647343,
    "lng": -121.9140058
  },
  {
    "id": "630016590",
    "name": "MONTAGE MEDICAL GROUP",
    "npi": "1770710709",
    "hcaiId": "306274092",
    "businessName": "MONTAGE MEDICAL GROUP",
    "contactEmail": "JENSLEY@CHP-DOD.COM",
    "categoryName": "PRIMARY CARE CLINIC",
    "categoryCode": "COMTYC",
    "licenseStatus": "ACTIVE",
    "inService": true,
    "licenseNumber": "550003499",
    "licenseEffectiveDate": "05/12/2025",
    "licenseExpirationDate": "05/11/2026",
    "dataDate": "10/18/2025",
    "capacity": 0,
    "address": "23845 HOLMAN HWY, SUITE 210",
    "city": "MONTEREY",
    "zip": "93940",
    "county": "MONTEREY",
    "phone": "(831) 620-0700",
    "lat": 36.57647343,
    "lng": -121.9140058
  },
  {
    "id": "630016990",
    "name": "MONTAGE MEDICAL GROUP",
    "npi": null,
    "hcaiId": "306274096",
    "businessName": "MONTAGE MEDICAL GROUP",
    "contactEmail": "JENSLEY@CDP-DOD.COM",
    "categoryName": "PRIMARY CARE CLINIC",
    "categoryCode": "COMTYC",
    "licenseStatus": "ACTIVE",
    "inService": true,
    "licenseNumber": "550001152",
    "licenseEffectiveDate": "11/30/2024",
    "licenseExpirationDate": "11/29/2025",
    "dataDate": "10/18/2025",
    "capacity": 0,
    "address": "23845 HOLMAN HWY, SUITE 203",
    "city": "MONTEREY",
    "zip": "93940",
    "county": "MONTEREY",
    "phone": "(831) 240-1915",
    "lat": 36.57647343,
    "lng": -121.9140058
  },
  {
    "id": "630017745",
    "name": "MONTAGE MEDICAL GROUP",
    "npi": "1770710709",
    "hcaiId": "306270355",
    "businessName": "MONTAGE MEDICAL GROUP",
    "contactEmail": "JENSLEY@CYPRESSHEALTHCARE.COM",
    "categoryName": "PRIMARY CARE CLINIC",
    "categoryCode": "COMTYC",
    "licenseStatus": "ACTIVE",
    "inService": true,
    "licenseNumber": "550004196",
    "licenseEffectiveDate": "03/26/2025",
    "licenseExpirationDate": "03/25/2026",
    "dataDate": "10/18/2025",
    "capacity": 0,
    "address": "2 UPPER RAGSDALE, BUILDING A",
    "city": "MONTEREY",
    "zip": "93940",
    "county": "MONTEREY",
    "phone": "(831) 718-9701",
    "lat": 36.578691,
    "lng": -121.816602
  },
  {
    "id": "630025349",
    "name": "MONTAGE MEDICAL GROUP",
    "npi": "1770710709",
    "hcaiId": null,
    "businessName": "MONTAGE MEDICAL GROUP",
    "contactEmail": null,
    "categoryName": "PRIMARY CARE CLINIC",
    "categoryCode": "COMTYC",
    "licenseStatus": "ACTIVE",
    "inService": true,
    "licenseNumber": "550001152",
    "licenseEffectiveDate": "11/30/2024",
    "licenseExpirationDate": "11/29/2025",
    "dataDate": "10/18/2025",
    "capacity": 0,
    "address": "2 UPPER RAGSDALE DR, BUILDING B230",
    "city": "MONTEREY",
    "zip": "93940",
    "county": "MONTEREY",
    "phone": null,
    "lat": 36.577863,
    "lng": -121.8144735
  },
  {
    "id": "630027129",
    "name": "MONTAGE MEDICAL GROUP",
    "npi": "1770710709",
    "hcaiId": null,
    "businessName": "MONTAGE MEDICAL GROUP",
    "contactEmail": null,
    "categoryName": "PRIMARY CARE CLINIC",
    "categoryCode": "COMTYC",
    "licenseStatus": "ACTIVE",
    "inService": true,
    "licenseNumber": "550001152",
    "licenseEffectiveDate": "11/30/2024",
    "licenseExpirationDate": "11/29/2025",
    "dataDate": "10/18/2025",
    "capacity": 0,
    "address": "23845 HOLMAN HWY, SUITE 109",
    "city": "MONTEREY",
    "zip": "93940",
    "county": "MONTEREY",
    "phone": null,
    "lat": 36.57647198,
    "lng": -121.912529
  },
  {
    "id": "630020530",
    "name": "MONTAGE MEDICAL GROUP (CARDIAC THORACIC SURGERY)",
    "npi": "1770710709",
    "hcaiId": null,
    "businessName": "MONTAGE MEDICAL GROUP",
    "contactEmail": null,
    "categoryName": "PRIMARY CARE CLINIC",
    "categoryCode": "COMTYC",
    "licenseStatus": "ACTIVE",
    "inService": true,
    "licenseNumber": "550001152",
    "licenseEffectiveDate": "11/30/2024",
    "licenseExpirationDate": "11/29/2025",
    "dataDate": "10/18/2025",
    "capacity": 0,
    "address": "23845 HOLMAN HWY, SUITE 220",
    "city": "MONTEREY",
    "zip": "93940",
    "county": "MONTEREY",
    "phone": null,
    "lat": 36.57647343,
    "lng": -121.9140058
  },
  {
    "id": "070000723",
    "name": "MONTEREY BAY ENDOSCOPY CENTER",
    "npi": "1508818634",
    "hcaiId": "306274061",
    "businessName": null,
    "contactEmail": "KRAWLI1782@AOL.COM",
    "categoryName": "SURGICAL CLINIC",
    "categoryCode": "ASC",
    "licenseStatus": "INACTIVE - CAPEN DECISION",
    "inService": false,
    "licenseNumber": "070000315",
    "licenseEffectiveDate": "11/05/2007",
    "licenseExpirationDate": "11/04/2008",
    "dataDate": "10/18/2025",
    "capacity": 0,
    "address": "23 UPPER RAGSDALE DR, SUITE 100",
    "city": "MONTEREY",
    "zip": "93940",
    "county": "MONTEREY",
    "phone": "(831) 375-3577",
    "lat": 36.575325,
    "lng": -121.808835
  },
  {
    "id": "070000215",
    "name": "MONTEREY PENINSULA SURGERY CENTER",
    "npi": "1104850312",
    "hcaiId": "306274033",
    "businessName": null,
    "contactEmail": null,
    "categoryName": "SURGICAL CLINIC",
    "categoryCode": "ASC",
    "licenseStatus": "INACTIVE - CAPEN DECISION",
    "inService": false,
    "licenseNumber": "070000398",
    "licenseEffectiveDate": "01/31/2008",
    "licenseExpirationDate": "01/30/2009",
    "dataDate": "10/18/2025",
    "capacity": 0,
    "address": "966 CASS ST, SUITE 150",
    "city": "MONTEREY",
    "zip": "93940",
    "county": "MONTEREY",
    "phone": "(831) 372-2169",
    "lat": 36.592812,
    "lng": -121.8971835
  },
  {
    "id": "070001285",
    "name": "MONTEREY PENINSULA SURGERY CENTER MUNRAS AVENUE",
    "npi": "1285872945",
    "hcaiId": "306274050",
    "businessName": null,
    "contactEmail": "SHANNON@THERUSHGROUP.COM",
    "categoryName": "SURGICAL CLINIC",
    "categoryCode": "ASC",
    "licenseStatus": "INACTIVE - CAPEN DECISION",
    "inService": false,
    "licenseNumber": "070000607",
    "licenseEffectiveDate": "01/20/2008",
    "licenseExpirationDate": "01/19/2009",
    "dataDate": "10/18/2025",
    "capacity": 0,
    "address": "665 MUNRAS AVE, SUITE 100",
    "city": "MONTEREY",
    "zip": "93940",
    "county": "MONTEREY",
    "phone": "(831) 649-9300",
    "lat": 36.595872,
    "lng": -121.892949
  },
  {
    "id": "630011320",
    "name": "MONTEREY PENINSULA SURGERY CENTER RYAN RANCH",
    "npi": "1326256058",
    "hcaiId": "306274073",
    "businessName": null,
    "contactEmail": null,
    "categoryName": "SURGICAL CLINIC",
    "categoryCode": "ASC",
    "licenseStatus": "INACTIVE - CAPEN DECISION",
    "inService": false,
    "licenseNumber": "550000547",
    "licenseEffectiveDate": "01/31/2008",
    "licenseExpirationDate": "01/30/2009",
    "dataDate": "10/18/2025",
    "capacity": 0,
    "address": "2 UPPER RAGSDALE DR, BUILDING B",
    "city": "MONTEREY",
    "zip": "93940",
    "county": "MONTEREY",
    "phone": "(831) 333-4060",
    "lat": 36.578178,
    "lng": -121.8160215
  },
  {
    "id": "070000041",
    "name": "MONTEREY POST ACUTE",
    "npi": "1912043654",
    "hcaiId": "206270756",
    "businessName": "WINDSOR MONTEREY CARE CENTER, LLC",
    "contactEmail": "ADMINISTRATOR@WINDSORMONTEREY.COM",
    "categoryName": "SKILLED NURSING FACILITY",
    "categoryCode": "SNF",
    "licenseStatus": "ACTIVE",
    "inService": true,
    "licenseNumber": "070000031",
    "licenseEffectiveDate": "09/04/2025",
    "licenseExpirationDate": "05/15/2026",
    "dataDate": "10/18/2025",
    "capacity": 78,
    "address": "1575 SKYLINE DR",
    "city": "MONTEREY",
    "zip": "93940",
    "county": "MONTEREY",
    "phone": "(831) 373-2731",
    "lat": 36.591885,
    "lng": -121.917132
  },
  {
    "id": "140001253",
    "name": "U.S. RENAL CARE MONTEREY DIALYSIS",
    "npi": "1629049333",
    "hcaiId": "306271856",
    "businessName": "MONTEREY PENINSULA DIALYSIS, LLC",
    "contactEmail": "LICENSING@USRENALCARE.COM",
    "categoryName": "CHRONIC DIALYSIS CLINIC",
    "categoryCode": "ESRD/CDC",
    "licenseStatus": "ACTIVE",
    "inService": true,
    "licenseNumber": "140000637",
    "licenseEffectiveDate": "11/22/2024",
    "licenseExpirationDate": "11/21/2025",
    "dataDate": "10/18/2025",
    "capacity": 18,
    "address": "2066 FREMONT ST",
    "city": "MONTEREY",
    "zip": "93940",
    "county": "MONTEREY",
    "phone": "(831) 655-6950",
    "lat": 36.595656,
    "lng": -121.863438
  },
  {
    "id": "630020250",
    "name": "UNIVERSAL HEALTH NET MONTEREY HOME HEALTH",
    "npi": "1447874763",
    "hcaiId": "406273129",
    "businessName": "UNIVERSAL HEALTH NET MONTEREY HOME HEALTH",
    "contactEmail": "AMENEH@UHNHEALTH.COM",
    "categoryName": "HOME HEALTH AGENCY",
    "categoryCode": "HHA",
    "licenseStatus": "ACTIVE",
    "inService": true,
    "licenseNumber": "550006186",
    "licenseEffectiveDate": "03/22/2022",
    "licenseExpirationDate": "03/21/2023",
    "dataDate": "10/18/2025",
    "capacity": 0,
    "address": "824 MUNRAS AVE, SUITE P",
    "city": "MONTEREY",
    "zip": "93940",
    "county": "MONTEREY",
    "phone": "(831) 920-3740",
    "lat": 36.5938111,
    "lng": -121.8960249
  },
  {
    "id": "630017910",
    "name": "UNIVERSAL HEALTH NET MONTEREY, INC.",
    "npi": "1811454283",
    "hcaiId": "406271945",
    "businessName": "UNIVERSAL HEALTH NET MONTEREY, INC.",
    "contactEmail": "AMENEH@UHNHEALTH.COM",
    "categoryName": "HOSPICE",
    "categoryCode": "HOSPICE",
    "licenseStatus": "ACTIVE",
    "inService": true,
    "licenseNumber": "550004978",
    "licenseEffectiveDate": "10/16/2025",
    "licenseExpirationDate": "10/15/2027",
    "dataDate": "10/18/2025",
    "capacity": 0,
    "address": "824 MUNRAS AVE, SUITE C",
    "city": "MONTEREY",
    "zip": "93940",
    "county": "MONTEREY",
    "phone": "(831) 920-3740",
    "lat": 36.593811,
    "lng": -121.8937725
  },
  {
    "id": "070000062",
    "name": "WESTLAND HOUSE",
    "npi": null,
    "hcaiId": "206274027",
    "businessName": "COMMUNITY HOSPITAL OF THE MONTEREY PENINSULA",
    "contactEmail": "ANDREA.FERNANDEZ@CHOMP.ORG",
    "categoryName": "SKILLED NURSING FACILITY",
    "categoryCode": "SNF",
    "licenseStatus": "ACTIVE",
    "inService": true,
    "licenseNumber": "070000026",
    "licenseEffectiveDate": "12/01/2024",
    "licenseExpirationDate": "11/30/2025",
    "dataDate": "10/18/2025",
    "capacity": 28,
    "address": "100 BARNET SEGAL LN",
    "city": "MONTEREY",
    "zip": "93940",
    "county": "MONTEREY",
    "phone": "(831) 658-3737",
    "lat": 36.581166,
    "lng": -121.8857895
  }
]