[
  {
    "id": "070000565",
    "name": "BLIND AND VISUALLY IMPAIRED CTR OF MONTEREY COUNTY",
    "npi": "1194743054",
    "hcaiId": "306274001",
    "businessName": "BLIND AND VISUALLY IMPAIRED CENTER OF MONTEREY COUNTY",
    "contactEmail": "VISION@BLINDANDLOWVISION.ORG",
    "categoryName": "PRIMARY CARE CLINIC",
    "categoryCode": "COMTYC",
    "licenseStatus": "ACTIVE",
    "inService": true,
    "licenseNumber": "070000255",
    "licenseEffectiveDate": "11/14/2024",
    "licenseExpirationDate": "11/13/2025",
    "dataDate": "10/18/2025",
    "capacity": 0,
    "address": "225 LAUREL AVE",
    "city": "PACIFIC GROVE",
    "zip": "93950",
    "county": "MONTEREY",
    "phone": "(831) 649-3505",
    "lat": 36.61704,
    "lng": -121.909284
  },
  {
    "id": "070000032",
    "name": "CANTERBURY WOODS",
    "npi": "1255108749",
    "hcaiId": "206270732",
    "businessName": "FRONT PORCH COMMUNITIES AND SERVICES",
    "contactEmail": "RBANNER@FRONTPORCH.NET",
    "categoryName": "SKILLED NURSING FACILITY",
    "categoryCode": "SNF",
    "licenseStatus": "ACTIVE",
    "inService": true,
    "licenseNumber": "070000021",
    "licenseEffectiveDate": "03/01/2025",
    "licenseExpirationDate": "02/28/2026",
    "dataDate": "10/18/2025",
    "capacity": 24,
    "address": "651 SINEX AVE",
    "city": "PACIFIC GROVE",
    "zip": "93950",
    "county": "MONTEREY",
    "phone": "(831) 657-4201",
    "lat": 36.615267,
    "lng": -121.9217985
  },
  {
    "id": "630013478",
    "name": "CASTLEWOOD AT MONARCH COVE",
    "npi": null,
    "hcaiId": "206274088",
    "businessName": "CASTLEWOOD WEST, L.L.C.",
    "contactEmail": "ALEXANDER.BETETTA@ALSANA.COM",
    "categoryName": "CONGREGATE LIVING HEALTH FACILITY",
    "categoryCode": "CLHF",
    "licenseStatus": "ACTIVE",
    "inService": true,
    "licenseNumber": "550002175",
    "licenseEffectiveDate": "01/16/2025",
    "licenseExpirationDate": "01/15/2026",
    "dataDate": "10/18/2025",
    "capacity": 12,
    "address": "213 17 MILE DR",
    "city": "PACIFIC GROVE",
    "zip": "93950",
    "county": "MONTEREY",
    "phone": "(805) 273-5217",
    "lat": 36.625608,
    "lng": -121.927581
  },
  {
    "id": "630012059",
    "name": "FOREST HILL MANOR HEALTH CENTER",
    "npi": "1477298107",
    "hcaiId": "206274055",
    "businessName": "551 GIBSON AVE SNF LLC",
    "contactEmail": "RYAN.TAYLOR@BUENAVISTAHC.COM",
    "categoryName": "SKILLED NURSING FACILITY",
    "categoryCode": "SNF",
    "licenseStatus": "ACTIVE",
    "inService": true,
    "licenseNumber": "550001102",
    "licenseEffectiveDate": "01/16/2025",
    "licenseExpirationDate": "01/15/2026",
    "dataDate": "10/18/2025",
    "capacity": 26,
    "address": "551 GIBSON AVE",
    "city": "PACIFIC GROVE",
    "zip": "93950",
    "county": "MONTEREY",
    "phone": "(831) 646-6495",
    "lat": 36.61573166,
    "lng": -121.9192386
  },
  {
    "id": "630012933",
    "name": "GATEWAY CENTER ICF1",
    "npi": "1457652885",
    "hcaiId": null,
    "businessName": "GATEWAY CENTER OF MONTEREY COUNTY, INC.",
    "contactEmail": "JELLIS@GATEWAYCENTER.ORG",
    "categoryName": "INTERMEDIATE CARE FACILITY-DD/H/N/CN/IID",
    "categoryCode": "ICFDDH",
    "licenseStatus": "ACTIVE",
    "inService": true,
    "licenseNumber": "550001545",
    "licenseEffectiveDate": "04/28/2025",
    "licenseExpirationDate": "04/27/2026",
    "dataDate": "10/18/2025",
    "capacity": 15,
    "address": "854 CONGRESS AVE",
    "city": "PACIFIC GROVE",
    "zip": "93950",
    "county": "MONTEREY",
    "phone": "(831) 372-8002",
    "lat": 36.61422421,
    "lng": -121.9251529
  },
  {
    "id": "630016694",
    "name": "GATEWAY CENTER ICF2",
    "npi": "1003262239",
    "hcaiId": null,
    "businessName": "GATEWAY CENTER OF MONTEREY COUNTY, INC.",
    "contactEmail": "JIVEY@GATEWAYCENTER.ORG",
    "categoryName": "INTERMEDIATE CARE FACILITY-DD/H/N/CN/IID",
    "categoryCode": "ICFDDH",
    "licenseStatus": "ACTIVE",
    "inService": true,
    "licenseNumber": "550003960",
    "licenseEffectiveDate": "09/29/2025",
    "licenseExpirationDate": "09/28/2026",
    "dataDate": "10/18/2025",
    "capacity": 15,
    "address": "840 CONGRESS AVE",
    "city": "PACIFIC GROVE",
    "zip": "93950",
    "county": "MONTEREY",
    "phone": "(831) 372-8002",
    "lat": 36.614709,
    "lng": -121.924746
  },
  {
    "id": "070000078",
    "name": "OCEANVIEW POST ACUTE",
    "npi": "1881152031",
    "hcaiId": "206270842",
    "businessName": "200 LIGHTHOUSE, LLC",
    "contactEmail": "RYAN.TAYLOR@FORESTHILLMANOR.COM",
    "categoryName": "SKILLED NURSING FACILITY",
    "categoryCode": "SNF",
    "licenseStatus": "ACTIVE",
    "inService": true,
    "licenseNumber": "070000075",
    "licenseEffectiveDate": "01/08/2025",
    "licenseExpirationDate": "11/26/2025",
    "dataDate": "10/18/2025",
    "capacity": 51,
    "address": "200 LIGHTHOUSE AVE",
    "city": "PACIFIC GROVE",
    "zip": "93950",
    "county": "MONTEREY",
    "phone": "(831) 375-2695",
    "lat": 36.61884,
    "lng": -121.9081005
  }
]