[
  {
    "id": "070000184",
    "name": "PLANNED PARENTHOOD MAR MONTE - SEASIDE HEALTH CENTER",
    "npi": null,
    "hcaiId": "306271845",
    "businessName": "PLANNED PARENTHOOD MAR MONTE, INC.",
    "contactEmail": "SERVICESAD@PPMARMONTE.ORG",
    "categoryName": "PRIMARY CARE CLINIC",
    "categoryCode": "COMTYC",
    "licenseStatus": "ACTIVE",
    "inService": true,
    "licenseNumber": "070000157",
    "licenseEffectiveDate": "11/01/2025",
    "licenseExpirationDate": "10/31/2026",
    "dataDate": "10/18/2025",
    "capacity": 0,
    "address": "625 HILBY AVE",
    "city": "SEASIDE",
    "zip": "93955",
    "county": "MONTEREY",
    "phone": "(408) 795-3695",
    "lat": 36.602721,
    "lng": -121.8496185
  },
  {
    "id": "630026130",
    "name": "ROTACARE MONTEREY",
    "npi": null,
    "hcaiId": null,
    "businessName": "ROTACARE BAY AREA, INC.",
    "contactEmail": "MONTEREYCLINIC@ROTACAREBAYAREA.ORG",
    "categoryName": "PRIMARY CARE CLINIC",
    "categoryCode": "FREEC",
    "licenseStatus": "ACTIVE",
    "inService": true,
    "licenseNumber": "550006678",
    "licenseEffectiveDate": "07/20/2025",
    "licenseExpirationDate": "07/19/2026",
    "dataDate": "10/18/2025",
    "capacity": 0,
    "address": "1156 FREMONT BLVD",
    "city": "SEASIDE",
    "zip": "93955",
    "county": "MONTEREY",
    "phone": "(831) 333-6495",
    "lat": 36.60189747,
    "lng": -121.8489309
  },
  {
    "id": "070000857",
    "name": "THE SEASIDE FAMILY HEALTH CENTER",
    "npi": null,
    "hcaiId": null,
    "businessName": null,
    "contactEmail": "VASQUEZD2@COUNTYOFMONTEREY.GOV",
    "categoryName": "PRIMARY CARE CLINIC",
    "categoryCode": "FQHC/COMTYC",
    "licenseStatus": null,
    "inService": null,
    "licenseNumber": null,
    "licenseEffectiveDate": null,
    "licenseExpirationDate": null,
    "dataDate": "10/18/2025",
    "capacity": 0,
    "address": "1150 FREMONT BLVD, SUITE 1154",
    "city": "SEASIDE",
    "zip": "93955",
    "county": "MONTEREY",
    "phone": "(831) 899-8100",
    "lat": 36.60169714,
    "lng": -121.8490119
  }
]