[
  {
    "id": "070000680",
    "name": "CLINICA DE SALUD DEL VALLE DE SALINAS-SOLEDAD",
    "npi": "1053452136",
    "hcaiId": "306274007",
    "businessName": "CLINICA DE SALUD DEL VALLE DE SALINAS",
    "contactEmail": "QA@CSVS.ORG",
    "categoryName": "PRIMARY CARE CLINIC",
    "categoryCode": "COMTYC",
    "licenseStatus": "ACTIVE",
    "inService": true,
    "licenseNumber": "070000277",
    "licenseEffectiveDate": "03/26/2025",
    "licenseExpirationDate": "03/25/2026",
    "dataDate": "10/18/2025",
    "capacity": 0,
    "address": "799 FRONT ST",
    "city": "SOLEDAD",
    "zip": "93960",
    "county": "MONTEREY",
    "phone": "(831) 757-8689",
    "lat": 36.425304,
    "lng": -121.3261065
  },
  {
    "id": "070000780",
    "name": "EDEN VALLEY CARE CENTER",
    "npi": "1169594867",
    "hcaiId": "206274018",
    "businessName": "SOLEDAD COMMUNITY HEALTH CARE DISTRICT",
    "contactEmail": "BWEAVER@SCHCD.COM",
    "categoryName": "SKILLED NURSING FACILITY",
    "categoryCode": "SNF",
    "licenseStatus": "ACTIVE",
    "inService": true,
    "licenseNumber": "070000327",
    "licenseEffectiveDate": "06/04/2025",
    "licenseExpirationDate": "06/03/2026",
    "dataDate": "10/18/2025",
    "capacity": 59,
    "address": "612 MAIN ST",
    "city": "SOLEDAD",
    "zip": "93960",
    "county": "MONTEREY",
    "phone": "(831) 678-2462",
    "lat": 36.43318312,
    "lng": -121.3242541
  },
  {
    "id": "170001892",
    "name": "SALINAS VALLEY CORRECTIONAL TREATMENT CENTER",
    "npi": null,
    "hcaiId": null,
    "businessName": "CA DEPARTMENT OF CORRECTIONS AND REHABILITATION",
    "contactEmail": "RACHELLE.NUNEZ@CDCR.CA.GOV",
    "categoryName": "CORRECTIONAL TREATMENT CENTER",
    "categoryCode": "CTC",
    "licenseStatus": "ACTIVE",
    "inService": true,
    "licenseNumber": "170000844",
    "licenseEffectiveDate": "10/16/2025",
    "licenseExpirationDate": "01/28/2026",
    "dataDate": "10/18/2025",
    "capacity": 148,
    "address": "31625 HIGHWAY 101 S",
    "city": "SOLEDAD",
    "zip": "93960",
    "county": "MONTEREY",
    "phone": "(831) 678-5500",
    "lat": 36.470853,
    "lng": -121.376772
  },
  {
    "id": "140001290",
    "name": "SOLEDAD DIALYSIS CENTER",
    "npi": "1558324665",
    "hcaiId": "306274054",
    "businessName": "SOLEDAD DIALYSIS CENTER, LLC",
    "contactEmail": "CAL_C@DAVITA.COM",
    "categoryName": "CHRONIC DIALYSIS CLINIC",
    "categoryCode": "ESRD/CDC",
    "licenseStatus": "ACTIVE",
    "inService": true,
    "licenseNumber": "140000657",
    "licenseEffectiveDate": "07/15/2025",
    "licenseExpirationDate": "11/20/2025",
    "dataDate": "10/18/2025",
    "capacity": 25,
    "address": "471 NESTLES RD",
    "city": "SOLEDAD",
    "zip": "93960",
    "county": "MONTEREY",
    "phone": "(831) 744-3387",
    "lat": 36.41650446,
    "lng": -121.3193904
  },
  {
    "id": "070000910",
    "name": "SOLEDAD MEDICAL CLINIC",
    "npi": "1003822453",
    "hcaiId": null,
    "businessName": null,
    "contactEmail": null,
    "categoryName": "PRIMARY CARE CLINIC",
    "categoryCode": "RHC",
    "licenseStatus": null,
    "inService": null,
    "licenseNumber": null,
    "licenseEffectiveDate": null,
    "licenseExpirationDate": null,
    "dataDate": "10/18/2025",
    "capacity": 0,
    "address": "600 MAIN ST",
    "city": "SOLEDAD",
    "zip": "93960",
    "county": "MONTEREY",
    "phone": "(831) 678-2665",
    "lat": 36.43292013,
    "lng": -121.3243368
  }
]