[
  {
    "id": "630015817",
    "name": "21ST CENTURY HOME HEALTH SERVICES INC.",
    "npi": "1184013369",
    "hcaiId": "406384236",
    "businessName": "21ST CENTURY HOME HEALTH SERVICES INC.",
    "contactEmail": "AHMED@21HHS.COM",
    "categoryName": "HOME HEALTH AGENCY",
    "categoryCode": "HHA",
    "licenseStatus": "ACTIVE",
    "inService": true,
    "licenseNumber": "550003353",
    "licenseEffectiveDate": "09/04/2025",
    "licenseExpirationDate": "01/19/2026",
    "dataDate": "10/18/2025",
    "capacity": 0,
    "address": "1575 OLD BAYSHORE HWY, SUITE 300",
    "city": "BURLINGAME",
    "zip": "94010",
    "county": "SAN MATEO",
    "phone": "(415) 801-2651",
    "lat": 37.59893982,
    "lng": -122.3673675
  },
  {
    "id": "630017656",
    "name": "ABL HEALTH CARE",
    "npi": "1134644073",
    "hcaiId": "406414143",
    "businessName": "ABL HEALTH CARE, LLC",
    "contactEmail": "INFO@ABLHEALTHCARE.COM",
    "categoryName": "HOME HEALTH AGENCY",
    "categoryCode": "HHA",
    "licenseStatus": "ACTIVE",
    "inService": true,
    "licenseNumber": "550005098",
    "licenseEffectiveDate": "07/18/2025",
    "licenseExpirationDate": "11/18/2025",
    "dataDate": "10/18/2025",
    "capacity": 0,
    "address": "1601 BAYSHORE HWY, SUITE 258",
    "city": "BURLINGAME",
    "zip": "94010",
    "county": "SAN MATEO",
    "phone": "(650) 257-0559",
    "lat": 37.59910398,
    "lng": -122.368215
  },
  {
    "id": "220000132",
    "name": "AMEDISYS HOME HEALTH CARE",
    "npi": "1750335824",
    "hcaiId": "406414049",
    "businessName": "TENDER LOVING CARE HEALTH CARE SERVICES WESTERN, LLC",
    "contactEmail": "3501@AMEDISYS.COM",
    "categoryName": "HOME HEALTH AGENCY",
    "categoryCode": "HHA",
    "licenseStatus": "ACTIVE",
    "inService": true,
    "licenseNumber": "220000139",
    "licenseEffectiveDate": "02/14/2025",
    "licenseExpirationDate": "02/13/2026",
    "dataDate": "10/18/2025",
    "capacity": 0,
    "address": "1350 BAYSHORE HWY, SUITE 777",
    "city": "BURLINGAME",
    "zip": "94010",
    "county": "SAN MATEO",
    "phone": "(650) 344-4020",
    "lat": 37.594719,
    "lng": -122.363901
  },
  {
    "id": "220001199",
    "name": "AMERICAN CAREQUEST",
    "npi": "1417058397",
    "hcaiId": "406412068",
    "businessName": "AMERICAN CAREQUEST, INC.",
    "contactEmail": "CARE@AMERICANCAREQUEST.COM",
    "categoryName": "HOME HEALTH AGENCY",
    "categoryCode": "HHA",
    "licenseStatus": "ACTIVE",
    "inService": true,
    "licenseNumber": "220000497",
    "licenseEffectiveDate": "11/22/2024",
    "licenseExpirationDate": "11/21/2025",
    "dataDate": "10/18/2025",
    "capacity": 0,
    "address": "819 COWAN RD, SUITE C-1",
    "city": "BURLINGAME",
    "zip": "94010",
    "county": "SAN MATEO",
    "phone": "(415) 885-9100",
    "lat": 37.602405,
    "lng": -122.3741745
  },
  {
    "id": "630011781",
    "name": "AMERICAN CAREQUEST HOSPICE",
    "npi": "1497911630",
    "hcaiId": "406384204",
    "businessName": "AMERICAN CAREQUEST, INC.",
    "contactEmail": "HOSPICE@AMERICANCAREQUEST.COM",
    "categoryName": "HOSPICE",
    "categoryCode": "HOSPICE",
    "licenseStatus": "ACTIVE",
    "inService": true,
    "licenseNumber": "550000843",
    "licenseEffectiveDate": "12/30/2024",
    "licenseExpirationDate": "12/29/2026",
    "dataDate": "10/18/2025",
    "capacity": 0,
    "address": "819 COWAN RD, SUITE C-2",
    "city": "BURLINGAME",
    "zip": "94010",
    "county": "SAN MATEO",
    "phone": "(415) 885-9100",
    "lat": 37.602405,
    "lng": -122.3741745
  },
  {
    "id": "630012029",
    "name": "ANX HOME HEALTHCARE",
    "npi": "1073769543",
    "hcaiId": "406414108",
    "businessName": "ANX HOME HEALTHCARE",
    "contactEmail": "THOMAS_ROCAS@YAHOO.COM",
    "categoryName": "HOME HEALTH AGENCY",
    "categoryCode": "HHA",
    "licenseStatus": "ACTIVE",
    "inService": true,
    "licenseNumber": "550000921",
    "licenseEffectiveDate": "03/11/2025",
    "licenseExpirationDate": "03/10/2026",
    "dataDate": "10/18/2025",
    "capacity": 0,
    "address": "1633 BAYSHORE HWY, SUITE 234",
    "city": "BURLINGAME",
    "zip": "94010",
    "county": "SAN MATEO",
    "phone": "(650) 991-5177",
    "lat": 37.59939399,
    "lng": -122.369489
  },
  {
    "id": "630016566",
    "name": "ANX HOSPICE CARE",
    "npi": "1467839936",
    "hcaiId": "406414165",
    "businessName": "ANX HOSPICE CARE NURSING INC.",
    "contactEmail": "THOMASROCAS@ANXLIFE.COM",
    "categoryName": "HOSPICE",
    "categoryCode": "HOSPICE",
    "licenseStatus": "ACTIVE",
    "inService": true,
    "licenseNumber": "550003932",
    "licenseEffectiveDate": "06/06/2025",
    "licenseExpirationDate": "06/05/2027",
    "dataDate": "10/18/2025",
    "capacity": 0,
    "address": "1633 BAYSHORE HWY, SUITE 236",
    "city": "BURLINGAME",
    "zip": "94010",
    "county": "SAN MATEO",
    "phone": "(650) 991-1106",
    "lat": 37.59939399,
    "lng": -122.369489
  },
  {
    "id": "630027197",
    "name": "BURLINGAME ADULT DAY HEALTH CARE CENTER",
    "npi": null,
    "hcaiId": null,
    "businessName": "WILSHIRE HEALTHCARE MANAGEMENT AND INVESTMENT, INC.",
    "contactEmail": "BURLINGAMEADHC@GMAIL.COM",
    "categoryName": "ADULT DAY HEALTH CARE",
    "categoryCode": "ADHC",
    "licenseStatus": "ACTIVE",
    "inService": true,
    "licenseNumber": "550008844",
    "licenseEffectiveDate": "12/11/2024",
    "licenseExpirationDate": "12/10/2025",
    "dataDate": "10/18/2025",
    "capacity": 0,
    "address": "1720 EL CAMINO REAL, SUITE 2 & 7",
    "city": "BURLINGAME",
    "zip": "94010",
    "county": "SAN MATEO",
    "phone": "(650) 239-9322",
    "lat": 37.59389199,
    "lng": -122.380675
  },
  {
    "id": "220000042",
    "name": "BURLINGAME SKILLED NURSING D/P SNF",
    "npi": "1386713030",
    "hcaiId": "206413500",
    "businessName": "COUNTY OF SAN MATEO",
    "contactEmail": null,
    "categoryName": "SKILLED NURSING FACILITY",
    "categoryCode": "SNF",
    "licenseStatus": "ACTIVE",
    "inService": true,
    "licenseNumber": "220000015",
    "licenseEffectiveDate": "02/01/2025",
    "licenseExpirationDate": "01/31/2026",
    "dataDate": "10/18/2025",
    "capacity": 281,
    "address": "1100 TROUSDALE DR",
    "city": "BURLINGAME",
    "zip": "94010",
    "county": "SAN MATEO",
    "phone": "(650) 692-3758",
    "lat": 37.595502,
    "lng": -122.3827875
  },
  {
    "id": "630011601",
    "name": "CARELINK HOME HEALTH AGENCY LLC",
    "npi": "1396900726",
    "hcaiId": "406414105",
    "businessName": "CARELINK HOME HEALTH AGENCY LLC",
    "contactEmail": "CARELINK@HHRGCONNECT.COM",
    "categoryName": "HOME HEALTH AGENCY",
    "categoryCode": "HHA",
    "licenseStatus": "ACTIVE",
    "inService": true,
    "licenseNumber": "550000756",
    "licenseEffectiveDate": "05/25/2024",
    "licenseExpirationDate": "05/24/2025",
    "dataDate": "10/18/2025",
    "capacity": 0,
    "address": "851 BURLWAY RD, SUITE 502",
    "city": "BURLINGAME",
    "zip": "94010",
    "county": "SAN MATEO",
    "phone": "(650) 375-8223",
    "lat": 37.595079,
    "lng": -122.3663445
  },
  {
    "id": "630015173",
    "name": "ELITE CARE HOME HEALTH AGENCY, INC.",
    "npi": "1548673411",
    "hcaiId": "406414150",
    "businessName": "ELITE CARE HOME HEALTH AGENCY, INC.",
    "contactEmail": "KATHLEENYIP@ELITE-CARE.NET",
    "categoryName": "HOME HEALTH AGENCY",
    "categoryCode": "HHA",
    "licenseStatus": "ACTIVE",
    "inService": true,
    "licenseNumber": "550003177",
    "licenseEffectiveDate": "08/06/2025",
    "licenseExpirationDate": "08/05/2026",
    "dataDate": "10/18/2025",
    "capacity": 0,
    "address": "533 AIRPORT BLVD, SUITE 315",
    "city": "BURLINGAME",
    "zip": "94010",
    "county": "SAN MATEO",
    "phone": "(650) 273-1184",
    "lat": 37.589931,
    "lng": -122.3406135
  },
  {
    "id": "630018461",
    "name": "HEALTHFLEX HOME HEALTH SERVICES",
    "npi": "1326399296",
    "hcaiId": "406412141",
    "businessName": "HEALTHFLEX HOME HEALTH SERVICES",
    "contactEmail": "HEALTHFLEX@HOTMAIL.COM",
    "categoryName": "HOME HEALTH AGENCY",
    "categoryCode": "HHA",
    "licenseStatus": "ACTIVE",
    "inService": true,
    "licenseNumber": "550002283",
    "licenseEffectiveDate": "05/29/2025",
    "licenseExpirationDate": "05/28/2026",
    "dataDate": "10/18/2025",
    "capacity": 0,
    "address": "1633 BAYSHORE HWY, SUITE 310",
    "city": "BURLINGAME",
    "zip": "94010",
    "county": "SAN MATEO",
    "phone": "(650) 238-9218",
    "lat": 37.599435,
    "lng": -122.3695395
  },
  {
    "id": "630014433",
    "name": "HELPING HANDS HOME HEALTH CARE & HOSPICE, INC.",
    "npi": "1003252206",
    "hcaiId": "406414136",
    "businessName": "HELPING HANDS HOME HEALTH CARE & HOSPICE, INC.",
    "contactEmail": "INFO@HELPINGHANDSHEALTHCARE.NET",
    "categoryName": "HOME HEALTH AGENCY",
    "categoryCode": "HHA",
    "licenseStatus": "ACTIVE",
    "inService": true,
    "licenseNumber": "550002648",
    "licenseEffectiveDate": "04/09/2025",
    "licenseExpirationDate": "04/08/2026",
    "dataDate": "10/18/2025",
    "capacity": 0,
    "address": "851 BURLWAY RD, SUITE 408",
    "city": "BURLINGAME",
    "zip": "94010",
    "county": "SAN MATEO",
    "phone": "(650) 286-9000",
    "lat": 37.59515502,
    "lng": -122.366081
  },
  {
    "id": "630014455",
    "name": "HELPING HANDS HOME HEALTH CARE AND HOSPICE, INC.",
    "npi": null,
    "hcaiId": "406414135",
    "businessName": "HELPING HANDS HOME HEALTH CARE & HOSPICE, INC.",
    "contactEmail": "HELPINGHANDS@HHRGCONNECT.COM",
    "categoryName": "HOSPICE",
    "categoryCode": "HOSPICE",
    "licenseStatus": "ACTIVE",
    "inService": true,
    "licenseNumber": "550002649",
    "licenseEffectiveDate": "04/09/2024",
    "licenseExpirationDate": "04/08/2026",
    "dataDate": "10/18/2025",
    "capacity": 0,
    "address": "851 BURLWAY RD, SUITE 400",
    "city": "BURLINGAME",
    "zip": "94010",
    "county": "SAN MATEO",
    "phone": "(650) 286-9008",
    "lat": 37.59515502,
    "lng": -122.366081
  },
  {
    "id": "630018023",
    "name": "MEDVISTA HEALTHCARE, INC.",
    "npi": "1164937165",
    "hcaiId": "406415920",
    "businessName": "MEDVISTA HEALTHCARE, INC.",
    "contactEmail": "INFO@MEDVISTAHEALTHCARE.COM",
    "categoryName": "HOSPICE",
    "categoryCode": "HOSPICE",
    "licenseStatus": "ACTIVE",
    "inService": true,
    "licenseNumber": "550004948",
    "licenseEffectiveDate": "09/12/2025",
    "licenseExpirationDate": "09/11/2027",
    "dataDate": "10/18/2025",
    "capacity": 0,
    "address": "25 EDWARDS CT, SUITE 206",
    "city": "BURLINGAME",
    "zip": "94010",
    "county": "SAN MATEO",
    "phone": "(510) 398-8688",
    "lat": 37.592325,
    "lng": -122.367663
  },
  {
    "id": "220000922",
    "name": "MID PENINSULA ENDOSCOPY CENTER",
    "npi": "1548583651",
    "hcaiId": "306414063",
    "businessName": null,
    "contactEmail": "GERONIMO.JIMENEZ@SUTTERHEALTH.ORG",
    "categoryName": "SURGICAL CLINIC",
    "categoryCode": "ASC",
    "licenseStatus": "INACTIVE - CAPEN DECISION",
    "inService": false,
    "licenseNumber": "220000361",
    "licenseEffectiveDate": "12/13/2007",
    "licenseExpirationDate": "12/12/2008",
    "dataDate": "10/18/2025",
    "capacity": 0,
    "address": "1720 EL CAMINO REAL, SUITE 100",
    "city": "BURLINGAME",
    "zip": "94010",
    "county": "SAN MATEO",
    "phone": "(650) 373-1970",
    "lat": 37.593945,
    "lng": -122.380632
  },
  {
    "id": "220000017",
    "name": "MILLS-PENINSULA MEDICAL CENTER",
    "npi": "1043670334",
    "hcaiId": "106410852",
    "businessName": "SUTTER BAY HOSPITALS",
    "contactEmail": "JILL.FOXE@SUTTERHEALTH.ORG",
    "categoryName": "GENERAL ACUTE CARE HOSPITAL",
    "categoryCode": "GACH",
    "licenseStatus": "ACTIVE",
    "inService": true,
    "licenseNumber": "220000037",
    "licenseEffectiveDate": "08/01/2025",
    "licenseExpirationDate": "07/31/2026",
    "dataDate": "10/18/2025",
    "capacity": 241,
    "address": "1501 TROUSDALE DR",
    "city": "BURLINGAME",
    "zip": "94010",
    "county": "SAN MATEO",
    "phone": "(650) 696-5274",
    "lat": 37.59282,
    "lng": -122.3825355
  },
  {
    "id": "220000061",
    "name": "PENINSULA POST-ACUTE",
    "npi": "1396143962",
    "hcaiId": "206410787",
    "businessName": "PEAR HOLDINGS, LLC",
    "contactEmail": "CHARLIE.TREANOR@SANBRUNOHC.COM",
    "categoryName": "SKILLED NURSING FACILITY",
    "categoryCode": "SNF",
    "licenseStatus": "ACTIVE",
    "inService": true,
    "licenseNumber": "220000017",
    "licenseEffectiveDate": "06/30/2025",
    "licenseExpirationDate": "06/29/2026",
    "dataDate": "10/18/2025",
    "capacity": 62,
    "address": "1609 TROUSDALE DR",
    "city": "BURLINGAME",
    "zip": "94010",
    "county": "SAN MATEO",
    "phone": "(650) 652-3969",
    "lat": 37.592775,
    "lng": -122.384592
  },
  {
    "id": "630028050",
    "name": "SERENITY HOSPICE CARE INC",
    "npi": null,
    "hcaiId": null,
    "businessName": "SERENITY HOSPICE CARE INC",
    "contactEmail": "INFO@SERENITYHOSPICECA.COM",
    "categoryName": "HOSPICE",
    "categoryCode": "HOSPICE",
    "licenseStatus": "ACTIVE",
    "inService": true,
    "licenseNumber": "550010004",
    "licenseEffectiveDate": "10/30/2025",
    "licenseExpirationDate": "10/29/2027",
    "dataDate": "10/18/2025",
    "capacity": 0,
    "address": "1633 BAYSHORE HWY, SUITE 335",
    "city": "BURLINGAME",
    "zip": "94010",
    "county": "SAN MATEO",
    "phone": "(650) 759-1089",
    "lat": 37.59939,
    "lng": -122.36949
  },
  {
    "id": "630013239",
    "name": "SOAR SURGERY CENTER, LLC",
    "npi": "1790005304",
    "hcaiId": null,
    "businessName": null,
    "contactEmail": "BARBFSC@GMAIL.COM",
    "categoryName": "SURGICAL CLINIC",
    "categoryCode": "ASC",
    "licenseStatus": null,
    "inService": null,
    "licenseNumber": null,
    "licenseEffectiveDate": null,
    "licenseExpirationDate": null,
    "dataDate": "10/18/2025",
    "capacity": 0,
    "address": "1849 BAYSHORE HWY, 3RD FLOOR",
    "city": "BURLINGAME",
    "zip": "94010",
    "county": "SAN MATEO",
    "phone": "(650) 539-6000",
    "lat": 37.603089,
    "lng": -122.3746335
  }
]