[
  {
    "id": "220000026",
    "name": "AHMC SETON MEDICAL CENTER",
    "npi": "1023636545",
    "hcaiId": "106410817",
    "businessName": "AHMC SETON MEDICAL CENTER LLC",
    "contactEmail": "SARKIS.VARTANIAN@AHMCHEALTH.COM",
    "categoryName": "GENERAL ACUTE CARE HOSPITAL",
    "categoryCode": "GACH",
    "licenseStatus": "ACTIVE",
    "inService": true,
    "licenseNumber": "220000026",
    "licenseEffectiveDate": "05/16/2025",
    "licenseExpirationDate": "12/31/2025",
    "dataDate": "10/18/2025",
    "capacity": 162,
    "address": "1900 SULLIVAN AVE",
    "city": "DALY CITY",
    "zip": "94015",
    "county": "SAN MATEO",
    "phone": "(650) 991-6491",
    "lat": 37.680354,
    "lng": -122.474961
  },
  {
    "id": "220000416",
    "name": "AHMC SETON MEDICAL CENTER",
    "npi": "1386252112",
    "hcaiId": null,
    "businessName": "AHMC SETON MEDICAL CENTER LLC",
    "contactEmail": "SARKIS.VARTANIAN@AHMCHEALTH.COM",
    "categoryName": "SKILLED NURSING FACILITY",
    "categoryCode": "SNF",
    "licenseStatus": "ACTIVE",
    "inService": true,
    "licenseNumber": "220000026",
    "licenseEffectiveDate": "05/16/2025",
    "licenseExpirationDate": "12/31/2025",
    "dataDate": "10/18/2025",
    "capacity": 70,
    "address": "1900 SULLIVAN AVE",
    "city": "DALY CITY",
    "zip": "94015",
    "county": "SAN MATEO",
    "phone": "(650) 992-4000",
    "lat": 37.680354,
    "lng": -122.474961
  },
  {
    "id": "220000415",
    "name": "AHMC SETON MEDICAL CENTER D/P APH",
    "npi": "1023636545",
    "hcaiId": null,
    "businessName": "AHMC SETON MEDICAL CENTER LLC",
    "contactEmail": null,
    "categoryName": "ACUTE PSYCHIATRIC HOSPITAL",
    "categoryCode": "APH",
    "licenseStatus": "ACTIVE",
    "inService": true,
    "licenseNumber": "220000026",
    "licenseEffectiveDate": "05/16/2025",
    "licenseExpirationDate": "12/31/2025",
    "dataDate": "10/18/2025",
    "capacity": 24,
    "address": "1900 SULLIVAN AVE",
    "city": "DALY CITY",
    "zip": "94015",
    "county": "SAN MATEO",
    "phone": "(650) 992-4000",
    "lat": 37.680354,
    "lng": -122.474961
  },
  {
    "id": "220000626",
    "name": "CAMPUS SURGERY CENTER LP",
    "npi": "1063427557",
    "hcaiId": "306414009",
    "businessName": null,
    "contactEmail": "CWILSON@E3HEALTHCARE.COM",
    "categoryName": "SURGICAL CLINIC",
    "categoryCode": "ASC",
    "licenseStatus": "INACTIVE - CAPEN DECISION",
    "inService": false,
    "licenseNumber": "220000254",
    "licenseEffectiveDate": "10/02/2007",
    "licenseExpirationDate": "11/01/2008",
    "dataDate": "10/18/2025",
    "capacity": 0,
    "address": "901 CAMPUS DR, SUITE 102",
    "city": "DALY CITY",
    "zip": "94015",
    "county": "SAN MATEO",
    "phone": "(650) 991-2000",
    "lat": 37.66554,
    "lng": -122.475861
  },
  {
    "id": "630016496",
    "name": "CHINESE HOSPITAL GELLERT HEALTH SERVICES",
    "npi": null,
    "hcaiId": "306414155",
    "businessName": "CHINESE HOSPITAL ASSOCIATION",
    "contactEmail": "JIAMIW@CHASF.ORG",
    "categoryName": "PRIMARY CARE CLINIC",
    "categoryCode": "COMTYC",
    "licenseStatus": "ACTIVE",
    "inService": true,
    "licenseNumber": "550003393",
    "licenseEffectiveDate": "02/10/2025",
    "licenseExpirationDate": "02/09/2026",
    "dataDate": "10/18/2025",
    "capacity": 0,
    "address": "386 GELLERT BLVD., SUITE B, C & D",
    "city": "DALY CITY",
    "zip": "94015",
    "county": "SAN MATEO",
    "phone": "(650) 761-3500",
    "lat": 37.665369,
    "lng": -122.469354
  },
  {
    "id": "630017132",
    "name": "DALY CITY CLINIC",
    "npi": null,
    "hcaiId": null,
    "businessName": null,
    "contactEmail": null,
    "categoryName": "PRIMARY CARE CLINIC",
    "categoryCode": "FQHC",
    "licenseStatus": null,
    "inService": null,
    "licenseNumber": null,
    "licenseEffectiveDate": null,
    "licenseExpirationDate": null,
    "dataDate": "10/18/2025",
    "capacity": 0,
    "address": "380 90TH ST",
    "city": "DALY CITY",
    "zip": "94015",
    "county": "SAN MATEO",
    "phone": "(650) 301-8600",
    "lat": 37.69116007,
    "lng": -122.4740687
  },
  {
    "id": "140001232",
    "name": "DALY CITY DIALYSIS",
    "npi": "1881668234",
    "hcaiId": "306412747",
    "businessName": "DVA HEALTHCARE RENAL CARE, INC.",
    "contactEmail": "CAL_C@DAVITA.COM",
    "categoryName": "CHRONIC DIALYSIS CLINIC",
    "categoryCode": "ESRD/CDC",
    "licenseStatus": "ACTIVE",
    "inService": true,
    "licenseNumber": "140000620",
    "licenseEffectiveDate": "11/22/2024",
    "licenseExpirationDate": "11/21/2025",
    "dataDate": "10/18/2025",
    "capacity": 34,
    "address": "1498 SOUTHGATE AVE, SUITE 101",
    "city": "DALY CITY",
    "zip": "94015",
    "county": "SAN MATEO",
    "phone": "(650) 755-4751",
    "lat": 37.675269,
    "lng": -122.4760545
  },
  {
    "id": "630017011",
    "name": "DALY CITY YOUTH HEALTH CENTER",
    "npi": null,
    "hcaiId": null,
    "businessName": null,
    "contactEmail": null,
    "categoryName": "PRIMARY CARE CLINIC",
    "categoryCode": "FQHC",
    "licenseStatus": null,
    "inService": null,
    "licenseNumber": null,
    "licenseEffectiveDate": null,
    "licenseExpirationDate": null,
    "dataDate": "10/18/2025",
    "capacity": 0,
    "address": "2780 JUNIPERO SERRA BLVD.",
    "city": "DALY CITY",
    "zip": "94015",
    "county": "SAN MATEO",
    "phone": null,
    "lat": 37.69052683,
    "lng": -122.4710519
  },
  {
    "id": "630018244",
    "name": "DIGESTIVE DIAGNOSTIC CENTER, INC.",
    "npi": "1093264368",
    "hcaiId": null,
    "businessName": null,
    "contactEmail": "BRANDON@CALISHER.COM",
    "categoryName": "SURGICAL CLINIC",
    "categoryCode": "ASC",
    "licenseStatus": null,
    "inService": null,
    "licenseNumber": null,
    "licenseEffectiveDate": null,
    "licenseExpirationDate": null,
    "dataDate": "10/18/2025",
    "capacity": 0,
    "address": "333 GELLERT BLVD, SUITE 111",
    "city": "DALY CITY",
    "zip": "94015",
    "county": "SAN MATEO",
    "phone": "(650) 757-7900",
    "lat": 37.666674,
    "lng": -122.4668205
  },
  {
    "id": "630027145",
    "name": "EXCEPTIONAL CARE HOME HEALTH AGENCY INC",
    "npi": null,
    "hcaiId": null,
    "businessName": "EXCEPTIONAL CARE HOME HEALTH AGENCY INC",
    "contactEmail": "INFO@EXCEPTIONALCAREHHA.COM",
    "categoryName": "HOME HEALTH AGENCY",
    "categoryCode": "HHA",
    "licenseStatus": "ACTIVE",
    "inService": true,
    "licenseNumber": "550009434",
    "licenseEffectiveDate": "10/09/2025",
    "licenseExpirationDate": "10/08/2026",
    "dataDate": "10/18/2025",
    "capacity": 0,
    "address": "333 GELLERT BLVD, SUITE 209",
    "city": "DALY CITY",
    "zip": "94015",
    "county": "SAN MATEO",
    "phone": "(415) 347-7560",
    "lat": 37.66667499,
    "lng": -122.466839
  },
  {
    "id": "220000090",
    "name": "GOLDEN HEIGHTS HEALTHCARE",
    "npi": "1457926065",
    "hcaiId": "206410904",
    "businessName": "GOLDEN HEIGHTS OPERATIONS LLC",
    "contactEmail": "MICHAEL.FLEMING@GOLDENHEIGHTSHC.COM",
    "categoryName": "SKILLED NURSING FACILITY",
    "categoryCode": "SNF",
    "licenseStatus": "ACTIVE",
    "inService": true,
    "licenseNumber": "220000053",
    "licenseEffectiveDate": "11/19/2025",
    "licenseExpirationDate": "11/18/2026",
    "dataDate": "10/18/2025",
    "capacity": 102,
    "address": "35 ESCUELA DR",
    "city": "DALY CITY",
    "zip": "94015",
    "county": "SAN MATEO",
    "phone": "(650) 755-9515",
    "lat": 37.674819,
    "lng": -122.477427
  },
  {
    "id": "220000089",
    "name": "GOLDEN PAVILION HEALTHCARE",
    "npi": "1447825054",
    "hcaiId": "206410903",
    "businessName": "GOLDEN PAVILION OPERATIONS LLC",
    "contactEmail": "BE.PONGBANDITH@GOLDENPAVILIONHC.COM",
    "categoryName": "SKILLED NURSING FACILITY",
    "categoryCode": "SNF",
    "licenseStatus": "ACTIVE",
    "inService": true,
    "licenseNumber": "220000052",
    "licenseEffectiveDate": "11/19/2025",
    "licenseExpirationDate": "11/18/2026",
    "dataDate": "10/18/2025",
    "capacity": 239,
    "address": "99 ESCUELA DR",
    "city": "DALY CITY",
    "zip": "94015",
    "county": "SAN MATEO",
    "phone": "(650) 994-3200",
    "lat": 37.674729,
    "lng": -122.47623
  },
  {
    "id": "630015493",
    "name": "HARMONY HOME HEALTH",
    "npi": null,
    "hcaiId": "406414153",
    "businessName": "HARMONY HEALTHCARE, LLC",
    "contactEmail": "BUSINESS.OFFICE@HARMONYHCARE.COM",
    "categoryName": "HOME HEALTH AGENCY",
    "categoryCode": "HHA",
    "licenseStatus": "ACTIVE",
    "inService": true,
    "licenseNumber": "550003216",
    "licenseEffectiveDate": "08/17/2025",
    "licenseExpirationDate": "08/16/2026",
    "dataDate": "10/18/2025",
    "capacity": 0,
    "address": "295 89TH ST, SUITE 307",
    "city": "DALY CITY",
    "zip": "94015",
    "county": "SAN MATEO",
    "phone": "(650) 731-4566",
    "lat": 37.691631,
    "lng": -122.4718875
  },
  {
    "id": "630016565",
    "name": "HOME HEALTH BAY AREA INC.",
    "npi": "1831556471",
    "hcaiId": "406414167",
    "businessName": "HOME HEALTH BAY AREA INC.",
    "contactEmail": "NICOLE@HOMEHEALTHBAYAREA.COM",
    "categoryName": "HOME HEALTH AGENCY",
    "categoryCode": "HHA",
    "licenseStatus": "ACTIVE",
    "inService": true,
    "licenseNumber": "550003946",
    "licenseEffectiveDate": "08/11/2025",
    "licenseExpirationDate": "08/10/2026",
    "dataDate": "10/18/2025",
    "capacity": 0,
    "address": "901 CAMPUS DRIVE, SUITE 301",
    "city": "DALY CITY",
    "zip": "94015",
    "county": "SAN MATEO",
    "phone": "(650) 590-8300",
    "lat": 37.66554,
    "lng": -122.475861
  },
  {
    "id": "630017497",
    "name": "HOMEASSIST HOME HEALTH SERVICES",
    "npi": "1922534940",
    "hcaiId": "406411418",
    "businessName": "HOMEASSIST SOLUTIONS INC.",
    "contactEmail": "KRISTINA@HOMEASSISTCA.COM",
    "categoryName": "HOME HEALTH AGENCY",
    "categoryCode": "HHA",
    "licenseStatus": "ACTIVE",
    "inService": true,
    "licenseNumber": "550004374",
    "licenseEffectiveDate": "08/27/2025",
    "licenseExpirationDate": "08/26/2026",
    "dataDate": "10/18/2025",
    "capacity": 0,
    "address": "355 GELLERT BLVD, SUITE 257",
    "city": "DALY CITY",
    "zip": "94015",
    "county": "SAN MATEO",
    "phone": "(855) 571-4661",
    "lat": 37.66598838,
    "lng": -122.4677203
  },
  {
    "id": "220001122",
    "name": "J & E HOME, INC.",
    "npi": "1487263968",
    "hcaiId": null,
    "businessName": "J & E HOME, INC.",
    "contactEmail": "LARCHMONT627@GMAIL.COM",
    "categoryName": "INTERMEDIATE CARE FACILITY-DD/H/N/CN/IID",
    "categoryCode": "ICFDDH",
    "licenseStatus": "ACTIVE",
    "inService": true,
    "licenseNumber": "220000460",
    "licenseEffectiveDate": "02/08/2025",
    "licenseExpirationDate": "02/07/2026",
    "dataDate": "10/18/2025",
    "capacity": 6,
    "address": "627 LARCHMONT DR",
    "city": "DALY CITY",
    "zip": "94015",
    "county": "SAN MATEO",
    "phone": "(408) 674-8394",
    "lat": 37.687716,
    "lng": -122.4838575
  },
  {
    "id": "220000926",
    "name": "KATHRYNE MANOR ICF/DD-H",
    "npi": "1982085981",
    "hcaiId": null,
    "businessName": "EXCELLENT CARE PROVIDER, INC.",
    "contactEmail": "LINA.ALFONSO52@GMAIL.COM",
    "categoryName": "INTERMEDIATE CARE FACILITY-DD/H/N/CN/IID",
    "categoryCode": "ICFDDH",
    "licenseStatus": "ACTIVE",
    "inService": true,
    "licenseNumber": "220000364",
    "licenseEffectiveDate": "07/28/2025",
    "licenseExpirationDate": "07/27/2026",
    "dataDate": "10/18/2025",
    "capacity": 6,
    "address": "723 MADDUX DR",
    "city": "DALY CITY",
    "zip": "94015",
    "county": "SAN MATEO",
    "phone": null,
    "lat": 37.693863,
    "lng": -122.48253
  },
  {
    "id": "630027421",
    "name": "NBASC LLC",
    "npi": null,
    "hcaiId": null,
    "businessName": null,
    "contactEmail": "NBASC@NBASCLLC.COM",
    "categoryName": "SURGICAL CLINIC",
    "categoryCode": "ASC",
    "licenseStatus": null,
    "inService": null,
    "licenseNumber": null,
    "licenseEffectiveDate": null,
    "licenseExpirationDate": null,
    "dataDate": "10/18/2025",
    "capacity": 0,
    "address": "1850 SULLIVAN AVE, SUITE 400",
    "city": "DALY CITY",
    "zip": "94015",
    "county": "SAN MATEO",
    "phone": "(408) 828-5973",
    "lat": 37.68093998,
    "lng": -122.473759
  },
  {
    "id": "220001135",
    "name": "NEW HAVEN HOME HEALTH SERVICES, INC.",
    "npi": "1881009436",
    "hcaiId": "406414074",
    "businessName": "NEW HAVEN HOME HEALTH SERVICES, INC.",
    "contactEmail": "BSHEN@NEWHAVENHEALTHCARE.COM",
    "categoryName": "HOME HEALTH AGENCY",
    "categoryCode": "HHA",
    "licenseStatus": "ACTIVE",
    "inService": true,
    "licenseNumber": "220000466",
    "licenseEffectiveDate": "12/31/2024",
    "licenseExpirationDate": "12/30/2025",
    "dataDate": "10/18/2025",
    "capacity": 0,
    "address": "333 GELLERT BLVD, SUITE 227",
    "city": "DALY CITY",
    "zip": "94015",
    "county": "SAN MATEO",
    "phone": "(650) 301-1660",
    "lat": 37.666674,
    "lng": -122.4668205
  },
  {
    "id": "630013450",
    "name": "NORTH EAST MEDICAL SERVICES - EASTMOOR",
    "npi": "1104103001",
    "hcaiId": "306414128",
    "businessName": "NORTH EAST MEDICAL SERVICES",
    "contactEmail": "CLINIC.LICENSES@NEMS.ORG",
    "categoryName": "PRIMARY CARE CLINIC",
    "categoryCode": "COMTYC",
    "licenseStatus": "ACTIVE",
    "inService": true,
    "licenseNumber": "550001796",
    "licenseEffectiveDate": "12/15/2024",
    "licenseExpirationDate": "12/14/2025",
    "dataDate": "10/18/2025",
    "capacity": 0,
    "address": "211 EASTMOOR AVE",
    "city": "DALY CITY",
    "zip": "94015",
    "county": "SAN MATEO",
    "phone": null,
    "lat": 37.684953,
    "lng": -122.478633
  },
  {
    "id": "630026990",
    "name": "NORTH EAST MEDICAL SERVICES - SULLIVAN SUITE 150",
    "npi": "1104103001",
    "hcaiId": null,
    "businessName": "NORTH EAST MEDICAL SERVICES",
    "contactEmail": null,
    "categoryName": "PRIMARY CARE CLINIC",
    "categoryCode": "COMTYC",
    "licenseStatus": "ACTIVE",
    "inService": true,
    "licenseNumber": "550001796",
    "licenseEffectiveDate": "12/15/2024",
    "licenseExpirationDate": "12/14/2025",
    "dataDate": "10/18/2025",
    "capacity": 0,
    "address": "1850 SULLIVAN AVE, SUITE 150",
    "city": "DALY CITY",
    "zip": "94015",
    "county": "SAN MATEO",
    "phone": null,
    "lat": 37.68102,
    "lng": -122.4739665
  },
  {
    "id": "630028102",
    "name": "NORTH EAST MEDICAL SERVICES - SULLIVAN SUITE 190",
    "npi": null,
    "hcaiId": null,
    "businessName": "NORTH EAST MEDICAL SERVICES",
    "contactEmail": null,
    "categoryName": "PRIMARY CARE CLINIC",
    "categoryCode": "COMTYC",
    "licenseStatus": "ACTIVE",
    "inService": true,
    "licenseNumber": "550001796",
    "licenseEffectiveDate": "12/15/2024",
    "licenseExpirationDate": "12/14/2025",
    "dataDate": "10/18/2025",
    "capacity": 0,
    "address": "1850 SULLIVAN AVE, SUITE 190",
    "city": "DALY CITY",
    "zip": "94015",
    "county": "SAN MATEO",
    "phone": null,
    "lat": 37.68093985,
    "lng": -122.4737639
  },
  {
    "id": "630026131",
    "name": "ROTACARE NORTHERN PENINSULA",
    "npi": null,
    "hcaiId": null,
    "businessName": "ROTACARE BAY AREA, INC.",
    "contactEmail": "DCCLINIC@ROTACAREBAYAREA.ORG",
    "categoryName": "PRIMARY CARE CLINIC",
    "categoryCode": "FREEC",
    "licenseStatus": "ACTIVE",
    "inService": true,
    "licenseNumber": "550006678",
    "licenseEffectiveDate": "07/20/2025",
    "licenseExpirationDate": "07/19/2026",
    "dataDate": "10/18/2025",
    "capacity": 0,
    "address": "380 90TH ST",
    "city": "DALY CITY",
    "zip": "94015",
    "county": "SAN MATEO",
    "phone": "(650) 515-6885",
    "lat": 37.69116007,
    "lng": -122.4740687
  },
  {
    "id": "630019925",
    "name": "SUNCREST HOSPICE SAN JOSE, LLC",
    "npi": null,
    "hcaiId": null,
    "businessName": "SUNCREST HOSPICE SAN JOSE, LLC",
    "contactEmail": "MFILHART@SUNCRESTCARE.COM",
    "categoryName": "HOSPICE",
    "categoryCode": "HOSPICE",
    "licenseStatus": "ACTIVE",
    "inService": true,
    "licenseNumber": "550002410",
    "licenseEffectiveDate": "09/17/2025",
    "licenseExpirationDate": "09/16/2027",
    "dataDate": "10/18/2025",
    "capacity": 0,
    "address": "355 GELLERT BLVD, SUITE 140",
    "city": "DALY CITY",
    "zip": "94015",
    "county": "SAN MATEO",
    "phone": "(415) 795-8824",
    "lat": 37.66599299,
    "lng": -122.467745
  }
]