[
  {
    "id": "630027362",
    "name": "AAVI HOME HEALTH SERVICES",
    "npi": null,
    "hcaiId": null,
    "businessName": "AAVI HEALTH INC.",
    "contactEmail": "AAVIHEALTH@GMAIL.COM",
    "categoryName": "HOME HEALTH AGENCY",
    "categoryCode": "HHA",
    "licenseStatus": "ACTIVE",
    "inService": true,
    "licenseNumber": "550009490",
    "licenseEffectiveDate": "11/01/2025",
    "licenseExpirationDate": "10/31/2026",
    "dataDate": "10/18/2025",
    "capacity": 0,
    "address": "6150 MISSION ST, SUITE 107",
    "city": "DALY CITY",
    "zip": "94014",
    "county": "SAN MATEO",
    "phone": "(628) 219-8387",
    "lat": 37.707045,
    "lng": -122.458563
  },
  {
    "id": "630024375",
    "name": "ABL HOSPICE LLC",
    "npi": null,
    "hcaiId": null,
    "businessName": "ABL HOSPICE LLC",
    "contactEmail": "INFO@ABLHOSPICE.COM",
    "categoryName": "HOSPICE",
    "categoryCode": "HOSPICE",
    "licenseStatus": "ACTIVE",
    "inService": true,
    "licenseNumber": "550008579",
    "licenseEffectiveDate": "06/09/2025",
    "licenseExpirationDate": "06/08/2027",
    "dataDate": "10/18/2025",
    "capacity": 0,
    "address": "6150 MISSION ST, SUITE 103",
    "city": "DALY CITY",
    "zip": "94014",
    "county": "SAN MATEO",
    "phone": "(415) 562-8552",
    "lat": 37.707057,
    "lng": -122.458554
  },
  {
    "id": "630016780",
    "name": "ALLIANCE HOME HEALTH",
    "npi": "1154776151",
    "hcaiId": "406414169",
    "businessName": "ALLIANCE HOME HEALTH & HOSPICE LLC",
    "contactEmail": "ALLIANCEHOMEHEALTH16@YAHOO.COM",
    "categoryName": "HOME HEALTH AGENCY",
    "categoryCode": "HHA",
    "licenseStatus": "ACTIVE",
    "inService": true,
    "licenseNumber": "550004011",
    "licenseEffectiveDate": "10/25/2024",
    "licenseExpirationDate": "10/24/2025",
    "dataDate": "10/18/2025",
    "capacity": 0,
    "address": "6717 MISSION STREET, SUITE D-2",
    "city": "DALY CITY",
    "zip": "94014",
    "county": "SAN MATEO",
    "phone": "(650) 285-2503",
    "lat": 37.701117,
    "lng": -122.4631215
  },
  {
    "id": "630016779",
    "name": "ALLIANCE HOSPICE",
    "npi": "1013363845",
    "hcaiId": "406410660",
    "businessName": "ALLIANCE HOME HEALTH & HOSPICE LLC",
    "contactEmail": "ALLIANCEHOSPICE16@YAHOO.COM",
    "categoryName": "HOSPICE",
    "categoryCode": "HOSPICE",
    "licenseStatus": "ACTIVE",
    "inService": true,
    "licenseNumber": "550004067",
    "licenseEffectiveDate": "12/14/2023",
    "licenseExpirationDate": "12/13/2025",
    "dataDate": "10/18/2025",
    "capacity": 0,
    "address": "6717 MISSION STREET, SUITE D-1",
    "city": "DALY CITY",
    "zip": "94014",
    "county": "SAN MATEO",
    "phone": "(650) 491-9240",
    "lat": 37.701117,
    "lng": -122.4631215
  },
  {
    "id": "630021786",
    "name": "COLMA DIALYSIS",
    "npi": null,
    "hcaiId": "306410630",
    "businessName": "KINTER DIALYSIS, LLC",
    "contactEmail": "CAL_C@DAVITA.COM",
    "categoryName": "CHRONIC DIALYSIS CLINIC",
    "categoryCode": "ESRD/CDC",
    "licenseStatus": "ACTIVE",
    "inService": true,
    "licenseNumber": "550006991",
    "licenseEffectiveDate": "10/05/2025",
    "licenseExpirationDate": "10/04/2026",
    "dataDate": "10/18/2025",
    "capacity": 20,
    "address": "1055 EL CAMINO REAL",
    "city": "COLMA",
    "zip": "94014",
    "county": "SAN MATEO",
    "phone": "(628) 529-1031",
    "lat": 37.67865499,
    "lng": -122.459722
  },
  {
    "id": "630014025",
    "name": "SATELLITE HEALTHCARE DALY CITY",
    "npi": "1649542192",
    "hcaiId": "306414132",
    "businessName": "SATELLITE HEALTHCARE OF NORTH SAN MATEO COUNTY, LLC",
    "contactEmail": "BLANCOE@SATELLITEHEALTH.COM",
    "categoryName": "CHRONIC DIALYSIS CLINIC",
    "categoryCode": "ESRD/CDC",
    "licenseStatus": "ACTIVE",
    "inService": true,
    "licenseNumber": "550002288",
    "licenseEffectiveDate": "10/03/2025",
    "licenseExpirationDate": "10/02/2026",
    "dataDate": "10/18/2025",
    "capacity": 24,
    "address": "2001 JUNIPERO SERRA BLVD, SUITE 100",
    "city": "DALY CITY",
    "zip": "94014",
    "county": "SAN MATEO",
    "phone": "(650) 746-3140",
    "lat": 37.700541,
    "lng": -122.470254
  },
  {
    "id": "630014026",
    "name": "WELLBOUND OF DALY CITY",
    "npi": "1841064011",
    "hcaiId": null,
    "businessName": null,
    "contactEmail": "GRUSSINGJ@SATELLITEHEALTH.COM",
    "categoryName": "CHRONIC DIALYSIS CLINIC",
    "categoryCode": "ESRD",
    "licenseStatus": null,
    "inService": null,
    "licenseNumber": null,
    "licenseEffectiveDate": null,
    "licenseExpirationDate": null,
    "dataDate": "10/18/2025",
    "capacity": 0,
    "address": "2001 JUNIPERO SERRA BLVD, SUITE 535",
    "city": "DALY CITY",
    "zip": "94014",
    "county": "SAN MATEO",
    "phone": "(650) 464-1455",
    "lat": 37.700541,
    "lng": -122.470254
  },
  {
    "id": "630012208",
    "name": "WESTLAKE DALY CITY DIALYSIS CENTER",
    "npi": "1972741999",
    "hcaiId": "306414113",
    "businessName": "TOTAL RENAL CARE, INC.",
    "contactEmail": "CAL_C@DAVITA.COM",
    "categoryName": "CHRONIC DIALYSIS CLINIC",
    "categoryCode": "ESRD/CDC",
    "licenseStatus": "ACTIVE",
    "inService": true,
    "licenseNumber": "550001179",
    "licenseEffectiveDate": "11/09/2025",
    "licenseExpirationDate": "11/08/2026",
    "dataDate": "10/18/2025",
    "capacity": 31,
    "address": "2201 JUNIPERO SERRA BLVD, SUITE A",
    "city": "DALY CITY",
    "zip": "94014",
    "county": "SAN MATEO",
    "phone": "(650) 755-9480",
    "lat": 37.69713,
    "lng": -122.4702045
  }
]