[
  {
    "id": "220001000",
    "name": "LOS ALTOS POST-ACUTE",
    "npi": "1043345812",
    "hcaiId": "206430721",
    "businessName": "TURKIS HOLDINGS, LLC",
    "contactEmail": "RYAN@SPYGLASSHC.COM",
    "categoryName": "SKILLED NURSING FACILITY",
    "categoryCode": "SNF",
    "licenseStatus": "ACTIVE",
    "inService": true,
    "licenseNumber": "220000403",
    "licenseEffectiveDate": "08/01/2025",
    "licenseExpirationDate": "03/05/2026",
    "dataDate": "10/18/2025",
    "capacity": 152,
    "address": "809 FREMONT AVE",
    "city": "LOS ALTOS",
    "zip": "94024",
    "county": "SANTA CLARA",
    "phone": "(408) 320-9897",
    "lat": 37.356462,
    "lng": -122.091237
  },
  {
    "id": "220000699",
    "name": "LOS ALTOS SURGERY CENTER",
    "npi": "1427166990",
    "hcaiId": "306434151",
    "businessName": "LOS ALTOS SURGERY CENTER, LLC",
    "contactEmail": "LOSALTOSSURGERYCENTER@YAHOO.COM",
    "categoryName": "SURGICAL CLINIC",
    "categoryCode": "ASC",
    "licenseStatus": "INACTIVE - CAPEN DECISION",
    "inService": false,
    "licenseNumber": "220000309",
    "licenseEffectiveDate": "01/01/2008",
    "licenseExpirationDate": "12/31/2008",
    "dataDate": "10/18/2025",
    "capacity": 0,
    "address": "795 ALTOS OAKS DR",
    "city": "LOS ALTOS",
    "zip": "94024",
    "county": "SANTA CLARA",
    "phone": "(650) 209-1100",
    "lat": 37.359522,
    "lng": -122.092911
  },
  {
    "id": "630016058",
    "name": "SURGERY CENTER LOS ALTOS",
    "npi": "1568851327",
    "hcaiId": "306434286",
    "businessName": "SUTTER BAY MEDICAL FOUNDATION",
    "contactEmail": "MATNEYD@SUTTERHEALTH.ORG",
    "categoryName": "SURGICAL CLINIC",
    "categoryCode": "ASC/SURGC",
    "licenseStatus": "ACTIVE",
    "inService": true,
    "licenseNumber": "550003256",
    "licenseEffectiveDate": "08/28/2025",
    "licenseExpirationDate": "08/27/2026",
    "dataDate": "10/18/2025",
    "capacity": 0,
    "address": "715 ALTOS OAKS DRIVE",
    "city": "LOS ALTOS",
    "zip": "94024",
    "county": "SANTA CLARA",
    "phone": "(650) 934-7010",
    "lat": 37.359486,
    "lng": -122.095269
  }
]