[
  {
    "id": "220000047",
    "name": "ATHERTON PARK POST-ACUTE",
    "npi": "1003451915",
    "hcaiId": "206410820",
    "businessName": "CARPINTERIA LLC",
    "contactEmail": "JNABROTZKY@KALESTAHC.COM",
    "categoryName": "SKILLED NURSING FACILITY",
    "categoryCode": "SNF",
    "licenseStatus": "ACTIVE",
    "inService": true,
    "licenseNumber": "220000369",
    "licenseEffectiveDate": "03/01/2025",
    "licenseExpirationDate": "02/28/2026",
    "dataDate": "10/18/2025",
    "capacity": 160,
    "address": "1275 CRANE ST",
    "city": "MENLO PARK",
    "zip": "94025",
    "county": "SAN MATEO",
    "phone": "(650) 325-8600",
    "lat": 37.452195,
    "lng": -122.188032
  },
  {
    "id": "630012716",
    "name": "BAK PHYSICAL THERAPY",
    "npi": null,
    "hcaiId": null,
    "businessName": null,
    "contactEmail": "BECKY.RIGSBY@PHYSIOCORP.COM",
    "categoryName": "REHABILITATION CLINIC",
    "categoryCode": "OPT/SP",
    "licenseStatus": null,
    "inService": null,
    "licenseNumber": null,
    "licenseEffectiveDate": null,
    "licenseExpirationDate": null,
    "dataDate": "10/18/2025",
    "capacity": 0,
    "address": "3532 ALAMEDA DE LAS PULGAS",
    "city": "MENLO PARK",
    "zip": "94025",
    "county": "SAN MATEO",
    "phone": "(650) 561-9589",
    "lat": 37.43221898,
    "lng": -122.2024867
  },
  {
    "id": "630017158",
    "name": "CARE INDEED HOME HEALTH CARE, INC.",
    "npi": null,
    "hcaiId": "406412878",
    "businessName": "CARE INDEED HOME HEALTH CARE, INC.",
    "contactEmail": "VANESSAV@CAREINDEED.COM",
    "categoryName": "HOME HEALTH AGENCY",
    "categoryCode": "HHA",
    "licenseStatus": "ACTIVE",
    "inService": true,
    "licenseNumber": "550004674",
    "licenseEffectiveDate": "05/16/2025",
    "licenseExpirationDate": "05/15/2026",
    "dataDate": "10/18/2025",
    "capacity": 0,
    "address": "890 SANTA CRUZ AVE, SUITE A",
    "city": "MENLO PARK",
    "zip": "94025",
    "county": "SAN MATEO",
    "phone": "(888) 707-1878",
    "lat": 37.45017,
    "lng": -122.186151
  },
  {
    "id": "630006741",
    "name": "THE CENTER FOR DISCOVERY AND ADOLESCENT CHANGES",
    "npi": null,
    "hcaiId": "206414094",
    "businessName": "DISCOVERY PRACTICE MANAGEMENT, INC.",
    "contactEmail": "SEAN.KRACK@CENTERFORDISCOVERY.COM",
    "categoryName": "CONGREGATE LIVING HEALTH FACILITY",
    "categoryCode": "CLHF",
    "licenseStatus": "ACTIVE",
    "inService": true,
    "licenseNumber": "550000127",
    "licenseEffectiveDate": "02/27/2025",
    "licenseExpirationDate": "02/26/2026",
    "dataDate": "10/18/2025",
    "capacity": 6,
    "address": "1895 ALTSCHUL AVE",
    "city": "MENLO PARK",
    "zip": "94025",
    "county": "SAN MATEO",
    "phone": "(714) 766-1155",
    "lat": 37.434267,
    "lng": -122.211567
  },
  {
    "id": "630018798",
    "name": "UNIVERSAL HOME HEALTH LLC",
    "npi": null,
    "hcaiId": "406013767",
    "businessName": "UNIVERSAL HOME HEALTH LLC",
    "contactEmail": "NEERUVER@GMAIL.COM",
    "categoryName": "HOME HEALTH AGENCY",
    "categoryCode": "HHA",
    "licenseStatus": "ACTIVE",
    "inService": true,
    "licenseNumber": "550006260",
    "licenseEffectiveDate": "08/01/2025",
    "licenseExpirationDate": "11/22/2025",
    "dataDate": "10/18/2025",
    "capacity": 0,
    "address": "800 ROBLE AVE, SUITE 108B",
    "city": "MENLO PARK",
    "zip": "94025",
    "county": "SAN MATEO",
    "phone": "(408) 807-1984",
    "lat": 37.44949514,
    "lng": -122.1821795
  },
  {
    "id": "630018637",
    "name": "UNIVERSAL HOSPICE CARE LLC",
    "npi": "1932679149",
    "hcaiId": "406012897",
    "businessName": "UNIVERSAL HOSPICE CARE LLC",
    "contactEmail": "NEERU@UNIHHC.COM",
    "categoryName": "HOSPICE",
    "categoryCode": "HOSPICE",
    "licenseStatus": "ACTIVE",
    "inService": true,
    "licenseNumber": "550005728",
    "licenseEffectiveDate": "12/17/2024",
    "licenseExpirationDate": "09/17/2026",
    "dataDate": "10/18/2025",
    "capacity": 0,
    "address": "800 ROBLE AVE, SUITE 108",
    "city": "MENLO PARK",
    "zip": "94025",
    "county": "SAN MATEO",
    "phone": "(650) 389-5279",
    "lat": 37.4494524,
    "lng": -122.1848038
  }
]