[
  {
    "id": "220000670",
    "name": "JOHNS, RICHARD A. PT-IP",
    "npi": null,
    "hcaiId": null,
    "businessName": null,
    "contactEmail": null,
    "categoryName": "OTHER",
    "categoryCode": "UNLICEN",
    "licenseStatus": null,
    "inService": null,
    "licenseNumber": null,
    "licenseEffectiveDate": null,
    "licenseExpirationDate": null,
    "dataDate": "10/18/2025",
    "capacity": 0,
    "address": "52 AURA VISTA DRIVE",
    "city": "PACIFICA",
    "zip": "94044",
    "county": "SAN MATEO",
    "phone": "(650) 355-4558",
    "lat": 37.65104114,
    "lng": -122.4916539
  },
  {
    "id": "220000069",
    "name": "LINDA MAR CARE CENTER",
    "npi": "1003891516",
    "hcaiId": "206411305",
    "businessName": "PACIFICA LINDA MAR, INC.",
    "contactEmail": "JLANE@NAHSN.COM",
    "categoryName": "SKILLED NURSING FACILITY",
    "categoryCode": "SNF",
    "licenseStatus": "ACTIVE",
    "inService": true,
    "licenseNumber": "220000095",
    "licenseEffectiveDate": "11/22/2024",
    "licenseExpirationDate": "11/21/2025",
    "dataDate": "10/18/2025",
    "capacity": 59,
    "address": "751 SAN PEDRO TERRACE RD",
    "city": "PACIFICA",
    "zip": "94044",
    "county": "SAN MATEO",
    "phone": "(650) 359-6030",
    "lat": 37.589517,
    "lng": -122.501178
  },
  {
    "id": "220000076",
    "name": "PACIFICA NURSING AND REHABILITATION CENTER",
    "npi": "1104539873",
    "hcaiId": "206410844",
    "businessName": "MUSSEL ROCK HEALTHCARE, INC.",
    "contactEmail": "RENEWALS@ENSIGNSERVICES.NET",
    "categoryName": "SKILLED NURSING FACILITY",
    "categoryCode": "SNF",
    "licenseStatus": "ACTIVE",
    "inService": true,
    "licenseNumber": "220000035",
    "licenseEffectiveDate": "12/01/2024",
    "licenseExpirationDate": "11/30/2025",
    "dataDate": "10/18/2025",
    "capacity": 68,
    "address": "385 ESPLANADE AVE",
    "city": "PACIFICA",
    "zip": "94044",
    "county": "SAN MATEO",
    "phone": "(650) 993-5576",
    "lat": 37.651446,
    "lng": -122.49225
  }
]