[
  {
    "id": "070000131",
    "name": "AVENIDAS ROSE KLEINER SENIOR DAY HEALTH CENTER",
    "npi": null,
    "hcaiId": null,
    "businessName": "AVENIDAS",
    "contactEmail": "KLUGO@AVENIDAS.ORG",
    "categoryName": "ADULT DAY HEALTH CARE",
    "categoryCode": "ADHC",
    "licenseStatus": "ACTIVE",
    "inService": true,
    "licenseNumber": "070000155",
    "licenseEffectiveDate": "12/06/2024",
    "licenseExpirationDate": "12/05/2025",
    "dataDate": "10/18/2025",
    "capacity": 0,
    "address": "270 ESCUELA AVE",
    "city": "MOUNTAIN VIEW",
    "zip": "94040",
    "county": "SANTA CLARA",
    "phone": "(650) 289-5424",
    "lat": 37.400076,
    "lng": -122.0967315
  },
  {
    "id": "220001054",
    "name": "CAMINO RIDGE POST-ACUTE",
    "npi": "1750378519",
    "hcaiId": "206431815",
    "businessName": "ESTORIL HOLDINGS, LLC",
    "contactEmail": "RYAN@SPYGLASSHC.COM",
    "categoryName": "SKILLED NURSING FACILITY",
    "categoryCode": "SNF",
    "licenseStatus": "ACTIVE",
    "inService": true,
    "licenseNumber": "220000430",
    "licenseEffectiveDate": "08/01/2025",
    "licenseExpirationDate": "03/05/2026",
    "dataDate": "10/18/2025",
    "capacity": 102,
    "address": "1949 GRANT RD",
    "city": "MOUNTAIN VIEW",
    "zip": "94040",
    "county": "SANTA CLARA",
    "phone": "(408) 320-9897",
    "lat": 37.373517,
    "lng": -122.0768325
  },
  {
    "id": "630024727",
    "name": "DENTAL AT MOUNTAIN VIEW",
    "npi": null,
    "hcaiId": null,
    "businessName": null,
    "contactEmail": null,
    "categoryName": "PRIMARY CARE CLINIC",
    "categoryCode": "FQHC",
    "licenseStatus": null,
    "inService": null,
    "licenseNumber": null,
    "licenseEffectiveDate": null,
    "licenseExpirationDate": null,
    "dataDate": "10/18/2025",
    "capacity": 0,
    "address": "2486 W EL CAMINO REAL",
    "city": "MOUNTAIN VIEW",
    "zip": "94040",
    "county": "SANTA CLARA",
    "phone": "(408) 885-5000",
    "lat": 37.399536,
    "lng": -122.109318
  },
  {
    "id": "070001351",
    "name": "EL CAMINO HEALTH",
    "npi": "1093712374",
    "hcaiId": "106430763",
    "businessName": "EL CAMINO HOSPITAL",
    "contactEmail": "MICHAEL_COSTON@ELCAMINOHEALTH.ORG",
    "categoryName": "GENERAL ACUTE CARE HOSPITAL",
    "categoryCode": "GACH",
    "licenseStatus": "ACTIVE",
    "inService": true,
    "licenseNumber": "070000660",
    "licenseEffectiveDate": "04/09/2025",
    "licenseExpirationDate": "12/30/2025",
    "dataDate": "10/18/2025",
    "capacity": 292,
    "address": "2500 GRANT RD",
    "city": "MOUNTAIN VIEW",
    "zip": "94040",
    "county": "SANTA CLARA",
    "phone": "(650) 962-4932",
    "lat": 37.369359,
    "lng": -122.080509
  },
  {
    "id": "070001353",
    "name": "EL CAMINO HOSPITAL D/P APH",
    "npi": "1093712374",
    "hcaiId": null,
    "businessName": "EL CAMINO HOSPITAL",
    "contactEmail": null,
    "categoryName": "ACUTE PSYCHIATRIC HOSPITAL",
    "categoryCode": "APH",
    "licenseStatus": "ACTIVE",
    "inService": true,
    "licenseNumber": "070000660",
    "licenseEffectiveDate": "04/09/2025",
    "licenseExpirationDate": "12/30/2025",
    "dataDate": "10/18/2025",
    "capacity": 36,
    "address": "2590 GRANT RD",
    "city": "MOUNTAIN VIEW",
    "zip": "94040",
    "county": "SANTA CLARA",
    "phone": "(650) 940-7000",
    "lat": 37.36745551,
    "lng": -122.0779241
  },
  {
    "id": "630027453",
    "name": "GOLDEN STATE HEART & VASCULAR ASSOCIATES",
    "npi": null,
    "hcaiId": null,
    "businessName": null,
    "contactEmail": "KEVIN@CALISHER.COM",
    "categoryName": "SURGICAL CLINIC",
    "categoryCode": "ASC",
    "licenseStatus": null,
    "inService": null,
    "licenseNumber": null,
    "licenseEffectiveDate": null,
    "licenseExpirationDate": null,
    "dataDate": "10/18/2025",
    "capacity": 0,
    "address": "1174 CASTRO ST, SUITE 200",
    "city": "MOUNTAIN VIEW",
    "zip": "94040",
    "county": "SANTA CLARA",
    "phone": "(650) 697-2431",
    "lat": 37.38242298,
    "lng": -122.086614
  },
  {
    "id": "220001154",
    "name": "HOSPITAL DRIVE SURGERY CENTER, LLC",
    "npi": "1780723429",
    "hcaiId": null,
    "businessName": null,
    "contactEmail": null,
    "categoryName": "SURGICAL CLINIC",
    "categoryCode": "ASC",
    "licenseStatus": null,
    "inService": null,
    "licenseNumber": null,
    "licenseEffectiveDate": null,
    "licenseExpirationDate": null,
    "dataDate": "10/18/2025",
    "capacity": 0,
    "address": "2500 HOSPITAL DR, BUILDING 9, B",
    "city": "MOUNTAIN VIEW",
    "zip": "94040",
    "county": "SANTA CLARA",
    "phone": "(650) 567-9800",
    "lat": 37.367514,
    "lng": -122.0821605
  },
  {
    "id": "220001026",
    "name": "MAYVIEW COMMUNITY HEALTH CENTER MOUNTAIN VIEW, A MEMBER OF RAVENSWOOD FAMILY HEALTH NETWORK",
    "npi": "1780796540",
    "hcaiId": "306434261",
    "businessName": "SOUTH COUNTY COMMUNITY HEALTH CENTER, INC.",
    "contactEmail": "ACCOUNTING@MAYVIEW.ORG",
    "categoryName": "PRIMARY CARE CLINIC",
    "categoryCode": "COMTYC",
    "licenseStatus": "ACTIVE",
    "inService": true,
    "licenseNumber": "220000468",
    "licenseEffectiveDate": "10/08/2025",
    "licenseExpirationDate": "12/20/2025",
    "dataDate": "10/18/2025",
    "capacity": 0,
    "address": "900 MIRAMONTE AVE, FLOOR 2",
    "city": "MOUNTAIN VIEW",
    "zip": "94040",
    "county": "SANTA CLARA",
    "phone": "(650) 965-3323",
    "lat": 37.387188,
    "lng": -122.088681
  },
  {
    "id": "220001016",
    "name": "MOUNTAIN VIEW HEALTHCARE CENTER",
    "npi": "1427770692",
    "hcaiId": "206430788",
    "businessName": "CIRBY HOLDINGS, LLC",
    "contactEmail": "RYANMACK11@GMAIL.COM",
    "categoryName": "SKILLED NURSING FACILITY",
    "categoryCode": "SNF",
    "licenseStatus": "ACTIVE",
    "inService": true,
    "licenseNumber": "220000410",
    "licenseEffectiveDate": "02/15/2025",
    "licenseExpirationDate": "12/04/2025",
    "dataDate": "10/18/2025",
    "capacity": 131,
    "address": "2530 SOLACE PL",
    "city": "MOUNTAIN VIEW",
    "zip": "94040",
    "county": "SANTA CLARA",
    "phone": "(530) 306-1066",
    "lat": 37.366416,
    "lng": -122.0801265
  },
  {
    "id": "220001130",
    "name": "ORCHARD CREEK SURGERY CENTER",
    "npi": "1528261195",
    "hcaiId": null,
    "businessName": null,
    "contactEmail": null,
    "categoryName": "SURGICAL CLINIC",
    "categoryCode": "ASC",
    "licenseStatus": null,
    "inService": null,
    "licenseNumber": null,
    "licenseEffectiveDate": null,
    "licenseExpirationDate": null,
    "dataDate": "10/18/2025",
    "capacity": 0,
    "address": "525 SOUTH DR, SUITE 115",
    "city": "MOUNTAIN VIEW",
    "zip": "94040",
    "county": "SANTA CLARA",
    "phone": "(650) 969-5600",
    "lat": 37.36692,
    "lng": -122.0847435
  },
  {
    "id": "630004841",
    "name": "PENINSULA EYE SURGERY CENTER",
    "npi": null,
    "hcaiId": "306434169",
    "businessName": null,
    "contactEmail": "VPEARCE@PESC2020.COM",
    "categoryName": "SURGICAL CLINIC",
    "categoryCode": "ASC",
    "licenseStatus": "INACTIVE - CAPEN DECISION",
    "inService": false,
    "licenseNumber": "550000072",
    "licenseEffectiveDate": "11/19/2007",
    "licenseExpirationDate": "11/18/2008",
    "dataDate": "10/18/2025",
    "capacity": 0,
    "address": "1128 W EL CAMINO REAL",
    "city": "MOUNTAIN VIEW",
    "zip": "94040",
    "county": "SANTA CLARA",
    "phone": "(650) 964-3200",
    "lat": 37.387782,
    "lng": -122.0873175
  },
  {
    "id": "630019263",
    "name": "PLANNED PARENTHOOD MAR MONTE - MOUNTAIN VIEW HEALTH CENTER",
    "npi": "1386299899",
    "hcaiId": "306430584",
    "businessName": "PLANNED PARENTHOOD MAR MONTE, INC.",
    "contactEmail": "SERVICESAD@PPMARMONTE.ORG",
    "categoryName": "PRIMARY CARE CLINIC",
    "categoryCode": "COMTYC",
    "licenseStatus": "ACTIVE",
    "inService": true,
    "licenseNumber": "550005839",
    "licenseEffectiveDate": "11/12/2025",
    "licenseExpirationDate": "11/11/2026",
    "dataDate": "10/18/2025",
    "capacity": 0,
    "address": "2500 CALIFORNIA ST, SUITE A",
    "city": "MOUNTAIN VIEW",
    "zip": "94040",
    "county": "SANTA CLARA",
    "phone": "(408) 795-3695",
    "lat": 37.403532,
    "lng": -122.1061635
  },
  {
    "id": "630014869",
    "name": "SATELLITE HEALTHCARE MOUNTAIN VIEW",
    "npi": "1639511884",
    "hcaiId": "306434267",
    "businessName": "SATELLITE HEALTHCARE MOUNTAIN VIEW, LLC",
    "contactEmail": "LICENSING@SATELLITEHEALTH.COM",
    "categoryName": "CHRONIC DIALYSIS CLINIC",
    "categoryCode": "ESRD/CDC",
    "licenseStatus": "ACTIVE",
    "inService": true,
    "licenseNumber": "550002605",
    "licenseEffectiveDate": "11/20/2024",
    "licenseExpirationDate": "11/19/2025",
    "dataDate": "10/18/2025",
    "capacity": 25,
    "address": "247 W EL CAMINO REAL, SUITE 100",
    "city": "MOUNTAIN VIEW",
    "zip": "94040",
    "county": "SANTA CLARA",
    "phone": "(650) 417-6420",
    "lat": 37.382994,
    "lng": -122.079285
  },
  {
    "id": "630014888",
    "name": "SATELLITE WELLBOUND OF MOUNTAIN VIEW",
    "npi": "1083046247",
    "hcaiId": null,
    "businessName": null,
    "contactEmail": null,
    "categoryName": "CHRONIC DIALYSIS CLINIC",
    "categoryCode": "ESRD",
    "licenseStatus": null,
    "inService": null,
    "licenseNumber": null,
    "licenseEffectiveDate": null,
    "licenseExpirationDate": null,
    "dataDate": "10/18/2025",
    "capacity": 0,
    "address": "247 W EL CAMINO REAL, SUITE 200",
    "city": "MOUNTAIN VIEW",
    "zip": "94040",
    "county": "SANTA CLARA",
    "phone": "(650) 417-6460",
    "lat": 37.382994,
    "lng": -122.079285
  },
  {
    "id": "220001110",
    "name": "SURGERY CENTER MOUNTAIN VIEW",
    "npi": "1982845186",
    "hcaiId": "306434191",
    "businessName": "SUTTER BAY MEDICAL FOUNDATION",
    "contactEmail": "JOHN.SALAS@SUTTERHEALTH.ORG",
    "categoryName": "SURGICAL CLINIC",
    "categoryCode": "ASC/SURGC",
    "licenseStatus": "ACTIVE",
    "inService": true,
    "licenseNumber": "550000470",
    "licenseEffectiveDate": "05/11/2025",
    "licenseExpirationDate": "05/10/2026",
    "dataDate": "10/18/2025",
    "capacity": 0,
    "address": "701 E EL CAMINO REAL, 1NW",
    "city": "MOUNTAIN VIEW",
    "zip": "94040",
    "county": "SANTA CLARA",
    "phone": "(650) 404-8440",
    "lat": 37.376577,
    "lng": -122.064885
  },
  {
    "id": "220001058",
    "name": "VILLA SIENA",
    "npi": "1730183724",
    "hcaiId": "206431833",
    "businessName": "VILLA SIENA",
    "contactEmail": "CBERNARD@VILLA-SIENA.ORG",
    "categoryName": "SKILLED NURSING FACILITY",
    "categoryCode": "SNF",
    "licenseStatus": "ACTIVE",
    "inService": true,
    "licenseNumber": "220000432",
    "licenseEffectiveDate": "11/03/2024",
    "licenseExpirationDate": "11/02/2025",
    "dataDate": "10/18/2025",
    "capacity": 30,
    "address": "1855 MIRAMONTE AVE",
    "city": "MOUNTAIN VIEW",
    "zip": "94040",
    "county": "SANTA CLARA",
    "phone": "(650) 961-6484",
    "lat": 37.370664,
    "lng": -122.0859135
  }
]