[
  {
    "id": "630002621",
    "name": "BAY AREA MOBILE & DIAGNOSTIC INC.",
    "npi": null,
    "hcaiId": null,
    "businessName": null,
    "contactEmail": null,
    "categoryName": "OTHER",
    "categoryCode": "UNLICEN",
    "licenseStatus": null,
    "inService": null,
    "licenseNumber": null,
    "licenseEffectiveDate": null,
    "licenseExpirationDate": null,
    "dataDate": "10/18/2025",
    "capacity": 0,
    "address": "116 STANLEY ST",
    "city": "REDWOOD CITY",
    "zip": "94062",
    "county": "SAN MATEO",
    "phone": null,
    "lat": 37.476756,
    "lng": -122.2534395
  },
  {
    "id": "220000053",
    "name": "DEVONSHIRE OAKS NURSING CENTER",
    "npi": "1659461408",
    "hcaiId": "206413509",
    "businessName": "ST. THERESE CONVALESCENT HOSPITAL, INC.",
    "contactEmail": "ADMINISTRATOR@DEVONSHIREOAKSNC.COM",
    "categoryName": "SKILLED NURSING FACILITY",
    "categoryCode": "SNF",
    "licenseStatus": "ACTIVE",
    "inService": true,
    "licenseNumber": "220000175",
    "licenseEffectiveDate": "11/01/2025",
    "licenseExpirationDate": "10/31/2026",
    "dataDate": "10/18/2025",
    "capacity": 38,
    "address": "3635 JEFFERSON AVE",
    "city": "REDWOOD CITY",
    "zip": "94062",
    "county": "SAN MATEO",
    "phone": "(650) 366-9503",
    "lat": 37.4643,
    "lng": -122.252841
  },
  {
    "id": "220000457",
    "name": "KECKLEY, PAUL L. PT-IP",
    "npi": null,
    "hcaiId": null,
    "businessName": null,
    "contactEmail": null,
    "categoryName": "OTHER",
    "categoryCode": "UNLICEN",
    "licenseStatus": null,
    "inService": null,
    "licenseNumber": null,
    "licenseEffectiveDate": null,
    "licenseExpirationDate": null,
    "dataDate": "10/18/2025",
    "capacity": 0,
    "address": "77 BIRCH ST",
    "city": "REDWOOD CITY",
    "zip": "94062",
    "county": "SAN MATEO",
    "phone": "(415) 999-9999",
    "lat": 37.488177,
    "lng": -122.2400655
  },
  {
    "id": "220000025",
    "name": "SEQUOIA HOSPITAL",
    "npi": "1568646735",
    "hcaiId": "106410891",
    "businessName": "DIGNITY COMMUNITY CARE",
    "contactEmail": "ELISABETH.REID-GONZALEZ@COMMONSPIRIT.ORG",
    "categoryName": "GENERAL ACUTE CARE HOSPITAL",
    "categoryCode": "GACH",
    "licenseStatus": "ACTIVE",
    "inService": true,
    "licenseNumber": "220000045",
    "licenseEffectiveDate": "01/01/2025",
    "licenseExpirationDate": "12/31/2025",
    "dataDate": "10/18/2025",
    "capacity": 184,
    "address": "170 ALAMEDA DE LAS PULGAS",
    "city": "REDWOOD CITY",
    "zip": "94062",
    "county": "SAN MATEO",
    "phone": "(650) 367-5598",
    "lat": 37.479735,
    "lng": -122.2547985
  },
  {
    "id": "630017131",
    "name": "SEQUOIA TEEN WELLNESS CENTER",
    "npi": null,
    "hcaiId": null,
    "businessName": null,
    "contactEmail": null,
    "categoryName": "PRIMARY CARE CLINIC",
    "categoryCode": "FQHC",
    "licenseStatus": null,
    "inService": null,
    "licenseNumber": null,
    "licenseEffectiveDate": null,
    "licenseExpirationDate": null,
    "dataDate": "10/18/2025",
    "capacity": 0,
    "address": "200 JAMES AVE",
    "city": "REDWOOD CITY",
    "zip": "94062",
    "county": "SAN MATEO",
    "phone": "(650) 366-2927",
    "lat": 37.48339898,
    "lng": -122.2345005
  }
]