[
  {
    "id": "220000697",
    "name": "FAIR OAKS FAMILY HEALTH CENTER",
    "npi": null,
    "hcaiId": null,
    "businessName": null,
    "contactEmail": null,
    "categoryName": "OTHER",
    "categoryCode": "UNLICEN",
    "licenseStatus": null,
    "inService": null,
    "licenseNumber": null,
    "licenseEffectiveDate": null,
    "licenseExpirationDate": null,
    "dataDate": "10/18/2025",
    "capacity": 0,
    "address": "2501 MIDDLEFIELD RD",
    "city": "REDWOOD CITY",
    "zip": "94063",
    "county": "SAN MATEO",
    "phone": "(650) 364-6010",
    "lat": 37.47892451,
    "lng": -122.2146564
  },
  {
    "id": "630017010",
    "name": "FAIR OAKS HEALTH CENTER",
    "npi": null,
    "hcaiId": null,
    "businessName": null,
    "contactEmail": null,
    "categoryName": "PRIMARY CARE CLINIC",
    "categoryCode": "FQHC",
    "licenseStatus": null,
    "inService": null,
    "licenseNumber": null,
    "licenseEffectiveDate": null,
    "licenseExpirationDate": null,
    "dataDate": "10/18/2025",
    "capacity": 0,
    "address": "2710 MIDDLEFIELD ROAD",
    "city": "REDWOOD CITY",
    "zip": "94063",
    "county": "SAN MATEO",
    "phone": "(650) 578-7141",
    "lat": 37.47573,
    "lng": -122.2118235
  },
  {
    "id": "220001008",
    "name": "KAISER FOUNDATION HOSP HOME HEALTH - SANTA CLARA",
    "npi": "1588743181",
    "hcaiId": "406414092",
    "businessName": "KAISER FOUNDATION HOSPITALS",
    "contactEmail": null,
    "categoryName": "HOME HEALTH AGENCY",
    "categoryCode": "HHA",
    "licenseStatus": "ACTIVE",
    "inService": true,
    "licenseNumber": "220000406",
    "licenseEffectiveDate": "04/17/2025",
    "licenseExpirationDate": "11/30/2025",
    "dataDate": "10/18/2025",
    "capacity": 0,
    "address": "900 VETERANS BLVD, SUITE 400",
    "city": "REDWOOD CITY",
    "zip": "94063",
    "county": "SAN MATEO",
    "phone": "(650) 299-3208",
    "lat": 37.489662,
    "lng": -122.2276095
  },
  {
    "id": "220000010",
    "name": "KAISER FOUNDATION HOSPITAL - REDWOOD CITY",
    "npi": "1386714814",
    "hcaiId": "106414139",
    "businessName": "KAISER FOUNDATION HOSPITALS",
    "contactEmail": "DOROTHY.TOTAH@KP.ORG",
    "categoryName": "GENERAL ACUTE CARE HOSPITAL",
    "categoryCode": "GACH",
    "licenseStatus": "ACTIVE",
    "inService": true,
    "licenseNumber": "220000021",
    "licenseEffectiveDate": "12/23/2024",
    "licenseExpirationDate": "11/30/2025",
    "dataDate": "10/18/2025",
    "capacity": 153,
    "address": "1100 VETERANS BLVD",
    "city": "REDWOOD CITY",
    "zip": "94063",
    "county": "SAN MATEO",
    "phone": "(650) 207-8432",
    "lat": 37.488969,
    "lng": -122.2233435
  },
  {
    "id": "070001090",
    "name": "KAISER FOUNDATION HOSPITAL HOSPICE-SANTA CLARA",
    "npi": "1841364247",
    "hcaiId": "406414093",
    "businessName": "KAISER FOUNDATION HOSPITALS",
    "contactEmail": null,
    "categoryName": "HOSPICE",
    "categoryCode": "HOSPICE",
    "licenseStatus": "ACTIVE",
    "inService": true,
    "licenseNumber": "070000404",
    "licenseEffectiveDate": "04/17/2025",
    "licenseExpirationDate": "12/31/2025",
    "dataDate": "10/18/2025",
    "capacity": 0,
    "address": "900 VETERANS BLVD, SUITE 400",
    "city": "REDWOOD CITY",
    "zip": "94063",
    "county": "SAN MATEO",
    "phone": "(650) 780-3107",
    "lat": 37.489662,
    "lng": -122.2276095
  },
  {
    "id": "630011275",
    "name": "PENINSULA PROCEDURE CENTER, LP",
    "npi": null,
    "hcaiId": "306414101",
    "businessName": "PENINSULA PROCEDURE CENTER, LP",
    "contactEmail": null,
    "categoryName": "SURGICAL CLINIC",
    "categoryCode": "ASC",
    "licenseStatus": "INACTIVE - CAPEN DECISION",
    "inService": false,
    "licenseNumber": "550000577",
    "licenseEffectiveDate": "09/06/2007",
    "licenseExpirationDate": "03/05/2008",
    "dataDate": "10/18/2025",
    "capacity": 0,
    "address": "369 MAIN ST, SUITE 100",
    "city": "REDWOOD CITY",
    "zip": "94063",
    "county": "SAN MATEO",
    "phone": "(650) 366-4600",
    "lat": 37.490958,
    "lng": -122.2265655
  },
  {
    "id": "220000544",
    "name": "PROFESSIONAL TREATMENT, INC.",
    "npi": null,
    "hcaiId": null,
    "businessName": null,
    "contactEmail": null,
    "categoryName": "OTHER",
    "categoryCode": "UNLICEN",
    "licenseStatus": null,
    "inService": null,
    "licenseNumber": null,
    "licenseEffectiveDate": null,
    "licenseExpirationDate": null,
    "dataDate": "10/18/2025",
    "capacity": 0,
    "address": "500 ARGUELLO ST",
    "city": "REDWOOD CITY",
    "zip": "94063",
    "county": "SAN MATEO",
    "phone": "(650) 363-4401",
    "lat": 37.487655,
    "lng": -122.2333965
  },
  {
    "id": "630012633",
    "name": "REDWOOD CITY DIALYSIS",
    "npi": "1932435302",
    "hcaiId": "306414117",
    "businessName": "TOTAL RENAL CARE, INC.",
    "contactEmail": "CAL_C@DAVITA.COM",
    "categoryName": "CHRONIC DIALYSIS CLINIC",
    "categoryCode": "ESRD/CDC",
    "licenseStatus": "ACTIVE",
    "inService": true,
    "licenseNumber": "550001375",
    "licenseEffectiveDate": "11/23/2024",
    "licenseExpirationDate": "11/22/2025",
    "dataDate": "10/18/2025",
    "capacity": 24,
    "address": "1000 MARSHALL ST",
    "city": "REDWOOD CITY",
    "zip": "94063",
    "county": "SAN MATEO",
    "phone": "(650) 365-0129",
    "lat": 37.487367,
    "lng": -122.2241085
  },
  {
    "id": "630011514",
    "name": "SAMARITAN HOUSE FREE CLINIC OF REDWOOD CITY",
    "npi": null,
    "hcaiId": "306414104",
    "businessName": "SAMARITAN HOUSE",
    "contactEmail": "BSINGH@SAMARITANHOUSESANMATEO.ORG",
    "categoryName": "PRIMARY CARE CLINIC",
    "categoryCode": "FREEC",
    "licenseStatus": "ACTIVE",
    "inService": true,
    "licenseNumber": "550000700",
    "licenseEffectiveDate": "03/20/2025",
    "licenseExpirationDate": "03/19/2026",
    "dataDate": "10/18/2025",
    "capacity": 0,
    "address": "114 5TH AVE",
    "city": "REDWOOD CITY",
    "zip": "94063",
    "county": "SAN MATEO",
    "phone": "(650) 839-1447",
    "lat": 37.46875356,
    "lng": -122.2073114
  },
  {
    "id": "220000696",
    "name": "SO. COUNTY MENTAL HEALTH CENTER",
    "npi": null,
    "hcaiId": null,
    "businessName": null,
    "contactEmail": null,
    "categoryName": "OTHER",
    "categoryCode": "UNLICEN",
    "licenseStatus": null,
    "inService": null,
    "licenseNumber": null,
    "licenseEffectiveDate": null,
    "licenseExpirationDate": null,
    "dataDate": "10/18/2025",
    "capacity": 0,
    "address": "802 BREWSTER AVE",
    "city": "REDWOOD CITY",
    "zip": "94063",
    "county": "SAN MATEO",
    "phone": "(650) 363-4111",
    "lat": 37.488816,
    "lng": -122.2342155
  }
]