[
  {
    "id": "630019627",
    "name": "ALPHACARE HOME HEALTH",
    "npi": "1134768294",
    "hcaiId": "406412868",
    "businessName": "ALPHACARE HOME HEALTH CORP.",
    "contactEmail": "VICTOR@ALPHACAREHOMEHEALTH.COM",
    "categoryName": "HOME HEALTH AGENCY",
    "categoryCode": "HHA",
    "licenseStatus": "ACTIVE",
    "inService": true,
    "licenseNumber": "550005750",
    "licenseEffectiveDate": "11/05/2025",
    "licenseExpirationDate": "09/17/2026",
    "dataDate": "10/18/2025",
    "capacity": 0,
    "address": "903 SNEATH LN, SUITE 225",
    "city": "SAN BRUNO",
    "zip": "94066",
    "county": "SAN MATEO",
    "phone": "(650) 826-3375",
    "lat": 37.63535748,
    "lng": -122.4242675
  },
  {
    "id": "220001166",
    "name": "BERKSHIRE MANOR, INC.",
    "npi": "1073663274",
    "hcaiId": null,
    "businessName": "BERKSHIRE MANOR, INC.",
    "contactEmail": "GENTRYICF@YAHOO.COM",
    "categoryName": "INTERMEDIATE CARE FACILITY-DD/H/N/CN/IID",
    "categoryCode": "ICFDDH",
    "licenseStatus": "ACTIVE",
    "inService": true,
    "licenseNumber": "220000484",
    "licenseEffectiveDate": "03/17/2025",
    "licenseExpirationDate": "03/16/2026",
    "dataDate": "10/18/2025",
    "capacity": 6,
    "address": "2820 BERKSHIRE DR",
    "city": "SAN BRUNO",
    "zip": "94066",
    "county": "SAN MATEO",
    "phone": "(650) 873-8887",
    "lat": 37.634193,
    "lng": -122.452938
  },
  {
    "id": "220000928",
    "name": "COTTONWOOD HOME ICF/DDH",
    "npi": "1386784312",
    "hcaiId": null,
    "businessName": "CRE ENTERPRISE, INC.",
    "contactEmail": "LOUIE.B@COMCAST.NET",
    "categoryName": "INTERMEDIATE CARE FACILITY-DD/H/N/CN/IID",
    "categoryCode": "ICFDDH",
    "licenseStatus": "ACTIVE",
    "inService": true,
    "licenseNumber": "220000365",
    "licenseEffectiveDate": "12/29/2024",
    "licenseExpirationDate": "12/28/2025",
    "dataDate": "10/18/2025",
    "capacity": 6,
    "address": "2601 COTTONWOOD DR",
    "city": "SAN BRUNO",
    "zip": "94066",
    "county": "SAN MATEO",
    "phone": "(650) 303-6813",
    "lat": 37.629486,
    "lng": -122.4455265
  },
  {
    "id": "220000112",
    "name": "KAISER FOUNDATION HOSPITAL HOME HEALTH - BRANCH",
    "npi": "1619047016",
    "hcaiId": "406410749",
    "businessName": "KAISER FOUNDATION HOSPITALS",
    "contactEmail": null,
    "categoryName": "HOME HEALTH AGENCY",
    "categoryCode": "HHA",
    "licenseStatus": "ACTIVE",
    "inService": true,
    "licenseNumber": "220000112",
    "licenseEffectiveDate": "12/01/2024",
    "licenseExpirationDate": "11/30/2025",
    "dataDate": "10/18/2025",
    "capacity": 0,
    "address": "1011 SNEATH LN",
    "city": "SAN BRUNO",
    "zip": "94066",
    "county": "SAN MATEO",
    "phone": "(650) 742-2000",
    "lat": 37.633833,
    "lng": -122.426046
  },
  {
    "id": "630018625",
    "name": "SAN BRUNO DIALYSIS",
    "npi": null,
    "hcaiId": "306410476",
    "businessName": "WATKINS DIALYSIS, LLC",
    "contactEmail": "CAL_C@DAVITA.COM",
    "categoryName": "CHRONIC DIALYSIS CLINIC",
    "categoryCode": "ESRD/CDC",
    "licenseStatus": "ACTIVE",
    "inService": true,
    "licenseNumber": "550004964",
    "licenseEffectiveDate": "09/18/2025",
    "licenseExpirationDate": "09/17/2026",
    "dataDate": "10/18/2025",
    "capacity": 24,
    "address": "841 SAN BRUNO AVE W",
    "city": "SAN BRUNO",
    "zip": "94066",
    "county": "SAN MATEO",
    "phone": "(650) 794-1138",
    "lat": 37.628037,
    "lng": -122.417874
  },
  {
    "id": "220000081",
    "name": "SAN BRUNO SKILLED NURSING",
    "npi": "1205213105",
    "hcaiId": "206410877",
    "businessName": "SAN BRUNOIDENCE OPCO, LLC",
    "contactEmail": "JOSEPH.BURGOYNE@SANBRUNOHC.COM",
    "categoryName": "SKILLED NURSING FACILITY",
    "categoryCode": "SNF",
    "licenseStatus": "ACTIVE",
    "inService": true,
    "licenseNumber": "220000042",
    "licenseEffectiveDate": "11/06/2025",
    "licenseExpirationDate": "11/05/2026",
    "dataDate": "10/18/2025",
    "capacity": 45,
    "address": "890 EL CAMINO REAL",
    "city": "SAN BRUNO",
    "zip": "94066",
    "county": "SAN MATEO",
    "phone": "(208) 220-3064",
    "lat": 37.630476,
    "lng": -122.4171945
  },
  {
    "id": "220001127",
    "name": "SEACLIFF ICF/DD-H, INC.",
    "npi": "1427108620",
    "hcaiId": null,
    "businessName": "SEACLIFF ICF/DD-H, INC.",
    "contactEmail": "SEACLIFFICF@YAHOO.COM",
    "categoryName": "INTERMEDIATE CARE FACILITY-DD/H/N/CN/IID",
    "categoryCode": "ICFDDH",
    "licenseStatus": "ACTIVE",
    "inService": true,
    "licenseNumber": "220000462",
    "licenseEffectiveDate": "06/04/2025",
    "licenseExpirationDate": "06/03/2026",
    "dataDate": "10/18/2025",
    "capacity": 6,
    "address": "2040 SEA CLIFF WAY",
    "city": "SAN BRUNO",
    "zip": "94066",
    "county": "SAN MATEO",
    "phone": "(650) 359-0500",
    "lat": 37.63602,
    "lng": -122.4684945
  },
  {
    "id": "220001162",
    "name": "SUSAN MANOR ICF/DD-H",
    "npi": "1962627885",
    "hcaiId": null,
    "businessName": "B & M HOMES, INC.",
    "contactEmail": "LEGARDA_MARISSA@YAHOO.COM",
    "categoryName": "INTERMEDIATE CARE FACILITY-DD/H/N/CN/IID",
    "categoryCode": "ICFDDH",
    "licenseStatus": "ACTIVE",
    "inService": true,
    "licenseNumber": "220000483",
    "licenseEffectiveDate": "11/30/2024",
    "licenseExpirationDate": "11/29/2025",
    "dataDate": "10/18/2025",
    "capacity": 6,
    "address": "3271 SUSAN DR",
    "city": "SAN BRUNO",
    "zip": "94066",
    "county": "SAN MATEO",
    "phone": "(650) 359-7865",
    "lat": 37.635147,
    "lng": -122.459958
  },
  {
    "id": "630013368",
    "name": "VITAS HEALTHCARE CORPORATION OF CALIFORNIA - BRANCH",
    "npi": "1659415222",
    "hcaiId": "406414126",
    "businessName": "VITAS HEALTHCARE CORPORATION OF CALIFORNIA",
    "contactEmail": null,
    "categoryName": "HOSPICE",
    "categoryCode": "HOSPICE",
    "licenseStatus": "ACTIVE",
    "inService": true,
    "licenseNumber": "070000627",
    "licenseEffectiveDate": "05/13/2025",
    "licenseExpirationDate": "01/15/2026",
    "dataDate": "10/18/2025",
    "capacity": 0,
    "address": "801 TRAEGER AVE, SUITE 120",
    "city": "SAN BRUNO",
    "zip": "94066",
    "county": "SAN MATEO",
    "phone": "(650) 350-1835",
    "lat": 37.62759202,
    "lng": -122.422857
  },
  {
    "id": "220000718",
    "name": "YAKUSHI, FRANK PT-IP",
    "npi": null,
    "hcaiId": null,
    "businessName": null,
    "contactEmail": null,
    "categoryName": "OTHER",
    "categoryCode": "UNLICEN",
    "licenseStatus": null,
    "inService": null,
    "licenseNumber": null,
    "licenseEffectiveDate": null,
    "licenseExpirationDate": null,
    "dataDate": "10/18/2025",
    "capacity": 0,
    "address": "1001 SNEATH LN, SUITE 110",
    "city": "SAN BRUNO",
    "zip": "94066",
    "county": "SAN MATEO",
    "phone": "(650) 871-1590",
    "lat": 37.63404,
    "lng": -122.425488
  }
]