[
  {
    "id": "630019915",
    "name": "ATHOME HEALTHCARE TEAM - PENINSULA LLC",
    "npi": null,
    "hcaiId": "406413158",
    "businessName": "ATHOME HEALTHCARE TEAM - PENINSULA LLC",
    "contactEmail": "ATHOMEPENINSULA@GMAIL.COM",
    "categoryName": "HOME HEALTH AGENCY",
    "categoryCode": "HHA",
    "licenseStatus": "ACTIVE",
    "inService": true,
    "licenseNumber": "550006406",
    "licenseEffectiveDate": "06/08/2023",
    "licenseExpirationDate": "06/07/2024",
    "dataDate": "10/18/2025",
    "capacity": 0,
    "address": "1213 EATON AVE, SUITE 6B",
    "city": "SAN CARLOS",
    "zip": "94070",
    "county": "SAN MATEO",
    "phone": "(510) 717-5029",
    "lat": 37.49312193,
    "lng": -122.2455759
  },
  {
    "id": "220001187",
    "name": "DIGESTIVE CARE MEDICAL CENTER, INC.",
    "npi": null,
    "hcaiId": null,
    "businessName": null,
    "contactEmail": "DCMCDIGESTIVE@GMAIL.COM",
    "categoryName": "SURGICAL CLINIC",
    "categoryCode": "ASC",
    "licenseStatus": null,
    "inService": null,
    "licenseNumber": null,
    "licenseEffectiveDate": null,
    "licenseExpirationDate": null,
    "dataDate": "10/18/2025",
    "capacity": 0,
    "address": "1000 LAUREL ST, SUITE A",
    "city": "SAN CARLOS",
    "zip": "94070",
    "county": "SAN MATEO",
    "phone": "(650) 596-8118",
    "lat": 37.500894,
    "lng": -122.2547895
  },
  {
    "id": "140001240",
    "name": "SATELLITE HEALTHCARE SAN CARLOS",
    "npi": "1386615458",
    "hcaiId": "306414163",
    "businessName": "SATELLITE HEALTHCARE OF SAN CARLOS, LLC",
    "contactEmail": "LICENSING@SATELLITEHEALTH.COM",
    "categoryName": "CHRONIC DIALYSIS CLINIC",
    "categoryCode": "ESRD/CDC",
    "licenseStatus": "ACTIVE",
    "inService": true,
    "licenseNumber": "140000628",
    "licenseEffectiveDate": "01/26/2025",
    "licenseExpirationDate": "01/25/2026",
    "dataDate": "10/18/2025",
    "capacity": 27,
    "address": "1125 INDUSTRIAL ROAD, SUITE G",
    "city": "SAN CARLOS",
    "zip": "94070",
    "county": "SAN MATEO",
    "phone": "(650) 366-0789",
    "lat": 37.502342,
    "lng": -122.2469673
  },
  {
    "id": "630015543",
    "name": "SURGERY CENTER SAN CARLOS",
    "npi": "1164840088",
    "hcaiId": "306414144",
    "businessName": "SUTTER BAY MEDICAL FOUNDATION",
    "contactEmail": "ADRIANNA.CLARK@SUTTERHEALTH.ORG",
    "categoryName": "SURGICAL CLINIC",
    "categoryCode": "ASC/SURGC",
    "licenseStatus": "ACTIVE",
    "inService": true,
    "licenseNumber": "550003011",
    "licenseEffectiveDate": "12/30/2024",
    "licenseExpirationDate": "12/29/2025",
    "dataDate": "10/18/2025",
    "capacity": 0,
    "address": "301 INDUSTRIAL ROAD, SUITE 1SE",
    "city": "SAN CARLOS",
    "zip": "94070",
    "county": "SAN MATEO",
    "phone": "(650) 596-4205",
    "lat": 37.51488,
    "lng": -122.2594605
  },
  {
    "id": "220001133",
    "name": "VIBRANTCARE REHABILITATION - SAN CARLOS",
    "npi": null,
    "hcaiId": null,
    "businessName": null,
    "contactEmail": "SLAPLANTE@VIBRANTCARE.COM",
    "categoryName": "REHABILITATION CLINIC",
    "categoryCode": "OPT/SP",
    "licenseStatus": null,
    "inService": null,
    "licenseNumber": null,
    "licenseEffectiveDate": null,
    "licenseExpirationDate": null,
    "dataDate": "10/18/2025",
    "capacity": 0,
    "address": "690 INDUSTRIAL RD",
    "city": "SAN CARLOS",
    "zip": "94070",
    "county": "SAN MATEO",
    "phone": "(650) 999-9999",
    "lat": 37.50957,
    "lng": -122.254794
  }
]