[
  {
    "id": "220001051",
    "name": "CEDAR CREST NURSING AND REHABILITATION CENTER",
    "npi": "1982608303",
    "hcaiId": "206431686",
    "businessName": "GHC OF SUNNYVALE, LLC",
    "contactEmail": "JAVIERPADILLA@LIFEGEN.NET",
    "categoryName": "SKILLED NURSING FACILITY",
    "categoryCode": "SNF",
    "licenseStatus": "ACTIVE",
    "inService": true,
    "licenseNumber": "220000428",
    "licenseEffectiveDate": "01/31/2025",
    "licenseExpirationDate": "01/30/2026",
    "dataDate": "10/18/2025",
    "capacity": 99,
    "address": "797 E FREMONT AVE",
    "city": "SUNNYVALE",
    "zip": "94087",
    "county": "SANTA CLARA",
    "phone": "(408) 738-4880",
    "lat": 37.352943,
    "lng": -122.018337
  },
  {
    "id": "220001020",
    "name": "IDYLWOOD CARE CENTER",
    "npi": "1770501744",
    "hcaiId": "206430801",
    "businessName": "HELIOS HEALTHCARE, LLC",
    "contactEmail": "SHAKIRA.DALAL@CBHI.NET",
    "categoryName": "SKILLED NURSING FACILITY",
    "categoryCode": "SNF",
    "licenseStatus": "ACTIVE",
    "inService": true,
    "licenseNumber": "220000412",
    "licenseEffectiveDate": "11/04/2025",
    "licenseExpirationDate": "11/03/2026",
    "dataDate": "10/18/2025",
    "capacity": 185,
    "address": "1002 W FREMONT AVE",
    "city": "SUNNYVALE",
    "zip": "94087",
    "county": "SANTA CLARA",
    "phone": "(408) 739-2383",
    "lat": 37.351206,
    "lng": -122.0559615
  },
  {
    "id": "220001076",
    "name": "SUNNYVALE GARDENS POST ACUTE",
    "npi": "1679511331",
    "hcaiId": "206434026",
    "businessName": "SUNNYVALE COMMUNITY HEALTHCARE, LLC",
    "contactEmail": "ROBERT.PIERCE@SUNNYVALEPA.COM",
    "categoryName": "SKILLED NURSING FACILITY",
    "categoryCode": "SNF",
    "licenseStatus": "ACTIVE",
    "inService": true,
    "licenseNumber": "220000442",
    "licenseEffectiveDate": "04/25/2025",
    "licenseExpirationDate": "04/24/2026",
    "dataDate": "10/18/2025",
    "capacity": 140,
    "address": "1150 TILTON DR",
    "city": "SUNNYVALE",
    "zip": "94087",
    "county": "SANTA CLARA",
    "phone": "(408) 735-7200",
    "lat": 37.356264,
    "lng": -122.033052
  },
  {
    "id": "220001041",
    "name": "SUNNYVALE POST-ACUTE CENTER",
    "npi": "1679953004",
    "hcaiId": "206430909",
    "businessName": "JUJUBE HOLDINGS, LLC",
    "contactEmail": "JOSEPH.BURGOYNE@PACS.COM",
    "categoryName": "SKILLED NURSING FACILITY",
    "categoryCode": "SNF",
    "licenseStatus": "ACTIVE",
    "inService": true,
    "licenseNumber": "220000422",
    "licenseEffectiveDate": "12/01/2024",
    "licenseExpirationDate": "11/30/2025",
    "dataDate": "10/18/2025",
    "capacity": 99,
    "address": "1291 S BERNARDO AVE",
    "city": "SUNNYVALE",
    "zip": "94087",
    "county": "SANTA CLARA",
    "phone": "(408) 245-8070",
    "lat": 37.35288,
    "lng": -122.060061
  }
]