[
  {
    "id": "630025809",
    "name": "ACME HEALTH INC.",
    "npi": null,
    "hcaiId": null,
    "businessName": "ACME HEALTH INC.",
    "contactEmail": "ACMEHEALTHINC@GMAIL.COM",
    "categoryName": "HOME HEALTH AGENCY",
    "categoryCode": "HHA",
    "licenseStatus": "ACTIVE",
    "inService": true,
    "licenseNumber": "550009050",
    "licenseEffectiveDate": "03/22/2025",
    "licenseExpirationDate": "03/21/2026",
    "dataDate": "10/18/2025",
    "capacity": 0,
    "address": "156 S SPRUCE AVE, SUITE 211",
    "city": "SOUTH SAN FRANCISCO",
    "zip": "94080",
    "county": "SAN MATEO",
    "phone": "(650) 204-8899",
    "lat": 37.64968066,
    "lng": -122.4184667
  },
  {
    "id": "220000847",
    "name": "ANA'S ICF/DD-N",
    "npi": "1386855856",
    "hcaiId": null,
    "businessName": "L&N, INC.",
    "contactEmail": "LINA.ALFONSO52@GMAIL.COM",
    "categoryName": "INTERMEDIATE CARE FACILITY-DD/H/N/CN/IID",
    "categoryCode": "ICFDDN",
    "licenseStatus": "ACTIVE",
    "inService": true,
    "licenseNumber": "220000329",
    "licenseEffectiveDate": "11/25/2024",
    "licenseExpirationDate": "11/24/2025",
    "dataDate": "10/18/2025",
    "capacity": 6,
    "address": "655 COMMERCIAL AVE",
    "city": "SOUTH SAN FRANCISCO",
    "zip": "94080",
    "county": "SAN MATEO",
    "phone": "(650) 588-6498",
    "lat": 37.655631,
    "lng": -122.4227295
  },
  {
    "id": "630018931",
    "name": "ANGEL PALLIATIVE CARE AND HOSPICE",
    "npi": "1043775422",
    "hcaiId": "406412689",
    "businessName": "ANGEL PALLIATIVE CARE AND HOSPICE",
    "contactEmail": "ANGELHOSPICE111@GMAIL.COM",
    "categoryName": "HOSPICE",
    "categoryCode": "HOSPICE",
    "licenseStatus": "ACTIVE",
    "inService": true,
    "licenseNumber": "550005515",
    "licenseEffectiveDate": "06/01/2024",
    "licenseExpirationDate": "05/31/2026",
    "dataDate": "10/18/2025",
    "capacity": 0,
    "address": "90 S SPRUCE AVE, SUITE O",
    "city": "SOUTH SAN FRANCISCO",
    "zip": "94080",
    "county": "SAN MATEO",
    "phone": "(650) 590-2530",
    "lat": 37.65187104,
    "lng": -122.4177129
  },
  {
    "id": "220000805",
    "name": "BYRON ICF/DDH HOME",
    "npi": "1275697211",
    "hcaiId": null,
    "businessName": "FAMILY HOMES, INC.",
    "contactEmail": "FHICIROVER@GMAIL.COM",
    "categoryName": "INTERMEDIATE CARE FACILITY-DD/H/N/CN/IID",
    "categoryCode": "ICFDDH",
    "licenseStatus": "ACTIVE",
    "inService": true,
    "licenseNumber": "220000311",
    "licenseEffectiveDate": "04/01/2025",
    "licenseExpirationDate": "03/31/2026",
    "dataDate": "10/18/2025",
    "capacity": 6,
    "address": "853 NEWMAN DR",
    "city": "SOUTH SAN FRANCISCO",
    "zip": "94080",
    "county": "SAN MATEO",
    "phone": "(650) 991-3926",
    "lat": 37.661319,
    "lng": -122.456268
  },
  {
    "id": "220001157",
    "name": "CAMEO ICF/DDH HOME",
    "npi": "1326104522",
    "hcaiId": null,
    "businessName": "CAMEO CARE, INC.",
    "contactEmail": "FHICIROVER@GMAIL.COM",
    "categoryName": "INTERMEDIATE CARE FACILITY-DD/H/N/CN/IID",
    "categoryCode": "ICFDDH",
    "licenseStatus": "ACTIVE",
    "inService": true,
    "licenseNumber": "220000481",
    "licenseEffectiveDate": "04/30/2025",
    "licenseExpirationDate": "04/29/2026",
    "dataDate": "10/18/2025",
    "capacity": 6,
    "address": "865 ALTA LOMA DR",
    "city": "SOUTH SAN FRANCISCO",
    "zip": "94080",
    "county": "SAN MATEO",
    "phone": "(650) 921-2769",
    "lat": 37.661535,
    "lng": -122.454306
  },
  {
    "id": "630012290",
    "name": "CVH CARE",
    "npi": "1346540580",
    "hcaiId": "406414159",
    "businessName": "CASTRO VALLEY HEALTH INC.",
    "contactEmail": "COMPLIANCE@CVHCARE.COM",
    "categoryName": "HOME HEALTH AGENCY",
    "categoryCode": "HHA",
    "licenseStatus": "ACTIVE",
    "inService": true,
    "licenseNumber": "550001160",
    "licenseEffectiveDate": "11/12/2025",
    "licenseExpirationDate": "11/11/2026",
    "dataDate": "10/18/2025",
    "capacity": 0,
    "address": "220 S SPRUCE AVE, SUITE 204",
    "city": "SOUTH SAN FRANCISCO",
    "zip": "94080",
    "county": "SAN MATEO",
    "phone": "(510) 690-1930",
    "lat": 37.648179,
    "lng": -122.4196785
  },
  {
    "id": "630021806",
    "name": "FRESENIUS KIDNEY CARE SOUTH SAN FRANCISCO",
    "npi": null,
    "hcaiId": "306410676",
    "businessName": "BIO-MEDICAL APPLICATIONS OF CALIFORNIA, INC.",
    "contactEmail": "MARIAZHAZHA.BONILLA1@FRESENIUSMEDICALCARE.COM",
    "categoryName": "CHRONIC DIALYSIS CLINIC",
    "categoryCode": "ESRD/CDC",
    "licenseStatus": "ACTIVE",
    "inService": true,
    "licenseNumber": "550007910",
    "licenseEffectiveDate": "03/10/2025",
    "licenseExpirationDate": "03/09/2026",
    "dataDate": "10/18/2025",
    "capacity": 24,
    "address": "160 COUNTRY CLUB DR",
    "city": "SOUTH SAN FRANCISCO",
    "zip": "94080",
    "county": "SAN MATEO",
    "phone": "(650) 825-6060",
    "lat": 37.645632,
    "lng": -122.428998
  },
  {
    "id": "630016533",
    "name": "GENTRY ICF, INC.",
    "npi": "1487015558",
    "hcaiId": null,
    "businessName": "GENTRY ICF, INC.",
    "contactEmail": "GENTRYICF@YAHOO.COM",
    "categoryName": "INTERMEDIATE CARE FACILITY-DD/H/N/CN/IID",
    "categoryCode": "ICFDDH",
    "licenseStatus": "ACTIVE",
    "inService": true,
    "licenseNumber": "550003855",
    "licenseEffectiveDate": "01/17/2025",
    "licenseExpirationDate": "01/16/2026",
    "dataDate": "10/18/2025",
    "capacity": 6,
    "address": "2725 SHANNON DRIVE",
    "city": "SOUTH SAN FRANCISCO",
    "zip": "94080",
    "county": "SAN MATEO",
    "phone": "(650) 877-9990",
    "lat": 37.636146,
    "lng": -122.449338
  },
  {
    "id": "220000009",
    "name": "KAISER FOUNDATION HOSPITAL - SOUTH SAN FRANCISCO",
    "npi": "1982774337",
    "hcaiId": "106410806",
    "businessName": "KAISER FOUNDATION HOSPITALS",
    "contactEmail": "MARGARET.AGTUAL@KP.ORG",
    "categoryName": "GENERAL ACUTE CARE HOSPITAL",
    "categoryCode": "GACH",
    "licenseStatus": "ACTIVE",
    "inService": true,
    "licenseNumber": "220000022",
    "licenseEffectiveDate": "12/01/2024",
    "licenseExpirationDate": "11/30/2025",
    "dataDate": "10/18/2025",
    "capacity": 120,
    "address": "1200 EL CAMINO REAL",
    "city": "SOUTH SAN FRANCISCO",
    "zip": "94080",
    "county": "SAN MATEO",
    "phone": "(650) 304-2016",
    "lat": 37.659249,
    "lng": -122.4391995
  },
  {
    "id": "220000509",
    "name": "MEDICAL CARE PROFESSIONALS",
    "npi": null,
    "hcaiId": "406414002",
    "businessName": "MEDICAL CARE PROFESSIONALS, INC.",
    "contactEmail": "SHARON@MEDICALCAREPROFESSIONALS.COM",
    "categoryName": "HOME HEALTH AGENCY",
    "categoryCode": "HHA",
    "licenseStatus": "ACTIVE",
    "inService": true,
    "licenseNumber": "220000227",
    "licenseEffectiveDate": "11/30/2024",
    "licenseExpirationDate": "11/29/2025",
    "dataDate": "10/18/2025",
    "capacity": 0,
    "address": "363 EL CAMINO REAL, SUITE 215",
    "city": "SOUTH SAN FRANCISCO",
    "zip": "94080",
    "county": "SAN MATEO",
    "phone": "(650) 583-9898",
    "lat": 37.64498389,
    "lng": -122.4270162
  },
  {
    "id": "220000937",
    "name": "NEWMAN ICF/DDN HOME",
    "npi": "1356408314",
    "hcaiId": null,
    "businessName": "FAMILY HOMES, INC.",
    "contactEmail": "FHICIROVER@GMAIL.COM",
    "categoryName": "INTERMEDIATE CARE FACILITY-DD/H/N/CN/IID",
    "categoryCode": "ICFDDN",
    "licenseStatus": "ACTIVE",
    "inService": true,
    "licenseNumber": "220000363",
    "licenseEffectiveDate": "03/17/2025",
    "licenseExpirationDate": "03/16/2026",
    "dataDate": "10/18/2025",
    "capacity": 6,
    "address": "830 NEWMAN DR",
    "city": "SOUTH SAN FRANCISCO",
    "zip": "94080",
    "county": "SAN MATEO",
    "phone": "(650) 994-1596",
    "lat": 37.660743,
    "lng": -122.455395
  },
  {
    "id": "070001077",
    "name": "PATHWAYS HOME HEALTH AND HOSPICE",
    "npi": null,
    "hcaiId": "406414087",
    "businessName": "PATHWAYS HOME HEALTH AND HOSPICE",
    "contactEmail": "SROBINSON@PATHWAYSHEALTH.ORG",
    "categoryName": "HOSPICE",
    "categoryCode": "HOSPICE",
    "licenseStatus": "ACTIVE",
    "inService": true,
    "licenseNumber": "070000462",
    "licenseEffectiveDate": "12/15/2024",
    "licenseExpirationDate": "12/14/2026",
    "dataDate": "10/18/2025",
    "capacity": 0,
    "address": "395 OYSTER POINT BLVD, SUITE 128",
    "city": "SOUTH SAN FRANCISCO",
    "zip": "94080",
    "county": "SAN MATEO",
    "phone": "(415) 567-3973",
    "lat": 37.667439,
    "lng": -122.38308
  },
  {
    "id": "630017342",
    "name": "PATHWAYS HOME HEALTH AND HOSPICE - BRANCH",
    "npi": null,
    "hcaiId": "406412962",
    "businessName": "PATHWAYS HOME HEALTH AND HOSPICE",
    "contactEmail": "INFO@PATHWAYSHEALTH.ORG",
    "categoryName": "HOME HEALTH AGENCY",
    "categoryCode": "HHA",
    "licenseStatus": "ACTIVE",
    "inService": true,
    "licenseNumber": "220000429",
    "licenseEffectiveDate": "01/01/2025",
    "licenseExpirationDate": "12/31/2025",
    "dataDate": "10/18/2025",
    "capacity": 0,
    "address": "395 OYSTER POINT BLVD, SUITE 128",
    "city": "SOUTH SAN FRANCISCO",
    "zip": "94080",
    "county": "SAN MATEO",
    "phone": "(650) 634-0133",
    "lat": 37.667439,
    "lng": -122.38308
  },
  {
    "id": "630028066",
    "name": "PENINSULA DIALYSIS ACCESS CENTER",
    "npi": null,
    "hcaiId": null,
    "businessName": null,
    "contactEmail": "AALIGNAY@PENDIAC.COM",
    "categoryName": "SURGICAL CLINIC",
    "categoryCode": "ASC",
    "licenseStatus": null,
    "inService": null,
    "licenseNumber": null,
    "licenseEffectiveDate": null,
    "licenseExpirationDate": null,
    "dataDate": "10/18/2025",
    "capacity": 0,
    "address": "91 WESTBOROUGH BLVD, SUITE 1010",
    "city": "SOUTH SAN FRANCISCO",
    "zip": "94080",
    "county": "SAN MATEO",
    "phone": "(916) 230-1574",
    "lat": 37.65392402,
    "lng": -122.435721
  },
  {
    "id": "220000982",
    "name": "PHILIP'S HOME, ICF/DD-H",
    "npi": "1790991560",
    "hcaiId": null,
    "businessName": "E & P EVANGELISTA & ASSOCIATES, INC.",
    "contactEmail": "TELLYEVAN@YAHOO.COM",
    "categoryName": "INTERMEDIATE CARE FACILITY-DD/H/N/CN/IID",
    "categoryCode": "ICFDDH",
    "licenseStatus": "ACTIVE",
    "inService": true,
    "licenseNumber": "220000389",
    "licenseEffectiveDate": "11/05/2024",
    "licenseExpirationDate": "11/04/2025",
    "dataDate": "10/18/2025",
    "capacity": 6,
    "address": "933 NEWMAN DR",
    "city": "SOUTH SAN FRANCISCO",
    "zip": "94080",
    "county": "SAN MATEO",
    "phone": "(650) 758-1112",
    "lat": 37.664532,
    "lng": -122.458095
  },
  {
    "id": "220001160",
    "name": "ROSEWOOD HOME ICF/DDH",
    "npi": "1891822219",
    "hcaiId": null,
    "businessName": "CRE ENTERPRISE, INC.",
    "contactEmail": "LOUIE.B@COMCAST.NET",
    "categoryName": "INTERMEDIATE CARE FACILITY-DD/H/N/CN/IID",
    "categoryCode": "ICFDDH",
    "licenseStatus": "ACTIVE",
    "inService": true,
    "licenseNumber": "220000482",
    "licenseEffectiveDate": "12/01/2024",
    "licenseExpirationDate": "11/30/2025",
    "dataDate": "10/18/2025",
    "capacity": 6,
    "address": "138 ROSEWOOD WAY",
    "city": "SOUTH SAN FRANCISCO",
    "zip": "94080",
    "county": "SAN MATEO",
    "phone": "(650) 228-6584",
    "lat": 37.638027,
    "lng": -122.432292
  },
  {
    "id": "140001280",
    "name": "SATELLITE HEALTHCARE SOUTH SAN FRANCISCO",
    "npi": "1245261866",
    "hcaiId": "306414077",
    "businessName": "SATELLITE HEALTHCARE OF NORTH SAN MATEO COUNTY, LLC",
    "contactEmail": null,
    "categoryName": "CHRONIC DIALYSIS CLINIC",
    "categoryCode": "ESRD/CDC",
    "licenseStatus": "ACTIVE",
    "inService": true,
    "licenseNumber": "140000650",
    "licenseEffectiveDate": "10/03/2025",
    "licenseExpirationDate": "10/02/2026",
    "dataDate": "10/18/2025",
    "capacity": 24,
    "address": "205 KENWOOD WAY",
    "city": "SOUTH SAN FRANCISCO",
    "zip": "94080",
    "county": "SAN MATEO",
    "phone": "(650) 616-7788",
    "lat": 37.64178,
    "lng": -122.4259425
  },
  {
    "id": "220000804",
    "name": "SHANNON ICF/DDH HOME",
    "npi": "1538224241",
    "hcaiId": null,
    "businessName": "FAMILY HOMES, INC.",
    "contactEmail": "FHICIROVER@GMAIL.COM",
    "categoryName": "INTERMEDIATE CARE FACILITY-DD/H/N/CN/IID",
    "categoryCode": "ICFDDH",
    "licenseStatus": "ACTIVE",
    "inService": true,
    "licenseNumber": "220000304",
    "licenseEffectiveDate": "03/17/2025",
    "licenseExpirationDate": "03/16/2026",
    "dataDate": "10/18/2025",
    "capacity": 6,
    "address": "2 ARLINGTON DR",
    "city": "SOUTH SAN FRANCISCO",
    "zip": "94080",
    "county": "SAN MATEO",
    "phone": "(650) 991-7396",
    "lat": 37.670481,
    "lng": -122.453559
  },
  {
    "id": "630013918",
    "name": "SOUTH SAN FRANCISCO AT HOME",
    "npi": "1417213554",
    "hcaiId": null,
    "businessName": null,
    "contactEmail": "CYNTHIA.HUTCHISON@DAVITA.COM",
    "categoryName": "CHRONIC DIALYSIS CLINIC",
    "categoryCode": "ESRD",
    "licenseStatus": null,
    "inService": null,
    "licenseNumber": null,
    "licenseEffectiveDate": null,
    "licenseExpirationDate": null,
    "dataDate": "10/18/2025",
    "capacity": 0,
    "address": "74 CAMARITAS AVE",
    "city": "SOUTH SAN FRANCISCO",
    "zip": "94080",
    "county": "SAN MATEO",
    "phone": "(650) 589-8562",
    "lat": 37.654983,
    "lng": -122.436783
  },
  {
    "id": "630017133",
    "name": "SOUTH SAN FRANCISCO CLINIC",
    "npi": null,
    "hcaiId": null,
    "businessName": null,
    "contactEmail": null,
    "categoryName": "PRIMARY CARE CLINIC",
    "categoryCode": "FQHC",
    "licenseStatus": null,
    "inService": null,
    "licenseNumber": null,
    "licenseEffectiveDate": null,
    "licenseExpirationDate": null,
    "dataDate": "10/18/2025",
    "capacity": 0,
    "address": "306 SPRUCE AVE",
    "city": "SOUTH SAN FRANCISCO",
    "zip": "94080",
    "county": "SAN MATEO",
    "phone": "(650) 877-7070",
    "lat": 37.65702756,
    "lng": -122.4157546
  },
  {
    "id": "220001196",
    "name": "THE BRADFORD HOME ICF/DD-N",
    "npi": "1609082478",
    "hcaiId": null,
    "businessName": "BRADFORD HOME, INC.",
    "contactEmail": "TELLYEVAN@YAHOO.COM",
    "categoryName": "INTERMEDIATE CARE FACILITY-DD/H/N/CN/IID",
    "categoryCode": "ICFDDN",
    "licenseStatus": "ACTIVE",
    "inService": true,
    "licenseNumber": "220000495",
    "licenseEffectiveDate": "11/28/2024",
    "licenseExpirationDate": "11/27/2025",
    "dataDate": "10/18/2025",
    "capacity": 6,
    "address": "59 BRADFORD DR",
    "city": "SOUTH SAN FRANCISCO",
    "zip": "94080",
    "county": "SAN MATEO",
    "phone": "(650) 758-2722",
    "lat": 37.667313,
    "lng": -122.457726
  },
  {
    "id": "630012973",
    "name": "TRUEMED, INC",
    "npi": "1962707406",
    "hcaiId": "406414123",
    "businessName": "TRUEMED, INC",
    "contactEmail": "INFO@MYTRUEMED.COM",
    "categoryName": "HOME HEALTH AGENCY",
    "categoryCode": "HHA",
    "licenseStatus": "ACTIVE",
    "inService": true,
    "licenseNumber": "550001566",
    "licenseEffectiveDate": "03/21/2025",
    "licenseExpirationDate": "03/20/2026",
    "dataDate": "10/18/2025",
    "capacity": 0,
    "address": "400 OYSTER POINT BLVD, SUITE 201",
    "city": "SOUTH SAN FRANCISCO",
    "zip": "94080",
    "county": "SAN MATEO",
    "phone": "(650) 588-8331",
    "lat": 37.665549,
    "lng": -122.3824545
  }
]