[
  {
    "id": "630027738",
    "name": "FIVE STAR HOME CARE",
    "npi": null,
    "hcaiId": null,
    "businessName": "FIVE STAR HOME CARE LLC",
    "contactEmail": "INFO.FIVESTARHOMECARE@GMAIL.COM",
    "categoryName": "HOME HEALTH AGENCY",
    "categoryCode": "HHA",
    "licenseStatus": "ACTIVE",
    "inService": true,
    "licenseNumber": "550009816",
    "licenseEffectiveDate": "11/15/2025",
    "licenseExpirationDate": "05/14/2026",
    "dataDate": "10/18/2025",
    "capacity": 0,
    "address": "830 STEWART DR, SUITE 151",
    "city": "SUNNYVALE",
    "zip": "94085",
    "county": "SANTA CLARA",
    "phone": "(650) 814-0056",
    "lat": 37.38347801,
    "lng": -122.009621
  },
  {
    "id": "630020801",
    "name": "GOLD STAR HOSPICE, LLC",
    "npi": null,
    "hcaiId": "406435033",
    "businessName": "GOLD STAR HOSPICE, LLC",
    "contactEmail": "SRAJOO309@GMAIL.COM",
    "categoryName": "HOSPICE",
    "categoryCode": "HOSPICE",
    "licenseStatus": "ACTIVE",
    "inService": true,
    "licenseNumber": "550007087",
    "licenseEffectiveDate": "10/18/2025",
    "licenseExpirationDate": "10/17/2027",
    "dataDate": "10/18/2025",
    "capacity": 0,
    "address": "830 STEWART DR, SUITE 185",
    "city": "SUNNYVALE",
    "zip": "94085",
    "county": "SANTA CLARA",
    "phone": "(650) 814-0056",
    "lat": 37.383552,
    "lng": -122.009625
  },
  {
    "id": "630007441",
    "name": "MAYVIEW COMMUNITY HEALTH CENTER SUNNYVALE, A MEMBER OF RAVENSWOOD FAMILY HEALTH NETWORK",
    "npi": null,
    "hcaiId": "306434179",
    "businessName": "SOUTH COUNTY COMMUNITY HEALTH CENTER, INC.",
    "contactEmail": "ADMIN@MAYVIEW.ORG",
    "categoryName": "PRIMARY CARE CLINIC",
    "categoryCode": "COMTYC",
    "licenseStatus": "ACTIVE",
    "inService": true,
    "licenseNumber": "220000468",
    "licenseEffectiveDate": "10/08/2025",
    "licenseExpirationDate": "12/20/2025",
    "dataDate": "10/18/2025",
    "capacity": 0,
    "address": "785 MORSE AVE",
    "city": "SUNNYVALE",
    "zip": "94085",
    "county": "SANTA CLARA",
    "phone": "(650) 475-1500",
    "lat": 37.394163,
    "lng": -122.020146
  },
  {
    "id": "070000721",
    "name": "PATHWAYS HOME HEALTH AND HOSPICE",
    "npi": null,
    "hcaiId": "406434166",
    "businessName": "PATHWAYS HOME HEALTH AND HOSPICE",
    "contactEmail": "PATHWAYS.INFO@COMMONSPIRITHEALTHATHOME.ORG",
    "categoryName": "HOSPICE",
    "categoryCode": "HOSPICE",
    "licenseStatus": "ACTIVE",
    "inService": true,
    "licenseNumber": "070000462",
    "licenseEffectiveDate": "12/15/2024",
    "licenseExpirationDate": "12/14/2026",
    "dataDate": "10/18/2025",
    "capacity": 0,
    "address": "585 N MARY AVE",
    "city": "SUNNYVALE",
    "zip": "94085",
    "county": "SANTA CLARA",
    "phone": "(408) 730-5100",
    "lat": 37.392678,
    "lng": -122.037903
  },
  {
    "id": "220001053",
    "name": "PATHWAYS HOME HEALTH AND HOSPICE",
    "npi": "1407069743",
    "hcaiId": "406434172",
    "businessName": "PATHWAYS HOME HEALTH AND HOSPICE",
    "contactEmail": "PATHWAYS.INFO@COMMONSPIRITHEALTHATHOME.ORG",
    "categoryName": "HOME HEALTH AGENCY",
    "categoryCode": "HHA",
    "licenseStatus": "ACTIVE",
    "inService": true,
    "licenseNumber": "220000429",
    "licenseEffectiveDate": "01/01/2025",
    "licenseExpirationDate": "12/31/2025",
    "dataDate": "10/18/2025",
    "capacity": 0,
    "address": "585 N MARY AVE",
    "city": "SUNNYVALE",
    "zip": "94085",
    "county": "SANTA CLARA",
    "phone": "(408) 730-5900",
    "lat": 37.392678,
    "lng": -122.037903
  },
  {
    "id": "630026233",
    "name": "SATELLITE HEALTHCARE NORTH SUNNYVALE",
    "npi": null,
    "hcaiId": "306430805",
    "businessName": "SATELLITE DIALYSIS OF NORTH SUNNYVALE, LLC",
    "contactEmail": "LICENSING@SATELLITEHEALTH.COM",
    "categoryName": "CHRONIC DIALYSIS CLINIC",
    "categoryCode": "ESRD/CDC",
    "licenseStatus": "ACTIVE",
    "inService": true,
    "licenseNumber": "550008247",
    "licenseEffectiveDate": "11/29/2024",
    "licenseExpirationDate": "11/28/2025",
    "dataDate": "10/18/2025",
    "capacity": 29,
    "address": "610 N PASTORIA AVE",
    "city": "SUNNYVALE",
    "zip": "94085",
    "county": "SANTA CLARA",
    "phone": "(408) 215-1475",
    "lat": 37.393065,
    "lng": -122.033214
  }
]