[
  {
    "id": "630017269",
    "name": "ASIAN AND PACIFIC ISLANDER WELLNESS CENTER, INC.",
    "npi": null,
    "hcaiId": null,
    "businessName": "ASIAN AND PACIFIC ISLANDER WELLNESS CENTER, INC.",
    "contactEmail": null,
    "categoryName": "PRIMARY CARE CLINIC",
    "categoryCode": "COMTYC",
    "licenseStatus": "ACTIVE",
    "inService": true,
    "licenseNumber": "550001294",
    "licenseEffectiveDate": "06/02/2025",
    "licenseExpirationDate": "06/01/2026",
    "dataDate": "10/18/2025",
    "capacity": 0,
    "address": "1800 MARKET ST, FLOOR 4TH",
    "city": "SAN FRANCISCO",
    "zip": "94102",
    "county": "SAN FRANCISCO",
    "phone": "(415) 292-3420",
    "lat": 37.771776,
    "lng": -122.42403
  },
  {
    "id": "220001150",
    "name": "BAART COMMUNITY HEALTHCARE",
    "npi": null,
    "hcaiId": "306384192",
    "businessName": "BAART COMMUNITY HEALTHCARE",
    "contactEmail": "MHENDRICKS@BAARTPROGRAMS.COM",
    "categoryName": "PRIMARY CARE CLINIC",
    "categoryCode": "COMTYC",
    "licenseStatus": "ACTIVE",
    "inService": true,
    "licenseNumber": "220000478",
    "licenseEffectiveDate": "05/29/2025",
    "licenseExpirationDate": "05/28/2026",
    "dataDate": "10/18/2025",
    "capacity": 0,
    "address": "433 TURK ST",
    "city": "SAN FRANCISCO",
    "zip": "94102",
    "county": "SAN FRANCISCO",
    "phone": "(415) 928-7800",
    "lat": 37.782216,
    "lng": -122.416299
  },
  {
    "id": "070001268",
    "name": "BY THE BAY HEALTH",
    "npi": "1215987532",
    "hcaiId": "406384206",
    "businessName": "BY THE BAY HEALTH",
    "contactEmail": "COMPLIANCE@BYTHEBAYHEALTH.ORG",
    "categoryName": "HOSPICE",
    "categoryCode": "HOSPICE",
    "licenseStatus": "ACTIVE",
    "inService": true,
    "licenseNumber": "550001034",
    "licenseEffectiveDate": "05/05/2025",
    "licenseExpirationDate": "05/04/2027",
    "dataDate": "10/18/2025",
    "capacity": 0,
    "address": "180 REDWOOD ST, SUITE 350",
    "city": "SAN FRANCISCO",
    "zip": "94102",
    "county": "SAN FRANCISCO",
    "phone": "(415) 720-8177",
    "lat": 37.780839,
    "lng": -122.4199575
  },
  {
    "id": "220000346",
    "name": "CENTRAL CITY DAY TREATMENT",
    "npi": null,
    "hcaiId": null,
    "businessName": null,
    "contactEmail": null,
    "categoryName": "OTHER",
    "categoryCode": "UNLICEN",
    "licenseStatus": null,
    "inService": null,
    "licenseNumber": null,
    "licenseEffectiveDate": null,
    "licenseExpirationDate": null,
    "dataDate": "10/18/2025",
    "capacity": 0,
    "address": "255 HYDE ST # 259",
    "city": "SAN FRANCISCO",
    "zip": "94102",
    "county": "SAN FRANCISCO",
    "phone": "(415) 864-0207",
    "lat": 37.78317428,
    "lng": -122.4158745
  },
  {
    "id": "220000551",
    "name": "CITYWIDE CASE MANAGEMENT (RECIDIVISM)",
    "npi": null,
    "hcaiId": null,
    "businessName": null,
    "contactEmail": null,
    "categoryName": "OTHER",
    "categoryCode": "UNLICEN",
    "licenseStatus": null,
    "inService": null,
    "licenseNumber": null,
    "licenseEffectiveDate": null,
    "licenseExpirationDate": null,
    "dataDate": "10/18/2025",
    "capacity": 0,
    "address": "251 HYDE ST",
    "city": "SAN FRANCISCO",
    "zip": "94102",
    "county": "SAN FRANCISCO",
    "phone": "(415) 673-5700",
    "lat": 37.783143,
    "lng": -122.4159795
  },
  {
    "id": "220000169",
    "name": "CURRY SENIOR CENTER",
    "npi": "1851332167",
    "hcaiId": "306382735",
    "businessName": null,
    "contactEmail": "INFO@CURRYSENIORCENTER.ORG",
    "categoryName": "PRIMARY CARE CLINIC",
    "categoryCode": "FQHC",
    "licenseStatus": null,
    "inService": null,
    "licenseNumber": null,
    "licenseEffectiveDate": null,
    "licenseExpirationDate": null,
    "dataDate": "10/18/2025",
    "capacity": 0,
    "address": "333 TURK ST",
    "city": "SAN FRANCISCO",
    "zip": "94102",
    "county": "SAN FRANCISCO",
    "phone": "(415) 920-1351",
    "lat": 37.78263,
    "lng": -122.4145845
  },
  {
    "id": "630014562",
    "name": "HAYES VALLEY SURGERY CENTER",
    "npi": "1508144007",
    "hcaiId": null,
    "businessName": null,
    "contactEmail": "RNGAI@HAYESSURGERY.COM",
    "categoryName": "SURGICAL CLINIC",
    "categoryCode": "ASC",
    "licenseStatus": null,
    "inService": null,
    "licenseNumber": null,
    "licenseEffectiveDate": null,
    "licenseExpirationDate": null,
    "dataDate": "10/18/2025",
    "capacity": 0,
    "address": "77 VAN NESS AVE, SUITE 301",
    "city": "SAN FRANCISCO",
    "zip": "94102",
    "county": "SAN FRANCISCO",
    "phone": "(415) 821-8015",
    "lat": 37.776096,
    "lng": -122.419683
  },
  {
    "id": "630019920",
    "name": "NORTH EAST MEDICAL SERVICES - POLK",
    "npi": "1104103001",
    "hcaiId": null,
    "businessName": "NORTH EAST MEDICAL SERVICES",
    "contactEmail": "JACEY.LABORTE@NEMS.ORG",
    "categoryName": "PRIMARY CARE CLINIC",
    "categoryCode": "COMTYC",
    "licenseStatus": "ACTIVE",
    "inService": true,
    "licenseNumber": "550001796",
    "licenseEffectiveDate": "12/15/2024",
    "licenseExpirationDate": "12/14/2025",
    "dataDate": "10/18/2025",
    "capacity": 0,
    "address": "650 POLK ST",
    "city": "SAN FRANCISCO",
    "zip": "94102",
    "county": "SAN FRANCISCO",
    "phone": "(415) 652-5004",
    "lat": 37.782828,
    "lng": -122.418855
  },
  {
    "id": "630020717",
    "name": "PACIFIC VISION SURGERY CENTER LLC",
    "npi": "1841858594",
    "hcaiId": null,
    "businessName": null,
    "contactEmail": "ICDEMAN@PVEYESURGERY.COM",
    "categoryName": "SURGICAL CLINIC",
    "categoryCode": "ASC",
    "licenseStatus": null,
    "inService": null,
    "licenseNumber": null,
    "licenseEffectiveDate": null,
    "licenseExpirationDate": null,
    "dataDate": "10/18/2025",
    "capacity": 0,
    "address": "711 VAN NESS AVE, SUITE 230",
    "city": "SAN FRANCISCO",
    "zip": "94102",
    "county": "SAN FRANCISCO",
    "phone": "(415) 997-6410",
    "lat": 37.782153,
    "lng": -122.420988
  },
  {
    "id": "630014284",
    "name": "SAN FRANCISCO CITY IMPACT HEALTH & WELLNESS CENTER",
    "npi": null,
    "hcaiId": "306384228",
    "businessName": "SAN FRANCISCO RESCUE MISSION, SAN FRANCISCO BAY AREA RESCUE MISSION",
    "contactEmail": "PRSF911@GMAIL.COM",
    "categoryName": "PRIMARY CARE CLINIC",
    "categoryCode": "FREEC",
    "licenseStatus": "ACTIVE",
    "inService": true,
    "licenseNumber": "550002582",
    "licenseEffectiveDate": "01/29/2025",
    "licenseExpirationDate": "01/28/2026",
    "dataDate": "10/18/2025",
    "capacity": 0,
    "address": "140 TURK ST",
    "city": "SAN FRANCISCO",
    "zip": "94102",
    "county": "SAN FRANCISCO",
    "phone": "(415) 292-1770",
    "lat": 37.783404,
    "lng": -122.4115515
  },
  {
    "id": "220000996",
    "name": "ST. ANTHONY MEDICAL CLINIC",
    "npi": "1356643654",
    "hcaiId": "306384201",
    "businessName": "ST. ANTHONY FOUNDATION",
    "contactEmail": "JMASSITE@STANTHONYSF.ORG",
    "categoryName": "PRIMARY CARE CLINIC",
    "categoryCode": "COMTYC",
    "licenseStatus": "ACTIVE",
    "inService": true,
    "licenseNumber": "220000400",
    "licenseEffectiveDate": "01/30/2025",
    "licenseExpirationDate": "01/29/2026",
    "dataDate": "10/18/2025",
    "capacity": 0,
    "address": "150 GOLDEN GATE AVE, FL 2",
    "city": "SAN FRANCISCO",
    "zip": "94102",
    "county": "SAN FRANCISCO",
    "phone": "(415) 592-2850",
    "lat": 37.782234,
    "lng": -122.413221
  },
  {
    "id": "070001213",
    "name": "STEPPINGSTONE GOLDEN GATE DAY HEALTH",
    "npi": null,
    "hcaiId": null,
    "businessName": "NORTH AND SOUTH OF MARKET ADULT DAY HEALTH CORPORATION",
    "contactEmail": "DANIELGALLAGHER@STEPPINGSTONEHEALTH.ORG",
    "categoryName": "ADULT DAY HEALTH CARE",
    "categoryCode": "ADHC",
    "licenseStatus": "ACTIVE",
    "inService": true,
    "licenseNumber": "070000554",
    "licenseEffectiveDate": "11/11/2025",
    "licenseExpirationDate": "11/10/2026",
    "dataDate": "10/18/2025",
    "capacity": 0,
    "address": "350 GOLDEN GATE AVE",
    "city": "SAN FRANCISCO",
    "zip": "94102",
    "county": "SAN FRANCISCO",
    "phone": "(415) 799-1929",
    "lat": 37.781694,
    "lng": -122.416389
  },
  {
    "id": "220000418",
    "name": "TENDERLION FAMILY PROGRAM",
    "npi": null,
    "hcaiId": null,
    "businessName": null,
    "contactEmail": null,
    "categoryName": "OTHER",
    "categoryCode": "UNLICEN",
    "licenseStatus": null,
    "inService": null,
    "licenseNumber": null,
    "licenseEffectiveDate": null,
    "licenseExpirationDate": null,
    "dataDate": "10/18/2025",
    "capacity": 0,
    "address": "25 TAYLOR ST",
    "city": "SAN FRANCISCO",
    "zip": "94102",
    "county": "SAN FRANCISCO",
    "phone": "(415) 929-2424",
    "lat": 37.782594,
    "lng": -122.4108
  },
  {
    "id": "220000642",
    "name": "TENDERLOIN ADULT MENTAL HEALTH OUTPATIENT CLINIC",
    "npi": null,
    "hcaiId": null,
    "businessName": null,
    "contactEmail": null,
    "categoryName": "OTHER",
    "categoryCode": "UNLICEN",
    "licenseStatus": null,
    "inService": null,
    "licenseNumber": null,
    "licenseEffectiveDate": null,
    "licenseExpirationDate": null,
    "dataDate": "10/18/2025",
    "capacity": 0,
    "address": "251 HYDE ST FRNT",
    "city": "SAN FRANCISCO",
    "zip": "94102",
    "county": "SAN FRANCISCO",
    "phone": "(415) 673-5700",
    "lat": 37.783143,
    "lng": -122.4159795
  }
]