[
  {
    "id": "630021139",
    "name": "1035 MARKET CLINIC",
    "npi": "1144515149",
    "hcaiId": null,
    "businessName": "THE SAN FRANCISCO AIDS FOUNDATION",
    "contactEmail": null,
    "categoryName": "PRIMARY CARE CLINIC",
    "categoryCode": "COMTYC",
    "licenseStatus": "ACTIVE",
    "inService": true,
    "licenseNumber": "550002143",
    "licenseEffectiveDate": "11/13/2024",
    "licenseExpirationDate": "11/12/2025",
    "dataDate": "10/18/2025",
    "capacity": 0,
    "address": "1035 MARKET ST, SUITE 400",
    "city": "SAN FRANCISCO",
    "zip": "94103",
    "county": "SAN FRANCISCO",
    "phone": null,
    "lat": 37.781226,
    "lng": -122.410827
  },
  {
    "id": "630020661",
    "name": "ANG HOSPICE, INC.",
    "npi": "1780292219",
    "hcaiId": "406383538",
    "businessName": "ANG HOSPICE, INC.",
    "contactEmail": "ANGHOSPICE@GMAIL.COM",
    "categoryName": "HOSPICE",
    "categoryCode": "HOSPICE",
    "licenseStatus": "ACTIVE",
    "inService": true,
    "licenseNumber": "550006613",
    "licenseEffectiveDate": "07/27/2023",
    "licenseExpirationDate": "07/26/2025",
    "dataDate": "10/18/2025",
    "capacity": 0,
    "address": "95 3RD ST, SUITE 254",
    "city": "SAN FRANCISCO",
    "zip": "94103",
    "county": "SAN FRANCISCO",
    "phone": "(415) 263-9823",
    "lat": 37.78677002,
    "lng": -122.401984
  },
  {
    "id": "220001145",
    "name": "BAART COMMUNITY HEALTHCARE",
    "npi": null,
    "hcaiId": "306384166",
    "businessName": "BAART COMMUNITY HEALTHCARE",
    "contactEmail": "QUINCYGILLIAM@BAARTPROGRAMS.COM",
    "categoryName": "PRIMARY CARE CLINIC",
    "categoryCode": "COMTYC",
    "licenseStatus": "ACTIVE",
    "inService": true,
    "licenseNumber": "220000474",
    "licenseEffectiveDate": "05/29/2025",
    "licenseExpirationDate": "05/28/2026",
    "dataDate": "10/18/2025",
    "capacity": 0,
    "address": "1111 MARKET ST, FLOOR 1",
    "city": "SAN FRANCISCO",
    "zip": "94103",
    "county": "SAN FRANCISCO",
    "phone": "(415) 863-3883",
    "lat": 37.779939,
    "lng": -122.4125145
  },
  {
    "id": "220000180",
    "name": "EQUITY HEALTH",
    "npi": null,
    "hcaiId": "306384221",
    "businessName": "EQUITY HEALTH",
    "contactEmail": "ZEKE.MONTEJANO@EQUITYHEALTH.ORG",
    "categoryName": "PRIMARY CARE CLINIC",
    "categoryCode": "COMTYC",
    "licenseStatus": "ACTIVE",
    "inService": true,
    "licenseNumber": "220000094",
    "licenseEffectiveDate": "01/21/2025",
    "licenseExpirationDate": "01/20/2026",
    "dataDate": "10/18/2025",
    "capacity": 0,
    "address": "229 7TH ST",
    "city": "SAN FRANCISCO",
    "zip": "94103",
    "county": "SAN FRANCISCO",
    "phone": "(415) 503-6057",
    "lat": 37.777563,
    "lng": -122.408532
  },
  {
    "id": "630028183",
    "name": "EQUITY HEALTH",
    "npi": null,
    "hcaiId": null,
    "businessName": "EQUITY HEALTH",
    "contactEmail": null,
    "categoryName": "PRIMARY CARE CLINIC",
    "categoryCode": "COMTYC",
    "licenseStatus": "ACTIVE",
    "inService": true,
    "licenseNumber": "220000094",
    "licenseEffectiveDate": "01/21/2025",
    "licenseExpirationDate": "01/20/2026",
    "dataDate": "10/18/2025",
    "capacity": 0,
    "address": "551-555 MINNA ST",
    "city": "SAN FRANCISCO",
    "zip": "94103",
    "county": "SAN FRANCISCO",
    "phone": null,
    "lat": 37.7794379,
    "lng": -122.4093369
  },
  {
    "id": "630011236",
    "name": "HEALTHRIGHT 360",
    "npi": "1730363151",
    "hcaiId": "306384240",
    "businessName": "HEALTHRIGHT 360",
    "contactEmail": "MBAEZ@HEALTHRIGHT360.ORG",
    "categoryName": "PRIMARY CARE CLINIC",
    "categoryCode": "COMTYC",
    "licenseStatus": "ACTIVE",
    "inService": true,
    "licenseNumber": "550000486",
    "licenseEffectiveDate": "05/23/2025",
    "licenseExpirationDate": "05/22/2026",
    "dataDate": "10/18/2025",
    "capacity": 0,
    "address": "1563 MISSION ST, FLOOR 5TH",
    "city": "SAN FRANCISCO",
    "zip": "94103",
    "county": "SAN FRANCISCO",
    "phone": "(415) 762-3700",
    "lat": 37.77309,
    "lng": -122.418198
  },
  {
    "id": "630019470",
    "name": "HEALTHRIGHT 360 MOBILE CLINIC",
    "npi": "1730363151",
    "hcaiId": null,
    "businessName": "HEALTHRIGHT 360",
    "contactEmail": "LICENSING@HEALTHRIGHT360.ORG",
    "categoryName": "PRIMARY CARE CLINIC",
    "categoryCode": "COMTYC",
    "licenseStatus": "ACTIVE",
    "inService": true,
    "licenseNumber": "550000486",
    "licenseEffectiveDate": "05/23/2025",
    "licenseExpirationDate": "05/22/2026",
    "dataDate": "10/18/2025",
    "capacity": 0,
    "address": "1563 MISSION ST",
    "city": "SAN FRANCISCO",
    "zip": "94103",
    "county": "SAN FRANCISCO",
    "phone": null,
    "lat": 37.77309,
    "lng": -122.418198
  },
  {
    "id": "630019469",
    "name": "HEALTHRIGHT 360, INTEGRATED CARE CENTER",
    "npi": "1730363151",
    "hcaiId": null,
    "businessName": "HEALTHRIGHT 360",
    "contactEmail": null,
    "categoryName": "PRIMARY CARE CLINIC",
    "categoryCode": "COMTYC",
    "licenseStatus": "ACTIVE",
    "inService": true,
    "licenseNumber": "550000486",
    "licenseEffectiveDate": "05/23/2025",
    "licenseExpirationDate": "05/22/2026",
    "dataDate": "10/18/2025",
    "capacity": 0,
    "address": "1563 MISSION ST",
    "city": "SAN FRANCISCO",
    "zip": "94103",
    "county": "SAN FRANCISCO",
    "phone": null,
    "lat": 37.77309,
    "lng": -122.418198
  },
  {
    "id": "220000051",
    "name": "LYON-MARTIN COMMUNITY HEALTH SERVICES",
    "npi": null,
    "hcaiId": "306380367",
    "businessName": "LYON-MARTIN COMMUNITY HEALTH SERVICES",
    "contactEmail": "JJAFFE@LYON-MARTIN.ORG",
    "categoryName": "PRIMARY CARE CLINIC",
    "categoryCode": "FQHC/COMTYC",
    "licenseStatus": "ACTIVE",
    "inService": false,
    "licenseNumber": "220000121",
    "licenseEffectiveDate": "03/01/2025",
    "licenseExpirationDate": "02/28/2026",
    "dataDate": "10/18/2025",
    "capacity": 0,
    "address": "1735 MISSION ST",
    "city": "SAN FRANCISCO",
    "zip": "94103",
    "county": "SAN FRANCISCO",
    "phone": "(415) 901-7108",
    "lat": 37.769508,
    "lng": -122.419449
  },
  {
    "id": "220000315",
    "name": "MISSION CRISIS UNIT",
    "npi": null,
    "hcaiId": null,
    "businessName": null,
    "contactEmail": null,
    "categoryName": "OTHER",
    "categoryCode": "UNLICEN",
    "licenseStatus": null,
    "inService": null,
    "licenseNumber": null,
    "licenseEffectiveDate": null,
    "licenseExpirationDate": null,
    "dataDate": "10/18/2025",
    "capacity": 0,
    "address": "111 POTRERO AVE FRNT",
    "city": "SAN FRANCISCO",
    "zip": "94103",
    "county": "SAN FRANCISCO",
    "phone": "(415) 255-3632",
    "lat": 37.767915,
    "lng": -122.4072495
  },
  {
    "id": "630012947",
    "name": "MISSION DISTRICT DIALYSIS",
    "npi": "1285942714",
    "hcaiId": "306384216",
    "businessName": "TOTAL RENAL CARE, INC.",
    "contactEmail": "CAL_C@DAVITA.COM",
    "categoryName": "CHRONIC DIALYSIS CLINIC",
    "categoryCode": "ESRD/CDC",
    "licenseStatus": "ACTIVE",
    "inService": true,
    "licenseNumber": "550001468",
    "licenseEffectiveDate": "05/29/2025",
    "licenseExpirationDate": "01/31/2026",
    "dataDate": "10/18/2025",
    "capacity": 24,
    "address": "2765 16TH ST",
    "city": "SAN FRANCISCO",
    "zip": "94103",
    "county": "SAN FRANCISCO",
    "phone": "(628) 600-8705",
    "lat": 37.76503,
    "lng": -122.414503
  },
  {
    "id": "630017111",
    "name": "SOUTH OF MARKET HEALTH CENTER-LOPREST HEALTH CENTER",
    "npi": null,
    "hcaiId": null,
    "businessName": null,
    "contactEmail": null,
    "categoryName": "PRIMARY CARE CLINIC",
    "categoryCode": "FQHC",
    "licenseStatus": null,
    "inService": null,
    "licenseNumber": null,
    "licenseEffectiveDate": null,
    "licenseExpirationDate": null,
    "dataDate": "10/18/2025",
    "capacity": 0,
    "address": "551 MINNA ST",
    "city": "SAN FRANCISCO",
    "zip": "94103",
    "county": "SAN FRANCISCO",
    "phone": "(415) 697-0490",
    "lat": 37.779489,
    "lng": -122.409234
  },
  {
    "id": "630017110",
    "name": "SOUTH OF MARKET HEALTH CENTER-SENIOR CLINIC",
    "npi": null,
    "hcaiId": null,
    "businessName": "EQUITY HEALTH",
    "contactEmail": "HELOISE.LIM@SMHCSF.ORG",
    "categoryName": "PRIMARY CARE CLINIC",
    "categoryCode": "COMTYC",
    "licenseStatus": "ACTIVE",
    "inService": true,
    "licenseNumber": "220000094",
    "licenseEffectiveDate": "01/21/2025",
    "licenseExpirationDate": "01/20/2026",
    "dataDate": "10/18/2025",
    "capacity": 0,
    "address": "317 CLEMENTINA ST",
    "city": "SAN FRANCISCO",
    "zip": "94103",
    "county": "SAN FRANCISCO",
    "phone": "(415) 284-2270",
    "lat": 37.78191,
    "lng": -122.4020925
  },
  {
    "id": "630021491",
    "name": "SYRINGE ACCESS SITE CLINIC",
    "npi": "1144515149",
    "hcaiId": null,
    "businessName": "THE SAN FRANCISCO AIDS FOUNDATION",
    "contactEmail": null,
    "categoryName": "PRIMARY CARE CLINIC",
    "categoryCode": "COMTYC",
    "licenseStatus": "ACTIVE",
    "inService": true,
    "licenseNumber": "550002143",
    "licenseEffectiveDate": "11/13/2024",
    "licenseExpirationDate": "11/12/2025",
    "dataDate": "10/18/2025",
    "capacity": 0,
    "address": "117 6TH ST",
    "city": "SAN FRANCISCO",
    "zip": "94103",
    "county": "SAN FRANCISCO",
    "phone": null,
    "lat": 37.780684,
    "lng": -122.408252
  },
  {
    "id": "220000646",
    "name": "TEAM I",
    "npi": null,
    "hcaiId": null,
    "businessName": null,
    "contactEmail": null,
    "categoryName": "OTHER",
    "categoryCode": "UNLICEN",
    "licenseStatus": null,
    "inService": null,
    "licenseNumber": null,
    "licenseEffectiveDate": null,
    "licenseExpirationDate": null,
    "dataDate": "10/18/2025",
    "capacity": 0,
    "address": "111 POTRERO AVE",
    "city": "SAN FRANCISCO",
    "zip": "94103",
    "county": "SAN FRANCISCO",
    "phone": "(415) 255-3632",
    "lat": 37.767915,
    "lng": -122.4072495
  }
]