[
  {
    "id": "220000649",
    "name": "BAART-TOWNSEND STREET CLINIC",
    "npi": null,
    "hcaiId": null,
    "businessName": null,
    "contactEmail": null,
    "categoryName": "OTHER",
    "categoryCode": "UNLICEN",
    "licenseStatus": null,
    "inService": null,
    "licenseNumber": null,
    "licenseEffectiveDate": null,
    "licenseExpirationDate": null,
    "dataDate": "10/18/2025",
    "capacity": 0,
    "address": "75 TOWNSEND ST",
    "city": "SAN FRANCISCO",
    "zip": "94107",
    "county": "SAN FRANCISCO",
    "phone": "(415) 543-2656",
    "lat": 37.780929,
    "lng": -122.3898615
  },
  {
    "id": "630010974",
    "name": "HEALTH LINK HOME HEALTH AGENCY",
    "npi": "1215122346",
    "hcaiId": "406384197",
    "businessName": "HEALTH LINK",
    "contactEmail": "BORIS@HEALTHLINKHHA.COM",
    "categoryName": "HOME HEALTH AGENCY",
    "categoryCode": "HHA",
    "licenseStatus": "ACTIVE",
    "inService": true,
    "licenseNumber": "550000503",
    "licenseEffectiveDate": "11/03/2025",
    "licenseExpirationDate": "02/20/2026",
    "dataDate": "10/18/2025",
    "capacity": 0,
    "address": "550 BRYANT ST, SUITE 2A",
    "city": "SAN FRANCISCO",
    "zip": "94107",
    "county": "SAN FRANCISCO",
    "phone": "(415) 664-5500",
    "lat": 37.78062302,
    "lng": -122.397285
  },
  {
    "id": "630016689",
    "name": "HEALTH LINK HOSPICE",
    "npi": "1447624119",
    "hcaiId": "406384239",
    "businessName": "HEALTH LINK HOSPICE SERVICES",
    "contactEmail": "HEALTHLINKHOSPICE@GMAIL.COM",
    "categoryName": "HOSPICE",
    "categoryCode": "HOSPICE",
    "licenseStatus": "ACTIVE",
    "inService": true,
    "licenseNumber": "550003959",
    "licenseEffectiveDate": "09/15/2025",
    "licenseExpirationDate": "09/14/2027",
    "dataDate": "10/18/2025",
    "capacity": 0,
    "address": "550 BRYANT ST, SUITE 1A",
    "city": "SAN FRANCISCO",
    "zip": "94107",
    "county": "SAN FRANCISCO",
    "phone": "(415) 513-1222",
    "lat": 37.78062302,
    "lng": -122.397285
  },
  {
    "id": "630011178",
    "name": "PALMEIRA HOME HEALTH",
    "npi": "1629240940",
    "hcaiId": "406387726",
    "businessName": "BLOSSOM RIDGE HEALTH, LLC",
    "contactEmail": "GBARTER@PALMHH.COM",
    "categoryName": "HOME HEALTH AGENCY",
    "categoryCode": "HHA",
    "licenseStatus": "ACTIVE",
    "inService": true,
    "licenseNumber": "550000842",
    "licenseEffectiveDate": "04/09/2025",
    "licenseExpirationDate": "04/08/2026",
    "dataDate": "10/18/2025",
    "capacity": 0,
    "address": "625 2ND ST, SUITE 102",
    "city": "SAN FRANCISCO",
    "zip": "94107",
    "county": "SAN FRANCISCO",
    "phone": "(844) 472-5634",
    "lat": 37.78169699,
    "lng": -122.391062
  },
  {
    "id": "070001204",
    "name": "STEPPINGSTONE MABINI DAY HEALTH",
    "npi": null,
    "hcaiId": null,
    "businessName": "NORTH AND SOUTH OF MARKET ADULT DAY HEALTH CORPORATION",
    "contactEmail": "JOAQUINGALVAN@STEPPINGSTONEHEALTH.ORG",
    "categoryName": "ADULT DAY HEALTH CARE",
    "categoryCode": "ADHC",
    "licenseStatus": "ACTIVE",
    "inService": true,
    "licenseNumber": "070000545",
    "licenseEffectiveDate": "02/06/2025",
    "licenseExpirationDate": "02/05/2026",
    "dataDate": "10/18/2025",
    "capacity": 0,
    "address": "55 MABINI ST",
    "city": "SAN FRANCISCO",
    "zip": "94107",
    "county": "SAN FRANCISCO",
    "phone": "(415) 882-7301",
    "lat": 37.782513,
    "lng": -122.3999505
  }
]