[
  {
    "id": "220000644",
    "name": "CHINATOWN CHILD DEVELOPMENT CENTER",
    "npi": null,
    "hcaiId": null,
    "businessName": null,
    "contactEmail": null,
    "categoryName": "OTHER",
    "categoryCode": "UNLICEN",
    "licenseStatus": null,
    "inService": null,
    "licenseNumber": null,
    "licenseEffectiveDate": null,
    "licenseExpirationDate": null,
    "dataDate": "10/18/2025",
    "capacity": 0,
    "address": "615 GRANT AVE, FL 2",
    "city": "SAN FRANCISCO",
    "zip": "94108",
    "county": "SAN FRANCISCO",
    "phone": "(415) 255-3632",
    "lat": 37.792791,
    "lng": -122.4062055
  },
  {
    "id": "220001198",
    "name": "SAN FRANCISCO SURGERY CENTER",
    "npi": "1790721769",
    "hcaiId": "306384172",
    "businessName": null,
    "contactEmail": "JOHN@SFSC.COM",
    "categoryName": "SURGICAL CLINIC",
    "categoryCode": "ASC",
    "licenseStatus": "INACTIVE - CAPEN DECISION",
    "inService": false,
    "licenseNumber": "220000496",
    "licenseEffectiveDate": "11/19/2007",
    "licenseExpirationDate": "11/18/2008",
    "dataDate": "10/18/2025",
    "capacity": 0,
    "address": "450 SUTTER ST, SUITE 500",
    "city": "SAN FRANCISCO",
    "zip": "94108",
    "county": "SAN FRANCISCO",
    "phone": "(415) 393-9600",
    "lat": 37.789686,
    "lng": -122.4078525
  },
  {
    "id": "630015308",
    "name": "VISTA SURGERY CENTER",
    "npi": "1134385701",
    "hcaiId": null,
    "businessName": null,
    "contactEmail": null,
    "categoryName": "SURGICAL CLINIC",
    "categoryCode": "ASC",
    "licenseStatus": null,
    "inService": null,
    "licenseNumber": null,
    "licenseEffectiveDate": null,
    "licenseExpirationDate": null,
    "dataDate": "10/18/2025",
    "capacity": 0,
    "address": "450 SUTTER ST, SUITE 2632",
    "city": "SAN FRANCISCO",
    "zip": "94108",
    "county": "SAN FRANCISCO",
    "phone": "(415) 395-9021",
    "lat": 37.789686,
    "lng": -122.4078525
  }
]