[
  {
    "id": "630027331",
    "name": "ASIAN AND PACIFIC ISLANDER WELLNESS CENTER -PINE",
    "npi": "1376798413",
    "hcaiId": null,
    "businessName": "ASIAN AND PACIFIC ISLANDER WELLNESS CENTER, INC.",
    "contactEmail": "LANCE@SFCOMMUNITYHEALTH.ORG",
    "categoryName": "PRIMARY CARE CLINIC",
    "categoryCode": "COMTYC",
    "licenseStatus": "ACTIVE",
    "inService": true,
    "licenseNumber": "550001294",
    "licenseEffectiveDate": "06/02/2025",
    "licenseExpirationDate": "06/01/2026",
    "dataDate": "10/18/2025",
    "capacity": 0,
    "address": "1460 PINE ST",
    "city": "SAN FRANCISCO",
    "zip": "94109",
    "county": "SAN FRANCISCO",
    "phone": "(415) 292-3420",
    "lat": 37.78999202,
    "lng": -122.41988
  },
  {
    "id": "630012452",
    "name": "ASIAN AND PACIFIC ISLANDER WELLNESS CENTER, INC.",
    "npi": "1376798413",
    "hcaiId": "306384211",
    "businessName": "ASIAN AND PACIFIC ISLANDER WELLNESS CENTER, INC.",
    "contactEmail": "LANCE@SFCOMMUNITYHEALTH.ORG",
    "categoryName": "PRIMARY CARE CLINIC",
    "categoryCode": "COMTYC",
    "licenseStatus": "ACTIVE",
    "inService": true,
    "licenseNumber": "550001294",
    "licenseEffectiveDate": "06/02/2025",
    "licenseExpirationDate": "06/01/2026",
    "dataDate": "10/18/2025",
    "capacity": 0,
    "address": "726 POLK ST, FLOOR 4",
    "city": "SAN FRANCISCO",
    "zip": "94109",
    "county": "SAN FRANCISCO",
    "phone": "(415) 292-3400",
    "lat": 37.783818,
    "lng": -122.419008
  },
  {
    "id": "630026963",
    "name": "AUSTIN SFSC, LLC",
    "npi": null,
    "hcaiId": null,
    "businessName": null,
    "contactEmail": null,
    "categoryName": "SURGICAL CLINIC",
    "categoryCode": "ASC",
    "licenseStatus": null,
    "inService": null,
    "licenseNumber": null,
    "licenseEffectiveDate": null,
    "licenseExpirationDate": null,
    "dataDate": "10/18/2025",
    "capacity": 0,
    "address": "1545 PINE ST, SUITE 109",
    "city": "SAN FRANCISCO",
    "zip": "94109",
    "county": "SAN FRANCISCO",
    "phone": "(415) 933-8330",
    "lat": 37.789398,
    "lng": -122.4211725
  },
  {
    "id": "630025324",
    "name": "BELLA HEALTH AND WELLNESS, INC.",
    "npi": null,
    "hcaiId": "306380789",
    "businessName": "BELLA HEALTH AND WELLNESS, INC.",
    "contactEmail": "DOLORES@BELLAHW.ORG",
    "categoryName": "PRIMARY CARE CLINIC",
    "categoryCode": "COMTYC",
    "licenseStatus": "ACTIVE",
    "inService": true,
    "licenseNumber": "550008410",
    "licenseEffectiveDate": "03/02/2025",
    "licenseExpirationDate": "03/01/2026",
    "dataDate": "10/18/2025",
    "capacity": 0,
    "address": "2000 VAN NESS AVE, SUITE 304",
    "city": "SAN FRANCISCO",
    "zip": "94109",
    "county": "SAN FRANCISCO",
    "phone": "(415) 775-1500",
    "lat": 37.794177,
    "lng": -122.422662
  },
  {
    "id": "220000022",
    "name": "CALIFORNIA PACIFIC MEDICAL CENTER - VAN NESS CAMPUS",
    "npi": "1902964109",
    "hcaiId": "106384176",
    "businessName": "SUTTER BAY HOSPITALS",
    "contactEmail": "HAMILA.KOWNACKI@SUTTERHEALTH.ORG",
    "categoryName": "GENERAL ACUTE CARE HOSPITAL",
    "categoryCode": "GACH",
    "licenseStatus": "ACTIVE",
    "inService": true,
    "licenseNumber": "220000197",
    "licenseEffectiveDate": "05/29/2025",
    "licenseExpirationDate": "01/29/2026",
    "dataDate": "10/18/2025",
    "capacity": 292,
    "address": "1101 VAN NESS AVE",
    "city": "SAN FRANCISCO",
    "zip": "94109",
    "county": "SAN FRANCISCO",
    "phone": "(415) 600-1337",
    "lat": 37.785843,
    "lng": -122.4217485
  },
  {
    "id": "070001294",
    "name": "CIRCLE OF FRIENDS ADULT DAY HEALTH CARE",
    "npi": null,
    "hcaiId": null,
    "businessName": "CIRCLE OF FRIENDS ADULT DAY HEALTH CARE, INC.",
    "contactEmail": "AMARMARINA03@GMAIL.COM",
    "categoryName": "ADULT DAY HEALTH CARE",
    "categoryCode": "ADHC",
    "licenseStatus": "ACTIVE",
    "inService": true,
    "licenseNumber": "070000614",
    "licenseEffectiveDate": "11/07/2025",
    "licenseExpirationDate": "11/06/2026",
    "dataDate": "10/18/2025",
    "capacity": 0,
    "address": "1462 PINE ST",
    "city": "SAN FRANCISCO",
    "zip": "94109",
    "county": "SAN FRANCISCO",
    "phone": "(415) 614-2233",
    "lat": 37.78999202,
    "lng": -122.41988
  },
  {
    "id": "220000082",
    "name": "CITY VIEW POST ACUTE",
    "npi": "1487170890",
    "hcaiId": "206380938",
    "businessName": "PINE STREET SNF, LLC",
    "contactEmail": "BROOKE.KOYFMAN@VICTORIAPA.COM",
    "categoryName": "SKILLED NURSING FACILITY",
    "categoryCode": "SNF",
    "licenseStatus": "ACTIVE",
    "inService": true,
    "licenseNumber": "220000062",
    "licenseEffectiveDate": "10/29/2025",
    "licenseExpirationDate": "10/28/2026",
    "dataDate": "10/18/2025",
    "capacity": 180,
    "address": "1359 PINE ST",
    "city": "SAN FRANCISCO",
    "zip": "94109",
    "county": "SAN FRANCISCO",
    "phone": "(415) 673-8405",
    "lat": 37.789623,
    "lng": -122.418288
  },
  {
    "id": "630011396",
    "name": "EYE SURGERY CENTER OF SAN FRANCISCO, L.P.",
    "npi": "1437274495",
    "hcaiId": "306384199",
    "businessName": "EYE SURGERY CENTER OF SAN FRANCISCO, L.P.",
    "contactEmail": null,
    "categoryName": "SURGICAL CLINIC",
    "categoryCode": "ASC",
    "licenseStatus": "INACTIVE - CAPEN DECISION",
    "inService": false,
    "licenseNumber": "550000629",
    "licenseEffectiveDate": "10/24/2007",
    "licenseExpirationDate": "04/23/2008",
    "dataDate": "10/18/2025",
    "capacity": 0,
    "address": "1160 POST ST",
    "city": "SAN FRANCISCO",
    "zip": "94109",
    "county": "SAN FRANCISCO",
    "phone": "(415) 440-1100",
    "lat": 37.786941,
    "lng": -122.420988
  },
  {
    "id": "220000611",
    "name": "FAMILY SERVICES AGENCY GERIATRIC DAY TREATMENT",
    "npi": null,
    "hcaiId": null,
    "businessName": null,
    "contactEmail": null,
    "categoryName": "OTHER",
    "categoryCode": "UNLICEN",
    "licenseStatus": null,
    "inService": null,
    "licenseNumber": null,
    "licenseEffectiveDate": null,
    "licenseExpirationDate": null,
    "dataDate": "10/18/2025",
    "capacity": 0,
    "address": "1010 GOUGH ST",
    "city": "SAN FRANCISCO",
    "zip": "94109",
    "county": "SAN FRANCISCO",
    "phone": "(415) 474-7310",
    "lat": 37.7826308,
    "lng": -122.4240901
  },
  {
    "id": "070001202",
    "name": "ON LOK SENIOR HEALTH SERVICES",
    "npi": null,
    "hcaiId": null,
    "businessName": "ON LOK SENIOR HEALTH SERVICES",
    "contactEmail": "NICOLE@ONLOK.ORG",
    "categoryName": "ADULT DAY HEALTH CARE",
    "categoryCode": "ADHC",
    "licenseStatus": "ACTIVE",
    "inService": true,
    "licenseNumber": "070000543",
    "licenseEffectiveDate": "12/19/2024",
    "licenseExpirationDate": "12/18/2025",
    "dataDate": "10/18/2025",
    "capacity": 0,
    "address": "1333 BUSH ST",
    "city": "SAN FRANCISCO",
    "zip": "94109",
    "county": "SAN FRANCISCO",
    "phone": "(415) 292-8799",
    "lat": 37.788597,
    "lng": -122.418999
  },
  {
    "id": "220000121",
    "name": "ON LOK SENIOR HEALTH SERVICES",
    "npi": null,
    "hcaiId": "406382705",
    "businessName": "ON LOK SENIOR HEALTH SERVICES",
    "contactEmail": "NICOLE@ONLOK.ORG",
    "categoryName": "HOME HEALTH AGENCY",
    "categoryCode": "HHA",
    "licenseStatus": "ACTIVE",
    "inService": true,
    "licenseNumber": "220000116",
    "licenseEffectiveDate": "01/01/2025",
    "licenseExpirationDate": "12/31/2025",
    "dataDate": "10/18/2025",
    "capacity": 0,
    "address": "1333 BUSH ST",
    "city": "SAN FRANCISCO",
    "zip": "94109",
    "county": "SAN FRANCISCO",
    "phone": "(415) 292-8799",
    "lat": 37.788597,
    "lng": -122.418999
  },
  {
    "id": "220000171",
    "name": "ON LOK SENIOR HEALTH SERVICES",
    "npi": null,
    "hcaiId": "306382724",
    "businessName": "ON LOK SENIOR HEALTH SERVICES",
    "contactEmail": "NICOLE@ONLOK.ORG",
    "categoryName": "PRIMARY CARE CLINIC",
    "categoryCode": "COMTYC",
    "licenseStatus": "ACTIVE",
    "inService": true,
    "licenseNumber": "220000128",
    "licenseEffectiveDate": "12/18/2024",
    "licenseExpirationDate": "12/17/2025",
    "dataDate": "10/18/2025",
    "capacity": 0,
    "address": "1333 BUSH ST",
    "city": "SAN FRANCISCO",
    "zip": "94109",
    "county": "SAN FRANCISCO",
    "phone": "(415) 292-8799",
    "lat": 37.788597,
    "lng": -122.418999
  },
  {
    "id": "630013064",
    "name": "PLANNED PARENTHOOD NORTHERN CALIFORNIA SF HEALTH CENTER",
    "npi": "1851692560",
    "hcaiId": "306384219",
    "businessName": "PLANNED PARENTHOOD: SHASTA-DIABLO, INC.",
    "contactEmail": "ESOLORZANO@PPNORCAL.ORG",
    "categoryName": "PRIMARY CARE CLINIC",
    "categoryCode": "COMTYC",
    "licenseStatus": "ACTIVE",
    "inService": true,
    "licenseNumber": "550001548",
    "licenseEffectiveDate": "04/20/2025",
    "licenseExpirationDate": "04/19/2026",
    "dataDate": "10/18/2025",
    "capacity": 0,
    "address": "1522 BUSH ST",
    "city": "SAN FRANCISCO",
    "zip": "94109",
    "county": "SAN FRANCISCO",
    "phone": "(415) 821-1282",
    "lat": 37.78866,
    "lng": -122.4226395
  },
  {
    "id": "220000217",
    "name": "SAINT FRANCIS MEMORIAL HOSPITAL  CAPD",
    "npi": null,
    "hcaiId": null,
    "businessName": null,
    "contactEmail": null,
    "categoryName": "OTHER",
    "categoryCode": "UNLICEN",
    "licenseStatus": null,
    "inService": null,
    "licenseNumber": null,
    "licenseEffectiveDate": null,
    "licenseExpirationDate": null,
    "dataDate": "10/18/2025",
    "capacity": 0,
    "address": "900 HYDE ST",
    "city": "SAN FRANCISCO",
    "zip": "94109",
    "county": "SAN FRANCISCO",
    "phone": "(415) 775-4321",
    "lat": 37.789632,
    "lng": -122.4165555
  },
  {
    "id": "220000234",
    "name": "SAINT FRANCIS MEMORIAL HOSPITAL D/P APH",
    "npi": "1316061997",
    "hcaiId": null,
    "businessName": "UCSF HEALTH COMMUNITY HOSPITALS",
    "contactEmail": null,
    "categoryName": "ACUTE PSYCHIATRIC HOSPITAL",
    "categoryCode": "APH",
    "licenseStatus": "ACTIVE",
    "inService": true,
    "licenseNumber": "220000069",
    "licenseEffectiveDate": "01/01/2025",
    "licenseExpirationDate": "12/31/2025",
    "dataDate": "10/18/2025",
    "capacity": 35,
    "address": "900 HYDE ST",
    "city": "SAN FRANCISCO",
    "zip": "94109",
    "county": "SAN FRANCISCO",
    "phone": "(415) 775-4321",
    "lat": 37.789632,
    "lng": -122.4165555
  },
  {
    "id": "220000971",
    "name": "SAN FRANCISCO TOWERS",
    "npi": null,
    "hcaiId": "206384050",
    "businessName": "FRONT PORCH COMMUNITIES AND SERVICES",
    "contactEmail": "AOMOLE@FRONTPORCH.NET",
    "categoryName": "SKILLED NURSING FACILITY",
    "categoryCode": "SNF",
    "licenseStatus": "ACTIVE",
    "inService": true,
    "licenseNumber": "220000383",
    "licenseEffectiveDate": "11/17/2025",
    "licenseExpirationDate": "11/16/2026",
    "dataDate": "10/18/2025",
    "capacity": 27,
    "address": "1661 PINE ST",
    "city": "SAN FRANCISCO",
    "zip": "94109",
    "county": "SAN FRANCISCO",
    "phone": "(415) 447-5505",
    "lat": 37.789047,
    "lng": -122.4229545
  },
  {
    "id": "630026907",
    "name": "SAN FRANCISCO VEIN AND VASCULAR INSTITUTE",
    "npi": null,
    "hcaiId": null,
    "businessName": null,
    "contactEmail": "DRN1469@HOTMAIL.COM",
    "categoryName": "SURGICAL CLINIC",
    "categoryCode": "ASC",
    "licenseStatus": null,
    "inService": null,
    "licenseNumber": null,
    "licenseEffectiveDate": null,
    "licenseExpirationDate": null,
    "dataDate": "10/18/2025",
    "capacity": 0,
    "address": "1 DANIEL BURNHAM CT, SUITE 205C",
    "city": "SAN FRANCISCO",
    "zip": "94109",
    "county": "SAN FRANCISCO",
    "phone": "(415) 221-7046",
    "lat": 37.786752,
    "lng": -122.422491
  },
  {
    "id": "630015022",
    "name": "SATELLITE HEALTHCARE SAN FRANCISCO",
    "npi": "1104261130",
    "hcaiId": "306384230",
    "businessName": "SATELLITE DIALYSIS OF SAN FRANCISCO, LLC",
    "contactEmail": "LICENSING@SATELLITEHEALTH.COM",
    "categoryName": "CHRONIC DIALYSIS CLINIC",
    "categoryCode": "ESRD/CDC",
    "licenseStatus": "ACTIVE",
    "inService": true,
    "licenseNumber": "550002753",
    "licenseEffectiveDate": "06/30/2025",
    "licenseExpirationDate": "06/29/2026",
    "dataDate": "10/18/2025",
    "capacity": 24,
    "address": "1700 CALIFORNIA ST, SUITE 260",
    "city": "SAN FRANCISCO",
    "zip": "94109",
    "county": "SAN FRANCISCO",
    "phone": "(415) 653-5800",
    "lat": 37.790478,
    "lng": -122.4230625
  },
  {
    "id": "630012063",
    "name": "SELECT PHYSICAL THERAPY",
    "npi": null,
    "hcaiId": null,
    "businessName": null,
    "contactEmail": null,
    "categoryName": "REHABILITATION CLINIC",
    "categoryCode": "OPT/SP",
    "licenseStatus": null,
    "inService": null,
    "licenseNumber": null,
    "licenseEffectiveDate": null,
    "licenseExpirationDate": null,
    "dataDate": "10/18/2025",
    "capacity": 0,
    "address": "1700 CALIFORNIA ST, SUITE 530",
    "city": "SAN FRANCISCO",
    "zip": "94109",
    "county": "SAN FRANCISCO",
    "phone": "(415) 921-1758",
    "lat": 37.790478,
    "lng": -122.4230625
  },
  {
    "id": "220000084",
    "name": "SEQUOIAS SAN FRANCISCO CONVALESCENT HOSPITAL",
    "npi": null,
    "hcaiId": "206380948",
    "businessName": "SEQUOIA LIVING, INC.",
    "contactEmail": "TTUMBALE@SEQUOIALIVING.ORG",
    "categoryName": "SKILLED NURSING FACILITY",
    "categoryCode": "SNF",
    "licenseStatus": "ACTIVE",
    "inService": true,
    "licenseNumber": "220000065",
    "licenseEffectiveDate": "11/30/2024",
    "licenseExpirationDate": "11/29/2025",
    "dataDate": "10/18/2025",
    "capacity": 50,
    "address": "1400 GEARY BLVD",
    "city": "SAN FRANCISCO",
    "zip": "94109",
    "county": "SAN FRANCISCO",
    "phone": "(415) 351-7903",
    "lat": 37.785546,
    "lng": -122.427135
  },
  {
    "id": "220000029",
    "name": "UCSF HEALTH SAINT FRANCIS HOSPITAL",
    "npi": "1316061997",
    "hcaiId": "106380960",
    "businessName": "UCSF HEALTH COMMUNITY HOSPITALS",
    "contactEmail": "COURTNEY.MCMAHON@UCSF.EDU",
    "categoryName": "GENERAL ACUTE CARE HOSPITAL",
    "categoryCode": "GACH",
    "licenseStatus": "ACTIVE",
    "inService": true,
    "licenseNumber": "220000069",
    "licenseEffectiveDate": "01/01/2025",
    "licenseExpirationDate": "12/31/2025",
    "dataDate": "10/18/2025",
    "capacity": 242,
    "address": "900 HYDE ST",
    "city": "SAN FRANCISCO",
    "zip": "94109",
    "county": "SAN FRANCISCO",
    "phone": "(209) 614-3969",
    "lat": 37.789632,
    "lng": -122.4165555
  },
  {
    "id": "630017667",
    "name": "VITAS HEALTHCARE CORPORATION OF CALIFORNIA - BRANCH",
    "npi": null,
    "hcaiId": "406384233",
    "businessName": "VITAS HEALTHCARE CORPORATION OF CALIFORNIA",
    "contactEmail": "RUSSEL.WILLIAMSON@VITAS.COM",
    "categoryName": "HOSPICE",
    "categoryCode": "HOSPICE",
    "licenseStatus": "ACTIVE",
    "inService": true,
    "licenseNumber": "070000627",
    "licenseEffectiveDate": "05/13/2025",
    "licenseExpirationDate": "01/15/2026",
    "dataDate": "10/18/2025",
    "capacity": 0,
    "address": "1388 SUTTER ST, SUITE 700",
    "city": "SAN FRANCISCO",
    "zip": "94109",
    "county": "SAN FRANCISCO",
    "phone": "(415) 874-4400",
    "lat": 37.787643,
    "lng": -122.423067
  },
  {
    "id": "630012148",
    "name": "WELLBOUND OF SAN FRANCISCO",
    "npi": "1528221249",
    "hcaiId": null,
    "businessName": null,
    "contactEmail": "LICENSING@SATELLITEHEALTH.COM",
    "categoryName": "CHRONIC DIALYSIS CLINIC",
    "categoryCode": "ESRD",
    "licenseStatus": null,
    "inService": null,
    "licenseNumber": null,
    "licenseEffectiveDate": null,
    "licenseExpirationDate": null,
    "dataDate": "10/18/2025",
    "capacity": 0,
    "address": "1166 POST ST, SUITE 201",
    "city": "SAN FRANCISCO",
    "zip": "94109",
    "county": "SAN FRANCISCO",
    "phone": "(415) 474-1309",
    "lat": 37.786941,
    "lng": -122.420988
  }
]