[
  {
    "id": "070001267",
    "name": "CROSSROADS HOME HEALTH & HOSPICE",
    "npi": "1205988854",
    "hcaiId": "406384043",
    "businessName": "OWEN HEALTHCARE, LLC",
    "contactEmail": "CONTRACTING@IMPACTHC.ORG",
    "categoryName": "HOSPICE",
    "categoryCode": "HOSPICE",
    "licenseStatus": "ACTIVE",
    "inService": true,
    "licenseNumber": "070000588",
    "licenseEffectiveDate": "03/02/2024",
    "licenseExpirationDate": "03/01/2026",
    "dataDate": "10/18/2025",
    "capacity": 0,
    "address": "1109 VICENTE ST, SUITE 101",
    "city": "SAN FRANCISCO",
    "zip": "94116",
    "county": "SAN FRANCISCO",
    "phone": "(415) 682-2111",
    "lat": 37.738926,
    "lng": -122.4790335
  },
  {
    "id": "220000889",
    "name": "CROSSROADS HOME HEALTH & HOSPICE",
    "npi": "1205988854",
    "hcaiId": "406384042",
    "businessName": "OWEN HEALTHCARE, LLC",
    "contactEmail": "MGIRARDELLI@IMPACTHC.ORG",
    "categoryName": "HOME HEALTH AGENCY",
    "categoryCode": "HHA",
    "licenseStatus": "ACTIVE",
    "inService": true,
    "licenseNumber": "220000345",
    "licenseEffectiveDate": "02/27/2025",
    "licenseExpirationDate": "10/08/2025",
    "dataDate": "10/18/2025",
    "capacity": 0,
    "address": "1109 VICENTE ST, SUITE 103",
    "city": "SAN FRANCISCO",
    "zip": "94116",
    "county": "SAN FRANCISCO",
    "phone": "(385) 399-3321",
    "lat": 37.738926,
    "lng": -122.4790335
  },
  {
    "id": "220000417",
    "name": "HEALTH AT HOME",
    "npi": "1154324622",
    "hcaiId": "406384002",
    "businessName": "CITY & COUNTY OF SF DEPT OF PUBLIC HEALTH/COMM.",
    "contactEmail": "DURESHEHWAR.SWIGER@SFDPH.ORG",
    "categoryName": "HOME HEALTH AGENCY",
    "categoryCode": "HHA",
    "licenseStatus": "ACTIVE",
    "inService": true,
    "licenseNumber": "220000209",
    "licenseEffectiveDate": "11/14/2025",
    "licenseExpirationDate": "11/13/2026",
    "dataDate": "10/18/2025",
    "capacity": 0,
    "address": "375 LAGUNA HONDA BLVD, UNIT F5",
    "city": "SAN FRANCISCO",
    "zip": "94116",
    "county": "SAN FRANCISCO",
    "phone": "(415) 759-4700",
    "lat": 37.74879,
    "lng": -122.455809
  },
  {
    "id": "220000012",
    "name": "LAGUNA HONDA HOSPITAL & REHABILITATION CENTER",
    "npi": "1235172560",
    "hcaiId": "106380865",
    "businessName": "CITY & COUNTY OF SAN FRANCISCO, DEPT. PUBLIC HEALTH",
    "contactEmail": "DILTAR.SIDHU@SFDPH.ORG",
    "categoryName": "GENERAL ACUTE CARE HOSPITAL",
    "categoryCode": "GACH",
    "licenseStatus": "ACTIVE",
    "inService": true,
    "licenseNumber": "220000040",
    "licenseEffectiveDate": "11/01/2025",
    "licenseExpirationDate": "10/31/2026",
    "dataDate": "10/18/2025",
    "capacity": 11,
    "address": "375 LAGUNA HONDA BLVD",
    "city": "SAN FRANCISCO",
    "zip": "94116",
    "county": "SAN FRANCISCO",
    "phone": "(628) 754-2374",
    "lat": 37.74879,
    "lng": -122.455809
  },
  {
    "id": "220000512",
    "name": "LAGUNA HONDA HOSPITAL & REHABILITATION CTR",
    "npi": "1417997370",
    "hcaiId": null,
    "businessName": "CITY & COUNTY OF SAN FRANCISCO, DEPT. PUBLIC HEALTH",
    "contactEmail": "DILTAR.SIDHU@SFDPH.ORG",
    "categoryName": "SKILLED NURSING FACILITY",
    "categoryCode": "SNF",
    "licenseStatus": "ACTIVE",
    "inService": true,
    "licenseNumber": "220000040",
    "licenseEffectiveDate": "11/01/2025",
    "licenseExpirationDate": "10/31/2026",
    "dataDate": "10/18/2025",
    "capacity": 769,
    "address": "375 LAGUNA HONDA BLVD",
    "city": "SAN FRANCISCO",
    "zip": "94116",
    "county": "SAN FRANCISCO",
    "phone": "(415) 759-2300",
    "lat": 37.74879,
    "lng": -122.455809
  },
  {
    "id": "630027586",
    "name": "NORTH EAST MEDICAL SERVICES - 1430 TARAVAL",
    "npi": "1982784740",
    "hcaiId": null,
    "businessName": "NORTH EAST MEDICAL SERVICES",
    "contactEmail": null,
    "categoryName": "PRIMARY CARE CLINIC",
    "categoryCode": "COMTYC",
    "licenseStatus": "ACTIVE",
    "inService": true,
    "licenseNumber": "550000007",
    "licenseEffectiveDate": "06/18/2025",
    "licenseExpirationDate": "01/23/2026",
    "dataDate": "10/18/2025",
    "capacity": 0,
    "address": "1430 TARAVAL ST",
    "city": "SAN FRANCISCO",
    "zip": "94116",
    "county": "SAN FRANCISCO",
    "phone": null,
    "lat": 37.74302599,
    "lng": -122.481649
  },
  {
    "id": "630013080",
    "name": "NORTH EAST MEDICAL SERVICES - 2308 TARAVAL",
    "npi": "1457658734",
    "hcaiId": "306384178",
    "businessName": "NORTH EAST MEDICAL SERVICES",
    "contactEmail": "WENDY.WU@NEMS.ORG",
    "categoryName": "PRIMARY CARE CLINIC",
    "categoryCode": "COMTYC",
    "licenseStatus": "ACTIVE",
    "inService": true,
    "licenseNumber": "550001796",
    "licenseEffectiveDate": "12/15/2024",
    "licenseExpirationDate": "12/14/2025",
    "dataDate": "10/18/2025",
    "capacity": 0,
    "address": "2308 TARAVAL ST",
    "city": "SAN FRANCISCO",
    "zip": "94116",
    "county": "SAN FRANCISCO",
    "phone": "(415) 391-9686",
    "lat": 37.742625,
    "lng": -122.491053
  },
  {
    "id": "630019220",
    "name": "NORTH EAST MEDICAL SERVICES - TARAVAL STREET",
    "npi": null,
    "hcaiId": null,
    "businessName": "NORTH EAST MEDICAL SERVICES",
    "contactEmail": null,
    "categoryName": "PRIMARY CARE CLINIC",
    "categoryCode": "COMTYC",
    "licenseStatus": "ACTIVE",
    "inService": true,
    "licenseNumber": "550001796",
    "licenseEffectiveDate": "12/15/2024",
    "licenseExpirationDate": "12/14/2025",
    "dataDate": "10/18/2025",
    "capacity": 0,
    "address": "3431 TARAVAL ST",
    "city": "SAN FRANCISCO",
    "zip": "94116",
    "county": "SAN FRANCISCO",
    "phone": "(415) 352-5005",
    "lat": 37.741599,
    "lng": -122.502996
  },
  {
    "id": "220000060",
    "name": "THE AVENUES TRANSITIONAL CARE CENTER",
    "npi": "1306360987",
    "hcaiId": "206380814",
    "businessName": "ASJK, LLC",
    "contactEmail": "EBASA@ASPENHEALTH.COM",
    "categoryName": "SKILLED NURSING FACILITY",
    "categoryCode": "SNF",
    "licenseStatus": "ACTIVE",
    "inService": true,
    "licenseNumber": "220000024",
    "licenseEffectiveDate": "02/07/2025",
    "licenseExpirationDate": "02/06/2026",
    "dataDate": "10/18/2025",
    "capacity": 140,
    "address": "2043 19TH AVE",
    "city": "SAN FRANCISCO",
    "zip": "94116",
    "county": "SAN FRANCISCO",
    "phone": "(415) 661-8787",
    "lat": 37.749636,
    "lng": -122.476482
  }
]