[
  {
    "id": "630016027",
    "name": "GOLDEN GATE DIALYSIS",
    "npi": "1831593243",
    "hcaiId": "306384235",
    "businessName": "TOTAL RENAL CARE, INC.",
    "contactEmail": "CAL_C@DAVITA.COM",
    "categoryName": "CHRONIC DIALYSIS CLINIC",
    "categoryCode": "ESRD/CDC",
    "licenseStatus": "ACTIVE",
    "inService": true,
    "licenseNumber": "550003334",
    "licenseEffectiveDate": "01/07/2025",
    "licenseExpirationDate": "01/06/2026",
    "dataDate": "10/18/2025",
    "capacity": 24,
    "address": "2700 GEARY BLVD, SUITE A",
    "city": "SAN FRANCISCO",
    "zip": "94118",
    "county": "SAN FRANCISCO",
    "phone": "(415) 345-1869",
    "lat": 37.782648,
    "lng": -122.4484515
  },
  {
    "id": "630011105",
    "name": "GOLDEN GATE ENDOSCOPY CENTER",
    "npi": "1538240866",
    "hcaiId": "306384195",
    "businessName": "GOLDEN GATE ENDOSCOPY CENTER, L.P.",
    "contactEmail": "KATRINA.PANGILINAN@SUTTERHEALTH.ORG",
    "categoryName": "SURGICAL CLINIC",
    "categoryCode": "ASC",
    "licenseStatus": "INACTIVE - CAPEN DECISION",
    "inService": false,
    "licenseNumber": "550000401",
    "licenseEffectiveDate": "01/28/2007",
    "licenseExpirationDate": "07/27/2007",
    "dataDate": "10/18/2025",
    "capacity": 0,
    "address": "3370 GEARY BLVD, FLOOR 1",
    "city": "SAN FRANCISCO",
    "zip": "94118",
    "county": "SAN FRANCISCO",
    "phone": "(415) 379-7500",
    "lat": 37.781757,
    "lng": -122.455233
  },
  {
    "id": "070001215",
    "name": "INSTITUTE ON AGING",
    "npi": null,
    "hcaiId": null,
    "businessName": "INSTITUTE ON AGING",
    "contactEmail": "SRAVER@IOAGING.ORG",
    "categoryName": "ADULT DAY HEALTH CARE",
    "categoryCode": "ADHC",
    "licenseStatus": "ACTIVE",
    "inService": true,
    "licenseNumber": "070000556",
    "licenseEffectiveDate": "04/21/2025",
    "licenseExpirationDate": "04/20/2026",
    "dataDate": "10/18/2025",
    "capacity": 0,
    "address": "3575 A/B GEARY BLVD",
    "city": "SAN FRANCISCO",
    "zip": "94118",
    "county": "SAN FRANCISCO",
    "phone": "(415) 379-2619",
    "lat": 37.781073,
    "lng": -122.4578655
  },
  {
    "id": "220000947",
    "name": "INSTITUTE ON AGING",
    "npi": null,
    "hcaiId": "306384222",
    "businessName": "INSTITUTE ON AGING",
    "contactEmail": "SRAVER@IOAGING.ORG",
    "categoryName": "PRIMARY CARE CLINIC",
    "categoryCode": "COMTYC",
    "licenseStatus": "ACTIVE",
    "inService": true,
    "licenseNumber": "220000367",
    "licenseEffectiveDate": "04/21/2025",
    "licenseExpirationDate": "04/20/2026",
    "dataDate": "10/18/2025",
    "capacity": 0,
    "address": "3575 A/B GEARY BLVD",
    "city": "SAN FRANCISCO",
    "zip": "94118",
    "county": "SAN FRANCISCO",
    "phone": "(415) 379-2619",
    "lat": 37.781073,
    "lng": -122.4578655
  },
  {
    "id": "220001100",
    "name": "INSTITUTE ON AGING HOME HEALTH",
    "npi": null,
    "hcaiId": "406434073",
    "businessName": "INSTITUTE ON AGING",
    "contactEmail": "SRAVER@IOAGING.ORG",
    "categoryName": "HOME HEALTH AGENCY",
    "categoryCode": "HHA",
    "licenseStatus": "ACTIVE",
    "inService": true,
    "licenseNumber": "220000448",
    "licenseEffectiveDate": "07/17/2025",
    "licenseExpirationDate": "10/31/2025",
    "dataDate": "10/18/2025",
    "capacity": 0,
    "address": "3575 GEARY BLVD",
    "city": "SAN FRANCISCO",
    "zip": "94118",
    "county": "SAN FRANCISCO",
    "phone": "(415) 379-2619",
    "lat": 37.78090801,
    "lng": -122.457918
  },
  {
    "id": "220000109",
    "name": "KAISER FOUNDATION HOSP HOME HEALTH - SAN FRANCISCO",
    "npi": "1619047016",
    "hcaiId": "406382671",
    "businessName": "KAISER FOUNDATION HOSPITALS",
    "contactEmail": "MARY.S.ALLRED@KP.ORG",
    "categoryName": "HOME HEALTH AGENCY",
    "categoryCode": "HHA",
    "licenseStatus": "ACTIVE",
    "inService": true,
    "licenseNumber": "220000112",
    "licenseEffectiveDate": "12/01/2024",
    "licenseExpirationDate": "11/30/2025",
    "dataDate": "10/18/2025",
    "capacity": 0,
    "address": "4131 GEARY BLVD, FLOOR 4",
    "city": "SAN FRANCISCO",
    "zip": "94118",
    "county": "SAN FRANCISCO",
    "phone": "(925) 536-7124",
    "lat": 37.78092577,
    "lng": -122.4635698
  },
  {
    "id": "070001265",
    "name": "KAISER FOUNDATION HOSPITAL HOSPICE - SAN FRANCISCO",
    "npi": "1801961511",
    "hcaiId": "406384039",
    "businessName": "KAISER FOUNDATION HOSPITALS",
    "contactEmail": "NENETTE.D.HOFFMAN@KP.ORG",
    "categoryName": "HOSPICE",
    "categoryCode": "HOSPICE",
    "licenseStatus": "ACTIVE",
    "inService": true,
    "licenseNumber": "070000586",
    "licenseEffectiveDate": "02/05/2025",
    "licenseExpirationDate": "02/04/2027",
    "dataDate": "10/18/2025",
    "capacity": 0,
    "address": "4131 GEARY BLVD, FLOOR 4",
    "city": "SAN FRANCISCO",
    "zip": "94118",
    "county": "SAN FRANCISCO",
    "phone": "(510) 821-0276",
    "lat": 37.78092577,
    "lng": -122.4635698
  },
  {
    "id": "630013927",
    "name": "NORTH EAST MEDICAL SERVICES - CLEMENT",
    "npi": "1760746275",
    "hcaiId": "306384225",
    "businessName": "NORTH EAST MEDICAL SERVICES",
    "contactEmail": "RACHEL.KOH@NEMS.ORG",
    "categoryName": "PRIMARY CARE CLINIC",
    "categoryCode": "COMTYC",
    "licenseStatus": "ACTIVE",
    "inService": true,
    "licenseNumber": "550002073",
    "licenseEffectiveDate": "11/02/2025",
    "licenseExpirationDate": "11/01/2026",
    "dataDate": "10/18/2025",
    "capacity": 0,
    "address": "1033 CLEMENT ST",
    "city": "SAN FRANCISCO",
    "zip": "94118",
    "county": "SAN FRANCISCO",
    "phone": "(415) 391-9686",
    "lat": 37.782468,
    "lng": -122.4702855
  },
  {
    "id": "220001186",
    "name": "SAN FRANCISCO ENDOSCOPY CENTER LLC",
    "npi": "1124031406",
    "hcaiId": "306384171",
    "businessName": null,
    "contactEmail": "RUDOLPSA@SUTTERHEALTH.ORG",
    "categoryName": "SURGICAL CLINIC",
    "categoryCode": "ASC",
    "licenseStatus": "INACTIVE - CAPEN DECISION",
    "inService": false,
    "licenseNumber": "220000489",
    "licenseEffectiveDate": "11/17/2008",
    "licenseExpirationDate": "11/16/2009",
    "dataDate": "10/18/2025",
    "capacity": 0,
    "address": "3468 CALIFORNIA ST",
    "city": "SAN FRANCISCO",
    "zip": "94118",
    "county": "SAN FRANCISCO",
    "phone": "(415) 345-0100",
    "lat": 37.786869,
    "lng": -122.451309
  },
  {
    "id": "220000769",
    "name": "SAN FRANCISCO FREE CLINIC",
    "npi": null,
    "hcaiId": "306384025",
    "businessName": "SAN FRANCISCO FREE CLINIC",
    "contactEmail": "PMARTIN@SFFC.ORG",
    "categoryName": "PRIMARY CARE CLINIC",
    "categoryCode": "FREEC",
    "licenseStatus": "ACTIVE",
    "inService": true,
    "licenseNumber": "220000297",
    "licenseEffectiveDate": "02/28/2025",
    "licenseExpirationDate": "02/27/2026",
    "dataDate": "10/18/2025",
    "capacity": 0,
    "address": "4900 CALIFORNIA ST",
    "city": "SAN FRANCISCO",
    "zip": "94118",
    "county": "SAN FRANCISCO",
    "phone": "(415) 750-9087",
    "lat": 37.784808,
    "lng": -122.4701055
  },
  {
    "id": "630018766",
    "name": "SATELLITE HEALTHCARE GEARY",
    "npi": "1427836097",
    "hcaiId": "306380466",
    "businessName": "SATELLITE HEALTHCARE GEARY, LLC",
    "contactEmail": null,
    "categoryName": "CHRONIC DIALYSIS CLINIC",
    "categoryCode": "ESRD/CDC",
    "licenseStatus": "ACTIVE",
    "inService": true,
    "licenseNumber": "550004979",
    "licenseEffectiveDate": "10/09/2025",
    "licenseExpirationDate": "10/08/2026",
    "dataDate": "10/18/2025",
    "capacity": 13,
    "address": "3716 GEARY BLVD",
    "city": "SAN FRANCISCO",
    "zip": "94118",
    "county": "SAN FRANCISCO",
    "phone": null,
    "lat": 37.781838,
    "lng": -122.4592875
  },
  {
    "id": "220000385",
    "name": "U.C. CENTER ON DEAFNESS",
    "npi": null,
    "hcaiId": null,
    "businessName": null,
    "contactEmail": null,
    "categoryName": "OTHER",
    "categoryCode": "UNLICEN",
    "licenseStatus": null,
    "inService": null,
    "licenseNumber": null,
    "licenseEffectiveDate": null,
    "licenseExpirationDate": null,
    "dataDate": "10/18/2025",
    "capacity": 0,
    "address": "3333 CALIFORNIA ST",
    "city": "SAN FRANCISCO",
    "zip": "94118",
    "county": "SAN FRANCISCO",
    "phone": "(415) 476-4980",
    "lat": 37.786095,
    "lng": -122.448393
  }
]