[
  {
    "id": "630014595",
    "name": "ALPHA PREGNANCY CENTER",
    "npi": null,
    "hcaiId": "306384232",
    "businessName": "ALPHA PREGNANCY CENTER",
    "contactEmail": "INFO@ALPHAPC.ORG",
    "categoryName": "PRIMARY CARE CLINIC",
    "categoryCode": "FREEC",
    "licenseStatus": "ACTIVE",
    "inService": true,
    "licenseNumber": "550003078",
    "licenseEffectiveDate": "04/15/2025",
    "licenseExpirationDate": "04/14/2026",
    "dataDate": "10/18/2025",
    "capacity": 0,
    "address": "5070 MISSION ST",
    "city": "SAN FRANCISCO",
    "zip": "94112",
    "county": "SAN FRANCISCO",
    "phone": "(415) 584-6800",
    "lat": 37.717308,
    "lng": -122.4407475
  },
  {
    "id": "630006861",
    "name": "CHINESE HOSPITAL'S EXCELSIOR HEALTH SERVICES",
    "npi": null,
    "hcaiId": "306384182",
    "businessName": "CHINESE HOSPITAL ASSOCIATION",
    "contactEmail": "JIAMIW@CHASF.ORG",
    "categoryName": "PRIMARY CARE CLINIC",
    "categoryCode": "COMTYC",
    "licenseStatus": "ACTIVE",
    "inService": true,
    "licenseNumber": "550000121",
    "licenseEffectiveDate": "02/06/2025",
    "licenseExpirationDate": "02/05/2026",
    "dataDate": "10/18/2025",
    "capacity": 0,
    "address": "888 PARIS ST, SUITE 202",
    "city": "SAN FRANCISCO",
    "zip": "94112",
    "county": "SAN FRANCISCO",
    "phone": "(415) 677-2488",
    "lat": 37.716039,
    "lng": -122.439591
  },
  {
    "id": "630015483",
    "name": "CLINIC BY THE BAY",
    "npi": null,
    "hcaiId": "306384231",
    "businessName": "VOLUNTEERS IN MEDICINE - SAN FRANCISCO",
    "contactEmail": "INFO@CLINICBYTHEBAY.ORG",
    "categoryName": "PRIMARY CARE CLINIC",
    "categoryCode": "FREEC",
    "licenseStatus": "ACTIVE",
    "inService": true,
    "licenseNumber": "550003018",
    "licenseEffectiveDate": "01/05/2025",
    "licenseExpirationDate": "01/04/2026",
    "dataDate": "10/18/2025",
    "capacity": 0,
    "address": "35 ONONDAGA AVE",
    "city": "SAN FRANCISCO",
    "zip": "94112",
    "county": "SAN FRANCISCO",
    "phone": "(415) 405-0207",
    "lat": 37.72130199,
    "lng": -122.438372
  },
  {
    "id": "220000516",
    "name": "JEWISH HOME & REHAB CENTER",
    "npi": "1275525115",
    "hcaiId": "106380842",
    "businessName": "HEBREW HOME FOR AGED DISABLED",
    "contactEmail": "ARAMBARAN@SFCJL.ORG",
    "categoryName": "ACUTE PSYCHIATRIC HOSPITAL",
    "categoryCode": "APH",
    "licenseStatus": "ACTIVE",
    "inService": true,
    "licenseNumber": "220000224",
    "licenseEffectiveDate": "05/01/2025",
    "licenseExpirationDate": "04/30/2026",
    "dataDate": "10/18/2025",
    "capacity": 13,
    "address": "302 SILVER AVE",
    "city": "SAN FRANCISCO",
    "zip": "94112",
    "county": "SAN FRANCISCO",
    "phone": "(415) 469-2214",
    "lat": 37.728261,
    "lng": -122.429952
  },
  {
    "id": "220000518",
    "name": "JEWISH HOME & REHAB CENTER D/P SNF",
    "npi": "1275525115",
    "hcaiId": null,
    "businessName": "HEBREW HOME FOR AGED DISABLED",
    "contactEmail": "MVILLENA@SFCJL.ORG",
    "categoryName": "SKILLED NURSING FACILITY",
    "categoryCode": "SNF",
    "licenseStatus": "ACTIVE",
    "inService": true,
    "licenseNumber": "220000224",
    "licenseEffectiveDate": "05/01/2025",
    "licenseExpirationDate": "04/30/2026",
    "dataDate": "10/18/2025",
    "capacity": 362,
    "address": "302 SILVER AVE",
    "city": "SAN FRANCISCO",
    "zip": "94112",
    "county": "SAN FRANCISCO",
    "phone": "(415) 334-2500",
    "lat": 37.728261,
    "lng": -122.429952
  },
  {
    "id": "220000899",
    "name": "MISSION NEIGHBORHOOD HEALTH CTR.- EXCELSIOR CLINIC",
    "npi": "1528136389",
    "hcaiId": "306384045",
    "businessName": "MISSION AREA HEALTH ASSOCIATES",
    "contactEmail": "EXECUTIVEDIRECTOR@MNHC.ORG",
    "categoryName": "PRIMARY CARE CLINIC",
    "categoryCode": "COMTYC",
    "licenseStatus": "ACTIVE",
    "inService": true,
    "licenseNumber": "220000348",
    "licenseEffectiveDate": "08/19/2025",
    "licenseExpirationDate": "05/16/2026",
    "dataDate": "10/18/2025",
    "capacity": 0,
    "address": "4836 MISSION ST",
    "city": "SAN FRANCISCO",
    "zip": "94112",
    "county": "SAN FRANCISCO",
    "phone": "(415) 552-3870",
    "lat": 37.72051162,
    "lng": -122.4381855
  },
  {
    "id": "630019919",
    "name": "NORTH EAST MEDICAL SERVICES - OCEAN",
    "npi": null,
    "hcaiId": null,
    "businessName": "NORTH EAST MEDICAL SERVICES",
    "contactEmail": "RACHEL.KOH@NEMS.ORG",
    "categoryName": "PRIMARY CARE CLINIC",
    "categoryCode": "COMTYC",
    "licenseStatus": "ACTIVE",
    "inService": true,
    "licenseNumber": "550001796",
    "licenseEffectiveDate": "12/15/2024",
    "licenseExpirationDate": "12/14/2025",
    "dataDate": "10/18/2025",
    "capacity": 0,
    "address": "1443 OCEAN AVE",
    "city": "SAN FRANCISCO",
    "zip": "94112",
    "county": "SAN FRANCISCO",
    "phone": "(415) 391-9686",
    "lat": 37.723995,
    "lng": -122.457942
  },
  {
    "id": "220000999",
    "name": "ON LOK SENIOR HEALTH SERVICES - MISSION CENTER",
    "npi": null,
    "hcaiId": "306384163",
    "businessName": "ON LOK SENIOR HEALTH SERVICES",
    "contactEmail": "NICOLE@ONLOK.ORG",
    "categoryName": "PRIMARY CARE CLINIC",
    "categoryCode": "COMTYC",
    "licenseStatus": "ACTIVE",
    "inService": true,
    "licenseNumber": "220000402",
    "licenseEffectiveDate": "05/09/2025",
    "licenseExpirationDate": "05/08/2026",
    "dataDate": "10/18/2025",
    "capacity": 0,
    "address": "4430 MISSION ST",
    "city": "SAN FRANCISCO",
    "zip": "94112",
    "county": "SAN FRANCISCO",
    "phone": "(415) 292-8799",
    "lat": 37.726866,
    "lng": -122.433516
  },
  {
    "id": "140001237",
    "name": "RAI-OCEAN AVENUE-SAN FRANCISCO",
    "npi": "1831263045",
    "hcaiId": "306384020",
    "businessName": "RAI CARE CENTERS OF NORTHERN CALIFORNIA II, LLC",
    "contactEmail": "CLINIC7105@FMC-NA.COM",
    "categoryName": "CHRONIC DIALYSIS CLINIC",
    "categoryCode": "ESRD/CDC",
    "licenseStatus": "ACTIVE",
    "inService": true,
    "licenseNumber": "140000625",
    "licenseEffectiveDate": "11/01/2024",
    "licenseExpirationDate": "10/31/2025",
    "dataDate": "10/18/2025",
    "capacity": 27,
    "address": "1738 OCEAN AVE",
    "city": "SAN FRANCISCO",
    "zip": "94112",
    "county": "SAN FRANCISCO",
    "phone": "(415) 406-1090",
    "lat": 37.725246,
    "lng": -122.460714
  },
  {
    "id": "220000048",
    "name": "SAN FRANCISCO POST ACUTE",
    "npi": "1124405121",
    "hcaiId": "206382635",
    "businessName": "SAN FRANCISCOIDENCE OPCO, LLC",
    "contactEmail": "NEIL.SAMIA@SFPOSTACUTE.COM",
    "categoryName": "SKILLED NURSING FACILITY",
    "categoryCode": "SNF",
    "licenseStatus": "ACTIVE",
    "inService": true,
    "licenseNumber": "220000110",
    "licenseEffectiveDate": "10/30/2025",
    "licenseExpirationDate": "10/29/2026",
    "dataDate": "10/18/2025",
    "capacity": 53,
    "address": "5767 MISSION ST",
    "city": "SAN FRANCISCO",
    "zip": "94112",
    "county": "SAN FRANCISCO",
    "phone": "(415) 584-3294",
    "lat": 37.709505,
    "lng": -122.449509
  },
  {
    "id": "220000605",
    "name": "THUNDERSEED AFTERCARE PROGRAM",
    "npi": null,
    "hcaiId": null,
    "businessName": null,
    "contactEmail": null,
    "categoryName": "OTHER",
    "categoryCode": "UNLICEN",
    "licenseStatus": null,
    "inService": null,
    "licenseNumber": null,
    "licenseEffectiveDate": null,
    "licenseExpirationDate": null,
    "dataDate": "10/18/2025",
    "capacity": 0,
    "address": "1345 OCEAN AVE",
    "city": "SAN FRANCISCO",
    "zip": "94112",
    "county": "SAN FRANCISCO",
    "phone": "(415) 333-1818",
    "lat": 37.723905,
    "lng": -122.4570015
  }
]