[
  {
    "id": "220000023",
    "name": "CALIFORNIA PACIFIC MEDICAL CENTER - DAVIES CAMPUS",
    "npi": "1376619031",
    "hcaiId": "106380933",
    "businessName": "SUTTER BAY HOSPITALS",
    "contactEmail": "KRISTEN.PICO@SUTTERHEALTH.ORG",
    "categoryName": "GENERAL ACUTE CARE HOSPITAL",
    "categoryCode": "GACH",
    "licenseStatus": "ACTIVE",
    "inService": true,
    "licenseNumber": "220000197",
    "licenseEffectiveDate": "05/29/2025",
    "licenseExpirationDate": "01/29/2026",
    "dataDate": "10/18/2025",
    "capacity": 141,
    "address": "601 DUBOCE AVE",
    "city": "SAN FRANCISCO",
    "zip": "94117",
    "county": "SAN FRANCISCO",
    "phone": "(415) 600-7480",
    "lat": 37.76905359,
    "lng": -122.4346773
  },
  {
    "id": "630026718",
    "name": "CALIFORNIA PACIFIC MEDICAL CENTER - DAVIES CAMPUS (D/P) APH",
    "npi": null,
    "hcaiId": null,
    "businessName": "SUTTER BAY HOSPITALS",
    "contactEmail": "KRISTEN.PICO@SUTTERHEALTH.ORG",
    "categoryName": "ACUTE PSYCHIATRIC HOSPITAL",
    "categoryCode": "APH",
    "licenseStatus": "ACTIVE",
    "inService": true,
    "licenseNumber": "220000197",
    "licenseEffectiveDate": "05/29/2025",
    "licenseExpirationDate": "01/29/2026",
    "dataDate": "10/18/2025",
    "capacity": 18,
    "address": "601 DUBOCE AVE, FLOOR 3RD, SOUTH TOWER",
    "city": "SAN FRANCISCO",
    "zip": "94117",
    "county": "SAN FRANCISCO",
    "phone": "(415) 600-7480",
    "lat": 37.76905359,
    "lng": -122.4346773
  },
  {
    "id": "220000815",
    "name": "CALIFORNIA PACIFIC MEDICAL CENTER - DAVIES CAMPUS HOSPITAL D/P APH",
    "npi": "1376619031",
    "hcaiId": null,
    "businessName": "SUTTER BAY HOSPITALS",
    "contactEmail": null,
    "categoryName": "ACUTE PSYCHIATRIC HOSPITAL",
    "categoryCode": "APH",
    "licenseStatus": "ACTIVE",
    "inService": true,
    "licenseNumber": "220000197",
    "licenseEffectiveDate": "05/29/2025",
    "licenseExpirationDate": "01/29/2026",
    "dataDate": "10/18/2025",
    "capacity": 0,
    "address": "601 DUBOCE AVE",
    "city": "SAN FRANCISCO",
    "zip": "94117",
    "county": "SAN FRANCISCO",
    "phone": "(415) 565-6003",
    "lat": 37.76905359,
    "lng": -122.4346773
  },
  {
    "id": "220000205",
    "name": "CALIFORNIA PACIFIC MEDICAL CENTER - DAVIES CAMPUS HOSPITAL D/P SNF",
    "npi": "1588732713",
    "hcaiId": null,
    "businessName": "SUTTER BAY HOSPITALS",
    "contactEmail": null,
    "categoryName": "SKILLED NURSING FACILITY",
    "categoryCode": "SNF",
    "licenseStatus": "ACTIVE",
    "inService": true,
    "licenseNumber": "220000197",
    "licenseEffectiveDate": "05/29/2025",
    "licenseExpirationDate": "01/29/2026",
    "dataDate": "10/18/2025",
    "capacity": 38,
    "address": "601 DUBOCE AVE",
    "city": "SAN FRANCISCO",
    "zip": "94117",
    "county": "SAN FRANCISCO",
    "phone": "(415) 600-6000",
    "lat": 37.76905359,
    "lng": -122.4346773
  },
  {
    "id": "220000422",
    "name": "CHILD & FAMILY TREATMENT CENTER",
    "npi": null,
    "hcaiId": null,
    "businessName": null,
    "contactEmail": null,
    "categoryName": "OTHER",
    "categoryCode": "UNLICEN",
    "licenseStatus": null,
    "inService": null,
    "licenseNumber": null,
    "licenseEffectiveDate": null,
    "licenseExpirationDate": null,
    "dataDate": "10/18/2025",
    "capacity": 0,
    "address": "2020 HAYES ST",
    "city": "SAN FRANCISCO",
    "zip": "94117",
    "county": "SAN FRANCISCO",
    "phone": "(415) 731-1911",
    "lat": 37.77372,
    "lng": -122.44968
  },
  {
    "id": "220000056",
    "name": "HAYES CONVALESCENT HOSPITAL",
    "npi": "1629128020",
    "hcaiId": "206380830",
    "businessName": "J & T CARE,  LLC",
    "contactEmail": "HAYESCONVALESCENT@ATT.NET",
    "categoryName": "SKILLED NURSING FACILITY",
    "categoryCode": "SNF",
    "licenseStatus": "ACTIVE",
    "inService": true,
    "licenseNumber": "220000032",
    "licenseEffectiveDate": "11/01/2024",
    "licenseExpirationDate": "10/31/2025",
    "dataDate": "10/18/2025",
    "capacity": 34,
    "address": "1250 HAYES ST",
    "city": "SAN FRANCISCO",
    "zip": "94117",
    "county": "SAN FRANCISCO",
    "phone": "(415) 931-8806",
    "lat": 37.775421,
    "lng": -122.437116
  },
  {
    "id": "220000190",
    "name": "HEALTHRIGHT 360",
    "npi": "1760427843",
    "hcaiId": "306380827",
    "businessName": "HEALTHRIGHT 360",
    "contactEmail": "MBAEZ@HEALTHRIGHT360.ORG",
    "categoryName": "PRIMARY CARE CLINIC",
    "categoryCode": "FREEC",
    "licenseStatus": "ACTIVE",
    "inService": true,
    "licenseNumber": "220000030",
    "licenseEffectiveDate": "12/01/2024",
    "licenseExpirationDate": "11/30/2025",
    "dataDate": "10/18/2025",
    "capacity": 0,
    "address": "558 CLAYTON ST",
    "city": "SAN FRANCISCO",
    "zip": "94117",
    "county": "SAN FRANCISCO",
    "phone": "(415) 746-1950",
    "lat": 37.769967,
    "lng": -122.4483165
  },
  {
    "id": "630016625",
    "name": "KENTFIELD HOSPITAL SAN FRANCISCO",
    "npi": "1760424261",
    "hcaiId": "106384238",
    "businessName": "KENTFIELD AND SAN FRANCISCO SPECIALTY HOSPITAL INC.",
    "contactEmail": "MANNY.G@AMERICANAM.ORG",
    "categoryName": "GENERAL ACUTE CARE HOSPITAL",
    "categoryCode": "GACH",
    "licenseStatus": "ACTIVE",
    "inService": true,
    "licenseNumber": "110000358",
    "licenseEffectiveDate": "11/01/2025",
    "licenseExpirationDate": "10/31/2026",
    "dataDate": "10/18/2025",
    "capacity": 60,
    "address": "450 STANYAN ST, FLOOR 6",
    "city": "SAN FRANCISCO",
    "zip": "94117",
    "county": "SAN FRANCISCO",
    "phone": "(707) 503-8772",
    "lat": 37.773675,
    "lng": -122.454261
  },
  {
    "id": "220000039",
    "name": "SAN FRANCISCO HEALTH CARE",
    "npi": "1588974570",
    "hcaiId": "206380762",
    "businessName": "SAN FRANCISCO HEALTH CARE AND REHAB, INC.",
    "contactEmail": "GENERALCONTACT@SFHCR.COM",
    "categoryName": "SKILLED NURSING FACILITY",
    "categoryCode": "SNF",
    "licenseStatus": "ACTIVE",
    "inService": true,
    "licenseNumber": "220000011",
    "licenseEffectiveDate": "11/28/2024",
    "licenseExpirationDate": "11/27/2025",
    "dataDate": "10/18/2025",
    "capacity": 168,
    "address": "1477 GROVE ST",
    "city": "SAN FRANCISCO",
    "zip": "94117",
    "county": "SAN FRANCISCO",
    "phone": "(415) 563-0565",
    "lat": 37.775286,
    "lng": -122.4407295
  },
  {
    "id": "220000225",
    "name": "ST. MARY'S MEDICAL CENTER D/P APH",
    "npi": "1174667158",
    "hcaiId": null,
    "businessName": "UCSF HEALTH COMMUNITY HOSPITALS",
    "contactEmail": null,
    "categoryName": "ACUTE PSYCHIATRIC HOSPITAL",
    "categoryCode": "APH",
    "licenseStatus": "ACTIVE",
    "inService": true,
    "licenseNumber": "220000071",
    "licenseEffectiveDate": "10/17/2025",
    "licenseExpirationDate": "05/04/2026",
    "dataDate": "10/18/2025",
    "capacity": 22,
    "address": "450 STANYAN ST",
    "city": "SAN FRANCISCO",
    "zip": "94117",
    "county": "SAN FRANCISCO",
    "phone": "(415) 668-1000",
    "lat": 37.774062,
    "lng": -122.454189
  },
  {
    "id": "220000428",
    "name": "STEVENS, BARBARA PT-IP",
    "npi": null,
    "hcaiId": null,
    "businessName": null,
    "contactEmail": null,
    "categoryName": "OTHER",
    "categoryCode": "UNLICEN",
    "licenseStatus": null,
    "inService": null,
    "licenseNumber": null,
    "licenseEffectiveDate": null,
    "licenseExpirationDate": null,
    "dataDate": "10/18/2025",
    "capacity": 0,
    "address": "2166 HAYES ST, SUITE 206",
    "city": "SAN FRANCISCO",
    "zip": "94117",
    "county": "SAN FRANCISCO",
    "phone": "(415) 668-5870",
    "lat": 37.773486,
    "lng": -122.4519795
  },
  {
    "id": "220000030",
    "name": "UCSF HEALTH ST. MARY'S HOSPITAL",
    "npi": "1174667158",
    "hcaiId": "106380965",
    "businessName": "UCSF HEALTH COMMUNITY HOSPITALS",
    "contactEmail": "COURTNEY.MCMAHON@UCSF.EDU",
    "categoryName": "GENERAL ACUTE CARE HOSPITAL",
    "categoryCode": "GACH",
    "licenseStatus": "ACTIVE",
    "inService": true,
    "licenseNumber": "220000071",
    "licenseEffectiveDate": "10/17/2025",
    "licenseExpirationDate": "05/04/2026",
    "dataDate": "10/18/2025",
    "capacity": 245,
    "address": "450 STANYAN ST",
    "city": "SAN FRANCISCO",
    "zip": "94117",
    "county": "SAN FRANCISCO",
    "phone": "(707) 318-4928",
    "lat": 37.774062,
    "lng": -122.454189
  }
]