[
  {
    "id": "220000018",
    "name": "CALIFORNIA PACIFIC MEDICAL CENTER - MISSION BERNAL CAMPUS AND ORTHOPEDIC INSTITUTE",
    "npi": "1881712933",
    "hcaiId": "106384202",
    "businessName": "SUTTER BAY HOSPITALS",
    "contactEmail": "HAMILA.KOWNACKI@SUTTERHEALTH.ORG",
    "categoryName": "GENERAL ACUTE CARE HOSPITAL",
    "categoryCode": "GACH",
    "licenseStatus": "ACTIVE",
    "inService": true,
    "licenseNumber": "220000070",
    "licenseEffectiveDate": "04/21/2025",
    "licenseExpirationDate": "12/31/2025",
    "dataDate": "10/18/2025",
    "capacity": 98,
    "address": "3555 CESAR CHAVEZ",
    "city": "SAN FRANCISCO",
    "zip": "94110",
    "county": "SAN FRANCISCO",
    "phone": "(415) 600-1337",
    "lat": 37.747206,
    "lng": -122.420664
  },
  {
    "id": "220000686",
    "name": "CASARC (CHILD & ADLSNT. SEXUAL ABUSE RESRC. CTR)",
    "npi": null,
    "hcaiId": null,
    "businessName": null,
    "contactEmail": null,
    "categoryName": "OTHER",
    "categoryCode": "UNLICEN",
    "licenseStatus": null,
    "inService": null,
    "licenseNumber": null,
    "licenseEffectiveDate": null,
    "licenseExpirationDate": null,
    "dataDate": "10/18/2025",
    "capacity": 0,
    "address": "995 POTRERO AVE, BLDG 80",
    "city": "SAN FRANCISCO",
    "zip": "94110",
    "county": "SAN FRANCISCO",
    "phone": "(415) 821-8386",
    "lat": 37.75729627,
    "lng": -122.4066792
  },
  {
    "id": "630015672",
    "name": "FRESENIUS MEDICAL CARE POTRERO AVENUE",
    "npi": null,
    "hcaiId": "306384237",
    "businessName": "RAI CARE CENTERS OF NORTHERN CALIFORNIA II, LLC",
    "contactEmail": "CLINIC7299@FRESENIUSMEDICALCARE.COM",
    "categoryName": "CHRONIC DIALYSIS CLINIC",
    "categoryCode": "ESRD/CDC",
    "licenseStatus": "ACTIVE",
    "inService": true,
    "licenseNumber": "550003396",
    "licenseEffectiveDate": "02/04/2025",
    "licenseExpirationDate": "02/03/2026",
    "dataDate": "10/18/2025",
    "capacity": 25,
    "address": "626 POTRERO AVE",
    "city": "SAN FRANCISCO",
    "zip": "94110",
    "county": "SAN FRANCISCO",
    "phone": "(415) 648-4182",
    "lat": 37.761723,
    "lng": -122.4077355
  },
  {
    "id": "220001124",
    "name": "INSTITUTO FAMILIAR DE LA RAZA - OUTPATIENT",
    "npi": null,
    "hcaiId": "306382737",
    "businessName": "INSTITUTO FAMILIAR DE LA RAZA, INC.",
    "contactEmail": "INFO@IFRSF.ORG",
    "categoryName": "PRIMARY CARE CLINIC",
    "categoryCode": "COMTYC",
    "licenseStatus": "ACTIVE",
    "inService": true,
    "licenseNumber": "220000461",
    "licenseEffectiveDate": "04/12/2025",
    "licenseExpirationDate": "04/11/2026",
    "dataDate": "10/18/2025",
    "capacity": 0,
    "address": "2919 MISSION ST",
    "city": "SAN FRANCISCO",
    "zip": "94110",
    "county": "SAN FRANCISCO",
    "phone": "(415) 229-0500",
    "lat": 37.750311,
    "lng": -122.417937
  },
  {
    "id": "630027240",
    "name": "JOHN O'CONNELL HIGH SCHOOL-BASED CLINIC",
    "npi": "1457427411",
    "hcaiId": null,
    "businessName": "MISSION AREA HEALTH ASSOCIATES",
    "contactEmail": null,
    "categoryName": "PRIMARY CARE CLINIC",
    "categoryCode": "COMTYC",
    "licenseStatus": "ACTIVE",
    "inService": true,
    "licenseNumber": "220000488",
    "licenseEffectiveDate": "06/01/2025",
    "licenseExpirationDate": "05/31/2026",
    "dataDate": "10/18/2025",
    "capacity": 0,
    "address": "2355 FOLSOM ST, ROOM S106A",
    "city": "SAN FRANCISCO",
    "zip": "94110",
    "county": "SAN FRANCISCO",
    "phone": null,
    "lat": 37.7595,
    "lng": -122.414093
  },
  {
    "id": "220000182",
    "name": "MISSION BERNAL ADULT CLINIC",
    "npi": "1871826925",
    "hcaiId": "306381339",
    "businessName": "MISSION AREA HEALTH ASSOCIATES",
    "contactEmail": "BROWNEW@SUTTERHEALTH.ORG",
    "categoryName": "PRIMARY CARE CLINIC",
    "categoryCode": "COMTYC",
    "licenseStatus": "ACTIVE",
    "inService": true,
    "licenseNumber": "220000488",
    "licenseEffectiveDate": "06/01/2025",
    "licenseExpirationDate": "05/31/2026",
    "dataDate": "10/18/2025",
    "capacity": 0,
    "address": "1580 VALENCIA ST, SUITE 506",
    "city": "SAN FRANCISCO",
    "zip": "94110",
    "county": "SAN FRANCISCO",
    "phone": "(415) 641-6542",
    "lat": 37.747206,
    "lng": -122.420664
  },
  {
    "id": "630024575",
    "name": "MISSION BERNAL PEDIATRIC AFTER HOURS CLINIC",
    "npi": "1457427411",
    "hcaiId": null,
    "businessName": "MISSION AREA HEALTH ASSOCIATES",
    "contactEmail": null,
    "categoryName": "PRIMARY CARE CLINIC",
    "categoryCode": "COMTYC",
    "licenseStatus": "ACTIVE",
    "inService": true,
    "licenseNumber": "220000488",
    "licenseEffectiveDate": "06/01/2025",
    "licenseExpirationDate": "05/31/2026",
    "dataDate": "10/18/2025",
    "capacity": 0,
    "address": "1580 VALENCIA ST, SUITE 702",
    "city": "SAN FRANCISCO",
    "zip": "94110",
    "county": "SAN FRANCISCO",
    "phone": "(415) 852-4080",
    "lat": 37.747485,
    "lng": -122.420628
  },
  {
    "id": "630010929",
    "name": "MISSION BERNAL PEDIATRIC CLINIC",
    "npi": "1871826925",
    "hcaiId": "306384208",
    "businessName": "MISSION AREA HEALTH ASSOCIATES",
    "contactEmail": "BROWNEW@SUTTERHEALTH.ORG",
    "categoryName": "PRIMARY CARE CLINIC",
    "categoryCode": "COMTYC",
    "licenseStatus": "ACTIVE",
    "inService": true,
    "licenseNumber": "220000488",
    "licenseEffectiveDate": "06/01/2025",
    "licenseExpirationDate": "05/31/2026",
    "dataDate": "10/18/2025",
    "capacity": 0,
    "address": "1580 VALENCIA ST, SUITE 701",
    "city": "SAN FRANCISCO",
    "zip": "94110",
    "county": "SAN FRANCISCO",
    "phone": "(415) 641-2199",
    "lat": 37.747206,
    "lng": -122.420664
  },
  {
    "id": "630010934",
    "name": "MISSION BERNAL WOMEN'S CLINIC",
    "npi": "1871826925",
    "hcaiId": "306384183",
    "businessName": "SUTTER BAY HOSPITALS",
    "contactEmail": "HAMILA.KOWNZCKI@SUTTERHEALTH.ORG",
    "categoryName": "PRIMARY CARE CLINIC",
    "categoryCode": "COMTYC",
    "licenseStatus": "ACTIVE",
    "inService": true,
    "licenseNumber": "550000230",
    "licenseEffectiveDate": "01/01/2025",
    "licenseExpirationDate": "12/31/2025",
    "dataDate": "10/18/2025",
    "capacity": 0,
    "address": "1580 VALENCIA ST, SUITE 508",
    "city": "SAN FRANCISCO",
    "zip": "94110",
    "county": "SAN FRANCISCO",
    "phone": "(415) 600-1337",
    "lat": 37.747206,
    "lng": -122.420664
  },
  {
    "id": "220000643",
    "name": "MISSION CHILD ADOLESCENT FAMILY SERVICE",
    "npi": null,
    "hcaiId": null,
    "businessName": null,
    "contactEmail": null,
    "categoryName": "OTHER",
    "categoryCode": "UNLICEN",
    "licenseStatus": null,
    "inService": null,
    "licenseNumber": null,
    "licenseEffectiveDate": null,
    "licenseExpirationDate": null,
    "dataDate": "10/18/2025",
    "capacity": 0,
    "address": "759 S VAN NESS AVE",
    "city": "SAN FRANCISCO",
    "zip": "94110",
    "county": "SAN FRANCISCO",
    "phone": "(415) 255-3632",
    "lat": 37.761048,
    "lng": -122.416893
  },
  {
    "id": "220000314",
    "name": "MISSION MENTAL HEALTH ACUTE DAY TREATMENT",
    "npi": null,
    "hcaiId": null,
    "businessName": null,
    "contactEmail": null,
    "categoryName": "OTHER",
    "categoryCode": "UNLICEN",
    "licenseStatus": null,
    "inService": null,
    "licenseNumber": null,
    "licenseEffectiveDate": null,
    "licenseExpirationDate": null,
    "dataDate": "10/18/2025",
    "capacity": 0,
    "address": "761 S VAN NESS AVE",
    "city": "SAN FRANCISCO",
    "zip": "94110",
    "county": "SAN FRANCISCO",
    "phone": "(415) 558-5822",
    "lat": 37.76097624,
    "lng": -122.4170592
  },
  {
    "id": "220001184",
    "name": "MISSION NEIGHBORHOOD HEALTH CENTER",
    "npi": "1457427411",
    "hcaiId": "306380891",
    "businessName": "MISSION AREA HEALTH ASSOCIATES",
    "contactEmail": "EXECUTIVEDIRECTOR@MNHC.ORG",
    "categoryName": "PRIMARY CARE CLINIC",
    "categoryCode": "COMTYC",
    "licenseStatus": "ACTIVE",
    "inService": true,
    "licenseNumber": "220000488",
    "licenseEffectiveDate": "06/01/2025",
    "licenseExpirationDate": "05/31/2026",
    "dataDate": "10/18/2025",
    "capacity": 0,
    "address": "240 SHOTWELL ST",
    "city": "SAN FRANCISCO",
    "zip": "94110",
    "county": "SAN FRANCISCO",
    "phone": "(415) 552-3870",
    "lat": 37.764747,
    "lng": -122.41656
  },
  {
    "id": "630012829",
    "name": "MISSION NEIGHBORHOOD RESOURCE CENTER",
    "npi": "1457427411",
    "hcaiId": "306384214",
    "businessName": "MISSION AREA HEALTH ASSOCIATES",
    "contactEmail": "EXECUTIVEDIRECTOR@MNHC.ORG",
    "categoryName": "PRIMARY CARE CLINIC",
    "categoryCode": "COMTYC",
    "licenseStatus": "ACTIVE",
    "inService": true,
    "licenseNumber": "550001372",
    "licenseEffectiveDate": "11/20/2024",
    "licenseExpirationDate": "11/19/2025",
    "dataDate": "10/18/2025",
    "capacity": 0,
    "address": "165 CAPP ST",
    "city": "SAN FRANCISCO",
    "zip": "94110",
    "county": "SAN FRANCISCO",
    "phone": "(415) 552-3870",
    "lat": 37.764054,
    "lng": -122.4183105
  },
  {
    "id": "220000167",
    "name": "NATIVE AMERICAN HEALTH CENTER",
    "npi": null,
    "hcaiId": "306380896",
    "businessName": "NATIVE AMERICAN HEALTH CENTER, INC.",
    "contactEmail": "ALEXANDRAW@NATIVEHEALTH.ORG",
    "categoryName": "PRIMARY CARE CLINIC",
    "categoryCode": "COMTYC",
    "licenseStatus": "ACTIVE",
    "inService": true,
    "licenseNumber": "220000207",
    "licenseEffectiveDate": "05/30/2025",
    "licenseExpirationDate": "05/29/2026",
    "dataDate": "10/18/2025",
    "capacity": 0,
    "address": "160 CAPP ST",
    "city": "SAN FRANCISCO",
    "zip": "94110",
    "county": "SAN FRANCISCO",
    "phone": "(510) 485-5925",
    "lat": 37.764036,
    "lng": -122.418882
  },
  {
    "id": "220000019",
    "name": "PRISCILLA CHAN AND MARK ZUCKERBERG SAN FRANCISCO GENERAL HOSPITAL AND TRAUMA CENTER",
    "npi": "1164609962",
    "hcaiId": "106380939",
    "businessName": "CITY & COUNTY OF SAN FRANCISCO, DEPT. PUBLIC HEALTH",
    "contactEmail": "ADRIAN.SMITH@SFDPH.ORG",
    "categoryName": "GENERAL ACUTE CARE HOSPITAL",
    "categoryCode": "GACH",
    "licenseStatus": "ACTIVE",
    "inService": true,
    "licenseNumber": "220000063",
    "licenseEffectiveDate": "06/14/2025",
    "licenseExpirationDate": "04/13/2026",
    "dataDate": "10/18/2025",
    "capacity": 284,
    "address": "1001 POTRERO AVE",
    "city": "SAN FRANCISCO",
    "zip": "94110",
    "county": "SAN FRANCISCO",
    "phone": "(415) 298-5500",
    "lat": 37.756161,
    "lng": -122.4056655
  },
  {
    "id": "220000531",
    "name": "SAN FRANCISCO GENERAL HOSPITAL D/P APH",
    "npi": "1164609962",
    "hcaiId": null,
    "businessName": "CITY & COUNTY OF SAN FRANCISCO, DEPT. PUBLIC HEALTH",
    "contactEmail": null,
    "categoryName": "ACUTE PSYCHIATRIC HOSPITAL",
    "categoryCode": "APH",
    "licenseStatus": "ACTIVE",
    "inService": true,
    "licenseNumber": "220000063",
    "licenseEffectiveDate": "06/14/2025",
    "licenseExpirationDate": "04/13/2026",
    "dataDate": "10/18/2025",
    "capacity": 83,
    "address": "1001 POTRERO AVE",
    "city": "SAN FRANCISCO",
    "zip": "94110",
    "county": "SAN FRANCISCO",
    "phone": "(415) 206-8100",
    "lat": 37.756161,
    "lng": -122.4056655
  },
  {
    "id": "220000888",
    "name": "SAN FRANCISCO GENERAL HOSPITAL D/P SNF",
    "npi": "1285677518",
    "hcaiId": null,
    "businessName": "CITY & COUNTY OF SAN FRANCISCO, DEPT. PUBLIC HEALTH",
    "contactEmail": null,
    "categoryName": "SKILLED NURSING FACILITY",
    "categoryCode": "SNF",
    "licenseStatus": "ACTIVE",
    "inService": true,
    "licenseNumber": "220000063",
    "licenseEffectiveDate": "06/14/2025",
    "licenseExpirationDate": "04/13/2026",
    "dataDate": "10/18/2025",
    "capacity": 30,
    "address": "1001 POTRERO AVE",
    "city": "SAN FRANCISCO",
    "zip": "94110",
    "county": "SAN FRANCISCO",
    "phone": "(628) 206-8100",
    "lat": 37.756161,
    "lng": -122.4056655
  },
  {
    "id": "220001189",
    "name": "SAN FRANCISCO GENERAL HOSPITAL RENAL CENTER",
    "npi": "1164465548",
    "hcaiId": null,
    "businessName": "CITY & COUNTY OF SAN FRANCISCO, DEPT. PUBLIC HEALTH",
    "contactEmail": "SUSAN.EHRLICH@SFDPH.ORG",
    "categoryName": "CHRONIC DIALYSIS CLINIC",
    "categoryCode": "ESRD",
    "licenseStatus": "ACTIVE",
    "inService": true,
    "licenseNumber": "220000063",
    "licenseEffectiveDate": "06/14/2025",
    "licenseExpirationDate": "04/13/2026",
    "dataDate": "10/18/2025",
    "capacity": 0,
    "address": "1001 POTRERO AVE",
    "city": "SAN FRANCISCO",
    "zip": "94110",
    "county": "SAN FRANCISCO",
    "phone": "(415) 206-3517",
    "lat": 37.756161,
    "lng": -122.4056655
  },
  {
    "id": "220000715",
    "name": "SAN FRANCISCO RAPE TREATMENT CENTER",
    "npi": null,
    "hcaiId": null,
    "businessName": null,
    "contactEmail": null,
    "categoryName": "REFERRAL AGENCY",
    "categoryCode": "REFRLAG",
    "licenseStatus": null,
    "inService": null,
    "licenseNumber": null,
    "licenseEffectiveDate": null,
    "licenseExpirationDate": null,
    "dataDate": "10/18/2025",
    "capacity": 0,
    "address": "995 POTRERO AVE",
    "city": "SAN FRANCISCO",
    "zip": "94110",
    "county": "SAN FRANCISCO",
    "phone": "(415) 206-3222",
    "lat": 37.75729627,
    "lng": -122.4066792
  }
]