[
  {
    "id": "630012606",
    "name": "CALIFORNIA PACIFIC MEDICAL CENTER",
    "npi": null,
    "hcaiId": null,
    "businessName": null,
    "contactEmail": "BREA.MCLAUGHIN@SUTTERHEALTH.ORG",
    "categoryName": "GENERAL ACUTE CARE HOSPITAL",
    "categoryCode": "TRANS",
    "licenseStatus": null,
    "inService": null,
    "licenseNumber": null,
    "licenseEffectiveDate": null,
    "licenseExpirationDate": null,
    "dataDate": "10/18/2025",
    "capacity": 0,
    "address": "2333 BUCHANAN ST",
    "city": "SAN FRANCISCO",
    "zip": "94115",
    "county": "SAN FRANCISCO",
    "phone": null,
    "lat": 37.790613,
    "lng": -122.4314325
  },
  {
    "id": "220000046",
    "name": "CENTRAL GARDENS POST ACUTE",
    "npi": "1093872715",
    "hcaiId": "206380772",
    "businessName": "GOLDEN CALIFORNIA HEALTHCARE, LLC",
    "contactEmail": "MATT.RUSSELL@VICTORIANPA.COM",
    "categoryName": "SKILLED NURSING FACILITY",
    "categoryCode": "SNF",
    "licenseStatus": "ACTIVE",
    "inService": true,
    "licenseNumber": "220000013",
    "licenseEffectiveDate": "02/28/2025",
    "licenseExpirationDate": "02/27/2026",
    "dataDate": "10/18/2025",
    "capacity": 92,
    "address": "1355 ELLIS ST",
    "city": "SAN FRANCISCO",
    "zip": "94115",
    "county": "SAN FRANCISCO",
    "phone": "(415) 567-2967",
    "lat": 37.782594,
    "lng": -122.4285795
  },
  {
    "id": "220000332",
    "name": "COMMUNITY CRISIS SERVICE OF SAN FRANCISCO",
    "npi": null,
    "hcaiId": null,
    "businessName": null,
    "contactEmail": null,
    "categoryName": "OTHER",
    "categoryCode": "UNLICEN",
    "licenseStatus": null,
    "inService": null,
    "licenseNumber": null,
    "licenseEffectiveDate": null,
    "licenseExpirationDate": null,
    "dataDate": "10/18/2025",
    "capacity": 0,
    "address": "2330 POST ST",
    "city": "SAN FRANCISCO",
    "zip": "94115",
    "county": "SAN FRANCISCO",
    "phone": "(415) 255-3632",
    "lat": 37.784511,
    "lng": -122.44041
  },
  {
    "id": "070001401",
    "name": "HOSPICE AND PALLIATIVE CARE OF JFCS",
    "npi": null,
    "hcaiId": "406384169",
    "businessName": "JEWISH FAMILY AND CHILDREN'S SERVICES",
    "contactEmail": "JULIK@JFCS.ORG",
    "categoryName": "HOSPICE",
    "categoryCode": "HOSPICE",
    "licenseStatus": "ACTIVE",
    "inService": true,
    "licenseNumber": "070000680",
    "licenseEffectiveDate": "11/18/2023",
    "licenseExpirationDate": "11/17/2025",
    "dataDate": "10/18/2025",
    "capacity": 0,
    "address": "2150 POST ST",
    "city": "SAN FRANCISCO",
    "zip": "94115",
    "county": "SAN FRANCISCO",
    "phone": "(415) 449-3700",
    "lat": 37.7847062,
    "lng": -122.4372488
  },
  {
    "id": "220000008",
    "name": "KAISER FOUNDATION HOSPITAL - SAN FRANCISCO",
    "npi": "1134299522",
    "hcaiId": "106380857",
    "businessName": "KAISER FOUNDATION HOSPITALS",
    "contactEmail": "NATALIA.RABOVSKY@KP.ORG",
    "categoryName": "GENERAL ACUTE CARE HOSPITAL",
    "categoryCode": "GACH",
    "licenseStatus": "ACTIVE",
    "inService": true,
    "licenseNumber": "220000188",
    "licenseEffectiveDate": "10/23/2025",
    "licenseExpirationDate": "11/30/2025",
    "dataDate": "10/18/2025",
    "capacity": 239,
    "address": "2425 GEARY BLVD",
    "city": "SAN FRANCISCO",
    "zip": "94115",
    "county": "SAN FRANCISCO",
    "phone": "(415) 833-5873",
    "lat": 37.782306,
    "lng": -122.443227
  },
  {
    "id": "220000067",
    "name": "LAUREL HEIGHTS COMMUNITY CARE",
    "npi": null,
    "hcaiId": "206382626",
    "businessName": "JC CARE, INC.",
    "contactEmail": "LAURELHEIGHTSCC@ATT.NET",
    "categoryName": "SKILLED NURSING FACILITY",
    "categoryCode": "SNF",
    "licenseStatus": "ACTIVE",
    "inService": true,
    "licenseNumber": "220000109",
    "licenseEffectiveDate": "11/01/2024",
    "licenseExpirationDate": "10/31/2025",
    "dataDate": "10/18/2025",
    "capacity": 32,
    "address": "2740 CALIFORNIA ST",
    "city": "SAN FRANCISCO",
    "zip": "94115",
    "county": "SAN FRANCISCO",
    "phone": "(415) 567-3133",
    "lat": 37.78826232,
    "lng": -122.4396098
  },
  {
    "id": "220001191",
    "name": "PACIFIC HEIGHTS SURGERY CENTER",
    "npi": "1437258001",
    "hcaiId": "306384170",
    "businessName": null,
    "contactEmail": "INFO@PACIFICHEIGHTSSC.COM",
    "categoryName": "SURGICAL CLINIC",
    "categoryCode": "ASC",
    "licenseStatus": "INACTIVE - CAPEN DECISION",
    "inService": false,
    "licenseNumber": "220000492",
    "licenseEffectiveDate": "12/08/2007",
    "licenseExpirationDate": "12/07/2008",
    "dataDate": "10/18/2025",
    "capacity": 0,
    "address": "3000 CALIFORNIA ST",
    "city": "SAN FRANCISCO",
    "zip": "94115",
    "county": "SAN FRANCISCO",
    "phone": "(415) 567-1171",
    "lat": 37.787859,
    "lng": -122.4440145
  },
  {
    "id": "220000077",
    "name": "PACIFIC HEIGHTS TRANSITIONAL CARE CENTER",
    "npi": "1992882278",
    "hcaiId": "206380921",
    "businessName": "ASFP, LLC",
    "contactEmail": "GGERDING@ASPENSKILLEDHEALTH.COM",
    "categoryName": "SKILLED NURSING FACILITY",
    "categoryCode": "SNF",
    "licenseStatus": "ACTIVE",
    "inService": true,
    "licenseNumber": "220000057",
    "licenseEffectiveDate": "11/01/2025",
    "licenseExpirationDate": "10/31/2026",
    "dataDate": "10/18/2025",
    "capacity": 120,
    "address": "2707 PINE ST",
    "city": "SAN FRANCISCO",
    "zip": "94115",
    "county": "SAN FRANCISCO",
    "phone": "(415) 563-7600",
    "lat": 37.786887,
    "lng": -122.440545
  },
  {
    "id": "220001168",
    "name": "POST STREET SURGERY CENTER, LLC",
    "npi": "1639252760",
    "hcaiId": "306384168",
    "businessName": "POST STREET SURGERY CENTER, LLC",
    "contactEmail": "INFO@POSTSTREETSURGERY.COM",
    "categoryName": "SURGICAL CLINIC",
    "categoryCode": "ASC",
    "licenseStatus": "INACTIVE - CAPEN DECISION",
    "inService": false,
    "licenseNumber": "220000485",
    "licenseEffectiveDate": "04/11/2007",
    "licenseExpirationDate": "04/10/2008",
    "dataDate": "10/18/2025",
    "capacity": 0,
    "address": "2299 POST ST, SUITE 108",
    "city": "SAN FRANCISCO",
    "zip": "94115",
    "county": "SAN FRANCISCO",
    "phone": "(415) 923-3770",
    "lat": 37.784124,
    "lng": -122.4390465
  },
  {
    "id": "220000571",
    "name": "PRESIDIO SURGERY CENTER",
    "npi": "1609826361",
    "hcaiId": "306384012",
    "businessName": "PRESIDIO SURGERY CENTER, LLC",
    "contactEmail": "CORY.HALL@SCASURGERY.COM",
    "categoryName": "SURGICAL CLINIC",
    "categoryCode": "ASC",
    "licenseStatus": "INACTIVE - CAPEN DECISION",
    "inService": false,
    "licenseNumber": "220000236",
    "licenseEffectiveDate": "07/01/2007",
    "licenseExpirationDate": "10/31/2008",
    "dataDate": "10/18/2025",
    "capacity": 0,
    "address": "1635 DIVISADERO ST, SUITE 200",
    "city": "SAN FRANCISCO",
    "zip": "94115",
    "county": "SAN FRANCISCO",
    "phone": "(415) 569-3141",
    "lat": 37.784601,
    "lng": -122.4400545
  },
  {
    "id": "630017083",
    "name": "SAN FRANCISCO BIRTH CENTER, A PROFESSIONAL NURSING CORPORATION",
    "npi": "1407677099",
    "hcaiId": "306380578",
    "businessName": null,
    "contactEmail": "NANCY@SFBIRTHCENTER.COM",
    "categoryName": "ALTERNATIVE BIRTHING CENTER",
    "categoryCode": "ABC",
    "licenseStatus": "ACTIVE",
    "inService": true,
    "licenseNumber": "550005677",
    "licenseEffectiveDate": "08/11/2025",
    "licenseExpirationDate": "08/10/2026",
    "dataDate": "10/18/2025",
    "capacity": 0,
    "address": "2300 SUTTER ST., SUITE 301",
    "city": "SAN FRANCISCO",
    "zip": "94115",
    "county": "SAN FRANCISCO",
    "phone": "(415) 780-0848",
    "lat": 37.785744,
    "lng": -122.438466
  },
  {
    "id": "630027800",
    "name": "SAN FRANCISCO CBAS",
    "npi": null,
    "hcaiId": null,
    "businessName": "SACRAMENTO BASED ADULT DAY SERVICES, INC.",
    "contactEmail": "DMMARGUSOV@AOL.COM",
    "categoryName": "ADULT DAY HEALTH CARE",
    "categoryCode": "ADHC",
    "licenseStatus": "ACTIVE",
    "inService": true,
    "licenseNumber": "550009741",
    "licenseEffectiveDate": "08/13/2025",
    "licenseExpirationDate": "04/06/2026",
    "dataDate": "10/18/2025",
    "capacity": 0,
    "address": "1550 STEINER ST",
    "city": "SAN FRANCISCO",
    "zip": "94115",
    "county": "SAN FRANCISCO",
    "phone": "(619) 414-4530",
    "lat": 37.78362299,
    "lng": -122.434106
  },
  {
    "id": "140001236",
    "name": "SAN FRANCISCO DIALYSIS",
    "npi": "1801861893",
    "hcaiId": "306384018",
    "businessName": "DVA HEALTHCARE RENAL CARE, INC.",
    "contactEmail": "CAL_C@DAVITA.COM",
    "categoryName": "CHRONIC DIALYSIS CLINIC",
    "categoryCode": "ESRD/CDC",
    "licenseStatus": "ACTIVE",
    "inService": true,
    "licenseNumber": "140000624",
    "licenseEffectiveDate": "05/09/2025",
    "licenseExpirationDate": "05/08/2026",
    "dataDate": "10/18/2025",
    "capacity": 30,
    "address": "1499 WEBSTER STREET",
    "city": "SAN FRANCISCO",
    "zip": "94115",
    "county": "SAN FRANCISCO",
    "phone": "(415) 928-9003",
    "lat": 37.78389,
    "lng": -122.4320085
  },
  {
    "id": "630014337",
    "name": "SAN FRANCISCO HOME TRAINING",
    "npi": null,
    "hcaiId": null,
    "businessName": null,
    "contactEmail": "CYNTHIA.HUTCHISON@DAVITA.COM",
    "categoryName": "CHRONIC DIALYSIS CLINIC",
    "categoryCode": "ESRD",
    "licenseStatus": null,
    "inService": null,
    "licenseNumber": null,
    "licenseEffectiveDate": null,
    "licenseExpirationDate": null,
    "dataDate": "10/18/2025",
    "capacity": 0,
    "address": "1493 WEBSTER ST",
    "city": "SAN FRANCISCO",
    "zip": "94115",
    "county": "SAN FRANCISCO",
    "phone": "(415) 346-3382",
    "lat": 37.783935,
    "lng": -122.431491
  },
  {
    "id": "220000939",
    "name": "SENIORS AT HOME",
    "npi": null,
    "hcaiId": "406384051",
    "businessName": "JEWISH FAMILY AND CHILDREN'S SERVICES",
    "contactEmail": "MLAMM@JFCS.ORG",
    "categoryName": "HOME HEALTH AGENCY",
    "categoryCode": "HHA",
    "licenseStatus": "ACTIVE",
    "inService": true,
    "licenseNumber": "220000378",
    "licenseEffectiveDate": "11/29/2024",
    "licenseExpirationDate": "11/28/2025",
    "dataDate": "10/18/2025",
    "capacity": 0,
    "address": "2150 POST ST",
    "city": "SAN FRANCISCO",
    "zip": "94115",
    "county": "SAN FRANCISCO",
    "phone": "(415) 449-3700",
    "lat": 37.7847062,
    "lng": -122.4372488
  },
  {
    "id": "070001400",
    "name": "SUTTER CARE AT HOME",
    "npi": "1245264134",
    "hcaiId": "406384175",
    "businessName": "SUTTER VISITING NURSE ASSOCIATION AND HOSPICE",
    "contactEmail": "SVNAHREGULATORY@SUTTERHEALTH.ORG",
    "categoryName": "HOSPICE",
    "categoryCode": "HOSPICE",
    "licenseStatus": "ACTIVE",
    "inService": true,
    "licenseNumber": "070000715",
    "licenseEffectiveDate": "01/01/2025",
    "licenseExpirationDate": "12/31/2026",
    "dataDate": "10/18/2025",
    "capacity": 0,
    "address": "2340 CLAY ST, SUITE 2B",
    "city": "SAN FRANCISCO",
    "zip": "94115",
    "county": "SAN FRANCISCO",
    "phone": "(415) 749-4201",
    "lat": 37.79125702,
    "lng": -122.432116
  },
  {
    "id": "220000136",
    "name": "SUTTER CARE AT HOME",
    "npi": "1437188208",
    "hcaiId": "406384177",
    "businessName": "SUTTER VISITING NURSE ASSOCIATION AND HOSPICE",
    "contactEmail": "SVNAHREGULATORY@SUTTERHEALTH.ORG",
    "categoryName": "HOME HEALTH AGENCY",
    "categoryCode": "HHA",
    "licenseStatus": "ACTIVE",
    "inService": true,
    "licenseNumber": "220000078",
    "licenseEffectiveDate": "01/01/2025",
    "licenseExpirationDate": "12/31/2025",
    "dataDate": "10/18/2025",
    "capacity": 0,
    "address": "2340 CLAY ST, SUITE 2A",
    "city": "SAN FRANCISCO",
    "zip": "94115",
    "county": "SAN FRANCISCO",
    "phone": "(707) 864-4840",
    "lat": 37.79125702,
    "lng": -122.432116
  },
  {
    "id": "220001183",
    "name": "UCSF ADULT CHRONIC DIALYSIS",
    "npi": null,
    "hcaiId": null,
    "businessName": "UNIVERSITY OF CALIFORNIA BOARD OF REGENTS",
    "contactEmail": null,
    "categoryName": "CHRONIC DIALYSIS CLINIC",
    "categoryCode": "ESRD",
    "licenseStatus": "ACTIVE",
    "inService": true,
    "licenseNumber": "220000091",
    "licenseEffectiveDate": "10/24/2025",
    "licenseExpirationDate": "03/31/2026",
    "dataDate": "10/18/2025",
    "capacity": 0,
    "address": "1675 SCOTT ST",
    "city": "SAN FRANCISCO",
    "zip": "94115",
    "county": "SAN FRANCISCO",
    "phone": "(415) 885-7421",
    "lat": 37.78518827,
    "lng": -122.4381947
  },
  {
    "id": "220000015",
    "name": "UCSF MEDICAL CENTER AT MOUNT ZION",
    "npi": "1689772592",
    "hcaiId": "106380895",
    "businessName": "UNIVERSITY OF CALIFORNIA BOARD OF REGENTS",
    "contactEmail": null,
    "categoryName": "GENERAL ACUTE CARE HOSPITAL",
    "categoryCode": "GACH",
    "licenseStatus": "ACTIVE",
    "inService": true,
    "licenseNumber": "220000091",
    "licenseEffectiveDate": "10/24/2025",
    "licenseExpirationDate": "03/31/2026",
    "dataDate": "10/18/2025",
    "capacity": 130,
    "address": "1600 DIVISADERO ST",
    "city": "SAN FRANCISCO",
    "zip": "94115",
    "county": "SAN FRANCISCO",
    "phone": "(415) 567-6600",
    "lat": 37.78438112,
    "lng": -122.4396268
  },
  {
    "id": "220000094",
    "name": "VICTORIAN POST ACUTE",
    "npi": "1639692080",
    "hcaiId": "206380984",
    "businessName": "GOLDEN GATEIDENCE OPCO, LLC",
    "contactEmail": "NEIL.SAMIA@SFPOSTACUTE.COM",
    "categoryName": "SKILLED NURSING FACILITY",
    "categoryCode": "SNF",
    "licenseStatus": "ACTIVE",
    "inService": true,
    "licenseNumber": "220000077",
    "licenseEffectiveDate": "11/01/2025",
    "licenseExpirationDate": "10/31/2026",
    "dataDate": "10/18/2025",
    "capacity": 90,
    "address": "2121 PINE ST",
    "city": "SAN FRANCISCO",
    "zip": "94115",
    "county": "SAN FRANCISCO",
    "phone": "(415) 922-5085",
    "lat": 37.787994,
    "lng": -122.43105
  }
]