[
  {
    "id": "220000633",
    "name": "CHILDREN'S HOSPITAL GERIATRIC SERVICES",
    "npi": null,
    "hcaiId": null,
    "businessName": null,
    "contactEmail": null,
    "categoryName": "OTHER",
    "categoryCode": "UNLICEN",
    "licenseStatus": null,
    "inService": null,
    "licenseNumber": null,
    "licenseEffectiveDate": null,
    "licenseExpirationDate": null,
    "dataDate": "10/18/2025",
    "capacity": 0,
    "address": "1351 42ND AVE",
    "city": "SAN FRANCISCO",
    "zip": "94122",
    "county": "SAN FRANCISCO",
    "phone": "(415) 753-6073",
    "lat": 37.761552,
    "lng": -122.501916
  },
  {
    "id": "220000918",
    "name": "CHINESE COMMUNITY HEALTH SERVICES",
    "npi": null,
    "hcaiId": "306384154",
    "businessName": "CHINESE HOSPITAL ASSOCIATION",
    "contactEmail": "JIANZ@CHASF.ORG",
    "categoryName": "PRIMARY CARE CLINIC",
    "categoryCode": "COMTYC",
    "licenseStatus": "ACTIVE",
    "inService": true,
    "licenseNumber": "220000358",
    "licenseEffectiveDate": "03/24/2025",
    "licenseExpirationDate": "03/23/2026",
    "dataDate": "10/18/2025",
    "capacity": 0,
    "address": "1800 31ST AVE",
    "city": "SAN FRANCISCO",
    "zip": "94122",
    "county": "SAN FRANCISCO",
    "phone": "(415) 677-2388",
    "lat": 37.753425,
    "lng": -122.489136
  },
  {
    "id": "070001216",
    "name": "L'CHAIM ADULT DAY HEALTH CARE",
    "npi": null,
    "hcaiId": null,
    "businessName": "JEWISH FAMILY AND CHILDREN'S SERVICES",
    "contactEmail": "AKRYLOV@JFCS.ORG",
    "categoryName": "ADULT DAY HEALTH CARE",
    "categoryCode": "ADHC",
    "licenseStatus": "ACTIVE",
    "inService": true,
    "licenseNumber": "070000557",
    "licenseEffectiveDate": "06/25/2025",
    "licenseExpirationDate": "06/24/2026",
    "dataDate": "10/18/2025",
    "capacity": 0,
    "address": "2534 JUDAH ST",
    "city": "SAN FRANCISCO",
    "zip": "94122",
    "county": "SAN FRANCISCO",
    "phone": "(415) 449-2936",
    "lat": 37.761399,
    "lng": -122.489379
  },
  {
    "id": "220000020",
    "name": "LAWTON SKILLED NURSING & REHABILITATION CENTER",
    "npi": "1215942065",
    "hcaiId": "206380849",
    "businessName": "GHC OF SAN FRAN 68, LLC",
    "contactEmail": "DANDALY@LIFEGEN.NET",
    "categoryName": "SKILLED NURSING FACILITY",
    "categoryCode": "SNF",
    "licenseStatus": "ACTIVE",
    "inService": true,
    "licenseNumber": "220000036",
    "licenseEffectiveDate": "10/07/2025",
    "licenseExpirationDate": "10/06/2026",
    "dataDate": "10/18/2025",
    "capacity": 68,
    "address": "1575 7TH AVE",
    "city": "SAN FRANCISCO",
    "zip": "94122",
    "county": "SAN FRANCISCO",
    "phone": "(415) 566-1200",
    "lat": 37.758942,
    "lng": -122.4641025
  },
  {
    "id": "630014056",
    "name": "NORTH EAST MEDICAL SERVICES - 1400 NORIEGA",
    "npi": "1023369881",
    "hcaiId": "306384227",
    "businessName": "NORTH EAST MEDICAL SERVICES",
    "contactEmail": "JOHNSON.WONG@NEMS.ORG",
    "categoryName": "PRIMARY CARE CLINIC",
    "categoryCode": "COMTYC",
    "licenseStatus": "ACTIVE",
    "inService": true,
    "licenseNumber": "550002158",
    "licenseEffectiveDate": "12/11/2024",
    "licenseExpirationDate": "12/10/2025",
    "dataDate": "10/18/2025",
    "capacity": 0,
    "address": "1400 NORIEGA ST",
    "city": "SAN FRANCISCO",
    "zip": "94122",
    "county": "SAN FRANCISCO",
    "phone": "(415) 352-5025",
    "lat": 37.754397,
    "lng": -122.478831
  },
  {
    "id": "630018727",
    "name": "NORTH EAST MEDICAL SERVICES - 1422 NORIEGA",
    "npi": "1982784740",
    "hcaiId": null,
    "businessName": "NORTH EAST MEDICAL SERVICES",
    "contactEmail": null,
    "categoryName": "PRIMARY CARE CLINIC",
    "categoryCode": "COMTYC",
    "licenseStatus": "ACTIVE",
    "inService": true,
    "licenseNumber": "550000007",
    "licenseEffectiveDate": "06/18/2025",
    "licenseExpirationDate": "01/23/2026",
    "dataDate": "10/18/2025",
    "capacity": 0,
    "address": "1422 NORIEGA ST",
    "city": "SAN FRANCISCO",
    "zip": "94122",
    "county": "SAN FRANCISCO",
    "phone": null,
    "lat": 37.754379,
    "lng": -122.479146
  },
  {
    "id": "630027270",
    "name": "NORTH EAST MEDICAL SERVICES - 1430 NORIEGA",
    "npi": "1982784740",
    "hcaiId": null,
    "businessName": "NORTH EAST MEDICAL SERVICES",
    "contactEmail": null,
    "categoryName": "PRIMARY CARE CLINIC",
    "categoryCode": "COMTYC",
    "licenseStatus": "ACTIVE",
    "inService": true,
    "licenseNumber": "550000007",
    "licenseEffectiveDate": "06/18/2025",
    "licenseExpirationDate": "01/23/2026",
    "dataDate": "10/18/2025",
    "capacity": 0,
    "address": "1430 NORIEGA ST",
    "city": "SAN FRANCISCO",
    "zip": "94122",
    "county": "SAN FRANCISCO",
    "phone": null,
    "lat": 37.75435502,
    "lng": -122.479146
  },
  {
    "id": "630026866",
    "name": "NORTH EAST MEDICAL SERVICES - 1798 19TH AVENUE",
    "npi": "1104103001",
    "hcaiId": null,
    "businessName": "NORTH EAST MEDICAL SERVICES",
    "contactEmail": null,
    "categoryName": "PRIMARY CARE CLINIC",
    "categoryCode": "COMTYC",
    "licenseStatus": "ACTIVE",
    "inService": true,
    "licenseNumber": "550001796",
    "licenseEffectiveDate": "12/15/2024",
    "licenseExpirationDate": "12/14/2025",
    "dataDate": "10/18/2025",
    "capacity": 0,
    "address": "1798 19TH AVE",
    "city": "SAN FRANCISCO",
    "zip": "94122",
    "county": "SAN FRANCISCO",
    "phone": null,
    "lat": 37.754496,
    "lng": -122.476221
  },
  {
    "id": "630001101",
    "name": "NORTH EAST MEDICAL SERVICES - NORIEGA",
    "npi": "1982784740",
    "hcaiId": "306384210",
    "businessName": "NORTH EAST MEDICAL SERVICES",
    "contactEmail": "WENDY.WU@NEMS.ORG",
    "categoryName": "PRIMARY CARE CLINIC",
    "categoryCode": "COMTYC",
    "licenseStatus": "ACTIVE",
    "inService": true,
    "licenseNumber": "550000007",
    "licenseEffectiveDate": "06/18/2025",
    "licenseExpirationDate": "01/23/2026",
    "dataDate": "10/18/2025",
    "capacity": 0,
    "address": "1450 NORIEGA ST",
    "city": "SAN FRANCISCO",
    "zip": "94122",
    "county": "SAN FRANCISCO",
    "phone": "(415) 391-9686",
    "lat": 37.75437,
    "lng": -122.479416
  }
]