[
  {
    "id": "630025855",
    "name": "BAY HOME HEALTH CARE",
    "npi": null,
    "hcaiId": null,
    "businessName": "BAY HOME HEALTH CARE",
    "contactEmail": "BAYHPC@YAHOO.COM",
    "categoryName": "HOME HEALTH AGENCY",
    "categoryCode": "HHA",
    "licenseStatus": "ACTIVE",
    "inService": true,
    "licenseNumber": "550009631",
    "licenseEffectiveDate": "07/29/2025",
    "licenseExpirationDate": "01/28/2026",
    "dataDate": "10/18/2025",
    "capacity": 0,
    "address": "125 BARNEVELD AVE, SUITE C",
    "city": "SAN FRANCISCO",
    "zip": "94124",
    "county": "SAN FRANCISCO",
    "phone": "(800) 461-5686",
    "lat": 37.74528,
    "lng": -122.40252
  },
  {
    "id": "070001207",
    "name": "BAYVIEW HUNTERS POINT ADULT DAY HEALTH CARE CENTER",
    "npi": null,
    "hcaiId": null,
    "businessName": "BAYVIEW HUNTERS POINT MULTIPURPOSE SENIOR SVS, INC",
    "contactEmail": "CATHY.DAVIS@BHPMSS.ORG",
    "categoryName": "ADULT DAY HEALTH CARE",
    "categoryCode": "ADHC",
    "licenseStatus": "ACTIVE",
    "inService": true,
    "licenseNumber": "070000548",
    "licenseEffectiveDate": "12/06/2024",
    "licenseExpirationDate": "12/05/2025",
    "dataDate": "10/18/2025",
    "capacity": 0,
    "address": "1250 LA SALLE AVE",
    "city": "SAN FRANCISCO",
    "zip": "94124",
    "county": "SAN FRANCISCO",
    "phone": "(415) 826-4774",
    "lat": 37.73242087,
    "lng": -122.3835653
  },
  {
    "id": "630015163",
    "name": "EQUITY HEALTH",
    "npi": "1487055562",
    "hcaiId": "306384229",
    "businessName": "EQUITY HEALTH",
    "contactEmail": "ZEKE.MONTEJANO@EQUITYHEALTH.ORG",
    "categoryName": "PRIMARY CARE CLINIC",
    "categoryCode": "COMTYC",
    "licenseStatus": "ACTIVE",
    "inService": true,
    "licenseNumber": "550002802",
    "licenseEffectiveDate": "09/01/2025",
    "licenseExpirationDate": "08/31/2026",
    "dataDate": "10/18/2025",
    "capacity": 0,
    "address": "3450 3RD ST, SUITE 2A/B",
    "city": "SAN FRANCISCO",
    "zip": "94124",
    "county": "SAN FRANCISCO",
    "phone": "(415) 697-0500",
    "lat": 37.745856,
    "lng": -122.387688
  },
  {
    "id": "630017112",
    "name": "MARIN CITY HEALTH AND WELLNESS CENTER",
    "npi": null,
    "hcaiId": null,
    "businessName": "MARIN CITY HEALTH & WELLNESS CENTER",
    "contactEmail": null,
    "categoryName": "PRIMARY CARE CLINIC",
    "categoryCode": "COMTYC",
    "licenseStatus": "ACTIVE",
    "inService": true,
    "licenseNumber": "550000861",
    "licenseEffectiveDate": "05/08/2025",
    "licenseExpirationDate": "01/21/2026",
    "dataDate": "10/18/2025",
    "capacity": 0,
    "address": "6301 3RD ST",
    "city": "SAN FRANCISCO",
    "zip": "94124",
    "county": "SAN FRANCISCO",
    "phone": "(415) 339-8813",
    "lat": 37.720665,
    "lng": -122.3961345
  },
  {
    "id": "630025806",
    "name": "SAN FRANCISCO HOME HEALTH CARE INC",
    "npi": null,
    "hcaiId": null,
    "businessName": "SAN FRANCISCO HOME HEALTH CARE INC",
    "contactEmail": "SANFRANCISCOHOMEH@GMAIL.COM",
    "categoryName": "HOME HEALTH AGENCY",
    "categoryCode": "HHA",
    "licenseStatus": "ACTIVE",
    "inService": true,
    "licenseNumber": "550009639",
    "licenseEffectiveDate": "07/29/2025",
    "licenseExpirationDate": "01/28/2026",
    "dataDate": "10/18/2025",
    "capacity": 0,
    "address": "125 BARNEVELD AVE, SUITE A",
    "city": "SAN FRANCISCO",
    "zip": "94124",
    "county": "SAN FRANCISCO",
    "phone": "(866) 585-8525",
    "lat": 37.745284,
    "lng": -122.402523
  }
]