[
  {
    "id": "070001275",
    "name": "GOLDEN STATE ADULT DAY HEALTH CARE",
    "npi": null,
    "hcaiId": null,
    "businessName": "GOLDEN STATE ADULT DAY HEALTH CARE INC.",
    "contactEmail": "GOLDENSTATEADHC@AOL.COM",
    "categoryName": "ADULT DAY HEALTH CARE",
    "categoryCode": "ADHC",
    "licenseStatus": "ACTIVE",
    "inService": true,
    "licenseNumber": "070000599",
    "licenseEffectiveDate": "11/15/2024",
    "licenseExpirationDate": "11/14/2025",
    "dataDate": "10/18/2025",
    "capacity": 0,
    "address": "738 LA PLAYA ST",
    "city": "SAN FRANCISCO",
    "zip": "94121",
    "county": "SAN FRANCISCO",
    "phone": "(415) 387-2750",
    "lat": 37.774539,
    "lng": -122.5097955
  },
  {
    "id": "220000925",
    "name": "MEDICAL DIAGNOSTIC",
    "npi": null,
    "hcaiId": null,
    "businessName": null,
    "contactEmail": null,
    "categoryName": "OTHER",
    "categoryCode": "UNLICEN",
    "licenseStatus": null,
    "inService": null,
    "licenseNumber": null,
    "licenseEffectiveDate": null,
    "licenseExpirationDate": null,
    "dataDate": "10/18/2025",
    "capacity": 0,
    "address": "359 20TH AVE, 302",
    "city": "SAN FRANCISCO",
    "zip": "94121",
    "county": "SAN FRANCISCO",
    "phone": "(415) 386-1380",
    "lat": 37.781109,
    "lng": -122.4797625
  },
  {
    "id": "220000179",
    "name": "RICHMOND MAXI-CENTER",
    "npi": null,
    "hcaiId": "306381330",
    "businessName": "RICHMOND AREA MULTI-SERVICES, INC.",
    "contactEmail": "INFO@RAMSINC.ORG",
    "categoryName": "PRIMARY CARE CLINIC",
    "categoryCode": "COMTYC",
    "licenseStatus": "ACTIVE",
    "inService": true,
    "licenseNumber": "220000096",
    "licenseEffectiveDate": "11/16/2024",
    "licenseExpirationDate": "11/15/2025",
    "dataDate": "10/18/2025",
    "capacity": 0,
    "address": "3626 BALBOA ST",
    "city": "SAN FRANCISCO",
    "zip": "94121",
    "county": "SAN FRANCISCO",
    "phone": "(415) 668-5955",
    "lat": 37.776042,
    "lng": -122.498064
  },
  {
    "id": "070001214",
    "name": "SELF-HELP FOR THE ELDERLY ADULT DAY SERVICES",
    "npi": null,
    "hcaiId": null,
    "businessName": "SELF-HELP FOR THE ELDERLY",
    "contactEmail": "KELVINY@SELFHELPELDERLY.ORG",
    "categoryName": "ADULT DAY HEALTH CARE",
    "categoryCode": "ADHC",
    "licenseStatus": "ACTIVE",
    "inService": true,
    "licenseNumber": "070000555",
    "licenseEffectiveDate": "03/28/2025",
    "licenseExpirationDate": "03/27/2026",
    "dataDate": "10/18/2025",
    "capacity": 0,
    "address": "408 22ND AVE",
    "city": "SAN FRANCISCO",
    "zip": "94121",
    "county": "SAN FRANCISCO",
    "phone": "(415) 677-7556",
    "lat": 37.779939,
    "lng": -122.4812385
  }
]