[
  {
    "id": "220000564",
    "name": "CHINATOWN PUBLIC HEALTH CENTER",
    "npi": null,
    "hcaiId": null,
    "businessName": null,
    "contactEmail": null,
    "categoryName": "OTHER",
    "categoryCode": "UNLICEN",
    "licenseStatus": null,
    "inService": null,
    "licenseNumber": null,
    "licenseEffectiveDate": null,
    "licenseExpirationDate": null,
    "dataDate": "10/18/2025",
    "capacity": 0,
    "address": "1490 MASON ST",
    "city": "SAN FRANCISCO",
    "zip": "94133",
    "county": "SAN FRANCISCO",
    "phone": "(415) 705-8500",
    "lat": 37.797129,
    "lng": -122.4117585
  },
  {
    "id": "220000003",
    "name": "CHINESE HOSPITAL",
    "npi": "1992898837",
    "hcaiId": "106382715",
    "businessName": "CHINESE HOSPITAL ASSOCIATION",
    "contactEmail": "PATRICIAC@CHASF.ORG",
    "categoryName": "GENERAL ACUTE CARE HOSPITAL",
    "categoryCode": "GACH",
    "licenseStatus": "ACTIVE",
    "inService": true,
    "licenseNumber": "220000122",
    "licenseEffectiveDate": "10/01/2025",
    "licenseExpirationDate": "05/31/2026",
    "dataDate": "10/18/2025",
    "capacity": 65,
    "address": "845 JACKSON ST",
    "city": "SAN FRANCISCO",
    "zip": "94133",
    "county": "SAN FRANCISCO",
    "phone": "(415) 677-2480",
    "lat": 37.795473,
    "lng": -122.408982
  },
  {
    "id": "630025249",
    "name": "CHINESE HOSPITAL D/P SNF",
    "npi": null,
    "hcaiId": null,
    "businessName": "CHINESE HOSPITAL ASSOCIATION",
    "contactEmail": null,
    "categoryName": "SKILLED NURSING FACILITY",
    "categoryCode": "SNF",
    "licenseStatus": "ACTIVE",
    "inService": true,
    "licenseNumber": "220000122",
    "licenseEffectiveDate": "10/01/2025",
    "licenseExpirationDate": "05/31/2026",
    "dataDate": "10/18/2025",
    "capacity": 23,
    "address": "845 JACKSON ST",
    "city": "SAN FRANCISCO",
    "zip": "94133",
    "county": "SAN FRANCISCO",
    "phone": null,
    "lat": 37.795473,
    "lng": -122.408982
  },
  {
    "id": "630027943",
    "name": "NEMS INTEGRATIVE MEDICINE",
    "npi": null,
    "hcaiId": null,
    "businessName": "NORTH EAST MEDICAL SERVICES",
    "contactEmail": null,
    "categoryName": "PRIMARY CARE CLINIC",
    "categoryCode": "COMTYC",
    "licenseStatus": "ACTIVE",
    "inService": true,
    "licenseNumber": "220000118",
    "licenseEffectiveDate": "12/01/2024",
    "licenseExpirationDate": "11/30/2025",
    "dataDate": "10/18/2025",
    "capacity": 0,
    "address": "728 PACIFIC AVE, SUITE 303",
    "city": "SAN FRANCISCO",
    "zip": "94133",
    "county": "SAN FRANCISCO",
    "phone": null,
    "lat": 37.79709401,
    "lng": -122.407467
  },
  {
    "id": "630018922",
    "name": "NEMS TRADITIONAL MEDICINE CENTER- SUITE 403",
    "npi": "1518911304",
    "hcaiId": null,
    "businessName": "NORTH EAST MEDICAL SERVICES",
    "contactEmail": null,
    "categoryName": "PRIMARY CARE CLINIC",
    "categoryCode": "COMTYC",
    "licenseStatus": "ACTIVE",
    "inService": true,
    "licenseNumber": "220000118",
    "licenseEffectiveDate": "12/01/2024",
    "licenseExpirationDate": "11/30/2025",
    "dataDate": "10/18/2025",
    "capacity": 0,
    "address": "728 PACIFIC AVE, SUITE 403",
    "city": "SAN FRANCISCO",
    "zip": "94133",
    "county": "SAN FRANCISCO",
    "phone": null,
    "lat": 37.797093,
    "lng": -122.407479
  },
  {
    "id": "630019523",
    "name": "NEMS TRADITIONAL MEDICINE CENTER-SUITE 503",
    "npi": "1518911304",
    "hcaiId": null,
    "businessName": "NORTH EAST MEDICAL SERVICES",
    "contactEmail": null,
    "categoryName": "PRIMARY CARE CLINIC",
    "categoryCode": "COMTYC",
    "licenseStatus": "ACTIVE",
    "inService": true,
    "licenseNumber": "220000118",
    "licenseEffectiveDate": "12/01/2024",
    "licenseExpirationDate": "11/30/2025",
    "dataDate": "10/18/2025",
    "capacity": 0,
    "address": "728 PACIFIC AVE, SUITE 503",
    "city": "SAN FRANCISCO",
    "zip": "94133",
    "county": "SAN FRANCISCO",
    "phone": null,
    "lat": 37.797093,
    "lng": -122.407479
  },
  {
    "id": "220000168",
    "name": "NORTH EAST MEDICAL SERVICES",
    "npi": "1518911304",
    "hcaiId": "306382711",
    "businessName": "NORTH EAST MEDICAL SERVICES",
    "contactEmail": "WENDY.WU@NEMS.ORG",
    "categoryName": "PRIMARY CARE CLINIC",
    "categoryCode": "COMTYC",
    "licenseStatus": "ACTIVE",
    "inService": true,
    "licenseNumber": "220000118",
    "licenseEffectiveDate": "12/01/2024",
    "licenseExpirationDate": "11/30/2025",
    "dataDate": "10/18/2025",
    "capacity": 0,
    "address": "1520 STOCKTON ST",
    "city": "SAN FRANCISCO",
    "zip": "94133",
    "county": "SAN FRANCISCO",
    "phone": "(415) 391-9686",
    "lat": 37.799937,
    "lng": -122.4087255
  },
  {
    "id": "630017489",
    "name": "NORTH EAST MEDICAL SERVICES",
    "npi": "1518911304",
    "hcaiId": null,
    "businessName": "NORTH EAST MEDICAL SERVICES",
    "contactEmail": "ANDREY.CHOW@NEMS.ORG",
    "categoryName": "PRIMARY CARE CLINIC",
    "categoryCode": "COMTYC",
    "licenseStatus": "ACTIVE",
    "inService": true,
    "licenseNumber": "220000118",
    "licenseEffectiveDate": "12/01/2024",
    "licenseExpirationDate": "11/30/2025",
    "dataDate": "10/18/2025",
    "capacity": 0,
    "address": "728 PACIFIC AVE, FLOOR 2ND",
    "city": "SAN FRANCISCO",
    "zip": "94133",
    "county": "SAN FRANCISCO",
    "phone": "(415) 391-9686",
    "lat": 37.797093,
    "lng": -122.4074655
  },
  {
    "id": "630027585",
    "name": "NORTH EAST MEDICAL SERVICES - MEDICAL ONCOLOGY",
    "npi": "1518911304",
    "hcaiId": null,
    "businessName": "NORTH EAST MEDICAL SERVICES",
    "contactEmail": null,
    "categoryName": "PRIMARY CARE CLINIC",
    "categoryCode": "COMTYC",
    "licenseStatus": "ACTIVE",
    "inService": true,
    "licenseNumber": "220000118",
    "licenseEffectiveDate": "12/01/2024",
    "licenseExpirationDate": "11/30/2025",
    "dataDate": "10/18/2025",
    "capacity": 0,
    "address": "728 PACIFIC AVE, SUITE 602",
    "city": "SAN FRANCISCO",
    "zip": "94133",
    "county": "SAN FRANCISCO",
    "phone": null,
    "lat": 37.79709401,
    "lng": -122.407467
  },
  {
    "id": "630026399",
    "name": "NORTH EAST MEDICAL SERVICES - PACIFIC SUITE 604",
    "npi": "1518911304",
    "hcaiId": null,
    "businessName": "NORTH EAST MEDICAL SERVICES",
    "contactEmail": null,
    "categoryName": "PRIMARY CARE CLINIC",
    "categoryCode": "COMTYC",
    "licenseStatus": "ACTIVE",
    "inService": true,
    "licenseNumber": "220000118",
    "licenseEffectiveDate": "12/01/2024",
    "licenseExpirationDate": "11/30/2025",
    "dataDate": "10/18/2025",
    "capacity": 0,
    "address": "728 PACIFIC AVE, SUITE 604",
    "city": "SAN FRANCISCO",
    "zip": "94133",
    "county": "SAN FRANCISCO",
    "phone": null,
    "lat": 37.797093,
    "lng": -122.4074655
  },
  {
    "id": "070001203",
    "name": "ON LOK SENIOR HEALTH SERVICES",
    "npi": null,
    "hcaiId": null,
    "businessName": "ON LOK SENIOR HEALTH SERVICES",
    "contactEmail": "NICOLE@ONLOK.ORG",
    "categoryName": "ADULT DAY HEALTH CARE",
    "categoryCode": "ADHC",
    "licenseStatus": "ACTIVE",
    "inService": true,
    "licenseNumber": "070000544",
    "licenseEffectiveDate": "12/18/2024",
    "licenseExpirationDate": "12/17/2025",
    "dataDate": "10/18/2025",
    "capacity": 0,
    "address": "1441 POWELL ST",
    "city": "SAN FRANCISCO",
    "zip": "94133",
    "county": "SAN FRANCISCO",
    "phone": "(412) 292-8799",
    "lat": 37.797867,
    "lng": -122.410701
  },
  {
    "id": "220000170",
    "name": "ON LOK SENIOR HEALTH SERVICES",
    "npi": null,
    "hcaiId": "306382725",
    "businessName": "ON LOK SENIOR HEALTH SERVICES",
    "contactEmail": "NICOLE@ONLOK.ORG",
    "categoryName": "PRIMARY CARE CLINIC",
    "categoryCode": "COMTYC",
    "licenseStatus": "ACTIVE",
    "inService": true,
    "licenseNumber": "220000129",
    "licenseEffectiveDate": "12/18/2024",
    "licenseExpirationDate": "12/17/2025",
    "dataDate": "10/18/2025",
    "capacity": 0,
    "address": "1441 POWELL ST",
    "city": "SAN FRANCISCO",
    "zip": "94133",
    "county": "SAN FRANCISCO",
    "phone": "(415) 292-8799",
    "lat": 37.797867,
    "lng": -122.410701
  },
  {
    "id": "220000590",
    "name": "ON LOK SENIOR HEALTH SERVICES",
    "npi": null,
    "hcaiId": "306384014",
    "businessName": "ON LOK SENIOR HEALTH SERVICES",
    "contactEmail": "NICOLE@ONLOK.ORG",
    "categoryName": "PRIMARY CARE CLINIC",
    "categoryCode": "COMTYC",
    "licenseStatus": "ACTIVE",
    "inService": true,
    "licenseNumber": "220000243",
    "licenseEffectiveDate": "11/12/2024",
    "licenseExpirationDate": "11/11/2025",
    "dataDate": "10/18/2025",
    "capacity": 0,
    "address": "1000 MONTGOMERY ST",
    "city": "SAN FRANCISCO",
    "zip": "94133",
    "county": "SAN FRANCISCO",
    "phone": "(415) 292-8799",
    "lat": 37.798497,
    "lng": -122.4037125
  }
]