[
  {
    "id": "220000033",
    "name": "LANGLEY PORTER PSYCHIATRIC INSTITUTE",
    "npi": "1407900095",
    "hcaiId": "106380046",
    "businessName": "UNIVERSITY OF CALIFORNIA BOARD OF REGENTS",
    "contactEmail": "KELLY.INGRASSIA@UCSF.EDU",
    "categoryName": "ACUTE PSYCHIATRIC HOSPITAL",
    "categoryCode": "APH",
    "licenseStatus": "ACTIVE",
    "inService": true,
    "licenseNumber": "220000377",
    "licenseEffectiveDate": "11/01/2025",
    "licenseExpirationDate": "10/31/2026",
    "dataDate": "10/18/2025",
    "capacity": 30,
    "address": "1600 DIVISADERO ST, FLOOR 7",
    "city": "SAN FRANCISCO",
    "zip": "94143",
    "county": "SAN FRANCISCO",
    "phone": "(314) 780-4080",
    "lat": 37.78483501,
    "lng": -122.439084
  },
  {
    "id": "220000031",
    "name": "UCSF MEDICAL CENTER",
    "npi": "1689772592",
    "hcaiId": "106381154",
    "businessName": "UNIVERSITY OF CALIFORNIA BOARD OF REGENTS",
    "contactEmail": "MICHELLE.DENG@UCSF.EDU",
    "categoryName": "GENERAL ACUTE CARE HOSPITAL",
    "categoryCode": "GACH",
    "licenseStatus": "ACTIVE",
    "inService": true,
    "licenseNumber": "220000091",
    "licenseEffectiveDate": "10/24/2025",
    "licenseExpirationDate": "03/31/2026",
    "dataDate": "10/18/2025",
    "capacity": 559,
    "address": "505 PARNASSUS AVE",
    "city": "SAN FRANCISCO",
    "zip": "94143",
    "county": "SAN FRANCISCO",
    "phone": "(415) 353-8628",
    "lat": 37.76350982,
    "lng": -122.4576238
  },
  {
    "id": "630028036",
    "name": "UCSF MISSION BAY PEDIATRIC HEART TRANSPLANT PROGRAM",
    "npi": null,
    "hcaiId": null,
    "businessName": "UNIVERSITY OF CALIFORNIA BOARD OF REGENTS",
    "contactEmail": null,
    "categoryName": "GENERAL ACUTE CARE HOSPITAL",
    "categoryCode": "TRANS",
    "licenseStatus": "ACTIVE",
    "inService": true,
    "licenseNumber": "220000091",
    "licenseEffectiveDate": "10/24/2025",
    "licenseExpirationDate": "03/31/2026",
    "dataDate": "10/18/2025",
    "capacity": 0,
    "address": "1975 4TH ST",
    "city": "SAN FRANCISCO",
    "zip": "94143",
    "county": "SAN FRANCISCO",
    "phone": null,
    "lat": 37.76513301,
    "lng": -122.389687
  },
  {
    "id": "630028037",
    "name": "UCSF MISSION BAY PEDIATRIC LIVER TRANSPLANT PROGRAM",
    "npi": null,
    "hcaiId": null,
    "businessName": "UNIVERSITY OF CALIFORNIA BOARD OF REGENTS",
    "contactEmail": null,
    "categoryName": "GENERAL ACUTE CARE HOSPITAL",
    "categoryCode": "TRANS",
    "licenseStatus": "ACTIVE",
    "inService": true,
    "licenseNumber": "220000091",
    "licenseEffectiveDate": "10/24/2025",
    "licenseExpirationDate": "03/31/2026",
    "dataDate": "10/18/2025",
    "capacity": 0,
    "address": "1975 4TH ST",
    "city": "SAN FRANCISCO",
    "zip": "94143",
    "county": "SAN FRANCISCO",
    "phone": null,
    "lat": 37.76513301,
    "lng": -122.389687
  },
  {
    "id": "630012292",
    "name": "UCSF ORGAN TRANSPLANT",
    "npi": null,
    "hcaiId": null,
    "businessName": "UNIVERSITY OF CALIFORNIA BOARD OF REGENTS",
    "contactEmail": null,
    "categoryName": "GENERAL ACUTE CARE HOSPITAL",
    "categoryCode": "TRANS",
    "licenseStatus": "ACTIVE",
    "inService": true,
    "licenseNumber": "220000091",
    "licenseEffectiveDate": "10/24/2025",
    "licenseExpirationDate": "03/31/2026",
    "dataDate": "10/18/2025",
    "capacity": 0,
    "address": "505 PARNASSUS AVE",
    "city": "SAN FRANCISCO",
    "zip": "94143",
    "county": "SAN FRANCISCO",
    "phone": null,
    "lat": 37.76350982,
    "lng": -122.4576238
  }
]