[
  {
    "id": "070001395",
    "name": "LUCILE SALTER PACKARD CHILDREN'S HOSPITAL AT STANFORD",
    "npi": "1467442749",
    "hcaiId": null,
    "businessName": "LUCILE SALTER PACKARD CHILDREN'S HOSPITAL AT STANFORD",
    "contactEmail": null,
    "categoryName": "CHRONIC DIALYSIS CLINIC",
    "categoryCode": "ESRD",
    "licenseStatus": "ACTIVE",
    "inService": true,
    "licenseNumber": "070000659",
    "licenseEffectiveDate": "11/01/2025",
    "licenseExpirationDate": "10/31/2026",
    "dataDate": "10/18/2025",
    "capacity": 0,
    "address": "725 WELCH RD",
    "city": "PALO ALTO",
    "zip": "94304",
    "county": "SANTA CLARA",
    "phone": null,
    "lat": 37.436328,
    "lng": -122.1732135
  },
  {
    "id": "630012604",
    "name": "LUCILE SALTER PACKARD CHILDREN'S HOSPITAL AT STANFORD",
    "npi": null,
    "hcaiId": null,
    "businessName": null,
    "contactEmail": null,
    "categoryName": "GENERAL ACUTE CARE HOSPITAL",
    "categoryCode": "TRANS",
    "licenseStatus": null,
    "inService": null,
    "licenseNumber": null,
    "licenseEffectiveDate": null,
    "licenseExpirationDate": null,
    "dataDate": "10/18/2025",
    "capacity": 0,
    "address": "725 WELCH RD",
    "city": "PALO ALTO",
    "zip": "94304",
    "county": "SANTA CLARA",
    "phone": null,
    "lat": 37.436328,
    "lng": -122.1732135
  },
  {
    "id": "070001349",
    "name": "LUCILE SALTER PACKARD CHILDREN'S HOSPITAL STANFORD",
    "npi": "1770855447",
    "hcaiId": "106434040",
    "businessName": "LUCILE SALTER PACKARD CHILDREN'S HOSPITAL AT STANFORD",
    "contactEmail": "NPIZANO@STANFORDCHILDRENS.ORG",
    "categoryName": "GENERAL ACUTE CARE HOSPITAL",
    "categoryCode": "GACH",
    "licenseStatus": "ACTIVE",
    "inService": true,
    "licenseNumber": "070000659",
    "licenseEffectiveDate": "11/01/2025",
    "licenseExpirationDate": "10/31/2026",
    "dataDate": "10/18/2025",
    "capacity": 426,
    "address": "725 WELCH RD",
    "city": "PALO ALTO",
    "zip": "94304",
    "county": "SANTA CLARA",
    "phone": "(650) 223-1648",
    "lat": 37.436328,
    "lng": -122.1732135
  },
  {
    "id": "630019573",
    "name": "STANFORD HEALTH CARE",
    "npi": null,
    "hcaiId": "106430035",
    "businessName": "STANFORD HEALTH CARE",
    "contactEmail": null,
    "categoryName": "GENERAL ACUTE CARE HOSPITAL",
    "categoryCode": "GACH",
    "licenseStatus": "ACTIVE",
    "inService": true,
    "licenseNumber": "070000662",
    "licenseEffectiveDate": "08/07/2025",
    "licenseExpirationDate": "03/30/2026",
    "dataDate": "10/18/2025",
    "capacity": 368,
    "address": "500 PASTEUR DR",
    "city": "PALO ALTO",
    "zip": "94304",
    "county": "SANTA CLARA",
    "phone": null,
    "lat": 37.43383695,
    "lng": -122.1765694
  },
  {
    "id": "220001050",
    "name": "THE CHILDREN'S HEALTH COUNCIL",
    "npi": null,
    "hcaiId": "306434097",
    "businessName": "CHILDREN'S HEALTH COUNCIL INC.",
    "contactEmail": "INFO@CHCONLINE.ORG",
    "categoryName": "PSYCHOLOGY CLINIC",
    "categoryCode": "PSYCHC",
    "licenseStatus": "ACTIVE",
    "inService": true,
    "licenseNumber": "220000427",
    "licenseEffectiveDate": "05/30/2025",
    "licenseExpirationDate": "05/29/2026",
    "dataDate": "10/18/2025",
    "capacity": 0,
    "address": "650 CLARK WAY",
    "city": "PALO ALTO",
    "zip": "94304",
    "county": "SANTA CLARA",
    "phone": "(650) 688-3602",
    "lat": 37.440315,
    "lng": -122.178492
  },
  {
    "id": "630006021",
    "name": "VI AT PALO ALTO",
    "npi": null,
    "hcaiId": "206434151",
    "businessName": "CLASSIC RESIDENCE MANAGEMENT LIMITED PARTNERSHIP",
    "contactEmail": "KFULLER@VILIVING.COM",
    "categoryName": "SKILLED NURSING FACILITY",
    "categoryCode": "SNF",
    "licenseStatus": "ACTIVE",
    "inService": true,
    "licenseNumber": "550000146",
    "licenseEffectiveDate": "04/17/2025",
    "licenseExpirationDate": "04/16/2026",
    "dataDate": "10/18/2025",
    "capacity": 44,
    "address": "600 SAND HILL RD",
    "city": "PALO ALTO",
    "zip": "94304",
    "county": "SANTA CLARA",
    "phone": "(650) 853-5085",
    "lat": 37.441953,
    "lng": -122.1748875
  }
]