[
  {
    "id": "070001316",
    "name": "GOLDEN CASTLE ADHC CENTER",
    "npi": null,
    "hcaiId": null,
    "businessName": "GOLDEN CASTLE ADHC CENTER, INC.",
    "contactEmail": "INFO@GOLDENCASTLECENTER.ORG",
    "categoryName": "ADULT DAY HEALTH CARE",
    "categoryCode": "ADHC",
    "licenseStatus": "ACTIVE",
    "inService": true,
    "licenseNumber": "070000635",
    "licenseEffectiveDate": "11/09/2025",
    "licenseExpirationDate": "11/08/2026",
    "dataDate": "10/18/2025",
    "capacity": 0,
    "address": "3803 E BAYSHORE RD",
    "city": "PALO ALTO",
    "zip": "94303",
    "county": "SAN MATEO",
    "phone": "(650) 964-1964",
    "lat": 37.432656,
    "lng": -122.1043455
  },
  {
    "id": "630012472",
    "name": "RAVENSWOOD FAMILY DENTISTRY",
    "npi": "1184957771",
    "hcaiId": "306414115",
    "businessName": "SOUTH COUNTY COMMUNITY HEALTH CENTER, INC.",
    "contactEmail": "RZAVALA@RAVENSWOODFHC.ORG",
    "categoryName": "PRIMARY CARE CLINIC",
    "categoryCode": "COMTYC",
    "licenseStatus": "ACTIVE",
    "inService": true,
    "licenseNumber": "220000468",
    "licenseEffectiveDate": "10/08/2025",
    "licenseExpirationDate": "12/20/2025",
    "dataDate": "10/18/2025",
    "capacity": 0,
    "address": "1807 BAY RD",
    "city": "EAST PALO ALTO",
    "zip": "94303",
    "county": "SAN MATEO",
    "phone": "(650) 289-7702",
    "lat": 37.47200437,
    "lng": -122.1344562
  },
  {
    "id": "220001137",
    "name": "RAVENSWOOD FAMILY HEALTH CENTER",
    "npi": "1821170044",
    "hcaiId": "306414146",
    "businessName": "SOUTH COUNTY COMMUNITY HEALTH CENTER, INC.",
    "contactEmail": "SVALDIVIA@RAVENSWOODFHN.ORG",
    "categoryName": "PRIMARY CARE CLINIC",
    "categoryCode": "COMTYC",
    "licenseStatus": "ACTIVE",
    "inService": true,
    "licenseNumber": "220000468",
    "licenseEffectiveDate": "10/08/2025",
    "licenseExpirationDate": "12/20/2025",
    "dataDate": "10/18/2025",
    "capacity": 0,
    "address": "1885 BAY RD",
    "city": "EAST PALO ALTO",
    "zip": "94303",
    "county": "SAN MATEO",
    "phone": "(650) 617-7862",
    "lat": 37.473426,
    "lng": -122.132223
  },
  {
    "id": "630025078",
    "name": "RAVENSWOOD FAMILY HEALTH NETWORK MOBILE MEDICAL AND DENTAL UNIT",
    "npi": "1821170044",
    "hcaiId": null,
    "businessName": "SOUTH COUNTY COMMUNITY HEALTH CENTER, INC.",
    "contactEmail": null,
    "categoryName": "PRIMARY CARE CLINIC",
    "categoryCode": "COMTYC",
    "licenseStatus": "ACTIVE",
    "inService": true,
    "licenseNumber": "220000468",
    "licenseEffectiveDate": "10/08/2025",
    "licenseExpirationDate": "12/20/2025",
    "dataDate": "10/18/2025",
    "capacity": 0,
    "address": "1885 BAY RD",
    "city": "EAST PALO ALTO",
    "zip": "94303",
    "county": "SAN MATEO",
    "phone": null,
    "lat": 37.473453,
    "lng": -122.132673
  },
  {
    "id": "630028343",
    "name": "SANTA CLARA HEALTH &HOSPITAL SYSTEM",
    "npi": null,
    "hcaiId": null,
    "businessName": null,
    "contactEmail": null,
    "categoryName": "PRIMARY CARE CLINIC",
    "categoryCode": "FQHC",
    "licenseStatus": null,
    "inService": null,
    "licenseNumber": null,
    "licenseEffectiveDate": null,
    "licenseExpirationDate": null,
    "dataDate": "10/18/2025",
    "capacity": 0,
    "address": "4151 MIDDLEFIELD RD",
    "city": "PALO ALTO",
    "zip": "94303",
    "county": "SAN MATEO",
    "phone": null,
    "lat": 37.417214,
    "lng": -122.104363
  }
]