[
  {
    "id": "630018436",
    "name": "ALMA AT ADDISON SURGERY CENTER, LLC",
    "npi": "1114400280",
    "hcaiId": null,
    "businessName": null,
    "contactEmail": "JEANNIE@FORTHEFACE.COM",
    "categoryName": "SURGICAL CLINIC",
    "categoryCode": "ASC",
    "licenseStatus": null,
    "inService": null,
    "licenseNumber": null,
    "licenseEffectiveDate": null,
    "licenseExpirationDate": null,
    "dataDate": "10/18/2025",
    "capacity": 0,
    "address": "105 ADDISON AVE",
    "city": "PALO ALTO",
    "zip": "94301",
    "county": "SANTA CLARA",
    "phone": "(650) 327-3232",
    "lat": 37.43966038,
    "lng": -122.1577732
  },
  {
    "id": "220001002",
    "name": "CHANNING HOUSE",
    "npi": null,
    "hcaiId": "206430739",
    "businessName": "CHANNING HOUSE",
    "contactEmail": "RBEKKEDAHL@CHANNINGHOUSE.ORG",
    "categoryName": "SKILLED NURSING FACILITY",
    "categoryCode": "SNF",
    "licenseStatus": "ACTIVE",
    "inService": true,
    "licenseNumber": "220000404",
    "licenseEffectiveDate": "03/01/2025",
    "licenseExpirationDate": "02/28/2026",
    "dataDate": "10/18/2025",
    "capacity": 26,
    "address": "850 WEBSTER ST",
    "city": "PALO ALTO",
    "zip": "94301",
    "county": "SANTA CLARA",
    "phone": "(650) 324-7596",
    "lat": 37.446633,
    "lng": -122.1537015
  },
  {
    "id": "220001046",
    "name": "PALO ALTO POST-ACUTE",
    "npi": "1780719278",
    "hcaiId": "206431059",
    "businessName": "DAKAR HOLDINGS, LLC",
    "contactEmail": "RYAN@SPYGLASSHC.COM",
    "categoryName": "SKILLED NURSING FACILITY",
    "categoryCode": "SNF",
    "licenseStatus": "ACTIVE",
    "inService": true,
    "licenseNumber": "220000425",
    "licenseEffectiveDate": "08/01/2025",
    "licenseExpirationDate": "03/05/2026",
    "dataDate": "10/18/2025",
    "capacity": 66,
    "address": "911 BRYANT ST",
    "city": "PALO ALTO",
    "zip": "94301",
    "county": "SANTA CLARA",
    "phone": "(408) 320-9897",
    "lat": 37.442754,
    "lng": -122.1559965
  },
  {
    "id": "630013056",
    "name": "PENINSULA HEALTHCARE CONNECTION, INC.",
    "npi": "1295935799",
    "hcaiId": "306434228",
    "businessName": "PENINSULA HEALTHCARE CONNECTION, INC.",
    "contactEmail": "ELFREDA@PENINSULAHCC.ORG",
    "categoryName": "PRIMARY CARE CLINIC",
    "categoryCode": "COMTYC",
    "licenseStatus": "ACTIVE",
    "inService": true,
    "licenseNumber": "550001665",
    "licenseEffectiveDate": "11/22/2024",
    "licenseExpirationDate": "11/21/2025",
    "dataDate": "10/18/2025",
    "capacity": 0,
    "address": "33 ENCINA AVE, SUITE 103",
    "city": "PALO ALTO",
    "zip": "94301",
    "county": "SANTA CLARA",
    "phone": "(650) 853-0321",
    "lat": 37.439334,
    "lng": -122.1610635
  },
  {
    "id": "220001045",
    "name": "SURGECENTER OF PALO ALTO",
    "npi": "1558361477",
    "hcaiId": "306431040",
    "businessName": "SUTTER BAY MEDICAL FOUNDATION",
    "contactEmail": "SALASJ1@SUTTERHEALTH.ORG",
    "categoryName": "SURGICAL CLINIC",
    "categoryCode": "ASC/SURGC",
    "licenseStatus": "ACTIVE",
    "inService": true,
    "licenseNumber": "220000424",
    "licenseEffectiveDate": "11/01/2025",
    "licenseExpirationDate": "10/31/2026",
    "dataDate": "10/18/2025",
    "capacity": 0,
    "address": "795 EL CAMINO REAL",
    "city": "PALO ALTO",
    "zip": "94301",
    "county": "SANTA CLARA",
    "phone": "(650) 324-1832",
    "lat": 37.439874,
    "lng": -122.161203
  },
  {
    "id": "220001143",
    "name": "WAVERLEY SURGERY CENTER",
    "npi": "1619944824",
    "hcaiId": "306434149",
    "businessName": "WAVERLEY SURGERY CENTER, L.P.",
    "contactEmail": "JDELAO@WAVERLEYSURGERY.COM",
    "categoryName": "SURGICAL CLINIC",
    "categoryCode": "ASC",
    "licenseStatus": "INACTIVE - CAPEN DECISION",
    "inService": false,
    "licenseNumber": "220000472",
    "licenseEffectiveDate": "05/31/2007",
    "licenseExpirationDate": "05/30/2008",
    "dataDate": "10/18/2025",
    "capacity": 0,
    "address": "400 FOREST AVE",
    "city": "PALO ALTO",
    "zip": "94301",
    "county": "SANTA CLARA",
    "phone": "(650) 324-0600",
    "lat": 37.445598,
    "lng": -122.157459
  },
  {
    "id": "220001063",
    "name": "WEBSTER HOUSE",
    "npi": "1699448100",
    "hcaiId": "206431865",
    "businessName": "FRONT PORCH COMMUNITIES AND SERVICES",
    "contactEmail": "TSELLECK@FRONTPORCH.NET",
    "categoryName": "SKILLED NURSING FACILITY",
    "categoryCode": "SNF",
    "licenseStatus": "ACTIVE",
    "inService": true,
    "licenseNumber": "220000434",
    "licenseEffectiveDate": "06/05/2025",
    "licenseExpirationDate": "06/04/2026",
    "dataDate": "10/18/2025",
    "capacity": 145,
    "address": "437 WEBSTER ST",
    "city": "PALO ALTO",
    "zip": "94301",
    "county": "SANTA CLARA",
    "phone": "(650) 328-3300",
    "lat": 37.450035,
    "lng": -122.15826
  }
]