[
  {
    "id": "220000997",
    "name": "ABJ SURGERY CENTER, INC. A MEDICAL CORP.",
    "npi": "1396707485",
    "hcaiId": null,
    "businessName": null,
    "contactEmail": null,
    "categoryName": "SURGICAL CLINIC",
    "categoryCode": "ASC",
    "licenseStatus": null,
    "inService": null,
    "licenseNumber": null,
    "licenseEffectiveDate": null,
    "licenseExpirationDate": null,
    "dataDate": "10/18/2025",
    "capacity": 0,
    "address": "104 SAINT MATTHEWS AVE",
    "city": "SAN MATEO",
    "zip": "94401",
    "county": "SAN MATEO",
    "phone": "(650) 348-8600",
    "lat": 37.566576,
    "lng": -122.327631
  },
  {
    "id": "220000873",
    "name": "AMERICAN STAR HOME 1 ICF/DD-N",
    "npi": "1821200783",
    "hcaiId": null,
    "businessName": "AMERICAN STAR HOME 1 ICF/DD-N",
    "contactEmail": "VCKYTING@AOL.COM",
    "categoryName": "INTERMEDIATE CARE FACILITY-DD/H/N/CN/IID",
    "categoryCode": "ICFDDN",
    "licenseStatus": "ACTIVE",
    "inService": true,
    "licenseNumber": "220000351",
    "licenseEffectiveDate": "11/03/2025",
    "licenseExpirationDate": "11/02/2026",
    "dataDate": "10/18/2025",
    "capacity": 6,
    "address": "1209 DAKOTA AVE",
    "city": "SAN MATEO",
    "zip": "94401",
    "county": "SAN MATEO",
    "phone": "(650) 548-1903",
    "lat": 37.569015,
    "lng": -122.3110845
  },
  {
    "id": "630012684",
    "name": "AMERICAN STAR HOME 5 ICF/DD-N",
    "npi": "1407175680",
    "hcaiId": null,
    "businessName": "AMERICAN STAR HOME 5 ICF/DD-N",
    "contactEmail": "VCKYTING@AOL.COM",
    "categoryName": "INTERMEDIATE CARE FACILITY-DD/H/N/CN/IID",
    "categoryCode": "ICFDDN",
    "licenseStatus": "ACTIVE",
    "inService": true,
    "licenseNumber": "550001499",
    "licenseEffectiveDate": "03/01/2025",
    "licenseExpirationDate": "02/28/2026",
    "dataDate": "10/18/2025",
    "capacity": 6,
    "address": "1627 SHOREVIEW AVE",
    "city": "SAN MATEO",
    "zip": "94401",
    "county": "SAN MATEO",
    "phone": "(925) 813-1979",
    "lat": 37.573209,
    "lng": -122.3079885
  },
  {
    "id": "220000829",
    "name": "BAY HORIZON ICF/DD-H",
    "npi": "1174720072",
    "hcaiId": null,
    "businessName": "BAY HORIZON, INC.",
    "contactEmail": "BETTYGANIO@YAHOO.COM",
    "categoryName": "INTERMEDIATE CARE FACILITY-DD/H/N/CN/IID",
    "categoryCode": "ICFDDH",
    "licenseStatus": "ACTIVE",
    "inService": true,
    "licenseNumber": "220000319",
    "licenseEffectiveDate": "11/07/2024",
    "licenseExpirationDate": "11/06/2025",
    "dataDate": "10/18/2025",
    "capacity": 6,
    "address": "516 OCEAN VIEW AVE",
    "city": "SAN MATEO",
    "zip": "94401",
    "county": "SAN MATEO",
    "phone": "(650) 347-1164",
    "lat": 37.572804,
    "lng": -122.306517
  },
  {
    "id": "220000872",
    "name": "CRANE HOUSE",
    "npi": "1134347834",
    "hcaiId": null,
    "businessName": "RDD ICF INC.",
    "contactEmail": "ELCAMINOREAL2839@GMAIL.COM",
    "categoryName": "INTERMEDIATE CARE FACILITY-DD/H/N/CN/IID",
    "categoryCode": "ICFDDN",
    "licenseStatus": "ACTIVE",
    "inService": true,
    "licenseNumber": "220000350",
    "licenseEffectiveDate": "11/25/2024",
    "licenseExpirationDate": "11/24/2025",
    "dataDate": "10/18/2025",
    "capacity": 6,
    "address": "741 ADA ST",
    "city": "SAN MATEO",
    "zip": "94401",
    "county": "SAN MATEO",
    "phone": "(650) 892-4572",
    "lat": 37.570464,
    "lng": -122.3068905
  },
  {
    "id": "220000968",
    "name": "DAKOTA ICF/DD-H",
    "npi": "1619174513",
    "hcaiId": null,
    "businessName": "BAY HORIZON, INC.",
    "contactEmail": "BETTYGANIO@YAHOO.COM",
    "categoryName": "INTERMEDIATE CARE FACILITY-DD/H/N/CN/IID",
    "categoryCode": "ICFDDH",
    "licenseStatus": "ACTIVE",
    "inService": true,
    "licenseNumber": "220000380",
    "licenseEffectiveDate": "11/07/2024",
    "licenseExpirationDate": "11/06/2025",
    "dataDate": "10/18/2025",
    "capacity": 6,
    "address": "1433 DAKOTA AVE",
    "city": "SAN MATEO",
    "zip": "94401",
    "county": "SAN MATEO",
    "phone": "(650) 348-2795",
    "lat": 37.570338,
    "lng": -122.309127
  },
  {
    "id": "630028215",
    "name": "ELDORADO SURGICAL CENTER",
    "npi": null,
    "hcaiId": null,
    "businessName": null,
    "contactEmail": "NEWMAN_MD@HOTMAIL.COM",
    "categoryName": "SURGICAL CLINIC",
    "categoryCode": "ASC",
    "licenseStatus": null,
    "inService": null,
    "licenseNumber": null,
    "licenseEffectiveDate": null,
    "licenseExpirationDate": null,
    "dataDate": "10/18/2025",
    "capacity": 0,
    "address": "316 S ELDORADO ST, SUITE 110",
    "city": "SAN MATEO",
    "zip": "94401",
    "county": "SAN MATEO",
    "phone": null,
    "lat": 37.56704324,
    "lng": -122.3190123
  },
  {
    "id": "630016062",
    "name": "HEALTHRIGHT 360",
    "npi": "1558756536",
    "hcaiId": "306414147",
    "businessName": "HEALTHRIGHT 360",
    "contactEmail": "ALAMBINO@HEALTHRIGHT360.ORG",
    "categoryName": "PRIMARY CARE CLINIC",
    "categoryCode": "COMTYC",
    "licenseStatus": "ACTIVE",
    "inService": true,
    "licenseNumber": "550003255",
    "licenseEffectiveDate": "10/09/2025",
    "licenseExpirationDate": "10/08/2026",
    "dataDate": "10/18/2025",
    "capacity": 0,
    "address": "117 NORTH SAN MATEO DRIVE, SUITE #1",
    "city": "SAN MATEO",
    "zip": "94401",
    "county": "SAN MATEO",
    "phone": "(650) 227-3948",
    "lat": 37.568457,
    "lng": -122.328936
  },
  {
    "id": "220000933",
    "name": "JAMES COURT MANOR INC.",
    "npi": "1750846655",
    "hcaiId": null,
    "businessName": "JAMES COURT MANOR, INC.",
    "contactEmail": "PAMSJC1@GMAIL.COM",
    "categoryName": "INTERMEDIATE CARE FACILITY-DD/H/N/CN/IID",
    "categoryCode": "ICFDDH",
    "licenseStatus": "ACTIVE",
    "inService": true,
    "licenseNumber": "220000373",
    "licenseEffectiveDate": "11/03/2025",
    "licenseExpirationDate": "11/02/2026",
    "dataDate": "10/18/2025",
    "capacity": 6,
    "address": "1316 JAMES CT",
    "city": "SAN MATEO",
    "zip": "94401",
    "county": "SAN MATEO",
    "phone": "(650) 996-5422",
    "lat": 37.568367,
    "lng": -122.309478
  },
  {
    "id": "630012984",
    "name": "MILLS HEALTH CENTER D/P APH",
    "npi": "1043670334",
    "hcaiId": "106414145",
    "businessName": "SUTTER BAY HOSPITALS",
    "contactEmail": null,
    "categoryName": "ACUTE PSYCHIATRIC HOSPITAL",
    "categoryCode": "APH",
    "licenseStatus": "ACTIVE",
    "inService": true,
    "licenseNumber": "220000037",
    "licenseEffectiveDate": "08/01/2025",
    "licenseExpirationDate": "07/31/2026",
    "dataDate": "10/18/2025",
    "capacity": 60,
    "address": "100 S. SAN MATEO DRIVE",
    "city": "SAN MATEO",
    "zip": "94401",
    "county": "SAN MATEO",
    "phone": null,
    "lat": 37.565073,
    "lng": -122.326461
  },
  {
    "id": "630020590",
    "name": "R AND A HOSPICE, INC.",
    "npi": "1154939791",
    "hcaiId": "406410020",
    "businessName": "R AND A HOSPICE, INC.",
    "contactEmail": "RANDAHOSPICE@GMAIL.COM",
    "categoryName": "HOSPICE",
    "categoryCode": "HOSPICE",
    "licenseStatus": "ACTIVE",
    "inService": true,
    "licenseNumber": "550006515",
    "licenseEffectiveDate": "06/29/2023",
    "licenseExpirationDate": "06/28/2025",
    "dataDate": "10/18/2025",
    "capacity": 0,
    "address": "3 E 3RD AVE, SUITE 322",
    "city": "SAN MATEO",
    "zip": "94401",
    "county": "SAN MATEO",
    "phone": "(415) 508-4342",
    "lat": 37.56311694,
    "lng": -122.3259593
  },
  {
    "id": "630013193",
    "name": "SAN MATEO MILLS DIALYSIS",
    "npi": null,
    "hcaiId": "306414119",
    "businessName": "TOTAL RENAL CARE, INC.",
    "contactEmail": "CAL_C@DAVITA.COM",
    "categoryName": "CHRONIC DIALYSIS CLINIC",
    "categoryCode": "ESRD/CDC",
    "licenseStatus": "ACTIVE",
    "inService": true,
    "licenseNumber": "550001607",
    "licenseEffectiveDate": "11/01/2025",
    "licenseExpirationDate": "10/31/2026",
    "dataDate": "10/18/2025",
    "capacity": 21,
    "address": "159 2ND AVE",
    "city": "SAN MATEO",
    "zip": "94401",
    "county": "SAN MATEO",
    "phone": "(650) 715-5001",
    "lat": 37.565707,
    "lng": -122.324718
  },
  {
    "id": "630011677",
    "name": "SHOREVIEW ICF-DDH",
    "npi": "1487826863",
    "hcaiId": null,
    "businessName": "CRE ENTERPRISE, INC.",
    "contactEmail": "LOUIE.B@COMCAST.NET",
    "categoryName": "INTERMEDIATE CARE FACILITY-DD/H/N/CN/IID",
    "categoryCode": "ICFDDH",
    "licenseStatus": "ACTIVE",
    "inService": true,
    "licenseNumber": "550000752",
    "licenseEffectiveDate": "11/01/2025",
    "licenseExpirationDate": "10/31/2026",
    "dataDate": "10/18/2025",
    "capacity": 6,
    "address": "2012 SHOREVIEW AVE",
    "city": "SAN MATEO",
    "zip": "94401",
    "county": "SAN MATEO",
    "phone": "(650) 228-6584",
    "lat": 37.570806,
    "lng": -122.2987275
  },
  {
    "id": "630016111",
    "name": "SONRISAS DENTAL HEALTH, INC.",
    "npi": null,
    "hcaiId": "306414151",
    "businessName": "SONRISAS DENTAL HEALTH, INC.",
    "contactEmail": "VLE@SONRISASDENTAL.ORG",
    "categoryName": "PRIMARY CARE CLINIC",
    "categoryCode": "COMTYC",
    "licenseStatus": "ACTIVE",
    "inService": true,
    "licenseNumber": "550003249",
    "licenseEffectiveDate": "09/18/2025",
    "licenseExpirationDate": "09/17/2026",
    "dataDate": "10/18/2025",
    "capacity": 0,
    "address": "430 NORTH EL CAMINO REAL",
    "city": "SAN MATEO",
    "zip": "94401",
    "county": "SAN MATEO",
    "phone": "(650) 727-3486",
    "lat": 37.570599,
    "lng": -122.335848
  }
]