[
  {
    "id": "630013306",
    "name": "AGILITY HEALTH",
    "npi": null,
    "hcaiId": "406414124",
    "businessName": "AGILITY HEALTH",
    "contactEmail": null,
    "categoryName": "HOME HEALTH AGENCY",
    "categoryCode": "HHA",
    "licenseStatus": "ACTIVE",
    "inService": true,
    "licenseNumber": "550001841",
    "licenseEffectiveDate": "01/26/2025",
    "licenseExpirationDate": "01/25/2026",
    "dataDate": "10/18/2025",
    "capacity": 0,
    "address": "1710 S AMPHLETT BLVD, SUITE 110",
    "city": "SAN MATEO",
    "zip": "94402",
    "county": "SAN MATEO",
    "phone": "(650) 453-5100",
    "lat": 37.55822276,
    "lng": -122.3014475
  },
  {
    "id": "630025455",
    "name": "CAREMO HOME HEALTH",
    "npi": null,
    "hcaiId": "406417589",
    "businessName": "CAREMO PLUS LLC",
    "contactEmail": "RDELUNA@CAREMO.NET",
    "categoryName": "HOME HEALTH AGENCY",
    "categoryCode": "HHA",
    "licenseStatus": "ACTIVE",
    "inService": true,
    "licenseNumber": "550008660",
    "licenseEffectiveDate": "07/20/2025",
    "licenseExpirationDate": "07/19/2026",
    "dataDate": "10/18/2025",
    "capacity": 0,
    "address": "1670 S AMPHLETT BLVD, SUITE 140",
    "city": "SAN MATEO",
    "zip": "94402",
    "county": "SAN MATEO",
    "phone": "(650) 439-7402",
    "lat": 37.55944748,
    "lng": -122.3024747
  },
  {
    "id": "070001263",
    "name": "MISSION HOSPICE & HOME CARE, INC.",
    "npi": null,
    "hcaiId": "406414096",
    "businessName": "MISSION HOSPICE & HOME CARE, INC.",
    "contactEmail": "SKELLYWINGARD@BYTHEBAYHEALTH.ORG",
    "categoryName": "HOSPICE",
    "categoryCode": "HOSPICE",
    "licenseStatus": "ACTIVE",
    "inService": true,
    "licenseNumber": "070000584",
    "licenseEffectiveDate": "11/11/2024",
    "licenseExpirationDate": "11/10/2026",
    "dataDate": "10/18/2025",
    "capacity": 0,
    "address": "66 BOVET RD, SUITE 100",
    "city": "SAN MATEO",
    "zip": "94402",
    "county": "SAN MATEO",
    "phone": "(415) 927-2273",
    "lat": 37.551042,
    "lng": -122.3150445
  },
  {
    "id": "630021931",
    "name": "NATIONAL HOME HEALTH SERVICES, INC.- SAN MATEO",
    "npi": "1104067826",
    "hcaiId": "406412060",
    "businessName": "NATIONAL HOME HEALTH SERVICES, INC.",
    "contactEmail": null,
    "categoryName": "HOME HEALTH AGENCY",
    "categoryCode": "HHA",
    "licenseStatus": "ACTIVE",
    "inService": true,
    "licenseNumber": "550001137",
    "licenseEffectiveDate": "11/17/2025",
    "licenseExpirationDate": "11/16/2026",
    "dataDate": "10/18/2025",
    "capacity": 0,
    "address": "1710 S AMPHLETT BLVD, SUITE 220",
    "city": "SAN MATEO",
    "zip": "94402",
    "county": "SAN MATEO",
    "phone": "(408) 404-4090",
    "lat": 37.55822276,
    "lng": -122.3014475
  },
  {
    "id": "220001136",
    "name": "NURSING & REHAB AT HOME",
    "npi": "1912909177",
    "hcaiId": "406414103",
    "businessName": "NURSING & REHAB AT HOME",
    "contactEmail": "LBEUKEMA@REHABATHOME.ORG",
    "categoryName": "HOME HEALTH AGENCY",
    "categoryCode": "HHA",
    "licenseStatus": "ACTIVE",
    "inService": true,
    "licenseNumber": "220000467",
    "licenseEffectiveDate": "11/26/2024",
    "licenseExpirationDate": "11/25/2025",
    "dataDate": "10/18/2025",
    "capacity": 0,
    "address": "1710 S AMPHLETT BLVD, SUITE 110",
    "city": "SAN MATEO",
    "zip": "94402",
    "county": "SAN MATEO",
    "phone": "(650) 286-4272",
    "lat": 37.55822276,
    "lng": -122.3014475
  },
  {
    "id": "630021837",
    "name": "OPO HEALTH, LLC",
    "npi": null,
    "hcaiId": "406415702",
    "businessName": "OPO HEALTH, LLC.",
    "contactEmail": null,
    "categoryName": "HOME HEALTH AGENCY",
    "categoryCode": "HHA",
    "licenseStatus": "ACTIVE",
    "inService": true,
    "licenseNumber": "550007426",
    "licenseEffectiveDate": "11/20/2024",
    "licenseExpirationDate": "11/19/2025",
    "dataDate": "10/18/2025",
    "capacity": 0,
    "address": "1528 S EL CAMINO REAL, SUITE 108",
    "city": "SAN MATEO",
    "zip": "94402",
    "county": "SAN MATEO",
    "phone": "(650) 892-2358",
    "lat": 37.55367906,
    "lng": -122.3158194
  },
  {
    "id": "220001180",
    "name": "SAN MATEO SURGERY CENTER",
    "npi": "1750553376",
    "hcaiId": null,
    "businessName": null,
    "contactEmail": null,
    "categoryName": "SURGICAL CLINIC",
    "categoryCode": "ASC",
    "licenseStatus": null,
    "inService": null,
    "licenseNumber": null,
    "licenseEffectiveDate": null,
    "licenseExpirationDate": null,
    "dataDate": "10/18/2025",
    "capacity": 0,
    "address": "66 BOVET RD, SUITE 101",
    "city": "SAN MATEO",
    "zip": "94402",
    "county": "SAN MATEO",
    "phone": "(650) 570-0529",
    "lat": 37.551042,
    "lng": -122.3150445
  },
  {
    "id": "220000527",
    "name": "SOUTH GRANT ICF/DD-H",
    "npi": "1073710976",
    "hcaiId": null,
    "businessName": "BAY HORIZON, INC.",
    "contactEmail": "BETTYGANIO@YAHOO.COM",
    "categoryName": "INTERMEDIATE CARE FACILITY-DD/H/N/CN/IID",
    "categoryCode": "ICFDDH",
    "licenseStatus": "ACTIVE",
    "inService": true,
    "licenseNumber": "220000232",
    "licenseEffectiveDate": "11/07/2024",
    "licenseExpirationDate": "11/06/2025",
    "dataDate": "10/18/2025",
    "capacity": 6,
    "address": "1618 S GRANT ST",
    "city": "SAN MATEO",
    "zip": "94402",
    "county": "SAN MATEO",
    "phone": "(650) 520-5546",
    "lat": 37.55898,
    "lng": -122.3050365
  },
  {
    "id": "070001336",
    "name": "SUTTER CARE AT HOME",
    "npi": "1912931809",
    "hcaiId": "406414078",
    "businessName": "SUTTER VISITING NURSE ASSOCIATION AND HOSPICE",
    "contactEmail": "MEDINAC4@SUTTERHEALTH.ORG",
    "categoryName": "HOSPICE",
    "categoryCode": "HOSPICE",
    "licenseStatus": "ACTIVE",
    "inService": true,
    "licenseNumber": "070000649",
    "licenseEffectiveDate": "05/28/2025",
    "licenseExpirationDate": "11/06/2026",
    "dataDate": "10/18/2025",
    "capacity": 0,
    "address": "1670 S AMPHLETT BLVD, SUITE 300B",
    "city": "SAN MATEO",
    "zip": "94402",
    "county": "SAN MATEO",
    "phone": "(650) 685-2830",
    "lat": 37.55854484,
    "lng": -122.3016814
  },
  {
    "id": "220001140",
    "name": "SUTTER CARE AT HOME",
    "npi": "1821027624",
    "hcaiId": "406414051",
    "businessName": "SUTTER VISITING NURSE ASSOCIATION AND HOSPICE",
    "contactEmail": "SVNAHREGULATORY@SUTTERHEALTH.ORG",
    "categoryName": "HOME HEALTH AGENCY",
    "categoryCode": "HHA",
    "licenseStatus": "ACTIVE",
    "inService": true,
    "licenseNumber": "220000470",
    "licenseEffectiveDate": "05/14/2025",
    "licenseExpirationDate": "05/13/2026",
    "dataDate": "10/18/2025",
    "capacity": 0,
    "address": "1670 S AMPHLETT BLVD, SUITE 300A",
    "city": "SAN MATEO",
    "zip": "94402",
    "county": "SAN MATEO",
    "phone": "(650) 685-2800",
    "lat": 37.55854484,
    "lng": -122.3016814
  }
]