[
  {
    "id": "630017134",
    "name": "39TH AVENUE CLINICS (MAIN CLINIC)",
    "npi": null,
    "hcaiId": null,
    "businessName": null,
    "contactEmail": null,
    "categoryName": "PRIMARY CARE CLINIC",
    "categoryCode": "FQHC",
    "licenseStatus": null,
    "inService": null,
    "licenseNumber": null,
    "licenseEffectiveDate": null,
    "licenseExpirationDate": null,
    "dataDate": "10/18/2025",
    "capacity": 0,
    "address": "222 W 39TH AVE",
    "city": "SAN MATEO",
    "zip": "94403",
    "county": "SAN MATEO",
    "phone": "(650) 573-2222",
    "lat": 37.531332,
    "lng": -122.2993665
  },
  {
    "id": "630011602",
    "name": "ALMADEN HOME ICF/DD-N",
    "npi": "1285860130",
    "hcaiId": null,
    "businessName": "FRIENDS AND FAMILY HOME, INC.",
    "contactEmail": "ALMADENICF@GMAIL.COM",
    "categoryName": "INTERMEDIATE CARE FACILITY-DD/H/N/CN/IID",
    "categoryCode": "ICFDDN",
    "licenseStatus": "ACTIVE",
    "inService": true,
    "licenseNumber": "550000747",
    "licenseEffectiveDate": "06/23/2025",
    "licenseExpirationDate": "06/22/2026",
    "dataDate": "10/18/2025",
    "capacity": 6,
    "address": "225 ALMADEN WAY",
    "city": "SAN MATEO",
    "zip": "94403",
    "county": "SAN MATEO",
    "phone": "(650) 574-2336",
    "lat": 37.539702,
    "lng": -122.289075
  },
  {
    "id": "220000041",
    "name": "BROOKSIDE SKILLED NURSING HOSPITAL",
    "npi": "1952393076",
    "hcaiId": "206413502",
    "businessName": "ST. JOHN'S VOLUNTEERS",
    "contactEmail": "ADMIN@BROOKSIDENURSING.COM",
    "categoryName": "SKILLED NURSING FACILITY",
    "categoryCode": "SNF",
    "licenseStatus": "ACTIVE",
    "inService": true,
    "licenseNumber": "220000171",
    "licenseEffectiveDate": "11/30/2024",
    "licenseExpirationDate": "11/29/2025",
    "dataDate": "10/18/2025",
    "capacity": 96,
    "address": "2620 FLORES ST",
    "city": "SAN MATEO",
    "zip": "94403",
    "county": "SAN MATEO",
    "phone": "(650) 349-2161",
    "lat": 37.542537,
    "lng": -122.3069625
  },
  {
    "id": "220000932",
    "name": "CASA NOVA HOME",
    "npi": "1801496476",
    "hcaiId": null,
    "businessName": "ARL CARE AND PROGRAM PROVIDERS, INC.",
    "contactEmail": "CASANOVAHOMEICF@GMAIL.COM",
    "categoryName": "INTERMEDIATE CARE FACILITY-DD/H/N/CN/IID",
    "categoryCode": "ICFDDH",
    "licenseStatus": "ACTIVE",
    "inService": true,
    "licenseNumber": "220000362",
    "licenseEffectiveDate": "05/07/2025",
    "licenseExpirationDate": "05/06/2026",
    "dataDate": "10/18/2025",
    "capacity": 6,
    "address": "3937 CASANOVA DR",
    "city": "SAN MATEO",
    "zip": "94403",
    "county": "SAN MATEO",
    "phone": "(650) 341-9620",
    "lat": 37.536795,
    "lng": -122.283621
  },
  {
    "id": "630011958",
    "name": "PACIFIC HOME ICF/DD-N",
    "npi": "1588805956",
    "hcaiId": null,
    "businessName": "A AND F CARE SERVICES, INC.",
    "contactEmail": "RSFUJII@HOTMAIL.COM",
    "categoryName": "INTERMEDIATE CARE FACILITY-DD/H/N/CN/IID",
    "categoryCode": "ICFDDN",
    "licenseStatus": "ACTIVE",
    "inService": true,
    "licenseNumber": "550001128",
    "licenseEffectiveDate": "11/02/2025",
    "licenseExpirationDate": "11/01/2026",
    "dataDate": "10/18/2025",
    "capacity": 6,
    "address": "3617 PACIFIC BLVD",
    "city": "SAN MATEO",
    "zip": "94403",
    "county": "SAN MATEO",
    "phone": "(650) 578-8494",
    "lat": 37.535544,
    "lng": -122.2945155
  },
  {
    "id": "220000685",
    "name": "SAMARITAN HOUSE FREE CLINIC",
    "npi": null,
    "hcaiId": "306414089",
    "businessName": "SAMARITAN HOUSE",
    "contactEmail": "BSINGH@SAMARITANHOUSESANMATEO.ORG",
    "categoryName": "PRIMARY CARE CLINIC",
    "categoryCode": "FREEC",
    "licenseStatus": "ACTIVE",
    "inService": true,
    "licenseNumber": "220000275",
    "licenseEffectiveDate": "11/16/2025",
    "licenseExpirationDate": "11/15/2026",
    "dataDate": "10/18/2025",
    "capacity": 0,
    "address": "19 W 39TH AVE",
    "city": "SAN MATEO",
    "zip": "94403",
    "county": "SAN MATEO",
    "phone": "(650) 578-0400",
    "lat": 37.53264573,
    "lng": -122.2930973
  },
  {
    "id": "220000007",
    "name": "SAN MATEO MEDICAL CENTER",
    "npi": "1386713030",
    "hcaiId": "106410782",
    "businessName": "COUNTY OF SAN MATEO",
    "contactEmail": "CKUNNAPPILLY@SMCGOV.ORG",
    "categoryName": "GENERAL ACUTE CARE HOSPITAL",
    "categoryCode": "GACH",
    "licenseStatus": "ACTIVE",
    "inService": true,
    "licenseNumber": "220000015",
    "licenseEffectiveDate": "02/01/2025",
    "licenseExpirationDate": "01/31/2026",
    "dataDate": "10/18/2025",
    "capacity": 69,
    "address": "222 W 39TH AVE",
    "city": "SAN MATEO",
    "zip": "94403",
    "county": "SAN MATEO",
    "phone": "(650) 573-2305",
    "lat": 37.531332,
    "lng": -122.2993665
  },
  {
    "id": "220000334",
    "name": "SAN MATEO MEDICAL CENTER D/P APH",
    "npi": "1386713030",
    "hcaiId": null,
    "businessName": "COUNTY OF SAN MATEO",
    "contactEmail": null,
    "categoryName": "ACUTE PSYCHIATRIC HOSPITAL",
    "categoryCode": "APH",
    "licenseStatus": "ACTIVE",
    "inService": true,
    "licenseNumber": "220000015",
    "licenseEffectiveDate": "02/01/2025",
    "licenseExpirationDate": "01/31/2026",
    "dataDate": "10/18/2025",
    "capacity": 34,
    "address": "222 W 39TH AVE",
    "city": "SAN MATEO",
    "zip": "94403",
    "county": "SAN MATEO",
    "phone": "(650) 573-2222",
    "lat": 37.531332,
    "lng": -122.2993665
  },
  {
    "id": "220000218",
    "name": "SAN MATEO MEDICAL CENTER D/P SNF",
    "npi": "1710066634",
    "hcaiId": null,
    "businessName": "COUNTY OF SAN MATEO",
    "contactEmail": "ADMINISTRATOR@BURLINGAMESN.COM",
    "categoryName": "SKILLED NURSING FACILITY",
    "categoryCode": "SNF",
    "licenseStatus": "ACTIVE",
    "inService": true,
    "licenseNumber": "220000015",
    "licenseEffectiveDate": "02/01/2025",
    "licenseExpirationDate": "01/31/2026",
    "dataDate": "10/18/2025",
    "capacity": 64,
    "address": "222 W 39TH AVE",
    "city": "SAN MATEO",
    "zip": "94403",
    "county": "SAN MATEO",
    "phone": "(650) 573-2222",
    "lat": 37.531332,
    "lng": -122.2993665
  },
  {
    "id": "140001242",
    "name": "SATELLITE DIALYSIS SAN MATEO",
    "npi": "1619754470",
    "hcaiId": "306414065",
    "businessName": "SATELLITE SAN MATEO, LLC",
    "contactEmail": "NORNDORFF@USRENALCARE.COM",
    "categoryName": "CHRONIC DIALYSIS CLINIC",
    "categoryCode": "ESRD/CDC",
    "licenseStatus": "ACTIVE",
    "inService": true,
    "licenseNumber": "140000630",
    "licenseEffectiveDate": "01/29/2025",
    "licenseExpirationDate": "01/02/2026",
    "dataDate": "10/18/2025",
    "capacity": 24,
    "address": "2000 S EL CAMINO REAL, FLOOR 1ST",
    "city": "SAN MATEO",
    "zip": "94403",
    "county": "SAN MATEO",
    "phone": "(615) 330-4400",
    "lat": 37.547937,
    "lng": -122.3098425
  },
  {
    "id": "630011434",
    "name": "SATELLITE DIALYSIS WELLBOUND OF SAN MATEO",
    "npi": "1982481750",
    "hcaiId": null,
    "businessName": null,
    "contactEmail": "NORNDORFF@USRENALCARE.COM",
    "categoryName": "CHRONIC DIALYSIS CLINIC",
    "categoryCode": "ESRD",
    "licenseStatus": null,
    "inService": null,
    "licenseNumber": null,
    "licenseEffectiveDate": null,
    "licenseExpirationDate": null,
    "dataDate": "10/18/2025",
    "capacity": 0,
    "address": "2000 S EL CAMINO REAL, FLOOR 2",
    "city": "SAN MATEO",
    "zip": "94403",
    "county": "SAN MATEO",
    "phone": "(615) 330-4400",
    "lat": 37.547937,
    "lng": -122.3098425
  },
  {
    "id": "630013147",
    "name": "SUNRISE ICF/DD-H",
    "npi": "1497040117",
    "hcaiId": null,
    "businessName": "HILLSBOROUGH MANOR, INC.",
    "contactEmail": "ROSEVERID10@YAHOO.COM",
    "categoryName": "INTERMEDIATE CARE FACILITY-DD/H/N/CN/IID",
    "categoryCode": "ICFDDH",
    "licenseStatus": "ACTIVE",
    "inService": true,
    "licenseNumber": "550001748",
    "licenseEffectiveDate": "11/19/2024",
    "licenseExpirationDate": "11/18/2025",
    "dataDate": "10/18/2025",
    "capacity": 6,
    "address": "1776 ADAMS ST",
    "city": "SAN MATEO",
    "zip": "94403",
    "county": "SAN MATEO",
    "phone": "(650) 216-9960",
    "lat": 37.555623,
    "lng": -122.2974585
  },
  {
    "id": "630014045",
    "name": "THOMAS HOME",
    "npi": "1043559974",
    "hcaiId": null,
    "businessName": "RIGHT START SERVICES, INC.",
    "contactEmail": "MAMALLARI@GMAIL.COM",
    "categoryName": "INTERMEDIATE CARE FACILITY-DD/H/N/CN/IID",
    "categoryCode": "ICFDDH",
    "licenseStatus": "ACTIVE",
    "inService": true,
    "licenseNumber": "550002307",
    "licenseEffectiveDate": "06/21/2025",
    "licenseExpirationDate": "06/20/2026",
    "dataDate": "10/18/2025",
    "capacity": 6,
    "address": "2032 KEHOE AVE",
    "city": "SAN MATEO",
    "zip": "94403",
    "county": "SAN MATEO",
    "phone": "(650) 580-1914",
    "lat": 37.565352,
    "lng": -122.295618
  }
]