[
  {
    "id": "630015457",
    "name": "ATHOME HEALTHCARE TEAM, LLC",
    "npi": "1285043141",
    "hcaiId": "406284022",
    "businessName": "ATHOME HEALTHCARE TEAM, LLC",
    "contactEmail": "JENNIVIVE22@GMAIL.COM",
    "categoryName": "HOME HEALTH AGENCY",
    "categoryCode": "HHA",
    "licenseStatus": "ACTIVE",
    "inService": true,
    "licenseNumber": "550002929",
    "licenseEffectiveDate": "12/29/2024",
    "licenseExpirationDate": "12/28/2025",
    "dataDate": "10/18/2025",
    "capacity": 0,
    "address": "100 TOWER ROAD, SUITE 15",
    "city": "AMERICAN CANYON",
    "zip": "94503",
    "county": "NAPA",
    "phone": "(707) 255-4401",
    "lat": 38.211804,
    "lng": -122.257134
  },
  {
    "id": "630018533",
    "name": "ATHOME HOSPICE CARE LLC",
    "npi": null,
    "hcaiId": "406481838",
    "businessName": "ATHOME HOSPICE CARE LLC",
    "contactEmail": "ATHOMEHCT@GMAIL.COM",
    "categoryName": "HOSPICE",
    "categoryCode": "HOSPICE",
    "licenseStatus": "ACTIVE",
    "inService": true,
    "licenseNumber": "550004900",
    "licenseEffectiveDate": "08/29/2025",
    "licenseExpirationDate": "08/28/2027",
    "dataDate": "10/18/2025",
    "capacity": 0,
    "address": "100 TOWER RD, SUITE 15B",
    "city": "AMERICAN CANYON",
    "zip": "94503",
    "county": "NAPA",
    "phone": "(619) 274-1392",
    "lat": 38.211804,
    "lng": -122.257134
  },
  {
    "id": "630018902",
    "name": "HOME NOW HEALTHCARE SERVICES",
    "npi": null,
    "hcaiId": "406285701",
    "businessName": "CNG INTERNATIONAL, INC.",
    "contactEmail": "KJGERBER@YAHOO.COM",
    "categoryName": "HOME HEALTH AGENCY",
    "categoryCode": "HHA",
    "licenseStatus": "ACTIVE",
    "inService": true,
    "licenseNumber": "550007419",
    "licenseEffectiveDate": "12/13/2024",
    "licenseExpirationDate": "12/12/2025",
    "dataDate": "10/18/2025",
    "capacity": 0,
    "address": "120 W AMERICAN CANYON RD, M-10",
    "city": "AMERICAN CANYON",
    "zip": "94503",
    "county": "NAPA",
    "phone": "(707) 853-9579",
    "lat": 38.16675,
    "lng": -122.254857
  },
  {
    "id": "630018904",
    "name": "HOME NOW HEALTHCARE SERVICES",
    "npi": null,
    "hcaiId": "406282404",
    "businessName": "CNG INTERNATIONAL, INC.",
    "contactEmail": "KJGERBER@YAHOO.COM",
    "categoryName": "HOSPICE",
    "categoryCode": "HOSPICE",
    "licenseStatus": "ACTIVE",
    "inService": true,
    "licenseNumber": "550005304",
    "licenseEffectiveDate": "02/28/2024",
    "licenseExpirationDate": "02/27/2026",
    "dataDate": "10/18/2025",
    "capacity": 0,
    "address": "120 W AMERICAN CANYON RD, M-10",
    "city": "AMERICAN CANYON",
    "zip": "94503",
    "county": "NAPA",
    "phone": "(707) 853-9579",
    "lat": 38.16675,
    "lng": -122.254857
  },
  {
    "id": "630027086",
    "name": "OLE HEALTH AMERICAN CANYON",
    "npi": "1497130280",
    "hcaiId": null,
    "businessName": "OLE HEALTH",
    "contactEmail": null,
    "categoryName": "PRIMARY CARE CLINIC",
    "categoryCode": "COMTYC",
    "licenseStatus": "ACTIVE",
    "inService": true,
    "licenseNumber": "550003358",
    "licenseEffectiveDate": "01/26/2025",
    "licenseExpirationDate": "01/25/2026",
    "dataDate": "10/18/2025",
    "capacity": 0,
    "address": "3431 BROADWAY ST, SUITE A8 & 9",
    "city": "AMERICAN CANYON",
    "zip": "94503",
    "county": "NAPA",
    "phone": null,
    "lat": 38.17014699,
    "lng": -122.254069
  }
]