[
  {
    "id": "140001378",
    "name": "ALAMEDA ELDER SERVICES",
    "npi": null,
    "hcaiId": null,
    "businessName": null,
    "contactEmail": null,
    "categoryName": "OTHER",
    "categoryCode": "UNLICEN",
    "licenseStatus": null,
    "inService": null,
    "licenseNumber": null,
    "licenseEffectiveDate": null,
    "licenseExpirationDate": null,
    "dataDate": "10/18/2025",
    "capacity": 0,
    "address": "1721 WEBSTER STREET",
    "city": "ALAMEDA",
    "zip": "94501",
    "county": "ALAMEDA",
    "phone": "(510) 521-9200",
    "lat": 37.776879,
    "lng": -122.2768215
  },
  {
    "id": "020000043",
    "name": "ALAMEDA HEALTHCARE & WELLNESS CENTER",
    "npi": "1578885778",
    "hcaiId": "206010953",
    "businessName": "ALAMEDA HEALTHCARE & WELLNESS CENTER LLC",
    "contactEmail": "ADMINISTRATOR@ALAMEDAHC.COM",
    "categoryName": "SKILLED NURSING FACILITY",
    "categoryCode": "SNF",
    "licenseStatus": "ACTIVE",
    "inService": true,
    "licenseNumber": "020000268",
    "licenseEffectiveDate": "04/29/2025",
    "licenseExpirationDate": "04/28/2026",
    "dataDate": "10/18/2025",
    "capacity": 166,
    "address": "430 WILLOW STREET",
    "city": "ALAMEDA",
    "zip": "94501",
    "county": "ALAMEDA",
    "phone": "(510) 523-8857",
    "lat": 37.758681,
    "lng": -122.255028
  },
  {
    "id": "140000011",
    "name": "ALAMEDA HOSPITAL",
    "npi": "1831529049",
    "hcaiId": "106010735",
    "businessName": "ALAMEDA HEALTH SYSTEM",
    "contactEmail": "NILPEREZ@ALAMEDAHEALTHSYSTEM.ORG",
    "categoryName": "GENERAL ACUTE CARE HOSPITAL",
    "categoryCode": "GACH",
    "licenseStatus": "ACTIVE",
    "inService": true,
    "licenseNumber": "140000002",
    "licenseEffectiveDate": "05/01/2025",
    "licenseExpirationDate": "04/30/2026",
    "dataDate": "10/18/2025",
    "capacity": 66,
    "address": "2070 CLINTON AVENUE",
    "city": "ALAMEDA",
    "zip": "94501",
    "county": "ALAMEDA",
    "phone": "(510) 277-5183",
    "lat": 37.76319,
    "lng": -122.2540155
  },
  {
    "id": "630011864",
    "name": "ALAMEDA HOSPITAL - SOUTHSHORE CONVALESCENT",
    "npi": null,
    "hcaiId": "206010956",
    "businessName": "ALAMEDA HEALTH SYSTEM",
    "contactEmail": null,
    "categoryName": "SKILLED NURSING FACILITY",
    "categoryCode": "SNF",
    "licenseStatus": "ACTIVE",
    "inService": true,
    "licenseNumber": "140000002",
    "licenseEffectiveDate": "05/01/2025",
    "licenseExpirationDate": "04/30/2026",
    "dataDate": "10/18/2025",
    "capacity": 26,
    "address": "625 WILLOW STREET",
    "city": "ALAMEDA",
    "zip": "94501",
    "county": "ALAMEDA",
    "phone": "(510) 523-3772",
    "lat": 37.761858,
    "lng": -122.2540515
  },
  {
    "id": "140000686",
    "name": "ALAMEDA HOSPITAL D/P SNF",
    "npi": "1396176160",
    "hcaiId": null,
    "businessName": "ALAMEDA HEALTH SYSTEM",
    "contactEmail": "RAESPINOZA@ALAMEDAHEALTHSYSTEM.ORG",
    "categoryName": "SKILLED NURSING FACILITY",
    "categoryCode": "SNF",
    "licenseStatus": "ACTIVE",
    "inService": true,
    "licenseNumber": "140000002",
    "licenseEffectiveDate": "05/01/2025",
    "licenseExpirationDate": "04/30/2026",
    "dataDate": "10/18/2025",
    "capacity": 35,
    "address": "2070 CLINTON AVENUE",
    "city": "ALAMEDA",
    "zip": "94501",
    "county": "ALAMEDA",
    "phone": "(510) 814-4647",
    "lat": 37.76319,
    "lng": -122.2540155
  },
  {
    "id": "630019644",
    "name": "ANGELA AGUILAR HEAD START",
    "npi": "1851522015",
    "hcaiId": null,
    "businessName": "LA CLINICA DE LA RAZA, INC.",
    "contactEmail": null,
    "categoryName": "PRIMARY CARE CLINIC",
    "categoryCode": "COMTYC",
    "licenseStatus": "ACTIVE",
    "inService": true,
    "licenseNumber": "550001178",
    "licenseEffectiveDate": "11/12/2025",
    "licenseExpirationDate": "11/11/2026",
    "dataDate": "10/18/2025",
    "capacity": 0,
    "address": "1901 3RD ST",
    "city": "ALAMEDA",
    "zip": "94501",
    "county": "ALAMEDA",
    "phone": null,
    "lat": 37.778733,
    "lng": -122.288265
  },
  {
    "id": "020000026",
    "name": "BAY VIEW REHABILITATION HOSPITAL, LLC",
    "npi": "1386998664",
    "hcaiId": "206010952",
    "businessName": "BAY VIEW REHABILITATION HOSPITAL, LLC",
    "contactEmail": "ADMIN@BAYVIEWNURSING.COM",
    "categoryName": "SKILLED NURSING FACILITY",
    "categoryCode": "SNF",
    "licenseStatus": "ACTIVE",
    "inService": true,
    "licenseNumber": "020000099",
    "licenseEffectiveDate": "04/30/2025",
    "licenseExpirationDate": "04/29/2026",
    "dataDate": "10/18/2025",
    "capacity": 170,
    "address": "516 WILLOW STREET",
    "city": "ALAMEDA",
    "zip": "94501",
    "county": "ALAMEDA",
    "phone": "(510) 521-5600",
    "lat": 37.759995,
    "lng": -122.254614
  },
  {
    "id": "630015548",
    "name": "BAYPOINT HOME HEALTH, INC.",
    "npi": "1609270073",
    "hcaiId": "406014346",
    "businessName": "BAYPOINT HOME HEALTH, INC.",
    "contactEmail": "INFO@BAYPOINTHOMEHEALTH.NET",
    "categoryName": "HOME HEALTH AGENCY",
    "categoryCode": "HHA",
    "licenseStatus": "ACTIVE",
    "inService": true,
    "licenseNumber": "550003130",
    "licenseEffectiveDate": "06/26/2025",
    "licenseExpirationDate": "06/25/2026",
    "dataDate": "10/18/2025",
    "capacity": 0,
    "address": "2515 SANTA CLARA AVENUE, SUITE 105",
    "city": "ALAMEDA",
    "zip": "94501",
    "county": "ALAMEDA",
    "phone": "(866) 392-7751",
    "lat": 37.764234,
    "lng": -122.239404
  },
  {
    "id": "630028312",
    "name": "BRIDGE PALLIATIVE AND HOSPICE CARE INC",
    "npi": null,
    "hcaiId": null,
    "businessName": "BRIDGE PALLIATIVE AND HOSPICE CARE INC",
    "contactEmail": "BRIDGECAREPH@GMAIL.COM",
    "categoryName": "HOSPICE",
    "categoryCode": "HOSPICE",
    "licenseStatus": "ACTIVE",
    "inService": true,
    "licenseNumber": "550010005",
    "licenseEffectiveDate": "10/30/2025",
    "licenseExpirationDate": "10/29/2027",
    "dataDate": "10/18/2025",
    "capacity": 0,
    "address": "1101 MARINA VILLAGE PKWY, SUITE 201, OFFICE 204",
    "city": "ALAMEDA",
    "zip": "94501",
    "county": "ALAMEDA",
    "phone": "(650) 334-0333",
    "lat": 37.784559,
    "lng": -122.27379
  },
  {
    "id": "020001294",
    "name": "CENTERWELL ASIAN AMERICAN HOME HEALTH",
    "npi": "1336144484",
    "hcaiId": "406014228",
    "businessName": "ASIAN AMERICAN HOME CARE, INC.",
    "contactEmail": "HUI.FANG@CENTERWELLHOMEHEALTH.COM",
    "categoryName": "HOME HEALTH AGENCY",
    "categoryCode": "HHA",
    "licenseStatus": "ACTIVE",
    "inService": true,
    "licenseNumber": "020000654",
    "licenseEffectiveDate": "04/30/2025",
    "licenseExpirationDate": "01/10/2026",
    "dataDate": "10/18/2025",
    "capacity": 0,
    "address": "1301 MARINA VILLAGE PKWY, SUITE 103",
    "city": "ALAMEDA",
    "zip": "94501",
    "county": "ALAMEDA",
    "phone": "(510) 835-3268",
    "lat": 37.785996,
    "lng": -122.2747965
  },
  {
    "id": "630021678",
    "name": "CHERISHAVEN HOSPICE",
    "npi": null,
    "hcaiId": "406015740",
    "businessName": "CHERISHAVEN HEALTHCARE, LLC",
    "contactEmail": "ADMIN@CHERISHAVEN.COM",
    "categoryName": "HOSPICE",
    "categoryCode": "HOSPICE",
    "licenseStatus": "ACTIVE",
    "inService": true,
    "licenseNumber": "550007717",
    "licenseEffectiveDate": "12/27/2023",
    "licenseExpirationDate": "12/26/2025",
    "dataDate": "10/18/2025",
    "capacity": 0,
    "address": "2363 MARINER SQUARE DR, SUITE 146",
    "city": "ALAMEDA",
    "zip": "94501",
    "county": "ALAMEDA",
    "phone": "(628) 224-5007",
    "lat": 37.789263,
    "lng": -122.2772175
  },
  {
    "id": "630027516",
    "name": "COLLEGE OF ALAMEDA DENTAL CLINIC",
    "npi": null,
    "hcaiId": null,
    "businessName": "ASIAN HEALTH SERVICES",
    "contactEmail": null,
    "categoryName": "PRIMARY CARE CLINIC",
    "categoryCode": "COMTYC",
    "licenseStatus": "ACTIVE",
    "inService": true,
    "licenseNumber": "140000125",
    "licenseEffectiveDate": "02/24/2025",
    "licenseExpirationDate": "02/23/2026",
    "dataDate": "10/18/2025",
    "capacity": 0,
    "address": "555 RALPH APPEZZATO MEMORIAL PKWY, BUILDING A-218",
    "city": "ALAMEDA",
    "zip": "94501",
    "county": "ALAMEDA",
    "phone": null,
    "lat": 37.78151201,
    "lng": -122.279319
  },
  {
    "id": "630019646",
    "name": "COLLEGE OF ALEMEDA HEAD START",
    "npi": "1851522015",
    "hcaiId": null,
    "businessName": "LA CLINICA DE LA RAZA, INC.",
    "contactEmail": null,
    "categoryName": "PRIMARY CARE CLINIC",
    "categoryCode": "COMTYC",
    "licenseStatus": "ACTIVE",
    "inService": true,
    "licenseNumber": "550001178",
    "licenseEffectiveDate": "11/12/2025",
    "licenseExpirationDate": "11/11/2026",
    "dataDate": "10/18/2025",
    "capacity": 0,
    "address": "555 RALPH APPEZZATO MEMORIAL PKWY",
    "city": "ALAMEDA",
    "zip": "94501",
    "county": "ALAMEDA",
    "phone": null,
    "lat": 37.78128,
    "lng": -122.2796925
  },
  {
    "id": "630019377",
    "name": "ENCINAL HIGH SCHOOL-BASED HEALTH CENTER (NAHC)",
    "npi": "1689863516",
    "hcaiId": null,
    "businessName": "NATIVE AMERICAN HEALTH CENTER, INC.",
    "contactEmail": null,
    "categoryName": "PRIMARY CARE CLINIC",
    "categoryCode": "COMTYC",
    "licenseStatus": "ACTIVE",
    "inService": true,
    "licenseNumber": "140000155",
    "licenseEffectiveDate": "11/01/2025",
    "licenseExpirationDate": "10/31/2026",
    "dataDate": "10/18/2025",
    "capacity": 0,
    "address": "210 CENTRAL AVE",
    "city": "ALAMEDA",
    "zip": "94501",
    "county": "ALAMEDA",
    "phone": null,
    "lat": 37.772154,
    "lng": -122.2896915
  },
  {
    "id": "020000104",
    "name": "MARINA GARDEN NURSING CENTER",
    "npi": "1699770867",
    "hcaiId": "206013653",
    "businessName": "MARINA GARDEN NURSING CENTER, INC.",
    "contactEmail": "JEFFREY.TONG@BELLAKEN.COM",
    "categoryName": "SKILLED NURSING FACILITY",
    "categoryCode": "SNF",
    "licenseStatus": "ACTIVE",
    "inService": true,
    "licenseNumber": "020000211",
    "licenseEffectiveDate": "06/01/2025",
    "licenseExpirationDate": "05/31/2026",
    "dataDate": "10/18/2025",
    "capacity": 32,
    "address": "3201 FERNSIDE BOULEVARD",
    "city": "ALAMEDA",
    "zip": "94501",
    "county": "ALAMEDA",
    "phone": "(510) 523-2363",
    "lat": 37.763442,
    "lng": -122.2255755
  },
  {
    "id": "630017079",
    "name": "NATIVE AMERICAN HEALTH CENTER",
    "npi": "1689863516",
    "hcaiId": null,
    "businessName": "NATIVE AMERICAN HEALTH CENTER, INC.",
    "contactEmail": null,
    "categoryName": "PRIMARY CARE CLINIC",
    "categoryCode": "COMTYC",
    "licenseStatus": "ACTIVE",
    "inService": true,
    "licenseNumber": "140000155",
    "licenseEffectiveDate": "11/01/2025",
    "licenseExpirationDate": "10/31/2026",
    "dataDate": "10/18/2025",
    "capacity": 0,
    "address": "2201 ENCINAL AVE",
    "city": "ALAMEDA",
    "zip": "94501",
    "county": "ALAMEDA",
    "phone": null,
    "lat": 37.76445,
    "lng": -122.247621
  },
  {
    "id": "630014635",
    "name": "PARK BRIDGE REHABILITATION AND WELLNESS CENTER",
    "npi": null,
    "hcaiId": "206010989",
    "businessName": "ALAMEDA HEALTH SYSTEM",
    "contactEmail": null,
    "categoryName": "SKILLED NURSING FACILITY",
    "categoryCode": "SNF",
    "licenseStatus": "ACTIVE",
    "inService": true,
    "licenseNumber": "140000002",
    "licenseEffectiveDate": "05/01/2025",
    "licenseExpirationDate": "04/30/2026",
    "dataDate": "10/18/2025",
    "capacity": 120,
    "address": "2401 BLANDING AVENUE",
    "city": "ALAMEDA",
    "zip": "94501",
    "county": "ALAMEDA",
    "phone": "(510) 522-1084",
    "lat": 37.770777,
    "lng": -122.236875
  },
  {
    "id": "630024458",
    "name": "PERFECT CARE HOME HEALTH",
    "npi": null,
    "hcaiId": "406016217",
    "businessName": "PERFECT CARE HOME HEALTH",
    "contactEmail": "PERFECTCAREHH21@YAHOO.COM",
    "categoryName": "HOME HEALTH AGENCY",
    "categoryCode": "HHA",
    "licenseStatus": "ACTIVE",
    "inService": true,
    "licenseNumber": "550008402",
    "licenseEffectiveDate": "02/07/2025",
    "licenseExpirationDate": "02/06/2026",
    "dataDate": "10/18/2025",
    "capacity": 0,
    "address": "1101 MARINA VILLAGE PKWY, SUITE 212",
    "city": "ALAMEDA",
    "zip": "94501",
    "county": "ALAMEDA",
    "phone": "(323) 552-3300",
    "lat": 37.784439,
    "lng": -122.2736985
  },
  {
    "id": "630019647",
    "name": "ROSALIE STERLING HEAD START",
    "npi": "1851522015",
    "hcaiId": null,
    "businessName": "LA CLINICA DE LA RAZA, INC.",
    "contactEmail": null,
    "categoryName": "PRIMARY CARE CLINIC",
    "categoryCode": "COMTYC",
    "licenseStatus": "ACTIVE",
    "inService": true,
    "licenseNumber": "550001178",
    "licenseEffectiveDate": "11/12/2025",
    "licenseExpirationDate": "11/11/2026",
    "dataDate": "10/18/2025",
    "capacity": 0,
    "address": "1700 SANTA CLARA AVE",
    "city": "ALAMEDA",
    "zip": "94501",
    "county": "ALAMEDA",
    "phone": null,
    "lat": 37.77111,
    "lng": -122.256126
  },
  {
    "id": "630019645",
    "name": "SUE MATHESON CENTER HEAD START",
    "npi": "1851522015",
    "hcaiId": null,
    "businessName": "LA CLINICA DE LA RAZA, INC.",
    "contactEmail": null,
    "categoryName": "PRIMARY CARE CLINIC",
    "categoryCode": "COMTYC",
    "licenseStatus": "ACTIVE",
    "inService": true,
    "licenseNumber": "550001178",
    "licenseEffectiveDate": "11/12/2025",
    "licenseExpirationDate": "11/11/2026",
    "dataDate": "10/18/2025",
    "capacity": 0,
    "address": "670 W MIDWAY AVE",
    "city": "ALAMEDA",
    "zip": "94501",
    "county": "ALAMEDA",
    "phone": null,
    "lat": 37.785249,
    "lng": -122.299101
  },
  {
    "id": "070001241",
    "name": "SUTTER CARE AT HOME",
    "npi": "1124053558",
    "hcaiId": "406012270",
    "businessName": "SUTTER VISITING NURSE ASSOCIATION AND HOSPICE",
    "contactEmail": "SVNAHREGULATORY@SUTTERHEALTH.ORG",
    "categoryName": "HOSPICE",
    "categoryCode": "HOSPICE",
    "licenseStatus": "ACTIVE",
    "inService": true,
    "licenseNumber": "550001671",
    "licenseEffectiveDate": "11/11/2025",
    "licenseExpirationDate": "11/10/2027",
    "dataDate": "10/18/2025",
    "capacity": 0,
    "address": "1025 ATLANTIC AVE, SUITE 100A",
    "city": "ALAMEDA",
    "zip": "94501",
    "county": "ALAMEDA",
    "phone": "(510) 263-0900",
    "lat": 37.780956,
    "lng": -122.2660485
  },
  {
    "id": "020000177",
    "name": "SUTTER CARE AT HOME - BRANCH",
    "npi": null,
    "hcaiId": "406014024",
    "businessName": "SUTTER VISITING NURSE ASSOCIATION AND HOSPICE",
    "contactEmail": null,
    "categoryName": "HOME HEALTH AGENCY",
    "categoryCode": "HHA",
    "licenseStatus": "ACTIVE",
    "inService": true,
    "licenseNumber": "020000158",
    "licenseEffectiveDate": "05/07/2025",
    "licenseExpirationDate": "05/06/2026",
    "dataDate": "10/18/2025",
    "capacity": 0,
    "address": "1025 ATLANTIC AVE, SUITE 100 B",
    "city": "ALAMEDA",
    "zip": "94501",
    "county": "ALAMEDA",
    "phone": "(510) 538-5111",
    "lat": 37.781127,
    "lng": -122.2658775
  },
  {
    "id": "630024421",
    "name": "TMT HOME HEALTH CARE",
    "npi": null,
    "hcaiId": "406016320",
    "businessName": "TMT HOME HEALTH CARE",
    "contactEmail": "TMTHOMEHEALTHCARE@GMAIL.COM",
    "categoryName": "HOME HEALTH AGENCY",
    "categoryCode": "HHA",
    "licenseStatus": "ACTIVE",
    "inService": true,
    "licenseNumber": "550008453",
    "licenseEffectiveDate": "02/07/2025",
    "licenseExpirationDate": "02/06/2026",
    "dataDate": "10/18/2025",
    "capacity": 0,
    "address": "1101 MARINA VILLAGE PKWY, SUITE 204",
    "city": "ALAMEDA",
    "zip": "94501",
    "county": "ALAMEDA",
    "phone": "(323) 552-3300",
    "lat": 37.784439,
    "lng": -122.2736985
  },
  {
    "id": "020000087",
    "name": "WEST SHORE POST ACUTE",
    "npi": "1114119054",
    "hcaiId": "206010734",
    "businessName": "NAVARRA HOLDINGS LLC",
    "contactEmail": null,
    "categoryName": "SKILLED NURSING FACILITY",
    "categoryCode": "SNF",
    "licenseStatus": "ACTIVE",
    "inService": true,
    "licenseNumber": "020000001",
    "licenseEffectiveDate": "11/01/2025",
    "licenseExpirationDate": "10/31/2026",
    "dataDate": "10/18/2025",
    "capacity": 135,
    "address": "508 WESTLINE DRIVE",
    "city": "ALAMEDA",
    "zip": "94501",
    "county": "ALAMEDA",
    "phone": "(510) 521-5765",
    "lat": 37.765188,
    "lng": -122.2707465
  }
]