[
  {
    "id": "110001153",
    "name": "BENICIA DIALYSIS",
    "npi": "1427022797",
    "hcaiId": "306484031",
    "businessName": "DVA RENAL HEALTHCARE, INC.",
    "contactEmail": "CAL_C@DAVITA.COM",
    "categoryName": "CHRONIC DIALYSIS CLINIC",
    "categoryCode": "ESRD/CDC",
    "licenseStatus": "ACTIVE",
    "inService": true,
    "licenseNumber": "110000442",
    "licenseEffectiveDate": "04/09/2025",
    "licenseExpirationDate": "04/08/2026",
    "dataDate": "10/18/2025",
    "capacity": 14,
    "address": "560 1ST ST, BUILDING D # 103",
    "city": "BENICIA",
    "zip": "94510",
    "county": "SOLANO",
    "phone": "(707) 745-1488",
    "lat": 38.048436,
    "lng": -122.1592185
  },
  {
    "id": "630013219",
    "name": "DELTA BAY SURGERY CENTER",
    "npi": "1720300312",
    "hcaiId": null,
    "businessName": null,
    "contactEmail": null,
    "categoryName": "SURGICAL CLINIC",
    "categoryCode": "ASC",
    "licenseStatus": null,
    "inService": null,
    "licenseNumber": null,
    "licenseEffectiveDate": null,
    "licenseExpirationDate": null,
    "dataDate": "10/18/2025",
    "capacity": 0,
    "address": "1208 E 5TH ST, SUITE 200",
    "city": "BENICIA",
    "zip": "94510",
    "county": "SOLANO",
    "phone": null,
    "lat": 38.050227,
    "lng": -122.1469875
  },
  {
    "id": "140001034",
    "name": "DONNA J. SESLAR",
    "npi": null,
    "hcaiId": null,
    "businessName": null,
    "contactEmail": null,
    "categoryName": "OTHER",
    "categoryCode": "UNLICEN",
    "licenseStatus": null,
    "inService": null,
    "licenseNumber": null,
    "licenseEffectiveDate": null,
    "licenseExpirationDate": null,
    "dataDate": "10/18/2025",
    "capacity": 0,
    "address": "940 ADAMS ST, SUITE A",
    "city": "BENICIA",
    "zip": "94510",
    "county": "SOLANO",
    "phone": "(707) 746-5527",
    "lat": 38.046996,
    "lng": -122.1372315
  },
  {
    "id": "140001033",
    "name": "SUSAN SONODA",
    "npi": null,
    "hcaiId": null,
    "businessName": null,
    "contactEmail": null,
    "categoryName": "OTHER",
    "categoryCode": "UNLICEN",
    "licenseStatus": null,
    "inService": null,
    "licenseNumber": null,
    "licenseEffectiveDate": null,
    "licenseExpirationDate": null,
    "dataDate": "10/18/2025",
    "capacity": 0,
    "address": "940 ADAMS ST, SUITE A",
    "city": "BENICIA",
    "zip": "94510",
    "county": "SOLANO",
    "phone": "(707) 746-5527",
    "lat": 38.046996,
    "lng": -122.1372315
  }
]