[
  {
    "id": "630015387",
    "name": "AMAVI HOME HEALTH AND HOSPICE CARE SERVICES, INC.",
    "npi": "1669887592",
    "hcaiId": "406074181",
    "businessName": "AMAVI HOME HEALTH AND HOSPICE CARE SERVICES, INC.",
    "contactEmail": "REGGIE.AMAVIHHHCARE@GMAIL.COM",
    "categoryName": "HOME HEALTH AGENCY",
    "categoryCode": "HHA",
    "licenseStatus": "ACTIVE",
    "inService": true,
    "licenseNumber": "550002938",
    "licenseEffectiveDate": "01/07/2025",
    "licenseExpirationDate": "01/06/2026",
    "dataDate": "10/18/2025",
    "capacity": 0,
    "address": "131 SAND CREEK RD, UNIT J",
    "city": "BRENTWOOD",
    "zip": "94513",
    "county": "CONTRA COSTA",
    "phone": "(925) 684-7878",
    "lat": 37.947177,
    "lng": -121.698972
  },
  {
    "id": "630015410",
    "name": "AMAVI HOME HEALTH AND HOSPICE CARE SERVICES, INC.",
    "npi": "1467867523",
    "hcaiId": "406074193",
    "businessName": "AMAVI HOME HEALTH AND HOSPICE CARE SERVICES, INC.",
    "contactEmail": "REGGIE.AMAVIHHHCARE@GMAIL.COM",
    "categoryName": "HOSPICE",
    "categoryCode": "HOSPICE",
    "licenseStatus": "ACTIVE",
    "inService": true,
    "licenseNumber": "550002939",
    "licenseEffectiveDate": "01/07/2025",
    "licenseExpirationDate": "01/06/2027",
    "dataDate": "10/18/2025",
    "capacity": 0,
    "address": "131 SAND CREEK RD, UNIT K",
    "city": "BRENTWOOD",
    "zip": "94513",
    "county": "CONTRA COSTA",
    "phone": "(925) 684-7979",
    "lat": 37.947204,
    "lng": -121.69899
  },
  {
    "id": "630026098",
    "name": "ATRIUM HOME HEALTH, LLC",
    "npi": null,
    "hcaiId": null,
    "businessName": "ATRIUM HOME HEALTH, LLC",
    "contactEmail": "DULCE.NIDUAZA@ATRIUMHOSPICE.COM",
    "categoryName": "HOME HEALTH AGENCY",
    "categoryCode": "HHA",
    "licenseStatus": "ACTIVE",
    "inService": true,
    "licenseNumber": "550009841",
    "licenseEffectiveDate": "05/29/2025",
    "licenseExpirationDate": "11/28/2025",
    "dataDate": "10/18/2025",
    "capacity": 0,
    "address": "144 CONTINENTE AVE, SUITE 200",
    "city": "BRENTWOOD",
    "zip": "94513",
    "county": "CONTRA COSTA",
    "phone": "(925) 450-9200",
    "lat": 37.921527,
    "lng": -121.6976895
  },
  {
    "id": "630019900",
    "name": "ATRIUM HOSPICE LLC",
    "npi": null,
    "hcaiId": "406073237",
    "businessName": "ATRIUM HOSPICE LLC",
    "contactEmail": "ATRIUMHOSPICE@YAHOO.COM",
    "categoryName": "HOSPICE",
    "categoryCode": "HOSPICE",
    "licenseStatus": "ACTIVE",
    "inService": true,
    "licenseNumber": "550006134",
    "licenseEffectiveDate": "03/13/2025",
    "licenseExpirationDate": "03/12/2027",
    "dataDate": "10/18/2025",
    "capacity": 0,
    "address": "144 CONTINENTE AVE, SUITE 130",
    "city": "BRENTWOOD",
    "zip": "94513",
    "county": "CONTRA COSTA",
    "phone": "(925) 219-2250",
    "lat": 37.921491,
    "lng": -121.697838
  },
  {
    "id": "630010959",
    "name": "BRENTWOOD SURGERY CENTER",
    "npi": "1982620522",
    "hcaiId": "306074127",
    "businessName": "BRENTWOOD SURGERY CENTER, LLC",
    "contactEmail": "ALUCKHARDT@NSHINC.COM",
    "categoryName": "SURGICAL CLINIC",
    "categoryCode": "ASC",
    "licenseStatus": "INACTIVE - CAPEN DECISION",
    "inService": false,
    "licenseNumber": "550000304",
    "licenseEffectiveDate": "11/10/2009",
    "licenseExpirationDate": "11/09/2010",
    "dataDate": "10/18/2025",
    "capacity": 0,
    "address": "2400 BALFOUR ROAD, SUITE 320",
    "city": "BRENTWOOD",
    "zip": "94513",
    "county": "CONTRA COSTA",
    "phone": "(925) 626-9000",
    "lat": 37.92514454,
    "lng": -121.736596
  },
  {
    "id": "630018299",
    "name": "CARING HEART HOSPICE INC",
    "npi": "1003390618",
    "hcaiId": "406070022",
    "businessName": "CARING HEART HOSPICE INC",
    "contactEmail": "DTCARINGHEART@GMAIL.COM",
    "categoryName": "HOSPICE",
    "categoryCode": "HOSPICE",
    "licenseStatus": "ACTIVE",
    "inService": true,
    "licenseNumber": "550004849",
    "licenseEffectiveDate": "08/02/2025",
    "licenseExpirationDate": "08/01/2027",
    "dataDate": "10/18/2025",
    "capacity": 0,
    "address": "191 SAND CREEK RD, SUITE 225",
    "city": "BRENTWOOD",
    "zip": "94513",
    "county": "CONTRA COSTA",
    "phone": "(510) 677-1833",
    "lat": 37.94724,
    "lng": -121.700286
  },
  {
    "id": "140001305",
    "name": "FRESENIUS MEDICAL CARE DIABLO BRENTWOOD",
    "npi": "1881849529",
    "hcaiId": "306074101",
    "businessName": "FRESENIUS MEDICAL CARE DIABLO NEPHROLOGY CLINICS, LLC",
    "contactEmail": "CLINIC6787@FMC-NA.COM",
    "categoryName": "CHRONIC DIALYSIS CLINIC",
    "categoryCode": "ESRD/CDC",
    "licenseStatus": "ACTIVE",
    "inService": true,
    "licenseNumber": "140000673",
    "licenseEffectiveDate": "12/01/2024",
    "licenseExpirationDate": "11/30/2025",
    "dataDate": "10/18/2025",
    "capacity": 25,
    "address": "4510 OHARA AVENUE, SUITE B",
    "city": "BRENTWOOD",
    "zip": "94513",
    "county": "CONTRA COSTA",
    "phone": "(925) 513-7135",
    "lat": 37.938618,
    "lng": -121.700475
  },
  {
    "id": "630019090",
    "name": "GRACE AND GLORY HOSPICE, INC.",
    "npi": "1811552680",
    "hcaiId": "406072710",
    "businessName": "GRACE AND GLORY HOSPICE, INC.",
    "contactEmail": "JANEPORTER7@GMAIL.COM",
    "categoryName": "HOSPICE",
    "categoryCode": "HOSPICE",
    "licenseStatus": "ACTIVE",
    "inService": true,
    "licenseNumber": "550005510",
    "licenseEffectiveDate": "06/01/2024",
    "licenseExpirationDate": "05/31/2026",
    "dataDate": "10/18/2025",
    "capacity": 0,
    "address": "2145 ELKINS WAY, SUITE A",
    "city": "BRENTWOOD",
    "zip": "94513",
    "county": "CONTRA COSTA",
    "phone": "(650) 898-5784",
    "lat": 37.95687701,
    "lng": -121.689249
  },
  {
    "id": "630024470",
    "name": "HOME HEALTH OF ST CAMILLUS LLC",
    "npi": null,
    "hcaiId": null,
    "businessName": "HOME HEALTH OF ST CAMILLUS LLC",
    "contactEmail": "HHSTCAMILLUS@GMAIL.COM",
    "categoryName": "HOME HEALTH AGENCY",
    "categoryCode": "HHA",
    "licenseStatus": "ACTIVE",
    "inService": true,
    "licenseNumber": "550008610",
    "licenseEffectiveDate": "06/01/2025",
    "licenseExpirationDate": "05/31/2026",
    "dataDate": "10/18/2025",
    "capacity": 0,
    "address": "50 SAND CREEK RD, SUITE 236",
    "city": "BRENTWOOD",
    "zip": "94513",
    "county": "CONTRA COSTA",
    "phone": "(925) 270-5977",
    "lat": 37.946052,
    "lng": -121.6972215
  },
  {
    "id": "630012120",
    "name": "JMJ HOME HEALTH SERVICES",
    "npi": "1184777344",
    "hcaiId": "406074139",
    "businessName": "JMJ HEALTHCARE, INC.",
    "contactEmail": "SLEAL@JMJHOMEHEALTH.COM",
    "categoryName": "HOME HEALTH AGENCY",
    "categoryCode": "HHA",
    "licenseStatus": "ACTIVE",
    "inService": true,
    "licenseNumber": "550001106",
    "licenseEffectiveDate": "11/13/2025",
    "licenseExpirationDate": "11/12/2026",
    "dataDate": "10/18/2025",
    "capacity": 0,
    "address": "8640 BRENTWOOD BLVD, SUITE D",
    "city": "BRENTWOOD",
    "zip": "94513",
    "county": "CONTRA COSTA",
    "phone": "(925) 634-1100",
    "lat": 37.926498,
    "lng": -121.691422
  },
  {
    "id": "630020201",
    "name": "JMJ HOSPICE CARE, INC.",
    "npi": null,
    "hcaiId": "406075222",
    "businessName": "JMJ HOSPICE CARE, INC.",
    "contactEmail": "JMJ@JMJHOSPICECARE.COM",
    "categoryName": "HOSPICE",
    "categoryCode": "HOSPICE",
    "licenseStatus": "ACTIVE",
    "inService": true,
    "licenseNumber": "550007555",
    "licenseEffectiveDate": "12/17/2023",
    "licenseExpirationDate": "12/16/2025",
    "dataDate": "10/18/2025",
    "capacity": 0,
    "address": "8640 BRENTWOOD BLVD, SUITE D1",
    "city": "BRENTWOOD",
    "zip": "94513",
    "county": "CONTRA COSTA",
    "phone": "(925) 392-8536",
    "lat": 37.92651103,
    "lng": -121.6913933
  },
  {
    "id": "630013525",
    "name": "NOVA HEALTH CARE AT HOME",
    "npi": "1477823243",
    "hcaiId": "406074158",
    "businessName": "NOVA CARE HOME HEALTH SERVICES, INC",
    "contactEmail": "NOVACAREHHS@YAHOO.COM",
    "categoryName": "HOME HEALTH AGENCY",
    "categoryCode": "HHA",
    "licenseStatus": "ACTIVE",
    "inService": true,
    "licenseNumber": "550001968",
    "licenseEffectiveDate": "06/13/2025",
    "licenseExpirationDate": "06/12/2026",
    "dataDate": "10/18/2025",
    "capacity": 0,
    "address": "181 SAND CREEK RD, SUITE B",
    "city": "BRENTWOOD",
    "zip": "94513",
    "county": "CONTRA COSTA",
    "phone": "(925) 240-2334",
    "lat": 37.947546,
    "lng": -121.699962
  }
]