[
  {
    "id": "140000136",
    "name": "CONCORD POST ACUTE",
    "npi": "1396813465",
    "hcaiId": "206073625",
    "businessName": "LIME RIDGE HEALTHCARE LLC",
    "contactEmail": "FORREST.ALLEN@SANMIGUELPA.COM",
    "categoryName": "SKILLED NURSING FACILITY",
    "categoryCode": "SNF",
    "licenseStatus": "ACTIVE",
    "inService": true,
    "licenseNumber": "140000186",
    "licenseEffectiveDate": "11/29/2024",
    "licenseExpirationDate": "11/28/2025",
    "dataDate": "10/18/2025",
    "capacity": 190,
    "address": "1050 SAN MIGUEL ROAD",
    "city": "CONCORD",
    "zip": "94518",
    "county": "CONTRA COSTA",
    "phone": "(925) 825-4280",
    "lat": 37.95759,
    "lng": -122.025681
  },
  {
    "id": "630024859",
    "name": "CONTRA COSTA MOBILE TESTING & VACCINATION",
    "npi": "1538181482",
    "hcaiId": null,
    "businessName": "LA CLINICA DE LA RAZA, INC.",
    "contactEmail": "CSZETO@LACLINICA.ORG",
    "categoryName": "PRIMARY CARE CLINIC",
    "categoryCode": "COMTYC",
    "licenseStatus": "ACTIVE",
    "inService": true,
    "licenseNumber": "140000677",
    "licenseEffectiveDate": "12/01/2024",
    "licenseExpirationDate": "11/30/2025",
    "dataDate": "10/18/2025",
    "capacity": 0,
    "address": "2000 SIERRA RD",
    "city": "CONCORD",
    "zip": "94518",
    "county": "CONTRA COSTA",
    "phone": "(510) 205-2141",
    "lat": 37.952208,
    "lng": -122.0368275
  },
  {
    "id": "630018577",
    "name": "DOCTOR'S PREFERRED HOME HEALTH INC.",
    "npi": null,
    "hcaiId": "406077423",
    "businessName": "DOCTOR'S PREFERRED HOME HEALTH INC.",
    "contactEmail": "DOCTORSPREFERREDHOMEHEALTH@GMAIL.COM",
    "categoryName": "HOME HEALTH AGENCY",
    "categoryCode": "HHA",
    "licenseStatus": "ACTIVE",
    "inService": true,
    "licenseNumber": "550005835",
    "licenseEffectiveDate": "10/07/2025",
    "licenseExpirationDate": "10/06/2026",
    "dataDate": "10/18/2025",
    "capacity": 0,
    "address": "4415 COWELL RD, SUITE 141",
    "city": "CONCORD",
    "zip": "94518",
    "county": "CONTRA COSTA",
    "phone": "(888) 447-0407",
    "lat": 37.950372,
    "lng": -121.9962195
  },
  {
    "id": "630017659",
    "name": "FRESENIUS KIDNEY CARE, SAN MIGUEL",
    "npi": null,
    "hcaiId": "306070424",
    "businessName": "FRESENIUS MEDICAL CARE DIABLO NEPHROLOGY CLINICS, LLC",
    "contactEmail": "CLINIC100044@FMC-NA.COM",
    "categoryName": "CHRONIC DIALYSIS CLINIC",
    "categoryCode": "ESRD/CDC",
    "licenseStatus": "ACTIVE",
    "inService": true,
    "licenseNumber": "550004562",
    "licenseEffectiveDate": "02/07/2025",
    "licenseExpirationDate": "02/06/2026",
    "dataDate": "10/18/2025",
    "capacity": 25,
    "address": "2731 SYSTRON DR",
    "city": "CONCORD",
    "zip": "94518",
    "county": "CONTRA COSTA",
    "phone": "(925) 676-6404",
    "lat": 37.96500271,
    "lng": -122.0287992
  },
  {
    "id": "140001336",
    "name": "HAPPY VALLEY #2",
    "npi": "1427183938",
    "hcaiId": null,
    "businessName": null,
    "contactEmail": "HAPPY2V@COMCAST.NET",
    "categoryName": "INTERMEDIATE CARE FACILITY-DD/H/N/CN/IID",
    "categoryCode": "ICFDDH",
    "licenseStatus": "ACTIVE",
    "inService": true,
    "licenseNumber": "140000689",
    "licenseEffectiveDate": "06/19/2025",
    "licenseExpirationDate": "06/18/2026",
    "dataDate": "10/18/2025",
    "capacity": 6,
    "address": "3737 BARRINGTON DRIVE",
    "city": "CONCORD",
    "zip": "94518",
    "county": "CONTRA COSTA",
    "phone": "(925) 381-1465",
    "lat": 37.965096,
    "lng": -122.009553
  },
  {
    "id": "140001350",
    "name": "HAPPY VALLEY #5",
    "npi": "1033244108",
    "hcaiId": null,
    "businessName": null,
    "contactEmail": "HAPPY2V@COMCAST.NET",
    "categoryName": "INTERMEDIATE CARE FACILITY-DD/H/N/CN/IID",
    "categoryCode": "ICFDDH",
    "licenseStatus": "ACTIVE",
    "inService": true,
    "licenseNumber": "140000696",
    "licenseEffectiveDate": "04/01/2025",
    "licenseExpirationDate": "03/31/2026",
    "dataDate": "10/18/2025",
    "capacity": 6,
    "address": "1200 SAINT ELIZABETH CT",
    "city": "CONCORD",
    "zip": "94518",
    "county": "CONTRA COSTA",
    "phone": "(925) 944-1222",
    "lat": 37.962729,
    "lng": -122.010561
  },
  {
    "id": "140001362",
    "name": "HAPPY VALLEY #6",
    "npi": "1225173958",
    "hcaiId": null,
    "businessName": null,
    "contactEmail": "HAPPYV.ALINATOMA@YAHOO.COM",
    "categoryName": "INTERMEDIATE CARE FACILITY-DD/H/N/CN/IID",
    "categoryCode": "ICFDDH",
    "licenseStatus": "ACTIVE",
    "inService": true,
    "licenseNumber": "140000702",
    "licenseEffectiveDate": "12/20/2024",
    "licenseExpirationDate": "12/19/2025",
    "dataDate": "10/18/2025",
    "capacity": 6,
    "address": "2885 LANE DR",
    "city": "CONCORD",
    "zip": "94518",
    "county": "CONTRA COSTA",
    "phone": "(925) 944-1222",
    "lat": 37.952307,
    "lng": -122.023998
  },
  {
    "id": "140001311",
    "name": "LA CLINICA MONUMENT",
    "npi": "1538181482",
    "hcaiId": "306074159",
    "businessName": "LA CLINICA DE LA RAZA, INC.",
    "contactEmail": "VACOMPEAN@LACLINICA.ORG",
    "categoryName": "PRIMARY CARE CLINIC",
    "categoryCode": "COMTYC",
    "licenseStatus": "ACTIVE",
    "inService": true,
    "licenseNumber": "140000677",
    "licenseEffectiveDate": "12/01/2024",
    "licenseExpirationDate": "11/30/2025",
    "dataDate": "10/18/2025",
    "capacity": 0,
    "address": "2000 SIERRA RD",
    "city": "CONCORD",
    "zip": "94518",
    "county": "CONTRA COSTA",
    "phone": "(510) 535-2906",
    "lat": 37.952208,
    "lng": -122.0368275
  },
  {
    "id": "630014673",
    "name": "MD CHOICE HOSPICE INC",
    "npi": "1871920587",
    "hcaiId": "406073026",
    "businessName": "MD CHOICE HOSPICE INC",
    "contactEmail": "MDCHOICEHOSPICE@YAHOO.COM",
    "categoryName": "HOSPICE",
    "categoryCode": "HOSPICE",
    "licenseStatus": "ACTIVE",
    "inService": true,
    "licenseNumber": "550002967",
    "licenseEffectiveDate": "01/16/2025",
    "licenseExpirationDate": "01/15/2027",
    "dataDate": "10/18/2025",
    "capacity": 0,
    "address": "4415 COWELL RD, SUITE 140",
    "city": "CONCORD",
    "zip": "94518",
    "county": "CONTRA COSTA",
    "phone": "(888) 670-0848",
    "lat": 37.950354,
    "lng": -121.9962105
  }
]