[
  {
    "id": "140000702",
    "name": "AB 3632 PROGRAM CONTRA COSTA COUNTY",
    "npi": null,
    "hcaiId": null,
    "businessName": null,
    "contactEmail": null,
    "categoryName": "OTHER",
    "categoryCode": "UNLICEN",
    "licenseStatus": null,
    "inService": null,
    "licenseNumber": null,
    "licenseEffectiveDate": null,
    "licenseExpirationDate": null,
    "dataDate": "10/18/2025",
    "capacity": 0,
    "address": "2425 BISSO LN, SUITE 280",
    "city": "CONCORD",
    "zip": "94520",
    "county": "CONTRA COSTA",
    "phone": "(415) 646-5667",
    "lat": 37.98414,
    "lng": -122.047119
  },
  {
    "id": "630027508",
    "name": "ANCHOR HEALTH LLC",
    "npi": null,
    "hcaiId": null,
    "businessName": "ANCHOR HEALTH LLC",
    "contactEmail": "CRISTIKEITH@ANCHORHCP.COM",
    "categoryName": "HOSPICE",
    "categoryCode": "HOSPICE",
    "licenseStatus": "ACTIVE",
    "inService": true,
    "licenseNumber": "550006165",
    "licenseEffectiveDate": "09/10/2025",
    "licenseExpirationDate": "04/05/2027",
    "dataDate": "10/18/2025",
    "capacity": 0,
    "address": "1850 GATEWAY BLVD, SUITE 230",
    "city": "CONCORD",
    "zip": "94520",
    "county": "CONTRA COSTA",
    "phone": "(415) 598-0944",
    "lat": 37.97194201,
    "lng": -122.042287
  },
  {
    "id": "140000023",
    "name": "BAYBERRY SKILLED NURSING & HEALTHCARE CENTER",
    "npi": "1225554645",
    "hcaiId": "206070896",
    "businessName": "GHC OF CONTRA COSTA, LLC",
    "contactEmail": "PRABJOTKAURDHADDEY@LIFEGEN.NET",
    "categoryName": "SKILLED NURSING FACILITY",
    "categoryCode": "SNF",
    "licenseStatus": "ACTIVE",
    "inService": true,
    "licenseNumber": "140000071",
    "licenseEffectiveDate": "10/29/2025",
    "licenseExpirationDate": "10/28/2026",
    "dataDate": "10/18/2025",
    "capacity": 99,
    "address": "1800 ADOBE STREET",
    "city": "CONCORD",
    "zip": "94520",
    "county": "CONTRA COSTA",
    "phone": "(925) 825-1300",
    "lat": 37.976877,
    "lng": -122.038794
  },
  {
    "id": "140000812",
    "name": "CENTER FOR ELDERS INDEPENDENCE",
    "npi": null,
    "hcaiId": "306070655",
    "businessName": "CENTER FOR ELDERS' INDEPENDENCE",
    "contactEmail": "QI@CEI.ELDERS.ORG",
    "categoryName": "PRIMARY CARE CLINIC",
    "categoryCode": "COMTYC",
    "licenseStatus": "ACTIVE",
    "inService": true,
    "licenseNumber": "140000401",
    "licenseEffectiveDate": "11/01/2025",
    "licenseExpirationDate": "10/31/2026",
    "dataDate": "10/18/2025",
    "capacity": 0,
    "address": "1465 CIVIC CT",
    "city": "CONCORD",
    "zip": "94520",
    "county": "CONTRA COSTA",
    "phone": "(510) 433-1150",
    "lat": 37.972323,
    "lng": -122.0494005
  },
  {
    "id": "140001374",
    "name": "CONCORD DIALYSIS CENTER",
    "npi": "1013978469",
    "hcaiId": "306070020",
    "businessName": "RENAL TREATMENT CENTERS - CALIFORNIA, INC.",
    "contactEmail": "CAL_C@DAVITA.COM",
    "categoryName": "CHRONIC DIALYSIS CLINIC",
    "categoryCode": "ESRD/CDC",
    "licenseStatus": "ACTIVE",
    "inService": true,
    "licenseNumber": "140000712",
    "licenseEffectiveDate": "11/06/2025",
    "licenseExpirationDate": "11/05/2026",
    "dataDate": "10/18/2025",
    "capacity": 43,
    "address": "1225 WILLOW PASS RD",
    "city": "CONCORD",
    "zip": "94520",
    "county": "CONTRA COSTA",
    "phone": "(925) 633-7011",
    "lat": 37.968179,
    "lng": -122.053875
  },
  {
    "id": "140000700",
    "name": "CONCORD SOCIAL ACTIVITY CENTER",
    "npi": null,
    "hcaiId": null,
    "businessName": null,
    "contactEmail": null,
    "categoryName": "OTHER",
    "categoryCode": "UNLICEN",
    "licenseStatus": null,
    "inService": null,
    "licenseNumber": null,
    "licenseEffectiveDate": null,
    "licenseExpirationDate": null,
    "dataDate": "10/18/2025",
    "capacity": 0,
    "address": "2290 WILLOW PASS RD",
    "city": "CONCORD",
    "zip": "94520",
    "county": "CONTRA COSTA",
    "phone": "(925) 671-3307",
    "lat": 37.977246,
    "lng": -122.0319315
  },
  {
    "id": "630015700",
    "name": "CONTINUUM CARE HOSPICE LLC",
    "npi": "1467859900",
    "hcaiId": "406075552",
    "businessName": "CONTINUUM CARE HOSPICE LLC",
    "contactEmail": "JILLHEIFETZ@CONTINUUMHOSPICE.COM",
    "categoryName": "HOSPICE",
    "categoryCode": "HOSPICE",
    "licenseStatus": "ACTIVE",
    "inService": true,
    "licenseNumber": "550003034",
    "licenseEffectiveDate": "04/09/2025",
    "licenseExpirationDate": "04/08/2027",
    "dataDate": "10/18/2025",
    "capacity": 0,
    "address": "1001 GALAXY WAY, SUITE 206",
    "city": "CONCORD",
    "zip": "94520",
    "county": "CONTRA COSTA",
    "phone": "(510) 560-2012",
    "lat": 37.973997,
    "lng": -122.06115
  },
  {
    "id": "020000685",
    "name": "CORAM CVS/SPECIALTY INFUSION SERVICES",
    "npi": null,
    "hcaiId": "406014028",
    "businessName": "CORAM HEALTHCARE CORPORATION OF NORTHERN CALIFORNIA",
    "contactEmail": "MCLICENSING@CVSCAREMARK.COM",
    "categoryName": "HOME HEALTH AGENCY",
    "categoryCode": "HHA",
    "licenseStatus": "ACTIVE",
    "inService": true,
    "licenseNumber": "020000338",
    "licenseEffectiveDate": "04/29/2025",
    "licenseExpirationDate": "12/18/2025",
    "dataDate": "10/18/2025",
    "capacity": 0,
    "address": "1401 WILLOW PASS RD",
    "city": "CONCORD",
    "zip": "94520",
    "county": "CONTRA COSTA",
    "phone": "(323) 391-5046",
    "lat": 37.97033772,
    "lng": -122.0508986
  },
  {
    "id": "630020170",
    "name": "EDENCARE HOME HEALTH AGENCY",
    "npi": null,
    "hcaiId": "406073146",
    "businessName": "EDENCARE HOME HEALTH AGENCY",
    "contactEmail": "EDENHEALTHSERVICESLLC@GMAIL.COM",
    "categoryName": "HOME HEALTH AGENCY",
    "categoryCode": "HHA",
    "licenseStatus": "ACTIVE",
    "inService": true,
    "licenseNumber": "550006210",
    "licenseEffectiveDate": "04/06/2025",
    "licenseExpirationDate": "04/05/2026",
    "dataDate": "10/18/2025",
    "capacity": 0,
    "address": "2455 BATES AVE, SUITE A",
    "city": "CONCORD",
    "zip": "94520",
    "county": "CONTRA COSTA",
    "phone": "(925) 202-0875",
    "lat": 38.014306,
    "lng": -122.033514
  },
  {
    "id": "630025254",
    "name": "HOME HEALTH BY THE BAY",
    "npi": null,
    "hcaiId": "406077743",
    "businessName": "R2K2 LLC",
    "contactEmail": "ALEX@HOMEHEALTHBYTHEBAY.NET",
    "categoryName": "HOME HEALTH AGENCY",
    "categoryCode": "HHA",
    "licenseStatus": "ACTIVE",
    "inService": true,
    "licenseNumber": "550008603",
    "licenseEffectiveDate": "05/26/2025",
    "licenseExpirationDate": "05/25/2026",
    "dataDate": "10/18/2025",
    "capacity": 0,
    "address": "1850 GATEWAY BLVD, SUITE 200",
    "city": "CONCORD",
    "zip": "94520",
    "county": "CONTRA COSTA",
    "phone": "(925) 948-8700",
    "lat": 37.972035,
    "lng": -122.041962
  },
  {
    "id": "140001030",
    "name": "JANICE H. KING",
    "npi": null,
    "hcaiId": null,
    "businessName": null,
    "contactEmail": null,
    "categoryName": "OTHER",
    "categoryCode": "UNLICEN",
    "licenseStatus": null,
    "inService": null,
    "licenseNumber": null,
    "licenseEffectiveDate": null,
    "licenseExpirationDate": null,
    "dataDate": "10/18/2025",
    "capacity": 0,
    "address": "2485 HIGH SCHOOL AVE, SUITE 211",
    "city": "CONCORD",
    "zip": "94520",
    "county": "CONTRA COSTA",
    "phone": "(925) 685-6551",
    "lat": 37.985256,
    "lng": -122.034312
  },
  {
    "id": "140000832",
    "name": "JOHN MUIR BEHAVIORAL HEALTH CENTER",
    "npi": "1215962782",
    "hcaiId": "106074039",
    "businessName": "JOHN MUIR HEALTH",
    "contactEmail": "MELISSA.CLANCY@JOHNMUIRHEALTH.COM",
    "categoryName": "ACUTE PSYCHIATRIC HOSPITAL",
    "categoryCode": "APH",
    "licenseStatus": "ACTIVE",
    "inService": true,
    "licenseNumber": "140000418",
    "licenseEffectiveDate": "01/01/2025",
    "licenseExpirationDate": "12/31/2025",
    "dataDate": "10/18/2025",
    "capacity": 73,
    "address": "2740 GRANT STREET",
    "city": "CONCORD",
    "zip": "94520",
    "county": "CONTRA COSTA",
    "phone": "(925) 947-3352",
    "lat": 37.98564534,
    "lng": -122.0384597
  },
  {
    "id": "020000161",
    "name": "JOHN MUIR HOME HEALTH SERVICES",
    "npi": "1437161452",
    "hcaiId": "406073650",
    "businessName": "JOHN MUIR HEALTH",
    "contactEmail": "AMBER.TUELLER@PENNANTSERVICES.COM",
    "categoryName": "HOME HEALTH AGENCY",
    "categoryCode": "HHA",
    "licenseStatus": "ACTIVE",
    "inService": true,
    "licenseNumber": "020000208",
    "licenseEffectiveDate": "11/04/2025",
    "licenseExpirationDate": "11/03/2026",
    "dataDate": "10/18/2025",
    "capacity": 0,
    "address": "2298 PIKE COURT",
    "city": "CONCORD",
    "zip": "94520",
    "county": "CONTRA COSTA",
    "phone": "(208) 369-7608",
    "lat": 38.010483,
    "lng": -122.033898
  },
  {
    "id": "140000196",
    "name": "JOHN MUIR MEDICAL CENTER-CONCORD CAMPUS",
    "npi": "1801821376",
    "hcaiId": "106071018",
    "businessName": "JOHN MUIR HEALTH",
    "contactEmail": "MELISSA.CLANCY@JOHNMUIRHEALTH.COM",
    "categoryName": "GENERAL ACUTE CARE HOSPITAL",
    "categoryCode": "GACH",
    "licenseStatus": "ACTIVE",
    "inService": true,
    "licenseNumber": "140000128",
    "licenseEffectiveDate": "01/01/2025",
    "licenseExpirationDate": "12/31/2025",
    "dataDate": "10/18/2025",
    "capacity": 276,
    "address": "2540 EAST STREET",
    "city": "CONCORD",
    "zip": "94520",
    "county": "CONTRA COSTA",
    "phone": "(925) 947-3352",
    "lat": 37.98355222,
    "lng": -122.0346165
  },
  {
    "id": "140001110",
    "name": "JOSEPH STARR",
    "npi": null,
    "hcaiId": null,
    "businessName": null,
    "contactEmail": null,
    "categoryName": "OTHER",
    "categoryCode": "UNLICEN",
    "licenseStatus": null,
    "inService": null,
    "licenseNumber": null,
    "licenseEffectiveDate": null,
    "licenseExpirationDate": null,
    "dataDate": "10/18/2025",
    "capacity": 0,
    "address": "2485 HIGH SCHOOL AVE, SUITE 211",
    "city": "CONCORD",
    "zip": "94520",
    "county": "CONTRA COSTA",
    "phone": "(510) 999-9999",
    "lat": 37.985256,
    "lng": -122.034312
  },
  {
    "id": "630023948",
    "name": "LA CLINICA MARKET PLACE TESTING & VACCINATION SITE",
    "npi": "1538181482",
    "hcaiId": null,
    "businessName": "LA CLINICA DE LA RAZA, INC.",
    "contactEmail": "CSZETO@LACLINICA.ORG",
    "categoryName": "PRIMARY CARE CLINIC",
    "categoryCode": "COMTYC",
    "licenseStatus": "ACTIVE",
    "inService": true,
    "licenseNumber": "140000677",
    "licenseEffectiveDate": "12/01/2024",
    "licenseExpirationDate": "11/30/2025",
    "dataDate": "10/18/2025",
    "capacity": 0,
    "address": "1611 SOLANO WAY",
    "city": "CONCORD",
    "zip": "94520",
    "county": "CONTRA COSTA",
    "phone": "(510) 205-2141",
    "lat": 37.999737,
    "lng": -122.0497605
  },
  {
    "id": "630027601",
    "name": "LUXURY NURSE CONCIERGE, LLC",
    "npi": null,
    "hcaiId": null,
    "businessName": "LUXURY NURSE CONCIERGE, LLC",
    "contactEmail": "DORISOBGYN@GMAIL.COM",
    "categoryName": "HOME HEALTH AGENCY",
    "categoryCode": "HHA",
    "licenseStatus": "ACTIVE",
    "inService": true,
    "licenseNumber": "550009650",
    "licenseEffectiveDate": "08/07/2025",
    "licenseExpirationDate": "02/06/2026",
    "dataDate": "10/18/2025",
    "capacity": 0,
    "address": "1800 SUTTER ST, SUITE 500 OFC 17",
    "city": "CONCORD",
    "zip": "94520",
    "county": "CONTRA COSTA",
    "phone": "(925) 384-9559",
    "lat": 37.973809,
    "lng": -122.037449
  },
  {
    "id": "630013676",
    "name": "MARIE STAR HOME HEALTH SERVICES, LLC",
    "npi": "1720345978",
    "hcaiId": "406074161",
    "businessName": "MARIE STAR HOME HEALTH SERVICES, LLC",
    "contactEmail": "MARIESTARHHS@ATT.NET",
    "categoryName": "HOME HEALTH AGENCY",
    "categoryCode": "HHA",
    "licenseStatus": "ACTIVE",
    "inService": true,
    "licenseNumber": "550002108",
    "licenseEffectiveDate": "10/15/2025",
    "licenseExpirationDate": "10/14/2026",
    "dataDate": "10/18/2025",
    "capacity": 0,
    "address": "1849 WILLOW PASS RD, SUITE 306",
    "city": "CONCORD",
    "zip": "94520",
    "county": "CONTRA COSTA",
    "phone": "(925) 691-4981",
    "lat": 37.975509,
    "lng": -122.038191
  },
  {
    "id": "630013986",
    "name": "MISSION HOME HEALTH OF CONTRA COSTA",
    "npi": "1538411632",
    "hcaiId": "406074163",
    "businessName": "HEALTHY LIVING AT HOME - EAST BAY, LLC",
    "contactEmail": "RBOLANOS@HEALTHYLIVINGNET.COM",
    "categoryName": "HOME HEALTH AGENCY",
    "categoryCode": "HHA",
    "licenseStatus": "ACTIVE",
    "inService": true,
    "licenseNumber": "550002198",
    "licenseEffectiveDate": "08/19/2025",
    "licenseExpirationDate": "08/18/2026",
    "dataDate": "10/18/2025",
    "capacity": 0,
    "address": "1320 WILLOW PASS RD, SUITE 555",
    "city": "CONCORD",
    "zip": "94520",
    "county": "CONTRA COSTA",
    "phone": "(925) 222-4230",
    "lat": 37.967976,
    "lng": -122.051232
  },
  {
    "id": "630021707",
    "name": "OPTIONS HEALTH",
    "npi": null,
    "hcaiId": null,
    "businessName": "OPTIONS FOR WOMEN OF CALIFORNIA",
    "contactEmail": null,
    "categoryName": "PRIMARY CARE CLINIC",
    "categoryCode": "COMTYC",
    "licenseStatus": "ACTIVE",
    "inService": true,
    "licenseNumber": "140000671",
    "licenseEffectiveDate": "11/20/2025",
    "licenseExpirationDate": "11/19/2026",
    "dataDate": "10/18/2025",
    "capacity": 0,
    "address": "1850 SOLANO WAY",
    "city": "CONCORD",
    "zip": "94520",
    "county": "CONTRA COSTA",
    "phone": null,
    "lat": 37.991106,
    "lng": -122.0496165
  },
  {
    "id": "140000238",
    "name": "PLANNED PARENTHOOD OF CONTRA COSTA - CONCORD CENTER",
    "npi": null,
    "hcaiId": "306073663",
    "businessName": "PLANNED PARENTHOOD: SHASTA-DIABLO, INC.",
    "contactEmail": "KWILLIAMS@PPNORCAL.ORG",
    "categoryName": "PRIMARY CARE CLINIC",
    "categoryCode": "COMTYC",
    "licenseStatus": "ACTIVE",
    "inService": true,
    "licenseNumber": "140000218",
    "licenseEffectiveDate": "11/17/2024",
    "licenseExpirationDate": "11/16/2025",
    "dataDate": "10/18/2025",
    "capacity": 0,
    "address": "2185 PACHECO STREET",
    "city": "CONCORD",
    "zip": "94520",
    "county": "CONTRA COSTA",
    "phone": "(925) 676-0300",
    "lat": 37.979055,
    "lng": -122.034753
  },
  {
    "id": "140000921",
    "name": "PORTIA BELL HUME BEHAVIORAL HEALTH & TRAINING CENTER",
    "npi": null,
    "hcaiId": "306074124",
    "businessName": "PORTIA BELL HUME BEHAVIORAL HEALTH & TRAINING CTR",
    "contactEmail": "LMIAO@HUMECENTER.ORG",
    "categoryName": "PSYCHOLOGY CLINIC",
    "categoryCode": "PSYCHC",
    "licenseStatus": "ACTIVE",
    "inService": true,
    "licenseNumber": "140000460",
    "licenseEffectiveDate": "11/26/2024",
    "licenseExpirationDate": "11/25/2025",
    "dataDate": "10/18/2025",
    "capacity": 0,
    "address": "1333 WILLOW PASS RD, SUITE 102",
    "city": "CONCORD",
    "zip": "94520",
    "county": "CONTRA COSTA",
    "phone": "(925) 825-1793",
    "lat": 37.969776,
    "lng": -122.051943
  },
  {
    "id": "140001303",
    "name": "PREMIER SURGERY CENTER",
    "npi": "1558339424",
    "hcaiId": "306074100",
    "businessName": "LASER SURGERY CENTER, LTD, LP",
    "contactEmail": null,
    "categoryName": "SURGICAL CLINIC",
    "categoryCode": "ASC",
    "licenseStatus": "INACTIVE - CAPEN DECISION",
    "inService": false,
    "licenseNumber": "140000668",
    "licenseEffectiveDate": "11/21/2007",
    "licenseExpirationDate": "11/20/2008",
    "dataDate": "10/18/2025",
    "capacity": 0,
    "address": "2222 EAST ST, SUITE 200",
    "city": "CONCORD",
    "zip": "94520",
    "county": "CONTRA COSTA",
    "phone": null,
    "lat": 37.981359,
    "lng": -122.0323905
  },
  {
    "id": "630022449",
    "name": "ROTACARE BAY AREA MOBILE CLINIC",
    "npi": null,
    "hcaiId": "306070737",
    "businessName": "ROTACARE BAY AREA, INC.",
    "contactEmail": "JATINDERPALS@ROTACAREBAYAREA.ORG",
    "categoryName": "PRIMARY CARE CLINIC",
    "categoryCode": "FREEC",
    "licenseStatus": "ACTIVE",
    "inService": true,
    "licenseNumber": "550006678",
    "licenseEffectiveDate": "07/20/2025",
    "licenseExpirationDate": "07/19/2026",
    "dataDate": "10/18/2025",
    "capacity": 0,
    "address": "550 SALLY RIDE DR",
    "city": "CONCORD",
    "zip": "94520",
    "county": "CONTRA COSTA",
    "phone": "(408) 379-8000",
    "lat": 37.98909393,
    "lng": -122.0609641
  },
  {
    "id": "630020068",
    "name": "SEQUOIA HOSPICE EAST BAY",
    "npi": null,
    "hcaiId": "406013005",
    "businessName": "EDEN LANDING HEALTHCARE LLC",
    "contactEmail": "LICENSING@PENNANTSERVICES.COM",
    "categoryName": "HOSPICE",
    "categoryCode": "HOSPICE",
    "licenseStatus": "ACTIVE",
    "inService": true,
    "licenseNumber": "550005897",
    "licenseEffectiveDate": "11/17/2024",
    "licenseExpirationDate": "11/16/2026",
    "dataDate": "10/18/2025",
    "capacity": 0,
    "address": "1470 CIVIC CT, SUITE 310",
    "city": "CONCORD",
    "zip": "94520",
    "county": "CONTRA COSTA",
    "phone": "(510) 241-0619",
    "lat": 37.971465,
    "lng": -122.049303
  },
  {
    "id": "630019012",
    "name": "SOLACE HOSPICE",
    "npi": null,
    "hcaiId": "406072199",
    "businessName": "AVEEM, INC.",
    "contactEmail": "SOLACEHOSPICE5@GMAIL.COM",
    "categoryName": "HOSPICE",
    "categoryCode": "HOSPICE",
    "licenseStatus": "ACTIVE",
    "inService": true,
    "licenseNumber": "550005210",
    "licenseEffectiveDate": "12/13/2023",
    "licenseExpirationDate": "12/12/2025",
    "dataDate": "10/18/2025",
    "capacity": 0,
    "address": "2520 STANWELL DR, SUITE 100",
    "city": "CONCORD",
    "zip": "94520",
    "county": "CONTRA COSTA",
    "phone": "(925) 692-0012",
    "lat": 37.985004,
    "lng": -122.047686
  },
  {
    "id": "020000706",
    "name": "SUTTER CARE AT HOME",
    "npi": null,
    "hcaiId": "406074070",
    "businessName": "SUTTER VISITING NURSE ASSOCIATION AND HOSPICE",
    "contactEmail": "SVNAHREGULATORY@SUTTERHEALTH.ORG",
    "categoryName": "HOME HEALTH AGENCY",
    "categoryCode": "HHA",
    "licenseStatus": "ACTIVE",
    "inService": true,
    "licenseNumber": "020000158",
    "licenseEffectiveDate": "05/07/2025",
    "licenseExpirationDate": "05/06/2026",
    "dataDate": "10/18/2025",
    "capacity": 0,
    "address": "5099 COMMERCIAL CIRCLE, SUITE 205",
    "city": "CONCORD",
    "zip": "94520",
    "county": "CONTRA COSTA",
    "phone": "(925) 677-4240",
    "lat": 38.020176,
    "lng": -122.031486
  },
  {
    "id": "630012399",
    "name": "SUTTER VISITING NURSE ASSOCIATION AND HOSPICE",
    "npi": null,
    "hcaiId": "406074151",
    "businessName": "SUTTER VISITING NURSE ASSOCIATION AND HOSPICE",
    "contactEmail": null,
    "categoryName": "HOSPICE",
    "categoryCode": "HOSPICE",
    "licenseStatus": "ACTIVE",
    "inService": true,
    "licenseNumber": "550001671",
    "licenseEffectiveDate": "11/11/2025",
    "licenseExpirationDate": "11/10/2027",
    "dataDate": "10/18/2025",
    "capacity": 0,
    "address": "5099 COMMERCIAL CIRCLE, SUITE 210",
    "city": "CONCORD",
    "zip": "94520",
    "county": "CONTRA COSTA",
    "phone": "(925) 363-4120",
    "lat": 38.020176,
    "lng": -122.031486
  },
  {
    "id": "630011143",
    "name": "VISION HOME HEALTH CARE",
    "npi": "1396782751",
    "hcaiId": "406014223",
    "businessName": "EXCELLIFE INC.",
    "contactEmail": "JEM@VISIONHOMEHEALTHCARE.NET",
    "categoryName": "HOME HEALTH AGENCY",
    "categoryCode": "HHA",
    "licenseStatus": "ACTIVE",
    "inService": true,
    "licenseNumber": "550000404",
    "licenseEffectiveDate": "01/29/2025",
    "licenseExpirationDate": "01/28/2026",
    "dataDate": "10/18/2025",
    "capacity": 0,
    "address": "1850 GATEWAY BLVD, SUITE 225",
    "city": "CONCORD",
    "zip": "94520",
    "county": "CONTRA COSTA",
    "phone": "(925) 450-2050",
    "lat": 37.971947,
    "lng": -122.0423
  },
  {
    "id": "630015511",
    "name": "WELLCARE INC",
    "npi": null,
    "hcaiId": "406214062",
    "businessName": "WELLCARE INC",
    "contactEmail": "ERIC@AMERICANCAREQUEST.COM",
    "categoryName": "HOSPICE",
    "categoryCode": "HOSPICE",
    "licenseStatus": "ACTIVE",
    "inService": true,
    "licenseNumber": "550003024",
    "licenseEffectiveDate": "01/21/2025",
    "licenseExpirationDate": "01/20/2027",
    "dataDate": "10/18/2025",
    "capacity": 0,
    "address": "1320 WILLOW PASS RD, SUITE 600",
    "city": "CONCORD",
    "zip": "94520",
    "county": "CONTRA COSTA",
    "phone": "(925) 207-8101",
    "lat": 37.96826601,
    "lng": -122.051402
  },
  {
    "id": "140000662",
    "name": "YOUTH INTERAGENCY ASSESSMENT & CONSULTATION TEAM",
    "npi": null,
    "hcaiId": null,
    "businessName": null,
    "contactEmail": null,
    "categoryName": "OTHER",
    "categoryCode": "UNLICEN",
    "licenseStatus": null,
    "inService": null,
    "licenseNumber": null,
    "licenseEffectiveDate": null,
    "licenseExpirationDate": null,
    "dataDate": "10/18/2025",
    "capacity": 0,
    "address": "2425 BISSO LN, SUITE 225",
    "city": "CONCORD",
    "zip": "94520",
    "county": "CONTRA COSTA",
    "phone": "(925) 646-5240",
    "lat": 37.98414,
    "lng": -122.047119
  }
]