[
  {
    "id": "020001257",
    "name": "ACCENTCARE HOME HEALTH OF CALIFORNIA, INC.",
    "npi": "1396791307",
    "hcaiId": "406074110",
    "businessName": "ACCENTCARE HOME HEALTH OF CALIFORNIA, INC.",
    "contactEmail": "ELVIAGARCIA@ACCENTCARE.COM",
    "categoryName": "HOME HEALTH AGENCY",
    "categoryCode": "HHA",
    "licenseStatus": "ACTIVE",
    "inService": true,
    "licenseNumber": "020000637",
    "licenseEffectiveDate": "12/01/2024",
    "licenseExpirationDate": "11/30/2025",
    "dataDate": "10/18/2025",
    "capacity": 0,
    "address": "2300 CONTRA COSTA BOULEVARD, SUITE 240",
    "city": "PLEASANT HILL",
    "zip": "94523",
    "county": "CONTRA COSTA",
    "phone": "(925) 356-6066",
    "lat": 37.94463,
    "lng": -122.05989
  },
  {
    "id": "020001151",
    "name": "AMEDISYS HOME HEALTH CARE - BRANCH",
    "npi": "1114971280",
    "hcaiId": "406074123",
    "businessName": "TENDER LOVING CARE HEALTH CARE SERVICES WESTERN, LLC",
    "contactEmail": null,
    "categoryName": "HOME HEALTH AGENCY",
    "categoryCode": "HHA",
    "licenseStatus": "ACTIVE",
    "inService": true,
    "licenseNumber": "020000376",
    "licenseEffectiveDate": "11/29/2024",
    "licenseExpirationDate": "11/28/2025",
    "dataDate": "10/18/2025",
    "capacity": 0,
    "address": "3478 BUSKIRK AVENUE, SUITE 336",
    "city": "PLEASANT HILL",
    "zip": "94523",
    "county": "CONTRA COSTA",
    "phone": "(925) 932-3656",
    "lat": 37.939068,
    "lng": -122.057028
  },
  {
    "id": "630019444",
    "name": "ASSIST ON CALL PALLIATIVE & HOSPICE CARE, INC.",
    "npi": null,
    "hcaiId": "406073197",
    "businessName": "ASSIST ON CALL PALLIATIVE & HOSPICE CARE, INC.",
    "contactEmail": "INFO@AOCHOSPICE.COM",
    "categoryName": "HOSPICE",
    "categoryCode": "HOSPICE",
    "licenseStatus": "ACTIVE",
    "inService": true,
    "licenseNumber": "550006247",
    "licenseEffectiveDate": "04/27/2025",
    "licenseExpirationDate": "04/26/2027",
    "dataDate": "10/18/2025",
    "capacity": 0,
    "address": "2100 MONUMENT BLVD, SUITE 8-B",
    "city": "PLEASANT HILL",
    "zip": "94523",
    "county": "CONTRA COSTA",
    "phone": "(925) 969-7634",
    "lat": 37.945458,
    "lng": -122.0526045
  },
  {
    "id": "630014238",
    "name": "ASSIST ON CALL PROFESSIONAL IN-HOME CARE SERVICES, INC.",
    "npi": "1982949053",
    "hcaiId": "406074168",
    "businessName": "ASSIST ON CALL PROFESSIONAL IN-HOME CARE SERVICES, INC.",
    "contactEmail": "INFO@ASSISTONCALLPROF.COM",
    "categoryName": "HOME HEALTH AGENCY",
    "categoryCode": "HHA",
    "licenseStatus": "ACTIVE",
    "inService": true,
    "licenseNumber": "550002456",
    "licenseEffectiveDate": "09/27/2025",
    "licenseExpirationDate": "09/26/2026",
    "dataDate": "10/18/2025",
    "capacity": 0,
    "address": "2100 MONUMENT BOULEVARD, SUITE 8-A",
    "city": "PLEASANT HILL",
    "zip": "94523",
    "county": "CONTRA COSTA",
    "phone": "(925) 969-7634",
    "lat": 37.945458,
    "lng": -122.0526045
  },
  {
    "id": "140000981",
    "name": "FRESENIUS MEDICAL CARE DIABLO CONCORD",
    "npi": "1316192040",
    "hcaiId": "306074057",
    "businessName": "FRESENIUS MEDICAL CARE DIABLO NEPHROLOGY CLINICS, LLC",
    "contactEmail": "CLINIC6783@FMC-NA.COM",
    "categoryName": "CHRONIC DIALYSIS CLINIC",
    "categoryCode": "ESRD/CDC",
    "licenseStatus": "ACTIVE",
    "inService": true,
    "licenseNumber": "140000488",
    "licenseEffectiveDate": "12/01/2024",
    "licenseExpirationDate": "11/30/2025",
    "dataDate": "10/18/2025",
    "capacity": 22,
    "address": "508 CONTRA COSTA BOULEVARD, SUITE D",
    "city": "PLEASANT HILL",
    "zip": "94523",
    "county": "CONTRA COSTA",
    "phone": "(925) 798-8844",
    "lat": 37.980891,
    "lng": -122.0685255
  },
  {
    "id": "630016351",
    "name": "HARMONY HOME HEALTH",
    "npi": "1932579463",
    "hcaiId": "406074190",
    "businessName": "HARMONY HEALTHCARE - EAST BAY, LLC",
    "contactEmail": "MIKE@HARMONYHCARE.COM",
    "categoryName": "HOME HEALTH AGENCY",
    "categoryCode": "HHA",
    "licenseStatus": "ACTIVE",
    "inService": true,
    "licenseNumber": "550003500",
    "licenseEffectiveDate": "05/12/2025",
    "licenseExpirationDate": "05/11/2026",
    "dataDate": "10/18/2025",
    "capacity": 0,
    "address": "140 GREGORY LANE, SUITE 270",
    "city": "PLEASANT HILL",
    "zip": "94523",
    "county": "CONTRA COSTA",
    "phone": "(408) 470-0042",
    "lat": 37.947564,
    "lng": -122.0647725
  },
  {
    "id": "070001234",
    "name": "HOSPICE OF THE EAST BAY",
    "npi": null,
    "hcaiId": "406074116",
    "businessName": "EAST BAY INTEGRATED CARE, INC.",
    "contactEmail": "EMMAB@HOSPICEEASTBAY.ORG",
    "categoryName": "HOSPICE",
    "categoryCode": "HOSPICE",
    "licenseStatus": "ACTIVE",
    "inService": true,
    "licenseNumber": "070000568",
    "licenseEffectiveDate": "11/01/2024",
    "licenseExpirationDate": "10/31/2026",
    "dataDate": "10/18/2025",
    "capacity": 0,
    "address": "3470 BUSKIRK AVENUE",
    "city": "PLEASANT HILL",
    "zip": "94523",
    "county": "CONTRA COSTA",
    "phone": "(925) 887-5678",
    "lat": 37.938924,
    "lng": -122.0587425
  },
  {
    "id": "140000488",
    "name": "JOSEPH STARR",
    "npi": null,
    "hcaiId": null,
    "businessName": null,
    "contactEmail": null,
    "categoryName": "OTHER",
    "categoryCode": "UNLICEN",
    "licenseStatus": null,
    "inService": null,
    "licenseNumber": null,
    "licenseEffectiveDate": null,
    "licenseExpirationDate": null,
    "dataDate": "10/18/2025",
    "capacity": 0,
    "address": "401 GREGORY LN",
    "city": "PLEASANT HILL",
    "zip": "94523",
    "county": "CONTRA COSTA",
    "phone": "(925) 676-6255",
    "lat": 37.94877,
    "lng": -122.0737635
  },
  {
    "id": "140000481",
    "name": "LESLIE W. RADER",
    "npi": null,
    "hcaiId": null,
    "businessName": null,
    "contactEmail": null,
    "categoryName": "OTHER",
    "categoryCode": "UNLICEN",
    "licenseStatus": null,
    "inService": null,
    "licenseNumber": null,
    "licenseEffectiveDate": null,
    "licenseExpirationDate": null,
    "dataDate": "10/18/2025",
    "capacity": 0,
    "address": "401 GREGORY LN",
    "city": "PLEASANT HILL",
    "zip": "94523",
    "county": "CONTRA COSTA",
    "phone": "(925) 676-6255",
    "lat": 37.94877,
    "lng": -122.0737635
  },
  {
    "id": "070001155",
    "name": "MT. DIABLO CENTER FOR ADULT DAY HEALTH CARE",
    "npi": null,
    "hcaiId": null,
    "businessName": "CHOICE IN AGING",
    "contactEmail": "HTILLMAN@CHOICEINAGING.ORG",
    "categoryName": "ADULT DAY HEALTH CARE",
    "categoryCode": "ADHC",
    "licenseStatus": "ACTIVE",
    "inService": true,
    "licenseNumber": "070000503",
    "licenseEffectiveDate": "11/01/2024",
    "licenseExpirationDate": "10/31/2025",
    "dataDate": "10/18/2025",
    "capacity": 0,
    "address": "490 GOLF CLUB RD",
    "city": "PLEASANT HILL",
    "zip": "94523",
    "county": "CONTRA COSTA",
    "phone": "(925) 982-6330",
    "lat": 37.974501,
    "lng": -122.072859
  },
  {
    "id": "140000569",
    "name": "OAK PARK SCHOOL",
    "npi": null,
    "hcaiId": null,
    "businessName": null,
    "contactEmail": null,
    "categoryName": "OTHER",
    "categoryCode": "UNLICEN",
    "licenseStatus": null,
    "inService": null,
    "licenseNumber": null,
    "licenseEffectiveDate": null,
    "licenseExpirationDate": null,
    "dataDate": "10/18/2025",
    "capacity": 0,
    "address": "1700 OAK PARK BLVD",
    "city": "PLEASANT HILL",
    "zip": "94523",
    "county": "CONTRA COSTA",
    "phone": "(925) 930-7994",
    "lat": 37.93464,
    "lng": -122.068728
  },
  {
    "id": "140000096",
    "name": "PLEASANT HILL POST ACUTE",
    "npi": "1558717579",
    "hcaiId": "206071028",
    "businessName": "PLEASANT HILLIDENCE OPCO, LLC",
    "contactEmail": "MATT.HADLEY@SHADELANDS.COM",
    "categoryName": "SKILLED NURSING FACILITY",
    "categoryCode": "SNF",
    "licenseStatus": "ACTIVE",
    "inService": true,
    "licenseNumber": "140000130",
    "licenseEffectiveDate": "05/31/2025",
    "licenseExpirationDate": "05/30/2026",
    "dataDate": "10/18/2025",
    "capacity": 51,
    "address": "1625 OAK PARK BOULEVARD",
    "city": "PLEASANT HILL",
    "zip": "94523",
    "county": "CONTRA COSTA",
    "phone": "(925) 935-5222",
    "lat": 37.932858,
    "lng": -122.0633505
  },
  {
    "id": "630014588",
    "name": "REHABCARE",
    "npi": null,
    "hcaiId": null,
    "businessName": null,
    "contactEmail": null,
    "categoryName": "REHABILITATION CLINIC",
    "categoryCode": "OPT/SP",
    "licenseStatus": null,
    "inService": null,
    "licenseNumber": null,
    "licenseEffectiveDate": null,
    "licenseExpirationDate": null,
    "dataDate": "10/18/2025",
    "capacity": 0,
    "address": "399 TAYLOR BLVD, SUITE 208",
    "city": "PLEASANT HILL",
    "zip": "94523",
    "county": "CONTRA COSTA",
    "phone": "(925) 692-1160",
    "lat": 37.960803,
    "lng": -122.072157
  },
  {
    "id": "140000082",
    "name": "WINDSOR ROSEWOOD CARE CENTER",
    "npi": "1831235290",
    "hcaiId": "206071044",
    "businessName": "WINDSOR ROSEWOOD CARE CENTER, LLC",
    "contactEmail": "ADMINISTRATOR@WINDSORROSEWOOD.COM",
    "categoryName": "SKILLED NURSING FACILITY",
    "categoryCode": "SNF",
    "licenseStatus": "ACTIVE",
    "inService": true,
    "licenseNumber": "140000134",
    "licenseEffectiveDate": "02/13/2025",
    "licenseExpirationDate": "11/28/2025",
    "dataDate": "10/18/2025",
    "capacity": 113,
    "address": "1911 OAK PARK BOULEVARD",
    "city": "PLEASANT HILL",
    "zip": "94523",
    "county": "CONTRA COSTA",
    "phone": "(925) 935-6630",
    "lat": 37.9332,
    "lng": -122.074713
  }
]