[
  {
    "id": "140000492",
    "name": "ARLYN R. VAN DYKE",
    "npi": null,
    "hcaiId": null,
    "businessName": null,
    "contactEmail": null,
    "categoryName": "OTHER",
    "categoryCode": "UNLICEN",
    "licenseStatus": null,
    "inService": null,
    "licenseNumber": null,
    "licenseEffectiveDate": null,
    "licenseExpirationDate": null,
    "dataDate": "10/18/2025",
    "capacity": 0,
    "address": "530 LA GONDA WAY",
    "city": "DANVILLE",
    "zip": "94526",
    "county": "CONTRA COSTA",
    "phone": "(925) 820-0518",
    "lat": 37.831239,
    "lng": -122.004117
  },
  {
    "id": "140000130",
    "name": "DANVILLE POST ACUTE REHABILITATION",
    "npi": "1568447068",
    "hcaiId": "206070935",
    "businessName": "MOUNTAIN VIOLET HEALTHCARE, INC.",
    "contactEmail": "RENEWALS@ENSIGNSERVICES.NET",
    "categoryName": "SKILLED NURSING FACILITY",
    "categoryCode": "SNF",
    "licenseStatus": "ACTIVE",
    "inService": true,
    "licenseNumber": "140000095",
    "licenseEffectiveDate": "03/01/2025",
    "licenseExpirationDate": "11/16/2025",
    "dataDate": "10/18/2025",
    "capacity": 54,
    "address": "336 DIABLO ROAD",
    "city": "DANVILLE",
    "zip": "94526",
    "county": "CONTRA COSTA",
    "phone": "(925) 837-4566",
    "lat": 37.82331,
    "lng": -121.996935
  },
  {
    "id": "630024017",
    "name": "EXCELSIOR SURGERY CENTER LLC",
    "npi": null,
    "hcaiId": null,
    "businessName": null,
    "contactEmail": null,
    "categoryName": "SURGICAL CLINIC",
    "categoryCode": "ASC",
    "licenseStatus": null,
    "inService": null,
    "licenseNumber": null,
    "licenseEffectiveDate": null,
    "licenseExpirationDate": null,
    "dataDate": "10/18/2025",
    "capacity": 0,
    "address": "1320 EL CAPITAN DR, SUITE 120",
    "city": "DANVILLE",
    "zip": "94526",
    "county": "ALAMEDA",
    "phone": null,
    "lat": 37.784259,
    "lng": -121.9668615
  },
  {
    "id": "630014258",
    "name": "EXECUTIVE SURGERY CENTER, INC.",
    "npi": "1952698078",
    "hcaiId": null,
    "businessName": null,
    "contactEmail": null,
    "categoryName": "SURGICAL CLINIC",
    "categoryCode": "ASC",
    "licenseStatus": null,
    "inService": null,
    "licenseNumber": null,
    "licenseEffectiveDate": null,
    "licenseExpirationDate": null,
    "dataDate": "10/18/2025",
    "capacity": 0,
    "address": "1320 EL CAPITAN DR, SUITE 100",
    "city": "DANVILLE",
    "zip": "94526",
    "county": "CONTRA COSTA",
    "phone": "(925) 866-9300",
    "lat": 37.784259,
    "lng": -121.9668615
  },
  {
    "id": "140000474",
    "name": "KELLY MCHUGH",
    "npi": null,
    "hcaiId": null,
    "businessName": null,
    "contactEmail": null,
    "categoryName": "OTHER",
    "categoryCode": "UNLICEN",
    "licenseStatus": null,
    "inService": null,
    "licenseNumber": null,
    "licenseEffectiveDate": null,
    "licenseExpirationDate": null,
    "dataDate": "10/18/2025",
    "capacity": 0,
    "address": "1 HARTZ COURT",
    "city": "DANVILLE",
    "zip": "94526",
    "county": "CONTRA COSTA",
    "phone": "(925) 831-1411",
    "lat": 37.8247758,
    "lng": -122.003215
  },
  {
    "id": "630017650",
    "name": "SAN RAMON VALLEY HOME TRAINING",
    "npi": null,
    "hcaiId": null,
    "businessName": null,
    "contactEmail": "CYNTHIA.HUTCHISON@DAVITA.COM",
    "categoryName": "CHRONIC DIALYSIS CLINIC",
    "categoryCode": "ESRD",
    "licenseStatus": null,
    "inService": null,
    "licenseNumber": null,
    "licenseEffectiveDate": null,
    "licenseExpirationDate": null,
    "dataDate": "10/18/2025",
    "capacity": 0,
    "address": "1320 EL CAPITAN DR, SUITE 210",
    "city": "DANVILLE",
    "zip": "94526",
    "county": "CONTRA COSTA",
    "phone": "(925) 275-9280",
    "lat": 37.784259,
    "lng": -121.9668615
  }
]