[
  {
    "id": "140000062",
    "name": "DIABLO VALLEY POST ACUTE",
    "npi": "1568593473",
    "hcaiId": "206071095",
    "businessName": "CONCORD SNF HEALTHCARE, LLC",
    "contactEmail": "CHAD.KANOW@DIABLOVALLEYPA.COM",
    "categoryName": "SKILLED NURSING FACILITY",
    "categoryCode": "SNF",
    "licenseStatus": "ACTIVE",
    "inService": true,
    "licenseNumber": "140000140",
    "licenseEffectiveDate": "12/26/2024",
    "licenseExpirationDate": "12/25/2025",
    "dataDate": "10/18/2025",
    "capacity": 190,
    "address": "3806 CLAYTON ROAD",
    "city": "CONCORD",
    "zip": "94521",
    "county": "CONTRA COSTA",
    "phone": "(925) 689-2266",
    "lat": 37.967346,
    "lng": -122.0060655
  },
  {
    "id": "140001340",
    "name": "HAPPY VALLEY #3",
    "npi": "1265567333",
    "hcaiId": null,
    "businessName": null,
    "contactEmail": "HAPPY.ALINATOMA@YAHOO.COM",
    "categoryName": "INTERMEDIATE CARE FACILITY-DD/H/N/CN/IID",
    "categoryCode": "ICFDDH",
    "licenseStatus": "ACTIVE",
    "inService": true,
    "licenseNumber": "140000691",
    "licenseEffectiveDate": "11/19/2024",
    "licenseExpirationDate": "11/18/2025",
    "dataDate": "10/18/2025",
    "capacity": 6,
    "address": "4118 PHOENIX ST",
    "city": "CONCORD",
    "zip": "94521",
    "county": "CONTRA COSTA",
    "phone": "(925) 798-1893",
    "lat": 37.970397,
    "lng": -121.992903
  },
  {
    "id": "140001342",
    "name": "HAPPY VALLEY ICF/DD-H #4",
    "npi": "1780729392",
    "hcaiId": null,
    "businessName": null,
    "contactEmail": "HAPPYV.ALINATOMA@YAHOO.COM",
    "categoryName": "INTERMEDIATE CARE FACILITY-DD/H/N/CN/IID",
    "categoryCode": "ICFDDH",
    "licenseStatus": "ACTIVE",
    "inService": true,
    "licenseNumber": "140000692",
    "licenseEffectiveDate": "11/29/2024",
    "licenseExpirationDate": "11/28/2025",
    "dataDate": "10/18/2025",
    "capacity": 6,
    "address": "4160 PHOENIX ST",
    "city": "CONCORD",
    "zip": "94521",
    "county": "CONTRA COSTA",
    "phone": "(925) 348-2630",
    "lat": 37.969452,
    "lng": -121.991652
  },
  {
    "id": "140000733",
    "name": "STONEBROOK POST ACUTE",
    "npi": "1821039678",
    "hcaiId": "206074025",
    "businessName": "MORRO BAY HOLDINGS LLC",
    "contactEmail": "CAMERON@WESTHARBORHC.COM",
    "categoryName": "SKILLED NURSING FACILITY",
    "categoryCode": "SNF",
    "licenseStatus": "ACTIVE",
    "inService": true,
    "licenseNumber": "140000361",
    "licenseEffectiveDate": "11/01/2025",
    "licenseExpirationDate": "05/10/2026",
    "dataDate": "10/18/2025",
    "capacity": 120,
    "address": "4367 CONCORD BOULEVARD",
    "city": "CONCORD",
    "zip": "94521",
    "county": "CONTRA COSTA",
    "phone": "(925) 689-7457",
    "lat": 37.975923,
    "lng": -121.984479
  },
  {
    "id": "140001326",
    "name": "SUTHERLAND HOUSE",
    "npi": "1528121118",
    "hcaiId": null,
    "businessName": "TLC HOMES LLC",
    "contactEmail": "FERRER_ROWELL@YAHOO.COM",
    "categoryName": "INTERMEDIATE CARE FACILITY-DD/H/N/CN/IID",
    "categoryCode": "ICFDDH",
    "licenseStatus": "ACTIVE",
    "inService": true,
    "licenseNumber": "140000684",
    "licenseEffectiveDate": "04/24/2025",
    "licenseExpirationDate": "04/23/2026",
    "dataDate": "10/18/2025",
    "capacity": 6,
    "address": "5166 SUTHERLAND DRIVE",
    "city": "CONCORD",
    "zip": "94521",
    "county": "CONTRA COSTA",
    "phone": "(650) 455-3233",
    "lat": 37.957176,
    "lng": -121.9662405
  }
]