[
  {
    "id": "630019155",
    "name": "ADVANCED INTERVENTIONAL SURGICAL CENTER",
    "npi": "1912416199",
    "hcaiId": null,
    "businessName": null,
    "contactEmail": null,
    "categoryName": "SURGICAL CLINIC",
    "categoryCode": "ASC",
    "licenseStatus": null,
    "inService": null,
    "licenseNumber": null,
    "licenseEffectiveDate": null,
    "licenseExpirationDate": null,
    "dataDate": "10/18/2025",
    "capacity": 0,
    "address": "3077 STEVENSON BLVD",
    "city": "FREMONT",
    "zip": "94538",
    "county": "ALAMEDA",
    "phone": null,
    "lat": 37.547604,
    "lng": -121.9726395
  },
  {
    "id": "630013992",
    "name": "AMORE HOME HEALTH",
    "npi": "1316298938",
    "hcaiId": "406015644",
    "businessName": "NEXT LEVEL HOME HEALTH LLC",
    "contactEmail": "RYANF@AMOREHOMEHEALTH.ORG",
    "categoryName": "HOME HEALTH AGENCY",
    "categoryCode": "HHA",
    "licenseStatus": "ACTIVE",
    "inService": true,
    "licenseNumber": "550002185",
    "licenseEffectiveDate": "01/30/2025",
    "licenseExpirationDate": "01/29/2026",
    "dataDate": "10/18/2025",
    "capacity": 0,
    "address": "39420 LIBERTY ST, SUITE 155",
    "city": "FREMONT",
    "zip": "94538",
    "county": "ALAMEDA",
    "phone": "(408) 649-2370",
    "lat": 37.54935,
    "lng": -121.978008
  },
  {
    "id": "630020753",
    "name": "ANODYNE HOSPICE CARE, LLC",
    "npi": "1477163798",
    "hcaiId": "406014415",
    "businessName": "ANODYNE HOSPICE CARE, LLC",
    "contactEmail": "ANODYNEHC@YAHOO.COM",
    "categoryName": "HOSPICE",
    "categoryCode": "HOSPICE",
    "licenseStatus": "ACTIVE",
    "inService": true,
    "licenseNumber": "550006344",
    "licenseEffectiveDate": "05/11/2025",
    "licenseExpirationDate": "05/10/2027",
    "dataDate": "10/18/2025",
    "capacity": 0,
    "address": "39111 PASEO PADRE PKWY, SUITE 304",
    "city": "FREMONT",
    "zip": "94538",
    "county": "ALAMEDA",
    "phone": "(925) 968-5392",
    "lat": 37.55288001,
    "lng": -121.98132
  },
  {
    "id": "630019926",
    "name": "BACH DENTAL MOBILE CLINIC V",
    "npi": null,
    "hcaiId": null,
    "businessName": "BAY AREA COMMUNITY HEALTH",
    "contactEmail": null,
    "categoryName": "PRIMARY CARE CLINIC",
    "categoryCode": "COMTYC",
    "licenseStatus": "ACTIVE",
    "inService": true,
    "licenseNumber": "550000139",
    "licenseEffectiveDate": "11/21/2024",
    "licenseExpirationDate": "11/20/2025",
    "dataDate": "10/18/2025",
    "capacity": 0,
    "address": "1999 MOWRY AVE",
    "city": "FREMONT",
    "zip": "94538",
    "county": "ALAMEDA",
    "phone": null,
    "lat": 37.55844,
    "lng": -121.9813875
  },
  {
    "id": "630027671",
    "name": "BACH MOBILE HEALTH #10",
    "npi": null,
    "hcaiId": null,
    "businessName": "BAY AREA COMMUNITY HEALTH",
    "contactEmail": null,
    "categoryName": "PRIMARY CARE CLINIC",
    "categoryCode": "COMTYC",
    "licenseStatus": "ACTIVE",
    "inService": true,
    "licenseNumber": "550000139",
    "licenseEffectiveDate": "11/21/2024",
    "licenseExpirationDate": "11/20/2025",
    "dataDate": "10/18/2025",
    "capacity": 0,
    "address": "1999 MOWRY AVE",
    "city": "FREMONT",
    "zip": "94538",
    "county": "ALAMEDA",
    "phone": null,
    "lat": 37.55808802,
    "lng": -121.981346
  },
  {
    "id": "630027672",
    "name": "BACH MOBILE HEALTH #11",
    "npi": null,
    "hcaiId": null,
    "businessName": "BAY AREA COMMUNITY HEALTH",
    "contactEmail": null,
    "categoryName": "PRIMARY CARE CLINIC",
    "categoryCode": "COMTYC",
    "licenseStatus": "ACTIVE",
    "inService": true,
    "licenseNumber": "550000139",
    "licenseEffectiveDate": "11/21/2024",
    "licenseExpirationDate": "11/20/2025",
    "dataDate": "10/18/2025",
    "capacity": 0,
    "address": "1999 MOWRY AVE",
    "city": "FREMONT",
    "zip": "94538",
    "county": "ALAMEDA",
    "phone": null,
    "lat": 37.55808802,
    "lng": -121.981346
  },
  {
    "id": "630027670",
    "name": "BACH MOBILE HEALTH #9",
    "npi": null,
    "hcaiId": null,
    "businessName": "BAY AREA COMMUNITY HEALTH",
    "contactEmail": null,
    "categoryName": "PRIMARY CARE CLINIC",
    "categoryCode": "COMTYC",
    "licenseStatus": "ACTIVE",
    "inService": true,
    "licenseNumber": "550000139",
    "licenseEffectiveDate": "11/21/2024",
    "licenseExpirationDate": "11/20/2025",
    "dataDate": "10/18/2025",
    "capacity": 0,
    "address": "1999 MOWRY AVE",
    "city": "FREMONT",
    "zip": "94538",
    "county": "ALAMEDA",
    "phone": null,
    "lat": 37.55808802,
    "lng": -121.981346
  },
  {
    "id": "630027673",
    "name": "BACH MOBILE HEALTH CLINIC - CHOMP #2",
    "npi": null,
    "hcaiId": null,
    "businessName": "BAY AREA COMMUNITY HEALTH",
    "contactEmail": null,
    "categoryName": "PRIMARY CARE CLINIC",
    "categoryCode": "COMTYC",
    "licenseStatus": "ACTIVE",
    "inService": true,
    "licenseNumber": "550000139",
    "licenseEffectiveDate": "11/21/2024",
    "licenseExpirationDate": "11/20/2025",
    "dataDate": "10/18/2025",
    "capacity": 0,
    "address": "1999 MOWRY AVE",
    "city": "FREMONT",
    "zip": "94538",
    "county": "ALAMEDA",
    "phone": null,
    "lat": 37.55808802,
    "lng": -121.981346
  },
  {
    "id": "630027674",
    "name": "BACH MOBILE HEALTH CLINIC - CHOMP #3",
    "npi": null,
    "hcaiId": null,
    "businessName": "BAY AREA COMMUNITY HEALTH",
    "contactEmail": null,
    "categoryName": "PRIMARY CARE CLINIC",
    "categoryCode": "COMTYC",
    "licenseStatus": "ACTIVE",
    "inService": true,
    "licenseNumber": "550000139",
    "licenseEffectiveDate": "11/21/2024",
    "licenseExpirationDate": "11/20/2025",
    "dataDate": "10/18/2025",
    "capacity": 0,
    "address": "1999 MOWRY AVE",
    "city": "FREMONT",
    "zip": "94538",
    "county": "ALAMEDA",
    "phone": null,
    "lat": 37.55808802,
    "lng": -121.981346
  },
  {
    "id": "630018932",
    "name": "BACH MOBILE HEALTH CLINIC IV",
    "npi": null,
    "hcaiId": null,
    "businessName": "BAY AREA COMMUNITY HEALTH",
    "contactEmail": null,
    "categoryName": "PRIMARY CARE CLINIC",
    "categoryCode": "COMTYC",
    "licenseStatus": "ACTIVE",
    "inService": true,
    "licenseNumber": "550000139",
    "licenseEffectiveDate": "11/21/2024",
    "licenseExpirationDate": "11/20/2025",
    "dataDate": "10/18/2025",
    "capacity": 0,
    "address": "1999 MOWRY AVE",
    "city": "FREMONT",
    "zip": "94538",
    "county": "ALAMEDA",
    "phone": null,
    "lat": 37.55844,
    "lng": -121.9813875
  },
  {
    "id": "630019769",
    "name": "BACH SCHOOL MOBILE HEALTH CLINIC II",
    "npi": null,
    "hcaiId": null,
    "businessName": "BAY AREA COMMUNITY HEALTH",
    "contactEmail": null,
    "categoryName": "PRIMARY CARE CLINIC",
    "categoryCode": "COMTYC",
    "licenseStatus": "ACTIVE",
    "inService": true,
    "licenseNumber": "550003720",
    "licenseEffectiveDate": "11/15/2024",
    "licenseExpirationDate": "11/14/2025",
    "dataDate": "10/18/2025",
    "capacity": 0,
    "address": "40910 FREMONT BLVD",
    "city": "FREMONT",
    "zip": "94538",
    "county": "ALAMEDA",
    "phone": null,
    "lat": 37.534347,
    "lng": -121.960269
  },
  {
    "id": "630019768",
    "name": "BACH SENIOR MOBILE HEALTH CLINIC I",
    "npi": null,
    "hcaiId": null,
    "businessName": "BAY AREA COMMUNITY HEALTH",
    "contactEmail": null,
    "categoryName": "PRIMARY CARE CLINIC",
    "categoryCode": "COMTYC",
    "licenseStatus": "ACTIVE",
    "inService": true,
    "licenseNumber": "550000139",
    "licenseEffectiveDate": "11/21/2024",
    "licenseExpirationDate": "11/20/2025",
    "dataDate": "10/18/2025",
    "capacity": 0,
    "address": "1999 MOWRY AVE",
    "city": "FREMONT",
    "zip": "94538",
    "county": "ALAMEDA",
    "phone": null,
    "lat": 37.55844,
    "lng": -121.9813875
  },
  {
    "id": "630016867",
    "name": "BAY AREA COMMUNITY HEALTH -  IRVINGTON DAVE CLINIC",
    "npi": null,
    "hcaiId": "306014387",
    "businessName": "BAY AREA COMMUNITY HEALTH",
    "contactEmail": "JESCUDERO@BACH.HEALTH",
    "categoryName": "PRIMARY CARE CLINIC",
    "categoryCode": "COMTYC",
    "licenseStatus": "ACTIVE",
    "inService": true,
    "licenseNumber": "550003720",
    "licenseEffectiveDate": "11/15/2024",
    "licenseExpirationDate": "11/14/2025",
    "dataDate": "10/18/2025",
    "capacity": 0,
    "address": "40910 FREMONT BLVD",
    "city": "FREMONT",
    "zip": "94538",
    "county": "ALAMEDA",
    "phone": "(510) 252-6821",
    "lat": 37.534347,
    "lng": -121.960269
  },
  {
    "id": "140001178",
    "name": "BAY AREA COMMUNITY HEALTH - LIBERTY CLINIC",
    "npi": null,
    "hcaiId": "306014156",
    "businessName": "BAY AREA COMMUNITY HEALTH",
    "contactEmail": "ADMINSUPPORT@BACH.HEALTH",
    "categoryName": "PRIMARY CARE CLINIC",
    "categoryCode": "COMTYC",
    "licenseStatus": "ACTIVE",
    "inService": true,
    "licenseNumber": "140000586",
    "licenseEffectiveDate": "02/23/2025",
    "licenseExpirationDate": "02/22/2026",
    "dataDate": "10/18/2025",
    "capacity": 0,
    "address": "39500 LIBERTY STREET",
    "city": "FREMONT",
    "zip": "94538",
    "county": "ALAMEDA",
    "phone": "(510) 252-5882",
    "lat": 37.548999,
    "lng": -121.977063
  },
  {
    "id": "630013653",
    "name": "BAY AREA COMMUNITY HEALTH - MAIN STREET VILLAGE",
    "npi": null,
    "hcaiId": "306014309",
    "businessName": "BAY AREA COMMUNITY HEALTH",
    "contactEmail": "TMONTEROLA@BACH.HEALTH",
    "categoryName": "PRIMARY CARE CLINIC",
    "categoryCode": "COMTYC",
    "licenseStatus": "ACTIVE",
    "inService": true,
    "licenseNumber": "550000139",
    "licenseEffectiveDate": "11/21/2024",
    "licenseExpirationDate": "11/20/2025",
    "dataDate": "10/18/2025",
    "capacity": 0,
    "address": "3607 MAIN STREET",
    "city": "FREMONT",
    "zip": "94538",
    "county": "ALAMEDA",
    "phone": "(510) 657-8954",
    "lat": 37.533987,
    "lng": -121.955229
  },
  {
    "id": "140000968",
    "name": "BAY AREA COMMUNITY HEALTH - MOWRY I",
    "npi": null,
    "hcaiId": "306014097",
    "businessName": "BAY AREA COMMUNITY HEALTH",
    "contactEmail": "ADMINSUPPORT@BACH.HEALTH",
    "categoryName": "PRIMARY CARE CLINIC",
    "categoryCode": "COMTYC",
    "licenseStatus": "ACTIVE",
    "inService": true,
    "licenseNumber": "140000481",
    "licenseEffectiveDate": "12/21/2024",
    "licenseExpirationDate": "12/20/2025",
    "dataDate": "10/18/2025",
    "capacity": 0,
    "address": "2299 MOWRY AVENUE, SUITE 3B",
    "city": "FREMONT",
    "zip": "94538",
    "county": "ALAMEDA",
    "phone": "(510) 713-6685",
    "lat": 37.556955,
    "lng": -121.982355
  },
  {
    "id": "630006041",
    "name": "BAY AREA COMMUNITY HEALTH - MOWRY II",
    "npi": null,
    "hcaiId": "306014339",
    "businessName": "BAY AREA COMMUNITY HEALTH",
    "contactEmail": "COMPLIANCE@BACH.HEALTH",
    "categoryName": "PRIMARY CARE CLINIC",
    "categoryCode": "COMTYC",
    "licenseStatus": "ACTIVE",
    "inService": true,
    "licenseNumber": "550000139",
    "licenseEffectiveDate": "11/21/2024",
    "licenseExpirationDate": "11/20/2025",
    "dataDate": "10/18/2025",
    "capacity": 0,
    "address": "1999 MOWRY AVENUE",
    "city": "FREMONT",
    "zip": "94538",
    "county": "ALAMEDA",
    "phone": "(510) 252-6818",
    "lat": 37.558314,
    "lng": -121.981149
  },
  {
    "id": "630019111",
    "name": "BAY AREA COMMUNITY HEALTH - MOWRY III CLINIC",
    "npi": null,
    "hcaiId": null,
    "businessName": "BAY AREA COMMUNITY HEALTH",
    "contactEmail": null,
    "categoryName": "PRIMARY CARE CLINIC",
    "categoryCode": "COMTYC",
    "licenseStatus": "ACTIVE",
    "inService": true,
    "licenseNumber": "550000139",
    "licenseEffectiveDate": "11/21/2024",
    "licenseExpirationDate": "11/20/2025",
    "dataDate": "10/18/2025",
    "capacity": 0,
    "address": "1860 MOWRY AVE, SUITE 400",
    "city": "FREMONT",
    "zip": "94538",
    "county": "ALAMEDA",
    "phone": null,
    "lat": 37.558296,
    "lng": -121.978539
  },
  {
    "id": "630018156",
    "name": "BAY AREA COMMUNITY HEALTH IRVINGTON DAVE CLINIC II",
    "npi": null,
    "hcaiId": null,
    "businessName": "BAY AREA COMMUNITY HEALTH",
    "contactEmail": "BMELLO@TRI-CITYHEALTH.ORG",
    "categoryName": "PRIMARY CARE CLINIC",
    "categoryCode": "COMTYC",
    "licenseStatus": "ACTIVE",
    "inService": true,
    "licenseNumber": "550003720",
    "licenseEffectiveDate": "11/15/2024",
    "licenseExpirationDate": "11/14/2025",
    "dataDate": "10/18/2025",
    "capacity": 0,
    "address": "40924 FREMONT BLVD",
    "city": "FREMONT",
    "zip": "94538",
    "county": "ALAMEDA",
    "phone": "(510) 252-5880",
    "lat": 37.533798,
    "lng": -121.959936
  },
  {
    "id": "630018938",
    "name": "BAY AREA COMMUNITY HEALTH IRVINGTON DAVE CLINIC II - MEDICAL SERVICES",
    "npi": null,
    "hcaiId": null,
    "businessName": "BAY AREA COMMUNITY HEALTH",
    "contactEmail": null,
    "categoryName": "PRIMARY CARE CLINIC",
    "categoryCode": "COMTYC",
    "licenseStatus": "ACTIVE",
    "inService": true,
    "licenseNumber": "550003720",
    "licenseEffectiveDate": "11/15/2024",
    "licenseExpirationDate": "11/14/2025",
    "dataDate": "10/18/2025",
    "capacity": 0,
    "address": "40930 FREMONT BLVD",
    "city": "FREMONT",
    "zip": "94538",
    "county": "ALAMEDA",
    "phone": null,
    "lat": 37.534095,
    "lng": -121.959738
  },
  {
    "id": "630013552",
    "name": "CARE IN TOUCH HOME HEALTH AGENCY",
    "npi": "1437428802",
    "hcaiId": "406014304",
    "businessName": "CARE IN TOUCH HOME HEALTH AGENCY",
    "contactEmail": "ADMIN@CAREINTOUCH.COM",
    "categoryName": "HOME HEALTH AGENCY",
    "categoryCode": "HHA",
    "licenseStatus": "ACTIVE",
    "inService": true,
    "licenseNumber": "550002120",
    "licenseEffectiveDate": "10/16/2025",
    "licenseExpirationDate": "10/15/2026",
    "dataDate": "10/18/2025",
    "capacity": 0,
    "address": "3340 WALNUT AVE, SUITE 111",
    "city": "FREMONT",
    "zip": "94538",
    "county": "ALAMEDA",
    "phone": "(510) 651-8500",
    "lat": 37.549478,
    "lng": -121.978393
  },
  {
    "id": "140000514",
    "name": "CHARU S. DAVE",
    "npi": null,
    "hcaiId": null,
    "businessName": null,
    "contactEmail": null,
    "categoryName": "OTHER",
    "categoryCode": "UNLICEN",
    "licenseStatus": null,
    "inService": null,
    "licenseNumber": null,
    "licenseEffectiveDate": null,
    "licenseExpirationDate": null,
    "dataDate": "10/18/2025",
    "capacity": 0,
    "address": "1895 MOWRY AVE",
    "city": "FREMONT",
    "zip": "94538",
    "county": "ALAMEDA",
    "phone": "(510) 790-0178",
    "lat": 37.559385,
    "lng": -121.9804245
  },
  {
    "id": "020000053",
    "name": "CRESTWOOD MANOR - FREMONT",
    "npi": "1902828403",
    "hcaiId": "206010994",
    "businessName": "CRESTWOOD BEHAVIORAL HEALTH, INC.",
    "contactEmail": "JBUSTICHI@CBHI.NET",
    "categoryName": "SKILLED NURSING FACILITY",
    "categoryCode": "SNF",
    "licenseStatus": "ACTIVE",
    "inService": true,
    "licenseNumber": "020000122",
    "licenseEffectiveDate": "11/23/2024",
    "licenseExpirationDate": "11/22/2025",
    "dataDate": "10/18/2025",
    "capacity": 126,
    "address": "4303 STEVENSON BOULEVARD",
    "city": "FREMONT",
    "zip": "94538",
    "county": "ALAMEDA",
    "phone": "(510) 651-1244",
    "lat": 37.537524,
    "lng": -121.977216
  },
  {
    "id": "020000129",
    "name": "CRESTWOOD TREATMENT CENTER",
    "npi": "1942228838",
    "hcaiId": "206010815",
    "businessName": "CRESTWOOD BEHAVIORAL HEALTH, INC.",
    "contactEmail": "KHANS@CBHI.NET",
    "categoryName": "SKILLED NURSING FACILITY",
    "categoryCode": "SNF",
    "licenseStatus": "ACTIVE",
    "inService": true,
    "licenseNumber": "020000036",
    "licenseEffectiveDate": "01/02/2025",
    "licenseExpirationDate": "01/01/2026",
    "dataDate": "10/18/2025",
    "capacity": 88,
    "address": "2171 MOWRY AVENUE",
    "city": "FREMONT",
    "zip": "94538",
    "county": "ALAMEDA",
    "phone": "(510) 793-8383",
    "lat": 37.558332,
    "lng": -121.9826025
  },
  {
    "id": "630018658",
    "name": "DYNAMICARE HOME HEALTH",
    "npi": null,
    "hcaiId": "406015270",
    "businessName": "HOME CONNECT HOME HEALTH, LLC",
    "contactEmail": "INFO@HOME-CONNECT-HOME-HEALTH.COM",
    "categoryName": "HOME HEALTH AGENCY",
    "categoryCode": "HHA",
    "licenseStatus": "ACTIVE",
    "inService": true,
    "licenseNumber": "550005715",
    "licenseEffectiveDate": "11/12/2025",
    "licenseExpirationDate": "09/02/2026",
    "dataDate": "10/18/2025",
    "capacity": 0,
    "address": "46560 FREMONT BLVD, SUITE 115",
    "city": "FREMONT",
    "zip": "94538",
    "county": "ALAMEDA",
    "phone": "(510) 403-4043",
    "lat": 37.483605,
    "lng": -121.9449735
  },
  {
    "id": "630016542",
    "name": "ELITE SURGICAL SERVICES, LLC",
    "npi": "1487042859",
    "hcaiId": null,
    "businessName": null,
    "contactEmail": null,
    "categoryName": "SURGICAL CLINIC",
    "categoryCode": "ASC",
    "licenseStatus": null,
    "inService": null,
    "licenseNumber": null,
    "licenseEffectiveDate": null,
    "licenseExpirationDate": null,
    "dataDate": "10/18/2025",
    "capacity": 0,
    "address": "1860 MOWRY AVENUE, SUITE 401",
    "city": "FREMONT",
    "zip": "94538",
    "county": "ALAMEDA",
    "phone": null,
    "lat": 37.558296,
    "lng": -121.9786875
  },
  {
    "id": "630012866",
    "name": "FREMONT AMBULATORY SURGERY CENTER LP",
    "npi": "1851369284",
    "hcaiId": null,
    "businessName": null,
    "contactEmail": null,
    "categoryName": "SURGICAL CLINIC",
    "categoryCode": "ASC",
    "licenseStatus": null,
    "inService": null,
    "licenseNumber": null,
    "licenseEffectiveDate": null,
    "licenseExpirationDate": null,
    "dataDate": "10/18/2025",
    "capacity": 0,
    "address": "39350 CIVIC CENTER DRIVE, SUITE 100",
    "city": "FREMONT",
    "zip": "94538",
    "county": "ALAMEDA",
    "phone": null,
    "lat": 37.554453,
    "lng": -121.9753305
  },
  {
    "id": "630013534",
    "name": "FREMONT AT HOME",
    "npi": "1730472507",
    "hcaiId": null,
    "businessName": null,
    "contactEmail": null,
    "categoryName": "CHRONIC DIALYSIS CLINIC",
    "categoryCode": "ESRD",
    "licenseStatus": null,
    "inService": null,
    "licenseNumber": null,
    "licenseEffectiveDate": null,
    "licenseExpirationDate": null,
    "dataDate": "10/18/2025",
    "capacity": 0,
    "address": "39355 CALIFORNIA ST",
    "city": "FREMONT",
    "zip": "94538",
    "county": "ALAMEDA",
    "phone": null,
    "lat": 37.547046,
    "lng": -121.9824
  },
  {
    "id": "630013424",
    "name": "FREMONT DIALYSIS",
    "npi": "1407130602",
    "hcaiId": "306014291",
    "businessName": "WALKER DIALYSIS LLC",
    "contactEmail": "CAL_C@DAVITA.COM",
    "categoryName": "CHRONIC DIALYSIS CLINIC",
    "categoryCode": "ESRD/CDC",
    "licenseStatus": "ACTIVE",
    "inService": true,
    "licenseNumber": "550001858",
    "licenseEffectiveDate": "03/01/2025",
    "licenseExpirationDate": "02/28/2026",
    "dataDate": "10/18/2025",
    "capacity": 24,
    "address": "2599 STEVENSON BOULEVARD",
    "city": "FREMONT",
    "zip": "94538",
    "county": "ALAMEDA",
    "phone": "(510) 796-4385",
    "lat": 37.550799,
    "lng": -121.972815
  },
  {
    "id": "020000132",
    "name": "FREMONT HEALTHCARE CENTER",
    "npi": "1194120600",
    "hcaiId": "206010797",
    "businessName": "FREMONT HEALTHCARE OPERATING COMPANY LP",
    "contactEmail": "ESPENITO.CARAMBA@MARINERHEALTHCARE.COM",
    "categoryName": "SKILLED NURSING FACILITY",
    "categoryCode": "SNF",
    "licenseStatus": "ACTIVE",
    "inService": true,
    "licenseNumber": "020000025",
    "licenseEffectiveDate": "01/01/2025",
    "licenseExpirationDate": "12/31/2025",
    "dataDate": "10/18/2025",
    "capacity": 115,
    "address": "39022 PRESIDIO WAY",
    "city": "FREMONT",
    "zip": "94538",
    "county": "ALAMEDA",
    "phone": "(510) 792-3743",
    "lat": 37.544454,
    "lng": -121.9908645
  },
  {
    "id": "140000707",
    "name": "FREMONT HOSPITAL",
    "npi": "1245346741",
    "hcaiId": "106014034",
    "businessName": "BHC FREMONT HOSPITAL, INC.",
    "contactEmail": "PATRICIA.WILLIAMS3@UHSINC.COM",
    "categoryName": "ACUTE PSYCHIATRIC HOSPITAL",
    "categoryCode": "APH",
    "licenseStatus": "ACTIVE",
    "inService": true,
    "licenseNumber": "140000347",
    "licenseEffectiveDate": "12/01/2024",
    "licenseExpirationDate": "11/30/2025",
    "dataDate": "10/18/2025",
    "capacity": 148,
    "address": "39001 SUNDALE DRIVE",
    "city": "FREMONT",
    "zip": "94538",
    "county": "ALAMEDA",
    "phone": "(510) 796-1100",
    "lat": 37.546461,
    "lng": -121.979835
  },
  {
    "id": "140000793",
    "name": "FRESENIUS MEDICAL CARE FREMONT",
    "npi": "1831100270",
    "hcaiId": "306014221",
    "businessName": "BIO-MEDICAL APPLICATIONS OF FREMONT, INC.",
    "contactEmail": "LAWANDA.MILLER@FRESENIUSMEDICALCARE.COM",
    "categoryName": "CHRONIC DIALYSIS CLINIC",
    "categoryCode": "ESRD/CDC",
    "licenseStatus": "ACTIVE",
    "inService": true,
    "licenseNumber": "140000391",
    "licenseEffectiveDate": "03/05/2025",
    "licenseExpirationDate": "03/04/2026",
    "dataDate": "10/18/2025",
    "capacity": 28,
    "address": "39505 PASEO PADRE PKWY",
    "city": "FREMONT",
    "zip": "94538",
    "county": "ALAMEDA",
    "phone": "(510) 659-1240",
    "lat": 37.549809,
    "lng": -121.974678
  },
  {
    "id": "630016041",
    "name": "KAIROS HOME CARE LLC",
    "npi": "1932596459",
    "hcaiId": "406014372",
    "businessName": "KAIROS HOME CARE LLC",
    "contactEmail": "KHCLLC@KAIROSHOMECARE.NET",
    "categoryName": "HOME HEALTH AGENCY",
    "categoryCode": "HHA",
    "licenseStatus": "ACTIVE",
    "inService": true,
    "licenseNumber": "550003408",
    "licenseEffectiveDate": "06/26/2025",
    "licenseExpirationDate": "02/15/2026",
    "dataDate": "10/18/2025",
    "capacity": 0,
    "address": "39210 STATE ST, SUITE 106",
    "city": "FREMONT",
    "zip": "94538",
    "county": "ALAMEDA",
    "phone": "(510) 358-2271",
    "lat": 37.549585,
    "lng": -121.982423
  },
  {
    "id": "140001086",
    "name": "KAISER FOUNDATION HOSPITAL - FREMONT",
    "npi": null,
    "hcaiId": "106014132",
    "businessName": "KAISER FOUNDATION HOSPITALS",
    "contactEmail": "ANGELO.ORIANES@KP.ORG",
    "categoryName": "GENERAL ACUTE CARE HOSPITAL",
    "categoryCode": "GACH",
    "licenseStatus": "ACTIVE",
    "inService": true,
    "licenseNumber": "140000053",
    "licenseEffectiveDate": "12/01/2024",
    "licenseExpirationDate": "11/30/2025",
    "dataDate": "10/18/2025",
    "capacity": 100,
    "address": "39400 PASEO PADRE PARKWAY",
    "city": "FREMONT",
    "zip": "94538",
    "county": "ALAMEDA",
    "phone": "(510) 454-2006",
    "lat": 37.552563,
    "lng": -121.9766355
  },
  {
    "id": "630019347",
    "name": "MELODIA HOSPICE",
    "npi": null,
    "hcaiId": "406012737",
    "businessName": "MELODIA CARE INC",
    "contactEmail": "ALI@MELODIACARE.COM",
    "categoryName": "HOSPICE",
    "categoryCode": "HOSPICE",
    "licenseStatus": "ACTIVE",
    "inService": true,
    "licenseNumber": "550005514",
    "licenseEffectiveDate": "05/28/2024",
    "licenseExpirationDate": "05/27/2026",
    "dataDate": "10/18/2025",
    "capacity": 0,
    "address": "42840 CHRISTY ST, SUITE 102",
    "city": "FREMONT",
    "zip": "94538",
    "county": "ALAMEDA",
    "phone": "(888) 635-6347",
    "lat": 37.508841,
    "lng": -121.9745475
  },
  {
    "id": "630012426",
    "name": "NATIONAL HOME HEALTH SERVICES-WEST, INC.",
    "npi": "1629398227",
    "hcaiId": "406074142",
    "businessName": "NATIONAL HOME HEALTH SERVICES-WEST, INC.",
    "contactEmail": "ALEXR@NATIONALHHA.COM",
    "categoryName": "HOME HEALTH AGENCY",
    "categoryCode": "HHA",
    "licenseStatus": "ACTIVE",
    "inService": true,
    "licenseNumber": "550001217",
    "licenseEffectiveDate": "04/08/2025",
    "licenseExpirationDate": "02/16/2026",
    "dataDate": "10/18/2025",
    "capacity": 0,
    "address": "42840 CHRISTY ST, SUITE 235",
    "city": "FREMONT",
    "zip": "94538",
    "county": "ALAMEDA",
    "phone": "(415) 812-2955",
    "lat": 37.50884312,
    "lng": -121.9745483
  },
  {
    "id": "630022307",
    "name": "ON LOK SENIOR HEALTH SERVICES SATELLITE CLINIC",
    "npi": null,
    "hcaiId": null,
    "businessName": "ON LOK SENIOR HEALTH SERVICES",
    "contactEmail": "NICOLE@ONLOK.ORG",
    "categoryName": "PRIMARY CARE CLINIC",
    "categoryCode": "COMTYC",
    "licenseStatus": "ACTIVE",
    "inService": true,
    "licenseNumber": "550001921",
    "licenseEffectiveDate": "04/30/2025",
    "licenseExpirationDate": "04/29/2026",
    "dataDate": "10/18/2025",
    "capacity": 0,
    "address": "2147 MOWRY AVE",
    "city": "FREMONT",
    "zip": "94538",
    "county": "ALAMEDA",
    "phone": "(415) 292-8799",
    "lat": 37.557738,
    "lng": -121.981581
  },
  {
    "id": "630016148",
    "name": "ONMYCARE HOME HEALTH",
    "npi": "1710370317",
    "hcaiId": "406014371",
    "businessName": "ONMYCARE LLC",
    "contactEmail": "CRENKEN@ADVANCEDHHS.COM",
    "categoryName": "HOME HEALTH AGENCY",
    "categoryCode": "HHA",
    "licenseStatus": "ACTIVE",
    "inService": true,
    "licenseNumber": "550003402",
    "licenseEffectiveDate": "02/17/2025",
    "licenseExpirationDate": "02/16/2026",
    "dataDate": "10/18/2025",
    "capacity": 0,
    "address": "39159 PASEO PADRE PKWY, SUITE 304",
    "city": "FREMONT",
    "zip": "94538",
    "county": "ALAMEDA",
    "phone": "(351) 596-8161",
    "lat": 37.552986,
    "lng": -121.9807575
  },
  {
    "id": "020000647",
    "name": "PARK HOUSE",
    "npi": "1366584997",
    "hcaiId": null,
    "businessName": "COMMUNITY CARE INITIATIVES, INC.",
    "contactEmail": "AKATANHA@CAMPINC.COMCASTBIZ.NET",
    "categoryName": "INTERMEDIATE CARE FACILITY-DD/H/N/CN/IID",
    "categoryCode": "ICFDDH",
    "licenseStatus": "ACTIVE",
    "inService": true,
    "licenseNumber": "020000320",
    "licenseEffectiveDate": "11/24/2024",
    "licenseExpirationDate": "11/23/2025",
    "dataDate": "10/18/2025",
    "capacity": 6,
    "address": "39523 SUNDALE DR",
    "city": "FREMONT",
    "zip": "94538",
    "county": "ALAMEDA",
    "phone": "(925) 560-0124",
    "lat": 37.534716,
    "lng": -121.987944
  },
  {
    "id": "630003481",
    "name": "PRECISION SURGICENTER",
    "npi": null,
    "hcaiId": "306014206",
    "businessName": "OMNI SURGI CENTER L.P.",
    "contactEmail": null,
    "categoryName": "SURGICAL CLINIC",
    "categoryCode": "ASC",
    "licenseStatus": "INACTIVE - CAPEN DECISION",
    "inService": false,
    "licenseNumber": "550000063",
    "licenseEffectiveDate": "11/07/2007",
    "licenseExpirationDate": "11/06/2008",
    "dataDate": "10/18/2025",
    "capacity": 0,
    "address": "1860 MOWRY AVE, SUITE 402",
    "city": "FREMONT",
    "zip": "94538",
    "county": "ALAMEDA",
    "phone": null,
    "lat": 37.558251,
    "lng": -121.9785345
  },
  {
    "id": "140001032",
    "name": "RODNEY SILVEIRA",
    "npi": null,
    "hcaiId": null,
    "businessName": null,
    "contactEmail": null,
    "categoryName": "OTHER",
    "categoryCode": "UNLICEN",
    "licenseStatus": null,
    "inService": null,
    "licenseNumber": null,
    "licenseEffectiveDate": null,
    "licenseExpirationDate": null,
    "dataDate": "10/18/2025",
    "capacity": 0,
    "address": "3905 BEACON AVE",
    "city": "FREMONT",
    "zip": "94538",
    "county": "ALAMEDA",
    "phone": "(510) 792-3555",
    "lat": 37.547685,
    "lng": -121.9843755
  },
  {
    "id": "140001308",
    "name": "SATELLITE WELLBOUND OF FREMONT",
    "npi": "1144292186",
    "hcaiId": "306414083",
    "businessName": null,
    "contactEmail": "NORNDORFF@USRENALCARE.COM",
    "categoryName": "CHRONIC DIALYSIS CLINIC",
    "categoryCode": "ESRD",
    "licenseStatus": null,
    "inService": null,
    "licenseNumber": null,
    "licenseEffectiveDate": null,
    "licenseExpirationDate": null,
    "dataDate": "10/18/2025",
    "capacity": 0,
    "address": "39510 PASEO PADRE PKWY, SUITE 100",
    "city": "FREMONT",
    "zip": "94538",
    "county": "ALAMEDA",
    "phone": "(615) 330-4400",
    "lat": 37.550521,
    "lng": -121.973693
  },
  {
    "id": "630016141",
    "name": "SEHAJ HOME HEALTH, INC.",
    "npi": null,
    "hcaiId": "406014361",
    "businessName": "SEHAJ HOME HEALTH, INC.",
    "contactEmail": "SEHAJHOMEHEALTH@GMAIL.COM",
    "categoryName": "HOME HEALTH AGENCY",
    "categoryCode": "HHA",
    "licenseStatus": "ACTIVE",
    "inService": true,
    "licenseNumber": "550003345",
    "licenseEffectiveDate": "01/08/2025",
    "licenseExpirationDate": "01/07/2026",
    "dataDate": "10/18/2025",
    "capacity": 0,
    "address": "44790 S. GRIMMER BOULEVARD, SUITE 206",
    "city": "FREMONT",
    "zip": "94538",
    "county": "ALAMEDA",
    "phone": "(510) 573-2013",
    "lat": 37.503054,
    "lng": -121.948479
  },
  {
    "id": "630018223",
    "name": "SEHAJ HOSPICE CARE, INC.",
    "npi": null,
    "hcaiId": "406013909",
    "businessName": "SEHAJ HOSPICE CARE, INC.",
    "contactEmail": "SEHAJHOSPICE@GMAIL.COM",
    "categoryName": "HOSPICE",
    "categoryCode": "HOSPICE",
    "licenseStatus": "ACTIVE",
    "inService": true,
    "licenseNumber": "550006610",
    "licenseEffectiveDate": "06/28/2025",
    "licenseExpirationDate": "06/27/2027",
    "dataDate": "10/18/2025",
    "capacity": 0,
    "address": "44790 S GRIMMER BLVD, SUITE 207",
    "city": "FREMONT",
    "zip": "94538",
    "county": "ALAMEDA",
    "phone": "(510) 771-9982",
    "lat": 37.503054,
    "lng": -121.948479
  },
  {
    "id": "140000840",
    "name": "SENECA CENTER FOR CHILDREN AND FAMILIES",
    "npi": null,
    "hcaiId": null,
    "businessName": null,
    "contactEmail": null,
    "categoryName": "OTHER",
    "categoryCode": "UNLICEN",
    "licenseStatus": null,
    "inService": null,
    "licenseNumber": null,
    "licenseEffectiveDate": null,
    "licenseExpirationDate": null,
    "dataDate": "10/18/2025",
    "capacity": 0,
    "address": "40950 CHAPEL WAY",
    "city": "FREMONT",
    "zip": "94538",
    "county": "ALAMEDA",
    "phone": "(510) 226-6180",
    "lat": 37.532331,
    "lng": -121.9626765
  },
  {
    "id": "020000813",
    "name": "SERRA CENTER VALPEY PARK HOUSE",
    "npi": "1952447765",
    "hcaiId": null,
    "businessName": "SERRA RESIDENTIAL CENTER, INC.",
    "contactEmail": "LSENADENOS@SERRACENTER.ORG",
    "categoryName": "INTERMEDIATE CARE FACILITY-DD/H/N/CN/IID",
    "categoryCode": "ICFDDH",
    "licenseStatus": "ACTIVE",
    "inService": true,
    "licenseNumber": "020000402",
    "licenseEffectiveDate": "06/22/2025",
    "licenseExpirationDate": "06/21/2026",
    "dataDate": "10/18/2025",
    "capacity": 6,
    "address": "5007 VALPEY PARK AVENUE",
    "city": "FREMONT",
    "zip": "94538",
    "county": "ALAMEDA",
    "phone": "(510) 477-1000",
    "lat": 37.519677,
    "lng": -121.971825
  },
  {
    "id": "020000631",
    "name": "SERRA RESIDENTIAL CENTER - ELLEN HOUSE",
    "npi": "1033255831",
    "hcaiId": null,
    "businessName": "SERRA RESIDENTIAL CENTER, INC.",
    "contactEmail": "LSENADENOS@SERRACENTER.ORG",
    "categoryName": "INTERMEDIATE CARE FACILITY-DD/H/N/CN/IID",
    "categoryCode": "ICFDDH",
    "licenseStatus": "ACTIVE",
    "inService": true,
    "licenseNumber": "020000318",
    "licenseEffectiveDate": "11/01/2025",
    "licenseExpirationDate": "10/31/2026",
    "dataDate": "10/18/2025",
    "capacity": 6,
    "address": "41477 ELLEN ST",
    "city": "FREMONT",
    "zip": "94538",
    "county": "ALAMEDA",
    "phone": "(510) 477-1000",
    "lat": 37.526985,
    "lng": -121.9692645
  },
  {
    "id": "630018350",
    "name": "SILVERLINE STAFF HOME HEALTH",
    "npi": null,
    "hcaiId": "406015615",
    "businessName": "SILVERLINE STAFF INC",
    "contactEmail": "CONTACT@SILVERLINESTAFF.COM",
    "categoryName": "HOME HEALTH AGENCY",
    "categoryCode": "HHA",
    "licenseStatus": "ACTIVE",
    "inService": true,
    "licenseNumber": "550005182",
    "licenseEffectiveDate": "03/07/2025",
    "licenseExpirationDate": "12/11/2025",
    "dataDate": "10/18/2025",
    "capacity": 0,
    "address": "39510 PASEO PADRE PKWY, SUITE 380",
    "city": "FREMONT",
    "zip": "94538",
    "county": "ALAMEDA",
    "phone": "(925) 476-5350",
    "lat": 37.550583,
    "lng": -121.973778
  },
  {
    "id": "630013670",
    "name": "STEVENSON SURGERY CENTER",
    "npi": "1548551377",
    "hcaiId": null,
    "businessName": null,
    "contactEmail": null,
    "categoryName": "SURGICAL CLINIC",
    "categoryCode": "ASC",
    "licenseStatus": null,
    "inService": null,
    "licenseNumber": null,
    "licenseEffectiveDate": null,
    "licenseExpirationDate": null,
    "dataDate": "10/18/2025",
    "capacity": 0,
    "address": "2675 STEVENSON BLVD, SUITE B",
    "city": "FREMONT",
    "zip": "94538",
    "county": "ALAMEDA",
    "phone": "(800) 714-6141",
    "lat": 37.550331,
    "lng": -121.972905
  },
  {
    "id": "630022413",
    "name": "STRIVE HOME HEALTH, LLC",
    "npi": null,
    "hcaiId": "406015189",
    "businessName": "STRIVE HOME HEALTH, LLC",
    "contactEmail": "ROSELYNMCCORMACK@STRIVEHH.COM",
    "categoryName": "HOME HEALTH AGENCY",
    "categoryCode": "HHA",
    "licenseStatus": "ACTIVE",
    "inService": true,
    "licenseNumber": "550007435",
    "licenseEffectiveDate": "11/05/2025",
    "licenseExpirationDate": "11/11/2025",
    "dataDate": "10/18/2025",
    "capacity": 0,
    "address": "42840 CHRISTY ST, SUITE 100",
    "city": "FREMONT",
    "zip": "94538",
    "county": "ALAMEDA",
    "phone": "(510) 645-1167",
    "lat": 37.508796,
    "lng": -121.9747095
  },
  {
    "id": "630015785",
    "name": "SURGERY CENTER FREMONT",
    "npi": "1306241534",
    "hcaiId": "306014344",
    "businessName": "SUTTER BAY MEDICAL FOUNDATION",
    "contactEmail": "SALASJ1@SUTTERHEALTH.ORG",
    "categoryName": "SURGICAL CLINIC",
    "categoryCode": "ASC/SURGC",
    "licenseStatus": "ACTIVE",
    "inService": true,
    "licenseNumber": "550003040",
    "licenseEffectiveDate": "04/17/2025",
    "licenseExpirationDate": "04/16/2026",
    "dataDate": "10/18/2025",
    "capacity": 0,
    "address": "3120 KEARNEY STREET",
    "city": "FREMONT",
    "zip": "94538",
    "county": "ALAMEDA",
    "phone": "(510) 498-3600",
    "lat": 37.547712,
    "lng": -121.9730445
  },
  {
    "id": "140000118",
    "name": "WASHINGTON HOSPITAL",
    "npi": "1780614685",
    "hcaiId": "106010987",
    "businessName": "WASHINGTON TOWNSHIP HEALTH CARE DISTRICT",
    "contactEmail": "KRISTIN_FERGUSON@WHHS.COM",
    "categoryName": "GENERAL ACUTE CARE HOSPITAL",
    "categoryCode": "GACH",
    "licenseStatus": "ACTIVE",
    "inService": true,
    "licenseNumber": "140000116",
    "licenseEffectiveDate": "01/29/2025",
    "licenseExpirationDate": "11/30/2025",
    "dataDate": "10/18/2025",
    "capacity": 415,
    "address": "2000 MOWRY AVENUE",
    "city": "FREMONT",
    "zip": "94538",
    "county": "ALAMEDA",
    "phone": "(510) 818-5032",
    "lat": 37.556991,
    "lng": -121.9801635
  },
  {
    "id": "140000505",
    "name": "WASHINGTON OUTPATIENT SURGERY CENTER",
    "npi": "1700801123",
    "hcaiId": "306014086",
    "businessName": "WASHINGTON OUTPATIENT SURGERY CENTER",
    "contactEmail": "GARYCHARLAND@WASHOSC.COM",
    "categoryName": "SURGICAL CLINIC",
    "categoryCode": "ASC",
    "licenseStatus": "INACTIVE - CAPEN DECISION",
    "inService": false,
    "licenseNumber": "140000466",
    "licenseEffectiveDate": "03/28/2008",
    "licenseExpirationDate": "03/27/2009",
    "dataDate": "10/18/2025",
    "capacity": 0,
    "address": "2299 MOWRY AVE",
    "city": "FREMONT",
    "zip": "94538",
    "county": "ALAMEDA",
    "phone": "(510) 791-5374",
    "lat": 37.556955,
    "lng": -121.982355
  },
  {
    "id": "630013103",
    "name": "WE CARE HOME CARE AND HOSPICE, INC.",
    "npi": "1053618777",
    "hcaiId": "406014289",
    "businessName": "WE CARE HOME CARE & HOSPICE, INC.",
    "contactEmail": "INFO@WECAREHCH.COM",
    "categoryName": "HOME HEALTH AGENCY",
    "categoryCode": "HHA",
    "licenseStatus": "ACTIVE",
    "inService": true,
    "licenseNumber": "550001786",
    "licenseEffectiveDate": "11/22/2024",
    "licenseExpirationDate": "11/21/2025",
    "dataDate": "10/18/2025",
    "capacity": 0,
    "address": "3077 STEVENSON BLVD",
    "city": "FREMONT",
    "zip": "94538",
    "county": "ALAMEDA",
    "phone": "(510) 651-2100",
    "lat": 37.547604,
    "lng": -121.9726395
  },
  {
    "id": "630017103",
    "name": "WE CARE HOSPICE, INC.",
    "npi": "1730558479",
    "hcaiId": "406011486",
    "businessName": "WE CARE HOSPICE, INC.",
    "contactEmail": "ASH@CCCMA.ORG",
    "categoryName": "HOSPICE",
    "categoryCode": "HOSPICE",
    "licenseStatus": "ACTIVE",
    "inService": true,
    "licenseNumber": "550004445",
    "licenseEffectiveDate": "10/30/2024",
    "licenseExpirationDate": "10/29/2026",
    "dataDate": "10/18/2025",
    "capacity": 0,
    "address": "2333 MOWRY AVE, SUITE 300",
    "city": "FREMONT",
    "zip": "94538",
    "county": "ALAMEDA",
    "phone": "(510) 894-0154",
    "lat": 37.556316,
    "lng": -121.982697
  },
  {
    "id": "140001022",
    "name": "WILLIAM E. TURNER",
    "npi": null,
    "hcaiId": null,
    "businessName": null,
    "contactEmail": null,
    "categoryName": "OTHER",
    "categoryCode": "UNLICEN",
    "licenseStatus": null,
    "inService": null,
    "licenseNumber": null,
    "licenseEffectiveDate": null,
    "licenseExpirationDate": null,
    "dataDate": "10/18/2025",
    "capacity": 0,
    "address": "3905 BEACON AVE",
    "city": "FREMONT",
    "zip": "94538",
    "county": "ALAMEDA",
    "phone": "(510) 792-3555",
    "lat": 37.547685,
    "lng": -121.9843755
  }
]