[
  {
    "id": "630020174",
    "name": "BRIDGE HOME HEALTH",
    "npi": null,
    "hcaiId": "406485377",
    "businessName": "BRIDGE HOME HEALTH SOLANO, LLC",
    "contactEmail": "KGREGORY@BRIDGEHH.COM",
    "categoryName": "HOME HEALTH AGENCY",
    "categoryCode": "HHA",
    "licenseStatus": "ACTIVE",
    "inService": true,
    "licenseNumber": "550006086",
    "licenseEffectiveDate": "03/03/2025",
    "licenseExpirationDate": "03/02/2026",
    "dataDate": "10/18/2025",
    "capacity": 0,
    "address": "1261 TRAVIS BLVD, SUITE 255",
    "city": "FAIRFIELD",
    "zip": "94533",
    "county": "SOLANO",
    "phone": "(702) 325-7019",
    "lat": 38.257695,
    "lng": -122.0494455
  },
  {
    "id": "630020171",
    "name": "BRIDGE HOSPICE",
    "npi": null,
    "hcaiId": "406483496",
    "businessName": "BRIDGE HOSPICE SOLANO, LLC",
    "contactEmail": "GBOGDAN@BRIDGEHH.COM",
    "categoryName": "HOSPICE",
    "categoryCode": "HOSPICE",
    "licenseStatus": "ACTIVE",
    "inService": true,
    "licenseNumber": "550006318",
    "licenseEffectiveDate": "09/15/2025",
    "licenseExpirationDate": "04/15/2027",
    "dataDate": "10/18/2025",
    "capacity": 0,
    "address": "1261 TRAVIS BLVD, SUITE 250",
    "city": "FAIRFIELD",
    "zip": "94533",
    "county": "SOLANO",
    "phone": "(708) 218-1661",
    "lat": 38.257695,
    "lng": -122.0494455
  },
  {
    "id": "630027909",
    "name": "BRISTOL HOSPICE - BAY AREA - SOLANO",
    "npi": null,
    "hcaiId": null,
    "businessName": "SOJOURN HOSPICE & PALLIATIVE CARE - EAST BAY, LLC",
    "contactEmail": "REGULATORY@BRISTOLHOSPICE.COM",
    "categoryName": "HOSPICE",
    "categoryCode": "HOSPICE",
    "licenseStatus": "ACTIVE",
    "inService": true,
    "licenseNumber": "550003382",
    "licenseEffectiveDate": "01/26/2024",
    "licenseExpirationDate": "01/25/2026",
    "dataDate": "10/18/2025",
    "capacity": 0,
    "address": "1261 TRAVIS BLVD, SUITE 110",
    "city": "FAIRFIELD",
    "zip": "94533",
    "county": "SOLANO",
    "phone": "(801) 433-0927",
    "lat": 38.25773302,
    "lng": -122.049507
  },
  {
    "id": "010001150",
    "name": "EAST BAY HOME HEALTH SERVICES, INC.",
    "npi": "1710986435",
    "hcaiId": "406484041",
    "businessName": "EAST BAY HOME HEALTH SERVICES, INC.",
    "contactEmail": "INFO@EASTBAYHOMEHEALTH.COM",
    "categoryName": "HOME HEALTH AGENCY",
    "categoryCode": "HHA",
    "licenseStatus": "ACTIVE",
    "inService": true,
    "licenseNumber": "010000436",
    "licenseEffectiveDate": "04/01/2025",
    "licenseExpirationDate": "03/31/2026",
    "dataDate": "10/18/2025",
    "capacity": 0,
    "address": "1710 PENNSYLVANIA AVE, SUITE E",
    "city": "FAIRFIELD",
    "zip": "94533",
    "county": "SOLANO",
    "phone": "(707) 428-1473",
    "lat": 38.260476,
    "lng": -122.049621
  },
  {
    "id": "110000031",
    "name": "EMMANUEL CARE CENTER - TRAVIS",
    "npi": null,
    "hcaiId": "206480995",
    "businessName": "INTELLIHEALTH CARE MANAGEMENT SERVICES INC",
    "contactEmail": "RICKY.BAUTISTA@EMMANUEL-POSTACUTE.COM",
    "categoryName": "SKILLED NURSING FACILITY",
    "categoryCode": "SNF",
    "licenseStatus": "ACTIVE",
    "inService": true,
    "licenseNumber": "110000027",
    "licenseEffectiveDate": "06/11/2025",
    "licenseExpirationDate": "12/31/2025",
    "dataDate": "10/18/2025",
    "capacity": 99,
    "address": "1244 TRAVIS BLVD",
    "city": "FAIRFIELD",
    "zip": "94533",
    "county": "SOLANO",
    "phone": "(209) 406-6610",
    "lat": 38.259117,
    "lng": -122.0481585
  },
  {
    "id": "630014934",
    "name": "FAIRFIELD DOWNTOWN DIALYSIS",
    "npi": "1790106300",
    "hcaiId": "306484065",
    "businessName": "HARMONY DIALYSIS, LLC",
    "contactEmail": "CAL_C@DAVITA.COM",
    "categoryName": "CHRONIC DIALYSIS CLINIC",
    "categoryCode": "ESRD/CDC",
    "licenseStatus": "ACTIVE",
    "inService": true,
    "licenseNumber": "550002809",
    "licenseEffectiveDate": "03/03/2025",
    "licenseExpirationDate": "03/02/2026",
    "dataDate": "10/18/2025",
    "capacity": 24,
    "address": "1800 N TEXAS ST",
    "city": "FAIRFIELD",
    "zip": "94533",
    "county": "SOLANO",
    "phone": "(707) 399-9984",
    "lat": 38.26226901,
    "lng": -122.033706
  },
  {
    "id": "630014166",
    "name": "FAIRFIELD FAMILY HEALTH SERVICES",
    "npi": null,
    "hcaiId": null,
    "businessName": null,
    "contactEmail": null,
    "categoryName": "PRIMARY CARE CLINIC",
    "categoryCode": "FQHC",
    "licenseStatus": null,
    "inService": null,
    "licenseNumber": null,
    "licenseEffectiveDate": null,
    "licenseExpirationDate": null,
    "dataDate": "10/18/2025",
    "capacity": 0,
    "address": "2201 COURAGE DR",
    "city": "FAIRFIELD",
    "zip": "94533",
    "county": "SOLANO",
    "phone": null,
    "lat": 38.2362198,
    "lng": -122.072189
  },
  {
    "id": "630014167",
    "name": "FAIRFIELD FAMILY HEALTH SERVICES",
    "npi": null,
    "hcaiId": null,
    "businessName": null,
    "contactEmail": null,
    "categoryName": "PRIMARY CARE CLINIC",
    "categoryCode": "FQHC",
    "licenseStatus": null,
    "inService": null,
    "licenseNumber": null,
    "licenseEffectiveDate": null,
    "licenseExpirationDate": null,
    "dataDate": "10/18/2025",
    "capacity": 0,
    "address": "2101 COURAGE DR",
    "city": "FAIRFIELD",
    "zip": "94533",
    "county": "SOLANO",
    "phone": null,
    "lat": 38.236617,
    "lng": -122.067693
  },
  {
    "id": "630015588",
    "name": "FAIRFIELD FAMILY HEALTH SERVICES",
    "npi": null,
    "hcaiId": null,
    "businessName": null,
    "contactEmail": null,
    "categoryName": "PRIMARY CARE CLINIC",
    "categoryCode": "FQHC",
    "licenseStatus": null,
    "inService": null,
    "licenseNumber": null,
    "licenseEffectiveDate": null,
    "licenseExpirationDate": null,
    "dataDate": "10/18/2025",
    "capacity": 0,
    "address": "740 TRAVIS BLVD.",
    "city": "FAIRFIELD",
    "zip": "94533",
    "county": "SOLANO",
    "phone": null,
    "lat": 38.2594164,
    "lng": -122.042526
  },
  {
    "id": "110000018",
    "name": "FAIRFIELD POST ACUTE REHABILITATION",
    "npi": "1780669093",
    "hcaiId": "206481084",
    "businessName": "SAGEBRUSH HEALTHCARE, INC.",
    "contactEmail": "SDATT@ENSIGNSERVICES.NET",
    "categoryName": "SKILLED NURSING FACILITY",
    "categoryCode": "SNF",
    "licenseStatus": "ACTIVE",
    "inService": true,
    "licenseNumber": "110000077",
    "licenseEffectiveDate": "11/01/2025",
    "licenseExpirationDate": "10/31/2026",
    "dataDate": "10/18/2025",
    "capacity": 99,
    "address": "1255 TRAVIS BLVD",
    "city": "FAIRFIELD",
    "zip": "94533",
    "county": "SOLANO",
    "phone": "(707) 425-0623",
    "lat": 38.257434,
    "lng": -122.0485815
  },
  {
    "id": "630015589",
    "name": "FAMILY HEALTH SERVICES PRIMARY CARE VAN",
    "npi": null,
    "hcaiId": null,
    "businessName": null,
    "contactEmail": null,
    "categoryName": "PRIMARY CARE CLINIC",
    "categoryCode": "FQHC",
    "licenseStatus": null,
    "inService": null,
    "licenseNumber": null,
    "licenseEffectiveDate": null,
    "licenseExpirationDate": null,
    "dataDate": "10/18/2025",
    "capacity": 0,
    "address": "3255 NORTH TEXAS STREET",
    "city": "FAIRFIELD",
    "zip": "94533",
    "county": "SOLANO",
    "phone": null,
    "lat": 38.2880916,
    "lng": -122.0370775
  },
  {
    "id": "110000077",
    "name": "GREENFIELD CARE CENTER OF FAIRFIELD",
    "npi": "1396732590",
    "hcaiId": "206481086",
    "businessName": "GREENFIELD CARE CENTER OF FAIRFIELD, LLC",
    "contactEmail": "ADMIN@GCCFAIRFIELD.COM",
    "categoryName": "SKILLED NURSING FACILITY",
    "categoryCode": "SNF",
    "licenseStatus": "ACTIVE",
    "inService": true,
    "licenseNumber": "110000079",
    "licenseEffectiveDate": "11/01/2025",
    "licenseExpirationDate": "10/31/2026",
    "dataDate": "10/18/2025",
    "capacity": 90,
    "address": "1260 TRAVIS BLVD",
    "city": "FAIRFIELD",
    "zip": "94533",
    "county": "SOLANO",
    "phone": "(209) 604-5448",
    "lat": 38.258613,
    "lng": -122.0492115
  },
  {
    "id": "110000863",
    "name": "LAUREL CREEK HEALTH CENTER",
    "npi": null,
    "hcaiId": "206484032",
    "businessName": "NORTHERN CALIFORNIA RETIRED OFFICERS COMMUNITY",
    "contactEmail": "KEVINH@PVESTATES.COM",
    "categoryName": "SKILLED NURSING FACILITY",
    "categoryCode": "SNF",
    "licenseStatus": "ACTIVE",
    "inService": true,
    "licenseNumber": "110000338",
    "licenseEffectiveDate": "05/15/2025",
    "licenseExpirationDate": "05/14/2026",
    "dataDate": "10/18/2025",
    "capacity": 60,
    "address": "2800 ESTATES DR",
    "city": "FAIRFIELD",
    "zip": "94533",
    "county": "SOLANO",
    "phone": "(707) 207-7807",
    "lat": 38.30668417,
    "lng": -122.0294789
  },
  {
    "id": "630014165",
    "name": "MOBILE DENTAL VAN",
    "npi": null,
    "hcaiId": null,
    "businessName": null,
    "contactEmail": null,
    "categoryName": "PRIMARY CARE CLINIC",
    "categoryCode": "FQHC",
    "licenseStatus": null,
    "inService": null,
    "licenseNumber": null,
    "licenseEffectiveDate": null,
    "licenseExpirationDate": null,
    "dataDate": "10/18/2025",
    "capacity": 0,
    "address": "2101 COURAGE DR",
    "city": "FAIRFIELD",
    "zip": "94533",
    "county": "SOLANO",
    "phone": null,
    "lat": 38.236617,
    "lng": -122.067693
  },
  {
    "id": "110000010",
    "name": "NORTHBAY MEDICAL CENTER",
    "npi": "1821147786",
    "hcaiId": "106481357",
    "businessName": "NORTHBAY HEALTHCARE GROUP",
    "contactEmail": "JANAI.BOLDS@NORTHBAY.ORG",
    "categoryName": "GENERAL ACUTE CARE HOSPITAL",
    "categoryCode": "GACH",
    "licenseStatus": "ACTIVE",
    "inService": true,
    "licenseNumber": "110000093",
    "licenseEffectiveDate": "09/10/2025",
    "licenseExpirationDate": "12/11/2025",
    "dataDate": "10/18/2025",
    "capacity": 154,
    "address": "1200 B GALE WILSON BLVD",
    "city": "FAIRFIELD",
    "zip": "94533",
    "county": "SOLANO",
    "phone": "(707) 646-5000",
    "lat": 38.261844,
    "lng": -122.047353
  },
  {
    "id": "630018351",
    "name": "OLE HEALTH",
    "npi": "1316429558",
    "hcaiId": null,
    "businessName": "OLE HEALTH",
    "contactEmail": null,
    "categoryName": "PRIMARY CARE CLINIC",
    "categoryCode": "COMTYC",
    "licenseStatus": "ACTIVE",
    "inService": true,
    "licenseNumber": "550003358",
    "licenseEffectiveDate": "01/26/2025",
    "licenseExpirationDate": "01/25/2026",
    "dataDate": "10/18/2025",
    "capacity": 0,
    "address": "1101 B GALE WILSON BLVD, SUITE 101C",
    "city": "FAIRFIELD",
    "zip": "94533",
    "county": "SOLANO",
    "phone": null,
    "lat": 38.260773,
    "lng": -122.046219
  },
  {
    "id": "630028195",
    "name": "OLE HEALTH (COMMUNICARE+OLE TRAVIS)",
    "npi": null,
    "hcaiId": null,
    "businessName": "OLE HEALTH",
    "contactEmail": null,
    "categoryName": "PRIMARY CARE CLINIC",
    "categoryCode": "COMTYC",
    "licenseStatus": "ACTIVE",
    "inService": true,
    "licenseNumber": "030000146",
    "licenseEffectiveDate": "04/22/2025",
    "licenseExpirationDate": "04/21/2026",
    "dataDate": "10/18/2025",
    "capacity": 0,
    "address": "1313 TRAVIS BLVD, SUITE A",
    "city": "FAIRFIELD",
    "zip": "94533",
    "county": "SOLANO",
    "phone": null,
    "lat": 38.25780942,
    "lng": -122.0506327
  },
  {
    "id": "010001143",
    "name": "PARADISE VALLEY ICF DDH, INC",
    "npi": "1104317460",
    "hcaiId": null,
    "businessName": "PARADISE VALLEY ICF DDH, INC",
    "contactEmail": "WEREBOJUS2003@YAHOO.COM",
    "categoryName": "INTERMEDIATE CARE FACILITY-DD/H/N/CN/IID",
    "categoryCode": "ICFDDH",
    "licenseStatus": "ACTIVE",
    "inService": true,
    "licenseNumber": "010000432",
    "licenseEffectiveDate": "12/07/2024",
    "licenseExpirationDate": "12/06/2025",
    "dataDate": "10/18/2025",
    "capacity": 6,
    "address": "3313 EL PINOLE WAY",
    "city": "FAIRFIELD",
    "zip": "94533",
    "county": "SOLANO",
    "phone": "(707) 425-2202",
    "lat": 38.289807,
    "lng": -122.0260995
  },
  {
    "id": "010000793",
    "name": "PATHWAYS II ICF/DD-N",
    "npi": "1013125749",
    "hcaiId": null,
    "businessName": "THE OASIS HOME INC",
    "contactEmail": "PATHWAYS@THEOASISHOME.NET",
    "categoryName": "INTERMEDIATE CARE FACILITY-DD/H/N/CN/IID",
    "categoryCode": "ICFDDN",
    "licenseStatus": "ACTIVE",
    "inService": true,
    "licenseNumber": "010000304",
    "licenseEffectiveDate": "09/17/2025",
    "licenseExpirationDate": "11/20/2025",
    "dataDate": "10/18/2025",
    "capacity": 6,
    "address": "1132 GULF DR",
    "city": "FAIRFIELD",
    "zip": "94533",
    "county": "SOLANO",
    "phone": "(925) 503-4134",
    "lat": 38.2846983,
    "lng": -122.0118201
  },
  {
    "id": "630013392",
    "name": "PATHWAYS III ICF/DD-N",
    "npi": "1952687279",
    "hcaiId": null,
    "businessName": "THE OASIS HOME INC",
    "contactEmail": "PATHWAYS@THEOASISHOME.NET",
    "categoryName": "INTERMEDIATE CARE FACILITY-DD/H/N/CN/IID",
    "categoryCode": "ICFDDN",
    "licenseStatus": "ACTIVE",
    "inService": true,
    "licenseNumber": "550001924",
    "licenseEffectiveDate": "09/12/2025",
    "licenseExpirationDate": "04/23/2026",
    "dataDate": "10/18/2025",
    "capacity": 6,
    "address": "3038 PECAN CIR",
    "city": "FAIRFIELD",
    "zip": "94533",
    "county": "SOLANO",
    "phone": "(925) 503-4134",
    "lat": 38.28483,
    "lng": -122.0192595
  },
  {
    "id": "110000127",
    "name": "PLANNED PARENTHOOD - FAIRFIELD CENTER",
    "npi": null,
    "hcaiId": "306482331",
    "businessName": "PLANNED PARENTHOOD: SHASTA-DIABLO, INC.",
    "contactEmail": "KWILLIAMS@PPNORCAL.ORG",
    "categoryName": "PRIMARY CARE CLINIC",
    "categoryCode": "COMTYC",
    "licenseStatus": "ACTIVE",
    "inService": true,
    "licenseNumber": "110000151",
    "licenseEffectiveDate": "03/01/2025",
    "licenseExpirationDate": "02/28/2026",
    "dataDate": "10/18/2025",
    "capacity": 0,
    "address": "1325 TRAVIS BLVD",
    "city": "FAIRFIELD",
    "zip": "94533",
    "county": "SOLANO",
    "phone": "(707) 398-8916",
    "lat": 38.257668,
    "lng": -122.051871
  },
  {
    "id": "110000404",
    "name": "SOLANO CO. DEPT.OF PUBLIC HEALTH/PRIMARY CARE CL.",
    "npi": null,
    "hcaiId": null,
    "businessName": null,
    "contactEmail": null,
    "categoryName": "PRIMARY CARE CLINIC",
    "categoryCode": "COMTYC",
    "licenseStatus": null,
    "inService": null,
    "licenseNumber": null,
    "licenseEffectiveDate": null,
    "licenseExpirationDate": null,
    "dataDate": "10/18/2025",
    "capacity": 0,
    "address": "2100 W TEXAS ST",
    "city": "FAIRFIELD",
    "zip": "94533",
    "county": "SOLANO",
    "phone": "(707) 421-6650",
    "lat": 38.250504,
    "lng": -122.0650245
  }
]