[
  {
    "id": "630025077",
    "name": "ACAVAM HOME HEALTH",
    "npi": null,
    "hcaiId": null,
    "businessName": "DELTA BAY HEALTHCARE INC",
    "contactEmail": "ADMIN@DELTABAYHC.COM",
    "categoryName": "HOME HEALTH AGENCY",
    "categoryCode": "HHA",
    "licenseStatus": "ACTIVE",
    "inService": true,
    "licenseNumber": "550009315",
    "licenseEffectiveDate": "07/30/2025",
    "licenseExpirationDate": "07/29/2026",
    "dataDate": "10/18/2025",
    "capacity": 0,
    "address": "5137 LONE TREE WAY",
    "city": "ANTIOCH",
    "zip": "94531",
    "county": "CONTRA COSTA",
    "phone": "(510) 862-4642",
    "lat": 37.962927,
    "lng": -121.7559285
  },
  {
    "id": "140001371",
    "name": "AMERICAN STAR HOME 2 ICF/DD-N",
    "npi": "1629102710",
    "hcaiId": null,
    "businessName": "AMERICAN STAR HOME 2 ICF/DD-N",
    "contactEmail": "VCKYTING@AOL.COM",
    "categoryName": "INTERMEDIATE CARE FACILITY-DD/H/N/CN/IID",
    "categoryCode": "ICFDDN",
    "licenseStatus": "ACTIVE",
    "inService": true,
    "licenseNumber": "140000706",
    "licenseEffectiveDate": "11/02/2025",
    "licenseExpirationDate": "11/01/2026",
    "dataDate": "10/18/2025",
    "capacity": 6,
    "address": "5102 SIMS MOUNTAIN COURT",
    "city": "ANTIOCH",
    "zip": "94531",
    "county": "CONTRA COSTA",
    "phone": "(925) 757-4121",
    "lat": 37.963989,
    "lng": -121.796937
  },
  {
    "id": "630024393",
    "name": "AURA HOME HEALTH, LLC",
    "npi": null,
    "hcaiId": "406077172",
    "businessName": "AURA HOME HEALTH, LLC",
    "contactEmail": "INFO@AURAHOMEHEALTH.COM",
    "categoryName": "HOME HEALTH AGENCY",
    "categoryCode": "HHA",
    "licenseStatus": "ACTIVE",
    "inService": true,
    "licenseNumber": "550008134",
    "licenseEffectiveDate": "08/08/2025",
    "licenseExpirationDate": "08/07/2026",
    "dataDate": "10/18/2025",
    "capacity": 0,
    "address": "5065 DEER VALLEY RD, SUITE 109",
    "city": "ANTIOCH",
    "zip": "94531",
    "county": "CONTRA COSTA",
    "phone": "(925) 247-8850",
    "lat": 37.96433984,
    "lng": -121.7803218
  },
  {
    "id": "630022239",
    "name": "AURA HOSPICE LLC",
    "npi": null,
    "hcaiId": "406070020",
    "businessName": "AURA HOSPICE LLC",
    "contactEmail": "INFO@AURAHOSPICE.COM",
    "categoryName": "HOSPICE",
    "categoryCode": "HOSPICE",
    "licenseStatus": "ACTIVE",
    "inService": true,
    "licenseNumber": "550007671",
    "licenseEffectiveDate": "01/25/2024",
    "licenseExpirationDate": "12/20/2025",
    "dataDate": "10/18/2025",
    "capacity": 0,
    "address": "5065 DEER VALLEY RD, SUITE 110",
    "city": "ANTIOCH",
    "zip": "94531",
    "county": "CONTRA COSTA",
    "phone": "(925) 635-8808",
    "lat": 37.964339,
    "lng": -121.780316
  },
  {
    "id": "630007961",
    "name": "CEDAR RIDGE HOUSE ICF/DD-N",
    "npi": "1811102791",
    "hcaiId": null,
    "businessName": "LESMONI, INC.",
    "contactEmail": "ARMANDO_JUDITH@YAHOO.COM",
    "categoryName": "INTERMEDIATE CARE FACILITY-DD/H/N/CN/IID",
    "categoryCode": "ICFDDN",
    "licenseStatus": "ACTIVE",
    "inService": true,
    "licenseNumber": "550000149",
    "licenseEffectiveDate": "11/28/2024",
    "licenseExpirationDate": "11/27/2025",
    "dataDate": "10/18/2025",
    "capacity": 6,
    "address": "5241 CEDAR RIDGE WAY",
    "city": "ANTIOCH",
    "zip": "94531",
    "county": "CONTRA COSTA",
    "phone": "(925) 757-1379",
    "lat": 37.958121,
    "lng": -121.8001725
  },
  {
    "id": "630018840",
    "name": "CONTRA COSTA COMMUNITY OUTREACH CLINIC AND LABORATORY",
    "npi": null,
    "hcaiId": "306070508",
    "businessName": "CONTRA COSTA COMMUNITY OUTREACH CLINIC AND LABORATORY",
    "contactEmail": "JESSICA@OUTREACHLABSERVICE.COM",
    "categoryName": "PRIMARY CARE CLINIC",
    "categoryCode": "FREEC",
    "licenseStatus": "ACTIVE",
    "inService": true,
    "licenseNumber": "550005199",
    "licenseEffectiveDate": "12/02/2024",
    "licenseExpirationDate": "12/01/2025",
    "dataDate": "10/18/2025",
    "capacity": 0,
    "address": "4041 LONE TREE WAY, SUITE 110",
    "city": "ANTIOCH",
    "zip": "94531",
    "county": "CONTRA COSTA",
    "phone": "(925) 550-5994",
    "lat": 37.97676,
    "lng": -121.8016035
  },
  {
    "id": "630016936",
    "name": "FIELD HOUSE ICF/DDH",
    "npi": "1033662218",
    "hcaiId": null,
    "businessName": "LESMONI, INC.",
    "contactEmail": "ARMANDO_JUDITH@YAHOO.COM",
    "categoryName": "INTERMEDIATE CARE FACILITY-DD/H/N/CN/IID",
    "categoryCode": "ICFDDH",
    "licenseStatus": "ACTIVE",
    "inService": true,
    "licenseNumber": "550003983",
    "licenseEffectiveDate": "10/13/2025",
    "licenseExpirationDate": "10/12/2026",
    "dataDate": "10/18/2025",
    "capacity": 6,
    "address": "2215 FIELD STREET",
    "city": "ANTIOCH",
    "zip": "94531",
    "county": "CONTRA COSTA",
    "phone": "(925) 325-5344",
    "lat": 38.004309,
    "lng": -121.8489885
  },
  {
    "id": "630011203",
    "name": "KAISER FOUNDATION HOSPITAL - ANTIOCH",
    "npi": "1851417547",
    "hcaiId": "106074097",
    "businessName": "KAISER FOUNDATION HOSPITALS",
    "contactEmail": "ROWENA.R.WEI@KP.ORG",
    "categoryName": "GENERAL ACUTE CARE HOSPITAL",
    "categoryCode": "GACH",
    "licenseStatus": "ACTIVE",
    "inService": true,
    "licenseNumber": "550000614",
    "licenseEffectiveDate": "11/07/2024",
    "licenseExpirationDate": "11/06/2025",
    "dataDate": "10/18/2025",
    "capacity": 150,
    "address": "4501 SAND CREEK ROAD",
    "city": "ANTIOCH",
    "zip": "94531",
    "county": "CONTRA COSTA",
    "phone": "(925) 270-5424",
    "lat": 37.950696,
    "lng": -121.774824
  },
  {
    "id": "630016989",
    "name": "LONE TREE RANCH DIALYSIS",
    "npi": null,
    "hcaiId": "306074200",
    "businessName": "TOTAL RENAL CARE, INC.",
    "contactEmail": "CAL_C@DAVITA.COM",
    "categoryName": "CHRONIC DIALYSIS CLINIC",
    "categoryCode": "ESRD/CDC",
    "licenseStatus": "ACTIVE",
    "inService": true,
    "licenseNumber": "550003900",
    "licenseEffectiveDate": "06/19/2025",
    "licenseExpirationDate": "06/18/2026",
    "dataDate": "10/18/2025",
    "capacity": 28,
    "address": "4040 LONE TREE WAY",
    "city": "ANTIOCH",
    "zip": "94531",
    "county": "CONTRA COSTA",
    "phone": "(925) 777-3356",
    "lat": 37.976571,
    "lng": -121.8042135
  }
]