[
  {
    "id": "630016227",
    "name": "ASEB-MISSION SAN JOSE",
    "npi": null,
    "hcaiId": null,
    "businessName": "ALZHEIMER'S SERVICES OF THE EAST BAY, INCORPORATED",
    "contactEmail": "MICHEAL@ASEB.ORG",
    "categoryName": "ADULT DAY HEALTH CARE",
    "categoryCode": "ADHC",
    "licenseStatus": "ACTIVE",
    "inService": true,
    "licenseNumber": "550003551",
    "licenseEffectiveDate": "06/22/2021",
    "licenseExpirationDate": "06/21/2022",
    "dataDate": "10/18/2025",
    "capacity": 0,
    "address": "43326 MISSION CIRCLE",
    "city": "FREMONT",
    "zip": "94539",
    "county": "ALAMEDA",
    "phone": "(510) 656-1329",
    "lat": 37.533879,
    "lng": -121.916664
  },
  {
    "id": "630025112",
    "name": "BRIGHTSTAR CARE OF FREMONT",
    "npi": null,
    "hcaiId": null,
    "businessName": "CALIFORNIA DREAM CARE, LLC",
    "contactEmail": "FREMONT@BRIGHTSTARCARE.COM",
    "categoryName": "HOME HEALTH AGENCY",
    "categoryCode": "HHA",
    "licenseStatus": "ACTIVE",
    "inService": true,
    "licenseNumber": "550008501",
    "licenseEffectiveDate": "09/25/2023",
    "licenseExpirationDate": "03/24/2024",
    "dataDate": "10/18/2025",
    "capacity": 0,
    "address": "39666 MISSION BLVD",
    "city": "FREMONT",
    "zip": "94539",
    "county": "ALAMEDA",
    "phone": "(510) 722-3192",
    "lat": 37.560474,
    "lng": -121.9561065
  },
  {
    "id": "630018661",
    "name": "HOME CONNECT HOSPICE, LLC",
    "npi": null,
    "hcaiId": "406015953",
    "businessName": "HOME CONNECT HOSPICE, LLC",
    "contactEmail": "DRODRIGUEZ@HOMECONNECTHOSPICE.COM",
    "categoryName": "HOSPICE",
    "categoryCode": "HOSPICE",
    "licenseStatus": "ACTIVE",
    "inService": true,
    "licenseNumber": "550006316",
    "licenseEffectiveDate": "04/17/2025",
    "licenseExpirationDate": "09/07/2026",
    "dataDate": "10/18/2025",
    "capacity": 0,
    "address": "200 BROWN RD, SUITE 106",
    "city": "FREMONT",
    "zip": "94539",
    "county": "ALAMEDA",
    "phone": "(510) 403-4046",
    "lat": 37.494783,
    "lng": -121.9255155
  },
  {
    "id": "630013434",
    "name": "LIFE SPRINGS HOSPICE CARE",
    "npi": null,
    "hcaiId": "406014293",
    "businessName": "LIFE SPRINGS HOSPICE CARE, INC.",
    "contactEmail": "INFO@LIFESPRINGSHOSPICE.COM",
    "categoryName": "HOSPICE",
    "categoryCode": "HOSPICE",
    "licenseStatus": "ACTIVE",
    "inService": true,
    "licenseNumber": "550001877",
    "licenseEffectiveDate": "03/22/2024",
    "licenseExpirationDate": "03/21/2026",
    "dataDate": "10/18/2025",
    "capacity": 0,
    "address": "60 WHITNEY PLACE",
    "city": "FREMONT",
    "zip": "94539",
    "county": "ALAMEDA",
    "phone": "(510) 623-1561",
    "lat": 37.469772,
    "lng": -121.918599
  },
  {
    "id": "020000334",
    "name": "LITTLEFOOT HOUSE",
    "npi": "1164564423",
    "hcaiId": null,
    "businessName": "COMMUNITY CARE INITIATIVES, INC.",
    "contactEmail": "AKATANHA@CAMPINC.COMCASTBIZ.NET",
    "categoryName": "INTERMEDIATE CARE FACILITY-DD/H/N/CN/IID",
    "categoryCode": "ICFDDH",
    "licenseStatus": "ACTIVE",
    "inService": true,
    "licenseNumber": "020000300",
    "licenseEffectiveDate": "12/07/2024",
    "licenseExpirationDate": "12/06/2025",
    "dataDate": "10/18/2025",
    "capacity": 6,
    "address": "180 LITTLE FOOT DR",
    "city": "FREMONT",
    "zip": "94539",
    "county": "ALAMEDA",
    "phone": "(510) 770-0665",
    "lat": 37.505664,
    "lng": -121.921155
  },
  {
    "id": "140001024",
    "name": "MARSHA WANG",
    "npi": null,
    "hcaiId": null,
    "businessName": null,
    "contactEmail": null,
    "categoryName": "OTHER",
    "categoryCode": "UNLICEN",
    "licenseStatus": null,
    "inService": null,
    "licenseNumber": null,
    "licenseEffectiveDate": null,
    "licenseExpirationDate": null,
    "dataDate": "10/18/2025",
    "capacity": 0,
    "address": "46923 WARM SPGS BLVD, SUITE 103",
    "city": "FREMONT",
    "zip": "94539",
    "county": "ALAMEDA",
    "phone": "(510) 651-6215",
    "lat": 37.487979,
    "lng": -121.928805
  },
  {
    "id": "140000750",
    "name": "MISSION VALLEY SURGERY CENTER",
    "npi": "1952432122",
    "hcaiId": "306014038",
    "businessName": null,
    "contactEmail": null,
    "categoryName": "SURGICAL CLINIC",
    "categoryCode": "ASC",
    "licenseStatus": "INACTIVE - CAPEN DECISION",
    "inService": false,
    "licenseNumber": "140000369",
    "licenseEffectiveDate": "12/17/2007",
    "licenseExpirationDate": "12/16/2008",
    "dataDate": "10/18/2025",
    "capacity": 0,
    "address": "39263 MISSION BOULEVARD",
    "city": "FREMONT",
    "zip": "94539",
    "county": "ALAMEDA",
    "phone": "(510) 796-4500",
    "lat": 37.56258,
    "lng": -121.9596165
  },
  {
    "id": "630027687",
    "name": "PACIFIC CARE FACILITIES",
    "npi": null,
    "hcaiId": null,
    "businessName": "PACIFIC CARE FACILITIES LLC",
    "contactEmail": "SENIORCAREMODESTO@GMAIL.COM",
    "categoryName": "CONGREGATE LIVING HEALTH FACILITY",
    "categoryCode": "CLHF",
    "licenseStatus": "ACTIVE",
    "inService": true,
    "licenseNumber": "550009412",
    "licenseEffectiveDate": "10/10/2025",
    "licenseExpirationDate": "10/09/2026",
    "dataDate": "10/18/2025",
    "capacity": 18,
    "address": "207 AVENIDA PALMDALE",
    "city": "FREMONT",
    "zip": "94539",
    "county": "ALAMEDA",
    "phone": "(646) 416-1430",
    "lat": 37.53568298,
    "lng": -121.923638
  },
  {
    "id": "630014342",
    "name": "PRIMELIVING HOME HEALTH, INC.",
    "npi": null,
    "hcaiId": "406014323",
    "businessName": "PRIMELIVING HOME HEALTH, INC.",
    "contactEmail": "INFO@PRIMELIVINGHOMEHEALTH.NET",
    "categoryName": "HOME HEALTH AGENCY",
    "categoryCode": "HHA",
    "licenseStatus": "ACTIVE",
    "inService": true,
    "licenseNumber": "550002401",
    "licenseEffectiveDate": "09/12/2025",
    "licenseExpirationDate": "09/11/2026",
    "dataDate": "10/18/2025",
    "capacity": 0,
    "address": "48521 WARM SPRINGS BOULEVARD, SUITE 307A",
    "city": "FREMONT",
    "zip": "94539",
    "county": "ALAMEDA",
    "phone": "(510) 770-9810",
    "lat": 37.467972,
    "lng": -121.917609
  },
  {
    "id": "630014274",
    "name": "SUNCREST HOSPICE",
    "npi": "1124368808",
    "hcaiId": "406014351",
    "businessName": "SUNCREST HOSPICE SAN JOSE, LLC",
    "contactEmail": "MFILHART@SUNCRESTCARE.COM",
    "categoryName": "HOSPICE",
    "categoryCode": "HOSPICE",
    "licenseStatus": "ACTIVE",
    "inService": true,
    "licenseNumber": "550002410",
    "licenseEffectiveDate": "09/17/2025",
    "licenseExpirationDate": "09/16/2027",
    "dataDate": "10/18/2025",
    "capacity": 0,
    "address": "3215 SKYWAY CT",
    "city": "FREMONT",
    "zip": "94539",
    "county": "ALAMEDA",
    "phone": "(480) 277-1924",
    "lat": 37.50957,
    "lng": -121.9421475
  },
  {
    "id": "630010882",
    "name": "WARM SPRINGS HOME HEALTH, INC.",
    "npi": "1790701175",
    "hcaiId": "406014212",
    "businessName": "WARM SPRINGS HOME HEALTH, INC.",
    "contactEmail": "INFO@WARMSPRINGSHEALTH.COM",
    "categoryName": "HOME HEALTH AGENCY",
    "categoryCode": "HHA",
    "licenseStatus": "ACTIVE",
    "inService": true,
    "licenseNumber": "550000226",
    "licenseEffectiveDate": "06/07/2025",
    "licenseExpirationDate": "06/06/2026",
    "dataDate": "10/18/2025",
    "capacity": 0,
    "address": "54 WHITNEY PLACE",
    "city": "FREMONT",
    "zip": "94539",
    "county": "ALAMEDA",
    "phone": "(510) 490-6988",
    "lat": 37.469772,
    "lng": -121.918599
  }
]