[
  {
    "id": "630021611",
    "name": "BACH - MOBILE HEALTH CLINIC #6",
    "npi": null,
    "hcaiId": null,
    "businessName": "BAY AREA COMMUNITY HEALTH",
    "contactEmail": null,
    "categoryName": "PRIMARY CARE CLINIC",
    "categoryCode": "COMTYC",
    "licenseStatus": "ACTIVE",
    "inService": true,
    "licenseNumber": "550000139",
    "licenseEffectiveDate": "11/21/2024",
    "licenseExpirationDate": "11/20/2025",
    "dataDate": "10/18/2025",
    "capacity": 0,
    "address": "4949 THORNTON AVE",
    "city": "FREMONT",
    "zip": "94536",
    "county": "ALAMEDA",
    "phone": null,
    "lat": 37.549503,
    "lng": -122.022117
  },
  {
    "id": "630021612",
    "name": "BACH - MOBILE HEALTH CLINIC #7",
    "npi": null,
    "hcaiId": null,
    "businessName": "BAY AREA COMMUNITY HEALTH",
    "contactEmail": null,
    "categoryName": "PRIMARY CARE CLINIC",
    "categoryCode": "COMTYC",
    "licenseStatus": "ACTIVE",
    "inService": true,
    "licenseNumber": "550000139",
    "licenseEffectiveDate": "11/21/2024",
    "licenseExpirationDate": "11/20/2025",
    "dataDate": "10/18/2025",
    "capacity": 0,
    "address": "4949 THORNTON AVE",
    "city": "FREMONT",
    "zip": "94536",
    "county": "ALAMEDA",
    "phone": null,
    "lat": 37.549503,
    "lng": -122.022117
  },
  {
    "id": "630021613",
    "name": "BACH - MOBILE HEALTH CLINIC #8",
    "npi": null,
    "hcaiId": null,
    "businessName": "BAY AREA COMMUNITY HEALTH",
    "contactEmail": null,
    "categoryName": "PRIMARY CARE CLINIC",
    "categoryCode": "COMTYC",
    "licenseStatus": "ACTIVE",
    "inService": true,
    "licenseNumber": "550000139",
    "licenseEffectiveDate": "11/21/2024",
    "licenseExpirationDate": "11/20/2025",
    "dataDate": "10/18/2025",
    "capacity": 0,
    "address": "4949 THORNTON AVE",
    "city": "FREMONT",
    "zip": "94536",
    "county": "ALAMEDA",
    "phone": null,
    "lat": 37.549503,
    "lng": -122.022117
  },
  {
    "id": "020000020",
    "name": "COUNTRY DRIVE POST ACUTE",
    "npi": "1841336534",
    "hcaiId": "206013570",
    "businessName": "WINDSOR COUNTRY DRIVE CARE CENTER, LLC",
    "contactEmail": "ADMINISTRATOR@WINDSORCOUNTRYDRIVE.COM",
    "categoryName": "SKILLED NURSING FACILITY",
    "categoryCode": "SNF",
    "licenseStatus": "ACTIVE",
    "inService": true,
    "licenseNumber": "020000181",
    "licenseEffectiveDate": "09/18/2025",
    "licenseExpirationDate": "11/28/2025",
    "dataDate": "10/18/2025",
    "capacity": 126,
    "address": "2500 COUNTRY DRIVE",
    "city": "FREMONT",
    "zip": "94536",
    "county": "ALAMEDA",
    "phone": "(510) 792-4242",
    "lat": 37.557018,
    "lng": -121.98492
  },
  {
    "id": "630015559",
    "name": "EMMANUEL HEALTHCARE, INC.",
    "npi": "1265836878",
    "hcaiId": "406014341",
    "businessName": "EMMANUEL HEALTHCARE, INC.",
    "contactEmail": "CMATA@EMMANUELHC.COM",
    "categoryName": "HOME HEALTH AGENCY",
    "categoryCode": "HHA",
    "licenseStatus": "ACTIVE",
    "inService": true,
    "licenseNumber": "550003004",
    "licenseEffectiveDate": "03/05/2025",
    "licenseExpirationDate": "03/04/2026",
    "dataDate": "10/18/2025",
    "capacity": 0,
    "address": "4510 PERALTA BOULEVARD, SUITE 25",
    "city": "FREMONT",
    "zip": "94536",
    "county": "ALAMEDA",
    "phone": "(510) 894-4139",
    "lat": 37.551222,
    "lng": -122.0106915
  },
  {
    "id": "630019019",
    "name": "MISSION SURGERY CENTER, INC.",
    "npi": "1255793758",
    "hcaiId": null,
    "businessName": null,
    "contactEmail": null,
    "categoryName": "SURGICAL CLINIC",
    "categoryCode": "ASC",
    "licenseStatus": null,
    "inService": null,
    "licenseNumber": null,
    "licenseEffectiveDate": null,
    "licenseExpirationDate": null,
    "dataDate": "10/18/2025",
    "capacity": 0,
    "address": "38437 MISSION BLVD, SUITE 102",
    "city": "FREMONT",
    "zip": "94536",
    "county": "ALAMEDA",
    "phone": "(510) 818-9237",
    "lat": 37.572246,
    "lng": -121.96809
  },
  {
    "id": "020000036",
    "name": "MISSION VALLEY POST ACUTE",
    "npi": "1285781013",
    "hcaiId": "206010915",
    "businessName": "FREMONT SNF HEALTHCARE LLC",
    "contactEmail": "CRAIG.BILLS@PACS.COM",
    "categoryName": "SKILLED NURSING FACILITY",
    "categoryCode": "SNF",
    "licenseStatus": "ACTIVE",
    "inService": true,
    "licenseNumber": "020000085",
    "licenseEffectiveDate": "12/26/2024",
    "licenseExpirationDate": "12/25/2025",
    "dataDate": "10/18/2025",
    "capacity": 85,
    "address": "2400 PARKSIDE DRIVE",
    "city": "FREMONT",
    "zip": "94536",
    "county": "ALAMEDA",
    "phone": "(510) 793-7222",
    "lat": 37.559016,
    "lng": -121.98213
  },
  {
    "id": "020000101",
    "name": "NILES CANYON POST ACUTE",
    "npi": "1851933261",
    "hcaiId": "206013368",
    "businessName": "SWAMIS HOLDINGS LLC",
    "contactEmail": "ESAMPSON@WESTHARBORHC.COM",
    "categoryName": "SKILLED NURSING FACILITY",
    "categoryCode": "SNF",
    "licenseStatus": "ACTIVE",
    "inService": true,
    "licenseNumber": "020000175",
    "licenseEffectiveDate": "11/23/2024",
    "licenseExpirationDate": "11/22/2025",
    "dataDate": "10/18/2025",
    "capacity": 73,
    "address": "38650 MISSION BOULEVARD",
    "city": "FREMONT",
    "zip": "94536",
    "county": "ALAMEDA",
    "phone": "(510) 793-3000",
    "lat": 37.570527,
    "lng": -121.9653315
  },
  {
    "id": "630013469",
    "name": "ON LOK SENIOR HEALTH SERVICES PERALTA CENTER",
    "npi": null,
    "hcaiId": null,
    "businessName": "ON LOK SENIOR HEALTH SERVICES",
    "contactEmail": "NICOLE@ONLOK.ORG",
    "categoryName": "ADULT DAY HEALTH CARE",
    "categoryCode": "ADHC",
    "licenseStatus": "ACTIVE",
    "inService": true,
    "licenseNumber": "550001891",
    "licenseEffectiveDate": "04/16/2025",
    "licenseExpirationDate": "04/15/2026",
    "dataDate": "10/18/2025",
    "capacity": 0,
    "address": "3683 PERALTA BLVD",
    "city": "FREMONT",
    "zip": "94536",
    "county": "ALAMEDA",
    "phone": "(415) 292-8799",
    "lat": 37.559547,
    "lng": -122.0042655
  },
  {
    "id": "630013491",
    "name": "ON LOK SENIOR HEALTH SERVICES PERALTA CENTER",
    "npi": null,
    "hcaiId": "306014290",
    "businessName": "ON LOK SENIOR HEALTH SERVICES",
    "contactEmail": "NICOLE@ONLOK.ORG",
    "categoryName": "PRIMARY CARE CLINIC",
    "categoryCode": "COMTYC",
    "licenseStatus": "ACTIVE",
    "inService": true,
    "licenseNumber": "550001921",
    "licenseEffectiveDate": "04/30/2025",
    "licenseExpirationDate": "04/29/2026",
    "dataDate": "10/18/2025",
    "capacity": 0,
    "address": "3683 PERALTA BLVD",
    "city": "FREMONT",
    "zip": "94536",
    "county": "ALAMEDA",
    "phone": "(415) 292-8799",
    "lat": 37.559547,
    "lng": -122.0042655
  },
  {
    "id": "020000851",
    "name": "PROFESSIONAL HOME CARE ASSOCIATES",
    "npi": "1619967619",
    "hcaiId": "406014070",
    "businessName": "PROFESSIONAL HOME CARE ASSOCIATES",
    "contactEmail": "MTIBBEN@PROHOMECARE.COM",
    "categoryName": "HOME HEALTH AGENCY",
    "categoryCode": "HHA",
    "licenseStatus": "ACTIVE",
    "inService": true,
    "licenseNumber": "020000427",
    "licenseEffectiveDate": "11/27/2025",
    "licenseExpirationDate": "11/26/2026",
    "dataDate": "10/18/2025",
    "capacity": 0,
    "address": "2296 COUNTRY DR",
    "city": "FREMONT",
    "zip": "94536",
    "county": "ALAMEDA",
    "phone": "(510) 608-3700",
    "lat": 37.557891,
    "lng": -121.9836465
  },
  {
    "id": "020001052",
    "name": "SERRA CENTER SAN JUAN HOME",
    "npi": "1982740783",
    "hcaiId": null,
    "businessName": "SERRA RESIDENTIAL CENTER, INC.",
    "contactEmail": "LSENADENOS@SERRACENTER.ORG",
    "categoryName": "INTERMEDIATE CARE FACILITY-DD/H/N/CN/IID",
    "categoryCode": "ICFDDH",
    "licenseStatus": "ACTIVE",
    "inService": true,
    "licenseNumber": "020000520",
    "licenseEffectiveDate": "03/14/2025",
    "licenseExpirationDate": "03/13/2026",
    "dataDate": "10/18/2025",
    "capacity": 6,
    "address": "4253 SAN JUAN AVENUE",
    "city": "FREMONT",
    "zip": "94536",
    "county": "ALAMEDA",
    "phone": "(510) 477-1000",
    "lat": 37.560888,
    "lng": -122.0211945
  },
  {
    "id": "630024590",
    "name": "STARCARE HOME HEALTH LLC",
    "npi": null,
    "hcaiId": "406016547",
    "businessName": "STARCARE HOME HEALTH LLC",
    "contactEmail": "SCIRAK830556@GMAIL.COM",
    "categoryName": "HOME HEALTH AGENCY",
    "categoryCode": "HHA",
    "licenseStatus": "ACTIVE",
    "inService": true,
    "licenseNumber": "550008477",
    "licenseEffectiveDate": "04/07/2025",
    "licenseExpirationDate": "04/06/2026",
    "dataDate": "10/18/2025",
    "capacity": 0,
    "address": "2140 PERALTA BLVD, SUITE 210",
    "city": "FREMONT",
    "zip": "94536",
    "county": "ALAMEDA",
    "phone": "(510) 557-4571",
    "lat": 37.56195,
    "lng": -121.9887225
  },
  {
    "id": "020000094",
    "name": "WE CARE SKILLED NURSING - FREMONT",
    "npi": "1205695350",
    "hcaiId": "206010912",
    "businessName": "WE CARE SKILLED NURSING - FREMONT, LLC",
    "contactEmail": "ALDWIN.PONDER@WECARESNF.COM",
    "categoryName": "SKILLED NURSING FACILITY",
    "categoryCode": "SNF",
    "licenseStatus": "ACTIVE",
    "inService": true,
    "licenseNumber": "020000082",
    "licenseEffectiveDate": "11/02/2025",
    "licenseExpirationDate": "11/01/2026",
    "dataDate": "10/18/2025",
    "capacity": 99,
    "address": "2100 PARKSIDE DRIVE",
    "city": "FREMONT",
    "zip": "94536",
    "county": "ALAMEDA",
    "phone": "(510) 797-5300",
    "lat": 37.558764,
    "lng": -121.9811625
  }
]