[
  {
    "id": "140001056",
    "name": "EL CERRITO DIALYSIS",
    "npi": "1063649242",
    "hcaiId": "306074073",
    "businessName": "LLANO DIALYSIS LLC",
    "contactEmail": "CAL_C@DAVITA.COM",
    "categoryName": "CHRONIC DIALYSIS CLINIC",
    "categoryCode": "ESRD/CDC",
    "licenseStatus": "ACTIVE",
    "inService": true,
    "licenseNumber": "140000522",
    "licenseEffectiveDate": "01/01/2025",
    "licenseExpirationDate": "12/31/2025",
    "dataDate": "10/18/2025",
    "capacity": 20,
    "address": "10690 SAN PABLO AVE",
    "city": "EL CERRITO",
    "zip": "94530",
    "county": "CONTRA COSTA",
    "phone": "(510) 528-9590",
    "lat": 37.912581,
    "lng": -122.309091
  },
  {
    "id": "140000598",
    "name": "EYE CENTER OF NORTHERN CALIFORNIA SURGICENTER",
    "npi": null,
    "hcaiId": "306074030",
    "businessName": "EYE CENTER OF NORTHERN CALIFORNIA  SURGICENTER",
    "contactEmail": null,
    "categoryName": "SURGICAL CLINIC",
    "categoryCode": "ASC",
    "licenseStatus": "INACTIVE - CAPEN DECISION",
    "inService": false,
    "licenseNumber": "140000382",
    "licenseEffectiveDate": "06/29/2005",
    "licenseExpirationDate": "06/28/2006",
    "dataDate": "10/18/2025",
    "capacity": 0,
    "address": "6500 FAIRMOUNT AVE",
    "city": "EL CERRITO",
    "zip": "94530",
    "county": "CONTRA COSTA",
    "phone": "(510) 525-2600",
    "lat": 37.900872,
    "lng": -122.3006625
  },
  {
    "id": "140001036",
    "name": "GREGORY GORECKI",
    "npi": null,
    "hcaiId": null,
    "businessName": null,
    "contactEmail": null,
    "categoryName": "OTHER",
    "categoryCode": "UNLICEN",
    "licenseStatus": null,
    "inService": null,
    "licenseNumber": null,
    "licenseEffectiveDate": null,
    "licenseExpirationDate": null,
    "dataDate": "10/18/2025",
    "capacity": 0,
    "address": "10690 SAN PABLO AVE, SUITE D",
    "city": "EL CERRITO",
    "zip": "94530",
    "county": "CONTRA COSTA",
    "phone": "(510) 525-8525",
    "lat": 37.912581,
    "lng": -122.309091
  },
  {
    "id": "630018007",
    "name": "INDIRA CARE HOME HEALTH",
    "npi": "1881197051",
    "hcaiId": "406381891",
    "businessName": "SITASMA INC",
    "contactEmail": "INDIRACARE318@GMAIL.COM",
    "categoryName": "HOME HEALTH AGENCY",
    "categoryCode": "HHA",
    "licenseStatus": "ACTIVE",
    "inService": true,
    "licenseNumber": "550004952",
    "licenseEffectiveDate": "09/10/2025",
    "licenseExpirationDate": "09/09/2026",
    "dataDate": "10/18/2025",
    "capacity": 0,
    "address": "6500 FAIRMOUNT AVE, SUITE 6",
    "city": "EL CERRITO",
    "zip": "94530",
    "county": "CONTRA COSTA",
    "phone": "(415) 466-6626",
    "lat": 37.90097919,
    "lng": -122.3006866
  },
  {
    "id": "630012670",
    "name": "PLANNED PARENTHOOD EL CERRITO CENTER",
    "npi": "1740505262",
    "hcaiId": "306074144",
    "businessName": "PLANNED PARENTHOOD: SHASTA-DIABLO, INC.",
    "contactEmail": "ACARLISLE@PPNORCAL.ORG",
    "categoryName": "PRIMARY CARE CLINIC",
    "categoryCode": "COMTYC",
    "licenseStatus": "ACTIVE",
    "inService": true,
    "licenseNumber": "550001317",
    "licenseEffectiveDate": "11/16/2024",
    "licenseExpirationDate": "11/15/2025",
    "dataDate": "10/18/2025",
    "capacity": 0,
    "address": "280 EL CERRITO PLZ",
    "city": "EL CERRITO",
    "zip": "94530",
    "county": "CONTRA COSTA",
    "phone": "(925) 887-5252",
    "lat": 37.90056852,
    "lng": -122.2974974
  },
  {
    "id": "140000396",
    "name": "SHIELDS NURSING CENTER",
    "npi": "1831185735",
    "hcaiId": "206073627",
    "businessName": "SHIELDS NURSING CENTERS, INC.",
    "contactEmail": "ANGIE@SHIELDSNURSINGCENTERS.COM",
    "categoryName": "SKILLED NURSING FACILITY",
    "categoryCode": "SNF",
    "licenseStatus": "ACTIVE",
    "inService": true,
    "licenseNumber": "140000276",
    "licenseEffectiveDate": "12/31/2024",
    "licenseExpirationDate": "12/30/2025",
    "dataDate": "10/18/2025",
    "capacity": 45,
    "address": "3230 CARLSON BOULEVARD",
    "city": "EL CERRITO",
    "zip": "94530",
    "county": "CONTRA COSTA",
    "phone": "(510) 525-3212",
    "lat": 37.901421,
    "lng": -122.303853
  }
]