[
  {
    "id": "630018119",
    "name": "ADVENT HEALTHCARE SERVICES, LLC",
    "npi": null,
    "hcaiId": "406482254",
    "businessName": "ADVENT HEALTHCARE SERVICES, LLC",
    "contactEmail": "SUPPORT@ADVENTHCS.COM",
    "categoryName": "HOSPICE",
    "categoryCode": "HOSPICE",
    "licenseStatus": "ACTIVE",
    "inService": true,
    "licenseNumber": "550005259",
    "licenseEffectiveDate": "01/30/2024",
    "licenseExpirationDate": "01/29/2026",
    "dataDate": "10/18/2025",
    "capacity": 0,
    "address": "1300 OLIVER RD, SUITE 350",
    "city": "FAIRFIELD",
    "zip": "94534",
    "county": "SOLANO",
    "phone": "(707) 398-0289",
    "lat": 38.256048,
    "lng": -122.067045
  },
  {
    "id": "110001149",
    "name": "FAIRFIELD DIALYSIS CENTER",
    "npi": "1396704771",
    "hcaiId": "306484052",
    "businessName": "RENAL TREATMENT CENTERS - CALIFORNIA, INC.",
    "contactEmail": "CAL_C@DAVITA.COM",
    "categoryName": "CHRONIC DIALYSIS CLINIC",
    "categoryCode": "ESRD/CDC",
    "licenseStatus": "ACTIVE",
    "inService": true,
    "licenseNumber": "110000438",
    "licenseEffectiveDate": "12/01/2024",
    "licenseExpirationDate": "11/30/2025",
    "dataDate": "10/18/2025",
    "capacity": 32,
    "address": "4660 CENTRAL WAY",
    "city": "FAIRFIELD",
    "zip": "94534",
    "county": "SOLANO",
    "phone": "(707) 863-7369",
    "lat": 38.21830607,
    "lng": -122.1346528
  },
  {
    "id": "010000907",
    "name": "GREENFIELDS II ICF-DDN",
    "npi": "1235349291",
    "hcaiId": null,
    "businessName": "JASMINE BADILLO & TERESITA REYES",
    "contactEmail": "GREENFIELDSNURSING@YAHOO.COM",
    "categoryName": "INTERMEDIATE CARE FACILITY-DD/H/N/CN/IID",
    "categoryCode": "ICFDDN",
    "licenseStatus": "ACTIVE",
    "inService": true,
    "licenseNumber": "010000345",
    "licenseEffectiveDate": "01/26/2025",
    "licenseExpirationDate": "01/25/2026",
    "dataDate": "10/18/2025",
    "capacity": 6,
    "address": "2673 VISTA BONITA",
    "city": "FAIRFIELD",
    "zip": "94534",
    "county": "SOLANO",
    "phone": "(707) 429-9774",
    "lat": 38.270493,
    "lng": -122.0586435
  },
  {
    "id": "630026028",
    "name": "HEALTHFLEX HOME HEALTH SERVICES",
    "npi": null,
    "hcaiId": null,
    "businessName": "HEALTHFLEX HOME HEALTH SERVICES",
    "contactEmail": "HEALTHFLEX@HOTMAIL.COM",
    "categoryName": "HOME HEALTH AGENCY",
    "categoryCode": "HHA",
    "licenseStatus": "ACTIVE",
    "inService": true,
    "licenseNumber": "550002283",
    "licenseEffectiveDate": "05/29/2025",
    "licenseExpirationDate": "05/28/2026",
    "dataDate": "10/18/2025",
    "capacity": 0,
    "address": "4830 BUSINESS CENTER DR, SUITE 130",
    "city": "FAIRFIELD",
    "zip": "94534",
    "county": "SOLANO",
    "phone": "(510) 553-1900",
    "lat": 38.221407,
    "lng": -122.14026
  },
  {
    "id": "630011080",
    "name": "MARE ISLAND HOME HEALTH INC.",
    "npi": "1740318369",
    "hcaiId": "406484053",
    "businessName": "MARE ISLAND HOME HEALTH INC.",
    "contactEmail": "BSHEN@MAREISLANDHOMEHEALTH.COM",
    "categoryName": "HOME HEALTH AGENCY",
    "categoryCode": "HHA",
    "licenseStatus": "ACTIVE",
    "inService": true,
    "licenseNumber": "550000592",
    "licenseEffectiveDate": "11/18/2025",
    "licenseExpirationDate": "11/17/2026",
    "dataDate": "10/18/2025",
    "capacity": 0,
    "address": "4830 BUSINESS CENTER DR, SUITE 145",
    "city": "FAIRFIELD",
    "zip": "94534",
    "county": "SOLANO",
    "phone": "(707) 557-6800",
    "lat": 38.22140979,
    "lng": -122.1402661
  },
  {
    "id": "630016381",
    "name": "OLE HEALTH",
    "npi": "1497130280",
    "hcaiId": "306484069",
    "businessName": "OLE HEALTH",
    "contactEmail": "ROSE.MACISAAC@COMMUNICAREOLE.ORG",
    "categoryName": "PRIMARY CARE CLINIC",
    "categoryCode": "COMTYC",
    "licenseStatus": "ACTIVE",
    "inService": true,
    "licenseNumber": "550003358",
    "licenseEffectiveDate": "01/26/2025",
    "licenseExpirationDate": "01/25/2026",
    "dataDate": "10/18/2025",
    "capacity": 0,
    "address": "470 CHADBOURNE RD., SUITE A",
    "city": "FAIRFIELD",
    "zip": "94534",
    "county": "SOLANO",
    "phone": "(707) 254-1774",
    "lat": 38.234763,
    "lng": -122.08302
  },
  {
    "id": "110001254",
    "name": "RAI - CHADBOURNE - FAIRFIELD",
    "npi": "1497829790",
    "hcaiId": "306484043",
    "businessName": "RAI CARE CENTERS OF NORTHERN CALIFORNIA I, LLC",
    "contactEmail": "LINDSEY.MARTELL@FRESENIUSMEDICALCARE.COM",
    "categoryName": "CHRONIC DIALYSIS CLINIC",
    "categoryCode": "ESRD/CDC",
    "licenseStatus": "ACTIVE",
    "inService": true,
    "licenseNumber": "110000515",
    "licenseEffectiveDate": "04/01/2025",
    "licenseExpirationDate": "03/31/2026",
    "dataDate": "10/18/2025",
    "capacity": 27,
    "address": "490 CHADBOURNE RD",
    "city": "FAIRFIELD",
    "zip": "94534",
    "county": "SOLANO",
    "phone": "(707) 434-9088",
    "lat": 38.234763,
    "lng": -122.0820255
  },
  {
    "id": "630027509",
    "name": "SUNFLOWER HOME TRAINING",
    "npi": "1174201404",
    "hcaiId": null,
    "businessName": null,
    "contactEmail": "CAL_C@DAVITA.COM",
    "categoryName": "CHRONIC DIALYSIS CLINIC",
    "categoryCode": "ESRD",
    "licenseStatus": null,
    "inService": null,
    "licenseNumber": null,
    "licenseEffectiveDate": null,
    "licenseExpirationDate": null,
    "dataDate": "10/18/2025",
    "capacity": 0,
    "address": "4670 CENTRAL WAY, SUITE D",
    "city": "FAIRFIELD",
    "zip": "94534",
    "county": "SOLANO",
    "phone": "(615) 341-6282",
    "lat": 38.21950199,
    "lng": -122.132534
  },
  {
    "id": "110001275",
    "name": "SUTTER FAIRFIELD SURGERY CENTER",
    "npi": "1821092206",
    "hcaiId": "306484045",
    "businessName": "SUTTER FAIRFIELD SURGERY CENTER, LLC",
    "contactEmail": "DREW.VINSON@SUTTERHEALTH.ORG",
    "categoryName": "SURGICAL CLINIC",
    "categoryCode": "ASC",
    "licenseStatus": "INACTIVE - CAPEN DECISION",
    "inService": false,
    "licenseNumber": "110000525",
    "licenseEffectiveDate": "04/19/2009",
    "licenseExpirationDate": "04/18/2010",
    "dataDate": "10/18/2025",
    "capacity": 0,
    "address": "2700 LOW CT, FLOOR 2",
    "city": "FAIRFIELD",
    "zip": "94534",
    "county": "SOLANO",
    "phone": "(707) 432-2710",
    "lat": 38.236959,
    "lng": -122.0849955
  },
  {
    "id": "630012752",
    "name": "VITAS HEALTHCARE CORPORATION OF CALIFORNIA - BRANCH",
    "npi": "1558405134",
    "hcaiId": "406484059",
    "businessName": "VITAS HEALTHCARE CORPORATION OF CALIFORNIA",
    "contactEmail": null,
    "categoryName": "HOSPICE",
    "categoryCode": "HOSPICE",
    "licenseStatus": "ACTIVE",
    "inService": true,
    "licenseNumber": "100000774",
    "licenseEffectiveDate": "11/15/2024",
    "licenseExpirationDate": "11/14/2026",
    "dataDate": "10/18/2025",
    "capacity": 0,
    "address": "2480 HILBORN ROAD, SUITE 105",
    "city": "FAIRFIELD",
    "zip": "94534",
    "county": "SOLANO",
    "phone": "(707) 438-5778",
    "lat": 38.275587,
    "lng": -122.050566
  }
]