[
  {
    "id": "630012077",
    "name": "ANGELS HOSPICE, LLC",
    "npi": null,
    "hcaiId": "406014256",
    "businessName": "ANGELS HOSPICE, LLC",
    "contactEmail": "SSHHAZZI@HOTMAIL.COM",
    "categoryName": "HOSPICE",
    "categoryCode": "HOSPICE",
    "licenseStatus": "ACTIVE",
    "inService": true,
    "licenseNumber": "550001016",
    "licenseEffectiveDate": "04/23/2025",
    "licenseExpirationDate": "04/22/2027",
    "dataDate": "10/18/2025",
    "capacity": 0,
    "address": "19830 LAKE CHABOT RD, UNIT B",
    "city": "CASTRO VALLEY",
    "zip": "94546",
    "county": "ALAMEDA",
    "phone": "(510) 727-9000",
    "lat": 37.700145,
    "lng": -122.08743
  },
  {
    "id": "630022469",
    "name": "ASSURE HOME HEALTH, LLC",
    "npi": null,
    "hcaiId": null,
    "businessName": "ASSURE HOME HEALTH, LLC",
    "contactEmail": "STVSNZ72@GMAIL.COM",
    "categoryName": "HOME HEALTH AGENCY",
    "categoryCode": "HHA",
    "licenseStatus": "ACTIVE",
    "inService": true,
    "licenseNumber": "550009219",
    "licenseEffectiveDate": "06/19/2025",
    "licenseExpirationDate": "06/18/2026",
    "dataDate": "10/18/2025",
    "capacity": 0,
    "address": "3137 CASTRO VALLEY BLVD, # 215",
    "city": "CASTRO VALLEY",
    "zip": "94546",
    "county": "ALAMEDA",
    "phone": "(650) 679-3934",
    "lat": 37.695258,
    "lng": -122.080617
  },
  {
    "id": "140001370",
    "name": "BAY AREA ENDOSCOPY CENTER, LLC",
    "npi": "1821195025",
    "hcaiId": "306014193",
    "businessName": null,
    "contactEmail": null,
    "categoryName": "SURGICAL CLINIC",
    "categoryCode": "ASC",
    "licenseStatus": "INACTIVE - CAPEN DECISION",
    "inService": false,
    "licenseNumber": "140000707",
    "licenseEffectiveDate": "11/22/2007",
    "licenseExpirationDate": "11/21/2008",
    "dataDate": "10/18/2025",
    "capacity": 0,
    "address": "20400 LAKE CHABOT RD, SUITE 201",
    "city": "CASTRO VALLEY",
    "zip": "94546",
    "county": "ALAMEDA",
    "phone": "(510) 538-9900",
    "lat": 37.696401,
    "lng": -122.0864085
  },
  {
    "id": "630011713",
    "name": "BAYWOOD COURT HEALTH CENTER",
    "npi": "1043489016",
    "hcaiId": "206014238",
    "businessName": "BAYWOOD COURT",
    "contactEmail": "DGUPTA@BAYWOODCOURT.ORG",
    "categoryName": "SKILLED NURSING FACILITY",
    "categoryCode": "SNF",
    "licenseStatus": "ACTIVE",
    "inService": true,
    "licenseNumber": "550000793",
    "licenseEffectiveDate": "11/02/2025",
    "licenseExpirationDate": "11/01/2026",
    "dataDate": "10/18/2025",
    "capacity": 56,
    "address": "21966 DOLORES STREET",
    "city": "CASTRO VALLEY",
    "zip": "94546",
    "county": "ALAMEDA",
    "phone": "(510) 733-2102",
    "lat": 37.685259,
    "lng": -122.07798
  },
  {
    "id": "020000276",
    "name": "CANYON CREEK POST-ACUTE",
    "npi": "1194891051",
    "hcaiId": "206010934",
    "businessName": "PEBBLE BEACH HOLDINGS LLC",
    "contactEmail": "ERIC.CORPUZ@LINKSHEALTH.COM",
    "categoryName": "SKILLED NURSING FACILITY",
    "categoryCode": "SNF",
    "licenseStatus": "ACTIVE",
    "inService": true,
    "licenseNumber": "020000298",
    "licenseEffectiveDate": "04/14/2025",
    "licenseExpirationDate": "04/13/2026",
    "dataDate": "10/18/2025",
    "capacity": 70,
    "address": "22103 REDWOOD ROAD",
    "city": "CASTRO VALLEY",
    "zip": "94546",
    "county": "ALAMEDA",
    "phone": "(510) 537-8848",
    "lat": 37.686411,
    "lng": -122.0745375
  },
  {
    "id": "630020363",
    "name": "CASTRO VALLEY DIALYSIS",
    "npi": null,
    "hcaiId": "306010617",
    "businessName": "BRIMFIELD DIALYSIS, LLC",
    "contactEmail": "CAL_C@DAVITA.COM",
    "categoryName": "CHRONIC DIALYSIS CLINIC",
    "categoryCode": "ESRD/CDC",
    "licenseStatus": "ACTIVE",
    "inService": true,
    "licenseNumber": "550005999",
    "licenseEffectiveDate": "02/01/2025",
    "licenseExpirationDate": "01/31/2026",
    "dataDate": "10/18/2025",
    "capacity": 21,
    "address": "20359 LAKE CHABOT RD",
    "city": "CASTRO VALLEY",
    "zip": "94546",
    "county": "ALAMEDA",
    "phone": "(510) 889-9973",
    "lat": 37.696167,
    "lng": -122.0870475
  },
  {
    "id": "020000116",
    "name": "EAST BAY POST-ACUTE",
    "npi": "1811366586",
    "hcaiId": "206010774",
    "businessName": "BILBERRY HOLDINGS, LLC",
    "contactEmail": null,
    "categoryName": "SKILLED NURSING FACILITY",
    "categoryCode": "SNF",
    "licenseStatus": "ACTIVE",
    "inService": true,
    "licenseNumber": "020000018",
    "licenseEffectiveDate": "12/19/2024",
    "licenseExpirationDate": "12/18/2025",
    "dataDate": "10/18/2025",
    "capacity": 91,
    "address": "20259 LAKE CHABOT ROAD",
    "city": "CASTRO VALLEY",
    "zip": "94546",
    "county": "ALAMEDA",
    "phone": "(510) 351-3700",
    "lat": 37.696851,
    "lng": -122.0872005
  },
  {
    "id": "140000183",
    "name": "EDEN MEDICAL CENTER",
    "npi": "1063812907",
    "hcaiId": "106014233",
    "businessName": "SUTTER BAY HOSPITALS",
    "contactEmail": "ANN.YUNGERT@SUTTERHEALTH.ORG",
    "categoryName": "GENERAL ACUTE CARE HOSPITAL",
    "categoryCode": "GACH",
    "licenseStatus": "ACTIVE",
    "inService": true,
    "licenseNumber": "140000030",
    "licenseEffectiveDate": "10/22/2025",
    "licenseExpirationDate": "05/31/2026",
    "dataDate": "10/18/2025",
    "capacity": 130,
    "address": "20103 LAKE CHABOT ROAD",
    "city": "CASTRO VALLEY",
    "zip": "94546",
    "county": "ALAMEDA",
    "phone": "(510) 925-6384",
    "lat": 37.697022,
    "lng": -122.087349
  },
  {
    "id": "630017365",
    "name": "PROGRESSIVE HOME HEALTH AND HOSPICE CARE-HAYWARD, LLC",
    "npi": null,
    "hcaiId": null,
    "businessName": "PROGRESSIVE HOME HEALTH AND HOSPICE CARE-HAYWARD, LLC",
    "contactEmail": "P.SIDHU@PHHHC.COM",
    "categoryName": "HOSPICE",
    "categoryCode": "HOSPICE",
    "licenseStatus": "ACTIVE",
    "inService": true,
    "licenseNumber": "550007467",
    "licenseEffectiveDate": "12/10/2021",
    "licenseExpirationDate": "12/09/2023",
    "dataDate": "10/18/2025",
    "capacity": 0,
    "address": "22101 REDWOOD RD, SUITE A",
    "city": "CASTRO VALLEY",
    "zip": "94546",
    "county": "ALAMEDA",
    "phone": "(510) 600-3009",
    "lat": 37.686645,
    "lng": -122.073939
  },
  {
    "id": "630015326",
    "name": "REDWOOD SURGERY CENTER LP",
    "npi": "1396050829",
    "hcaiId": null,
    "businessName": null,
    "contactEmail": null,
    "categoryName": "SURGICAL CLINIC",
    "categoryCode": "ASC",
    "licenseStatus": null,
    "inService": null,
    "licenseNumber": null,
    "licenseEffectiveDate": null,
    "licenseExpirationDate": null,
    "dataDate": "10/18/2025",
    "capacity": 0,
    "address": "20998 REDWOOD RD",
    "city": "CASTRO VALLEY",
    "zip": "94546",
    "county": "ALAMEDA",
    "phone": "(510) 576-8500",
    "lat": 37.693215,
    "lng": -122.0724135
  },
  {
    "id": "020000068",
    "name": "ST JOHN KRONSTADT CONVALESCENT CENTER",
    "npi": "1861484982",
    "hcaiId": "206010961",
    "businessName": "SAINT JOHN KRONSTADT HOME FOR AGED RUSSIAN-AMERICANS",
    "contactEmail": "JEREMY@SERENITY4.COM",
    "categoryName": "SKILLED NURSING FACILITY",
    "categoryCode": "SNF",
    "licenseStatus": "ACTIVE",
    "inService": true,
    "licenseNumber": "020000104",
    "licenseEffectiveDate": "11/01/2025",
    "licenseExpirationDate": "10/31/2026",
    "dataDate": "10/18/2025",
    "capacity": 49,
    "address": "4432 JAMES AVENUE",
    "city": "CASTRO VALLEY",
    "zip": "94546",
    "county": "ALAMEDA",
    "phone": "(510) 889-7000",
    "lat": 37.707066,
    "lng": -122.070024
  },
  {
    "id": "630019844",
    "name": "STROBRIDGE ELEMENTARY SCHOOL",
    "npi": null,
    "hcaiId": null,
    "businessName": "LA CLINICA DE LA RAZA, INC.",
    "contactEmail": null,
    "categoryName": "PRIMARY CARE CLINIC",
    "categoryCode": "COMTYC",
    "licenseStatus": "ACTIVE",
    "inService": true,
    "licenseNumber": "550001178",
    "licenseEffectiveDate": "11/12/2025",
    "licenseExpirationDate": "11/11/2026",
    "dataDate": "10/18/2025",
    "capacity": 0,
    "address": "21400 BEDFORD DR",
    "city": "HAYWARD",
    "zip": "94546",
    "county": "ALAMEDA",
    "phone": null,
    "lat": 37.68741,
    "lng": -122.087286
  },
  {
    "id": "630027455",
    "name": "TIBURCIO VASQUEZ HEALTH CENTER, INC. C/O: CASTRO VALLEY HEALTH CENTER",
    "npi": null,
    "hcaiId": null,
    "businessName": "TIBURCIO VASQUEZ HEALTH CENTER, INC.",
    "contactEmail": null,
    "categoryName": "PRIMARY CARE CLINIC",
    "categoryCode": "COMTYC",
    "licenseStatus": "ACTIVE",
    "inService": true,
    "licenseNumber": "140000705",
    "licenseEffectiveDate": "12/03/2024",
    "licenseExpirationDate": "12/02/2025",
    "dataDate": "10/18/2025",
    "capacity": 0,
    "address": "19400 SANTA MARIA AVE, ROOM P7 AND P8",
    "city": "CASTRO VALLEY",
    "zip": "94546",
    "county": "ALAMEDA",
    "phone": null,
    "lat": 37.70461601,
    "lng": -122.077663
  },
  {
    "id": "020000066",
    "name": "VALLEY POINTE NURSING & REHABILITATION CENTER",
    "npi": "1669859567",
    "hcaiId": "206010770",
    "businessName": "VALLEY POINTEIDENCE OPCO, LLC",
    "contactEmail": "MCKAY.NEWELL@VALLEYPOINTEHC.COM",
    "categoryName": "SKILLED NURSING FACILITY",
    "categoryCode": "SNF",
    "licenseStatus": "ACTIVE",
    "inService": true,
    "licenseNumber": "020000016",
    "licenseEffectiveDate": "11/03/2025",
    "licenseExpirationDate": "11/02/2026",
    "dataDate": "10/18/2025",
    "capacity": 50,
    "address": "20090 STANTON AVENUE",
    "city": "CASTRO VALLEY",
    "zip": "94546",
    "county": "ALAMEDA",
    "phone": "(510) 538-8464",
    "lat": 37.697697,
    "lng": -122.090301
  },
  {
    "id": "140001152",
    "name": "VIBRANTCARE REHABILITATION CASTRO VALLEY",
    "npi": null,
    "hcaiId": null,
    "businessName": null,
    "contactEmail": null,
    "categoryName": "OTHER",
    "categoryCode": "UNLICEN",
    "licenseStatus": null,
    "inService": null,
    "licenseNumber": null,
    "licenseEffectiveDate": null,
    "licenseExpirationDate": null,
    "dataDate": "10/18/2025",
    "capacity": 0,
    "address": "20996 REDWOOD RD",
    "city": "CASTRO VALLEY",
    "zip": "94546",
    "county": "ALAMEDA",
    "phone": "(510) 537-0272",
    "lat": 37.693476,
    "lng": -122.072607
  }
]