[
  {
    "id": "630016316",
    "name": "1ST CHOICE HOME HEALTH CARE",
    "npi": "1285004465",
    "hcaiId": "406414156",
    "businessName": "1ST CHOICE HOME HEALTH CARE & HOSPICE, INC.",
    "contactEmail": "AAMIR@FIRSTCHOICE-HHA.COM",
    "categoryName": "HOME HEALTH AGENCY",
    "categoryCode": "HHA",
    "licenseStatus": "ACTIVE",
    "inService": true,
    "licenseNumber": "550003480",
    "licenseEffectiveDate": "05/20/2025",
    "licenseExpirationDate": "04/20/2026",
    "dataDate": "10/18/2025",
    "capacity": 0,
    "address": "22320 FOOTHILL BLVD, SUITE 600",
    "city": "HAYWARD",
    "zip": "94541",
    "county": "ALAMEDA",
    "phone": "(650) 393-5936",
    "lat": 37.67874899,
    "lng": -122.08291
  },
  {
    "id": "630016383",
    "name": "1ST CHOICE HOSPICE CARE",
    "npi": null,
    "hcaiId": "406414157",
    "businessName": "1ST CHOICE HOME HEALTH CARE & HOSPICE, INC.",
    "contactEmail": "AAMIR@FIRSTCHOICE-HHA.COM",
    "categoryName": "HOSPICE",
    "categoryCode": "HOSPICE",
    "licenseStatus": "ACTIVE",
    "inService": true,
    "licenseNumber": "550003481",
    "licenseEffectiveDate": "10/16/2024",
    "licenseExpirationDate": "04/20/2026",
    "dataDate": "10/18/2025",
    "capacity": 0,
    "address": "22320 FOOTHILL BLVD, SUITE 605",
    "city": "HAYWARD",
    "zip": "94541",
    "county": "ALAMEDA",
    "phone": "(650) 393-5936",
    "lat": 37.67874899,
    "lng": -122.08291
  },
  {
    "id": "020000029",
    "name": "BETHESDA HOME",
    "npi": "1194835017",
    "hcaiId": "206010760",
    "businessName": "CHRISTIAN RETIREMENT CTR N CAL, INC.",
    "contactEmail": "JONATHAN.L@BETHESDACA.ORG",
    "categoryName": "SKILLED NURSING FACILITY",
    "categoryCode": "SNF",
    "licenseStatus": "ACTIVE",
    "inService": true,
    "licenseNumber": "020000013",
    "licenseEffectiveDate": "02/01/2025",
    "licenseExpirationDate": "01/31/2026",
    "dataDate": "10/18/2025",
    "capacity": 40,
    "address": "22427 MONTGOMERY STREET",
    "city": "HAYWARD",
    "zip": "94541",
    "county": "ALAMEDA",
    "phone": "(510) 538-8300",
    "lat": 37.672182,
    "lng": -122.0884785
  },
  {
    "id": "020001179",
    "name": "BRIDLE ICF/DD-N",
    "npi": "1679569115",
    "hcaiId": null,
    "businessName": "BRIDLE HOME LLC",
    "contactEmail": "MS.GRAJO@GMAIL.COM",
    "categoryName": "INTERMEDIATE CARE FACILITY-DD/H/N/CN/IID",
    "categoryCode": "ICFDDN",
    "licenseStatus": "ACTIVE",
    "inService": true,
    "licenseNumber": "020000583",
    "licenseEffectiveDate": "11/26/2024",
    "licenseExpirationDate": "11/25/2025",
    "dataDate": "10/18/2025",
    "capacity": 6,
    "address": "3336 BRIDLE DRIVE",
    "city": "HAYWARD",
    "zip": "94541",
    "county": "ALAMEDA",
    "phone": "(510) 582-2873",
    "lat": 37.670418,
    "lng": -122.044491
  },
  {
    "id": "630019841",
    "name": "CHERRYLAND ELEMENTARY SCHOOL",
    "npi": null,
    "hcaiId": null,
    "businessName": "LA CLINICA DE LA RAZA, INC.",
    "contactEmail": null,
    "categoryName": "PRIMARY CARE CLINIC",
    "categoryCode": "COMTYC",
    "licenseStatus": "ACTIVE",
    "inService": true,
    "licenseNumber": "550001178",
    "licenseEffectiveDate": "11/12/2025",
    "licenseExpirationDate": "11/11/2026",
    "dataDate": "10/18/2025",
    "capacity": 0,
    "address": "456 LAUREL AVE",
    "city": "HAYWARD",
    "zip": "94541",
    "county": "ALAMEDA",
    "phone": null,
    "lat": 37.672371,
    "lng": -122.095692
  },
  {
    "id": "020000133",
    "name": "DRIFTWOOD HEALTHCARE CENTER - HAYWARD",
    "npi": "1871881557",
    "hcaiId": "206010798",
    "businessName": "DRIFTWOOD HAYWARD OPERATING COMPANY LP",
    "contactEmail": "ERIKA.AGAPAY@MARINERHEALTHCARE.COM",
    "categoryName": "SKILLED NURSING FACILITY",
    "categoryCode": "SNF",
    "licenseStatus": "ACTIVE",
    "inService": true,
    "licenseNumber": "020000026",
    "licenseEffectiveDate": "11/01/2025",
    "licenseExpirationDate": "10/31/2026",
    "dataDate": "10/18/2025",
    "capacity": 88,
    "address": "19700 HESPERIAN BOULEVARD",
    "city": "HAYWARD",
    "zip": "94541",
    "county": "ALAMEDA",
    "phone": "(510) 785-2880",
    "lat": 37.668384,
    "lng": -122.118678
  },
  {
    "id": "630019842",
    "name": "FAIRVIEW ELEMENTARY SCHOOL",
    "npi": null,
    "hcaiId": null,
    "businessName": "LA CLINICA DE LA RAZA, INC.",
    "contactEmail": null,
    "categoryName": "PRIMARY CARE CLINIC",
    "categoryCode": "COMTYC",
    "licenseStatus": "ACTIVE",
    "inService": true,
    "licenseNumber": "550001178",
    "licenseEffectiveDate": "11/12/2025",
    "licenseExpirationDate": "11/11/2026",
    "dataDate": "10/18/2025",
    "capacity": 0,
    "address": "23515 MAUD AVE",
    "city": "HAYWARD",
    "zip": "94541",
    "county": "ALAMEDA",
    "phone": null,
    "lat": 37.680408,
    "lng": -122.0527215
  },
  {
    "id": "020000060",
    "name": "GOLDEN HARBOR HEALTHCARE CENTER",
    "npi": "1467446278",
    "hcaiId": "206010974",
    "businessName": "CEYLON HOLDINGS, LLC",
    "contactEmail": "RYAN@SPYGLASSHC.COM",
    "categoryName": "SKILLED NURSING FACILITY",
    "categoryCode": "SNF",
    "licenseStatus": "ACTIVE",
    "inService": true,
    "licenseNumber": "020000112",
    "licenseEffectiveDate": "07/16/2025",
    "licenseExpirationDate": "04/19/2026",
    "dataDate": "10/18/2025",
    "capacity": 99,
    "address": "442 SUNSET BLVD",
    "city": "HAYWARD",
    "zip": "94541",
    "county": "ALAMEDA",
    "phone": "(408) 320-9897",
    "lat": 37.67485401,
    "lng": -122.097946
  },
  {
    "id": "630003121",
    "name": "HATHAWAY ICF/DD-H",
    "npi": "1659545069",
    "hcaiId": null,
    "businessName": "MONES JOHN MOHSENI AND MINA MOHSENI LIBERTY HOMES HATHAWAY ICF DD H",
    "contactEmail": "JOHN.MOHSENI@GMAIL.COM",
    "categoryName": "INTERMEDIATE CARE FACILITY-DD/H/N/CN/IID",
    "categoryCode": "ICFDDH",
    "licenseStatus": "ACTIVE",
    "inService": true,
    "licenseNumber": "550000119",
    "licenseEffectiveDate": "02/01/2025",
    "licenseExpirationDate": "01/31/2026",
    "dataDate": "10/18/2025",
    "capacity": 6,
    "address": "19834 HATHAWAY AVENUE",
    "city": "HAYWARD",
    "zip": "94541",
    "county": "ALAMEDA",
    "phone": "(510) 909-4476",
    "lat": 37.675296,
    "lng": -122.112936
  },
  {
    "id": "140000695",
    "name": "HAYWARD DIALYSIS CENTER",
    "npi": "1013970516",
    "hcaiId": "306014213",
    "businessName": "TOTAL RENAL CARE, INC.",
    "contactEmail": "CAL_C@DAVITA.COM",
    "categoryName": "CHRONIC DIALYSIS CLINIC",
    "categoryCode": "ESRD/CDC",
    "licenseStatus": "ACTIVE",
    "inService": true,
    "licenseNumber": "140000341",
    "licenseEffectiveDate": "11/01/2025",
    "licenseExpirationDate": "10/31/2026",
    "dataDate": "10/18/2025",
    "capacity": 31,
    "address": "21615 HESPERIAN BLVD, SUITE F",
    "city": "HAYWARD",
    "zip": "94541",
    "county": "ALAMEDA",
    "phone": "(510) 780-9094",
    "lat": 37.660779,
    "lng": -122.1160095
  },
  {
    "id": "020000103",
    "name": "HAYWARD GARDENS POST ACUTE",
    "npi": "1124104872",
    "hcaiId": "206010876",
    "businessName": "HAYWARD SNF HEALTHCARE, LLC",
    "contactEmail": "INFO@WINDSORCARES.COM",
    "categoryName": "SKILLED NURSING FACILITY",
    "categoryCode": "SNF",
    "licenseStatus": "ACTIVE",
    "inService": true,
    "licenseNumber": "020000062",
    "licenseEffectiveDate": "12/26/2024",
    "licenseExpirationDate": "12/25/2025",
    "dataDate": "10/18/2025",
    "capacity": 75,
    "address": "1628 B STREET",
    "city": "HAYWARD",
    "zip": "94541",
    "county": "ALAMEDA",
    "phone": "(510) 582-4636",
    "lat": 37.679724,
    "lng": -122.0718735
  },
  {
    "id": "020000047",
    "name": "HAYWARD HILLS HEALTH CARE CENTER",
    "npi": "1801868302",
    "hcaiId": "206010832",
    "businessName": "HAYWARD HILLS OPERATING COMPANY, LP",
    "contactEmail": "KJLOVATO@MARINERHEALTHCARE.COM",
    "categoryName": "SKILLED NURSING FACILITY",
    "categoryCode": "SNF",
    "licenseStatus": "ACTIVE",
    "inService": true,
    "licenseNumber": "020000042",
    "licenseEffectiveDate": "11/01/2025",
    "licenseExpirationDate": "10/31/2026",
    "dataDate": "10/18/2025",
    "capacity": 74,
    "address": "1768 B STREET",
    "city": "HAYWARD",
    "zip": "94541",
    "county": "ALAMEDA",
    "phone": "(510) 538-4424",
    "lat": 37.682073,
    "lng": -122.069259
  },
  {
    "id": "630022783",
    "name": "HAYWARD RESIDENTIAL TREATMENT FACILITY",
    "npi": null,
    "hcaiId": "206010330",
    "businessName": "FAIR OAKS RESIDENTIAL TREATMENT FACILITY, LLC",
    "contactEmail": "ALEXR@NATIONALHHA.COM",
    "categoryName": "CONGREGATE LIVING HEALTH FACILITY",
    "categoryCode": "CLHF",
    "licenseStatus": "ACTIVE",
    "inService": true,
    "licenseNumber": "550007874",
    "licenseEffectiveDate": "02/07/2025",
    "licenseExpirationDate": "02/06/2026",
    "dataDate": "10/18/2025",
    "capacity": 12,
    "address": "1782 B ST",
    "city": "HAYWARD",
    "zip": "94541",
    "county": "ALAMEDA",
    "phone": "(415) 812-2955",
    "lat": 37.681524,
    "lng": -122.068305
  },
  {
    "id": "140001044",
    "name": "JEANNE POWERS",
    "npi": null,
    "hcaiId": null,
    "businessName": null,
    "contactEmail": null,
    "categoryName": "OTHER",
    "categoryCode": "UNLICEN",
    "licenseStatus": null,
    "inService": null,
    "licenseNumber": null,
    "licenseEffectiveDate": null,
    "licenseExpirationDate": null,
    "dataDate": "10/18/2025",
    "capacity": 0,
    "address": "19682 HESPERIAN BLVD, SUITE 110",
    "city": "HAYWARD",
    "zip": "94541",
    "county": "ALAMEDA",
    "phone": "(510) 782-7200",
    "lat": 37.668204,
    "lng": -122.1192405
  },
  {
    "id": "630022073",
    "name": "LEGACY HEALTHCARE, LLC",
    "npi": null,
    "hcaiId": "406015073",
    "businessName": "LEGACY HEALTHCARE, LLC",
    "contactEmail": "LEGACYHEALTHCARE2020@YAHOO.COM",
    "categoryName": "HOSPICE",
    "categoryCode": "HOSPICE",
    "licenseStatus": "ACTIVE",
    "inService": true,
    "licenseNumber": "550007527",
    "licenseEffectiveDate": "05/03/2024",
    "licenseExpirationDate": "12/19/2025",
    "dataDate": "10/18/2025",
    "capacity": 0,
    "address": "1070 A ST, SUITE 5",
    "city": "HAYWARD",
    "zip": "94541",
    "county": "ALAMEDA",
    "phone": "(510) 952-9906",
    "lat": 37.67485401,
    "lng": -122.083012
  },
  {
    "id": "020001114",
    "name": "MAIN ICF/DD-N",
    "npi": "1750377297",
    "hcaiId": null,
    "businessName": "MAIN HOME LLC",
    "contactEmail": "PARKSIDEHOMECARE@GMAIL.COM",
    "categoryName": "INTERMEDIATE CARE FACILITY-DD/H/N/CN/IID",
    "categoryCode": "ICFDDN",
    "licenseStatus": "ACTIVE",
    "inService": true,
    "licenseNumber": "020000549",
    "licenseEffectiveDate": "05/26/2025",
    "licenseExpirationDate": "05/25/2026",
    "dataDate": "10/18/2025",
    "capacity": 6,
    "address": "21860 MAIN ST",
    "city": "HAYWARD",
    "zip": "94541",
    "county": "ALAMEDA",
    "phone": "(510) 727-1518",
    "lat": 37.680066,
    "lng": -122.089815
  },
  {
    "id": "020000808",
    "name": "MORTON BAKAR CENTER",
    "npi": "1841388451",
    "hcaiId": "206014054",
    "businessName": "GARFIELD NURSING HOME, INC. DBA MORTON BAKAR CENTER",
    "contactEmail": "MGTHOMPSON@TELECORP.COM",
    "categoryName": "SKILLED NURSING FACILITY",
    "categoryCode": "SNF",
    "licenseStatus": "ACTIVE",
    "inService": true,
    "licenseNumber": "020000398",
    "licenseEffectiveDate": "04/01/2025",
    "licenseExpirationDate": "03/31/2026",
    "dataDate": "10/18/2025",
    "capacity": 97,
    "address": "494 BLOSSOM WAY",
    "city": "HAYWARD",
    "zip": "94541",
    "county": "ALAMEDA",
    "phone": "(510) 582-7676",
    "lat": 37.678851,
    "lng": -122.103999
  },
  {
    "id": "140000628",
    "name": "OPTIMA OPHTHALMIC MEDICAL ASSOCIATES, INC.",
    "npi": "1285837484",
    "hcaiId": "306014080",
    "businessName": "OPTIMA OPHTHALMIC MEDICAL ASSOCIATES, INC.",
    "contactEmail": null,
    "categoryName": "SURGICAL CLINIC",
    "categoryCode": "ASC",
    "licenseStatus": "INACTIVE - CAPEN DECISION",
    "inService": false,
    "licenseNumber": "140000450",
    "licenseEffectiveDate": "11/13/2007",
    "licenseExpirationDate": "11/12/2008",
    "dataDate": "10/18/2025",
    "capacity": 0,
    "address": "1237 B ST",
    "city": "HAYWARD",
    "zip": "94541",
    "county": "ALAMEDA",
    "phone": "(510) 886-3937",
    "lat": 37.674936,
    "lng": -122.0780205
  },
  {
    "id": "020001272",
    "name": "PERLITA HOUSE",
    "npi": "1083825657",
    "hcaiId": null,
    "businessName": "L&N, INC.",
    "contactEmail": "CETENDERO@GMAIL.COM",
    "categoryName": "INTERMEDIATE CARE FACILITY-DD/H/N/CN/IID",
    "categoryCode": "ICFDDN",
    "licenseStatus": "ACTIVE",
    "inService": true,
    "licenseNumber": "020000644",
    "licenseEffectiveDate": "11/21/2024",
    "licenseExpirationDate": "11/20/2025",
    "dataDate": "10/18/2025",
    "capacity": 6,
    "address": "2627 PERLITA COURT",
    "city": "HAYWARD",
    "zip": "94541",
    "county": "ALAMEDA",
    "phone": "(510) 889-9179",
    "lat": 37.688166,
    "lng": -122.058855
  },
  {
    "id": "630015629",
    "name": "PLANNED PARENTHOOD MAR MONTE - HAYWARD HEALTH CENTER",
    "npi": "1174923684",
    "hcaiId": "306014350",
    "businessName": "PLANNED PARENTHOOD MAR MONTE, INC.",
    "contactEmail": "SERVICES_ADMIN@PPMARMONTE.ORG",
    "categoryName": "PRIMARY CARE CLINIC",
    "categoryCode": "COMTYC",
    "licenseStatus": "ACTIVE",
    "inService": true,
    "licenseNumber": "550002918",
    "licenseEffectiveDate": "12/11/2024",
    "licenseExpirationDate": "12/10/2025",
    "dataDate": "10/18/2025",
    "capacity": 0,
    "address": "1032 A STREET",
    "city": "HAYWARD",
    "zip": "94541",
    "county": "ALAMEDA",
    "phone": "(708) 813-5714",
    "lat": 37.674549,
    "lng": -122.083371
  },
  {
    "id": "020000123",
    "name": "SAGE POST ACUTE",
    "npi": "1518282490",
    "hcaiId": "206010831",
    "businessName": "OAKRHEEM, INC.",
    "contactEmail": "RRAJ@OAKRHEEM.COM",
    "categoryName": "SKILLED NURSING FACILITY",
    "categoryCode": "SNF",
    "licenseStatus": "ACTIVE",
    "inService": true,
    "licenseNumber": "020000041",
    "licenseEffectiveDate": "11/14/2024",
    "licenseExpirationDate": "11/13/2025",
    "dataDate": "10/18/2025",
    "capacity": 99,
    "address": "1832 B STREET",
    "city": "HAYWARD",
    "zip": "94541",
    "county": "ALAMEDA",
    "phone": "(925) 518-2334",
    "lat": 37.682577,
    "lng": -122.0675895
  },
  {
    "id": "020000074",
    "name": "SERENETHOS CARE CENTER, LLC",
    "npi": "1760471346",
    "hcaiId": "206010959",
    "businessName": "SERENETHOS CARE CENTER, LLC",
    "contactEmail": "LUCY@SERENETHOSCARE.COM",
    "categoryName": "SKILLED NURSING FACILITY",
    "categoryCode": "SNF",
    "licenseStatus": "ACTIVE",
    "inService": true,
    "licenseNumber": "020000103",
    "licenseEffectiveDate": "11/01/2025",
    "licenseExpirationDate": "10/31/2026",
    "dataDate": "10/18/2025",
    "capacity": 36,
    "address": "22822 MYRTLE STREET",
    "city": "HAYWARD",
    "zip": "94541",
    "county": "ALAMEDA",
    "phone": "(510) 537-4844",
    "lat": 37.665873,
    "lng": -122.0909985
  },
  {
    "id": "630021260",
    "name": "SONATA HOSPICE",
    "npi": "1174122832",
    "hcaiId": "406386542",
    "businessName": "BRIGHT HOSPICE CARE INC.",
    "contactEmail": "BRIGHTHOSPICECARE@GMAIL.COM",
    "categoryName": "HOSPICE",
    "categoryCode": "HOSPICE",
    "licenseStatus": "ACTIVE",
    "inService": true,
    "licenseNumber": "550006233",
    "licenseEffectiveDate": "03/25/2025",
    "licenseExpirationDate": "03/24/2027",
    "dataDate": "10/18/2025",
    "capacity": 0,
    "address": "22320 FOOTHILL BLVD, SUITE 450",
    "city": "HAYWARD",
    "zip": "94541",
    "county": "ALAMEDA",
    "phone": "(415) 651-3872",
    "lat": 37.67874899,
    "lng": -122.08291
  },
  {
    "id": "020000005",
    "name": "ST ANTHONY CARE CENTER",
    "npi": "1689063489",
    "hcaiId": "206013489",
    "businessName": "ST. ANTHONY SERENETHOS SNF, LLC",
    "contactEmail": "LUCY@SERENETHOSCARE.COM",
    "categoryName": "SKILLED NURSING FACILITY",
    "categoryCode": "SNF",
    "licenseStatus": "ACTIVE",
    "inService": true,
    "licenseNumber": "020000180",
    "licenseEffectiveDate": "06/23/2025",
    "licenseExpirationDate": "06/22/2026",
    "dataDate": "10/18/2025",
    "capacity": 30,
    "address": "553 SMALLEY AVENUE",
    "city": "HAYWARD",
    "zip": "94541",
    "county": "ALAMEDA",
    "phone": "(510) 733-3877",
    "lat": 37.671273,
    "lng": -122.0918535
  },
  {
    "id": "020000076",
    "name": "ST. FRANCIS HEALTHCARE CENTER",
    "npi": "1619966751",
    "hcaiId": "206010749",
    "businessName": "HAYWARD HEALTH CENTER, LLC",
    "contactEmail": "KEATON.BILLS@STFRANCISCARECENTER.COM",
    "categoryName": "SKILLED NURSING FACILITY",
    "categoryCode": "SNF",
    "licenseStatus": "ACTIVE",
    "inService": true,
    "licenseNumber": "020000009",
    "licenseEffectiveDate": "11/01/2025",
    "licenseExpirationDate": "10/31/2026",
    "dataDate": "10/18/2025",
    "capacity": 62,
    "address": "718 BARLETT AVE",
    "city": "HAYWARD",
    "zip": "94541",
    "county": "ALAMEDA",
    "phone": "(510) 785-3630",
    "lat": 37.669302,
    "lng": -122.1180345
  },
  {
    "id": "630025129",
    "name": "TIBURCIO VASQUEZ HEALTH CENTER, INC C/O: HAYWARD HIGH SCHOOL",
    "npi": null,
    "hcaiId": null,
    "businessName": "TIBURCIO VASQUEZ HEALTH CENTER, INC.",
    "contactEmail": "MSALGADO@TVHC.ORG",
    "categoryName": "PRIMARY CARE CLINIC",
    "categoryCode": "COMTYC",
    "licenseStatus": "ACTIVE",
    "inService": true,
    "licenseNumber": "550002846",
    "licenseEffectiveDate": "09/30/2025",
    "licenseExpirationDate": "09/29/2026",
    "dataDate": "10/18/2025",
    "capacity": 0,
    "address": "1633 EAST AVE, ROOM A5 AND A7",
    "city": "HAYWARD",
    "zip": "94541",
    "county": "ALAMEDA",
    "phone": "(510) 690-6052",
    "lat": 37.671867,
    "lng": -122.0674995
  },
  {
    "id": "140001369",
    "name": "TIBURCIO VASQUEZ HEALTH CENTER, INC.",
    "npi": null,
    "hcaiId": "306014194",
    "businessName": "TIBURCIO VASQUEZ HEALTH CENTER, INC.",
    "contactEmail": "MSALGADO@TVHC.ORG",
    "categoryName": "PRIMARY CARE CLINIC",
    "categoryCode": "COMTYC",
    "licenseStatus": "ACTIVE",
    "inService": true,
    "licenseNumber": "140000705",
    "licenseEffectiveDate": "12/03/2024",
    "licenseExpirationDate": "12/02/2025",
    "dataDate": "10/18/2025",
    "capacity": 0,
    "address": "22331 MISSION BLVD",
    "city": "HAYWARD",
    "zip": "94541",
    "county": "ALAMEDA",
    "phone": "(510) 471-5907",
    "lat": 37.674144,
    "lng": -122.0869845
  },
  {
    "id": "630019551",
    "name": "TIBURCIO VASQUEZ HEALTH CENTER, INC. - HELEN TURNER CHILDREN'S CENTER",
    "npi": null,
    "hcaiId": null,
    "businessName": "TIBURCIO VASQUEZ HEALTH CENTER, INC.",
    "contactEmail": null,
    "categoryName": "PRIMARY CARE CLINIC",
    "categoryCode": "COMTYC",
    "licenseStatus": "ACTIVE",
    "inService": true,
    "licenseNumber": "140000137",
    "licenseEffectiveDate": "02/01/2025",
    "licenseExpirationDate": "01/31/2026",
    "dataDate": "10/18/2025",
    "capacity": 0,
    "address": "23640 REED WAY",
    "city": "HAYWARD",
    "zip": "94541",
    "county": "ALAMEDA",
    "phone": null,
    "lat": 37.656729,
    "lng": -122.1069015
  },
  {
    "id": "630024690",
    "name": "TIBURCIO VASQUEZ HEALTH CENTER, INC. C/O: HAYWARD MOBILE VAN",
    "npi": null,
    "hcaiId": null,
    "businessName": "TIBURCIO VASQUEZ HEALTH CENTER, INC.",
    "contactEmail": "MSALGADO@TVHC.ORG",
    "categoryName": "PRIMARY CARE CLINIC",
    "categoryCode": "COMTYC",
    "licenseStatus": "ACTIVE",
    "inService": true,
    "licenseNumber": "140000705",
    "licenseEffectiveDate": "12/03/2024",
    "licenseExpirationDate": "12/02/2025",
    "dataDate": "10/18/2025",
    "capacity": 0,
    "address": "22331 MISSION BLVD",
    "city": "HAYWARD",
    "zip": "94541",
    "county": "ALAMEDA",
    "phone": "(510) 690-6052",
    "lat": 37.674144,
    "lng": -122.0869845
  },
  {
    "id": "630025251",
    "name": "TIBURCIO VASQUEZ HEALTH CENTER, INC. C/O: HESPERIAN CLINIC",
    "npi": null,
    "hcaiId": null,
    "businessName": "TIBURCIO VASQUEZ HEALTH CENTER, INC.",
    "contactEmail": null,
    "categoryName": "PRIMARY CARE CLINIC",
    "categoryCode": "COMTYC",
    "licenseStatus": "ACTIVE",
    "inService": true,
    "licenseNumber": "550002846",
    "licenseEffectiveDate": "09/30/2025",
    "licenseExpirationDate": "09/29/2026",
    "dataDate": "10/18/2025",
    "capacity": 0,
    "address": "19682 HESPERIAN BLVD, SUITE 101",
    "city": "HAYWARD",
    "zip": "94541",
    "county": "ALAMEDA",
    "phone": null,
    "lat": 37.668195,
    "lng": -122.119254
  },
  {
    "id": "630028181",
    "name": "TIBURCIO VASQUEZ HEALTH CENTER, INC. C/O: TVHC DENTAL AND PRIMARY CARE VAN",
    "npi": null,
    "hcaiId": null,
    "businessName": "TIBURCIO VASQUEZ HEALTH CENTER, INC.",
    "contactEmail": null,
    "categoryName": "PRIMARY CARE CLINIC",
    "categoryCode": "COMTYC",
    "licenseStatus": "ACTIVE",
    "inService": true,
    "licenseNumber": "140000705",
    "licenseEffectiveDate": "12/03/2024",
    "licenseExpirationDate": "12/02/2025",
    "dataDate": "10/18/2025",
    "capacity": 0,
    "address": "22331 MISSION BLVD",
    "city": "HAYWARD",
    "zip": "94541",
    "county": "ALAMEDA",
    "phone": null,
    "lat": 37.67391875,
    "lng": -122.0870862
  },
  {
    "id": "020000019",
    "name": "VISTA POST ACUTE",
    "npi": "1790261014",
    "hcaiId": "206010750",
    "businessName": "RMBB, LLC",
    "contactEmail": "RICKY@BUENAVISTAHC.COM",
    "categoryName": "SKILLED NURSING FACILITY",
    "categoryCode": "SNF",
    "licenseStatus": "ACTIVE",
    "inService": true,
    "licenseNumber": "020000010",
    "licenseEffectiveDate": "02/01/2025",
    "licenseExpirationDate": "01/31/2026",
    "dataDate": "10/18/2025",
    "capacity": 71,
    "address": "3269 D STREET",
    "city": "HAYWARD",
    "zip": "94541",
    "county": "ALAMEDA",
    "phone": "(510) 537-6700",
    "lat": 37.679148,
    "lng": -122.0468175
  },
  {
    "id": "020000065",
    "name": "WE CARE SKILLED NURSING FACILITY",
    "npi": "1346750478",
    "hcaiId": "206010968",
    "businessName": "WE CARE SKILLED NURSING FACILITY, INC.",
    "contactEmail": "ALDWIN.PONDER@WECARESNF.COM",
    "categoryName": "SKILLED NURSING FACILITY",
    "categoryCode": "SNF",
    "licenseStatus": "ACTIVE",
    "inService": true,
    "licenseNumber": "020000294",
    "licenseEffectiveDate": "09/13/2025",
    "licenseExpirationDate": "09/12/2026",
    "dataDate": "10/18/2025",
    "capacity": 28,
    "address": "21863 VALLEJO STREET",
    "city": "HAYWARD",
    "zip": "94541",
    "county": "ALAMEDA",
    "phone": "(510) 750-1245",
    "lat": 37.676565,
    "lng": -122.094225
  }
]