[
  {
    "id": "630027207",
    "name": "A1 PRO HOME HEALTH INC.",
    "npi": null,
    "hcaiId": null,
    "businessName": "A1 PRO HOME HEALTH INC.",
    "contactEmail": "ANDREA@A1PROHOMEHEALTH.COM",
    "categoryName": "HOME HEALTH AGENCY",
    "categoryCode": "HHA",
    "licenseStatus": "ACTIVE",
    "inService": true,
    "licenseNumber": "550009429",
    "licenseEffectiveDate": "04/09/2025",
    "licenseExpirationDate": "10/08/2025",
    "dataDate": "10/18/2025",
    "capacity": 0,
    "address": "24301 SOUTHLAND DR, SUITE 404",
    "city": "HAYWARD",
    "zip": "94545",
    "county": "ALAMEDA",
    "phone": "(510) 826-1888",
    "lat": 37.65319898,
    "lng": -122.105181
  },
  {
    "id": "630020110",
    "name": "AFFINITY HOSPICE CARE, INC.",
    "npi": "1700405453",
    "hcaiId": "406010024",
    "businessName": "AFFINITY HOSPICE CARE, INC.",
    "contactEmail": "CARE@AFFINITY-HOSPICE.COM",
    "categoryName": "HOSPICE",
    "categoryCode": "HOSPICE",
    "licenseStatus": "ACTIVE",
    "inService": true,
    "licenseNumber": "550005930",
    "licenseEffectiveDate": "12/12/2024",
    "licenseExpirationDate": "12/11/2026",
    "dataDate": "10/18/2025",
    "capacity": 0,
    "address": "26234 INDUSTRIAL BLVD",
    "city": "HAYWARD",
    "zip": "94545",
    "county": "ALAMEDA",
    "phone": "(510) 519-9285",
    "lat": 37.634808,
    "lng": -122.111251
  },
  {
    "id": "630018724",
    "name": "AJ HOME HEALTH LLC",
    "npi": null,
    "hcaiId": "406012470",
    "businessName": "AJ HOME HEALTH LLC",
    "contactEmail": "AJHOMEHEALTHMD@GMAIL.COM",
    "categoryName": "HOME HEALTH AGENCY",
    "categoryCode": "HHA",
    "licenseStatus": "ACTIVE",
    "inService": true,
    "licenseNumber": "550005365",
    "licenseEffectiveDate": "10/09/2025",
    "licenseExpirationDate": "03/12/2026",
    "dataDate": "10/18/2025",
    "capacity": 0,
    "address": "3524 BREAKWATER AVE, SUITE C",
    "city": "HAYWARD",
    "zip": "94545",
    "county": "ALAMEDA",
    "phone": "(510) 963-5472",
    "lat": 37.628766,
    "lng": -122.121072
  },
  {
    "id": "630025071",
    "name": "ALOHA HOME HEALTH SERVICES",
    "npi": null,
    "hcaiId": null,
    "businessName": "ALOHA HEALTH CARE INC",
    "contactEmail": "E.RIVERA@ALOHAHEALTHCARESERVICES.COM",
    "categoryName": "HOME HEALTH AGENCY",
    "categoryCode": "HHA",
    "licenseStatus": "ACTIVE",
    "inService": true,
    "licenseNumber": "550009369",
    "licenseEffectiveDate": "08/10/2025",
    "licenseExpirationDate": "08/09/2026",
    "dataDate": "10/18/2025",
    "capacity": 0,
    "address": "777 SOUTHLAND DR, SUITE 247 & 249",
    "city": "HAYWARD",
    "zip": "94545",
    "county": "ALAMEDA",
    "phone": "(510) 244-7279",
    "lat": 37.652094,
    "lng": -122.105817
  },
  {
    "id": "020000763",
    "name": "AMEDISYS HOME HEALTH CARE",
    "npi": "1114971280",
    "hcaiId": "406014208",
    "businessName": "TENDER LOVING CARE HEALTH CARE SERVICES WESTERN, LLC",
    "contactEmail": "3502@AMEDISYS.COM",
    "categoryName": "HOME HEALTH AGENCY",
    "categoryCode": "HHA",
    "licenseStatus": "ACTIVE",
    "inService": true,
    "licenseNumber": "020000376",
    "licenseEffectiveDate": "11/29/2024",
    "licenseExpirationDate": "11/28/2025",
    "dataDate": "10/18/2025",
    "capacity": 0,
    "address": "24301 SOUTHLAND DR, SUITE 411",
    "city": "HAYWARD",
    "zip": "94545",
    "county": "ALAMEDA",
    "phone": "(510) 732-0730",
    "lat": 37.653201,
    "lng": -122.1051825
  },
  {
    "id": "630017885",
    "name": "ASPIRE HOME HEALTH",
    "npi": "1689172223",
    "hcaiId": "406011569",
    "businessName": "ADVANTA CARE HOME HEALTH SERVICES INC",
    "contactEmail": "MINAAHUJA1112@YAHOO.COM",
    "categoryName": "HOME HEALTH AGENCY",
    "categoryCode": "HHA",
    "licenseStatus": "ACTIVE",
    "inService": true,
    "licenseNumber": "550004594",
    "licenseEffectiveDate": "03/11/2025",
    "licenseExpirationDate": "03/10/2026",
    "dataDate": "10/18/2025",
    "capacity": 0,
    "address": "3524 BREAKWATER AVE, SUITE A-130",
    "city": "HAYWARD",
    "zip": "94545",
    "county": "ALAMEDA",
    "phone": "(510) 299-1250",
    "lat": 37.628862,
    "lng": -122.121132
  },
  {
    "id": "630015103",
    "name": "AVATAR HEALTH MONITORING",
    "npi": null,
    "hcaiId": "406014378",
    "businessName": "AVATAR HEALTH MONITORING INC.",
    "contactEmail": "ALEXR@NATIONALHHA.COM",
    "categoryName": "HOME HEALTH AGENCY",
    "categoryCode": "HHA",
    "licenseStatus": "ACTIVE",
    "inService": true,
    "licenseNumber": "550002784",
    "licenseEffectiveDate": "08/05/2023",
    "licenseExpirationDate": "08/04/2024",
    "dataDate": "10/18/2025",
    "capacity": 0,
    "address": "3423 INVESTMENT BLVD, SUITE 2 AND 3",
    "city": "HAYWARD",
    "zip": "94545",
    "county": "ALAMEDA",
    "phone": "(415) 812-2955",
    "lat": 37.626129,
    "lng": -122.1188265
  },
  {
    "id": "020000960",
    "name": "BAHAMA HOME ICF/DDH",
    "npi": "1841330065",
    "hcaiId": null,
    "businessName": null,
    "contactEmail": "MARIEFE3BAHAMAHOME@GMAIL.COM",
    "categoryName": "INTERMEDIATE CARE FACILITY-DD/H/N/CN/IID",
    "categoryCode": "ICFDDH",
    "licenseStatus": "ACTIVE",
    "inService": true,
    "licenseNumber": "020000477",
    "licenseEffectiveDate": "12/17/2024",
    "licenseExpirationDate": "12/16/2025",
    "dataDate": "10/18/2025",
    "capacity": 6,
    "address": "27495 BAHAMA AVENUE",
    "city": "HAYWARD",
    "zip": "94545",
    "county": "ALAMEDA",
    "phone": "(510) 887-6677",
    "lat": 37.626966,
    "lng": -122.101731
  },
  {
    "id": "630013599",
    "name": "BEST HOME HEALTH PROVIDERS, INC.",
    "npi": "1144592916",
    "hcaiId": "406014302",
    "businessName": "BEST HOME HEALTH PROVIDERS, INC.",
    "contactEmail": "INFO@BESTHHP.COM",
    "categoryName": "HOME HEALTH AGENCY",
    "categoryCode": "HHA",
    "licenseStatus": "ACTIVE",
    "inService": true,
    "licenseNumber": "550002125",
    "licenseEffectiveDate": "10/23/2025",
    "licenseExpirationDate": "10/22/2026",
    "dataDate": "10/18/2025",
    "capacity": 0,
    "address": "26236 INDUSTRIAL BLVD",
    "city": "HAYWARD",
    "zip": "94545",
    "county": "ALAMEDA",
    "phone": "(510) 783-1274",
    "lat": 37.634796,
    "lng": -122.1116535
  },
  {
    "id": "630017878",
    "name": "BEST HOSPICE PROVIDERS, INC.",
    "npi": null,
    "hcaiId": "406012189",
    "businessName": "BEST HOSPICE PROVIDERS INC",
    "contactEmail": "HOSPICEINFO@BESTHHP.COM",
    "categoryName": "HOSPICE",
    "categoryCode": "HOSPICE",
    "licenseStatus": "ACTIVE",
    "inService": true,
    "licenseNumber": "550005206",
    "licenseEffectiveDate": "11/25/2023",
    "licenseExpirationDate": "11/24/2025",
    "dataDate": "10/18/2025",
    "capacity": 0,
    "address": "26238 INDUSTRIAL BLVD",
    "city": "HAYWARD",
    "zip": "94545",
    "county": "ALAMEDA",
    "phone": "(510) 783-4468",
    "lat": 37.634796,
    "lng": -122.1116535
  },
  {
    "id": "630012506",
    "name": "CHENEY HOME ICF-DD/N",
    "npi": "1477888675",
    "hcaiId": null,
    "businessName": null,
    "contactEmail": "CHENEYHOMEICFDDN@YAHOO.COM",
    "categoryName": "INTERMEDIATE CARE FACILITY-DD/H/N/CN/IID",
    "categoryCode": "ICFDDN",
    "licenseStatus": "ACTIVE",
    "inService": true,
    "licenseNumber": "550001210",
    "licenseEffectiveDate": "02/09/2025",
    "licenseExpirationDate": "02/08/2026",
    "dataDate": "10/18/2025",
    "capacity": 6,
    "address": "1644 CHENEY LANE",
    "city": "HAYWARD",
    "zip": "94545",
    "county": "ALAMEDA",
    "phone": "(510) 861-2635",
    "lat": 37.635867,
    "lng": -122.0891175
  },
  {
    "id": "630015460",
    "name": "CHENEY HOME ICF-DD/N II",
    "npi": "1316315146",
    "hcaiId": null,
    "businessName": null,
    "contactEmail": "CHENEYHOMEICFDDN@YAHOO.COM",
    "categoryName": "INTERMEDIATE CARE FACILITY-DD/H/N/CN/IID",
    "categoryCode": "ICFDDN",
    "licenseStatus": "ACTIVE",
    "inService": true,
    "licenseNumber": "550002962",
    "licenseEffectiveDate": "01/20/2025",
    "licenseExpirationDate": "01/19/2026",
    "dataDate": "10/18/2025",
    "capacity": 6,
    "address": "2166 BOCA RATON STREET",
    "city": "HAYWARD",
    "zip": "94545",
    "county": "ALAMEDA",
    "phone": "(510) 293-0360",
    "lat": 37.633968,
    "lng": -122.0976135
  },
  {
    "id": "020001246",
    "name": "CITRON WAY ICF/DD-H",
    "npi": null,
    "hcaiId": null,
    "businessName": "AIC HEALTH CARE INC.",
    "contactEmail": "CHUBIDOG@YAHOO.COM",
    "categoryName": "INTERMEDIATE CARE FACILITY-DD/H/N/CN/IID",
    "categoryCode": "ICFDDH",
    "licenseStatus": "ACTIVE",
    "inService": true,
    "licenseNumber": "020000631",
    "licenseEffectiveDate": "10/11/2025",
    "licenseExpirationDate": "10/10/2026",
    "dataDate": "10/18/2025",
    "capacity": 6,
    "address": "1159 CITRON WAY",
    "city": "HAYWARD",
    "zip": "94545",
    "county": "ALAMEDA",
    "phone": "(510) 378-5167",
    "lat": 37.645839,
    "lng": -122.1033465
  },
  {
    "id": "020001173",
    "name": "CRESCENT HEALTHCARE, INC.",
    "npi": null,
    "hcaiId": "406014154",
    "businessName": "CRESCENT HEALTHCARE, INC.",
    "contactEmail": "OC-PEANDL@OPTIONCARE.COM",
    "categoryName": "HOME HEALTH AGENCY",
    "categoryCode": "HHA",
    "licenseStatus": "ACTIVE",
    "inService": true,
    "licenseNumber": "020000580",
    "licenseEffectiveDate": "05/27/2025",
    "licenseExpirationDate": "05/26/2026",
    "dataDate": "10/18/2025",
    "capacity": 0,
    "address": "25901 INDUSTRIAL BLVD, BUILDING E",
    "city": "HAYWARD",
    "zip": "94545",
    "county": "ALAMEDA",
    "phone": "(510) 264-5454",
    "lat": 37.632591,
    "lng": -122.112954
  },
  {
    "id": "630026434",
    "name": "DEVOTION HOME HEALTH CARE INC",
    "npi": null,
    "hcaiId": null,
    "businessName": "DEVOTION HOME HEALTH CARE INC",
    "contactEmail": "DEVOTIONHOMEHEALTHCARE@GMAIL.COM",
    "categoryName": "HOME HEALTH AGENCY",
    "categoryCode": "HHA",
    "licenseStatus": "ACTIVE",
    "inService": true,
    "licenseNumber": "550009427",
    "licenseEffectiveDate": "04/09/2025",
    "licenseExpirationDate": "10/08/2025",
    "dataDate": "10/18/2025",
    "capacity": 0,
    "address": "24301 SOUTHLAND DR, SUITE 214C",
    "city": "HAYWARD",
    "zip": "94545",
    "county": "ALAMEDA",
    "phone": "(510) 598-6699",
    "lat": 37.6533,
    "lng": -122.1052275
  },
  {
    "id": "630022001",
    "name": "DEVOTION HOSPICE CARE, INC.",
    "npi": null,
    "hcaiId": "406015328",
    "businessName": "DEVOTION HOSPICE CARE, INC.",
    "contactEmail": "DEVOTIONHOSPICE@GMAIL.COM",
    "categoryName": "HOSPICE",
    "categoryCode": "HOSPICE",
    "licenseStatus": "ACTIVE",
    "inService": true,
    "licenseNumber": "550007739",
    "licenseEffectiveDate": "12/13/2023",
    "licenseExpirationDate": "12/12/2025",
    "dataDate": "10/18/2025",
    "capacity": 0,
    "address": "24301 SOUTHLAND DR, SUITE 214D",
    "city": "HAYWARD",
    "zip": "94545",
    "county": "ALAMEDA",
    "phone": "(510) 598-6699",
    "lat": 37.6533,
    "lng": -122.1052275
  },
  {
    "id": "020000877",
    "name": "ELENA'S ICF/DD-H",
    "npi": "1386700664",
    "hcaiId": null,
    "businessName": null,
    "contactEmail": "ELENADUMITRESCU14@YAHOO.COM",
    "categoryName": "INTERMEDIATE CARE FACILITY-DD/H/N/CN/IID",
    "categoryCode": "ICFDDH",
    "licenseStatus": "ACTIVE",
    "inService": true,
    "licenseNumber": "020000441",
    "licenseEffectiveDate": "11/12/2024",
    "licenseExpirationDate": "11/11/2025",
    "dataDate": "10/18/2025",
    "capacity": 6,
    "address": "25611 BELHAVEN STREET",
    "city": "HAYWARD",
    "zip": "94545",
    "county": "ALAMEDA",
    "phone": "(510) 785-8137",
    "lat": 37.642374,
    "lng": -122.100138
  },
  {
    "id": "020000987",
    "name": "ELENA'S ICF/DD-H #2",
    "npi": "1134286222",
    "hcaiId": null,
    "businessName": null,
    "contactEmail": "EMILYHOMECARE@GMAIL.COM",
    "categoryName": "INTERMEDIATE CARE FACILITY-DD/H/N/CN/IID",
    "categoryCode": "ICFDDH",
    "licenseStatus": "ACTIVE",
    "inService": true,
    "licenseNumber": "020000495",
    "licenseEffectiveDate": "06/19/2025",
    "licenseExpirationDate": "06/18/2026",
    "dataDate": "10/18/2025",
    "capacity": 6,
    "address": "1240 RADCLIFF LN",
    "city": "HAYWARD",
    "zip": "94545",
    "county": "ALAMEDA",
    "phone": "(510) 785-3139",
    "lat": 37.642311,
    "lng": -122.0966325
  },
  {
    "id": "020001146",
    "name": "ELENA'S ICF/DD-H #3",
    "npi": "1912063637",
    "hcaiId": null,
    "businessName": null,
    "contactEmail": "ELENADUMITRESCU14@YAHOO.COM",
    "categoryName": "INTERMEDIATE CARE FACILITY-DD/H/N/CN/IID",
    "categoryCode": "ICFDDH",
    "licenseStatus": "ACTIVE",
    "inService": true,
    "licenseNumber": "020000568",
    "licenseEffectiveDate": "03/11/2025",
    "licenseExpirationDate": "03/10/2026",
    "dataDate": "10/18/2025",
    "capacity": 6,
    "address": "1162 MERRITT LN",
    "city": "HAYWARD",
    "zip": "94545",
    "county": "ALAMEDA",
    "phone": "(510) 785-8137",
    "lat": 37.643616,
    "lng": -122.0971455
  },
  {
    "id": "630015854",
    "name": "ESSENTIALS HOME HEALTH",
    "npi": "1639568074",
    "hcaiId": "406014356",
    "businessName": "HEALTH ESSENTIALS RESOURCE & SERVICES, INC.",
    "contactEmail": "MAININBOX@ESSENTIALSHOMEHEALTH.COM",
    "categoryName": "HOME HEALTH AGENCY",
    "categoryCode": "HHA",
    "licenseStatus": "ACTIVE",
    "inService": true,
    "licenseNumber": "550003328",
    "licenseEffectiveDate": "12/23/2024",
    "licenseExpirationDate": "12/22/2025",
    "dataDate": "10/18/2025",
    "capacity": 0,
    "address": "24301 SOUTHLAND DRIVE, SUITE 611",
    "city": "HAYWARD",
    "zip": "94545",
    "county": "ALAMEDA",
    "phone": "(510) 239-5337",
    "lat": 37.6533,
    "lng": -122.1052275
  },
  {
    "id": "020000039",
    "name": "HAYWARD HEALTHCARE & WELLNESS CENTER",
    "npi": "1639401227",
    "hcaiId": "206010806",
    "businessName": "HAYWARD HEALTHCARE & WELLNESS CENTER LLC",
    "contactEmail": "ADMINISTRATOR@HAYWARDHCC.COM",
    "categoryName": "SKILLED NURSING FACILITY",
    "categoryCode": "SNF",
    "licenseStatus": "ACTIVE",
    "inService": true,
    "licenseNumber": "020000031",
    "licenseEffectiveDate": "05/05/2025",
    "licenseExpirationDate": "05/04/2026",
    "dataDate": "10/18/2025",
    "capacity": 99,
    "address": "1805 WEST STREET",
    "city": "HAYWARD",
    "zip": "94545",
    "county": "ALAMEDA",
    "phone": "(510) 783-4811",
    "lat": 37.645272,
    "lng": -122.116122
  },
  {
    "id": "140001214",
    "name": "HAYWARD WELLNESS",
    "npi": "1033241633",
    "hcaiId": null,
    "businessName": null,
    "contactEmail": null,
    "categoryName": "PRIMARY CARE CLINIC",
    "categoryCode": "FQHC",
    "licenseStatus": null,
    "inService": null,
    "licenseNumber": null,
    "licenseEffectiveDate": null,
    "licenseExpirationDate": null,
    "dataDate": "10/18/2025",
    "capacity": 0,
    "address": "664 SOUTHLAND MALL",
    "city": "HAYWARD",
    "zip": "94545",
    "county": "ALAMEDA",
    "phone": "(510) 535-7480",
    "lat": 37.650663,
    "lng": -122.104188
  },
  {
    "id": "630016350",
    "name": "HEALTH NOW HOME HEALTHCARE, INC.",
    "npi": "1801293600",
    "hcaiId": "406014370",
    "businessName": "HEALTH NOW HOME HEALTHCARE, INC.",
    "contactEmail": "INFO@HEALTHNOWCA.COM",
    "categoryName": "HOME HEALTH AGENCY",
    "categoryCode": "HHA",
    "licenseStatus": "ACTIVE",
    "inService": true,
    "licenseNumber": "550003418",
    "licenseEffectiveDate": "03/01/2025",
    "licenseExpirationDate": "02/28/2026",
    "dataDate": "10/18/2025",
    "capacity": 0,
    "address": "23591 FOLEY STREET",
    "city": "HAYWARD",
    "zip": "94545",
    "county": "ALAMEDA",
    "phone": "(510) 868-2221",
    "lat": 37.64089849,
    "lng": -122.1314219
  },
  {
    "id": "630017894",
    "name": "HEALTHNOW HOSPICE INC.",
    "npi": "1154823599",
    "hcaiId": "406011942",
    "businessName": "HEALTHNOW HOSPICE INC.",
    "contactEmail": "INFO@HEALTHNOWCA.COM",
    "categoryName": "HOSPICE",
    "categoryCode": "HOSPICE",
    "licenseStatus": "ACTIVE",
    "inService": true,
    "licenseNumber": "550004981",
    "licenseEffectiveDate": "10/02/2023",
    "licenseExpirationDate": "10/01/2025",
    "dataDate": "10/18/2025",
    "capacity": 0,
    "address": "23591 FOLEY ST",
    "city": "HAYWARD",
    "zip": "94545",
    "county": "ALAMEDA",
    "phone": "(888) 808-5226",
    "lat": 37.64089849,
    "lng": -122.1314219
  },
  {
    "id": "020001289",
    "name": "NEAL'S HOME",
    "npi": "1023219466",
    "hcaiId": null,
    "businessName": "L&N, INC.",
    "contactEmail": "LPAGADORJR@GMAIL.COM",
    "categoryName": "INTERMEDIATE CARE FACILITY-DD/H/N/CN/IID",
    "categoryCode": "ICFDDN",
    "licenseStatus": "ACTIVE",
    "inService": true,
    "licenseNumber": "020000651",
    "licenseEffectiveDate": "06/15/2025",
    "licenseExpirationDate": "06/14/2026",
    "dataDate": "10/18/2025",
    "capacity": 6,
    "address": "25247 CALAROGA AVENUE",
    "city": "HAYWARD",
    "zip": "94545",
    "county": "ALAMEDA",
    "phone": "(510) 784-0701",
    "lat": 37.644705,
    "lng": -122.099382
  },
  {
    "id": "630015808",
    "name": "NEOGEN CARE",
    "npi": "1699163113",
    "hcaiId": "406014365",
    "businessName": "NEOGREEN SOLUTIONS, INC.",
    "contactEmail": "ANJUS@NEOGENCARE.COM",
    "categoryName": "HOME HEALTH AGENCY",
    "categoryCode": "HHA",
    "licenseStatus": "ACTIVE",
    "inService": true,
    "licenseNumber": "550003374",
    "licenseEffectiveDate": "01/22/2025",
    "licenseExpirationDate": "01/21/2026",
    "dataDate": "10/18/2025",
    "capacity": 0,
    "address": "24301 SOUTHLAND DRIVE, SUITE 401",
    "city": "HAYWARD",
    "zip": "94545",
    "county": "ALAMEDA",
    "phone": "(510) 440-1383",
    "lat": 37.6533,
    "lng": -122.1052275
  },
  {
    "id": "630019077",
    "name": "NEOGEN CARE HOSPICE",
    "npi": "1255999447",
    "hcaiId": "406012188",
    "businessName": "NEOGEN CARE HOSPICE INC",
    "contactEmail": "ANJUS@NEOGENCARE.COM",
    "categoryName": "HOSPICE",
    "categoryCode": "HOSPICE",
    "licenseStatus": "ACTIVE",
    "inService": true,
    "licenseNumber": "550005196",
    "licenseEffectiveDate": "11/26/2023",
    "licenseExpirationDate": "11/25/2025",
    "dataDate": "10/18/2025",
    "capacity": 0,
    "address": "24301 SOUTHLAND DR, SUITE B7",
    "city": "HAYWARD",
    "zip": "94545",
    "county": "ALAMEDA",
    "phone": "(510) 449-8014",
    "lat": 37.6533,
    "lng": -122.1052275
  },
  {
    "id": "140001075",
    "name": "PHYSIOTHERAPY ASSOCIATES",
    "npi": null,
    "hcaiId": null,
    "businessName": null,
    "contactEmail": null,
    "categoryName": "OTHER",
    "categoryCode": "UNLICEN",
    "licenseStatus": null,
    "inService": null,
    "licenseNumber": null,
    "licenseEffectiveDate": null,
    "licenseExpirationDate": null,
    "dataDate": "10/18/2025",
    "capacity": 0,
    "address": "3100 DIABLO AVE",
    "city": "HAYWARD",
    "zip": "94545",
    "county": "ALAMEDA",
    "phone": "(510) 732-7881",
    "lat": 37.635282,
    "lng": -122.120271
  },
  {
    "id": "020001191",
    "name": "PORTSMOUTH ICF/DDH",
    "npi": "1861534190",
    "hcaiId": null,
    "businessName": "PORTSMOUTH",
    "contactEmail": "JOHNMOHSENI@GMAIL.COM",
    "categoryName": "INTERMEDIATE CARE FACILITY-DD/H/N/CN/IID",
    "categoryCode": "ICFDDH",
    "licenseStatus": "ACTIVE",
    "inService": true,
    "licenseNumber": "020000592",
    "licenseEffectiveDate": "11/27/2024",
    "licenseExpirationDate": "11/26/2025",
    "dataDate": "10/18/2025",
    "capacity": 6,
    "address": "27695 PORTSMOUTH AVE",
    "city": "HAYWARD",
    "zip": "94545",
    "county": "ALAMEDA",
    "phone": "(510) 783-5118",
    "lat": 37.624752,
    "lng": -122.102226
  },
  {
    "id": "630009266",
    "name": "RADCLIFF HOME ICF/DD-N",
    "npi": "1558569178",
    "hcaiId": null,
    "businessName": "L&N, INC.",
    "contactEmail": "LPAGADOR@GMAIL.COM",
    "categoryName": "INTERMEDIATE CARE FACILITY-DD/H/N/CN/IID",
    "categoryCode": "ICFDDN",
    "licenseStatus": "ACTIVE",
    "inService": true,
    "licenseNumber": "550000180",
    "licenseEffectiveDate": "06/01/2025",
    "licenseExpirationDate": "05/31/2026",
    "dataDate": "10/18/2025",
    "capacity": 6,
    "address": "1211 RADCLIFF LANE",
    "city": "HAYWARD",
    "zip": "94545",
    "county": "ALAMEDA",
    "phone": "(510) 784-0135",
    "lat": 37.642527,
    "lng": -122.096142
  },
  {
    "id": "020001284",
    "name": "RUUS HOME ICF/DD-H",
    "npi": null,
    "hcaiId": null,
    "businessName": "AIC HEALTH CARE INC.",
    "contactEmail": "CHUBIDOG@YAHOO.COM",
    "categoryName": "INTERMEDIATE CARE FACILITY-DD/H/N/CN/IID",
    "categoryCode": "ICFDDH",
    "licenseStatus": "ACTIVE",
    "inService": true,
    "licenseNumber": "020000649",
    "licenseEffectiveDate": "06/26/2025",
    "licenseExpirationDate": "06/25/2026",
    "dataDate": "10/18/2025",
    "capacity": 6,
    "address": "27489 PORTSMOUTH AVENUE",
    "city": "HAYWARD",
    "zip": "94545",
    "county": "ALAMEDA",
    "phone": null,
    "lat": 37.626201,
    "lng": -122.103873
  },
  {
    "id": "630015701",
    "name": "SOLEO HEALTH INC.",
    "npi": null,
    "hcaiId": "406014354",
    "businessName": "SOLEO HEALTH INC.",
    "contactEmail": "CREDENTIALING@SOLEOHEALTH.COM",
    "categoryName": "HOME HEALTH AGENCY",
    "categoryCode": "HHA",
    "licenseStatus": "ACTIVE",
    "inService": true,
    "licenseNumber": "550003332",
    "licenseEffectiveDate": "12/29/2024",
    "licenseExpirationDate": "12/28/2025",
    "dataDate": "10/18/2025",
    "capacity": 0,
    "address": "1324 WEST WINTON AVENUE",
    "city": "HAYWARD",
    "zip": "94545",
    "county": "ALAMEDA",
    "phone": "(510) 362-7360",
    "lat": 37.652661,
    "lng": -122.1178005
  },
  {
    "id": "630019843",
    "name": "SOUTHGATE ELEMENTARY SCHOOL",
    "npi": null,
    "hcaiId": null,
    "businessName": "LA CLINICA DE LA RAZA, INC.",
    "contactEmail": null,
    "categoryName": "PRIMARY CARE CLINIC",
    "categoryCode": "COMTYC",
    "licenseStatus": "ACTIVE",
    "inService": true,
    "licenseNumber": "550001178",
    "licenseEffectiveDate": "11/12/2025",
    "licenseExpirationDate": "11/11/2026",
    "dataDate": "10/18/2025",
    "capacity": 0,
    "address": "26601 CALAROGA AVE",
    "city": "HAYWARD",
    "zip": "94545",
    "county": "ALAMEDA",
    "phone": null,
    "lat": 37.63902582,
    "lng": -122.0944413
  },
  {
    "id": "140000041",
    "name": "ST ROSE HOSPITAL",
    "npi": "1942298153",
    "hcaiId": "106010967",
    "businessName": "HAYWARD SISTERS HOSPITAL",
    "contactEmail": "MHARDING@SRHCA.ORG",
    "categoryName": "GENERAL ACUTE CARE HOSPITAL",
    "categoryCode": "GACH",
    "licenseStatus": "ACTIVE",
    "inService": true,
    "licenseNumber": "140000107",
    "licenseEffectiveDate": "12/17/2024",
    "licenseExpirationDate": "10/31/2025",
    "dataDate": "10/18/2025",
    "capacity": 126,
    "address": "27200 CALAROGA AVENUE",
    "city": "HAYWARD",
    "zip": "94545",
    "county": "ALAMEDA",
    "phone": "(510) 264-4000",
    "lat": 37.633572,
    "lng": -122.0878125
  },
  {
    "id": "630028106",
    "name": "ST. ROSE HOSPITAL D/P SNF/SUB-ACUTE",
    "npi": null,
    "hcaiId": null,
    "businessName": "HAYWARD SISTERS HOSPITAL",
    "contactEmail": null,
    "categoryName": "SKILLED NURSING FACILITY",
    "categoryCode": "SNF",
    "licenseStatus": "ACTIVE",
    "inService": true,
    "licenseNumber": "140000107",
    "licenseEffectiveDate": "12/17/2024",
    "licenseExpirationDate": "10/31/2025",
    "dataDate": "10/18/2025",
    "capacity": 29,
    "address": "27200 CALAROGA AVE",
    "city": "HAYWARD",
    "zip": "94545",
    "county": "ALAMEDA",
    "phone": null,
    "lat": 37.63330449,
    "lng": -122.0879486
  },
  {
    "id": "630027602",
    "name": "ST. VINCENT HOME HEALTH CARE INC",
    "npi": null,
    "hcaiId": null,
    "businessName": "ST. VINCENT HOME HEALTH CARE INC",
    "contactEmail": "INFO@STVINCENTHH.COM",
    "categoryName": "HOME HEALTH AGENCY",
    "categoryCode": "HHA",
    "licenseStatus": "ACTIVE",
    "inService": true,
    "licenseNumber": "550009567",
    "licenseEffectiveDate": "06/16/2025",
    "licenseExpirationDate": "12/15/2025",
    "dataDate": "10/18/2025",
    "capacity": 0,
    "address": "24301 SOUTHLAND DR, SUITE 216",
    "city": "HAYWARD",
    "zip": "94545",
    "county": "ALAMEDA",
    "phone": "(510) 274-5771",
    "lat": 37.65319898,
    "lng": -122.105181
  },
  {
    "id": "020001198",
    "name": "SUMMER'S HOME ICF/DD-H",
    "npi": "1730836867",
    "hcaiId": null,
    "businessName": "JINGWA INC",
    "contactEmail": "NGAISHEW@YAHOO.COM",
    "categoryName": "INTERMEDIATE CARE FACILITY-DD/H/N/CN/IID",
    "categoryCode": "ICFDDH",
    "licenseStatus": "ACTIVE",
    "inService": true,
    "licenseNumber": "020000596",
    "licenseEffectiveDate": "02/22/2025",
    "licenseExpirationDate": "02/21/2026",
    "dataDate": "10/18/2025",
    "capacity": 6,
    "address": "27680 LOYOLA AVENUE",
    "city": "HAYWARD",
    "zip": "94545",
    "county": "ALAMEDA",
    "phone": "(415) 368-9477",
    "lat": 37.627083,
    "lng": -122.0932215
  },
  {
    "id": "630019562",
    "name": "TIBURCIO VASQUEZ HEALTH CENTER, INC. C/O: CHABOT COLLEGE",
    "npi": null,
    "hcaiId": null,
    "businessName": "TIBURCIO VASQUEZ HEALTH CENTER, INC.",
    "contactEmail": null,
    "categoryName": "PRIMARY CARE CLINIC",
    "categoryCode": "COMTYC",
    "licenseStatus": "ACTIVE",
    "inService": true,
    "licenseNumber": "140000137",
    "licenseEffectiveDate": "02/01/2025",
    "licenseExpirationDate": "01/31/2026",
    "dataDate": "10/18/2025",
    "capacity": 0,
    "address": "25555 HESPERIAN BLVD, BUILDING 2300, ROOM 2315",
    "city": "HAYWARD",
    "zip": "94545",
    "county": "ALAMEDA",
    "phone": null,
    "lat": 37.641789,
    "lng": -122.105601
  },
  {
    "id": "630021609",
    "name": "TRIZA HOME HEALTH CARE",
    "npi": null,
    "hcaiId": "406015599",
    "businessName": "TRIZA SOLUTIONS LLC",
    "contactEmail": "INFO@TRIZAHEALTH.COM",
    "categoryName": "HOME HEALTH AGENCY",
    "categoryCode": "HHA",
    "licenseStatus": "ACTIVE",
    "inService": true,
    "licenseNumber": "550007356",
    "licenseEffectiveDate": "08/15/2025",
    "licenseExpirationDate": "11/30/2025",
    "dataDate": "10/18/2025",
    "capacity": 0,
    "address": "3777 DEPOT RD, SUITE 415",
    "city": "HAYWARD",
    "zip": "94545",
    "county": "ALAMEDA",
    "phone": "(510) 603-4744",
    "lat": 37.63807304,
    "lng": -122.1353942
  },
  {
    "id": "630024817",
    "name": "TRULIFE HOME HEALTH CARE",
    "npi": null,
    "hcaiId": "406010022",
    "businessName": "TRULIFE HOME HEALTH, LLC",
    "contactEmail": "TRULIFEHHH@GMAIL.COM",
    "categoryName": "HOME HEALTH AGENCY",
    "categoryCode": "HHA",
    "licenseStatus": "ACTIVE",
    "inService": true,
    "licenseNumber": "550008155",
    "licenseEffectiveDate": "09/16/2025",
    "licenseExpirationDate": "09/15/2026",
    "dataDate": "10/18/2025",
    "capacity": 0,
    "address": "26250 INDUSTRIAL BLVD, SUITE 45",
    "city": "HAYWARD",
    "zip": "94545",
    "county": "ALAMEDA",
    "phone": "(510) 274-5542",
    "lat": 37.63413,
    "lng": -122.111001
  },
  {
    "id": "630013229",
    "name": "VITAL HOME HEALTH CARE",
    "npi": "1376848409",
    "hcaiId": "406012087",
    "businessName": "VITAL HOME HEALTH CARE, LLC",
    "contactEmail": "LILY.S@THEVITALCARE.COM",
    "categoryName": "HOME HEALTH AGENCY",
    "categoryCode": "HHA",
    "licenseStatus": "ACTIVE",
    "inService": true,
    "licenseNumber": "550001672",
    "licenseEffectiveDate": "11/07/2024",
    "licenseExpirationDate": "11/06/2025",
    "dataDate": "10/18/2025",
    "capacity": 0,
    "address": "1090 LA PLAYA DR, SUITE 288",
    "city": "HAYWARD",
    "zip": "94545",
    "county": "ALAMEDA",
    "phone": "(510) 575-9898",
    "lat": 37.647612,
    "lng": -122.1055335
  },
  {
    "id": "630020069",
    "name": "VITAL HOSPICE CARE LLC",
    "npi": "1841819380",
    "hcaiId": "406014681",
    "businessName": "VITAL HOSPICE CARE LLC",
    "contactEmail": "LILY.S@THEVITALCARE.COM",
    "categoryName": "HOSPICE",
    "categoryCode": "HOSPICE",
    "licenseStatus": "ACTIVE",
    "inService": true,
    "licenseNumber": "550005990",
    "licenseEffectiveDate": "12/31/2024",
    "licenseExpirationDate": "12/30/2026",
    "dataDate": "10/18/2025",
    "capacity": 0,
    "address": "1090 LA PLAYA DR, SUITE 289",
    "city": "HAYWARD",
    "zip": "94545",
    "county": "ALAMEDA",
    "phone": "(510) 925-2886",
    "lat": 37.647612,
    "lng": -122.1055335
  }
]