[
  {
    "id": "140000601",
    "name": "ANDRE C. MALIN",
    "npi": null,
    "hcaiId": null,
    "businessName": null,
    "contactEmail": null,
    "categoryName": "OTHER",
    "categoryCode": "UNLICEN",
    "licenseStatus": null,
    "inService": null,
    "licenseNumber": null,
    "licenseEffectiveDate": null,
    "licenseExpirationDate": null,
    "dataDate": "10/18/2025",
    "capacity": 0,
    "address": "970 DEWING AVE",
    "city": "LAFAYETTE",
    "zip": "94549",
    "county": "CONTRA COSTA",
    "phone": "(925) 283-5829",
    "lat": 37.890513,
    "lng": -122.1232185
  },
  {
    "id": "630016384",
    "name": "CASA OAKVIEW",
    "npi": null,
    "hcaiId": "206074188",
    "businessName": "SUNOL HILLS LLC",
    "contactEmail": "VIKAS@SUNOLHILLS.COM",
    "categoryName": "CONGREGATE LIVING HEALTH FACILITY",
    "categoryCode": "CLHF",
    "licenseStatus": "ACTIVE",
    "inService": true,
    "licenseNumber": "550003494",
    "licenseEffectiveDate": "04/29/2025",
    "licenseExpirationDate": "04/28/2026",
    "dataDate": "10/18/2025",
    "capacity": 6,
    "address": "1658 GLEN OAK COURT",
    "city": "LAFAYETTE",
    "zip": "94549",
    "county": "CONTRA COSTA",
    "phone": "(925) 295-1276",
    "lat": 37.928268,
    "lng": -122.088429
  },
  {
    "id": "140000447",
    "name": "LOUISE BECKER",
    "npi": null,
    "hcaiId": null,
    "businessName": null,
    "contactEmail": null,
    "categoryName": "OTHER",
    "categoryCode": "UNLICEN",
    "licenseStatus": null,
    "inService": null,
    "licenseNumber": null,
    "licenseEffectiveDate": null,
    "licenseExpirationDate": null,
    "dataDate": "10/18/2025",
    "capacity": 0,
    "address": "895 MORAGA RD, SUITE 10",
    "city": "LAFAYETTE",
    "zip": "94549",
    "county": "CONTRA COSTA",
    "phone": "(510) 999-9999",
    "lat": 37.886715,
    "lng": -122.1183225
  },
  {
    "id": "630019879",
    "name": "MONTE NIDO EAST BAY",
    "npi": null,
    "hcaiId": "206070257",
    "businessName": "MONTE NIDO LAKE VISTA, LLC",
    "contactEmail": "ASERVICE@MONTENIDOAFFILIATES.COM",
    "categoryName": "CONGREGATE LIVING HEALTH FACILITY",
    "categoryCode": "CLHF",
    "licenseStatus": "ACTIVE",
    "inService": true,
    "licenseNumber": "550005709",
    "licenseEffectiveDate": "09/02/2025",
    "licenseExpirationDate": "09/01/2026",
    "dataDate": "10/18/2025",
    "capacity": 10,
    "address": "1776 IVANHOE AVE",
    "city": "LAFAYETTE",
    "zip": "94549",
    "county": "CONTRA COSTA",
    "phone": "(315) 523-4943",
    "lat": 37.93338,
    "lng": -122.100696
  }
]