[
  {
    "id": "630027776",
    "name": "ABUNDANCE CARE HOME HEALTH LLC",
    "npi": null,
    "hcaiId": null,
    "businessName": "ABUNDANCE CARE HOME HEALTH LLC",
    "contactEmail": "INFO.ABUNDANCECAREHH@GMAIL.COM",
    "categoryName": "HOME HEALTH AGENCY",
    "categoryCode": "HHA",
    "licenseStatus": "ACTIVE",
    "inService": true,
    "licenseNumber": "550009814",
    "licenseEffectiveDate": "05/16/2025",
    "licenseExpirationDate": "11/15/2025",
    "dataDate": "10/18/2025",
    "capacity": 0,
    "address": "1832 SOSCOL AVE, SUITE 107",
    "city": "NAPA",
    "zip": "94559",
    "county": "NAPA",
    "phone": "(707) 913-8666",
    "lat": 38.30818227,
    "lng": -122.2834908
  },
  {
    "id": "010000086",
    "name": "BAYBERRY HOUSE",
    "npi": "1174705891",
    "hcaiId": null,
    "businessName": "BAYBERRY, INC.",
    "contactEmail": "LJACKSON@BAYBERRYINC.ORG",
    "categoryName": "INTERMEDIATE CARE FACILITY-DD/H/N/CN/IID",
    "categoryCode": "ICFDDH",
    "licenseStatus": "ACTIVE",
    "inService": true,
    "licenseNumber": "010000112",
    "licenseEffectiveDate": "06/01/2025",
    "licenseExpirationDate": "05/31/2026",
    "dataDate": "10/18/2025",
    "capacity": 6,
    "address": "400 AGUIRRE WAY",
    "city": "NAPA",
    "zip": "94559",
    "county": "NAPA",
    "phone": "(707) 252-6845",
    "lat": 38.295873,
    "lng": -122.271102
  },
  {
    "id": "630017245",
    "name": "DANNY'S HOME HEALTH CARE INC.",
    "npi": "1366831992",
    "hcaiId": "406285645",
    "businessName": "DANNY'S HOME HEALTH CARE, INC.",
    "contactEmail": "CEOADMIN@DANNYSHOMEHEALTH.COM",
    "categoryName": "HOME HEALTH AGENCY",
    "categoryCode": "HHA",
    "licenseStatus": "ACTIVE",
    "inService": true,
    "licenseNumber": "550004184",
    "licenseEffectiveDate": "03/09/2025",
    "licenseExpirationDate": "03/08/2026",
    "dataDate": "10/18/2025",
    "capacity": 0,
    "address": "1832 SOSCOL AVE, SUITE 115-116",
    "city": "NAPA",
    "zip": "94559",
    "county": "NAPA",
    "phone": "(707) 261-0126",
    "lat": 38.308239,
    "lng": -122.2835625
  },
  {
    "id": "630013026",
    "name": "OLE HEALTH",
    "npi": "1902106198",
    "hcaiId": "306280494",
    "businessName": "OLE HEALTH",
    "contactEmail": "KMOSES@OLEHEALTH.ORG",
    "categoryName": "PRIMARY CARE CLINIC",
    "categoryCode": "COMTYC",
    "licenseStatus": "ACTIVE",
    "inService": true,
    "licenseNumber": "550001540",
    "licenseEffectiveDate": "04/06/2025",
    "licenseExpirationDate": "04/05/2026",
    "dataDate": "10/18/2025",
    "capacity": 0,
    "address": "300 HARTLE CT",
    "city": "NAPA",
    "zip": "94559",
    "county": "NAPA",
    "phone": "(707) 254-1774",
    "lat": 38.283957,
    "lng": -122.280471
  },
  {
    "id": "630014832",
    "name": "OLE HEALTH",
    "npi": null,
    "hcaiId": null,
    "businessName": "OLE HEALTH",
    "contactEmail": null,
    "categoryName": "PRIMARY CARE CLINIC",
    "categoryCode": "COMTYC",
    "licenseStatus": "ACTIVE",
    "inService": true,
    "licenseNumber": "550001540",
    "licenseEffectiveDate": "04/06/2025",
    "licenseExpirationDate": "04/05/2026",
    "dataDate": "10/18/2025",
    "capacity": 0,
    "address": "100 HARTLE CT",
    "city": "NAPA",
    "zip": "94559",
    "county": "NAPA",
    "phone": "(707) 254-1770",
    "lat": 38.283615,
    "lng": -122.279589
  },
  {
    "id": "070001150",
    "name": "PROVIDENCE ADULT DAY HEALTH NAPA VALLEY",
    "npi": null,
    "hcaiId": null,
    "businessName": "COLLABRIA CARE",
    "contactEmail": "CELINE.REGALIAL@PROVIDENCE.ORG",
    "categoryName": "ADULT DAY HEALTH CARE",
    "categoryCode": "ADHC",
    "licenseStatus": "ACTIVE",
    "inService": true,
    "licenseNumber": "070000499",
    "licenseEffectiveDate": "11/01/2024",
    "licenseExpirationDate": "10/31/2025",
    "dataDate": "10/18/2025",
    "capacity": 0,
    "address": "414 S JEFFERSON ST",
    "city": "NAPA",
    "zip": "94559",
    "county": "NAPA",
    "phone": "(707) 254-4169",
    "lat": 38.28411,
    "lng": -122.293233
  },
  {
    "id": "100001733",
    "name": "PROVIDENCE HOSPICE NAPA VALLEY",
    "npi": null,
    "hcaiId": "406284013",
    "businessName": "CP NAPA N-CA HOSPICE, LLC",
    "contactEmail": "SHAYNA.STILES@PROVIDENCE.ORG",
    "categoryName": "HOSPICE",
    "categoryCode": "HOSPICE",
    "licenseStatus": "ACTIVE",
    "inService": true,
    "licenseNumber": "100000741",
    "licenseEffectiveDate": "11/01/2025",
    "licenseExpirationDate": "10/31/2027",
    "dataDate": "10/18/2025",
    "capacity": 0,
    "address": "414 S JEFFERSON ST",
    "city": "NAPA",
    "zip": "94559",
    "county": "NAPA",
    "phone": "(707) 258-9080",
    "lat": 38.28411,
    "lng": -122.293233
  },
  {
    "id": "110000760",
    "name": "THE MEADOWS OF NAPA VALLEY CARE CENTER",
    "npi": "1104826486",
    "hcaiId": "206284010",
    "businessName": "ODD FELLOWS HOME OF CALIFORNIA",
    "contactEmail": "KMORROW@RETIREMENT.ORG",
    "categoryName": "SKILLED NURSING FACILITY",
    "categoryCode": "SNF",
    "licenseStatus": "ACTIVE",
    "inService": true,
    "licenseNumber": "110000292",
    "licenseEffectiveDate": "01/31/2025",
    "licenseExpirationDate": "01/30/2026",
    "dataDate": "10/18/2025",
    "capacity": 60,
    "address": "1900 ATRIUM PKWY",
    "city": "NAPA",
    "zip": "94559",
    "county": "NAPA",
    "phone": "(707) 320-2085",
    "lat": 38.275749,
    "lng": -122.297652
  }
]