[
  {
    "id": "140000574",
    "name": "ALHAMBRA POST ACUTE",
    "npi": "1427746601",
    "hcaiId": "206070892",
    "businessName": "MARTINEZ SNF HEALTHCARE, LLC",
    "contactEmail": "ADMINISTRATOR@MARTINEZHCC.COM",
    "categoryName": "SKILLED NURSING FACILITY",
    "categoryCode": "SNF",
    "licenseStatus": "ACTIVE",
    "inService": true,
    "licenseNumber": "140000303",
    "licenseEffectiveDate": "03/19/2025",
    "licenseExpirationDate": "03/18/2026",
    "dataDate": "10/18/2025",
    "capacity": 44,
    "address": "331 ILENE STREET",
    "city": "MARTINEZ",
    "zip": "94553",
    "county": "CONTRA COSTA",
    "phone": null,
    "lat": 38.008377,
    "lng": -122.1333345
  },
  {
    "id": "140000195",
    "name": "CONTRA COSTA REGIONAL MEDICAL CENTER",
    "npi": "1497820203",
    "hcaiId": "106070924",
    "businessName": "COUNTY OF CONTRA COSTA",
    "contactEmail": "LISA.SCHILLING@CCHEALTH.ORG",
    "categoryName": "GENERAL ACUTE CARE HOSPITAL",
    "categoryCode": "GACH",
    "licenseStatus": "ACTIVE",
    "inService": true,
    "licenseNumber": "140000090",
    "licenseEffectiveDate": "09/25/2025",
    "licenseExpirationDate": "11/30/2025",
    "dataDate": "10/18/2025",
    "capacity": 124,
    "address": "2500 ALHAMBRA AVENUE",
    "city": "MARTINEZ",
    "zip": "94553",
    "county": "CONTRA COSTA",
    "phone": "(925) 370-5100",
    "lat": 38.006865,
    "lng": -122.132898
  },
  {
    "id": "140000344",
    "name": "CONTRA COSTA REGIONAL MEDICAL CENTER D/P APH",
    "npi": "1497820203",
    "hcaiId": null,
    "businessName": "COUNTY OF CONTRA COSTA",
    "contactEmail": null,
    "categoryName": "ACUTE PSYCHIATRIC HOSPITAL",
    "categoryCode": "APH",
    "licenseStatus": "ACTIVE",
    "inService": true,
    "licenseNumber": "140000090",
    "licenseEffectiveDate": "09/25/2025",
    "licenseExpirationDate": "11/30/2025",
    "dataDate": "10/18/2025",
    "capacity": 43,
    "address": "2500 ALHAMBRA AVENUE",
    "city": "MARTINEZ",
    "zip": "94553",
    "county": "CONTRA COSTA",
    "phone": "(925) 370-5100",
    "lat": 38.006865,
    "lng": -122.132898
  },
  {
    "id": "020000715",
    "name": "KAISER FOUNDATION HOSPITAL HOME HEALTH - MARTINEZ",
    "npi": "1295800837",
    "hcaiId": "406073616",
    "businessName": "KAISER FOUNDATION HOSPITALS",
    "contactEmail": "SANDRA.HNIZDO@KP.ORG",
    "categoryName": "HOME HEALTH AGENCY",
    "categoryCode": "HHA",
    "licenseStatus": "ACTIVE",
    "inService": true,
    "licenseNumber": "020000350",
    "licenseEffectiveDate": "06/26/2025",
    "licenseExpirationDate": "11/30/2025",
    "dataDate": "10/18/2025",
    "capacity": 0,
    "address": "200 MUIR ROAD",
    "city": "MARTINEZ",
    "zip": "94553",
    "county": "CONTRA COSTA",
    "phone": "(408) 609-0766",
    "lat": 37.993509,
    "lng": -122.1103845
  },
  {
    "id": "070001237",
    "name": "KAISER FOUNDATION HOSPITAL HOSPICE - MARTINEZ",
    "npi": null,
    "hcaiId": "406074067",
    "businessName": "KAISER FOUNDATION HOSPITALS",
    "contactEmail": "MARY.S.ALLRED@KP.ORG",
    "categoryName": "HOSPICE",
    "categoryCode": "HOSPICE",
    "licenseStatus": "ACTIVE",
    "inService": true,
    "licenseNumber": "070000571",
    "licenseEffectiveDate": "12/20/2023",
    "licenseExpirationDate": "12/19/2025",
    "dataDate": "10/18/2025",
    "capacity": 0,
    "address": "200 MUIR ROAD",
    "city": "MARTINEZ",
    "zip": "94553",
    "county": "CONTRA COSTA",
    "phone": "(925) 313-4600",
    "lat": 37.993509,
    "lng": -122.1103845
  },
  {
    "id": "140000102",
    "name": "LEGACY POST ACUTE CARE",
    "npi": "1558532465",
    "hcaiId": "206073349",
    "businessName": "SYCAMORE HEALTHCARE ASSOCIATES",
    "contactEmail": "ADMINISTRATOR@THELPAC.COM",
    "categoryName": "SKILLED NURSING FACILITY",
    "categoryCode": "SNF",
    "licenseStatus": "ACTIVE",
    "inService": true,
    "licenseNumber": "140000173",
    "licenseEffectiveDate": "04/17/2025",
    "licenseExpirationDate": "04/16/2026",
    "dataDate": "10/18/2025",
    "capacity": 96,
    "address": "1790 MUIR ROAD",
    "city": "MARTINEZ",
    "zip": "94553",
    "county": "CONTRA COSTA",
    "phone": "(925) 228-8383",
    "lat": 37.989216,
    "lng": -122.09076
  }
]