[
  {
    "id": "140001037",
    "name": "ANGELIKA VOSS-QUINN",
    "npi": null,
    "hcaiId": null,
    "businessName": null,
    "contactEmail": null,
    "categoryName": "OTHER",
    "categoryCode": "UNLICEN",
    "licenseStatus": null,
    "inService": null,
    "licenseNumber": null,
    "licenseEffectiveDate": null,
    "licenseExpirationDate": null,
    "dataDate": "10/18/2025",
    "capacity": 0,
    "address": "1080 CONCANNON BLVD",
    "city": "LIVERMORE",
    "zip": "94550",
    "county": "ALAMEDA",
    "phone": "(925) 443-9030",
    "lat": 37.661103,
    "lng": -121.7822715
  },
  {
    "id": "140001291",
    "name": "AVONDALE VILLA POST-ACUTE",
    "npi": "1740207455",
    "hcaiId": "206010874",
    "businessName": "ISLAND CREEK HOLDINGS, LLC",
    "contactEmail": "ISABEL.PODEROSO@LINKSHEALTH.COM",
    "categoryName": "SKILLED NURSING FACILITY",
    "categoryCode": "SNF",
    "licenseStatus": "ACTIVE",
    "inService": true,
    "licenseNumber": "140000658",
    "licenseEffectiveDate": "11/22/2024",
    "licenseExpirationDate": "11/21/2025",
    "dataDate": "10/18/2025",
    "capacity": 37,
    "address": "788 HOLMES STREET",
    "city": "LIVERMORE",
    "zip": "94550",
    "county": "ALAMEDA",
    "phone": "(925) 447-2280",
    "lat": 37.673028,
    "lng": -121.7797965
  },
  {
    "id": "140000247",
    "name": "AXIS COMMUNITY HEALTH",
    "npi": null,
    "hcaiId": "306013649",
    "businessName": "AXIS COMMUNITY HEALTH, INC.",
    "contactEmail": "CORPORATECOMPLIANCE@AXISHEALTH.ORG",
    "categoryName": "PRIMARY CARE CLINIC",
    "categoryCode": "COMTYC",
    "licenseStatus": "ACTIVE",
    "inService": true,
    "licenseNumber": "550003511",
    "licenseEffectiveDate": "09/01/2025",
    "licenseExpirationDate": "05/19/2026",
    "dataDate": "10/18/2025",
    "capacity": 0,
    "address": "3311 PACIFIC AVENUE",
    "city": "LIVERMORE",
    "zip": "94550",
    "county": "ALAMEDA",
    "phone": "(925) 201-6211",
    "lat": 37.67571,
    "lng": -121.75524
  },
  {
    "id": "630028233",
    "name": "AXIS COMMUNITY HEALTH, INC.",
    "npi": null,
    "hcaiId": null,
    "businessName": "AXIS COMMUNITY HEALTH, INC.",
    "contactEmail": null,
    "categoryName": "PRIMARY CARE CLINIC",
    "categoryCode": "COMTYC",
    "licenseStatus": "ACTIVE",
    "inService": true,
    "licenseNumber": "550003511",
    "licenseEffectiveDate": "09/01/2025",
    "licenseExpirationDate": "05/19/2026",
    "dataDate": "10/18/2025",
    "capacity": 0,
    "address": "1686 2ND ST",
    "city": "LIVERMORE",
    "zip": "94550",
    "county": "ALAMEDA",
    "phone": null,
    "lat": 37.67914521,
    "lng": -121.7750434
  },
  {
    "id": "140001025",
    "name": "BRIAN PETER QUINN",
    "npi": null,
    "hcaiId": null,
    "businessName": null,
    "contactEmail": null,
    "categoryName": "OTHER",
    "categoryCode": "UNLICEN",
    "licenseStatus": null,
    "inService": null,
    "licenseNumber": null,
    "licenseEffectiveDate": null,
    "licenseExpirationDate": null,
    "dataDate": "10/18/2025",
    "capacity": 0,
    "address": "1080 CONCANNON BLVD",
    "city": "LIVERMORE",
    "zip": "94550",
    "county": "ALAMEDA",
    "phone": "(925) 443-9030",
    "lat": 37.661103,
    "lng": -121.7822715
  },
  {
    "id": "630018396",
    "name": "CARMEN HOUSE",
    "npi": null,
    "hcaiId": "206010138",
    "businessName": "SUNRISE TRANSITIONAL CARE, LLC",
    "contactEmail": "EQ.GARCIA@YAHOO.COM",
    "categoryName": "CONGREGATE LIVING HEALTH FACILITY",
    "categoryCode": "CLHF",
    "licenseStatus": "ACTIVE",
    "inService": true,
    "licenseNumber": "550004722",
    "licenseEffectiveDate": "06/06/2025",
    "licenseExpirationDate": "06/05/2026",
    "dataDate": "10/18/2025",
    "capacity": 6,
    "address": "2863 CARMEN AVE",
    "city": "LIVERMORE",
    "zip": "94550",
    "county": "ALAMEDA",
    "phone": "(925) 989-3345",
    "lat": 37.675323,
    "lng": -121.7592675
  },
  {
    "id": "630018877",
    "name": "KALINGA CARE HOME",
    "npi": null,
    "hcaiId": "206010324",
    "businessName": "KALINGA CARE HOME",
    "contactEmail": "BVGUEVARRA@KALINGACAREHOME.COM",
    "categoryName": "CONGREGATE LIVING HEALTH FACILITY",
    "categoryCode": "CLHF",
    "licenseStatus": "ACTIVE",
    "inService": true,
    "licenseNumber": "550005935",
    "licenseEffectiveDate": "02/23/2025",
    "licenseExpirationDate": "02/22/2026",
    "dataDate": "10/18/2025",
    "capacity": 6,
    "address": "1230 VANCOUVER WAY",
    "city": "LIVERMORE",
    "zip": "94550",
    "county": "ALAMEDA",
    "phone": "(925) 453-6128",
    "lat": 37.6668,
    "lng": -121.77999
  },
  {
    "id": "630026172",
    "name": "PREGNANCY RESOURCE CENTER OF TRACY",
    "npi": null,
    "hcaiId": null,
    "businessName": "CRISIS PREGNANCY CENTER OF TRACY",
    "contactEmail": null,
    "categoryName": "PRIMARY CARE CLINIC",
    "categoryCode": "FREEC",
    "licenseStatus": "ACTIVE",
    "inService": true,
    "licenseNumber": "030000793",
    "licenseEffectiveDate": "06/20/2025",
    "licenseExpirationDate": "11/10/2025",
    "dataDate": "10/18/2025",
    "capacity": 0,
    "address": "1010 MURRIETA BLVD",
    "city": "LIVERMORE",
    "zip": "94550",
    "county": "ALAMEDA",
    "phone": null,
    "lat": 37.676106,
    "lng": -121.783158
  },
  {
    "id": "140000199",
    "name": "STANFORD HEALTH CARE TRI-VALLEY",
    "npi": null,
    "hcaiId": "106010983",
    "businessName": "STANFORD HEALTH CARE TRI-VALLEY",
    "contactEmail": "JBERG@STANFORDHEALTHCARE.ORG",
    "categoryName": "GENERAL ACUTE CARE HOSPITAL",
    "categoryCode": "GACH",
    "licenseStatus": "ACTIVE",
    "inService": true,
    "licenseNumber": "140000114",
    "licenseEffectiveDate": "09/18/2025",
    "licenseExpirationDate": "12/08/2025",
    "dataDate": "10/18/2025",
    "capacity": 35,
    "address": "1111 E STANLEY BOULEVARD",
    "city": "LIVERMORE",
    "zip": "94550",
    "county": "ALAMEDA",
    "phone": "(925) 447-7000",
    "lat": 37.67706,
    "lng": -121.78179
  },
  {
    "id": "140001076",
    "name": "STANFORD HEALTH CARE TRI-VALLEY D/P APH",
    "npi": null,
    "hcaiId": null,
    "businessName": "STANFORD HEALTH CARE TRI-VALLEY",
    "contactEmail": null,
    "categoryName": "ACUTE PSYCHIATRIC HOSPITAL",
    "categoryCode": "APH",
    "licenseStatus": "ACTIVE",
    "inService": true,
    "licenseNumber": "140000114",
    "licenseEffectiveDate": "09/18/2025",
    "licenseExpirationDate": "12/08/2025",
    "dataDate": "10/18/2025",
    "capacity": 14,
    "address": "1111 E STANLEY BOULEVARD",
    "city": "LIVERMORE",
    "zip": "94550",
    "county": "ALAMEDA",
    "phone": "(925) 447-7000",
    "lat": 37.67706,
    "lng": -121.78179
  },
  {
    "id": "140000626",
    "name": "STANFORD HEALTH CARE TRI-VALLEY D/P SNF",
    "npi": null,
    "hcaiId": null,
    "businessName": "STANFORD HEALTH CARE TRI-VALLEY",
    "contactEmail": null,
    "categoryName": "SKILLED NURSING FACILITY",
    "categoryCode": "SNF",
    "licenseStatus": "ACTIVE",
    "inService": true,
    "licenseNumber": "140000114",
    "licenseEffectiveDate": "09/18/2025",
    "licenseExpirationDate": "12/08/2025",
    "dataDate": "10/18/2025",
    "capacity": 26,
    "address": "1111 E STANLEY BOULEVARD",
    "city": "LIVERMORE",
    "zip": "94550",
    "county": "ALAMEDA",
    "phone": "(925) 447-7000",
    "lat": 37.67706,
    "lng": -121.78179
  },
  {
    "id": "630014957",
    "name": "STRATFORD VILLA POST-ACUTE",
    "npi": "1679982524",
    "hcaiId": "206014286",
    "businessName": "JACKSON RIVER HOLDING, LLC",
    "contactEmail": "ISABEL.PODEROSO@LINKSHEALTH.COM",
    "categoryName": "SKILLED NURSING FACILITY",
    "categoryCode": "SNF",
    "licenseStatus": "ACTIVE",
    "inService": true,
    "licenseNumber": "550003515",
    "licenseEffectiveDate": "05/19/2025",
    "licenseExpirationDate": "05/18/2026",
    "dataDate": "10/18/2025",
    "capacity": 27,
    "address": "752 HOLMES STREET",
    "city": "LIVERMORE",
    "zip": "94550",
    "county": "ALAMEDA",
    "phone": "(925) 454-5333",
    "lat": 37.673298,
    "lng": -121.779819
  },
  {
    "id": "140000122",
    "name": "THE VINEYARDS HEALTHCARE CENTER",
    "npi": "1427072040",
    "hcaiId": "206010825",
    "businessName": "BRISTOL BAY HOLDINGS LLC",
    "contactEmail": "LISA.FOSTER@LINKSHEALTH.COM",
    "categoryName": "SKILLED NURSING FACILITY",
    "categoryCode": "SNF",
    "licenseStatus": "ACTIVE",
    "inService": true,
    "licenseNumber": "140000040",
    "licenseEffectiveDate": "05/01/2025",
    "licenseExpirationDate": "04/30/2026",
    "dataDate": "10/18/2025",
    "capacity": 83,
    "address": "76 FENTON STREET",
    "city": "LIVERMORE",
    "zip": "94550",
    "county": "ALAMEDA",
    "phone": "(925) 443-1800",
    "lat": 37.676934,
    "lng": -121.782978
  },
  {
    "id": "140000452",
    "name": "THOMAS E. DAVENPORT",
    "npi": null,
    "hcaiId": null,
    "businessName": null,
    "contactEmail": null,
    "categoryName": "OTHER",
    "categoryCode": "UNLICEN",
    "licenseStatus": null,
    "inService": null,
    "licenseNumber": null,
    "licenseEffectiveDate": null,
    "licenseExpirationDate": null,
    "dataDate": "10/18/2025",
    "capacity": 0,
    "address": "48 FENTON ST",
    "city": "LIVERMORE",
    "zip": "94550",
    "county": "ALAMEDA",
    "phone": "(925) 443-9030",
    "lat": 37.677951,
    "lng": -121.7827035
  }
]