[
  {
    "id": "110000708",
    "name": "CALIFORNIA HAND REHABILITATION INC.",
    "npi": null,
    "hcaiId": null,
    "businessName": null,
    "contactEmail": null,
    "categoryName": "REHABILITATION CLINIC",
    "categoryCode": "REHABC",
    "licenseStatus": null,
    "inService": null,
    "licenseNumber": null,
    "licenseEffectiveDate": null,
    "licenseExpirationDate": null,
    "dataDate": "10/18/2025",
    "capacity": 0,
    "address": "935 TRANCAS ST, SUITE 5A",
    "city": "NAPA",
    "zip": "94558",
    "county": "NAPA",
    "phone": "(707) 259-1152",
    "lat": 38.323071,
    "lng": -122.294826
  },
  {
    "id": "150001223",
    "name": "DEPARTMENT OF STATE HOSPITALS - NAPA",
    "npi": null,
    "hcaiId": "106281266",
    "businessName": "STATE OF CALIFORNIA, DEPARTMENT OF STATE HOSPITALS",
    "contactEmail": "TENNILLE.TUNE@DSH.CA.GOV",
    "categoryName": "ACUTE PSYCHIATRIC HOSPITAL",
    "categoryCode": "APH",
    "licenseStatus": "ACTIVE",
    "inService": true,
    "licenseNumber": "150000492",
    "licenseEffectiveDate": "05/01/2025",
    "licenseExpirationDate": "04/30/2026",
    "dataDate": "10/18/2025",
    "capacity": 151,
    "address": "2100 NAPA VALLEJO HWY",
    "city": "NAPA",
    "zip": "94558",
    "county": "NAPA",
    "phone": "(707) 253-5211",
    "lat": 38.278035,
    "lng": -122.266836
  },
  {
    "id": "150001227",
    "name": "DEPARTMENT OF STATE HOSPITALS - NAPA",
    "npi": null,
    "hcaiId": null,
    "businessName": "STATE OF CALIFORNIA, DEPARTMENT OF STATE HOSPITALS",
    "contactEmail": "TENNILLE.TUNE@DSH.CA.GOV",
    "categoryName": "INTERMEDIATE CARE FACILITY",
    "categoryCode": "ICF",
    "licenseStatus": "ACTIVE",
    "inService": true,
    "licenseNumber": "150000492",
    "licenseEffectiveDate": "05/01/2025",
    "licenseExpirationDate": "04/30/2026",
    "dataDate": "10/18/2025",
    "capacity": 1231,
    "address": "2100 NAPA VALLEJO HWY",
    "city": "NAPA",
    "zip": "94558",
    "county": "NAPA",
    "phone": "(707) 253-5467",
    "lat": 38.278035,
    "lng": -122.266836
  },
  {
    "id": "150001228",
    "name": "DEPARTMENT OF STATE HOSPITALS - NAPA",
    "npi": "1326098161",
    "hcaiId": null,
    "businessName": "STATE OF CALIFORNIA, DEPARTMENT OF STATE HOSPITALS",
    "contactEmail": "TENNILLE.TUNE@DSH.CA.GOV",
    "categoryName": "SKILLED NURSING FACILITY",
    "categoryCode": "SNF",
    "licenseStatus": "ACTIVE",
    "inService": true,
    "licenseNumber": "150000492",
    "licenseEffectiveDate": "05/01/2025",
    "licenseExpirationDate": "04/30/2026",
    "dataDate": "10/18/2025",
    "capacity": 36,
    "address": "2100 NAPA VALLEJO HWY",
    "city": "NAPA",
    "zip": "94558",
    "county": "NAPA",
    "phone": "(707) 253-5014",
    "lat": 38.278035,
    "lng": -122.266836
  },
  {
    "id": "630026571",
    "name": "MEDBRIDGE, INC.",
    "npi": null,
    "hcaiId": null,
    "businessName": "MEDBRIDGE, INC.",
    "contactEmail": "INFO@MEDBRIDGE.NET",
    "categoryName": "HOME HEALTH AGENCY",
    "categoryCode": "HHA",
    "licenseStatus": "ACTIVE",
    "inService": true,
    "licenseNumber": "550009859",
    "licenseEffectiveDate": "05/15/2025",
    "licenseExpirationDate": "11/14/2025",
    "dataDate": "10/18/2025",
    "capacity": 0,
    "address": "135 CAMINO DORADO, SUITE 20",
    "city": "NAPA",
    "zip": "94558",
    "county": "NAPA",
    "phone": "(415) 324-4149",
    "lat": 38.229696,
    "lng": -122.256864
  },
  {
    "id": "630018929",
    "name": "NAPA AMBULATORY SURGERY CENTER, INC.",
    "npi": "1306355573",
    "hcaiId": null,
    "businessName": null,
    "contactEmail": null,
    "categoryName": "SURGICAL CLINIC",
    "categoryCode": "ASC",
    "licenseStatus": null,
    "inService": null,
    "licenseNumber": null,
    "licenseEffectiveDate": null,
    "licenseExpirationDate": null,
    "dataDate": "10/18/2025",
    "capacity": 0,
    "address": "935 TRANCAS ST, SUITE #3A",
    "city": "NAPA",
    "zip": "94558",
    "county": "NAPA",
    "phone": null,
    "lat": 38.323071,
    "lng": -122.294826
  },
  {
    "id": "110001148",
    "name": "NAPA DIALYSIS CENTER",
    "npi": "1366405748",
    "hcaiId": "306282294",
    "businessName": "RENAL TREATMENT CENTERS - CALIFORNIA, INC.",
    "contactEmail": "CAL_C@DAVITA.COM",
    "categoryName": "CHRONIC DIALYSIS CLINIC",
    "categoryCode": "ESRD/CDC",
    "licenseStatus": "ACTIVE",
    "inService": true,
    "licenseNumber": "110000437",
    "licenseEffectiveDate": "12/01/2024",
    "licenseExpirationDate": "11/30/2025",
    "dataDate": "10/18/2025",
    "capacity": 20,
    "address": "3900 BEL AIRE PLZ, SUITE C",
    "city": "NAPA",
    "zip": "94558",
    "county": "NAPA",
    "phone": "(707) 253-8938",
    "lat": 38.323647,
    "lng": -122.307489
  },
  {
    "id": "630027003",
    "name": "NAPA HOME TRAINING",
    "npi": null,
    "hcaiId": null,
    "businessName": null,
    "contactEmail": "LORIANN.MALLORY@DAVITA.COM",
    "categoryName": "CHRONIC DIALYSIS CLINIC",
    "categoryCode": "ESRD",
    "licenseStatus": null,
    "inService": null,
    "licenseNumber": null,
    "licenseEffectiveDate": null,
    "licenseExpirationDate": null,
    "dataDate": "10/18/2025",
    "capacity": 0,
    "address": "3350 CALIFORNIA BLVD, SUITE A",
    "city": "NAPA",
    "zip": "94558",
    "county": "NAPA",
    "phone": "(707) 562-4446",
    "lat": 38.320686,
    "lng": -122.3055495
  },
  {
    "id": "110000063",
    "name": "NAPA POST ACUTE",
    "npi": "1346295755",
    "hcaiId": "206280984",
    "businessName": "NAPAIDENCE OPCO, LLC",
    "contactEmail": "CJ.JEPPSON@ALHAMBRAPA.COM",
    "categoryName": "SKILLED NURSING FACILITY",
    "categoryCode": "SNF",
    "licenseStatus": "ACTIVE",
    "inService": true,
    "licenseNumber": "110000025",
    "licenseEffectiveDate": "12/04/2024",
    "licenseExpirationDate": "12/03/2025",
    "dataDate": "10/18/2025",
    "capacity": 120,
    "address": "705 TRANCAS ST",
    "city": "NAPA",
    "zip": "94558",
    "county": "NAPA",
    "phone": null,
    "lat": 38.323665,
    "lng": -122.290677
  },
  {
    "id": "110000616",
    "name": "NAPA SURGERY CENTER, LLC",
    "npi": "1689699597",
    "hcaiId": "306284005",
    "businessName": "NAPA SURGERY CENTER, LIMITED LIABILITY COMPANY",
    "contactEmail": "REEVESEDWARD@HOTMAIL.COM",
    "categoryName": "SURGICAL CLINIC",
    "categoryCode": "ASC",
    "licenseStatus": "INACTIVE - CAPEN DECISION",
    "inService": false,
    "licenseNumber": "110000247",
    "licenseEffectiveDate": "11/09/2007",
    "licenseExpirationDate": "11/08/2008",
    "dataDate": "10/18/2025",
    "capacity": 0,
    "address": "3444 VALLE VERDE DR",
    "city": "NAPA",
    "zip": "94558",
    "county": "NAPA",
    "phone": "(707) 252-9669",
    "lat": 38.32596,
    "lng": -122.292108
  },
  {
    "id": "110000046",
    "name": "NAPA VALLEY CARE CENTER",
    "npi": "1225336456",
    "hcaiId": "206282278",
    "businessName": "PETUNIA HOLDINGS, LLC",
    "contactEmail": "SPENCER.HADLEY@NAPAVALLEYCARECENTER.COM",
    "categoryName": "SKILLED NURSING FACILITY",
    "categoryCode": "SNF",
    "licenseStatus": "ACTIVE",
    "inService": true,
    "licenseNumber": "110000117",
    "licenseEffectiveDate": "12/07/2024",
    "licenseExpirationDate": "12/06/2025",
    "dataDate": "10/18/2025",
    "capacity": 130,
    "address": "3275 VILLA LN",
    "city": "NAPA",
    "zip": "94558",
    "county": "NAPA",
    "phone": "(509) 318-4011",
    "lat": 38.322,
    "lng": -122.293935
  },
  {
    "id": "110000407",
    "name": "NAPA VALLEY SPEECH CENTER",
    "npi": null,
    "hcaiId": null,
    "businessName": null,
    "contactEmail": null,
    "categoryName": "OTHER",
    "categoryCode": "UNLICEN",
    "licenseStatus": null,
    "inService": null,
    "licenseNumber": null,
    "licenseEffectiveDate": null,
    "licenseExpirationDate": null,
    "dataDate": "10/18/2025",
    "capacity": 0,
    "address": "1100 TRANCAS ST",
    "city": "NAPA",
    "zip": "94558",
    "county": "NAPA",
    "phone": "(707) 255-6293",
    "lat": 38.323737,
    "lng": -122.298372
  },
  {
    "id": "630019162",
    "name": "NAPA VALLEY SURGERY CENTER",
    "npi": null,
    "hcaiId": null,
    "businessName": null,
    "contactEmail": null,
    "categoryName": "SURGICAL CLINIC",
    "categoryCode": "ASC",
    "licenseStatus": null,
    "inService": null,
    "licenseNumber": null,
    "licenseEffectiveDate": null,
    "licenseExpirationDate": null,
    "dataDate": "10/18/2025",
    "capacity": 0,
    "address": "3435 VALLE VERDE DR, SUITE C",
    "city": "NAPA",
    "zip": "94558",
    "county": "NAPA",
    "phone": null,
    "lat": 38.325582,
    "lng": -122.292954
  },
  {
    "id": "630028024",
    "name": "NAPA WOMEN'S CENTER",
    "npi": null,
    "hcaiId": null,
    "businessName": "NAPA WOMEN'S CENTER",
    "contactEmail": "JULIE@NAPAWOMENSCENTER.COM",
    "categoryName": "PRIMARY CARE CLINIC",
    "categoryCode": "FREEC",
    "licenseStatus": "ACTIVE",
    "inService": true,
    "licenseNumber": "550009861",
    "licenseEffectiveDate": "06/12/2025",
    "licenseExpirationDate": "12/11/2025",
    "dataDate": "10/18/2025",
    "capacity": 0,
    "address": "935 TRANCAS ST, SUITE 4 B",
    "city": "NAPA",
    "zip": "94558",
    "county": "NAPA",
    "phone": "(707) 933-6990",
    "lat": 38.32278216,
    "lng": -122.2948221
  },
  {
    "id": "110000130",
    "name": "OLE HEALTH",
    "npi": "1700976503",
    "hcaiId": "306281467",
    "businessName": "OLE HEALTH",
    "contactEmail": "KMOSES@OLEHEALTH.ORG",
    "categoryName": "PRIMARY CARE CLINIC",
    "categoryCode": "COMTYC",
    "licenseStatus": "ACTIVE",
    "inService": true,
    "licenseNumber": "110000098",
    "licenseEffectiveDate": "11/06/2024",
    "licenseExpirationDate": "11/05/2025",
    "dataDate": "10/18/2025",
    "capacity": 0,
    "address": "1141 PEAR TREE LN, SUITE 100",
    "city": "NAPA",
    "zip": "94558",
    "county": "NAPA",
    "phone": "(707) 254-1774",
    "lat": 38.320983,
    "lng": -122.2921485
  },
  {
    "id": "630026860",
    "name": "OLE HEALTH MOBILE HEALTH CENTER",
    "npi": "1497130280",
    "hcaiId": null,
    "businessName": "OLE HEALTH",
    "contactEmail": "HMUNGUR@OLEHEALTH.ORG",
    "categoryName": "PRIMARY CARE CLINIC",
    "categoryCode": "COMTYC",
    "licenseStatus": "ACTIVE",
    "inService": true,
    "licenseNumber": "550003358",
    "licenseEffectiveDate": "01/26/2025",
    "licenseExpirationDate": "01/25/2026",
    "dataDate": "10/18/2025",
    "capacity": 0,
    "address": "2650 NAPA VALLEY CORPORATE DR",
    "city": "NAPA",
    "zip": "94558",
    "county": "NAPA",
    "phone": "(559) 346-9324",
    "lat": 38.250909,
    "lng": -122.274063
  },
  {
    "id": "110000053",
    "name": "PINER'S NURSING HOME",
    "npi": "1528107745",
    "hcaiId": "206281040",
    "businessName": "PINER'S NURSING HOME, INC.",
    "contactEmail": "NHADMINISTRATOR@PINERS.NET",
    "categoryName": "SKILLED NURSING FACILITY",
    "categoryCode": "SNF",
    "licenseStatus": "ACTIVE",
    "inService": true,
    "licenseNumber": "110000059",
    "licenseEffectiveDate": "11/01/2025",
    "licenseExpirationDate": "10/31/2026",
    "dataDate": "10/18/2025",
    "capacity": 49,
    "address": "1800 PUEBLO AVE",
    "city": "NAPA",
    "zip": "94558",
    "county": "NAPA",
    "phone": "(707) 224-7925",
    "lat": 38.314782,
    "lng": -122.305149
  },
  {
    "id": "630026756",
    "name": "PLANNED PARENTHOOD NAPA CENTER",
    "npi": null,
    "hcaiId": null,
    "businessName": "PLANNED PARENTHOOD: SHASTA-DIABLO, INC.",
    "contactEmail": "GMARTINEZ@PPNORCAL.ORG",
    "categoryName": "PRIMARY CARE CLINIC",
    "categoryCode": "COMTYC",
    "licenseStatus": "ACTIVE",
    "inService": true,
    "licenseNumber": "550008389",
    "licenseEffectiveDate": "02/21/2025",
    "licenseExpirationDate": "02/20/2026",
    "dataDate": "10/18/2025",
    "capacity": 0,
    "address": "935 TRANCAS ST, UNIT 4D",
    "city": "NAPA",
    "zip": "94558",
    "county": "NAPA",
    "phone": "(925) 676-0505",
    "lat": 38.32371191,
    "lng": -122.2945381
  },
  {
    "id": "630024155",
    "name": "PRECISION SURGERY CENTER OF NAPA VALLEY",
    "npi": null,
    "hcaiId": null,
    "businessName": null,
    "contactEmail": "SBRADLEY@VIP-US.NET",
    "categoryName": "SURGICAL CLINIC",
    "categoryCode": "ASC",
    "licenseStatus": null,
    "inService": null,
    "licenseNumber": null,
    "licenseEffectiveDate": null,
    "licenseExpirationDate": null,
    "dataDate": "10/18/2025",
    "capacity": 0,
    "address": "800 TRANCAS ST, SUITE B",
    "city": "NAPA",
    "zip": "94558",
    "county": "NAPA",
    "phone": "(406) 570-5332",
    "lat": 38.324466,
    "lng": -122.292396
  },
  {
    "id": "010000149",
    "name": "PROVIDENCE AT HOME WITH COMPASSUS HOME HEALTH, NAPA VALLEY",
    "npi": "1083709919",
    "hcaiId": "406284018",
    "businessName": "CP NAPA VALLEY N-CA HH, LLC",
    "contactEmail": "BRIDGET.NORAMBUENA@PROVIDENCE.ORG",
    "categoryName": "HOME HEALTH AGENCY",
    "categoryCode": "HHA",
    "licenseStatus": "ACTIVE",
    "inService": true,
    "licenseNumber": "010000127",
    "licenseEffectiveDate": "10/08/2025",
    "licenseExpirationDate": "03/31/2026",
    "dataDate": "10/18/2025",
    "capacity": 0,
    "address": "980 TRANCAS ST, SUITE 9",
    "city": "NAPA",
    "zip": "94558",
    "county": "NAPA",
    "phone": "(310) 357-6806",
    "lat": 38.32407,
    "lng": -122.29515
  },
  {
    "id": "110000041",
    "name": "PROVIDENCE QUEEN OF THE VALLEY MEDICAL CENTER",
    "npi": "1235218785",
    "hcaiId": "106281047",
    "businessName": "ST. JOSEPH HEALTH NORTHERN CALIFORNIA LLC",
    "contactEmail": "AMY.HEROLD@PROVIDENCE.ORG",
    "categoryName": "GENERAL ACUTE CARE HOSPITAL",
    "categoryCode": "GACH",
    "licenseStatus": "ACTIVE",
    "inService": true,
    "licenseNumber": "110000060",
    "licenseEffectiveDate": "11/01/2025",
    "licenseExpirationDate": "10/31/2026",
    "dataDate": "10/18/2025",
    "capacity": 198,
    "address": "1000 TRANCAS ST",
    "city": "NAPA",
    "zip": "94558",
    "county": "NAPA",
    "phone": "(707) 252-4411",
    "lat": 38.325474,
    "lng": -122.2959015
  },
  {
    "id": "630020550",
    "name": "SAVIOR HOSPICE CARE, INC.",
    "npi": "1497364087",
    "hcaiId": "406283234",
    "businessName": "SAVIOR HOSPICE CARE, INC.",
    "contactEmail": "BSRA432@GMAIL.COM",
    "categoryName": "HOSPICE",
    "categoryCode": "HOSPICE",
    "licenseStatus": "ACTIVE",
    "inService": true,
    "licenseNumber": "550006277",
    "licenseEffectiveDate": "07/23/2025",
    "licenseExpirationDate": "03/22/2027",
    "dataDate": "10/18/2025",
    "capacity": 0,
    "address": "1631 LINCOLN AVE",
    "city": "NAPA",
    "zip": "94558",
    "county": "NAPA",
    "phone": "(510) 468-1909",
    "lat": 38.30742928,
    "lng": -122.300016
  },
  {
    "id": "110001146",
    "name": "SILVERADO DIALYSIS",
    "npi": "1295024206",
    "hcaiId": "306281034",
    "businessName": "TOTAL RENAL CARE, INC.",
    "contactEmail": "CAL_C@DAVITA.COM",
    "categoryName": "CHRONIC DIALYSIS CLINIC",
    "categoryCode": "ESRD/CDC",
    "licenseStatus": "ACTIVE",
    "inService": true,
    "licenseNumber": "110000435",
    "licenseEffectiveDate": "05/08/2025",
    "licenseExpirationDate": "05/07/2026",
    "dataDate": "10/18/2025",
    "capacity": 10,
    "address": "1100 TRANCAS ST, SUITE 266 & 267",
    "city": "NAPA",
    "zip": "94558",
    "county": "NAPA",
    "phone": "(707) 224-6533",
    "lat": 38.323737,
    "lng": -122.298372
  },
  {
    "id": "110000307",
    "name": "THERAPY RESOURCES",
    "npi": null,
    "hcaiId": null,
    "businessName": null,
    "contactEmail": null,
    "categoryName": "REHABILITATION CLINIC",
    "categoryCode": "REHABC",
    "licenseStatus": null,
    "inService": null,
    "licenseNumber": null,
    "licenseEffectiveDate": null,
    "licenseExpirationDate": null,
    "dataDate": "10/18/2025",
    "capacity": 0,
    "address": "3353 BEARD RD",
    "city": "NAPA",
    "zip": "94558",
    "county": "NAPA",
    "phone": "(707) 257-2820",
    "lat": 38.323089,
    "lng": -122.2961805
  },
  {
    "id": "630018010",
    "name": "U.S. RENAL CARE NAPA DIALYSIS",
    "npi": null,
    "hcaiId": "306280432",
    "businessName": "USRC NAPA, LLC",
    "contactEmail": "LEGAL@USRENALCARE.COM",
    "categoryName": "CHRONIC DIALYSIS CLINIC",
    "categoryCode": "ESRD/CDC",
    "licenseStatus": "ACTIVE",
    "inService": true,
    "licenseNumber": "550004533",
    "licenseEffectiveDate": "01/28/2025",
    "licenseExpirationDate": "01/27/2026",
    "dataDate": "10/18/2025",
    "capacity": 0,
    "address": "3219 JEFFERSON ST",
    "city": "NAPA",
    "zip": "94558",
    "county": "NAPA",
    "phone": "(707) 501-5301",
    "lat": 38.320083,
    "lng": -122.2995375
  },
  {
    "id": "630028001",
    "name": "VALLEY SURGICAL SUITES LLC",
    "npi": null,
    "hcaiId": null,
    "businessName": null,
    "contactEmail": null,
    "categoryName": "SURGICAL CLINIC",
    "categoryCode": "ASC",
    "licenseStatus": null,
    "inService": null,
    "licenseNumber": null,
    "licenseEffectiveDate": null,
    "licenseExpirationDate": null,
    "dataDate": "10/18/2025",
    "capacity": 0,
    "address": "3365 SOLANO AVE",
    "city": "NAPA",
    "zip": "94558",
    "county": "NAPA",
    "phone": null,
    "lat": 38.32038796,
    "lng": -122.3107023
  }
]