[
  {
    "id": "630016728",
    "name": "AIC HOME HEALTH SERVICES",
    "npi": "1144675869",
    "hcaiId": "406011338",
    "businessName": "AIC HEALTH CARE INC.",
    "contactEmail": "AICHOMEHEALTHSERVICES@GMAIL.COM",
    "categoryName": "HOME HEALTH AGENCY",
    "categoryCode": "HHA",
    "licenseStatus": "ACTIVE",
    "inService": true,
    "licenseNumber": "550004316",
    "licenseEffectiveDate": "06/20/2025",
    "licenseExpirationDate": "06/19/2026",
    "dataDate": "10/18/2025",
    "capacity": 0,
    "address": "4049 1ST ST, SUITE 229",
    "city": "LIVERMORE",
    "zip": "94551",
    "county": "ALAMEDA",
    "phone": "(925) 215-1890",
    "lat": 37.693044,
    "lng": -121.747788
  },
  {
    "id": "630017104",
    "name": "CAREPLUS HOME HEALTH CARE SERVICES, INC.",
    "npi": "1114469913",
    "hcaiId": "406010880",
    "businessName": "CAREPLUS HOME HEALTH CARE SERVICES, INC.",
    "contactEmail": "CAREPLUSHS@GMAIL.COM",
    "categoryName": "HOME HEALTH AGENCY",
    "categoryCode": "HHA",
    "licenseStatus": "ACTIVE",
    "inService": true,
    "licenseNumber": "550004211",
    "licenseEffectiveDate": "02/23/2025",
    "licenseExpirationDate": "02/22/2026",
    "dataDate": "10/18/2025",
    "capacity": 0,
    "address": "6269 SOUTHFRONT RD, SUITE B",
    "city": "LIVERMORE",
    "zip": "94551",
    "county": "ALAMEDA",
    "phone": "(925) 667-4916",
    "lat": 37.708992,
    "lng": -121.7196765
  },
  {
    "id": "630016763",
    "name": "CAREPLUS HOSPICE SERVICES, INC.",
    "npi": null,
    "hcaiId": "406014358",
    "businessName": "CAREPLUS HOSPICE SERVICES, INC.",
    "contactEmail": "CAREPLUSHS@GMAIL.COM",
    "categoryName": "HOSPICE",
    "categoryCode": "HOSPICE",
    "licenseStatus": "ACTIVE",
    "inService": true,
    "licenseNumber": "550003816",
    "licenseEffectiveDate": "01/30/2025",
    "licenseExpirationDate": "01/29/2027",
    "dataDate": "10/18/2025",
    "capacity": 0,
    "address": "6269 SOUTHFRONT ROAD",
    "city": "LIVERMORE",
    "zip": "94551",
    "county": "ALAMEDA",
    "phone": "(925) 449-2180",
    "lat": 37.708992,
    "lng": -121.7196765
  },
  {
    "id": "630018454",
    "name": "EVERGREEN",
    "npi": null,
    "hcaiId": "206010156",
    "businessName": "EVERGREEN ISLAND, LLC",
    "contactEmail": "EQ.GARCIA@YAHOO.COM",
    "categoryName": "CONGREGATE LIVING HEALTH FACILITY",
    "categoryCode": "CLHF",
    "licenseStatus": "ACTIVE",
    "inService": true,
    "licenseNumber": "550004812",
    "licenseEffectiveDate": "08/02/2024",
    "licenseExpirationDate": "08/01/2025",
    "dataDate": "10/18/2025",
    "capacity": 6,
    "address": "1710 MOUNT DIABLO WAY",
    "city": "LIVERMORE",
    "zip": "94551",
    "county": "ALAMEDA",
    "phone": "(925) 989-3345",
    "lat": 37.717263,
    "lng": -121.7301885
  },
  {
    "id": "630016380",
    "name": "GIMAG HOME HEALTH CARE",
    "npi": "1538545835",
    "hcaiId": "406014376",
    "businessName": "GIMAG HEALTHCARE",
    "contactEmail": "BRIDGET@GIMAGHEALTH.COM",
    "categoryName": "HOME HEALTH AGENCY",
    "categoryCode": "HHA",
    "licenseStatus": "ACTIVE",
    "inService": true,
    "licenseNumber": "550003495",
    "licenseEffectiveDate": "05/04/2025",
    "licenseExpirationDate": "05/03/2026",
    "dataDate": "10/18/2025",
    "capacity": 0,
    "address": "4047 1ST ST, SUITE 101 & 103",
    "city": "LIVERMORE",
    "zip": "94551",
    "county": "ALAMEDA",
    "phone": "(925) 453-6169",
    "lat": 37.69308301,
    "lng": -121.747991
  },
  {
    "id": "630018603",
    "name": "GIMAG HOSPICE & PALLIATIVE CARE",
    "npi": "1659852119",
    "hcaiId": "406011746",
    "businessName": "GIMAG HEALTHCARE",
    "contactEmail": "BRIDGET@GIMAHEALTH.COM",
    "categoryName": "HOSPICE",
    "categoryCode": "HOSPICE",
    "licenseStatus": "ACTIVE",
    "inService": true,
    "licenseNumber": "550004765",
    "licenseEffectiveDate": "06/25/2025",
    "licenseExpirationDate": "06/24/2027",
    "dataDate": "10/18/2025",
    "capacity": 0,
    "address": "4049 1ST ST, SUITE 135",
    "city": "LIVERMORE",
    "zip": "94551",
    "county": "ALAMEDA",
    "phone": "(925) 273-7700",
    "lat": 37.693215,
    "lng": -121.747995
  },
  {
    "id": "630012375",
    "name": "LIVERMORE DIALYSIS",
    "npi": "1700029642",
    "hcaiId": "306014267",
    "businessName": "PALOMAR DIALYSIS LLC",
    "contactEmail": "CAL_C@DAVITA.COM",
    "categoryName": "CHRONIC DIALYSIS CLINIC",
    "categoryCode": "ESRD/CDC",
    "licenseStatus": "ACTIVE",
    "inService": true,
    "licenseNumber": "550001188",
    "licenseEffectiveDate": "11/19/2024",
    "licenseExpirationDate": "11/18/2025",
    "dataDate": "10/18/2025",
    "capacity": 24,
    "address": "3201 DOOLAN RD, SUITE 175",
    "city": "LIVERMORE",
    "zip": "94551",
    "county": "ALAMEDA",
    "phone": "(925) 245-9780",
    "lat": 37.704231,
    "lng": -121.822623
  },
  {
    "id": "630017440",
    "name": "ONE HEALTH HOME CARE",
    "npi": "1730616624",
    "hcaiId": "406011723",
    "businessName": "ONE HEALTH HOME CARE, INC.",
    "contactEmail": "ONEHEALTH@ONEHEALTHHC.COM",
    "categoryName": "HOME HEALTH AGENCY",
    "categoryCode": "HHA",
    "licenseStatus": "ACTIVE",
    "inService": true,
    "licenseNumber": "550004731",
    "licenseEffectiveDate": "05/28/2025",
    "licenseExpirationDate": "05/27/2026",
    "dataDate": "10/18/2025",
    "capacity": 0,
    "address": "2133 LAS POSITAS CT, SUITE I",
    "city": "LIVERMORE",
    "zip": "94551",
    "county": "ALAMEDA",
    "phone": "(925) 292-4549",
    "lat": 37.696995,
    "lng": -121.7757195
  },
  {
    "id": "630017485",
    "name": "ONE HEALTH HOSPICE, INC.",
    "npi": null,
    "hcaiId": "406011667",
    "businessName": "ONE HEALTH HOSPICE, INC.",
    "contactEmail": "ONEHEALTHHOSPICE@GMAIL.COM",
    "categoryName": "HOSPICE",
    "categoryCode": "HOSPICE",
    "licenseStatus": "ACTIVE",
    "inService": true,
    "licenseNumber": "550004657",
    "licenseEffectiveDate": "05/01/2025",
    "licenseExpirationDate": "04/30/2027",
    "dataDate": "10/18/2025",
    "capacity": 0,
    "address": "2133 LAS POSITAS CT, SUITE J",
    "city": "LIVERMORE",
    "zip": "94551",
    "county": "ALAMEDA",
    "phone": "(925) 242-4448",
    "lat": 37.697049,
    "lng": -121.775724
  },
  {
    "id": "020001211",
    "name": "PROFESSIONAL HOME CARE ASSOCIATES - BRANCH",
    "npi": "1619967619",
    "hcaiId": "406014203",
    "businessName": "PROFESSIONAL HOME CARE ASSOCIATES",
    "contactEmail": null,
    "categoryName": "HOME HEALTH AGENCY",
    "categoryCode": "HHA",
    "licenseStatus": "ACTIVE",
    "inService": true,
    "licenseNumber": "020000427",
    "licenseEffectiveDate": "11/27/2025",
    "licenseExpirationDate": "11/26/2026",
    "dataDate": "10/18/2025",
    "capacity": 0,
    "address": "2169 LAS POSITAS CT, BUILDING H",
    "city": "LIVERMORE",
    "zip": "94551",
    "county": "ALAMEDA",
    "phone": "(510) 797-9299",
    "lat": 37.6965,
    "lng": -121.7743245
  }
]