[
  {
    "id": "630012514",
    "name": "ALERT HOME HEALTH CARE",
    "npi": "1831426832",
    "hcaiId": "406014273",
    "businessName": "ALERT HOME HEALTH CARE, INC.",
    "contactEmail": "INFO@ALERTHOMEHEALTHCARE.COM",
    "categoryName": "HOME HEALTH AGENCY",
    "categoryCode": "HHA",
    "licenseStatus": "ACTIVE",
    "inService": true,
    "licenseNumber": "550001305",
    "licenseEffectiveDate": "06/04/2025",
    "licenseExpirationDate": "06/03/2026",
    "dataDate": "10/18/2025",
    "capacity": 0,
    "address": "11700 DUBLIN BLVD, SUITE 200",
    "city": "DUBLIN",
    "zip": "94568",
    "county": "ALAMEDA",
    "phone": "(925) 361-5137",
    "lat": 37.701018,
    "lng": -121.940667
  },
  {
    "id": "630016459",
    "name": "AMERICAN HEALTHCARE PROFESSIONAL GROUP",
    "npi": null,
    "hcaiId": "406010020",
    "businessName": "AMERICAN HEALTHCARE PROFESSIONAL GROUP",
    "contactEmail": "AMERICANHPG2018@GMAIL.COM",
    "categoryName": "HOME HEALTH AGENCY",
    "categoryCode": "HHA",
    "licenseStatus": "ACTIVE",
    "inService": true,
    "licenseNumber": "550003804",
    "licenseEffectiveDate": "01/20/2025",
    "licenseExpirationDate": "01/19/2026",
    "dataDate": "10/18/2025",
    "capacity": 0,
    "address": "11700 DUBLIN BLVD, SUITE 130",
    "city": "DUBLIN",
    "zip": "94568",
    "county": "ALAMEDA",
    "phone": "(925) 361-8506",
    "lat": 37.70100802,
    "lng": -121.940675
  },
  {
    "id": "630020292",
    "name": "AT YOUR SERVICE HOME HEALTH AGENCY, INC",
    "npi": null,
    "hcaiId": "406015608",
    "businessName": "AT YOUR SERVICE HOME HEALTH AGENCY, INC.",
    "contactEmail": "NIMFAJY@GMAIL.COM",
    "categoryName": "HOME HEALTH AGENCY",
    "categoryCode": "HHA",
    "licenseStatus": "ACTIVE",
    "inService": true,
    "licenseNumber": "550008168",
    "licenseEffectiveDate": "09/30/2025",
    "licenseExpirationDate": "08/16/2026",
    "dataDate": "10/18/2025",
    "capacity": 0,
    "address": "6300 VILLAGE PKWY, SUITE 200-A",
    "city": "DUBLIN",
    "zip": "94568",
    "county": "ALAMEDA",
    "phone": "(925) 361-8145",
    "lat": 37.704267,
    "lng": -121.9224195
  },
  {
    "id": "630027717",
    "name": "AXIOM HOME HEALTHCARE LLC",
    "npi": null,
    "hcaiId": null,
    "businessName": "AXIOM HOME HEALTHCARE LLC",
    "contactEmail": "TRUPTI@AXIOMHOMEHEALTHCARE.COM",
    "categoryName": "HOME HEALTH AGENCY",
    "categoryCode": "HHA",
    "licenseStatus": "ACTIVE",
    "inService": true,
    "licenseNumber": "550009652",
    "licenseEffectiveDate": "08/07/2025",
    "licenseExpirationDate": "02/06/2026",
    "dataDate": "10/18/2025",
    "capacity": 0,
    "address": "6400 VILLAGE PKWY, SUITE 109",
    "city": "DUBLIN",
    "zip": "94568",
    "county": "ALAMEDA",
    "phone": "(925) 397-0031",
    "lat": 37.704593,
    "lng": -121.922774
  },
  {
    "id": "630018667",
    "name": "AXIS COMMUNITY HEALTH, INC.",
    "npi": "1609249994",
    "hcaiId": null,
    "businessName": "AXIS COMMUNITY HEALTH, INC.",
    "contactEmail": null,
    "categoryName": "PRIMARY CARE CLINIC",
    "categoryCode": "COMTYC",
    "licenseStatus": "ACTIVE",
    "inService": true,
    "licenseNumber": "550003511",
    "licenseEffectiveDate": "09/01/2025",
    "licenseExpirationDate": "05/19/2026",
    "dataDate": "10/18/2025",
    "capacity": 0,
    "address": "7212 REGIONAL ST",
    "city": "DUBLIN",
    "zip": "94568",
    "county": "ALAMEDA",
    "phone": null,
    "lat": 37.704951,
    "lng": -121.9353075
  },
  {
    "id": "630017276",
    "name": "BAYHEALTH DUBLIN LLC",
    "npi": null,
    "hcaiId": "406011967",
    "businessName": "BAYHEALTH DUBLIN LLC",
    "contactEmail": "MICHELLEL@BAYHCA.COM",
    "categoryName": "HOME HEALTH AGENCY",
    "categoryCode": "HHA",
    "licenseStatus": "ACTIVE",
    "inService": true,
    "licenseNumber": "550005035",
    "licenseEffectiveDate": "10/26/2025",
    "licenseExpirationDate": "10/25/2026",
    "dataDate": "10/18/2025",
    "capacity": 0,
    "address": "7027 DUBLIN BLVD, SUITE 100",
    "city": "DUBLIN",
    "zip": "94568",
    "county": "ALAMEDA",
    "phone": "(925) 344-6505",
    "lat": 37.705617,
    "lng": -121.919715
  },
  {
    "id": "630012393",
    "name": "BRIGHTSTAR CARE",
    "npi": null,
    "hcaiId": "406014268",
    "businessName": "EIEIO HEALTHCARE, INC.",
    "contactEmail": "ERIC.EISENBERG@BRIGHTSTARCARE.COM",
    "categoryName": "HOME HEALTH AGENCY",
    "categoryCode": "HHA",
    "licenseStatus": "ACTIVE",
    "inService": true,
    "licenseNumber": "550001177",
    "licenseEffectiveDate": "08/13/2025",
    "licenseExpirationDate": "08/12/2026",
    "dataDate": "10/18/2025",
    "capacity": 0,
    "address": "7080 DONLON WAY, SUITE 220",
    "city": "DUBLIN",
    "zip": "94568",
    "county": "ALAMEDA",
    "phone": "(925) 833-9770",
    "lat": 37.702368,
    "lng": -121.9396815
  },
  {
    "id": "630018883",
    "name": "DIRECT HOSPICE CARE, INC.",
    "npi": "1740845646",
    "hcaiId": "406432418",
    "businessName": "DIRECT HOSPICE CARE, INC.",
    "contactEmail": "DIRECT.TEAM@DIRECTHOSPICECARE.COM",
    "categoryName": "HOSPICE",
    "categoryCode": "HOSPICE",
    "licenseStatus": "ACTIVE",
    "inService": true,
    "licenseNumber": "550005273",
    "licenseEffectiveDate": "01/31/2024",
    "licenseExpirationDate": "01/30/2026",
    "dataDate": "10/18/2025",
    "capacity": 0,
    "address": "11700 DUBLIN BLVD, SUITE 100/110",
    "city": "DUBLIN",
    "zip": "94568",
    "county": "ALAMEDA",
    "phone": "(925) 785-2772",
    "lat": 37.70100802,
    "lng": -121.940675
  },
  {
    "id": "630017184",
    "name": "ENERGY WORKERS HEALTHCARE",
    "npi": null,
    "hcaiId": "406012103",
    "businessName": "CALIFORNIA ENERGY WORKERS HEALTHCARE, CORP",
    "contactEmail": "LICENSING@UEWHEALTH.COM",
    "categoryName": "HOME HEALTH AGENCY",
    "categoryCode": "HHA",
    "licenseStatus": "ACTIVE",
    "inService": true,
    "licenseNumber": "550005181",
    "licenseEffectiveDate": "12/12/2023",
    "licenseExpirationDate": "12/11/2024",
    "dataDate": "10/18/2025",
    "capacity": 0,
    "address": "7567 AMADOR VALLEY BLVD, SUITE 307",
    "city": "DUBLIN",
    "zip": "94568",
    "county": "ALAMEDA",
    "phone": "(925) 548-9555",
    "lat": 37.70955,
    "lng": -121.9309425
  },
  {
    "id": "630027347",
    "name": "HALLWAY HOME HEALTH LLC",
    "npi": null,
    "hcaiId": null,
    "businessName": "HALLWAY HOME HEALTH LLC",
    "contactEmail": "TERRI@HALLWAYHEALTHCARE.COM",
    "categoryName": "HOME HEALTH AGENCY",
    "categoryCode": "HHA",
    "licenseStatus": "ACTIVE",
    "inService": true,
    "licenseNumber": "550009928",
    "licenseEffectiveDate": "08/14/2025",
    "licenseExpirationDate": "02/13/2026",
    "dataDate": "10/18/2025",
    "capacity": 0,
    "address": "7027 DUBLIN BLVD, SUITE 120",
    "city": "DUBLIN",
    "zip": "94568",
    "county": "ALAMEDA",
    "phone": "(925) 301-8869",
    "lat": 37.70558299,
    "lng": -121.91963
  },
  {
    "id": "020001276",
    "name": "LEWIS HOUSE",
    "npi": "1225170871",
    "hcaiId": null,
    "businessName": "CARE ADMINISTRATION & MANAGEMENT PROFESSIONAL, INC.",
    "contactEmail": "AKATANHA@CAMPINC.COMCASTBIZ.NET",
    "categoryName": "INTERMEDIATE CARE FACILITY-DD/H/N/CN/IID",
    "categoryCode": "ICFDDH",
    "licenseStatus": "ACTIVE",
    "inService": true,
    "licenseNumber": "020000646",
    "licenseEffectiveDate": "06/17/2025",
    "licenseExpirationDate": "06/16/2026",
    "dataDate": "10/18/2025",
    "capacity": 6,
    "address": "6955 PORTAGE ROAD",
    "city": "DUBLIN",
    "zip": "94568",
    "county": "ALAMEDA",
    "phone": "(925) 560-0124",
    "lat": 37.708821,
    "lng": -121.9239405
  },
  {
    "id": "630016067",
    "name": "LIFECARE SOLUTIONS PALLIATIVE AND HOSPICE",
    "npi": null,
    "hcaiId": "406014357",
    "businessName": "LIFECARE SOLUTIONS PALLIATIVE AND HOSPICE, LLC",
    "contactEmail": "LIFECARESOLUTIONPANDH@GMAIL.COM",
    "categoryName": "HOSPICE",
    "categoryCode": "HOSPICE",
    "licenseStatus": "ACTIVE",
    "inService": true,
    "licenseNumber": "550003329",
    "licenseEffectiveDate": "07/23/2024",
    "licenseExpirationDate": "12/29/2025",
    "dataDate": "10/18/2025",
    "capacity": 0,
    "address": "7567 AMADOR VALLEY BLVD, SUITE 101",
    "city": "DUBLIN",
    "zip": "94568",
    "county": "ALAMEDA",
    "phone": "(510) 573-2523",
    "lat": 37.70947998,
    "lng": -121.930823
  },
  {
    "id": "630004241",
    "name": "RETREAT FOR CHILDREN",
    "npi": "1922158518",
    "hcaiId": null,
    "businessName": "RETREAT FOR CHILDREN",
    "contactEmail": "RETREATFORCHILDREN@YAHOO.COM",
    "categoryName": "INTERMEDIATE CARE FACILITY-DD/H/N/CN/IID",
    "categoryCode": "ICFDDN",
    "licenseStatus": "ACTIVE",
    "inService": true,
    "licenseNumber": "550000115",
    "licenseEffectiveDate": "01/12/2025",
    "licenseExpirationDate": "01/11/2026",
    "dataDate": "10/18/2025",
    "capacity": 6,
    "address": "8339 CYPRESS CT",
    "city": "DUBLIN",
    "zip": "94568",
    "county": "ALAMEDA",
    "phone": "(925) 556-3399",
    "lat": 37.724832,
    "lng": -121.9273785
  },
  {
    "id": "020000648",
    "name": "STANLEY HOUSE",
    "npi": "1780726323",
    "hcaiId": null,
    "businessName": "COMMUNITY CARE INITIATIVES, INC.",
    "contactEmail": "AKATANHA@CAMPINC.COMCASTBIZ.NET",
    "categoryName": "INTERMEDIATE CARE FACILITY-DD/H/N/CN/IID",
    "categoryCode": "ICFDDH",
    "licenseStatus": "ACTIVE",
    "inService": true,
    "licenseNumber": "020000321",
    "licenseEffectiveDate": "05/19/2025",
    "licenseExpirationDate": "05/18/2026",
    "dataDate": "10/18/2025",
    "capacity": 6,
    "address": "7874 DIANA LANE",
    "city": "DUBLIN",
    "zip": "94568",
    "county": "ALAMEDA",
    "phone": "(510) 557-0367",
    "lat": 37.716732,
    "lng": -121.927635
  },
  {
    "id": "630014854",
    "name": "STAR CARE HOSPICE, INC.",
    "npi": "1063769776",
    "hcaiId": "406431524",
    "businessName": "STAR CARE HOSPICE, INC.",
    "contactEmail": "BSRA432@GMAIL.COM",
    "categoryName": "HOSPICE",
    "categoryCode": "HOSPICE",
    "licenseStatus": "ACTIVE",
    "inService": true,
    "licenseNumber": "550003678",
    "licenseEffectiveDate": "09/12/2024",
    "licenseExpirationDate": "09/11/2026",
    "dataDate": "10/18/2025",
    "capacity": 0,
    "address": "7033 VILLAGE PKWY, SUITE 209",
    "city": "DUBLIN",
    "zip": "94568",
    "county": "ALAMEDA",
    "phone": "(510) 468-1909",
    "lat": 37.70866899,
    "lng": -121.925207
  },
  {
    "id": "020001157",
    "name": "SUNDALE",
    "npi": "1578605630",
    "hcaiId": null,
    "businessName": "CARE ADMINISTRATION & MANAGEMENT PROFESSIONAL, INC.",
    "contactEmail": "AKATANHA@CAMPINC.COMCASTBIZ.NET",
    "categoryName": "INTERMEDIATE CARE FACILITY-DD/H/N/CN/IID",
    "categoryCode": "ICFDDH",
    "licenseStatus": "ACTIVE",
    "inService": true,
    "licenseNumber": "020000575",
    "licenseEffectiveDate": "11/20/2024",
    "licenseExpirationDate": "11/19/2025",
    "dataDate": "10/18/2025",
    "capacity": 6,
    "address": "6777 AMADOR VALLEY BOULEVARD",
    "city": "DUBLIN",
    "zip": "94568",
    "county": "ALAMEDA",
    "phone": "(925) 556-0782",
    "lat": 37.715661,
    "lng": -121.9179735
  }
]