[
  {
    "id": "630016793",
    "name": "BAY NATION HOME HEALTH SERVICES INC.",
    "npi": "1386093714",
    "hcaiId": "406010939",
    "businessName": "BAY NATION HOME HEALTH SERVICES INC.",
    "contactEmail": "KAABA@BHHOMEHEALTH.COM",
    "categoryName": "HOME HEALTH AGENCY",
    "categoryCode": "HHA",
    "licenseStatus": "ACTIVE",
    "inService": true,
    "licenseNumber": "550004132",
    "licenseEffectiveDate": "11/30/2024",
    "licenseExpirationDate": "11/29/2025",
    "dataDate": "10/18/2025",
    "capacity": 0,
    "address": "39675 CEDAR BLVD., SUITE 235",
    "city": "NEWARK",
    "zip": "94560",
    "county": "ALAMEDA",
    "phone": "(510) 573-8433",
    "lat": 37.520109,
    "lng": -121.996404
  },
  {
    "id": "630027718",
    "name": "EMCARE HOME HEALTH INC",
    "npi": null,
    "hcaiId": null,
    "businessName": "EMCARE HOME HEALTH INC",
    "contactEmail": "EMCAREHHA@GMAIL.COM",
    "categoryName": "HOME HEALTH AGENCY",
    "categoryCode": "HHA",
    "licenseStatus": "ACTIVE",
    "inService": true,
    "licenseNumber": "550009820",
    "licenseEffectiveDate": "05/15/2025",
    "licenseExpirationDate": "11/14/2025",
    "dataDate": "10/18/2025",
    "capacity": 0,
    "address": "39675 CEDAR BLVD, SUITE 255",
    "city": "NEWARK",
    "zip": "94560",
    "county": "ALAMEDA",
    "phone": "(510) 588-4219",
    "lat": 37.52019599,
    "lng": -121.996446
  },
  {
    "id": "630012435",
    "name": "MERIDIAN HOME HEALTH",
    "npi": "1699008052",
    "hcaiId": "406014271",
    "businessName": "MERIDIAN CARE, INC.",
    "contactEmail": "INFO@MERIDIANCAREHOMEHEALTH.COM",
    "categoryName": "HOME HEALTH AGENCY",
    "categoryCode": "HHA",
    "licenseStatus": "ACTIVE",
    "inService": true,
    "licenseNumber": "550001239",
    "licenseEffectiveDate": "03/22/2025",
    "licenseExpirationDate": "03/21/2026",
    "dataDate": "10/18/2025",
    "capacity": 0,
    "address": "3900 NEWPARK MALL, SUITE 209",
    "city": "NEWARK",
    "zip": "94560",
    "county": "ALAMEDA",
    "phone": "(510) 793-9255",
    "lat": 37.524951,
    "lng": -122.0046345
  },
  {
    "id": "630015665",
    "name": "MERIDIAN HOSPICE",
    "npi": null,
    "hcaiId": "406014362",
    "businessName": "LA VIE HOSPICE & HOME HEALTH, INC.",
    "contactEmail": "INFO@MERIDIANCAREHOSPICE.COM",
    "categoryName": "HOSPICE",
    "categoryCode": "HOSPICE",
    "licenseStatus": "ACTIVE",
    "inService": true,
    "licenseNumber": "550003347",
    "licenseEffectiveDate": "09/11/2025",
    "licenseExpirationDate": "01/05/2026",
    "dataDate": "10/18/2025",
    "capacity": 0,
    "address": "3900 NEWPARK MALL, SUITE 202",
    "city": "NEWARK",
    "zip": "94560",
    "county": "ALAMEDA",
    "phone": "(510) 573-3866",
    "lat": 37.52507472,
    "lng": -122.0047055
  },
  {
    "id": "630024856",
    "name": "NATIONAL HOME HEALTH SERVICES, INC.- HAYWARD",
    "npi": null,
    "hcaiId": "406015640",
    "businessName": "NATIONAL HOME HEALTH SERVICES, INC.",
    "contactEmail": null,
    "categoryName": "HOME HEALTH AGENCY",
    "categoryCode": "HHA",
    "licenseStatus": "ACTIVE",
    "inService": true,
    "licenseNumber": "550001137",
    "licenseEffectiveDate": "11/17/2025",
    "licenseExpirationDate": "11/16/2026",
    "dataDate": "10/18/2025",
    "capacity": 0,
    "address": "39675 CEDAR BLVD, SUITE 160",
    "city": "NEWARK",
    "zip": "94560",
    "county": "ALAMEDA",
    "phone": null,
    "lat": 37.52019586,
    "lng": -121.9964534
  },
  {
    "id": "140000661",
    "name": "NEWARK WELLNESS",
    "npi": null,
    "hcaiId": null,
    "businessName": null,
    "contactEmail": null,
    "categoryName": "PRIMARY CARE CLINIC",
    "categoryCode": "FQHC",
    "licenseStatus": null,
    "inService": null,
    "licenseNumber": null,
    "licenseEffectiveDate": null,
    "licenseExpirationDate": null,
    "dataDate": "10/18/2025",
    "capacity": 0,
    "address": "6066 CIVIC TERRACE AVE",
    "city": "NEWARK",
    "zip": "94560",
    "county": "ALAMEDA",
    "phone": "(510) 535-7480",
    "lat": 37.536012,
    "lng": -122.0279715
  }
]