[
  {
    "id": "630013203",
    "name": "ACE HOME HEALTH CARE & HOSPICE, INC.",
    "npi": "1437442878",
    "hcaiId": "406074157",
    "businessName": "ACE HOME HEALTH CARE & HOSPICE, INC.",
    "contactEmail": "LFRIAR@HHHCS.COM",
    "categoryName": "HOME HEALTH AGENCY",
    "categoryCode": "HHA",
    "licenseStatus": "ACTIVE",
    "inService": true,
    "licenseNumber": "550001785",
    "licenseEffectiveDate": "11/06/2024",
    "licenseExpirationDate": "11/05/2025",
    "dataDate": "10/18/2025",
    "capacity": 0,
    "address": "85 MORAGA WAY, SUITE 100B",
    "city": "ORINDA",
    "zip": "94563",
    "county": "CONTRA COSTA",
    "phone": "(925) 933-9012",
    "lat": 37.877643,
    "lng": -122.17968
  },
  {
    "id": "630013279",
    "name": "ACE HOME HEALTH CARE & HOSPICE, INC.",
    "npi": null,
    "hcaiId": "406074155",
    "businessName": "ACE HOME HEALTH CARE & HOSPICE, INC.",
    "contactEmail": "LFRIAR@HHHCS.COM",
    "categoryName": "HOSPICE",
    "categoryCode": "HOSPICE",
    "licenseStatus": "ACTIVE",
    "inService": true,
    "licenseNumber": "550001784",
    "licenseEffectiveDate": "11/06/2025",
    "licenseExpirationDate": "11/05/2027",
    "dataDate": "10/18/2025",
    "capacity": 0,
    "address": "85 MORAGA WAY, SUITE 100A",
    "city": "ORINDA",
    "zip": "94563",
    "county": "CONTRA COSTA",
    "phone": "(925) 258-9101",
    "lat": 37.877643,
    "lng": -122.17968
  },
  {
    "id": "140000092",
    "name": "ORINDA CARE CENTER, LLC",
    "npi": "1154718773",
    "hcaiId": "206071029",
    "businessName": "ORINDA CARE CENTER, LLC",
    "contactEmail": "ADMINISTRATOR@REDWOODHCC.COM",
    "categoryName": "SKILLED NURSING FACILITY",
    "categoryCode": "SNF",
    "licenseStatus": "ACTIVE",
    "inService": true,
    "licenseNumber": "140000131",
    "licenseEffectiveDate": "01/13/2025",
    "licenseExpirationDate": "01/12/2026",
    "dataDate": "10/18/2025",
    "capacity": 47,
    "address": "11 ALTARINDA ROAD",
    "city": "ORINDA",
    "zip": "94563",
    "county": "CONTRA COSTA",
    "phone": "(925) 254-6500",
    "lat": 37.883097,
    "lng": -122.1841845
  }
]