[
  {
    "id": "630012645",
    "name": "DELTA VIEW DIALYSIS",
    "npi": "1821329830",
    "hcaiId": "306074147",
    "businessName": "TOTAL RENAL CARE, INC.",
    "contactEmail": "CAL_C@DAVITA.COM",
    "categoryName": "CHRONIC DIALYSIS CLINIC",
    "categoryCode": "ESRD/CDC",
    "licenseStatus": "ACTIVE",
    "inService": true,
    "licenseNumber": "550001411",
    "licenseEffectiveDate": "11/21/2024",
    "licenseExpirationDate": "11/20/2025",
    "dataDate": "10/18/2025",
    "capacity": 0,
    "address": "1150 E LELAND ROAD",
    "city": "PITTSBURG",
    "zip": "94565",
    "county": "CONTRA COSTA",
    "phone": "(925) 427-0867",
    "lat": 38.008305,
    "lng": -121.873095
  },
  {
    "id": "630028188",
    "name": "DENTAL CARE MOBILE, A CONTRA COSTA COLLECTIVE",
    "npi": null,
    "hcaiId": null,
    "businessName": "LA CLINICA DE LA RAZA, INC.",
    "contactEmail": null,
    "categoryName": "PRIMARY CARE CLINIC",
    "categoryCode": "COMTYC",
    "licenseStatus": "ACTIVE",
    "inService": true,
    "licenseNumber": "140000585",
    "licenseEffectiveDate": "04/01/2025",
    "licenseExpirationDate": "03/31/2026",
    "dataDate": "10/18/2025",
    "capacity": 0,
    "address": "339 E LELAND RD",
    "city": "PITTSBURG",
    "zip": "94565",
    "county": "CONTRA COSTA",
    "phone": null,
    "lat": 38.01220989,
    "lng": -121.8871972
  },
  {
    "id": "140000564",
    "name": "DIAMOND RIDGE HEALTHCARE CENTER",
    "npi": "1447821467",
    "hcaiId": "206074002",
    "businessName": "DIAMOND RIDGE POST ACUTE, LLC",
    "contactEmail": "ADMIN@DIAMONDRIDGEHEALTHCARE.COM",
    "categoryName": "SKILLED NURSING FACILITY",
    "categoryCode": "SNF",
    "licenseStatus": "ACTIVE",
    "inService": true,
    "licenseNumber": "140000546",
    "licenseEffectiveDate": "11/01/2024",
    "licenseExpirationDate": "10/31/2025",
    "dataDate": "10/18/2025",
    "capacity": 120,
    "address": "2351 LOVERIDGE ROAD",
    "city": "PITTSBURG",
    "zip": "94565",
    "county": "CONTRA COSTA",
    "phone": "(925) 427-4444",
    "lat": 38.005425,
    "lng": -121.8699585
  },
  {
    "id": "630019818",
    "name": "FIRST BAPTIST HEAD START: EAST LELAND COURT CENTER",
    "npi": null,
    "hcaiId": null,
    "businessName": "LA CLINICA DE LA RAZA, INC.",
    "contactEmail": null,
    "categoryName": "PRIMARY CARE CLINIC",
    "categoryCode": "COMTYC",
    "licenseStatus": "ACTIVE",
    "inService": true,
    "licenseNumber": "140000585",
    "licenseEffectiveDate": "04/01/2025",
    "licenseExpirationDate": "03/31/2026",
    "dataDate": "10/18/2025",
    "capacity": 0,
    "address": "2555 E LELAND RD",
    "city": "PITTSBURG",
    "zip": "94565",
    "county": "CONTRA COSTA",
    "phone": null,
    "lat": 38.009025,
    "lng": -121.860909
  },
  {
    "id": "630019821",
    "name": "FIRST BAPTIST HEAD START: KIDS CASTLE CENTER",
    "npi": null,
    "hcaiId": null,
    "businessName": "LA CLINICA DE LA RAZA, INC.",
    "contactEmail": null,
    "categoryName": "PRIMARY CARE CLINIC",
    "categoryCode": "COMTYC",
    "licenseStatus": "ACTIVE",
    "inService": true,
    "licenseNumber": "140000585",
    "licenseEffectiveDate": "04/01/2025",
    "licenseExpirationDate": "03/31/2026",
    "dataDate": "10/18/2025",
    "capacity": 0,
    "address": "55 CASTLEWOOD DR",
    "city": "PITTSBURG",
    "zip": "94565",
    "county": "CONTRA COSTA",
    "phone": null,
    "lat": 37.995057,
    "lng": -121.8978135
  },
  {
    "id": "630019817",
    "name": "FIRST BAPTIST HEAD START: LIDO SQUARE CENTER",
    "npi": null,
    "hcaiId": null,
    "businessName": "LA CLINICA DE LA RAZA, INC.",
    "contactEmail": null,
    "categoryName": "PRIMARY CARE CLINIC",
    "categoryCode": "COMTYC",
    "licenseStatus": "ACTIVE",
    "inService": true,
    "licenseNumber": "140000585",
    "licenseEffectiveDate": "04/01/2025",
    "licenseExpirationDate": "03/31/2026",
    "dataDate": "10/18/2025",
    "capacity": 0,
    "address": "2131 CRESTVIEW LN",
    "city": "PITTSBURG",
    "zip": "94565",
    "county": "CONTRA COSTA",
    "phone": null,
    "lat": 38.016315,
    "lng": -121.8922875
  },
  {
    "id": "630019820",
    "name": "FIRST BAPTIST HEAD START: ODESSA CENTER",
    "npi": null,
    "hcaiId": null,
    "businessName": "LA CLINICA DE LA RAZA, INC.",
    "contactEmail": null,
    "categoryName": "PRIMARY CARE CLINIC",
    "categoryCode": "COMTYC",
    "licenseStatus": "ACTIVE",
    "inService": true,
    "licenseNumber": "140000585",
    "licenseEffectiveDate": "04/01/2025",
    "licenseExpirationDate": "03/31/2026",
    "dataDate": "10/18/2025",
    "capacity": 0,
    "address": "204 ODESSA AVE",
    "city": "PITTSBURG",
    "zip": "94565",
    "county": "CONTRA COSTA",
    "phone": null,
    "lat": 38.035917,
    "lng": -121.8903615
  },
  {
    "id": "630019819",
    "name": "FIRST BAPTIST HEAD START: WOODS MANOR CENTER",
    "npi": null,
    "hcaiId": null,
    "businessName": "LA CLINICA DE LA RAZA, INC.",
    "contactEmail": null,
    "categoryName": "PRIMARY CARE CLINIC",
    "categoryCode": "COMTYC",
    "licenseStatus": "ACTIVE",
    "inService": true,
    "licenseNumber": "140000585",
    "licenseEffectiveDate": "04/01/2025",
    "licenseExpirationDate": "03/31/2026",
    "dataDate": "10/18/2025",
    "capacity": 0,
    "address": "850 E LELAND RD",
    "city": "PITTSBURG",
    "zip": "94565",
    "county": "CONTRA COSTA",
    "phone": null,
    "lat": 38.008314,
    "lng": -121.8782295
  },
  {
    "id": "630019811",
    "name": "FOOTHILL ELEMENTARY SCHOOL",
    "npi": null,
    "hcaiId": null,
    "businessName": "LA CLINICA DE LA RAZA, INC.",
    "contactEmail": null,
    "categoryName": "PRIMARY CARE CLINIC",
    "categoryCode": "COMTYC",
    "licenseStatus": "ACTIVE",
    "inService": true,
    "licenseNumber": "140000585",
    "licenseEffectiveDate": "04/01/2025",
    "licenseExpirationDate": "03/31/2026",
    "dataDate": "10/18/2025",
    "capacity": 0,
    "address": "1200 JENSEN DR",
    "city": "PITTSBURG",
    "zip": "94565",
    "county": "CONTRA COSTA",
    "phone": null,
    "lat": 37.995075,
    "lng": -121.875138
  },
  {
    "id": "140000982",
    "name": "FRESENIUS KIDNEY CARE PITTSBURG",
    "npi": "1447405170",
    "hcaiId": "306074058",
    "businessName": "FRESENIUS MEDICAL CARE DIABLO NEPHROLOGY CLINICS, LLC",
    "contactEmail": "CLINIC6785@FMC-NA.COM",
    "categoryName": "CHRONIC DIALYSIS CLINIC",
    "categoryCode": "ESRD/CDC",
    "licenseStatus": "ACTIVE",
    "inService": true,
    "licenseNumber": "140000489",
    "licenseEffectiveDate": "12/01/2024",
    "licenseExpirationDate": "11/30/2025",
    "dataDate": "10/18/2025",
    "capacity": 37,
    "address": "1800 N PARK BLVD",
    "city": "PITTSBURG",
    "zip": "94565",
    "county": "CONTRA COSTA",
    "phone": "(925) 439-8772",
    "lat": 38.012394,
    "lng": -121.8650697
  },
  {
    "id": "630019809",
    "name": "HEIGHTS ELEMENTARY SCHOOL",
    "npi": null,
    "hcaiId": null,
    "businessName": "LA CLINICA DE LA RAZA, INC.",
    "contactEmail": null,
    "categoryName": "PRIMARY CARE CLINIC",
    "categoryCode": "COMTYC",
    "licenseStatus": "ACTIVE",
    "inService": true,
    "licenseNumber": "140000585",
    "licenseEffectiveDate": "04/01/2025",
    "licenseExpirationDate": "03/31/2026",
    "dataDate": "10/18/2025",
    "capacity": 0,
    "address": "40 SEENO ST",
    "city": "PITTSBURG",
    "zip": "94565",
    "county": "CONTRA COSTA",
    "phone": null,
    "lat": 38.007648,
    "lng": -121.898169
  },
  {
    "id": "630019814",
    "name": "HIGHLANDS ELEMENTARY SCHOOL",
    "npi": null,
    "hcaiId": null,
    "businessName": "LA CLINICA DE LA RAZA, INC.",
    "contactEmail": null,
    "categoryName": "PRIMARY CARE CLINIC",
    "categoryCode": "COMTYC",
    "licenseStatus": "ACTIVE",
    "inService": true,
    "licenseNumber": "140000585",
    "licenseEffectiveDate": "04/01/2025",
    "licenseExpirationDate": "03/31/2026",
    "dataDate": "10/18/2025",
    "capacity": 0,
    "address": "4141 HARBOR ST",
    "city": "PITTSBURG",
    "zip": "94565",
    "county": "CONTRA COSTA",
    "phone": null,
    "lat": 37.99845787,
    "lng": -121.8869921
  },
  {
    "id": "140001166",
    "name": "LA CLINICA PITTSBURG DENTAL",
    "npi": null,
    "hcaiId": "306074084",
    "businessName": "LA CLINICA DE LA RAZA, INC.",
    "contactEmail": "SITELICENSING@LACLINICA.ORG",
    "categoryName": "PRIMARY CARE CLINIC",
    "categoryCode": "COMTYC",
    "licenseStatus": "ACTIVE",
    "inService": true,
    "licenseNumber": "140000585",
    "licenseEffectiveDate": "04/01/2025",
    "licenseExpirationDate": "03/31/2026",
    "dataDate": "10/18/2025",
    "capacity": 0,
    "address": "339 E LELAND RD",
    "city": "PITTSBURG",
    "zip": "94565",
    "county": "CONTRA COSTA",
    "phone": "(510) 535-2906",
    "lat": 38.012256,
    "lng": -121.8872385
  },
  {
    "id": "140001165",
    "name": "LA CLINICA PITTSBURG-MEDICAL",
    "npi": null,
    "hcaiId": "306074083",
    "businessName": "LA CLINICA DE LA RAZA, INC.",
    "contactEmail": "SITELICENSING@LACLINICA.ORG",
    "categoryName": "PRIMARY CARE CLINIC",
    "categoryCode": "COMTYC",
    "licenseStatus": "ACTIVE",
    "inService": true,
    "licenseNumber": "140000584",
    "licenseEffectiveDate": "01/25/2025",
    "licenseExpirationDate": "01/24/2026",
    "dataDate": "10/18/2025",
    "capacity": 0,
    "address": "2240 GLADSTONE DRIVE, SUITE 4",
    "city": "PITTSBURG",
    "zip": "94565",
    "county": "CONTRA COSTA",
    "phone": "(510) 535-2906",
    "lat": 38.006928,
    "lng": -121.867704
  },
  {
    "id": "630019815",
    "name": "LOS MEDANOS ELEMENTARY SCHOOL",
    "npi": null,
    "hcaiId": null,
    "businessName": "LA CLINICA DE LA RAZA, INC.",
    "contactEmail": null,
    "categoryName": "PRIMARY CARE CLINIC",
    "categoryCode": "COMTYC",
    "licenseStatus": "ACTIVE",
    "inService": true,
    "licenseNumber": "140000585",
    "licenseEffectiveDate": "04/01/2025",
    "licenseExpirationDate": "03/31/2026",
    "dataDate": "10/18/2025",
    "capacity": 0,
    "address": "610 CROWLEY AVE",
    "city": "PITTSBURG",
    "zip": "94565",
    "county": "CONTRA COSTA",
    "phone": null,
    "lat": 38.017224,
    "lng": -121.90077
  },
  {
    "id": "630019816",
    "name": "MARINA VISTA ELEMENTARY SCHOOL",
    "npi": null,
    "hcaiId": null,
    "businessName": "LA CLINICA DE LA RAZA, INC.",
    "contactEmail": null,
    "categoryName": "PRIMARY CARE CLINIC",
    "categoryCode": "COMTYC",
    "licenseStatus": "ACTIVE",
    "inService": true,
    "licenseNumber": "140000585",
    "licenseEffectiveDate": "04/01/2025",
    "licenseExpirationDate": "03/31/2026",
    "dataDate": "10/18/2025",
    "capacity": 0,
    "address": "50 E 8TH ST",
    "city": "PITTSBURG",
    "zip": "94565",
    "county": "CONTRA COSTA",
    "phone": null,
    "lat": 38.02948922,
    "lng": -121.8852576
  },
  {
    "id": "140001346",
    "name": "MEADOWBROOK CIRCLE ICF/DDH",
    "npi": "1972069763",
    "hcaiId": null,
    "businessName": "AMD ALTERNATIVE CARE SERVICES",
    "contactEmail": "ADBUCCAT@YAHOO.COM",
    "categoryName": "INTERMEDIATE CARE FACILITY-DD/H/N/CN/IID",
    "categoryCode": "ICFDDH",
    "licenseStatus": "ACTIVE",
    "inService": true,
    "licenseNumber": "140000694",
    "licenseEffectiveDate": "04/29/2025",
    "licenseExpirationDate": "04/28/2026",
    "dataDate": "10/18/2025",
    "capacity": 6,
    "address": "3939 MEADOWBROOK CIRCLE",
    "city": "PITTSBURG",
    "zip": "94565",
    "county": "CONTRA COSTA",
    "phone": "(925) 431-0415",
    "lat": 38.001528,
    "lng": -121.8772575
  },
  {
    "id": "140001314",
    "name": "NEW WAY ICF/DD-H #5",
    "npi": "1750444345",
    "hcaiId": null,
    "businessName": "NEW WAY SERVICES, INC.",
    "contactEmail": "APRIL.MALLARI@YAHOO.COM",
    "categoryName": "INTERMEDIATE CARE FACILITY-DD/H/N/CN/IID",
    "categoryCode": "ICFDDH",
    "licenseStatus": "ACTIVE",
    "inService": true,
    "licenseNumber": "140000678",
    "licenseEffectiveDate": "01/24/2025",
    "licenseExpirationDate": "01/23/2026",
    "dataDate": "10/18/2025",
    "capacity": 6,
    "address": "94 ATHERTON CIRCLE",
    "city": "PITTSBURG",
    "zip": "94565",
    "county": "CONTRA COSTA",
    "phone": "(240) 715-8905",
    "lat": 38.014335,
    "lng": -121.9046355
  },
  {
    "id": "140001307",
    "name": "OPTIONS HEALTH",
    "npi": null,
    "hcaiId": "306070803",
    "businessName": "OPTIONS FOR WOMEN OF CALIFORNIA",
    "contactEmail": "MEAGAN.WEBB@OPTIONSHEALTH.ORG",
    "categoryName": "PRIMARY CARE CLINIC",
    "categoryCode": "COMTYC",
    "licenseStatus": "ACTIVE",
    "inService": true,
    "licenseNumber": "140000671",
    "licenseEffectiveDate": "11/20/2025",
    "licenseExpirationDate": "11/19/2026",
    "dataDate": "10/18/2025",
    "capacity": 0,
    "address": "184 E LELAND RD",
    "city": "PITTSBURG",
    "zip": "94565",
    "county": "CONTRA COSTA",
    "phone": "(925) 827-0100",
    "lat": 38.010998,
    "lng": -121.889363
  },
  {
    "id": "630019810",
    "name": "PARKSIDE ELEMENTARY SCHOOL",
    "npi": null,
    "hcaiId": null,
    "businessName": "LA CLINICA DE LA RAZA, INC.",
    "contactEmail": null,
    "categoryName": "PRIMARY CARE CLINIC",
    "categoryCode": "COMTYC",
    "licenseStatus": "ACTIVE",
    "inService": true,
    "licenseNumber": "140000585",
    "licenseEffectiveDate": "04/01/2025",
    "licenseExpirationDate": "03/31/2026",
    "dataDate": "10/18/2025",
    "capacity": 0,
    "address": "985 W 17TH ST",
    "city": "PITTSBURG",
    "zip": "94565",
    "county": "CONTRA COSTA",
    "phone": null,
    "lat": 38.022273,
    "lng": -121.9001805
  },
  {
    "id": "140000962",
    "name": "PITTSBURG SKILLED NURSING CENTER",
    "npi": "1083019657",
    "hcaiId": "206071042",
    "businessName": "PITTSBURG SKILLED NURSING GROUP, INC.",
    "contactEmail": "DAVID.DEGUZMAN@PITTSBURGSNC.COM",
    "categoryName": "SKILLED NURSING FACILITY",
    "categoryCode": "SNF",
    "licenseStatus": "ACTIVE",
    "inService": true,
    "licenseNumber": "140000479",
    "licenseEffectiveDate": "07/06/2025",
    "licenseExpirationDate": "07/05/2026",
    "dataDate": "10/18/2025",
    "capacity": 49,
    "address": "535 SCHOOL STREET",
    "city": "PITTSBURG",
    "zip": "94565",
    "county": "CONTRA COSTA",
    "phone": "(925) 432-3831",
    "lat": 38.020167,
    "lng": -121.879494
  },
  {
    "id": "630026132",
    "name": "ROTACARE PITTSBURG",
    "npi": null,
    "hcaiId": null,
    "businessName": "ROTACARE BAY AREA, INC.",
    "contactEmail": "PITTSBURG@ROTACAREBAYAREA.ORG",
    "categoryName": "PRIMARY CARE CLINIC",
    "categoryCode": "FREEC",
    "licenseStatus": "ACTIVE",
    "inService": true,
    "licenseNumber": "550006678",
    "licenseEffectiveDate": "07/20/2025",
    "licenseExpirationDate": "07/19/2026",
    "dataDate": "10/18/2025",
    "capacity": 0,
    "address": "2210 GLADSTONE DR",
    "city": "PITTSBURG",
    "zip": "94565",
    "county": "CONTRA COSTA",
    "phone": "(925) 439-2009",
    "lat": 38.00924212,
    "lng": -121.8659009
  },
  {
    "id": "630019808",
    "name": "STONEMAN ELEMENTARY SCHOOL",
    "npi": null,
    "hcaiId": null,
    "businessName": "LA CLINICA DE LA RAZA, INC.",
    "contactEmail": null,
    "categoryName": "PRIMARY CARE CLINIC",
    "categoryCode": "COMTYC",
    "licenseStatus": "ACTIVE",
    "inService": true,
    "licenseNumber": "140000585",
    "licenseEffectiveDate": "04/01/2025",
    "licenseExpirationDate": "03/31/2026",
    "dataDate": "10/18/2025",
    "capacity": 0,
    "address": "2929 LOVERIDGE RD",
    "city": "PITTSBURG",
    "zip": "94565",
    "county": "CONTRA COSTA",
    "phone": null,
    "lat": 38.00403156,
    "lng": -121.8723416
  },
  {
    "id": "630019812",
    "name": "WILLOW COVE ELEMENTARY SCHOOL",
    "npi": null,
    "hcaiId": null,
    "businessName": "LA CLINICA DE LA RAZA, INC.",
    "contactEmail": null,
    "categoryName": "PRIMARY CARE CLINIC",
    "categoryCode": "COMTYC",
    "licenseStatus": "ACTIVE",
    "inService": true,
    "licenseNumber": "140000585",
    "licenseEffectiveDate": "04/01/2025",
    "licenseExpirationDate": "03/31/2026",
    "dataDate": "10/18/2025",
    "capacity": 0,
    "address": "2000 RAILROAD AVE",
    "city": "PITTSBURG",
    "zip": "94565",
    "county": "CONTRA COSTA",
    "phone": null,
    "lat": 38.019798,
    "lng": -121.8886965
  }
]