[
  {
    "id": "140001322",
    "name": "AMERICAN STAR HOME III",
    "npi": "1013194497",
    "hcaiId": null,
    "businessName": "AMERICAN STAR HOME 2 ICF/DD-N",
    "contactEmail": "VCKYTING@AOL.COM",
    "categoryName": "INTERMEDIATE CARE FACILITY-DD/H/N/CN/IID",
    "categoryCode": "ICFDDN",
    "licenseStatus": "ACTIVE",
    "inService": true,
    "licenseNumber": "140000682",
    "licenseEffectiveDate": "11/29/2024",
    "licenseExpirationDate": "11/28/2025",
    "dataDate": "10/18/2025",
    "capacity": 6,
    "address": "125 BROWNSTONE ROAD",
    "city": "OAKLEY",
    "zip": "94561",
    "county": "CONTRA COSTA",
    "phone": "(925) 625-7354",
    "lat": 37.971009,
    "lng": -121.698414
  },
  {
    "id": "140001320",
    "name": "GLACIER WAY HOME",
    "npi": "1467515064",
    "hcaiId": null,
    "businessName": "RMD SERVICES INCORPORATED",
    "contactEmail": "DPTAMBOT@YAHOO.COM",
    "categoryName": "INTERMEDIATE CARE FACILITY-DD/H/N/CN/IID",
    "categoryCode": "ICFDDN",
    "licenseStatus": "ACTIVE",
    "inService": true,
    "licenseNumber": "140000681",
    "licenseEffectiveDate": "05/17/2025",
    "licenseExpirationDate": "05/16/2026",
    "dataDate": "10/18/2025",
    "capacity": 6,
    "address": "606 GLACIER WAY",
    "city": "OAKLEY",
    "zip": "94561",
    "county": "CONTRA COSTA",
    "phone": "(925) 625-0313",
    "lat": 37.982295,
    "lng": -121.685382
  },
  {
    "id": "630013753",
    "name": "LA CLINICA OAKLEY",
    "npi": "1578834164",
    "hcaiId": "306074160",
    "businessName": "LA CLINICA DE LA RAZA, INC.",
    "contactEmail": "VACOMPEAN@LACLINICA.ORG",
    "categoryName": "PRIMARY CARE CLINIC",
    "categoryCode": "COMTYC",
    "licenseStatus": "ACTIVE",
    "inService": true,
    "licenseNumber": "140000584",
    "licenseEffectiveDate": "01/25/2025",
    "licenseExpirationDate": "01/24/2026",
    "dataDate": "10/18/2025",
    "capacity": 0,
    "address": "2021 MAIN STREET",
    "city": "OAKLEY",
    "zip": "94561",
    "county": "CONTRA COSTA",
    "phone": "(510) 535-2906",
    "lat": 38.00414246,
    "lng": -121.7329686
  },
  {
    "id": "140001330",
    "name": "NEW WAY ICF/DD-N #N3",
    "npi": "1447380357",
    "hcaiId": null,
    "businessName": "NEW WAY SERVICES, INC.",
    "contactEmail": "NEWWAYSERVICES@ASTOUND.NET",
    "categoryName": "INTERMEDIATE CARE FACILITY-DD/H/N/CN/IID",
    "categoryCode": "ICFDDN",
    "licenseStatus": "ACTIVE",
    "inService": true,
    "licenseNumber": "140000686",
    "licenseEffectiveDate": "04/15/2025",
    "licenseExpirationDate": "04/14/2026",
    "dataDate": "10/18/2025",
    "capacity": 6,
    "address": "92 LOZOYA WAY",
    "city": "OAKLEY",
    "zip": "94561",
    "county": "CONTRA COSTA",
    "phone": "(925) 625-4503",
    "lat": 37.971288,
    "lng": -121.6843335
  },
  {
    "id": "140001328",
    "name": "NEW WAY ICF/DD-N #N4",
    "npi": "1184779779",
    "hcaiId": null,
    "businessName": "NEW WAY SERVICES, INC.",
    "contactEmail": "NEWWAYSERVICES@ASTOUND.NET",
    "categoryName": "INTERMEDIATE CARE FACILITY-DD/H/N/CN/IID",
    "categoryCode": "ICFDDN",
    "licenseStatus": "ACTIVE",
    "inService": true,
    "licenseNumber": "140000685",
    "licenseEffectiveDate": "04/15/2025",
    "licenseExpirationDate": "04/14/2026",
    "dataDate": "10/18/2025",
    "capacity": 6,
    "address": "385 HILL AVENUE",
    "city": "OAKLEY",
    "zip": "94561",
    "county": "CONTRA COSTA",
    "phone": "(925) 370-9603",
    "lat": 37.973988,
    "lng": -121.6890495
  },
  {
    "id": "140001316",
    "name": "YOSEMITE HOME",
    "npi": "1386293751",
    "hcaiId": null,
    "businessName": "RMD GOALS, INC.",
    "contactEmail": "FERRER_ROWELL@YAHOO.COM",
    "categoryName": "INTERMEDIATE CARE FACILITY-DD/H/N/CN/IID",
    "categoryCode": "ICFDDN",
    "licenseStatus": "ACTIVE",
    "inService": true,
    "licenseNumber": "140000679",
    "licenseEffectiveDate": "04/15/2025",
    "licenseExpirationDate": "04/14/2026",
    "dataDate": "10/18/2025",
    "capacity": 6,
    "address": "1325 YOSEMITE CIRCLE",
    "city": "OAKLEY",
    "zip": "94561",
    "county": "CONTRA COSTA",
    "phone": "(650) 455-3233",
    "lat": 37.982133,
    "lng": -121.6837665
  }
]