[
  {
    "id": "140001035",
    "name": "ALAIN SERKISSIAN",
    "npi": null,
    "hcaiId": null,
    "businessName": null,
    "contactEmail": null,
    "categoryName": "OTHER",
    "categoryCode": "UNLICEN",
    "licenseStatus": null,
    "inService": null,
    "licenseNumber": null,
    "licenseEffectiveDate": null,
    "licenseExpirationDate": null,
    "dataDate": "10/18/2025",
    "capacity": 0,
    "address": "2160 APPIAN WAY, SUITE 101",
    "city": "PINOLE",
    "zip": "94564",
    "county": "CONTRA COSTA",
    "phone": "(510) 724-1248",
    "lat": 37.99590858,
    "lng": -122.302163
  },
  {
    "id": "630011521",
    "name": "BAY AREA LASER SURGERY CENTER",
    "npi": "1750314704",
    "hcaiId": null,
    "businessName": null,
    "contactEmail": null,
    "categoryName": "SURGICAL CLINIC",
    "categoryCode": "ASC",
    "licenseStatus": null,
    "inService": null,
    "licenseNumber": null,
    "licenseEffectiveDate": null,
    "licenseExpirationDate": null,
    "dataDate": "10/18/2025",
    "capacity": 0,
    "address": "1599 TARA HILLS DR",
    "city": "PINOLE",
    "zip": "94564",
    "county": "CONTRA COSTA",
    "phone": "(510) 724-8282",
    "lat": 37.995048,
    "lng": -122.302953
  },
  {
    "id": "140001379",
    "name": "CANYON PINOLE SURGERY CENTER",
    "npi": "1497791040",
    "hcaiId": "306074111",
    "businessName": "CANYON PINOLE SURGERY CENTER, L.P.",
    "contactEmail": null,
    "categoryName": "SURGICAL CLINIC",
    "categoryCode": "ASC",
    "licenseStatus": "INACTIVE - CAPEN DECISION",
    "inService": false,
    "licenseNumber": "140000713",
    "licenseEffectiveDate": "02/08/2008",
    "licenseExpirationDate": "02/07/2009",
    "dataDate": "10/18/2025",
    "capacity": 0,
    "address": "1700 SAN PABLO AVE, SUITE D",
    "city": "PINOLE",
    "zip": "94564",
    "county": "CONTRA COSTA",
    "phone": "(510) 724-9500",
    "lat": 38.004714,
    "lng": -122.2971255
  },
  {
    "id": "140000456",
    "name": "GREGORY J. GORECKI",
    "npi": null,
    "hcaiId": null,
    "businessName": null,
    "contactEmail": null,
    "categoryName": "OTHER",
    "categoryCode": "UNLICEN",
    "licenseStatus": null,
    "inService": null,
    "licenseNumber": null,
    "licenseEffectiveDate": null,
    "licenseExpirationDate": null,
    "dataDate": "10/18/2025",
    "capacity": 0,
    "address": "1320 TARA HILLS DR",
    "city": "PINOLE",
    "zip": "94564",
    "county": "CONTRA COSTA",
    "phone": "(510) 758-7600",
    "lat": 37.99590193,
    "lng": -122.3052453
  },
  {
    "id": "630017665",
    "name": "LIFELONG MEDICAL CARE-PINOLE HEALTH CENTER",
    "npi": null,
    "hcaiId": null,
    "businessName": "LIFELONG MEDICAL CARE",
    "contactEmail": null,
    "categoryName": "PRIMARY CARE CLINIC",
    "categoryCode": "COMTYC",
    "licenseStatus": "ACTIVE",
    "inService": true,
    "licenseNumber": "550003292",
    "licenseEffectiveDate": "08/12/2025",
    "licenseExpirationDate": "11/07/2025",
    "dataDate": "10/18/2025",
    "capacity": 0,
    "address": "806 SAN PABLO AVE, SUITE 1",
    "city": "PINOLE",
    "zip": "94564",
    "county": "CONTRA COSTA",
    "phone": "(510) 981-4122",
    "lat": 38.005497,
    "lng": -122.307345
  },
  {
    "id": "630020767",
    "name": "PINOLE DIALYSIS",
    "npi": null,
    "hcaiId": "306070616",
    "businessName": "RINGWOOD DIALYSIS, LLC",
    "contactEmail": "CAL_C@DAVITA.COM",
    "categoryName": "CHRONIC DIALYSIS CLINIC",
    "categoryCode": "CDC",
    "licenseStatus": "ACTIVE",
    "inService": true,
    "licenseNumber": "550005970",
    "licenseEffectiveDate": "01/20/2025",
    "licenseExpirationDate": "01/19/2026",
    "dataDate": "10/18/2025",
    "capacity": 24,
    "address": "1335 PINOLE VALLEY RD",
    "city": "PINOLE",
    "zip": "94564",
    "county": "CONTRA COSTA",
    "phone": "(510) 964-9740",
    "lat": 37.99880311,
    "lng": -122.2867543
  },
  {
    "id": "140001105",
    "name": "VIBRANTCARE",
    "npi": null,
    "hcaiId": null,
    "businessName": null,
    "contactEmail": null,
    "categoryName": "REHABILITATION CLINIC",
    "categoryCode": "OPT/SP",
    "licenseStatus": null,
    "inService": null,
    "licenseNumber": null,
    "licenseEffectiveDate": null,
    "licenseExpirationDate": null,
    "dataDate": "10/18/2025",
    "capacity": 0,
    "address": "2160 APPIAN WAY, SUITE 101",
    "city": "PINOLE",
    "zip": "94564",
    "county": "CONTRA COSTA",
    "phone": "(510) 724-1248",
    "lat": 37.99590858,
    "lng": -122.302163
  }
]