[
  {
    "id": "630012209",
    "name": "AMERICAN HOME HEALTH CARE, LLC",
    "npi": "1639304546",
    "hcaiId": "406014260",
    "businessName": "AMERICAN HOME HEALTH CARE, LLC",
    "contactEmail": "KJ@AHHHCARE.COM",
    "categoryName": "HOME HEALTH AGENCY",
    "categoryCode": "HHA",
    "licenseStatus": "ACTIVE",
    "inService": true,
    "licenseNumber": "550001127",
    "licenseEffectiveDate": "11/19/2024",
    "licenseExpirationDate": "11/18/2025",
    "dataDate": "10/18/2025",
    "capacity": 0,
    "address": "7031 KOLL CENTER PKWY, SUITE 210",
    "city": "PLEASANTON",
    "zip": "94566",
    "county": "ALAMEDA",
    "phone": "(510) 574-0390",
    "lat": 37.660947,
    "lng": -121.900253
  },
  {
    "id": "630013685",
    "name": "AMERICAN HOSPICE AND HOME HEALTH CARE SERVICES INC.",
    "npi": "1497176309",
    "hcaiId": "406014385",
    "businessName": "AMERICAN HOSPICE AND HOME HEALTH CARE SERVICES INC.",
    "contactEmail": "KJ@AHHHCARE.COM",
    "categoryName": "HOME HEALTH AGENCY",
    "categoryCode": "HHA",
    "licenseStatus": "ACTIVE",
    "inService": true,
    "licenseNumber": "550002030",
    "licenseEffectiveDate": "08/22/2025",
    "licenseExpirationDate": "08/21/2026",
    "dataDate": "10/18/2025",
    "capacity": 0,
    "address": "7031 KOLL CENTER PKWY, SUITE 220",
    "city": "PLEASANTON",
    "zip": "94566",
    "county": "ALAMEDA",
    "phone": "(925) 240-6300",
    "lat": 37.660947,
    "lng": -121.900253
  },
  {
    "id": "630013693",
    "name": "AMERICAN HOSPICE AND HOME HEALTH CARE SERVICES INC.",
    "npi": "1700143955",
    "hcaiId": "406014384",
    "businessName": "AMERICAN HOSPICE AND HOME HEALTH CARE SERVICES INC.",
    "contactEmail": "KJ@AHHHCARE.COM",
    "categoryName": "HOSPICE",
    "categoryCode": "HOSPICE",
    "licenseStatus": "ACTIVE",
    "inService": true,
    "licenseNumber": "550002031",
    "licenseEffectiveDate": "08/22/2024",
    "licenseExpirationDate": "08/21/2026",
    "dataDate": "10/18/2025",
    "capacity": 0,
    "address": "7031 KOLL CENTER PKWY, SUITE 230",
    "city": "PLEASANTON",
    "zip": "94566",
    "county": "ALAMEDA",
    "phone": "(925) 240-6300",
    "lat": 37.660947,
    "lng": -121.900253
  },
  {
    "id": "140000246",
    "name": "AXIS COMMUNITY HEALTH",
    "npi": null,
    "hcaiId": "306010834",
    "businessName": "AXIS COMMUNITY HEALTH, INC.",
    "contactEmail": "CONTRACTS@AXISHEALTH.ORG",
    "categoryName": "PRIMARY CARE CLINIC",
    "categoryCode": "COMTYC",
    "licenseStatus": "ACTIVE",
    "inService": true,
    "licenseNumber": "550003511",
    "licenseEffectiveDate": "09/01/2025",
    "licenseExpirationDate": "05/19/2026",
    "dataDate": "10/18/2025",
    "capacity": 0,
    "address": "4361 RAILROAD AVENUE",
    "city": "PLEASANTON",
    "zip": "94566",
    "county": "ALAMEDA",
    "phone": "(925) 462-1755",
    "lat": 37.66158,
    "lng": -121.874337
  },
  {
    "id": "630016311",
    "name": "HEALTH CONNECT NURSING SERVICES INC",
    "npi": null,
    "hcaiId": "406014377",
    "businessName": "HEALTH CONNECT NURSING SERVICES INC",
    "contactEmail": "CHARITY@HEALTHCONNECTNURSING.COM",
    "categoryName": "HOME HEALTH AGENCY",
    "categoryCode": "HHA",
    "licenseStatus": "ACTIVE",
    "inService": true,
    "licenseNumber": "550003545",
    "licenseEffectiveDate": "06/15/2025",
    "licenseExpirationDate": "06/14/2026",
    "dataDate": "10/18/2025",
    "capacity": 0,
    "address": "4125 MOHR AVE, SUITE C",
    "city": "PLEASANTON",
    "zip": "94566",
    "county": "ALAMEDA",
    "phone": "(925) 475-9276",
    "lat": 37.68237299,
    "lng": -121.8734312
  },
  {
    "id": "070001235",
    "name": "HOPE HOSPICE",
    "npi": null,
    "hcaiId": "406014110",
    "businessName": "HOPE HOSPICE, INC.",
    "contactEmail": "EXECUTIVEDEPARTMENT@HOPEHOSPICE.COM",
    "categoryName": "HOSPICE",
    "categoryCode": "HOSPICE",
    "licenseStatus": "ACTIVE",
    "inService": true,
    "licenseNumber": "070000569",
    "licenseEffectiveDate": "03/11/2025",
    "licenseExpirationDate": "10/31/2026",
    "dataDate": "10/18/2025",
    "capacity": 0,
    "address": "6801 KOLL CENTER PKWY, SUITE 140",
    "city": "PLEASANTON",
    "zip": "94566",
    "county": "ALAMEDA",
    "phone": "(925) 829-8770",
    "lat": 37.65950553,
    "lng": -121.9004188
  },
  {
    "id": "630012016",
    "name": "LIFEGUARD HOME HEALTH",
    "npi": "1225280951",
    "hcaiId": "406014247",
    "businessName": "MALLARI HEALTHCARE, INC.",
    "contactEmail": "INFO@LIFEGUARDHOMEHEALTH.COM",
    "categoryName": "HOME HEALTH AGENCY",
    "categoryCode": "HHA",
    "licenseStatus": "ACTIVE",
    "inService": true,
    "licenseNumber": "550000895",
    "licenseEffectiveDate": "02/19/2025",
    "licenseExpirationDate": "02/18/2026",
    "dataDate": "10/18/2025",
    "capacity": 0,
    "address": "6700 KOLL CENTER PKWY, SUITE 116",
    "city": "PLEASANTON",
    "zip": "94566",
    "county": "ALAMEDA",
    "phone": "(510) 697-4184",
    "lat": 37.658187,
    "lng": -121.90167
  },
  {
    "id": "630015389",
    "name": "LIFEGUARD HOSPICE CARE, INC.",
    "npi": null,
    "hcaiId": "406014368",
    "businessName": "LIFEGUARD HOSPICE CARE, INC.",
    "contactEmail": "INFO@LIFEGUARDHOSPICE.COM",
    "categoryName": "HOSPICE",
    "categoryCode": "HOSPICE",
    "licenseStatus": "ACTIVE",
    "inService": true,
    "licenseNumber": "550002882",
    "licenseEffectiveDate": "10/29/2024",
    "licenseExpirationDate": "10/28/2026",
    "dataDate": "10/18/2025",
    "capacity": 0,
    "address": "6700 KOLL CENTER PKWY, SUITE 115",
    "city": "PLEASANTON",
    "zip": "94566",
    "county": "ALAMEDA",
    "phone": "(925) 226-7185",
    "lat": 37.658187,
    "lng": -121.90167
  },
  {
    "id": "630014268",
    "name": "NEURORESTORATIVE CALIFORNIA",
    "npi": null,
    "hcaiId": "206014317",
    "businessName": "CAREMERIDIAN, LLC",
    "contactEmail": "KIM-NGAN.NGUYEN@SEVITAHEALTH.COM",
    "categoryName": "CONGREGATE LIVING HEALTH FACILITY",
    "categoryCode": "CLHF",
    "licenseStatus": "ACTIVE",
    "inService": true,
    "licenseNumber": "550002309",
    "licenseEffectiveDate": "06/13/2025",
    "licenseExpirationDate": "06/12/2026",
    "dataDate": "10/18/2025",
    "capacity": 12,
    "address": "446 SYCAMORE ROAD",
    "city": "PLEASANTON",
    "zip": "94566",
    "county": "ALAMEDA",
    "phone": "(925) 965-8112",
    "lat": 37.644381,
    "lng": -121.878711
  },
  {
    "id": "630020853",
    "name": "PHYSICIANS HOSPICE GROUP",
    "npi": null,
    "hcaiId": "406017915",
    "businessName": "A PLUS PRIME CARE HOSPICE, INC",
    "contactEmail": "INFO@APPHOSPICE.COM",
    "categoryName": "HOSPICE",
    "categoryCode": "HOSPICE",
    "licenseStatus": "ACTIVE",
    "inService": true,
    "licenseNumber": "550006461",
    "licenseEffectiveDate": "06/28/2025",
    "licenseExpirationDate": "06/27/2027",
    "dataDate": "10/18/2025",
    "capacity": 0,
    "address": "4625 1ST ST, SUITE 230",
    "city": "PLEASANTON",
    "zip": "94566",
    "county": "ALAMEDA",
    "phone": "(925) 400-9388",
    "lat": 37.658394,
    "lng": -121.875615
  },
  {
    "id": "140000621",
    "name": "PLASTIC & RECONSTRUCTIVE SURGERY CENTER",
    "npi": "1043249972",
    "hcaiId": "306014102",
    "businessName": "PLASTIC & RECONSTRUCTIVE SURGERY CENTER",
    "contactEmail": "JWEPLAS@AOL.COM",
    "categoryName": "SURGICAL CLINIC",
    "categoryCode": "ASC",
    "licenseStatus": "INACTIVE - CAPEN DECISION",
    "inService": false,
    "licenseNumber": "140000491",
    "licenseEffectiveDate": "03/28/2008",
    "licenseExpirationDate": "03/27/2009",
    "dataDate": "10/18/2025",
    "capacity": 0,
    "address": "1387 SANTA RITA RD",
    "city": "PLEASANTON",
    "zip": "94566",
    "county": "ALAMEDA",
    "phone": "(925) 462-3700",
    "lat": 37.670742,
    "lng": -121.873266
  },
  {
    "id": "140000086",
    "name": "PLEASANTON NURSING AND REHABILITATION CENTER",
    "npi": "1750385167",
    "hcaiId": "206010926",
    "businessName": "GHC OF PLEASANTON, LLC",
    "contactEmail": "EDJOHNSON@LIFEGEN.NET",
    "categoryName": "SKILLED NURSING FACILITY",
    "categoryCode": "SNF",
    "licenseStatus": "ACTIVE",
    "inService": true,
    "licenseNumber": "140000091",
    "licenseEffectiveDate": "11/01/2025",
    "licenseExpirationDate": "10/31/2026",
    "dataDate": "10/18/2025",
    "capacity": 139,
    "address": "300 NEAL STREET",
    "city": "PLEASANTON",
    "zip": "94566",
    "county": "ALAMEDA",
    "phone": "(925) 462-2400",
    "lat": 37.658961,
    "lng": -121.8717315
  },
  {
    "id": "630013578",
    "name": "ST. JUDE HOME HEALTH AGENCY",
    "npi": "1912359449",
    "hcaiId": "406014288",
    "businessName": "PROREHAB HEALTHCARE GROUP OF COMPANIES",
    "contactEmail": "INFO@STJUDEHOMEHEALTH.NET",
    "categoryName": "HOME HEALTH AGENCY",
    "categoryCode": "HHA",
    "licenseStatus": "ACTIVE",
    "inService": true,
    "licenseNumber": "550001928",
    "licenseEffectiveDate": "12/29/2024",
    "licenseExpirationDate": "12/28/2025",
    "dataDate": "10/18/2025",
    "capacity": 0,
    "address": "4725 FIRST STREET, SUITE 274",
    "city": "PLEASANTON",
    "zip": "94566",
    "county": "ALAMEDA",
    "phone": "(925) 474-3439",
    "lat": 37.65726,
    "lng": -121.877001
  },
  {
    "id": "630019631",
    "name": "SUNBRIGHT HOME HEALTH CARE",
    "npi": null,
    "hcaiId": "406012768",
    "businessName": "ATTAIE HEALTHCARE, INC.",
    "contactEmail": "INFO@ATTAIEHEALTHCARE.COM",
    "categoryName": "HOME HEALTH AGENCY",
    "categoryCode": "HHA",
    "licenseStatus": "ACTIVE",
    "inService": true,
    "licenseNumber": "550005580",
    "licenseEffectiveDate": "07/14/2025",
    "licenseExpirationDate": "07/13/2026",
    "dataDate": "10/18/2025",
    "capacity": 0,
    "address": "4133 MOHR AVE, SUITE B",
    "city": "PLEASANTON",
    "zip": "94566",
    "county": "ALAMEDA",
    "phone": "(925) 425-9499",
    "lat": 37.682397,
    "lng": -121.873716
  },
  {
    "id": "630019629",
    "name": "SUNBRIGHT HOSPICE CARE",
    "npi": null,
    "hcaiId": "406014771",
    "businessName": "ATTAIE HEALTHCARE, INC.",
    "contactEmail": "NAHEED@ATTAIEHEALTHCARE.COM",
    "categoryName": "HOSPICE",
    "categoryCode": "HOSPICE",
    "licenseStatus": "ACTIVE",
    "inService": true,
    "licenseNumber": "550006065",
    "licenseEffectiveDate": "02/15/2025",
    "licenseExpirationDate": "02/14/2027",
    "dataDate": "10/18/2025",
    "capacity": 0,
    "address": "4133 MOHR AVE, SUITE A",
    "city": "PLEASANTON",
    "zip": "94566",
    "county": "ALAMEDA",
    "phone": "(925) 425-9499",
    "lat": 37.682397,
    "lng": -121.873716
  },
  {
    "id": "630027871",
    "name": "TRIAGE HOME HEALTH LLC",
    "npi": null,
    "hcaiId": null,
    "businessName": "TRIAGE HOME HEALTH LLC",
    "contactEmail": "ADMIN@MYTRIAGEHH.COM",
    "categoryName": "HOME HEALTH AGENCY",
    "categoryCode": "HHA",
    "licenseStatus": "ACTIVE",
    "inService": true,
    "licenseNumber": "550009867",
    "licenseEffectiveDate": "06/20/2025",
    "licenseExpirationDate": "12/19/2025",
    "dataDate": "10/18/2025",
    "capacity": 0,
    "address": "6701 KOLL CENTER PKWY, SUITE 250 OFC 232",
    "city": "PLEASANTON",
    "zip": "94566",
    "county": "ALAMEDA",
    "phone": "(510) 825-7571",
    "lat": 37.65966499,
    "lng": -121.899473
  }
]