[
  {
    "id": "630019682",
    "name": "A1 PRO HOSPICE CARE",
    "npi": null,
    "hcaiId": "406012601",
    "businessName": "ARDENT HOSPICE SERVICES, INC.",
    "contactEmail": "INFO@ARDENT-HOSPICE.COM",
    "categoryName": "HOSPICE",
    "categoryCode": "HOSPICE",
    "licenseStatus": "ACTIVE",
    "inService": true,
    "licenseNumber": "550005386",
    "licenseEffectiveDate": "06/03/2025",
    "licenseExpirationDate": "03/15/2026",
    "dataDate": "10/18/2025",
    "capacity": 0,
    "address": "14868 WICKS BLVD",
    "city": "SAN LEANDRO",
    "zip": "94577",
    "county": "ALAMEDA",
    "phone": "(510) 819-0888",
    "lat": 37.69273937,
    "lng": -122.1631102
  },
  {
    "id": "630027432",
    "name": "AHS MOBILE UNIT #1",
    "npi": null,
    "hcaiId": null,
    "businessName": "ASIAN HEALTH SERVICES",
    "contactEmail": null,
    "categoryName": "PRIMARY CARE CLINIC",
    "categoryCode": "COMTYC",
    "licenseStatus": "ACTIVE",
    "inService": true,
    "licenseNumber": "140000125",
    "licenseEffectiveDate": "02/24/2025",
    "licenseExpirationDate": "02/23/2026",
    "dataDate": "10/18/2025",
    "capacity": 0,
    "address": "2000 DOOLITTLE DR",
    "city": "SAN LEANDRO",
    "zip": "94577",
    "county": "ALAMEDA",
    "phone": null,
    "lat": 37.706643,
    "lng": -122.179424
  },
  {
    "id": "630028547",
    "name": "AHS SAN LEANDRO DENTAL CLINIC",
    "npi": null,
    "hcaiId": null,
    "businessName": "ASIAN HEALTH SERVICES",
    "contactEmail": null,
    "categoryName": "PRIMARY CARE CLINIC",
    "categoryCode": "COMTYC",
    "licenseStatus": "ACTIVE",
    "inService": true,
    "licenseNumber": "140000125",
    "licenseEffectiveDate": "02/24/2025",
    "licenseExpirationDate": "02/23/2026",
    "dataDate": "10/18/2025",
    "capacity": 0,
    "address": "770 E 14TH ST",
    "city": "SAN LEANDRO",
    "zip": "94577",
    "county": "ALAMEDA",
    "phone": null,
    "lat": 37.729521,
    "lng": -122.1590385
  },
  {
    "id": "630019665",
    "name": "AMERICAN GUARDIAN HOSPICE",
    "npi": null,
    "hcaiId": "406012771",
    "businessName": "AMERICAN GUARDIAN HOSPICE",
    "contactEmail": "AMERICANGUARDIANH@GMAIL.COM",
    "categoryName": "HOSPICE",
    "categoryCode": "HOSPICE",
    "licenseStatus": "ACTIVE",
    "inService": true,
    "licenseNumber": "550005512",
    "licenseEffectiveDate": "06/04/2020",
    "licenseExpirationDate": "06/03/2022",
    "dataDate": "10/18/2025",
    "capacity": 0,
    "address": "237 ESTUDILLO AVE, SUITE 201",
    "city": "SAN LEANDRO",
    "zip": "94577",
    "county": "ALAMEDA",
    "phone": "(510) 878-9711",
    "lat": 37.725228,
    "lng": -122.154201
  },
  {
    "id": "630018482",
    "name": "ARDENT HOME HEALTH CARE, INC.",
    "npi": null,
    "hcaiId": "406012676",
    "businessName": "ARDENT HOME HEALTH CARE, INC.",
    "contactEmail": "INFO@ARDENTHHCARE.COM",
    "categoryName": "HOME HEALTH AGENCY",
    "categoryCode": "HHA",
    "licenseStatus": "ACTIVE",
    "inService": true,
    "licenseNumber": "550005630",
    "licenseEffectiveDate": "07/14/2025",
    "licenseExpirationDate": "07/13/2026",
    "dataDate": "10/18/2025",
    "capacity": 0,
    "address": "1933 DAVIS ST, SUITE 261",
    "city": "SAN LEANDRO",
    "zip": "94577",
    "county": "ALAMEDA",
    "phone": "(510) 289-5265",
    "lat": 37.715994,
    "lng": -122.1791085
  },
  {
    "id": "630018717",
    "name": "ASIAN HEALTH SERVICES PEDIATRICS SAN LEANDRO",
    "npi": "1003134545",
    "hcaiId": null,
    "businessName": "ASIAN HEALTH SERVICES",
    "contactEmail": null,
    "categoryName": "PRIMARY CARE CLINIC",
    "categoryCode": "COMTYC",
    "licenseStatus": "ACTIVE",
    "inService": true,
    "licenseNumber": "550001298",
    "licenseEffectiveDate": "06/01/2025",
    "licenseExpirationDate": "05/31/2026",
    "dataDate": "10/18/2025",
    "capacity": 0,
    "address": "101 CALLAN AVE, SUITE 105",
    "city": "SAN LEANDRO",
    "zip": "94577",
    "county": "ALAMEDA",
    "phone": null,
    "lat": 37.725777,
    "lng": -122.156073
  },
  {
    "id": "020000015",
    "name": "BANCROFT HEALTHCARE CENTER",
    "npi": "1467597534",
    "hcaiId": "206010747",
    "businessName": "BANCROFT HEALTH GROUP INC",
    "contactEmail": "ALLEN@BANCROFTHEALTHCARE.COM",
    "categoryName": "SKILLED NURSING FACILITY",
    "categoryCode": "SNF",
    "licenseStatus": "ACTIVE",
    "inService": true,
    "licenseNumber": "020000007",
    "licenseEffectiveDate": "01/01/2025",
    "licenseExpirationDate": "12/31/2025",
    "dataDate": "10/18/2025",
    "capacity": 36,
    "address": "1475 BANCROFT AVENUE",
    "city": "SAN LEANDRO",
    "zip": "94577",
    "county": "ALAMEDA",
    "phone": "(510) 483-1680",
    "lat": 37.725435,
    "lng": -122.1475095
  },
  {
    "id": "020001156",
    "name": "BARROW ICF/DD-N",
    "npi": "1942296488",
    "hcaiId": null,
    "businessName": "BARROW HOME LLC",
    "contactEmail": "MS.GRAJO@GMAIL.COM",
    "categoryName": "INTERMEDIATE CARE FACILITY-DD/H/N/CN/IID",
    "categoryCode": "ICFDDN",
    "licenseStatus": "ACTIVE",
    "inService": true,
    "licenseNumber": "020000577",
    "licenseEffectiveDate": "11/26/2024",
    "licenseExpirationDate": "11/25/2025",
    "dataDate": "10/18/2025",
    "capacity": 6,
    "address": "2225 BARROW STREET",
    "city": "SAN LEANDRO",
    "zip": "94577",
    "county": "ALAMEDA",
    "phone": "(510) 352-8537",
    "lat": 37.705302,
    "lng": -122.181165
  },
  {
    "id": "630016555",
    "name": "BLC HOMEHEALTH INC",
    "npi": "1750750600",
    "hcaiId": "406016557",
    "businessName": "BLC HOMEHEALTH INC",
    "contactEmail": "ANDREA@BLCHOMEHEALTH.COM",
    "categoryName": "HOME HEALTH AGENCY",
    "categoryCode": "HHA",
    "licenseStatus": "ACTIVE",
    "inService": true,
    "licenseNumber": "550003799",
    "licenseEffectiveDate": "12/23/2024",
    "licenseExpirationDate": "12/22/2025",
    "dataDate": "10/18/2025",
    "capacity": 0,
    "address": "2401 MERCED ST, SUITE 400",
    "city": "SAN LEANDRO",
    "zip": "94577",
    "county": "ALAMEDA",
    "phone": "(510) 612-8541",
    "lat": 37.706733,
    "lng": -122.170032
  },
  {
    "id": "630017306",
    "name": "CENTER FOR ELDERS' INDEPENDENCE",
    "npi": "1245371061",
    "hcaiId": "306010376",
    "businessName": "CENTER FOR ELDERS' INDEPENDENCE",
    "contactEmail": "QI@CEI.ELDERS.ORG",
    "categoryName": "PRIMARY CARE CLINIC",
    "categoryCode": "COMTYC",
    "licenseStatus": "ACTIVE",
    "inService": true,
    "licenseNumber": "550004251",
    "licenseEffectiveDate": "05/23/2025",
    "licenseExpirationDate": "05/22/2026",
    "dataDate": "10/18/2025",
    "capacity": 0,
    "address": "1850 FAIRWAY DR",
    "city": "SAN LEANDRO",
    "zip": "94577",
    "county": "ALAMEDA",
    "phone": "(510) 433-1150",
    "lat": 37.704528,
    "lng": -122.164893
  },
  {
    "id": "630014664",
    "name": "DAVIS STREET PRIMARY CARE CLINIC",
    "npi": "1215358924",
    "hcaiId": "306014336",
    "businessName": "THE DAVIS STREET COMMUNITY CENTER INCORPORATED",
    "contactEmail": "DJOHNSON@DAVISSTREET.ORG",
    "categoryName": "PRIMARY CARE CLINIC",
    "categoryCode": "COMTYC",
    "licenseStatus": "ACTIVE",
    "inService": true,
    "licenseNumber": "550002661",
    "licenseEffectiveDate": "05/12/2025",
    "licenseExpirationDate": "05/11/2026",
    "dataDate": "10/18/2025",
    "capacity": 0,
    "address": "3081 TEAGARDEN STREET",
    "city": "SAN LEANDRO",
    "zip": "94577",
    "county": "ALAMEDA",
    "phone": "(510) 347-4620",
    "lat": 37.704987,
    "lng": -122.1534495
  },
  {
    "id": "630013664",
    "name": "HEELAS HEALTH CARE SERVICES INC.",
    "npi": "1457617359",
    "hcaiId": "406014303",
    "businessName": "HEELAS HEALTH CARE SERVICES INC.",
    "contactEmail": "INFO@HEELASHEALTHCARE.COM",
    "categoryName": "HOME HEALTH AGENCY",
    "categoryCode": "HHA",
    "licenseStatus": "ACTIVE",
    "inService": true,
    "licenseNumber": "550002123",
    "licenseEffectiveDate": "10/24/2025",
    "licenseExpirationDate": "10/23/2026",
    "dataDate": "10/18/2025",
    "capacity": 0,
    "address": "2777 ALVARADO STREET, SUITE B",
    "city": "SAN LEANDRO",
    "zip": "94577",
    "county": "ALAMEDA",
    "phone": "(510) 244-2401",
    "lat": 37.708326,
    "lng": -122.15448
  },
  {
    "id": "020000111",
    "name": "JONES CONVALESCENT HOSPITAL",
    "npi": "1659495604",
    "hcaiId": "206010855",
    "businessName": "SANHYD, INC.",
    "contactEmail": "DELLA.DELEON@HYCARE.NET",
    "categoryName": "SKILLED NURSING FACILITY",
    "categoryCode": "SNF",
    "licenseStatus": "ACTIVE",
    "inService": true,
    "licenseNumber": "020000051",
    "licenseEffectiveDate": "11/01/2025",
    "licenseExpirationDate": "10/31/2026",
    "dataDate": "10/18/2025",
    "capacity": 25,
    "address": "524 CALLAN AVENUE",
    "city": "SAN LEANDRO",
    "zip": "94577",
    "county": "ALAMEDA",
    "phone": "(510) 483-6200",
    "lat": 37.727532,
    "lng": -122.151132
  },
  {
    "id": "630015029",
    "name": "KAISER FOUNDATION HOSPITAL - SAN LEANDRO",
    "npi": "1649605403",
    "hcaiId": "106014337",
    "businessName": "KAISER FOUNDATION HOSPITALS",
    "contactEmail": "REGINALD.S.HORTINELA@KP.ORG",
    "categoryName": "GENERAL ACUTE CARE HOSPITAL",
    "categoryCode": "GACH",
    "licenseStatus": "ACTIVE",
    "inService": true,
    "licenseNumber": "550002678",
    "licenseEffectiveDate": "08/21/2025",
    "licenseExpirationDate": "06/02/2026",
    "dataDate": "10/18/2025",
    "capacity": 216,
    "address": "2500 MERCED STREET",
    "city": "SAN LEANDRO",
    "zip": "94577",
    "county": "ALAMEDA",
    "phone": "(510) 454-2872",
    "lat": 37.705599,
    "lng": -122.168286
  },
  {
    "id": "140000148",
    "name": "KINDRED HOSPITAL - SAN FRANCISCO BAY AREA",
    "npi": "1306921929",
    "hcaiId": "106010887",
    "businessName": "THC - ORANGE COUNTY, LLC",
    "contactEmail": "LARRYL.FOSTER@KINDRED.COM",
    "categoryName": "GENERAL ACUTE CARE HOSPITAL",
    "categoryCode": "GACH",
    "licenseStatus": "ACTIVE",
    "inService": true,
    "licenseNumber": "140000066",
    "licenseEffectiveDate": "03/01/2025",
    "licenseExpirationDate": "02/28/2026",
    "dataDate": "10/18/2025",
    "capacity": 99,
    "address": "2800 BENEDICT DRIVE",
    "city": "SAN LEANDRO",
    "zip": "94577",
    "county": "ALAMEDA",
    "phone": "(510) 346-1800",
    "lat": 37.71612,
    "lng": -122.130801
  },
  {
    "id": "020000077",
    "name": "SAN LEANDRO HEALTHCARE CENTER",
    "npi": "1790850329",
    "hcaiId": "206010944",
    "businessName": "SAN LEANDRO HEALTHCARE CENTER, INC.",
    "contactEmail": "CARLOS.CORTEZ@SANLEANDROHC.NET",
    "categoryName": "SKILLED NURSING FACILITY",
    "categoryCode": "SNF",
    "licenseStatus": "ACTIVE",
    "inService": true,
    "licenseNumber": "020000097",
    "licenseEffectiveDate": "11/01/2025",
    "licenseExpirationDate": "10/31/2026",
    "dataDate": "10/18/2025",
    "capacity": 62,
    "address": "368 JUANA AVENUE",
    "city": "SAN LEANDRO",
    "zip": "94577",
    "county": "ALAMEDA",
    "phone": "(510) 357-4015",
    "lat": 37.724625,
    "lng": -122.1517215
  },
  {
    "id": "630014575",
    "name": "SAN LEANDRO MARINA DIALYSIS",
    "npi": null,
    "hcaiId": "306014335",
    "businessName": "SAPELO DIALYSIS LLC",
    "contactEmail": "CAL&C@DAVITA.COM",
    "categoryName": "CHRONIC DIALYSIS CLINIC",
    "categoryCode": "ESRD/CDC",
    "licenseStatus": "ACTIVE",
    "inService": true,
    "licenseNumber": "550002586",
    "licenseEffectiveDate": "02/19/2025",
    "licenseExpirationDate": "02/18/2026",
    "dataDate": "10/18/2025",
    "capacity": 24,
    "address": "2551 MERCED ST",
    "city": "SAN LEANDRO",
    "zip": "94577",
    "county": "ALAMEDA",
    "phone": "(510) 352-1207",
    "lat": 37.704618,
    "lng": -122.168826
  },
  {
    "id": "630012318",
    "name": "SATELLITE HEALTHCARE SAN LEANDRO",
    "npi": "1386885671",
    "hcaiId": "306014263",
    "businessName": "SATELLITE DIALYSIS OF SAN LEANDRO LLC",
    "contactEmail": "LICENSING@SATELLITEHEALTH.COM",
    "categoryName": "CHRONIC DIALYSIS CLINIC",
    "categoryCode": "ESRD/CDC",
    "licenseStatus": "ACTIVE",
    "inService": true,
    "licenseNumber": "550001149",
    "licenseEffectiveDate": "11/17/2024",
    "licenseExpirationDate": "11/16/2025",
    "dataDate": "10/18/2025",
    "capacity": 25,
    "address": "801 DAVIS STREET",
    "city": "SAN LEANDRO",
    "zip": "94577",
    "county": "ALAMEDA",
    "phone": "(510) 352-4011",
    "lat": 37.722591,
    "lng": -122.163759
  },
  {
    "id": "630014250",
    "name": "SATELLITE HEALTHCARE WEST SAN LEANDRO",
    "npi": null,
    "hcaiId": "306014318",
    "businessName": "SATELLITE DIALYSIS OF WEST SAN LEANDRO, LLC",
    "contactEmail": "LICENSING@SATELLITEHEALTH.COM",
    "categoryName": "CHRONIC DIALYSIS CLINIC",
    "categoryCode": "ESRD/CDC",
    "licenseStatus": "ACTIVE",
    "inService": true,
    "licenseNumber": "550002257",
    "licenseEffectiveDate": "04/11/2025",
    "licenseExpirationDate": "04/10/2026",
    "dataDate": "10/18/2025",
    "capacity": 27,
    "address": "2401 MERCED ST, SUITE 110",
    "city": "SAN LEANDRO",
    "zip": "94577",
    "county": "ALAMEDA",
    "phone": "(650) 404-3600",
    "lat": 37.70650998,
    "lng": -122.170092
  },
  {
    "id": "630014745",
    "name": "SCHRYVER MEDICAL SALES AND MARKETING INC",
    "npi": null,
    "hcaiId": null,
    "businessName": null,
    "contactEmail": null,
    "categoryName": "OTHER",
    "categoryCode": "UNLICEN",
    "licenseStatus": null,
    "inService": null,
    "licenseNumber": null,
    "licenseEffectiveDate": null,
    "licenseExpirationDate": null,
    "dataDate": "10/18/2025",
    "capacity": 0,
    "address": "526 MCCORMICK ST",
    "city": "SAN LEANDRO",
    "zip": "94577",
    "county": "ALAMEDA",
    "phone": null,
    "lat": 37.724976,
    "lng": -122.189832
  },
  {
    "id": "630014059",
    "name": "SDXRAY",
    "npi": null,
    "hcaiId": null,
    "businessName": null,
    "contactEmail": null,
    "categoryName": "OTHER",
    "categoryCode": "UNLICEN",
    "licenseStatus": null,
    "inService": null,
    "licenseNumber": null,
    "licenseEffectiveDate": null,
    "licenseExpirationDate": null,
    "dataDate": "10/18/2025",
    "capacity": 0,
    "address": "1933 DAVIS ST, SUITE 217",
    "city": "SAN LEANDRO",
    "zip": "94577",
    "county": "ALAMEDA",
    "phone": null,
    "lat": 37.716489,
    "lng": -122.179293
  },
  {
    "id": "630014285",
    "name": "SENIOR PRO SERVICES, LLC",
    "npi": "1528307626",
    "hcaiId": "406014334",
    "businessName": "SENIOR PRO SERVICES, LLC",
    "contactEmail": "FTAYE@SENIORPROSERVICES.COM",
    "categoryName": "HOME HEALTH AGENCY",
    "categoryCode": "HHA",
    "licenseStatus": "ACTIVE",
    "inService": true,
    "licenseNumber": "550002575",
    "licenseEffectiveDate": "01/30/2025",
    "licenseExpirationDate": "01/29/2026",
    "dataDate": "10/18/2025",
    "capacity": 0,
    "address": "595 ESTUDILLO AVE, SUITE A",
    "city": "SAN LEANDRO",
    "zip": "94577",
    "county": "ALAMEDA",
    "phone": "(510) 357-2222",
    "lat": 37.72692,
    "lng": -122.1479955
  },
  {
    "id": "630011879",
    "name": "WELLBOUND OF SAN LEANDRO",
    "npi": "1093996738",
    "hcaiId": null,
    "businessName": null,
    "contactEmail": null,
    "categoryName": "CHRONIC DIALYSIS CLINIC",
    "categoryCode": "ESRD",
    "licenseStatus": null,
    "inService": null,
    "licenseNumber": null,
    "licenseEffectiveDate": null,
    "licenseExpirationDate": null,
    "dataDate": "10/18/2025",
    "capacity": 0,
    "address": "1040 DAVIS ST, SUITE 101",
    "city": "SAN LEANDRO",
    "zip": "94577",
    "county": "ALAMEDA",
    "phone": null,
    "lat": 37.722258,
    "lng": -122.1667425
  }
]