[
  {
    "id": "630011157",
    "name": "ALAMEDA COUNTY HEALTH CARE SERVICES-MOBILE VAN #1",
    "npi": null,
    "hcaiId": null,
    "businessName": null,
    "contactEmail": null,
    "categoryName": "PRIMARY CARE CLINIC",
    "categoryCode": "FQHC",
    "licenseStatus": null,
    "inService": null,
    "licenseNumber": null,
    "licenseEffectiveDate": null,
    "licenseExpirationDate": null,
    "dataDate": "10/18/2025",
    "capacity": 0,
    "address": "15400 FOOTHILL BLVD",
    "city": "SAN LEANDRO",
    "zip": "94578",
    "county": "ALAMEDA",
    "phone": null,
    "lat": 37.707795,
    "lng": -122.11884
  },
  {
    "id": "630011158",
    "name": "ALAMEDA COUNTY HEALTH CARE SERVICES-MOBILE VAN #2",
    "npi": null,
    "hcaiId": null,
    "businessName": null,
    "contactEmail": null,
    "categoryName": "PRIMARY CARE CLINIC",
    "categoryCode": "FQHC",
    "licenseStatus": null,
    "inService": null,
    "licenseNumber": null,
    "licenseEffectiveDate": null,
    "licenseExpirationDate": null,
    "dataDate": "10/18/2025",
    "capacity": 0,
    "address": "15400 FOOTHILL BLVD",
    "city": "SAN LEANDRO",
    "zip": "94578",
    "county": "ALAMEDA",
    "phone": null,
    "lat": 37.707795,
    "lng": -122.11884
  },
  {
    "id": "140000321",
    "name": "ALAMEDA COUNTY MEDICAL CENTER D/P SNF",
    "npi": "1235261652",
    "hcaiId": null,
    "businessName": "ALAMEDA HEALTH SYSTEM",
    "contactEmail": null,
    "categoryName": "SKILLED NURSING FACILITY",
    "categoryCode": "SNF",
    "licenseStatus": "ACTIVE",
    "inService": true,
    "licenseNumber": "140000046",
    "licenseEffectiveDate": "11/01/2024",
    "licenseExpirationDate": "10/31/2025",
    "dataDate": "10/18/2025",
    "capacity": 109,
    "address": "15400 FOOTHILL BOULEVARD",
    "city": "SAN LEANDRO",
    "zip": "94578",
    "county": "ALAMEDA",
    "phone": "(510) 895-4200",
    "lat": 37.707795,
    "lng": -122.11884
  },
  {
    "id": "630013891",
    "name": "ALL SAINT'S MAUBERT",
    "npi": "1225425929",
    "hcaiId": "206014308",
    "businessName": "MAUBERTIDENCE OPCO, LLC",
    "contactEmail": "SUNNY.SHARMA@ALLSAINTSHC.COM",
    "categoryName": "SKILLED NURSING FACILITY",
    "categoryCode": "SNF",
    "licenseStatus": "ACTIVE",
    "inService": true,
    "licenseNumber": "550002156",
    "licenseEffectiveDate": "10/30/2025",
    "licenseExpirationDate": "10/29/2026",
    "dataDate": "10/18/2025",
    "capacity": 14,
    "address": "15731 MAUBERT AVENUE",
    "city": "SAN LEANDRO",
    "zip": "94578",
    "county": "ALAMEDA",
    "phone": "(925) 389-1950",
    "lat": 37.704519,
    "lng": -122.118741
  },
  {
    "id": "020000070",
    "name": "ALL SAINT'S SUBACUTE & TRANSITIONAL CARE",
    "npi": "1205213204",
    "hcaiId": "206010854",
    "businessName": "ALL SAINTSIDENCE OPCO, LLC",
    "contactEmail": "KALEB.HATCH@ALLSAINTSHC.COM",
    "categoryName": "SKILLED NURSING FACILITY",
    "categoryCode": "SNF",
    "licenseStatus": "ACTIVE",
    "inService": true,
    "licenseNumber": "020000050",
    "licenseEffectiveDate": "11/03/2024",
    "licenseExpirationDate": "11/02/2025",
    "dataDate": "10/18/2025",
    "capacity": 70,
    "address": "1652 MONO AVENUE",
    "city": "SAN LEANDRO",
    "zip": "94578",
    "county": "ALAMEDA",
    "phone": "(915) 383-6934",
    "lat": 37.704429,
    "lng": -122.119479
  },
  {
    "id": "630025402",
    "name": "CARE FIRST HOME HEALTH, LLC",
    "npi": null,
    "hcaiId": "406018086",
    "businessName": "CARE FIRST HOME HEALTH, LLC",
    "contactEmail": "INFO@CAREFIRSTHH.COM",
    "categoryName": "HOME HEALTH AGENCY",
    "categoryCode": "HHA",
    "licenseStatus": "ACTIVE",
    "inService": true,
    "licenseNumber": "550008766",
    "licenseEffectiveDate": "10/09/2025",
    "licenseExpirationDate": "10/08/2026",
    "dataDate": "10/18/2025",
    "capacity": 0,
    "address": "14895 E 14TH ST, SUITE 300",
    "city": "SAN LEANDRO",
    "zip": "94578",
    "county": "ALAMEDA",
    "phone": "(510) 878-9288",
    "lat": 37.70604,
    "lng": -122.130639
  },
  {
    "id": "140000634",
    "name": "EAST BAY PERITONEAL DIALYSIS CENTER",
    "npi": "1184683401",
    "hcaiId": "306014020",
    "businessName": null,
    "contactEmail": null,
    "categoryName": "CHRONIC DIALYSIS CLINIC",
    "categoryCode": "ESRD",
    "licenseStatus": null,
    "inService": null,
    "licenseNumber": null,
    "licenseEffectiveDate": null,
    "licenseExpirationDate": null,
    "dataDate": "10/18/2025",
    "capacity": 0,
    "address": "13939 E 14TH ST, SUITE 110",
    "city": "SAN LEANDRO",
    "zip": "94578",
    "county": "ALAMEDA",
    "phone": "(510) 614-1380",
    "lat": 37.713699,
    "lng": -122.140899
  },
  {
    "id": "140000766",
    "name": "EDEN COMMUNITY MENTAL HEALTH CENTER",
    "npi": null,
    "hcaiId": null,
    "businessName": null,
    "contactEmail": null,
    "categoryName": "OTHER",
    "categoryCode": "UNLICEN",
    "licenseStatus": null,
    "inService": null,
    "licenseNumber": null,
    "licenseEffectiveDate": null,
    "licenseExpirationDate": null,
    "dataDate": "10/18/2025",
    "capacity": 0,
    "address": "15400 FOOTHILL BLVD",
    "city": "SAN LEANDRO",
    "zip": "94578",
    "county": "ALAMEDA",
    "phone": "(510) 667-7500",
    "lat": 37.707795,
    "lng": -122.11884
  },
  {
    "id": "140000184",
    "name": "FAIRMONT HOSPITAL",
    "npi": null,
    "hcaiId": "106010811",
    "businessName": "ALAMEDA HEALTH SYSTEM",
    "contactEmail": "ADALY@ACMEDCTR.ORG",
    "categoryName": "GENERAL ACUTE CARE HOSPITAL",
    "categoryCode": "GACH",
    "licenseStatus": "ACTIVE",
    "inService": true,
    "licenseNumber": "140000046",
    "licenseEffectiveDate": "11/01/2024",
    "licenseExpirationDate": "10/31/2025",
    "dataDate": "10/18/2025",
    "capacity": 0,
    "address": "15400 FOOTHILL BOULEVARD",
    "city": "SAN LEANDRO",
    "zip": "94578",
    "county": "ALAMEDA",
    "phone": "(510) 667-7800",
    "lat": 37.707795,
    "lng": -122.11884
  },
  {
    "id": "140001161",
    "name": "FAMILY HEALTH & WELLNESS REHABILITATION",
    "npi": null,
    "hcaiId": null,
    "businessName": null,
    "contactEmail": null,
    "categoryName": "OTHER",
    "categoryCode": "UNLICEN",
    "licenseStatus": null,
    "inService": null,
    "licenseNumber": null,
    "licenseEffectiveDate": null,
    "licenseExpirationDate": null,
    "dataDate": "10/18/2025",
    "capacity": 0,
    "address": "15051 HESPERIAN BLVD",
    "city": "SAN LEANDRO",
    "zip": "94578",
    "county": "ALAMEDA",
    "phone": "(510) 276-7143",
    "lat": 37.703484,
    "lng": -122.1304005
  },
  {
    "id": "630019956",
    "name": "FUENTE WELLNESS CENTER",
    "npi": null,
    "hcaiId": null,
    "businessName": "LA CLINICA DE LA RAZA, INC.",
    "contactEmail": null,
    "categoryName": "PRIMARY CARE CLINIC",
    "categoryCode": "COMTYC",
    "licenseStatus": "ACTIVE",
    "inService": true,
    "licenseNumber": "550000036",
    "licenseEffectiveDate": "06/20/2025",
    "licenseExpirationDate": "06/19/2026",
    "dataDate": "10/18/2025",
    "capacity": 0,
    "address": "16335 E 14TH ST, FLOOR 2ND",
    "city": "SAN LEANDRO",
    "zip": "94578",
    "county": "ALAMEDA",
    "phone": null,
    "lat": 37.6954432,
    "lng": -122.1146847
  },
  {
    "id": "020001282",
    "name": "GEORGE MARK CHILDREN'S HOUSE",
    "npi": null,
    "hcaiId": "206014176",
    "businessName": "GEORGE MARK CHILDREN'S HOUSE",
    "contactEmail": "SELIASSEN@GEORGEMARK.ORG",
    "categoryName": "CONGREGATE LIVING HEALTH FACILITY",
    "categoryCode": "CLHF",
    "licenseStatus": "ACTIVE",
    "inService": true,
    "licenseNumber": "020000648",
    "licenseEffectiveDate": "03/10/2025",
    "licenseExpirationDate": "03/09/2026",
    "dataDate": "10/18/2025",
    "capacity": 9,
    "address": "2121 GEORGE MARK LN",
    "city": "SAN LEANDRO",
    "zip": "94578",
    "county": "ALAMEDA",
    "phone": "(510) 346-4624",
    "lat": 37.708533,
    "lng": -122.1162165
  },
  {
    "id": "140000422",
    "name": "JOHN GEORGE PSYCHIATRIC HOSPITAL",
    "npi": "1396764353",
    "hcaiId": null,
    "businessName": "ALAMEDA HEALTH SYSTEM",
    "contactEmail": null,
    "categoryName": "ACUTE PSYCHIATRIC HOSPITAL",
    "categoryCode": "APH",
    "licenseStatus": "ACTIVE",
    "inService": true,
    "licenseNumber": "140000046",
    "licenseEffectiveDate": "11/01/2024",
    "licenseExpirationDate": "10/31/2025",
    "dataDate": "10/18/2025",
    "capacity": 80,
    "address": "2060 FAIRMONT DRIVE",
    "city": "SAN LEANDRO",
    "zip": "94578",
    "county": "ALAMEDA",
    "phone": "(510) 346-1300",
    "lat": 37.71072,
    "lng": -122.1202305
  },
  {
    "id": "630021907",
    "name": "LIFELONG EDEN HEALTH CENTER",
    "npi": "1976931295",
    "hcaiId": null,
    "businessName": "LIFELONG MEDICAL CARE",
    "contactEmail": null,
    "categoryName": "PRIMARY CARE CLINIC",
    "categoryCode": "COMTYC",
    "licenseStatus": "ACTIVE",
    "inService": true,
    "licenseNumber": "550003292",
    "licenseEffectiveDate": "08/12/2025",
    "licenseExpirationDate": "11/07/2025",
    "dataDate": "10/18/2025",
    "capacity": 0,
    "address": "2045 FAIRMONT DR",
    "city": "SAN LEANDRO",
    "zip": "94578",
    "county": "ALAMEDA",
    "phone": null,
    "lat": 37.709703,
    "lng": -122.1191145
  },
  {
    "id": "630017080",
    "name": "NATIVE AMERICAN HEALTH CENTER",
    "npi": "1689863516",
    "hcaiId": null,
    "businessName": "NATIVE AMERICAN HEALTH CENTER, INC.",
    "contactEmail": null,
    "categoryName": "PRIMARY CARE CLINIC",
    "categoryCode": "COMTYC",
    "licenseStatus": "ACTIVE",
    "inService": true,
    "licenseNumber": "140000155",
    "licenseEffectiveDate": "11/01/2025",
    "licenseExpirationDate": "10/31/2026",
    "dataDate": "10/18/2025",
    "capacity": 0,
    "address": "2251 BANCROFT AVE",
    "city": "SAN LEANDRO",
    "zip": "94578",
    "county": "ALAMEDA",
    "phone": null,
    "lat": 37.717011,
    "lng": -122.1432435
  },
  {
    "id": "630027598",
    "name": "OHI - HILLSIDE ELEMENTARY",
    "npi": "1851522015",
    "hcaiId": null,
    "businessName": "LA CLINICA DE LA RAZA, INC.",
    "contactEmail": null,
    "categoryName": "PRIMARY CARE CLINIC",
    "categoryCode": "COMTYC",
    "licenseStatus": "ACTIVE",
    "inService": true,
    "licenseNumber": "550001178",
    "licenseEffectiveDate": "11/12/2025",
    "licenseExpirationDate": "11/11/2026",
    "dataDate": "10/18/2025",
    "capacity": 0,
    "address": "15980 MARCELLA ST",
    "city": "SAN LEANDRO",
    "zip": "94578",
    "county": "ALAMEDA",
    "phone": null,
    "lat": 37.702027,
    "lng": -122.116344
  },
  {
    "id": "630012238",
    "name": "SAN LEANDRO DIALYSIS",
    "npi": "1659513323",
    "hcaiId": "306014265",
    "businessName": "SHAYANO DIALYSIS, LLC",
    "contactEmail": "CAL_C@DAVITA.COM",
    "categoryName": "CHRONIC DIALYSIS CLINIC",
    "categoryCode": "ESRD/CDC",
    "licenseStatus": "ACTIVE",
    "inService": true,
    "licenseNumber": "550001164",
    "licenseEffectiveDate": "11/07/2024",
    "licenseExpirationDate": "11/06/2025",
    "dataDate": "10/18/2025",
    "capacity": 24,
    "address": "15555 E 14TH STREET, SUITE 520",
    "city": "SAN LEANDRO",
    "zip": "94578",
    "county": "ALAMEDA",
    "phone": "(510) 317-6510",
    "lat": 37.700937,
    "lng": -122.125752
  },
  {
    "id": "630013913",
    "name": "SAN LEANDRO HOSPITAL",
    "npi": "1396764353",
    "hcaiId": "106013619",
    "businessName": "ALAMEDA HEALTH SYSTEM",
    "contactEmail": "NILPEREZ@ALAMEDAHEALTHSYSTEM.ORG",
    "categoryName": "GENERAL ACUTE CARE HOSPITAL",
    "categoryCode": "GACH",
    "licenseStatus": "ACTIVE",
    "inService": true,
    "licenseNumber": "140000046",
    "licenseEffectiveDate": "11/01/2024",
    "licenseExpirationDate": "10/31/2025",
    "dataDate": "10/18/2025",
    "capacity": 91,
    "address": "13855 E 14TH STREET",
    "city": "SAN LEANDRO",
    "zip": "94578",
    "county": "ALAMEDA",
    "phone": "(510) 595-7480",
    "lat": 37.7127,
    "lng": -122.143275
  },
  {
    "id": "140000713",
    "name": "SAN LEANDRO SURGERY CENTER",
    "npi": "1952302895",
    "hcaiId": "306014035",
    "businessName": "SAN LEANDRO SURGERY CENTER LTD",
    "contactEmail": "LINDAJ@SUTTERHEALTH.ORG",
    "categoryName": "SURGICAL CLINIC",
    "categoryCode": "ASC",
    "licenseStatus": "INACTIVE - CAPEN DECISION",
    "inService": false,
    "licenseNumber": "140000348",
    "licenseEffectiveDate": "12/01/2007",
    "licenseExpirationDate": "11/30/2008",
    "dataDate": "10/18/2025",
    "capacity": 0,
    "address": "15035 E 14TH STREET",
    "city": "SAN LEANDRO",
    "zip": "94578",
    "county": "ALAMEDA",
    "phone": "(510) 276-2800",
    "lat": 37.704744,
    "lng": -122.128596
  },
  {
    "id": "630015134",
    "name": "TIBURCIO VASQUEZ HEALTH CENTER, INC.",
    "npi": null,
    "hcaiId": "306014338",
    "businessName": "TIBURCIO VASQUEZ HEALTH CENTER, INC.",
    "contactEmail": "MSALGADO@TVHC.ORG",
    "categoryName": "PRIMARY CARE CLINIC",
    "categoryCode": "COMTYC",
    "licenseStatus": "ACTIVE",
    "inService": true,
    "licenseNumber": "550002846",
    "licenseEffectiveDate": "09/30/2025",
    "licenseExpirationDate": "09/29/2026",
    "dataDate": "10/18/2025",
    "capacity": 0,
    "address": "16110 E 14TH ST",
    "city": "SAN LEANDRO",
    "zip": "94578",
    "county": "ALAMEDA",
    "phone": "(510) 690-6052",
    "lat": 37.697805,
    "lng": -122.1174405
  },
  {
    "id": "630024691",
    "name": "TIBURCIO VASQUEZ HEALTH CENTER, INC. C/O: SAN LEANDRO MOBILE VAN",
    "npi": null,
    "hcaiId": null,
    "businessName": "TIBURCIO VASQUEZ HEALTH CENTER, INC.",
    "contactEmail": "MSALGADO@TVHC.ORG",
    "categoryName": "PRIMARY CARE CLINIC",
    "categoryCode": "COMTYC",
    "licenseStatus": "ACTIVE",
    "inService": true,
    "licenseNumber": "550002846",
    "licenseEffectiveDate": "09/30/2025",
    "licenseExpirationDate": "09/29/2026",
    "dataDate": "10/18/2025",
    "capacity": 0,
    "address": "16110 E 14TH ST",
    "city": "SAN LEANDRO",
    "zip": "94578",
    "county": "ALAMEDA",
    "phone": "(510) 690-6052",
    "lat": 37.697805,
    "lng": -122.1174405
  },
  {
    "id": "020001252",
    "name": "VESTAL HOUSE ICF/DD-H",
    "npi": "1730396128",
    "hcaiId": null,
    "businessName": null,
    "contactEmail": "VESTALHOUSEICFDDH/2@GMAIL.COM",
    "categoryName": "INTERMEDIATE CARE FACILITY-DD/H/N/CN/IID",
    "categoryCode": "ICFDDH",
    "licenseStatus": "ACTIVE",
    "inService": true,
    "licenseNumber": "020000635",
    "licenseEffectiveDate": "05/07/2025",
    "licenseExpirationDate": "05/06/2026",
    "dataDate": "10/18/2025",
    "capacity": 6,
    "address": "1730 142ND AVENUE",
    "city": "SAN LEANDRO",
    "zip": "94578",
    "county": "ALAMEDA",
    "phone": "(510) 614-7900",
    "lat": 37.715931,
    "lng": -122.1340185
  },
  {
    "id": "020000275",
    "name": "WASHINGTON CENTER",
    "npi": "1306893904",
    "hcaiId": "206010988",
    "businessName": "14766 WASHINGTON AVENUE OPERATIONS LLC",
    "contactEmail": "ADMINISTRATOR@WASHINGTONCENTER.COM",
    "categoryName": "SKILLED NURSING FACILITY",
    "categoryCode": "SNF",
    "licenseStatus": "ACTIVE",
    "inService": true,
    "licenseNumber": "020000260",
    "licenseEffectiveDate": "01/21/2025",
    "licenseExpirationDate": "01/20/2026",
    "dataDate": "10/18/2025",
    "capacity": 99,
    "address": "14766 WASHINGTON AVENUE",
    "city": "SAN LEANDRO",
    "zip": "94578",
    "county": "ALAMEDA",
    "phone": "(510) 352-2211",
    "lat": 37.697724,
    "lng": -122.139018
  },
  {
    "id": "630013093",
    "name": "WILLOW ROCK CENTER",
    "npi": "1053538348",
    "hcaiId": null,
    "businessName": null,
    "contactEmail": null,
    "categoryName": "PSYCHOLOGY CLINIC",
    "categoryCode": "PSYCHC",
    "licenseStatus": null,
    "inService": null,
    "licenseNumber": null,
    "licenseEffectiveDate": null,
    "licenseExpirationDate": null,
    "dataDate": "10/18/2025",
    "capacity": 0,
    "address": "2050 FAIRMONT DRIVE",
    "city": "SAN LEANDRO",
    "zip": "94578",
    "county": "ALAMEDA",
    "phone": "(510) 895-5502",
    "lat": 37.709487,
    "lng": -122.118381
  }
]