[
  {
    "id": "630016731",
    "name": "1HEALTH HOME HEALTH INC.",
    "npi": "1639526833",
    "hcaiId": "406074202",
    "businessName": "1HEALTH HOME HEALTH INC.",
    "contactEmail": "1HEALTH@1HEALTHHHA.COM",
    "categoryName": "HOME HEALTH AGENCY",
    "categoryCode": "HHA",
    "licenseStatus": "ACTIVE",
    "inService": true,
    "licenseNumber": "550003980",
    "licenseEffectiveDate": "09/01/2025",
    "licenseExpirationDate": "08/31/2026",
    "dataDate": "10/18/2025",
    "capacity": 0,
    "address": "3170 CROW CANYON PL, SUITE 130",
    "city": "SAN RAMON",
    "zip": "94583",
    "county": "CONTRA COSTA",
    "phone": "(925) 804-6325",
    "lat": 37.774674,
    "lng": -121.972644
  },
  {
    "id": "020000427",
    "name": "ACCENTCARE HOME HEALTH OF CALIFORNIA, INC.",
    "npi": "1972559961",
    "hcaiId": "406013682",
    "businessName": "ACCENTCARE HOME HEALTH OF CALIFORNIA, INC.",
    "contactEmail": "CGENTILE@ACCENTCARE.COM",
    "categoryName": "HOME HEALTH AGENCY",
    "categoryCode": "HHA",
    "licenseStatus": "ACTIVE",
    "inService": true,
    "licenseNumber": "020000285",
    "licenseEffectiveDate": "12/01/2024",
    "licenseExpirationDate": "11/30/2025",
    "dataDate": "10/18/2025",
    "capacity": 0,
    "address": "3170 CROW CANYON PLACE, SUITE 270",
    "city": "SAN RAMON",
    "zip": "94583",
    "county": "CONTRA COSTA",
    "phone": "(800) 734-1604",
    "lat": 37.774674,
    "lng": -121.972644
  },
  {
    "id": "630018266",
    "name": "BAY HOSPICE CARE, INC",
    "npi": null,
    "hcaiId": "406072247",
    "businessName": "BAY HOSPICE CARE, INC.",
    "contactEmail": "JESSICA@BAYHOSPICECARE.COM",
    "categoryName": "HOSPICE",
    "categoryCode": "HOSPICE",
    "licenseStatus": "ACTIVE",
    "inService": true,
    "licenseNumber": "550005260",
    "licenseEffectiveDate": "03/11/2025",
    "licenseExpirationDate": "01/29/2026",
    "dataDate": "10/18/2025",
    "capacity": 0,
    "address": "2551 SAN RAMON VALLEY BLVD, SUITE 221",
    "city": "SAN RAMON",
    "zip": "94583",
    "county": "CONTRA COSTA",
    "phone": "(925) 718-8161",
    "lat": 37.771461,
    "lng": -121.974696
  },
  {
    "id": "140001028",
    "name": "CAROLYN S. HAMILTON",
    "npi": null,
    "hcaiId": null,
    "businessName": null,
    "contactEmail": null,
    "categoryName": "OTHER",
    "categoryCode": "UNLICEN",
    "licenseStatus": null,
    "inService": null,
    "licenseNumber": null,
    "licenseEffectiveDate": null,
    "licenseExpirationDate": null,
    "dataDate": "10/18/2025",
    "capacity": 0,
    "address": "2817 CROW CANYON RD, SUITE 104",
    "city": "SAN RAMON",
    "zip": "94583",
    "county": "CONTRA COSTA",
    "phone": "(925) 838-9846",
    "lat": 37.774224,
    "lng": -121.9814505
  },
  {
    "id": "630020589",
    "name": "COMPASSIONATE CARE HOSPICE",
    "npi": "1891304390",
    "hcaiId": "406386020",
    "businessName": "GRS HOSPICE, INC.",
    "contactEmail": "GRSHOSPICE@GMAIL.COM",
    "categoryName": "HOSPICE",
    "categoryCode": "HOSPICE",
    "licenseStatus": "ACTIVE",
    "inService": true,
    "licenseNumber": "550006206",
    "licenseEffectiveDate": "04/13/2025",
    "licenseExpirationDate": "04/12/2027",
    "dataDate": "10/18/2025",
    "capacity": 0,
    "address": "2821 CROW CANYON RD, SUITE 101",
    "city": "SAN RAMON",
    "zip": "94583",
    "county": "CONTRA COSTA",
    "phone": "(415) 651-3632",
    "lat": 37.77466529,
    "lng": -121.9804112
  },
  {
    "id": "140001366",
    "name": "CONNIE'S ICF/DD-H",
    "npi": "1700917515",
    "hcaiId": null,
    "businessName": null,
    "contactEmail": "CONNIEICF@COMCAST.NET",
    "categoryName": "INTERMEDIATE CARE FACILITY-DD/H/N/CN/IID",
    "categoryCode": "ICFDDH",
    "licenseStatus": "ACTIVE",
    "inService": true,
    "licenseNumber": "140000703",
    "licenseEffectiveDate": "05/10/2025",
    "licenseExpirationDate": "05/09/2026",
    "dataDate": "10/18/2025",
    "capacity": 6,
    "address": "237 KENT PLACE",
    "city": "SAN RAMON",
    "zip": "94583",
    "county": "CONTRA COSTA",
    "phone": "(925) 829-1938",
    "lat": 37.727622,
    "lng": -121.942791
  },
  {
    "id": "630007161",
    "name": "CVH HOME HEALTH SERVICES",
    "npi": "1083797880",
    "hcaiId": "406074170",
    "businessName": "CASTRO VALLEY HEALTH INC.",
    "contactEmail": "COMPLIANCE@CVHCARE.COM",
    "categoryName": "HOME HEALTH AGENCY",
    "categoryCode": "HHA",
    "licenseStatus": "ACTIVE",
    "inService": true,
    "licenseNumber": "550000134",
    "licenseEffectiveDate": "03/07/2025",
    "licenseExpirationDate": "03/06/2026",
    "dataDate": "10/18/2025",
    "capacity": 0,
    "address": "39 BETA CT, SUITE 100",
    "city": "SAN RAMON",
    "zip": "94583",
    "county": "CONTRA COSTA",
    "phone": "(510) 690-1930",
    "lat": 37.78072704,
    "lng": -121.9818253
  },
  {
    "id": "630019498",
    "name": "ENHANCE HOME HEALTH SERVICES",
    "npi": null,
    "hcaiId": "406073114",
    "businessName": "ENHANCE HOME HEALTH SERVICES",
    "contactEmail": "MANAGEMENT@CAREPLUS-HHS.COM",
    "categoryName": "HOME HEALTH AGENCY",
    "categoryCode": "HHA",
    "licenseStatus": "ACTIVE",
    "inService": true,
    "licenseNumber": "550005740",
    "licenseEffectiveDate": "09/25/2025",
    "licenseExpirationDate": "09/24/2026",
    "dataDate": "10/18/2025",
    "capacity": 0,
    "address": "6101 BOLLINGER CANYON RD, SUITE 380, 381",
    "city": "SAN RAMON",
    "zip": "94583",
    "county": "CONTRA COSTA",
    "phone": "(925) 804-6551",
    "lat": 37.76206164,
    "lng": -121.9579924
  },
  {
    "id": "630016691",
    "name": "GATEWAY HOME HEALTH CORP.",
    "npi": "1861846693",
    "hcaiId": "406074195",
    "businessName": "GATEWAY HOME HEALTH CORP.",
    "contactEmail": "CORPORATE@GATEWAYHOMEHEALTH.COM",
    "categoryName": "HOME HEALTH AGENCY",
    "categoryCode": "HHA",
    "licenseStatus": "ACTIVE",
    "inService": true,
    "licenseNumber": "550003805",
    "licenseEffectiveDate": "12/13/2024",
    "licenseExpirationDate": "12/12/2025",
    "dataDate": "10/18/2025",
    "capacity": 0,
    "address": "10 CROW CANYON CT, SUITE 210",
    "city": "SAN RAMON",
    "zip": "94583",
    "county": "CONTRA COSTA",
    "phone": "(925) 322-4455",
    "lat": 37.7778889,
    "lng": -121.9818574
  },
  {
    "id": "630019910",
    "name": "GILEAD WEST CARE SERVICES LLC",
    "npi": null,
    "hcaiId": "406075763",
    "businessName": "GILEAD WEST CARE SERVICES LLC",
    "contactEmail": "INFO@GILEADWESTCARE.COM",
    "categoryName": "HOME HEALTH AGENCY",
    "categoryCode": "HHA",
    "licenseStatus": "ACTIVE",
    "inService": true,
    "licenseNumber": "550007776",
    "licenseEffectiveDate": "01/07/2025",
    "licenseExpirationDate": "01/06/2026",
    "dataDate": "10/18/2025",
    "capacity": 0,
    "address": "2411 OLD CROW CANYON RD, SUITE 195",
    "city": "SAN RAMON",
    "zip": "94583",
    "county": "CONTRA COSTA",
    "phone": "(925) 208-9250",
    "lat": 37.779003,
    "lng": -121.980897
  },
  {
    "id": "630013553",
    "name": "GRACE HOSPICE AND PALLIATIVE CARE, INC.",
    "npi": null,
    "hcaiId": "406074166",
    "businessName": "GRACE HOSPICE AND PALLIATIVE CARE, INC.",
    "contactEmail": "MARIA.GRACEHOSPICE@GMAIL.COM",
    "categoryName": "HOSPICE",
    "categoryCode": "HOSPICE",
    "licenseStatus": "ACTIVE",
    "inService": true,
    "licenseNumber": "550002239",
    "licenseEffectiveDate": "03/28/2023",
    "licenseExpirationDate": "03/27/2025",
    "dataDate": "10/18/2025",
    "capacity": 0,
    "address": "6101 BOLLINGER CANYON RD, SUITE 390",
    "city": "SAN RAMON",
    "zip": "94583",
    "county": "CONTRA COSTA",
    "phone": "(925) 803-7622",
    "lat": 37.76206164,
    "lng": -121.9579924
  },
  {
    "id": "140000612",
    "name": "JOANNE H. DOHALLOW",
    "npi": null,
    "hcaiId": null,
    "businessName": null,
    "contactEmail": null,
    "categoryName": "OTHER",
    "categoryCode": "UNLICEN",
    "licenseStatus": null,
    "inService": null,
    "licenseNumber": null,
    "licenseEffectiveDate": null,
    "licenseExpirationDate": null,
    "dataDate": "10/18/2025",
    "capacity": 0,
    "address": "2276 CAMINO RAMON",
    "city": "SAN RAMON",
    "zip": "94583",
    "county": "CONTRA COSTA",
    "phone": "(925) 930-6680",
    "lat": 37.775565,
    "lng": -121.970988
  },
  {
    "id": "630027494",
    "name": "NATIONAL HOME HEALTH SERVICES, INC. - SAN RAMON",
    "npi": null,
    "hcaiId": null,
    "businessName": "NATIONAL HOME HEALTH SERVICES, INC.",
    "contactEmail": "ALEX.RUDAKOV@NATIONALHHA.COM",
    "categoryName": "HOME HEALTH AGENCY",
    "categoryCode": "HHA",
    "licenseStatus": "ACTIVE",
    "inService": true,
    "licenseNumber": "550001137",
    "licenseEffectiveDate": "11/17/2025",
    "licenseExpirationDate": "11/16/2026",
    "dataDate": "10/18/2025",
    "capacity": 0,
    "address": "2333 SAN RAMON VALLEY BLVD, SUITE 195",
    "city": "SAN RAMON",
    "zip": "94583",
    "county": "CONTRA COSTA",
    "phone": "(408) 404-4090",
    "lat": 37.776931,
    "lng": -121.97933
  },
  {
    "id": "630024605",
    "name": "NORCAL ORTHOPEDIC SURGERY CENTER, LLC",
    "npi": null,
    "hcaiId": null,
    "businessName": null,
    "contactEmail": "CINDY@NORCALORTHOSC.COM",
    "categoryName": "SURGICAL CLINIC",
    "categoryCode": "ASC",
    "licenseStatus": null,
    "inService": null,
    "licenseNumber": null,
    "licenseEffectiveDate": null,
    "licenseExpirationDate": null,
    "dataDate": "10/18/2025",
    "capacity": 0,
    "address": "100 PARK PL, SUITE 110",
    "city": "SAN RAMON",
    "zip": "94583",
    "county": "CONTRA COSTA",
    "phone": "(925) 378-3624",
    "lat": 37.772712,
    "lng": -121.989582
  },
  {
    "id": "630019710",
    "name": "ORACLE HEALTHCARE NETWORK, CORP.",
    "npi": null,
    "hcaiId": "406075553",
    "businessName": "ORACLE HEALTHCARE NETWORK, CORP.",
    "contactEmail": "AWEBB@ORACLEHH.COM",
    "categoryName": "HOME HEALTH AGENCY",
    "categoryCode": "HHA",
    "licenseStatus": "ACTIVE",
    "inService": true,
    "licenseNumber": "550005793",
    "licenseEffectiveDate": "10/16/2025",
    "licenseExpirationDate": "10/15/2026",
    "dataDate": "10/18/2025",
    "capacity": 0,
    "address": "2603 CAMINO RAMON, SUITE 200",
    "city": "SAN RAMON",
    "zip": "94583",
    "county": "CONTRA COSTA",
    "phone": "(407) 538-4901",
    "lat": 37.769085,
    "lng": -121.9600305
  },
  {
    "id": "140001045",
    "name": "PATRICIA SCOTT",
    "npi": null,
    "hcaiId": null,
    "businessName": null,
    "contactEmail": null,
    "categoryName": "OTHER",
    "categoryCode": "UNLICEN",
    "licenseStatus": null,
    "inService": null,
    "licenseNumber": null,
    "licenseEffectiveDate": null,
    "licenseExpirationDate": null,
    "dataDate": "10/18/2025",
    "capacity": 0,
    "address": "2817 CROW CANYON RD, SUITE 104",
    "city": "SAN RAMON",
    "zip": "94583",
    "county": "CONTRA COSTA",
    "phone": "(925) 838-9846",
    "lat": 37.774224,
    "lng": -121.9814505
  },
  {
    "id": "140000504",
    "name": "PHYSICAL THERAPY ASSOCIATES OF SAN RAMON",
    "npi": null,
    "hcaiId": null,
    "businessName": null,
    "contactEmail": null,
    "categoryName": "OTHER",
    "categoryCode": "UNLICEN",
    "licenseStatus": null,
    "inService": null,
    "licenseNumber": null,
    "licenseEffectiveDate": null,
    "licenseExpirationDate": null,
    "dataDate": "10/18/2025",
    "capacity": 0,
    "address": "2817 CROW CANYON RD",
    "city": "SAN RAMON",
    "zip": "94583",
    "county": "CONTRA COSTA",
    "phone": "(925) 838-9846",
    "lat": 37.774224,
    "lng": -121.9814505
  },
  {
    "id": "140000240",
    "name": "PLANNED PARENTHOOD SAN RAMON CENTER",
    "npi": "1295893550",
    "hcaiId": "306074171",
    "businessName": "PLANNED PARENTHOOD: SHASTA-DIABLO, INC.",
    "contactEmail": "ESOLORZANO@PPNORCAL.ORG",
    "categoryName": "PRIMARY CARE CLINIC",
    "categoryCode": "COMTYC",
    "licenseStatus": "ACTIVE",
    "inService": true,
    "licenseNumber": "140000214",
    "licenseEffectiveDate": "11/17/2024",
    "licenseExpirationDate": "11/16/2025",
    "dataDate": "10/18/2025",
    "capacity": 0,
    "address": "200 PORTER DRIVE, SUITE 200",
    "city": "SAN RAMON",
    "zip": "94583",
    "county": "CONTRA COSTA",
    "phone": "(925) 838-2108",
    "lat": 37.773819,
    "lng": -121.990446
  },
  {
    "id": "630027374",
    "name": "QUALICARE",
    "npi": null,
    "hcaiId": null,
    "businessName": "BLACKHAWK HEALTHCARE INC",
    "contactEmail": "HOMEHEALTHSF@QUALICARE.COM",
    "categoryName": "HOME HEALTH AGENCY",
    "categoryCode": "HHA",
    "licenseStatus": "ACTIVE",
    "inService": true,
    "licenseNumber": "550009557",
    "licenseEffectiveDate": "06/18/2025",
    "licenseExpirationDate": "12/17/2025",
    "dataDate": "10/18/2025",
    "capacity": 0,
    "address": "2603 CAMINO RAMON, SUITE 200-2167A",
    "city": "SAN RAMON",
    "zip": "94583",
    "county": "CONTRA COSTA",
    "phone": "(925) 241-0655",
    "lat": 37.768999,
    "lng": -121.959984
  },
  {
    "id": "140001295",
    "name": "SAN RAMON ENDOSCOPY CENTER, LLC",
    "npi": "1386654200",
    "hcaiId": "306074099",
    "businessName": null,
    "contactEmail": null,
    "categoryName": "SURGICAL CLINIC",
    "categoryCode": "ASC",
    "licenseStatus": "INACTIVE - CAPEN DECISION",
    "inService": false,
    "licenseNumber": "140000660",
    "licenseEffectiveDate": "02/05/2008",
    "licenseExpirationDate": "02/04/2009",
    "dataDate": "10/18/2025",
    "capacity": 0,
    "address": "5801 NORRIS CANYON RD, SUITE 220",
    "city": "SAN RAMON",
    "zip": "94583",
    "county": "CONTRA COSTA",
    "phone": "(925) 275-9966",
    "lat": 37.77624,
    "lng": -121.9571775
  },
  {
    "id": "140000704",
    "name": "SAN RAMON REGIONAL MEDICAL CENTER",
    "npi": "1932131489",
    "hcaiId": "106074017",
    "businessName": "SAN RAMON REGIONAL MEDICAL CENTER, LLC",
    "contactEmail": "WARREN.KIRK@TENETHEALTH.COM",
    "categoryName": "GENERAL ACUTE CARE HOSPITAL",
    "categoryCode": "GACH",
    "licenseStatus": "ACTIVE",
    "inService": true,
    "licenseNumber": "140000345",
    "licenseEffectiveDate": "05/15/2025",
    "licenseExpirationDate": "05/14/2026",
    "dataDate": "10/18/2025",
    "capacity": 123,
    "address": "6001 NORRIS CANYON ROAD",
    "city": "SAN RAMON",
    "zip": "94583",
    "county": "CONTRA COSTA",
    "phone": "(925) 275-9200",
    "lat": 37.776069,
    "lng": -121.9583025
  },
  {
    "id": "140000683",
    "name": "SAN RAMON REGIONAL MEDICAL CENTER SOUTH BUILDING",
    "npi": null,
    "hcaiId": "106074011",
    "businessName": "SAN RAMON REGIONAL MEDICAL CENTER, LLC",
    "contactEmail": "BEENU.CHADHA@TENETHEALTH.COM",
    "categoryName": "GENERAL ACUTE CARE HOSPITAL",
    "categoryCode": "GACH",
    "licenseStatus": "ACTIVE",
    "inService": true,
    "licenseNumber": "140000345",
    "licenseEffectiveDate": "05/15/2025",
    "licenseExpirationDate": "05/14/2026",
    "dataDate": "10/18/2025",
    "capacity": 0,
    "address": "7777 NORRIS CANYON ROAD",
    "city": "SAN RAMON",
    "zip": "94583",
    "county": "CONTRA COSTA",
    "phone": "(925) 275-8433",
    "lat": 37.774287,
    "lng": -121.957695
  },
  {
    "id": "630010973",
    "name": "ST. DENIS HOME",
    "npi": "1194993568",
    "hcaiId": null,
    "businessName": null,
    "contactEmail": "CONNIESICFDDH@GMAIL.COM",
    "categoryName": "INTERMEDIATE CARE FACILITY-DD/H/N/CN/IID",
    "categoryCode": "ICFDDH",
    "licenseStatus": "ACTIVE",
    "inService": true,
    "licenseNumber": "550000549",
    "licenseEffectiveDate": "11/06/2025",
    "licenseExpirationDate": "11/05/2026",
    "dataDate": "10/18/2025",
    "capacity": 6,
    "address": "2939 SAINT DENIS DRIVE",
    "city": "SAN RAMON",
    "zip": "94583",
    "county": "CONTRA COSTA",
    "phone": "(650) 678-8142",
    "lat": 37.749051,
    "lng": -121.949154
  },
  {
    "id": "140001299",
    "name": "THE TRESANTI MEDICAL CORPORATION",
    "npi": null,
    "hcaiId": "306074098",
    "businessName": "THE TRESANTI MEDICAL CORPORATION",
    "contactEmail": null,
    "categoryName": "SURGICAL CLINIC",
    "categoryCode": "ASC",
    "licenseStatus": "INACTIVE - CAPEN DECISION",
    "inService": false,
    "licenseNumber": "140000665",
    "licenseEffectiveDate": "03/24/2009",
    "licenseExpirationDate": "03/23/2010",
    "dataDate": "10/18/2025",
    "capacity": 0,
    "address": "5201 NORRIS CANYON RD, SUITE 100",
    "city": "SAN RAMON",
    "zip": "94583",
    "county": "CONTRA COSTA",
    "phone": "(925) 275-1685",
    "lat": 37.777536,
    "lng": -121.9592025
  },
  {
    "id": "630017706",
    "name": "WEBSTER OUTPATIENT SURGERY CENTER, LLC",
    "npi": "1467999813",
    "hcaiId": null,
    "businessName": null,
    "contactEmail": "JOHNWESLEY.WILLIAMSON@HKLAW.COM",
    "categoryName": "SURGICAL CLINIC",
    "categoryCode": "ASC",
    "licenseStatus": null,
    "inService": null,
    "licenseNumber": null,
    "licenseEffectiveDate": null,
    "licenseExpirationDate": null,
    "dataDate": "10/18/2025",
    "capacity": 0,
    "address": "200 PORTER DR, SUITE 100",
    "city": "SAN RAMON",
    "zip": "94583",
    "county": "CONTRA COSTA",
    "phone": "(615) 850-8548",
    "lat": 37.773819,
    "lng": -121.990446
  }
]