[
  {
    "id": "630014394",
    "name": "CROSSROADS HOME HEALTH VALLEJO",
    "npi": "1205297702",
    "hcaiId": "406484064",
    "businessName": "BENJAMIN HEALTHCARE, INC.",
    "contactEmail": "DWHITING@IMPACTHC.ORG",
    "categoryName": "HOME HEALTH AGENCY",
    "categoryCode": "HHA",
    "licenseStatus": "ACTIVE",
    "inService": true,
    "licenseNumber": "550002531",
    "licenseEffectiveDate": "10/21/2025",
    "licenseExpirationDate": "04/17/2026",
    "dataDate": "10/18/2025",
    "capacity": 0,
    "address": "127 HOSPITAL DR, SUITE 202",
    "city": "VALLEJO",
    "zip": "94589",
    "county": "SOLANO",
    "phone": "(801) 455-8571",
    "lat": 38.130768,
    "lng": -122.238756
  },
  {
    "id": "630014398",
    "name": "CROSSROADS HOSPICE VALLEJO",
    "npi": "1861835936",
    "hcaiId": "406484066",
    "businessName": "BENJAMIN HEALTHCARE, INC.",
    "contactEmail": "HTEWOLDE-DAVIS@CROSSROADSHH.COM",
    "categoryName": "HOSPICE",
    "categoryCode": "HOSPICE",
    "licenseStatus": "ACTIVE",
    "inService": true,
    "licenseNumber": "550002529",
    "licenseEffectiveDate": "10/18/2025",
    "licenseExpirationDate": "10/17/2027",
    "dataDate": "10/18/2025",
    "capacity": 0,
    "address": "127 HOSPITAL DR, SUITE 202 A",
    "city": "VALLEJO",
    "zip": "94589",
    "county": "SOLANO",
    "phone": "(707) 554-4003",
    "lat": 38.130768,
    "lng": -122.238756
  },
  {
    "id": "110000011",
    "name": "KAISER FOUNDATION HOSPITAL & REHAB CENTER - VALLEJO",
    "npi": "1366513509",
    "hcaiId": "106480989",
    "businessName": "KAISER FOUNDATION HOSPITALS",
    "contactEmail": "SONJA.X.FOSGATE@KP.ORG",
    "categoryName": "GENERAL ACUTE CARE HOSPITAL",
    "categoryCode": "GACH",
    "licenseStatus": "ACTIVE",
    "inService": true,
    "licenseNumber": "110000026",
    "licenseEffectiveDate": "06/19/2025",
    "licenseExpirationDate": "12/31/2025",
    "dataDate": "10/18/2025",
    "capacity": 253,
    "address": "975 SERENO DR",
    "city": "VALLEJO",
    "zip": "94589",
    "county": "SOLANO",
    "phone": "(707) 991-1350",
    "lat": 38.12834737,
    "lng": -122.2475781
  },
  {
    "id": "010000096",
    "name": "KAISER FOUNDATION HOSPITAL HOME HEALTH-VALLEJO",
    "npi": "1215008461",
    "hcaiId": "406480927",
    "businessName": "KAISER FOUNDATION HOSPITALS",
    "contactEmail": "ERIN.L.BROWN@KP.ORG",
    "categoryName": "HOME HEALTH AGENCY",
    "categoryCode": "HHA",
    "licenseStatus": "ACTIVE",
    "inService": true,
    "licenseNumber": "010000008",
    "licenseEffectiveDate": "12/01/2024",
    "licenseExpirationDate": "11/30/2025",
    "dataDate": "10/18/2025",
    "capacity": 0,
    "address": "975 SERENO DR, ROOM 1130",
    "city": "VALLEJO",
    "zip": "94589",
    "county": "SOLANO",
    "phone": "(415) 301-1309",
    "lat": 38.12706799,
    "lng": -122.247876
  },
  {
    "id": "100001731",
    "name": "KAISER FOUNDATION HOSPITAL HOSPICE - VALLEJO",
    "npi": null,
    "hcaiId": "406484032",
    "businessName": "KAISER FOUNDATION HOSPITALS",
    "contactEmail": "AMACEL.C.RAE@KP.ORG",
    "categoryName": "HOSPICE",
    "categoryCode": "HOSPICE",
    "licenseStatus": "ACTIVE",
    "inService": true,
    "licenseNumber": "100000739",
    "licenseEffectiveDate": "01/01/2025",
    "licenseExpirationDate": "12/31/2026",
    "dataDate": "10/18/2025",
    "capacity": 0,
    "address": "975 SERENO DR, ROOM BAYVIEW-1112",
    "city": "VALLEJO",
    "zip": "94589",
    "county": "SOLANO",
    "phone": "(707) 627-3109",
    "lat": 38.12706799,
    "lng": -122.247876
  },
  {
    "id": "630012014",
    "name": "LA CLINICA NORTH VALLEJO",
    "npi": null,
    "hcaiId": "306484058",
    "businessName": "LA CLINICA DE LA RAZA, INC.",
    "contactEmail": "SITELICENSING@LACLINICA.ORG",
    "categoryName": "PRIMARY CARE CLINIC",
    "categoryCode": "COMTYC",
    "licenseStatus": "ACTIVE",
    "inService": true,
    "licenseNumber": "550000903",
    "licenseEffectiveDate": "02/10/2025",
    "licenseExpirationDate": "02/09/2026",
    "dataDate": "10/18/2025",
    "capacity": 0,
    "address": "220 HOSPITAL DR",
    "city": "VALLEJO",
    "zip": "94589",
    "county": "SOLANO",
    "phone": "(510) 535-2906",
    "lat": 38.1314206,
    "lng": -122.2413759
  },
  {
    "id": "630010923",
    "name": "LA CLINICA VALLEJO GREAT BEGINNINGS",
    "npi": null,
    "hcaiId": "306484048",
    "businessName": "LA CLINICA DE LA RAZA, INC.",
    "contactEmail": "CSZETO@LACLINICA.ORG",
    "categoryName": "PRIMARY CARE CLINIC",
    "categoryCode": "COMTYC",
    "licenseStatus": "ACTIVE",
    "inService": true,
    "licenseNumber": "110000270",
    "licenseEffectiveDate": "05/01/2025",
    "licenseExpirationDate": "04/30/2026",
    "dataDate": "10/18/2025",
    "capacity": 0,
    "address": "210 HOSPITAL DR",
    "city": "VALLEJO",
    "zip": "94589",
    "county": "SOLANO",
    "phone": "(707) 551-1808",
    "lat": 38.13114294,
    "lng": -122.2390759
  },
  {
    "id": "630001741",
    "name": "SANTA LUCIA",
    "npi": "1871774125",
    "hcaiId": null,
    "businessName": "LEONILA PADILLA AND PARTNER",
    "contactEmail": "WEREBOJUS2003@YAHOO.COM",
    "categoryName": "INTERMEDIATE CARE FACILITY-DD/H/N/CN/IID",
    "categoryCode": "ICFDDH",
    "licenseStatus": "ACTIVE",
    "inService": true,
    "licenseNumber": "550000058",
    "licenseEffectiveDate": "11/25/2024",
    "licenseExpirationDate": "11/24/2025",
    "dataDate": "10/18/2025",
    "capacity": 6,
    "address": "11 MARSHALL WAY",
    "city": "VALLEJO",
    "zip": "94589",
    "county": "SOLANO",
    "phone": "(707) 731-2747",
    "lat": 38.141676,
    "lng": -122.261886
  },
  {
    "id": "630014705",
    "name": "SATELLITE HEALTHCARE VALLEJO",
    "npi": "1982047783",
    "hcaiId": "306484063",
    "businessName": "SATELLITE HEALTHCARE VALLEJO, LLC",
    "contactEmail": "LICENSING@SATELLITEHEALTH.COM",
    "categoryName": "CHRONIC DIALYSIS CLINIC",
    "categoryCode": "ESRD/CDC",
    "licenseStatus": "ACTIVE",
    "inService": true,
    "licenseNumber": "550002641",
    "licenseEffectiveDate": "08/14/2025",
    "licenseExpirationDate": "08/13/2026",
    "dataDate": "10/18/2025",
    "capacity": 33,
    "address": "4300 SONOMA BLVD, SUITE 25",
    "city": "VALLEJO",
    "zip": "94589",
    "county": "SOLANO",
    "phone": "(707) 561-7150",
    "lat": 38.132541,
    "lng": -122.255208
  },
  {
    "id": "110000013",
    "name": "SOLANO POST ACUTE",
    "npi": "1285770669",
    "hcaiId": "206481011",
    "businessName": "WINDSOR VALLEJO CARE CENTER, LLC",
    "contactEmail": "ADMINISTRATOR@WINDSORVALLEJO.COM",
    "categoryName": "SKILLED NURSING FACILITY",
    "categoryCode": "SNF",
    "licenseStatus": "ACTIVE",
    "inService": true,
    "licenseNumber": "110000155",
    "licenseEffectiveDate": "09/18/2025",
    "licenseExpirationDate": "02/28/2026",
    "dataDate": "10/18/2025",
    "capacity": 166,
    "address": "2200 TUOLUMNE ST",
    "city": "VALLEJO",
    "zip": "94589",
    "county": "SOLANO",
    "phone": "(707) 644-7401",
    "lat": 38.13039,
    "lng": -122.2393185
  },
  {
    "id": "110000068",
    "name": "SUTTER SOLANO MEDICAL CENTER",
    "npi": "1366686248",
    "hcaiId": "106481094",
    "businessName": "SUTTER VALLEY HOSPITALS",
    "contactEmail": "CONTREJ2@SUTTERHEALTH.ORG",
    "categoryName": "GENERAL ACUTE CARE HOSPITAL",
    "categoryCode": "GACH",
    "licenseStatus": "ACTIVE",
    "inService": true,
    "licenseNumber": "110000082",
    "licenseEffectiveDate": "11/01/2024",
    "licenseExpirationDate": "10/31/2025",
    "dataDate": "10/18/2025",
    "capacity": 106,
    "address": "300 HOSPITAL DRIVE",
    "city": "VALLEJO",
    "zip": "94589",
    "county": "SOLANO",
    "phone": "(707) 554-4444",
    "lat": 38.131137,
    "lng": -122.2373745
  }
]