[
  {
    "id": "630019903",
    "name": "ADYA HOSPICE & PALLIATIVE CARE, LLC",
    "npi": null,
    "hcaiId": "406483184",
    "businessName": "ADYA HOSPICE & PALLIATIVE CARE, LLC",
    "contactEmail": "ADYAHOSPICE@GMAIL.COM",
    "categoryName": "HOSPICE",
    "categoryCode": "HOSPICE",
    "licenseStatus": "ACTIVE",
    "inService": true,
    "licenseNumber": "550006301",
    "licenseEffectiveDate": "03/05/2025",
    "licenseExpirationDate": "03/04/2027",
    "dataDate": "10/18/2025",
    "capacity": 0,
    "address": "700 MAIN ST, SUITE 210",
    "city": "SUISUN CITY",
    "zip": "94585",
    "county": "SOLANO",
    "phone": "(707) 200-2989",
    "lat": 38.23807599,
    "lng": -122.040359
  },
  {
    "id": "630024853",
    "name": "NATIONAL HOME HEALTH SERVICES, INC.-SUISUN CITY",
    "npi": null,
    "hcaiId": "406486165",
    "businessName": "NATIONAL HOME HEALTH SERVICES, INC.",
    "contactEmail": null,
    "categoryName": "HOME HEALTH AGENCY",
    "categoryCode": "HHA",
    "licenseStatus": "ACTIVE",
    "inService": true,
    "licenseNumber": "550001137",
    "licenseEffectiveDate": "11/17/2025",
    "licenseExpirationDate": "11/16/2026",
    "dataDate": "10/18/2025",
    "capacity": 0,
    "address": "1 HARBOR CTR, SUITE 220",
    "city": "SUISUN CITY",
    "zip": "94585",
    "county": "SOLANO",
    "phone": null,
    "lat": 38.242071,
    "lng": -122.04
  },
  {
    "id": "630027139",
    "name": "SILVERLINE STAFF, INC.",
    "npi": null,
    "hcaiId": null,
    "businessName": "SILVERLINE STAFF INC",
    "contactEmail": "ZAIN@SILVERSTAFF.COM",
    "categoryName": "HOME HEALTH AGENCY",
    "categoryCode": "HHA",
    "licenseStatus": "ACTIVE",
    "inService": true,
    "licenseNumber": "550005182",
    "licenseEffectiveDate": "03/07/2025",
    "licenseExpirationDate": "12/11/2025",
    "dataDate": "10/18/2025",
    "capacity": 0,
    "address": "1 HARBOR CTR, SUITE 140",
    "city": "SUISUN CITY",
    "zip": "94585",
    "county": "SOLANO",
    "phone": "(925) 476-5350",
    "lat": 38.241737,
    "lng": -122.039883
  }
]