[
  {
    "id": "630017675",
    "name": "AMORE HOSPICE, INC.",
    "npi": null,
    "hcaiId": "406012886",
    "businessName": "AMORE HOSPICE, INC.",
    "contactEmail": "MATTW@AMOREHOSPICE.ORG",
    "categoryName": "HOSPICE",
    "categoryCode": "HOSPICE",
    "licenseStatus": "ACTIVE",
    "inService": true,
    "licenseNumber": "550005724",
    "licenseEffectiveDate": "03/06/2025",
    "licenseExpirationDate": "08/19/2026",
    "dataDate": "10/18/2025",
    "capacity": 0,
    "address": "4695 CHABOT DR, SUITE 244",
    "city": "PLEASANTON",
    "zip": "94588",
    "county": "ALAMEDA",
    "phone": "(510) 479-7668",
    "lat": 37.69510502,
    "lng": -121.900392
  },
  {
    "id": "630017185",
    "name": "APOLLO HOME HEALTHCARE",
    "npi": "1245775469",
    "hcaiId": "406010931",
    "businessName": "APOLLO HOME HEALTHCARE, LLC",
    "contactEmail": "ADAM@OBRAN.ORG",
    "categoryName": "HOME HEALTH AGENCY",
    "categoryCode": "HHA",
    "licenseStatus": "ACTIVE",
    "inService": true,
    "licenseNumber": "550004323",
    "licenseEffectiveDate": "07/23/2025",
    "licenseExpirationDate": "07/22/2026",
    "dataDate": "10/18/2025",
    "capacity": 0,
    "address": "7901 STONERIDGE DR, SUITE 505",
    "city": "PLEASANTON",
    "zip": "94588",
    "county": "ALAMEDA",
    "phone": "(925) 587-8244",
    "lat": 37.689957,
    "lng": -121.929948
  },
  {
    "id": "630016548",
    "name": "AXIS COMMUNITY HEALTH",
    "npi": "1609249994",
    "hcaiId": "306014381",
    "businessName": "AXIS COMMUNITY HEALTH, INC.",
    "contactEmail": "CONTRACTS@AXISHEALTH.ORG",
    "categoryName": "PRIMARY CARE CLINIC",
    "categoryCode": "COMTYC",
    "licenseStatus": "ACTIVE",
    "inService": true,
    "licenseNumber": "550003511",
    "licenseEffectiveDate": "09/01/2025",
    "licenseExpirationDate": "05/19/2026",
    "dataDate": "10/18/2025",
    "capacity": 0,
    "address": "5925 WEST LAS POSITAS BOULEVARD, SUITE 100",
    "city": "PLEASANTON",
    "zip": "94588",
    "county": "ALAMEDA",
    "phone": "(925) 462-1755",
    "lat": 37.683981,
    "lng": -121.8994695
  },
  {
    "id": "630015364",
    "name": "BRISTOL HOSPICE - EAST BAY",
    "npi": null,
    "hcaiId": "406013011",
    "businessName": "SOJOURN HOSPICE & PALLIATIVE CARE - EAST BAY, LLC",
    "contactEmail": "ILA.BANSIL@BRISTOLHOSPICE.COM",
    "categoryName": "HOSPICE",
    "categoryCode": "HOSPICE",
    "licenseStatus": "ACTIVE",
    "inService": true,
    "licenseNumber": "550003382",
    "licenseEffectiveDate": "01/26/2024",
    "licenseExpirationDate": "01/25/2026",
    "dataDate": "10/18/2025",
    "capacity": 0,
    "address": "5820 STONERIDGE MALL RD, SUITE 209",
    "city": "PLEASANTON",
    "zip": "94588",
    "county": "ALAMEDA",
    "phone": "(510) 573-4404",
    "lat": 37.694016,
    "lng": -121.932432
  },
  {
    "id": "630026958",
    "name": "CARE1 HOME HEALTH INC",
    "npi": null,
    "hcaiId": null,
    "businessName": "CARE1 HOME HEALTH INC",
    "contactEmail": "CARE1HOMEHEALTHINC@GMAIL.COM",
    "categoryName": "HOME HEALTH AGENCY",
    "categoryCode": "HHA",
    "licenseStatus": "ACTIVE",
    "inService": true,
    "licenseNumber": "550009400",
    "licenseEffectiveDate": "10/01/2025",
    "licenseExpirationDate": "09/30/2026",
    "dataDate": "10/18/2025",
    "capacity": 0,
    "address": "5994 W LAS POSITAS BLVD, SUITE 105",
    "city": "PLEASANTON",
    "zip": "94588",
    "county": "ALAMEDA",
    "phone": "(925) 450-9080",
    "lat": 37.68119102,
    "lng": -121.902451
  },
  {
    "id": "630015174",
    "name": "CREEKVIEW SKILLED NURSING",
    "npi": null,
    "hcaiId": "206014349",
    "businessName": "CREEKVIEW HC LLC",
    "contactEmail": "MCELROYP@VISITCREEKVIEW.COM",
    "categoryName": "SKILLED NURSING FACILITY",
    "categoryCode": "SNF",
    "licenseStatus": "ACTIVE",
    "inService": true,
    "licenseNumber": "550003252",
    "licenseEffectiveDate": "09/28/2025",
    "licenseExpirationDate": "09/27/2026",
    "dataDate": "10/18/2025",
    "capacity": 59,
    "address": "2900 STONERIDGE DRIVE",
    "city": "PLEASANTON",
    "zip": "94588",
    "county": "ALAMEDA",
    "phone": "(925) 201-4016",
    "lat": 37.695087,
    "lng": -121.855158
  },
  {
    "id": "630013952",
    "name": "GUARDIAN HOME HEALTH CARE & HOSPICE, INC.",
    "npi": "1245594449",
    "hcaiId": "406014322",
    "businessName": "GUARDIAN HOME HEALTH CARE & HOSPICE, INC.",
    "contactEmail": "ASAD@GUARDIANHHA.COM",
    "categoryName": "HOME HEALTH AGENCY",
    "categoryCode": "HHA",
    "licenseStatus": "ACTIVE",
    "inService": true,
    "licenseNumber": "550002217",
    "licenseEffectiveDate": "03/07/2025",
    "licenseExpirationDate": "03/06/2026",
    "dataDate": "10/18/2025",
    "capacity": 0,
    "address": "6601 OWENS DR, SUITE 135 OFFICE A",
    "city": "PLEASANTON",
    "zip": "94588",
    "county": "ALAMEDA",
    "phone": "(510) 742-8700",
    "lat": 37.698048,
    "lng": -121.907925
  },
  {
    "id": "630013987",
    "name": "GUARDIAN HOME HEALTH CARE & HOSPICE, INC.",
    "npi": null,
    "hcaiId": "406014343",
    "businessName": "GUARDIAN HOME HEALTH CARE & HOSPICE, INC.",
    "contactEmail": "ASAD@GUARDIANHHA.COM",
    "categoryName": "HOSPICE",
    "categoryCode": "HOSPICE",
    "licenseStatus": "ACTIVE",
    "inService": true,
    "licenseNumber": "550002215",
    "licenseEffectiveDate": "03/07/2025",
    "licenseExpirationDate": "03/06/2027",
    "dataDate": "10/18/2025",
    "capacity": 0,
    "address": "6601 OWENS DR, SUITE 135 OFFICE B",
    "city": "PLEASANTON",
    "zip": "94588",
    "county": "ALAMEDA",
    "phone": "(510) 742-8700",
    "lat": 37.698048,
    "lng": -121.907925
  },
  {
    "id": "630011988",
    "name": "HACIENDA SURGERY CENTER, LLC",
    "npi": "1346649480",
    "hcaiId": "306014250",
    "businessName": null,
    "contactEmail": null,
    "categoryName": "SURGICAL CLINIC",
    "categoryCode": "ASC",
    "licenseStatus": null,
    "inService": null,
    "licenseNumber": null,
    "licenseEffectiveDate": null,
    "licenseExpirationDate": null,
    "dataDate": "10/18/2025",
    "capacity": 0,
    "address": "4626 WILLOW ROAD, SUITE 100",
    "city": "PLEASANTON",
    "zip": "94588",
    "county": "ALAMEDA",
    "phone": "(925) 277-1315",
    "lat": 37.692225,
    "lng": -121.8988485
  },
  {
    "id": "630027946",
    "name": "HOME BLESS INC",
    "npi": null,
    "hcaiId": null,
    "businessName": "HOME BLESS INC",
    "contactEmail": null,
    "categoryName": "HOME HEALTH AGENCY",
    "categoryCode": "HHA",
    "licenseStatus": "ACTIVE",
    "inService": true,
    "licenseNumber": "550009877",
    "licenseEffectiveDate": "07/01/2025",
    "licenseExpirationDate": "12/31/2025",
    "dataDate": "10/18/2025",
    "capacity": 0,
    "address": "5674 STONERIDGE DR, SUITE 119",
    "city": "PLEASANTON",
    "zip": "94588",
    "county": "ALAMEDA",
    "phone": null,
    "lat": 37.69115199,
    "lng": -121.889596
  },
  {
    "id": "630021809",
    "name": "KABAFUSION, LLC",
    "npi": null,
    "hcaiId": "406015174",
    "businessName": "KABAFUSION, LLC",
    "contactEmail": "KABAFUSIONLICENSING@KABAFUSION.COM",
    "categoryName": "HOME HEALTH AGENCY",
    "categoryCode": "HHA",
    "licenseStatus": "ACTIVE",
    "inService": true,
    "licenseNumber": "550007906",
    "licenseEffectiveDate": "03/11/2025",
    "licenseExpirationDate": "03/10/2026",
    "dataDate": "10/18/2025",
    "capacity": 0,
    "address": "5860 W LAS POSITAS BLVD, SUITE 19",
    "city": "PLEASANTON",
    "zip": "94588",
    "county": "ALAMEDA",
    "phone": "(855) 434-4844",
    "lat": 37.683666,
    "lng": -121.896684
  },
  {
    "id": "630012837",
    "name": "NOBLE HOSPICE & HOME HEALTH CARE, INC.",
    "npi": "1982910584",
    "hcaiId": "406014278",
    "businessName": "NOBLE HOSPICE & HOME HEALTH CARE, INC.",
    "contactEmail": "NOBLE.ANDY@AOL.COM",
    "categoryName": "HOME HEALTH AGENCY",
    "categoryCode": "HHA",
    "licenseStatus": "ACTIVE",
    "inService": true,
    "licenseNumber": "550001473",
    "licenseEffectiveDate": "01/14/2025",
    "licenseExpirationDate": "01/13/2026",
    "dataDate": "10/18/2025",
    "capacity": 0,
    "address": "6601 OWENS DR, SUITE 245",
    "city": "PLEASANTON",
    "zip": "94588",
    "county": "ALAMEDA",
    "phone": "(510) 683-9100",
    "lat": 37.697931,
    "lng": -121.9080915
  },
  {
    "id": "630016294",
    "name": "NOBLE HOSPICE CARE, INC.",
    "npi": "1720464944",
    "hcaiId": "406014364",
    "businessName": "NOBLE HOSPICE CARE, INC.",
    "contactEmail": "NOBLE.RANI@YAHOO.COM",
    "categoryName": "HOSPICE",
    "categoryCode": "HOSPICE",
    "licenseStatus": "ACTIVE",
    "inService": true,
    "licenseNumber": "550003348",
    "licenseEffectiveDate": "10/03/2024",
    "licenseExpirationDate": "01/06/2026",
    "dataDate": "10/18/2025",
    "capacity": 0,
    "address": "6601 OWENS DR, SUITE 245",
    "city": "PLEASANTON",
    "zip": "94588",
    "county": "ALAMEDA",
    "phone": "(510) 657-1700",
    "lat": 37.69793001,
    "lng": -121.908092
  },
  {
    "id": "630027568",
    "name": "NORCAL HOME HEALTH SERVICES",
    "npi": null,
    "hcaiId": null,
    "businessName": "NORCAL HOME HEALTH SERVICES",
    "contactEmail": "NORCALHOMHEALTHSERVICES@GMAIL.COM",
    "categoryName": "HOME HEALTH AGENCY",
    "categoryCode": "HHA",
    "licenseStatus": "ACTIVE",
    "inService": true,
    "licenseNumber": "550009715",
    "licenseEffectiveDate": "07/18/2025",
    "licenseExpirationDate": "01/17/2026",
    "dataDate": "10/18/2025",
    "capacity": 0,
    "address": "3825 HOPYARD RD, SUITE 125",
    "city": "PLEASANTON",
    "zip": "94588",
    "county": "ALAMEDA",
    "phone": "(510) 988-2325",
    "lat": 37.68300499,
    "lng": -121.902344
  },
  {
    "id": "140000262",
    "name": "PLEASANTON DIALYSIS CENTER",
    "npi": "1194788273",
    "hcaiId": "306013655",
    "businessName": "TOTAL RENAL CARE, INC.",
    "contactEmail": "CAL_C@DAVITA.COM",
    "categoryName": "CHRONIC DIALYSIS CLINIC",
    "categoryCode": "ESRD/CDC",
    "licenseStatus": "ACTIVE",
    "inService": true,
    "licenseNumber": "140000217",
    "licenseEffectiveDate": "03/01/2025",
    "licenseExpirationDate": "02/28/2026",
    "dataDate": "10/18/2025",
    "capacity": 22,
    "address": "5720 STONERIDGE MALL RD, SUITE 160",
    "city": "PLEASANTON",
    "zip": "94588",
    "county": "ALAMEDA",
    "phone": "(925) 737-0120",
    "lat": 37.691613,
    "lng": -121.9309695
  },
  {
    "id": "630022260",
    "name": "PLEASANTON SANTA RITA DIALYSIS",
    "npi": null,
    "hcaiId": "306010731",
    "businessName": "GANCHIS DIALYSIS, LLC",
    "contactEmail": "CAL_C@DAVITA.COM",
    "categoryName": "CHRONIC DIALYSIS CLINIC",
    "categoryCode": "ESRD/CDC",
    "licenseStatus": "ACTIVE",
    "inService": true,
    "licenseNumber": "550007977",
    "licenseEffectiveDate": "04/14/2025",
    "licenseExpirationDate": "04/13/2026",
    "dataDate": "10/18/2025",
    "capacity": 17,
    "address": "4270 ROSEWOOD DR, SUITE E",
    "city": "PLEASANTON",
    "zip": "94588",
    "county": "ALAMEDA",
    "phone": "(925) 474-4051",
    "lat": 37.699182,
    "lng": -121.876317
  },
  {
    "id": "630027440",
    "name": "QUEST NURSING HEALTH CLINIC",
    "npi": null,
    "hcaiId": null,
    "businessName": "QUEST NURSING HEALTH CLINIC",
    "contactEmail": null,
    "categoryName": "PRIMARY CARE CLINIC",
    "categoryCode": "COMTYC",
    "licenseStatus": "ACTIVE",
    "inService": true,
    "licenseNumber": "550008369",
    "licenseEffectiveDate": "12/22/2024",
    "licenseExpirationDate": "12/21/2025",
    "dataDate": "10/18/2025",
    "capacity": 0,
    "address": "1680 STONERIDGE MALL RD",
    "city": "PLEASANTON",
    "zip": "94588",
    "county": "ALAMEDA",
    "phone": null,
    "lat": 37.69629701,
    "lng": -121.927822
  },
  {
    "id": "630017782",
    "name": "SKY HEALTHCARE HOME HEALTH SERVICES",
    "npi": null,
    "hcaiId": "406012054",
    "businessName": "SKY HHS LLC",
    "contactEmail": "CMEAD@SKYHHS.COM",
    "categoryName": "HOME HEALTH AGENCY",
    "categoryCode": "HHA",
    "licenseStatus": "ACTIVE",
    "inService": true,
    "licenseNumber": "550005104",
    "licenseEffectiveDate": "06/26/2025",
    "licenseExpirationDate": "11/17/2025",
    "dataDate": "10/18/2025",
    "capacity": 0,
    "address": "4695 CHABOT DRIVE, SUITE 265",
    "city": "PLEASANTON",
    "zip": "94588",
    "county": "ALAMEDA",
    "phone": "(916) 956-6185",
    "lat": 37.69524,
    "lng": -121.9003875
  },
  {
    "id": "140000797",
    "name": "STANFORD HEALTH CARE TRI-VALLEY",
    "npi": "1144389941",
    "hcaiId": "106014050",
    "businessName": "STANFORD HEALTH CARE TRI-VALLEY",
    "contactEmail": "JBERG@STANFORDHEALTHCARE.ORG",
    "categoryName": "GENERAL ACUTE CARE HOSPITAL",
    "categoryCode": "GACH",
    "licenseStatus": "ACTIVE",
    "inService": true,
    "licenseNumber": "140000114",
    "licenseEffectiveDate": "09/18/2025",
    "licenseExpirationDate": "12/08/2025",
    "dataDate": "10/18/2025",
    "capacity": 167,
    "address": "5555 W LAS POSITAS BOULEVARD",
    "city": "PLEASANTON",
    "zip": "94588",
    "county": "ALAMEDA",
    "phone": "(925) 734-3363",
    "lat": 37.693404,
    "lng": -121.8810285
  },
  {
    "id": "630018655",
    "name": "UNIHEALTH HOME CARE, INC.",
    "npi": "1841756905",
    "hcaiId": "406432137",
    "businessName": "UNIHEALTH HOME CARE, INC.",
    "contactEmail": "ADMIN@UNIHEALTHHOMECARE.COM",
    "categoryName": "HOME HEALTH AGENCY",
    "categoryCode": "HHA",
    "licenseStatus": "ACTIVE",
    "inService": true,
    "licenseNumber": "550005137",
    "licenseEffectiveDate": "07/03/2025",
    "licenseExpirationDate": "11/17/2025",
    "dataDate": "10/18/2025",
    "capacity": 0,
    "address": "4463 STONERIDGE DR, SUITE B",
    "city": "PLEASANTON",
    "zip": "94588",
    "county": "ALAMEDA",
    "phone": "(408) 684-8644",
    "lat": 37.68732871,
    "lng": -121.8761543
  },
  {
    "id": "630020204",
    "name": "ZENITH HEALTHCARE INC.",
    "npi": null,
    "hcaiId": "406010021",
    "businessName": "ZENITH HEALTHCARE INC",
    "contactEmail": "HAMED@ZENITHHOSPICECARE.COM",
    "categoryName": "HOSPICE",
    "categoryCode": "HOSPICE",
    "licenseStatus": "ACTIVE",
    "inService": true,
    "licenseNumber": "550007601",
    "licenseEffectiveDate": "12/17/2023",
    "licenseExpirationDate": "12/16/2025",
    "dataDate": "10/18/2025",
    "capacity": 0,
    "address": "5994 W LAS POSITAS BLVD, SUITE 119",
    "city": "PLEASANTON",
    "zip": "94588",
    "county": "ALAMEDA",
    "phone": "(925) 201-1547",
    "lat": 37.681182,
    "lng": -121.902687
  }
]