[
  {
    "id": "630027125",
    "name": "DIVINE GLOBAL CARE HOME HEALTH, LLC",
    "npi": null,
    "hcaiId": null,
    "businessName": "DIVINE GLOBAL CARE HOME HEALTH, LLC",
    "contactEmail": "INFO@DGCHOMEHEALTH.COM",
    "categoryName": "HOME HEALTH AGENCY",
    "categoryCode": "HHA",
    "licenseStatus": "ACTIVE",
    "inService": true,
    "licenseNumber": "550009233",
    "licenseEffectiveDate": "07/08/2025",
    "licenseExpirationDate": "07/07/2026",
    "dataDate": "10/18/2025",
    "capacity": 0,
    "address": "3939 SMITH ST, SUITE 1 A",
    "city": "UNION CITY",
    "zip": "94587",
    "county": "ALAMEDA",
    "phone": "(510) 386-7737",
    "lat": 37.596734,
    "lng": -122.079608
  },
  {
    "id": "020001292",
    "name": "E & J CARE PROVIDER, INC",
    "npi": "1952028441",
    "hcaiId": null,
    "businessName": "E & J CARE PROVIDER, INC.",
    "contactEmail": "SANTAISABELLA3294@GMAIL.COM",
    "categoryName": "INTERMEDIATE CARE FACILITY-DD/H/N/CN/IID",
    "categoryCode": "ICFDDH",
    "licenseStatus": "ACTIVE",
    "inService": true,
    "licenseNumber": "020000653",
    "licenseEffectiveDate": "01/12/2025",
    "licenseExpirationDate": "01/11/2026",
    "dataDate": "10/18/2025",
    "capacity": 6,
    "address": "3262 SANTA ISABELLA COURT",
    "city": "UNION CITY",
    "zip": "94587",
    "county": "ALAMEDA",
    "phone": "(408) 674-8394",
    "lat": 37.592064,
    "lng": -122.0667345
  },
  {
    "id": "630018649",
    "name": "FRESENIUS KIDNEY CARE UNION CITY",
    "npi": null,
    "hcaiId": "306010568",
    "businessName": "BIO-MEDICAL APPLICATIONS OF CALIFORNIA, INC.",
    "contactEmail": "CLINIC100292@FMC-NA.COM",
    "categoryName": "CHRONIC DIALYSIS CLINIC",
    "categoryCode": "ESRD/CDC",
    "licenseStatus": "ACTIVE",
    "inService": true,
    "licenseNumber": "550005536",
    "licenseEffectiveDate": "05/13/2025",
    "licenseExpirationDate": "05/12/2026",
    "dataDate": "10/18/2025",
    "capacity": 36,
    "address": "1320 DECOTO RD, SUITE 100",
    "city": "UNION CITY",
    "zip": "94587",
    "county": "ALAMEDA",
    "phone": "(510) 468-7957",
    "lat": 37.591659,
    "lng": -122.019453
  },
  {
    "id": "630026981",
    "name": "INTEGRAL HOME HEALTH",
    "npi": null,
    "hcaiId": null,
    "businessName": "INTEGRAL HOME HEALTH",
    "contactEmail": "ROSEDIRIC@YAHOO.COM",
    "categoryName": "HOME HEALTH AGENCY",
    "categoryCode": "HHA",
    "licenseStatus": "ACTIVE",
    "inService": true,
    "licenseNumber": "550009807",
    "licenseEffectiveDate": "09/28/2025",
    "licenseExpirationDate": "03/27/2026",
    "dataDate": "10/18/2025",
    "capacity": 0,
    "address": "3862 SMITH ST, ROOM A",
    "city": "UNION CITY",
    "zip": "94587",
    "county": "ALAMEDA",
    "phone": "(510) 358-6708",
    "lat": 37.596267,
    "lng": -122.078196
  },
  {
    "id": "020000716",
    "name": "KAISER FOUNDATION HOSPITAL HOME HEALTH - HAYWARD",
    "npi": "1467526095",
    "hcaiId": "406013367",
    "businessName": "KAISER FOUNDATION HOSPITALS",
    "contactEmail": "KARLENE.HADDON@KP.ORG",
    "categoryName": "HOME HEALTH AGENCY",
    "categoryCode": "HHA",
    "licenseStatus": "ACTIVE",
    "inService": true,
    "licenseNumber": "020000351",
    "licenseEffectiveDate": "12/01/2024",
    "licenseExpirationDate": "11/30/2025",
    "dataDate": "10/18/2025",
    "capacity": 0,
    "address": "30116 EIGENBRODT WAY",
    "city": "UNION CITY",
    "zip": "94587",
    "county": "ALAMEDA",
    "phone": "(510) 675-6620",
    "lat": 37.60845039,
    "lng": -122.0715596
  },
  {
    "id": "070001240",
    "name": "KAISER FOUNDATION HOSPITAL HOSPICE - HAYWARD",
    "npi": "1518032226",
    "hcaiId": "406014119",
    "businessName": "KAISER FOUNDATION HOSPITALS",
    "contactEmail": "MARSHA.QUEEN@KP.ORG",
    "categoryName": "HOSPICE",
    "categoryCode": "HOSPICE",
    "licenseStatus": "ACTIVE",
    "inService": true,
    "licenseNumber": "070000574",
    "licenseEffectiveDate": "11/11/2023",
    "licenseExpirationDate": "11/10/2025",
    "dataDate": "10/18/2025",
    "capacity": 0,
    "address": "30116 EIGENBRODT WAY",
    "city": "UNION CITY",
    "zip": "94587",
    "county": "ALAMEDA",
    "phone": "(510) 675-5777",
    "lat": 37.60845039,
    "lng": -122.0715596
  },
  {
    "id": "140001006",
    "name": "LOGAN HEALTH CENTER",
    "npi": "1497805790",
    "hcaiId": "306014112",
    "businessName": "TIBURCIO VASQUEZ HEALTH CENTER, INC.",
    "contactEmail": "MSALGADO@TVHC.ORG",
    "categoryName": "PRIMARY CARE CLINIC",
    "categoryCode": "COMTYC",
    "licenseStatus": "ACTIVE",
    "inService": true,
    "licenseNumber": "140000504",
    "licenseEffectiveDate": "11/16/2024",
    "licenseExpirationDate": "11/15/2025",
    "dataDate": "10/18/2025",
    "capacity": 0,
    "address": "1800 H ST, ROOM 80",
    "city": "UNION CITY",
    "zip": "94587",
    "county": "ALAMEDA",
    "phone": "(510) 690-6052",
    "lat": 37.591218,
    "lng": -122.0245245
  },
  {
    "id": "020000040",
    "name": "MASONIC HOME",
    "npi": "1043426588",
    "hcaiId": "206010879",
    "businessName": "MASONIC HOMES OF CALIFORNIA",
    "contactEmail": "CCRUZ@MHCUC.ORG",
    "categoryName": "SKILLED NURSING FACILITY",
    "categoryCode": "SNF",
    "licenseStatus": "ACTIVE",
    "inService": true,
    "licenseNumber": "020000063",
    "licenseEffectiveDate": "11/01/2025",
    "licenseExpirationDate": "10/31/2026",
    "dataDate": "10/18/2025",
    "capacity": 125,
    "address": "34400 MISSION BOULEVARD",
    "city": "UNION CITY",
    "zip": "94587",
    "county": "ALAMEDA",
    "phone": "(510) 429-6487",
    "lat": 37.598823,
    "lng": -122.0058495
  },
  {
    "id": "020001263",
    "name": "MIKA'S HOME ICF/DD-H",
    "npi": "1649805912",
    "hcaiId": null,
    "businessName": "JINGMA INC",
    "contactEmail": "NGAISHEW@YAHOO.COM",
    "categoryName": "INTERMEDIATE CARE FACILITY-DD/H/N/CN/IID",
    "categoryCode": "ICFDDH",
    "licenseStatus": "ACTIVE",
    "inService": true,
    "licenseNumber": "020000641",
    "licenseEffectiveDate": "05/16/2025",
    "licenseExpirationDate": "05/15/2026",
    "dataDate": "10/18/2025",
    "capacity": 6,
    "address": "34909 OSPREY DR",
    "city": "UNION CITY",
    "zip": "94587",
    "county": "ALAMEDA",
    "phone": "(510) 324-0060",
    "lat": 37.582317,
    "lng": -122.015439
  },
  {
    "id": "020001300",
    "name": "NURSING RESOURCES",
    "npi": "1669418505",
    "hcaiId": "406014094",
    "businessName": "TEMPCARE, LLC",
    "contactEmail": "ELVIN@BAYAREANURSING.COM",
    "categoryName": "HOME HEALTH AGENCY",
    "categoryCode": "HHA",
    "licenseStatus": "ACTIVE",
    "inService": true,
    "licenseNumber": "020000656",
    "licenseEffectiveDate": "05/21/2025",
    "licenseExpirationDate": "05/20/2026",
    "dataDate": "10/18/2025",
    "capacity": 0,
    "address": "31080 UNION CITY BLVD, SUITE 203",
    "city": "UNION CITY",
    "zip": "94587",
    "county": "ALAMEDA",
    "phone": "(510) 745-7878",
    "lat": 37.595718,
    "lng": -122.0803335
  },
  {
    "id": "630014505",
    "name": "PRIME MED HOME HEALTH AGENCY INC.",
    "npi": "1659619971",
    "hcaiId": "406014332",
    "businessName": "PRIME MED HOME HEALTH AGENCY INC.",
    "contactEmail": "PRIMEMEDCARE@YAHOO.COM",
    "categoryName": "HOME HEALTH AGENCY",
    "categoryCode": "HHA",
    "licenseStatus": "ACTIVE",
    "inService": true,
    "licenseNumber": "550002552",
    "licenseEffectiveDate": "01/24/2023",
    "licenseExpirationDate": "01/23/2024",
    "dataDate": "10/18/2025",
    "capacity": 0,
    "address": "32260 ALVARADO BLVD",
    "city": "UNION CITY",
    "zip": "94587",
    "county": "ALAMEDA",
    "phone": "(510) 441-2430",
    "lat": 37.588563,
    "lng": -122.066649
  },
  {
    "id": "140001137",
    "name": "REALOPTIONS",
    "npi": null,
    "hcaiId": "306014149",
    "businessName": "REALOPTIONS",
    "contactEmail": "TASHA@REALOPTIONS.NET",
    "categoryName": "PRIMARY CARE CLINIC",
    "categoryCode": "COMTYC",
    "licenseStatus": "ACTIVE",
    "inService": true,
    "licenseNumber": "140000564",
    "licenseEffectiveDate": "11/13/2024",
    "licenseExpirationDate": "11/12/2025",
    "dataDate": "10/18/2025",
    "capacity": 0,
    "address": "33523 WESTERN AVE",
    "city": "UNION CITY",
    "zip": "94587",
    "county": "ALAMEDA",
    "phone": "(403) 650-7205",
    "lat": 37.59187991,
    "lng": -122.0348898
  },
  {
    "id": "140000245",
    "name": "TIBURCIO VASQUEZ HEALTH CENTER, INC.",
    "npi": null,
    "hcaiId": "306011057",
    "businessName": "TIBURCIO VASQUEZ HEALTH CENTER, INC.",
    "contactEmail": "MSALGADO@TVHC.ORG",
    "categoryName": "PRIMARY CARE CLINIC",
    "categoryCode": "FQHC",
    "licenseStatus": "ACTIVE",
    "inService": true,
    "licenseNumber": "140000137",
    "licenseEffectiveDate": "02/01/2025",
    "licenseExpirationDate": "01/31/2026",
    "dataDate": "10/18/2025",
    "capacity": 0,
    "address": "33255 9TH ST",
    "city": "UNION CITY",
    "zip": "94587",
    "county": "ALAMEDA",
    "phone": "(510) 471-5907",
    "lat": 37.602594,
    "lng": -122.0264505
  },
  {
    "id": "630024692",
    "name": "TIBURCIO VASQUEZ HEALTH CENTER, INC. C/O: MOBILE MEDICAL SERVICES VAN UNION CITY",
    "npi": null,
    "hcaiId": null,
    "businessName": "TIBURCIO VASQUEZ HEALTH CENTER, INC.",
    "contactEmail": "MSALGADO@TVHC.ORG",
    "categoryName": "PRIMARY CARE CLINIC",
    "categoryCode": "COMTYC",
    "licenseStatus": "ACTIVE",
    "inService": true,
    "licenseNumber": "140000137",
    "licenseEffectiveDate": "02/01/2025",
    "licenseExpirationDate": "01/31/2026",
    "dataDate": "10/18/2025",
    "capacity": 0,
    "address": "33255 9TH ST",
    "city": "UNION CITY",
    "zip": "94587",
    "county": "ALAMEDA",
    "phone": "(510) 690-6052",
    "lat": 37.602594,
    "lng": -122.0264505
  },
  {
    "id": "140000263",
    "name": "UNION CITY DIALYSIS CENTER",
    "npi": "1639132608",
    "hcaiId": "306013662",
    "businessName": "TOTAL RENAL CARE, INC.",
    "contactEmail": "CAL_C@DAVITA.COM",
    "categoryName": "CHRONIC DIALYSIS CLINIC",
    "categoryCode": "ESRD/CDC",
    "licenseStatus": "ACTIVE",
    "inService": true,
    "licenseNumber": "140000213",
    "licenseEffectiveDate": "11/01/2025",
    "licenseExpirationDate": "10/31/2026",
    "dataDate": "10/18/2025",
    "capacity": 38,
    "address": "32930 ALVARADO NILES RD, SUITE 300",
    "city": "UNION CITY",
    "zip": "94587",
    "county": "ALAMEDA",
    "phone": "(510) 489-6996",
    "lat": 37.59413811,
    "lng": -122.0460329
  },
  {
    "id": "140001074",
    "name": "UNION CITY PHYSICAL THERAPY",
    "npi": null,
    "hcaiId": null,
    "businessName": null,
    "contactEmail": null,
    "categoryName": "OTHER",
    "categoryCode": "UNLICEN",
    "licenseStatus": null,
    "inService": null,
    "licenseNumber": null,
    "licenseEffectiveDate": null,
    "licenseExpirationDate": null,
    "dataDate": "10/18/2025",
    "capacity": 0,
    "address": "38 UNION SQ, SUITE A",
    "city": "UNION CITY",
    "zip": "94587",
    "county": "ALAMEDA",
    "phone": "(510) 487-0902",
    "lat": 37.58771331,
    "lng": -122.0169214
  }
]