[
  {
    "id": "630013744",
    "name": "ACTIVE REHAB PHYSICAL THERAPY",
    "npi": null,
    "hcaiId": null,
    "businessName": null,
    "contactEmail": "SCATES.MICHAEL@YAHOO.COM",
    "categoryName": "REHABILITATION CLINIC",
    "categoryCode": "OPT/SP",
    "licenseStatus": null,
    "inService": null,
    "licenseNumber": null,
    "licenseEffectiveDate": null,
    "licenseExpirationDate": null,
    "dataDate": "10/18/2025",
    "capacity": 0,
    "address": "124 LINCOLN RD E",
    "city": "VALLEJO",
    "zip": "94591",
    "county": "SOLANO",
    "phone": "(925) 518-4964",
    "lat": 38.081817,
    "lng": -122.2314615
  },
  {
    "id": "010000860",
    "name": "GREENFIELDS I ICF-DDN",
    "npi": "1295945244",
    "hcaiId": null,
    "businessName": "JASMINE BADILLO & TERESITA REYES",
    "contactEmail": "GREENFIELDNURSING@YAHOO.COM",
    "categoryName": "INTERMEDIATE CARE FACILITY-DD/H/N/CN/IID",
    "categoryCode": "ICFDDN",
    "licenseStatus": "ACTIVE",
    "inService": true,
    "licenseNumber": "010000325",
    "licenseEffectiveDate": "03/22/2025",
    "licenseExpirationDate": "03/21/2026",
    "dataDate": "10/18/2025",
    "capacity": 6,
    "address": "219 TORREY PINES CT",
    "city": "VALLEJO",
    "zip": "94591",
    "county": "SOLANO",
    "phone": "(707) 558-8149",
    "lat": 38.117574,
    "lng": -122.1975
  },
  {
    "id": "010001139",
    "name": "GREENFIELDS III ICF-DDN",
    "npi": "1992915953",
    "hcaiId": null,
    "businessName": "JASMINE BADILLO & TERESITA REYES",
    "contactEmail": "GREENFIELDSNURSING@YAHOO.COM",
    "categoryName": "INTERMEDIATE CARE FACILITY-DD/H/N/CN/IID",
    "categoryCode": "ICFDDN",
    "licenseStatus": "ACTIVE",
    "inService": true,
    "licenseNumber": "010000433",
    "licenseEffectiveDate": "12/13/2024",
    "licenseExpirationDate": "12/12/2025",
    "dataDate": "10/18/2025",
    "capacity": 6,
    "address": "100 MORGAN CT",
    "city": "VALLEJO",
    "zip": "94591",
    "county": "SOLANO",
    "phone": "(707) 643-3948",
    "lat": 38.129274,
    "lng": -122.218929
  },
  {
    "id": "630011678",
    "name": "GREENFIELDS IV ICF-DDN",
    "npi": "1154583219",
    "hcaiId": null,
    "businessName": "JASMINE BADILLO & TERESITA REYES",
    "contactEmail": "GREENFIELDSNURSING@YAHOO.COM",
    "categoryName": "INTERMEDIATE CARE FACILITY-DD/H/N/CN/IID",
    "categoryCode": "ICFDDN",
    "licenseStatus": "ACTIVE",
    "inService": true,
    "licenseNumber": "550000659",
    "licenseEffectiveDate": "11/16/2025",
    "licenseExpirationDate": "11/15/2026",
    "dataDate": "10/18/2025",
    "capacity": 6,
    "address": "101 HAWKESBURY WAY",
    "city": "VALLEJO",
    "zip": "94591",
    "county": "SOLANO",
    "phone": "(707) 552-1756",
    "lat": 38.116935,
    "lng": -122.201604
  },
  {
    "id": "110000030",
    "name": "HEARTWOOD AVENUE HEALTHCARE",
    "npi": "1003538471",
    "hcaiId": "206480965",
    "businessName": "HEARTWOOD AVENUE, LLC",
    "contactEmail": "CONNOR.AIREY@HEARTWOODAVEHC.COM",
    "categoryName": "SKILLED NURSING FACILITY",
    "categoryCode": "SNF",
    "licenseStatus": "ACTIVE",
    "inService": true,
    "licenseNumber": "110000020",
    "licenseEffectiveDate": "11/28/2024",
    "licenseExpirationDate": "11/27/2025",
    "dataDate": "10/18/2025",
    "capacity": 60,
    "address": "1044 HEARTWOOD AVE",
    "city": "VALLEJO",
    "zip": "94591",
    "county": "SOLANO",
    "phone": "(707) 643-2267",
    "lat": 38.105334,
    "lng": -122.2107435
  },
  {
    "id": "110000603",
    "name": "HEARTWOOD AVENUE HEALTHCARE",
    "npi": "1003538471",
    "hcaiId": null,
    "businessName": "HEARTWOOD AVENUE, LLC",
    "contactEmail": null,
    "categoryName": "REHABILITATION CLINIC",
    "categoryCode": "OPT/SP",
    "licenseStatus": "ACTIVE",
    "inService": true,
    "licenseNumber": "110000020",
    "licenseEffectiveDate": "11/28/2024",
    "licenseExpirationDate": "11/27/2025",
    "dataDate": "10/18/2025",
    "capacity": 0,
    "address": "1044 HEARTWOOD AVE",
    "city": "VALLEJO",
    "zip": "94591",
    "county": "SOLANO",
    "phone": null,
    "lat": 38.105334,
    "lng": -122.2107435
  },
  {
    "id": "630008101",
    "name": "MARY'S HELP HOME HEALTH SERVICES, INC.",
    "npi": "1205929593",
    "hcaiId": "406484051",
    "businessName": "MARY'S HELP HOME HEALTH SERVICES, INC.",
    "contactEmail": "MARYSHELP@HHRGCONNECT.COM",
    "categoryName": "HOME HEALTH AGENCY",
    "categoryCode": "HHA",
    "licenseStatus": "ACTIVE",
    "inService": true,
    "licenseNumber": "550000539",
    "licenseEffectiveDate": "06/11/2025",
    "licenseExpirationDate": "06/10/2026",
    "dataDate": "10/18/2025",
    "capacity": 0,
    "address": "3469 TENNESSEE STREET, SUITE 101",
    "city": "VALLEJO",
    "zip": "94591",
    "county": "SOLANO",
    "phone": "(650) 201-6025",
    "lat": 38.108772,
    "lng": -122.204907
  },
  {
    "id": "630019827",
    "name": "MARY'S HELP HOSPICE SERVICES",
    "npi": null,
    "hcaiId": "406485144",
    "businessName": "MARY'S HELP HOSPICE SERVICES",
    "contactEmail": "MARYSHELP.HOSPICE@HHRGCONNECT.COM",
    "categoryName": "HOSPICE",
    "categoryCode": "HOSPICE",
    "licenseStatus": "ACTIVE",
    "inService": true,
    "licenseNumber": "550007355",
    "licenseEffectiveDate": "04/01/2025",
    "licenseExpirationDate": "11/14/2025",
    "dataDate": "10/18/2025",
    "capacity": 0,
    "address": "3469 TENNESSEE ST, SUITE 103",
    "city": "VALLEJO",
    "zip": "94591",
    "county": "SOLANO",
    "phone": "(707) 645-7447",
    "lat": 38.108772,
    "lng": -122.204907
  },
  {
    "id": "010000160",
    "name": "MILESTONES OF DEVELOPMENT #1",
    "npi": "1447467592",
    "hcaiId": null,
    "businessName": "MILESTONES OF DEVELOPMENT INC.",
    "contactEmail": "PAULINAL@MILESTONESOFDEVELOPMENT.ORG",
    "categoryName": "INTERMEDIATE CARE FACILITY-DD/H/N/CN/IID",
    "categoryCode": "ICFDDH",
    "licenseStatus": "ACTIVE",
    "inService": true,
    "licenseNumber": "010000103",
    "licenseEffectiveDate": "11/01/2024",
    "licenseExpirationDate": "10/31/2025",
    "dataDate": "10/18/2025",
    "capacity": 6,
    "address": "150 HILLVIEW DR",
    "city": "VALLEJO",
    "zip": "94591",
    "county": "SOLANO",
    "phone": "(707) 644-0496",
    "lat": 38.116035,
    "lng": -122.204907
  },
  {
    "id": "010000162",
    "name": "MILESTONES OF DEVELOPMENT #3",
    "npi": "1366650376",
    "hcaiId": null,
    "businessName": "MILESTONES OF DEVELOPMENT INC.",
    "contactEmail": "JENNAD@MILESTONESOFDEVELOPMENT.ORG",
    "categoryName": "INTERMEDIATE CARE FACILITY-DD/H/N/CN/IID",
    "categoryCode": "ICFDDH",
    "licenseStatus": "ACTIVE",
    "inService": true,
    "licenseNumber": "010000105",
    "licenseEffectiveDate": "11/01/2024",
    "licenseExpirationDate": "10/31/2025",
    "dataDate": "10/18/2025",
    "capacity": 6,
    "address": "178 SUNRISE WAY",
    "city": "VALLEJO",
    "zip": "94591",
    "county": "SOLANO",
    "phone": "(707) 644-0496",
    "lat": 38.114316,
    "lng": -122.202738
  },
  {
    "id": "010000163",
    "name": "MILESTONES OF DEVELOPMENT #4",
    "npi": "1174731061",
    "hcaiId": null,
    "businessName": "MILESTONES OF DEVELOPMENT INC.",
    "contactEmail": "JENNAD@MILESTONESOFDEVELOPMENT.ORG",
    "categoryName": "INTERMEDIATE CARE FACILITY-DD/H/N/CN/IID",
    "categoryCode": "ICFDDH",
    "licenseStatus": "ACTIVE",
    "inService": true,
    "licenseNumber": "010000106",
    "licenseEffectiveDate": "11/01/2024",
    "licenseExpirationDate": "10/31/2025",
    "dataDate": "10/18/2025",
    "capacity": 6,
    "address": "132 TERRYBROOK LN",
    "city": "VALLEJO",
    "zip": "94591",
    "county": "SOLANO",
    "phone": "(707) 644-0496",
    "lat": 38.114199,
    "lng": -122.2104915
  },
  {
    "id": "010000164",
    "name": "MILESTONES OF DEVELOPMENT #5",
    "npi": null,
    "hcaiId": null,
    "businessName": "MILESTONES OF DEVELOPMENT INC.",
    "contactEmail": "PAULINAL@MILESTONESOFDEVELOPMENT.ORG",
    "categoryName": "INTERMEDIATE CARE FACILITY-DD/H/N/CN/IID",
    "categoryCode": "ICFDDH",
    "licenseStatus": "ACTIVE",
    "inService": true,
    "licenseNumber": "010000107",
    "licenseEffectiveDate": "11/01/2024",
    "licenseExpirationDate": "10/31/2025",
    "dataDate": "10/18/2025",
    "capacity": 6,
    "address": "200 LYTHAM WAY",
    "city": "VALLEJO",
    "zip": "94591",
    "county": "SOLANO",
    "phone": "(707) 644-0496",
    "lat": 38.115063,
    "lng": -122.201136
  },
  {
    "id": "630012828",
    "name": "SANTA LUCIA II ICF-DD-H, INCORPORATED",
    "npi": "1912336710",
    "hcaiId": null,
    "businessName": "SANTA LUCIA II ICF-DDH, INCORPORATED",
    "contactEmail": "WEREBOJUS2003@YAHOO.COM",
    "categoryName": "INTERMEDIATE CARE FACILITY-DD/H/N/CN/IID",
    "categoryCode": "ICFDDH",
    "licenseStatus": "ACTIVE",
    "inService": true,
    "licenseNumber": "550001496",
    "licenseEffectiveDate": "11/13/2024",
    "licenseExpirationDate": "11/12/2025",
    "dataDate": "10/18/2025",
    "capacity": 6,
    "address": "722 LASSEN ST",
    "city": "VALLEJO",
    "zip": "94591",
    "county": "SOLANO",
    "phone": "(707) 655-3225",
    "lat": 38.106711,
    "lng": -122.2262145
  },
  {
    "id": "110000074",
    "name": "SPRINGS ROAD HEALTHCARE",
    "npi": "1023066966",
    "hcaiId": "206480917",
    "businessName": "1527 SPRINGS ROAD, LLC",
    "contactEmail": "CONNOR.AIREY@SPRINGSROADHC.COM",
    "categoryName": "SKILLED NURSING FACILITY",
    "categoryCode": "SNF",
    "licenseStatus": "ACTIVE",
    "inService": true,
    "licenseNumber": "110000003",
    "licenseEffectiveDate": "11/28/2024",
    "licenseExpirationDate": "11/27/2025",
    "dataDate": "10/18/2025",
    "capacity": 65,
    "address": "1527 SPRINGS RD",
    "city": "VALLEJO",
    "zip": "94591",
    "county": "SOLANO",
    "phone": "(707) 643-2793",
    "lat": 38.105775,
    "lng": -122.2247745
  }
]