[
  {
    "id": "630021259",
    "name": "ALAMEDA CARE HOSPICE",
    "npi": "1881293942",
    "hcaiId": "406014793",
    "businessName": "ALAMEDA CARE HOSPICE",
    "contactEmail": "ANDREY@ALAMEDAHOSPICE.COM",
    "categoryName": "HOSPICE",
    "categoryCode": "HOSPICE",
    "licenseStatus": "ACTIVE",
    "inService": true,
    "licenseNumber": "550006107",
    "licenseEffectiveDate": "03/08/2025",
    "licenseExpirationDate": "03/07/2027",
    "dataDate": "10/18/2025",
    "capacity": 0,
    "address": "1280 CIVIC DR, SUITE 210",
    "city": "WALNUT CREEK",
    "zip": "94596",
    "county": "CONTRA COSTA",
    "phone": "(415) 710-8433",
    "lat": 37.904369,
    "lng": -122.059832
  },
  {
    "id": "630024899",
    "name": "AMERICAN ROSE HOMEHEALTH",
    "npi": null,
    "hcaiId": "406078184",
    "businessName": "AMERICAN ROSE HEALTHCARE GROUP INC.",
    "contactEmail": "AMERICANROSEHOMEHEALTH@GMAIL.COM",
    "categoryName": "HOME HEALTH AGENCY",
    "categoryCode": "HHA",
    "licenseStatus": "ACTIVE",
    "inService": true,
    "licenseNumber": "550008788",
    "licenseEffectiveDate": "10/20/2025",
    "licenseExpirationDate": "10/19/2026",
    "dataDate": "10/18/2025",
    "capacity": 0,
    "address": "1475 N BROADWAY, SUITE 335",
    "city": "WALNUT CREEK",
    "zip": "94596",
    "county": "CONTRA COSTA",
    "phone": "(925) 476-5377",
    "lat": 37.900395,
    "lng": -122.060556
  },
  {
    "id": "630018415",
    "name": "ATHOME HEALTHCARE TEAM - EAST BAY, LLC",
    "npi": null,
    "hcaiId": "406071846",
    "businessName": "ATHOME HEALTHCARE TEAM - EAST BAY, LLC",
    "contactEmail": "ATHOMETEAMCC@GMAIL.COM",
    "categoryName": "HOME HEALTH AGENCY",
    "categoryCode": "HHA",
    "licenseStatus": "ACTIVE",
    "inService": true,
    "licenseNumber": "550004986",
    "licenseEffectiveDate": "10/04/2025",
    "licenseExpirationDate": "10/03/2026",
    "dataDate": "10/18/2025",
    "capacity": 0,
    "address": "1875 OLYMPIC BLVD, SUITE 201",
    "city": "WALNUT CREEK",
    "zip": "94596",
    "county": "CONTRA COSTA",
    "phone": "(925) 448-2177",
    "lat": 37.895112,
    "lng": -122.065146
  },
  {
    "id": "630027011",
    "name": "BRISTOL HOSPICE - WALNUT CREEK",
    "npi": null,
    "hcaiId": null,
    "businessName": "SOJOURN HOSPICE & PALLIATIVE CARE - EAST BAY, LLC",
    "contactEmail": "LINA.MEJIA@BRISTOLHOSPICE.COM",
    "categoryName": "HOSPICE",
    "categoryCode": "HOSPICE",
    "licenseStatus": "ACTIVE",
    "inService": true,
    "licenseNumber": "550003382",
    "licenseEffectiveDate": "01/26/2024",
    "licenseExpirationDate": "01/25/2026",
    "dataDate": "10/18/2025",
    "capacity": 0,
    "address": "1220 OAKLAND BLVD, SUITE 350",
    "city": "WALNUT CREEK",
    "zip": "94596",
    "county": "CONTRA COSTA",
    "phone": "(661) 387-7101",
    "lat": 37.897281,
    "lng": -122.0699295
  },
  {
    "id": "630018173",
    "name": "COMPASSIONATE HOME HEALTH",
    "npi": null,
    "hcaiId": "406012672",
    "businessName": "COMPASSIONATE HOME HEALTH & HOSPICE INC",
    "contactEmail": "COMPASSIONATEFORALL@GMAIL.COM",
    "categoryName": "HOME HEALTH AGENCY",
    "categoryCode": "HHA",
    "licenseStatus": "ACTIVE",
    "inService": true,
    "licenseNumber": "550005611",
    "licenseEffectiveDate": "08/22/2025",
    "licenseExpirationDate": "06/21/2026",
    "dataDate": "10/18/2025",
    "capacity": 0,
    "address": "1501 N BROADWAY, SUITE 350B",
    "city": "WALNUT CREEK",
    "zip": "94596",
    "county": "CONTRA COSTA",
    "phone": "(925) 425-7104",
    "lat": 37.90081968,
    "lng": -122.0606253
  },
  {
    "id": "630020502",
    "name": "COMPASSIONATE HOME HEALTH & HOSPICE, INC.",
    "npi": null,
    "hcaiId": "406013948",
    "businessName": "COMPASSIONATE HOME HEALTH & HOSPICE INC",
    "contactEmail": "COMPASSIONATEFORALL@GMAIL.COM",
    "categoryName": "HOSPICE",
    "categoryCode": "HOSPICE",
    "licenseStatus": "ACTIVE",
    "inService": true,
    "licenseNumber": "550006203",
    "licenseEffectiveDate": "04/07/2025",
    "licenseExpirationDate": "04/06/2027",
    "dataDate": "10/18/2025",
    "capacity": 0,
    "address": "1501 N BROADWAY, SUITE 350",
    "city": "WALNUT CREEK",
    "zip": "94596",
    "county": "CONTRA COSTA",
    "phone": "(510) 376-5292",
    "lat": 37.90081968,
    "lng": -122.0606253
  },
  {
    "id": "630020648",
    "name": "HEALTH LINK",
    "npi": "1215122346",
    "hcaiId": "406074811",
    "businessName": "HEALTH LINK",
    "contactEmail": "BORIS@HEALTHLINKHHA.COM",
    "categoryName": "HOME HEALTH AGENCY",
    "categoryCode": "HHA",
    "licenseStatus": "ACTIVE",
    "inService": true,
    "licenseNumber": "550000503",
    "licenseEffectiveDate": "11/03/2025",
    "licenseExpirationDate": "02/20/2026",
    "dataDate": "10/18/2025",
    "capacity": 0,
    "address": "1280 CIVIC DR, SUITE 105",
    "city": "WALNUT CREEK",
    "zip": "94596",
    "county": "CONTRA COSTA",
    "phone": "(415) 664-5500",
    "lat": 37.904247,
    "lng": -122.059917
  },
  {
    "id": "140000190",
    "name": "KAISER FOUNDATION HOSPITAL - WALNUT CREEK",
    "npi": "1639244262",
    "hcaiId": "106070990",
    "businessName": "KAISER FOUNDATION HOSPITALS",
    "contactEmail": "RITA.G.GILYEAT@KP.ORG",
    "categoryName": "GENERAL ACUTE CARE HOSPITAL",
    "categoryCode": "GACH",
    "licenseStatus": "ACTIVE",
    "inService": true,
    "licenseNumber": "140000290",
    "licenseEffectiveDate": "12/01/2024",
    "licenseExpirationDate": "11/30/2025",
    "dataDate": "10/18/2025",
    "capacity": 249,
    "address": "1425 S MAIN STREET",
    "city": "WALNUT CREEK",
    "zip": "94596",
    "county": "CONTRA COSTA",
    "phone": "(925) 295-5930",
    "lat": 37.891422,
    "lng": -122.058891
  },
  {
    "id": "140001040",
    "name": "MA-LAI FARRELL",
    "npi": null,
    "hcaiId": null,
    "businessName": null,
    "contactEmail": null,
    "categoryName": "OTHER",
    "categoryCode": "UNLICEN",
    "licenseStatus": null,
    "inService": null,
    "licenseNumber": null,
    "licenseEffectiveDate": null,
    "licenseExpirationDate": null,
    "dataDate": "10/18/2025",
    "capacity": 0,
    "address": "1855 SAN MIGUEL DR, SUITE 31",
    "city": "WALNUT CREEK",
    "zip": "94596",
    "county": "CONTRA COSTA",
    "phone": "(925) 934-1109",
    "lat": 37.894284,
    "lng": -122.0530905
  },
  {
    "id": "630027956",
    "name": "PACIFIC COAST HOME HEALTH CARE SERVICES",
    "npi": null,
    "hcaiId": null,
    "businessName": "PACIFIC COAST HOME HEALTH CARE SERVICES",
    "contactEmail": "ADMIN@PACIFICCOASTHHCS.COM",
    "categoryName": "HOME HEALTH AGENCY",
    "categoryCode": "HHA",
    "licenseStatus": "ACTIVE",
    "inService": true,
    "licenseNumber": "550009970",
    "licenseEffectiveDate": "10/02/2025",
    "licenseExpirationDate": "04/01/2026",
    "dataDate": "10/18/2025",
    "capacity": 0,
    "address": "43 QUAIL CT, SUITE 203",
    "city": "WALNUT CREEK",
    "zip": "94596",
    "county": "CONTRA COSTA",
    "phone": "(925) 322-8443",
    "lat": 37.88835902,
    "lng": -122.054857
  },
  {
    "id": "630014795",
    "name": "PINNACLE HOME HEALTH AGENCY, INC.",
    "npi": "1992133391",
    "hcaiId": "406074174",
    "businessName": "PINNACLE HOME HEALTH AGENCY INC.",
    "contactEmail": "ADMIN@PINNACLEHHA.COM",
    "categoryName": "HOME HEALTH AGENCY",
    "categoryCode": "HHA",
    "licenseStatus": "ACTIVE",
    "inService": true,
    "licenseNumber": "550002759",
    "licenseEffectiveDate": "07/16/2025",
    "licenseExpirationDate": "07/15/2026",
    "dataDate": "10/18/2025",
    "capacity": 0,
    "address": "1375 LOCUST ST, SUITE 200M",
    "city": "WALNUT CREEK",
    "zip": "94596",
    "county": "CONTRA COSTA",
    "phone": "(209) 226-3268",
    "lat": 37.89839798,
    "lng": -122.062195
  },
  {
    "id": "140000237",
    "name": "PLANNED PARENTHOOD OF CONTRA COSTA",
    "npi": "1003974064",
    "hcaiId": "306071247",
    "businessName": "PLANNED PARENTHOOD: SHASTA-DIABLO, INC.",
    "contactEmail": "ESOLORZANO@PPNORCAL.ORG",
    "categoryName": "PRIMARY CARE CLINIC",
    "categoryCode": "COMTYC",
    "licenseStatus": "ACTIVE",
    "inService": true,
    "licenseNumber": "140000148",
    "licenseEffectiveDate": "11/08/2024",
    "licenseExpirationDate": "11/07/2025",
    "dataDate": "10/18/2025",
    "capacity": 0,
    "address": "1357 OAKLAND COURT",
    "city": "WALNUT CREEK",
    "zip": "94596",
    "county": "CONTRA COSTA",
    "phone": "(925) 935-3010",
    "lat": 37.89783,
    "lng": -122.0705145
  },
  {
    "id": "630017486",
    "name": "SUNCREST HOSPICE WALNUT CREEK",
    "npi": "1124368808",
    "hcaiId": null,
    "businessName": "SUNCREST HOSPICE SAN JOSE, LLC",
    "contactEmail": "MFILHART@SUNCRESTCARE.COM",
    "categoryName": "HOSPICE",
    "categoryCode": "HOSPICE",
    "licenseStatus": "ACTIVE",
    "inService": true,
    "licenseNumber": "550002410",
    "licenseEffectiveDate": "09/17/2025",
    "licenseExpirationDate": "09/16/2027",
    "dataDate": "10/18/2025",
    "capacity": 0,
    "address": "1777 BOTELHO DR, SUITE 240",
    "city": "WALNUT CREEK",
    "zip": "94596",
    "county": "CONTRA COSTA",
    "phone": "(408) 900-8838",
    "lat": 37.893231,
    "lng": -122.0632785
  }
]