[
  {
    "id": "630011464",
    "name": "ASPEN SURGERY CENTER, LLC",
    "npi": "1710177795",
    "hcaiId": null,
    "businessName": null,
    "contactEmail": null,
    "categoryName": "SURGICAL CLINIC",
    "categoryCode": "ASC",
    "licenseStatus": null,
    "inService": null,
    "licenseNumber": null,
    "licenseEffectiveDate": null,
    "licenseExpirationDate": null,
    "dataDate": "10/18/2025",
    "capacity": 0,
    "address": "133 LA CASA VIA",
    "city": "WALNUT CREEK",
    "zip": "94598",
    "county": "CONTRA COSTA",
    "phone": "(925) 947-3282",
    "lat": 37.91193589,
    "lng": -122.0414879
  },
  {
    "id": "630016723",
    "name": "BAY AREA SURGICAL SPECIALIST SERVICES LLC",
    "npi": "1609274505",
    "hcaiId": null,
    "businessName": null,
    "contactEmail": null,
    "categoryName": "SURGICAL CLINIC",
    "categoryCode": "ASC",
    "licenseStatus": null,
    "inService": null,
    "licenseNumber": null,
    "licenseEffectiveDate": null,
    "licenseExpirationDate": null,
    "dataDate": "10/18/2025",
    "capacity": 0,
    "address": "460 N WIGET LN, SUITE A",
    "city": "WALNUT CREEK",
    "zip": "94598",
    "county": "CONTRA COSTA",
    "phone": null,
    "lat": 37.92947699,
    "lng": -122.030403
  },
  {
    "id": "630018148",
    "name": "BRIDGE HOME HEALTH",
    "npi": "1538659768",
    "hcaiId": "406071643",
    "businessName": "BRIDGE HOME HEALTH EAST BAY, LLC",
    "contactEmail": "GBOGDAN@BRIDGEHH.COM",
    "categoryName": "HOME HEALTH AGENCY",
    "categoryCode": "HHA",
    "licenseStatus": "ACTIVE",
    "inService": true,
    "licenseNumber": "550004656",
    "licenseEffectiveDate": "04/24/2025",
    "licenseExpirationDate": "04/23/2026",
    "dataDate": "10/18/2025",
    "capacity": 0,
    "address": "3021 CITRUS CIR, SUITE 270",
    "city": "WALNUT CREEK",
    "zip": "94598",
    "county": "CONTRA COSTA",
    "phone": "(708) 218-1661",
    "lat": 37.928124,
    "lng": -122.014683
  },
  {
    "id": "630028161",
    "name": "CALLISTA SURGERY CENTER LLC",
    "npi": null,
    "hcaiId": null,
    "businessName": null,
    "contactEmail": "KATRINA@KAFHC.COM",
    "categoryName": "SURGICAL CLINIC",
    "categoryCode": "ASC",
    "licenseStatus": null,
    "inService": null,
    "licenseNumber": null,
    "licenseEffectiveDate": null,
    "licenseExpirationDate": null,
    "dataDate": "10/18/2025",
    "capacity": 0,
    "address": "355 LENNON LN, SUITE 275",
    "city": "WALNUT CREEK",
    "zip": "94598",
    "county": "CONTRA COSTA",
    "phone": "(408) 309-6879",
    "lat": 37.92732946,
    "lng": -122.0310034
  },
  {
    "id": "630012976",
    "name": "COMFORT ASSISTING, INC.",
    "npi": "1467778100",
    "hcaiId": "406074149",
    "businessName": "COMFORT ASSISTING, INC.",
    "contactEmail": "COMFORTASSISTING@COMFORTASSISTING.COM",
    "categoryName": "HOME HEALTH AGENCY",
    "categoryCode": "HHA",
    "licenseStatus": "ACTIVE",
    "inService": true,
    "licenseNumber": "550001567",
    "licenseEffectiveDate": "05/09/2025",
    "licenseExpirationDate": "05/08/2026",
    "dataDate": "10/18/2025",
    "capacity": 0,
    "address": "112 LA CASA VIA, SUITE 160",
    "city": "WALNUT CREEK",
    "zip": "94598",
    "county": "CONTRA COSTA",
    "phone": "(925) 933-3200",
    "lat": 37.911906,
    "lng": -122.042673
  },
  {
    "id": "140000983",
    "name": "FRESENIUS MEDICAL CARE DIABLO WALNUT CREEK",
    "npi": "1851546584",
    "hcaiId": "306074106",
    "businessName": "FRESENIUS MEDICAL CARE DIABLO NEPHROLOGY CLINICS, LLC",
    "contactEmail": "CLINIC6784@FMC-NA.COM",
    "categoryName": "CHRONIC DIALYSIS CLINIC",
    "categoryCode": "ESRD/CDC",
    "licenseStatus": "ACTIVE",
    "inService": true,
    "licenseNumber": "140000490",
    "licenseEffectiveDate": "12/01/2024",
    "licenseExpirationDate": "11/30/2025",
    "dataDate": "10/18/2025",
    "capacity": 23,
    "address": "365 LENNON LANE, SUITE 160",
    "city": "WALNUT CREEK",
    "zip": "94598",
    "county": "CONTRA COSTA",
    "phone": "(925) 947-4545",
    "lat": 37.92771204,
    "lng": -122.0300597
  },
  {
    "id": "140000187",
    "name": "JOHN MUIR MEDICAL CENTER-WALNUT CREEK CAMPUS",
    "npi": "1740215219",
    "hcaiId": "106070988",
    "businessName": "JOHN MUIR HEALTH",
    "contactEmail": "MELISSA.CLANCY@JOHNMUIRHEALTH.COM",
    "categoryName": "GENERAL ACUTE CARE HOSPITAL",
    "categoryCode": "GACH",
    "licenseStatus": "ACTIVE",
    "inService": true,
    "licenseNumber": "140000265",
    "licenseEffectiveDate": "09/04/2025",
    "licenseExpirationDate": "10/31/2025",
    "dataDate": "10/18/2025",
    "capacity": 554,
    "address": "1601 YGNACIO VALLEY ROAD",
    "city": "WALNUT CREEK",
    "zip": "94598",
    "county": "CONTRA COSTA",
    "phone": "(925) 947-3352",
    "lat": 37.91313,
    "lng": -122.041152
  },
  {
    "id": "140000051",
    "name": "LA CASA VIA TRANSITIONAL CARE CENTER",
    "npi": "1639199409",
    "hcaiId": "206071107",
    "businessName": "AWCY, LLC",
    "contactEmail": "JCDAVIS@ASPENHEALTH.COM",
    "categoryName": "SKILLED NURSING FACILITY",
    "categoryCode": "SNF",
    "licenseStatus": "ACTIVE",
    "inService": true,
    "licenseNumber": "140000145",
    "licenseEffectiveDate": "11/07/2024",
    "licenseExpirationDate": "11/06/2025",
    "dataDate": "10/18/2025",
    "capacity": 97,
    "address": "1449 YGNACIO VALLEY ROAD",
    "city": "WALNUT CREEK",
    "zip": "94598",
    "county": "CONTRA COSTA",
    "phone": "(925) 939-5820",
    "lat": 37.912212,
    "lng": -122.0443965
  },
  {
    "id": "140000994",
    "name": "LASER SURGERY CENTER, LTD",
    "npi": "1609938570",
    "hcaiId": "306074068",
    "businessName": null,
    "contactEmail": "LSC_LAURIE@EARTHLINK.NET",
    "categoryName": "SURGICAL CLINIC",
    "categoryCode": "ASC",
    "licenseStatus": "INACTIVE - CAPEN DECISION",
    "inService": false,
    "licenseNumber": "140000518",
    "licenseEffectiveDate": "01/11/2008",
    "licenseExpirationDate": "01/10/2009",
    "dataDate": "10/18/2025",
    "capacity": 0,
    "address": "2021 YGNACIO VALLEY RD # H # 102",
    "city": "WALNUT CREEK",
    "zip": "94598",
    "county": "CONTRA COSTA",
    "phone": "(925) 944-9400",
    "lat": 37.920915,
    "lng": -122.0334345
  },
  {
    "id": "140000898",
    "name": "NOVACARE REHABILITATION AGENCY OF NO. CALIFORNIA",
    "npi": null,
    "hcaiId": null,
    "businessName": null,
    "contactEmail": null,
    "categoryName": "OTHER",
    "categoryCode": "UNLICEN",
    "licenseStatus": null,
    "inService": null,
    "licenseNumber": null,
    "licenseEffectiveDate": null,
    "licenseExpirationDate": null,
    "dataDate": "10/18/2025",
    "capacity": 0,
    "address": "1400 MONTEGO, SUITE 419",
    "city": "WALNUT CREEK",
    "zip": "94598",
    "county": "CONTRA COSTA",
    "phone": "(925) 256-7206",
    "lat": 37.911051,
    "lng": -122.0446035
  },
  {
    "id": "630018489",
    "name": "PINNACLE SURGERY CENTER, LLC",
    "npi": "1427585280",
    "hcaiId": null,
    "businessName": null,
    "contactEmail": null,
    "categoryName": "SURGICAL CLINIC",
    "categoryCode": "ASC",
    "licenseStatus": null,
    "inService": null,
    "licenseNumber": null,
    "licenseEffectiveDate": null,
    "licenseExpirationDate": null,
    "dataDate": "10/18/2025",
    "capacity": 0,
    "address": "100 N WIGET LN, ROOM 140",
    "city": "WALNUT CREEK",
    "zip": "94598",
    "county": "CONTRA COSTA",
    "phone": null,
    "lat": 37.925235,
    "lng": -122.023251
  },
  {
    "id": "630013409",
    "name": "PROHEALTH HOME CARE, INC.",
    "npi": "1689943243",
    "hcaiId": "406074156",
    "businessName": "PROHEALTH HOME CARE, INC.",
    "contactEmail": "MARLEEN@PROHEALTH.US",
    "categoryName": "HOME HEALTH AGENCY",
    "categoryCode": "HHA",
    "licenseStatus": "ACTIVE",
    "inService": true,
    "licenseNumber": "550001878",
    "licenseEffectiveDate": "03/19/2025",
    "licenseExpirationDate": "03/18/2026",
    "dataDate": "10/18/2025",
    "capacity": 0,
    "address": "2125 OAK GROVE ROAD, SUITE 124 A & B",
    "city": "WALNUT CREEK",
    "zip": "94598",
    "county": "CONTRA COSTA",
    "phone": "(925) 891-9932",
    "lat": 37.930455,
    "lng": -122.0183505
  },
  {
    "id": "630013617",
    "name": "PROHEALTH HOME CARE, INC.",
    "npi": null,
    "hcaiId": null,
    "businessName": "PROHEALTH HOME CARE, INC.",
    "contactEmail": "MARLEEN@PROHEALTHHOMECARE.COM",
    "categoryName": "HOSPICE",
    "categoryCode": "HOSPICE",
    "licenseStatus": "ACTIVE",
    "inService": true,
    "licenseNumber": "550001878",
    "licenseEffectiveDate": "03/19/2025",
    "licenseExpirationDate": "03/18/2026",
    "dataDate": "10/18/2025",
    "capacity": 0,
    "address": "2125 OAK GROVE ROAD, SUITE 124B",
    "city": "WALNUT CREEK",
    "zip": "94598",
    "county": "CONTRA COSTA",
    "phone": "(408) 772-0753",
    "lat": 37.930491,
    "lng": -122.0184855
  },
  {
    "id": "140001279",
    "name": "SEQUOIA SURGICAL PAVILION",
    "npi": "1316939556",
    "hcaiId": "306074091",
    "businessName": null,
    "contactEmail": null,
    "categoryName": "SURGICAL CLINIC",
    "categoryCode": "ASC",
    "licenseStatus": "INACTIVE - CAPEN DECISION",
    "inService": false,
    "licenseNumber": "140000649",
    "licenseEffectiveDate": "06/17/2008",
    "licenseExpirationDate": "06/16/2009",
    "dataDate": "10/18/2025",
    "capacity": 0,
    "address": "2405 SHADELANDS DRIVE, SUITE 200",
    "city": "WALNUT CREEK",
    "zip": "94598",
    "county": "CONTRA COSTA",
    "phone": "(925) 935-6700",
    "lat": 37.925028,
    "lng": -122.0253075
  },
  {
    "id": "630011609",
    "name": "SHADELANDS ADVANCED ENDOSCOPY INSTITUTE, INC.",
    "npi": null,
    "hcaiId": null,
    "businessName": null,
    "contactEmail": null,
    "categoryName": "SURGICAL CLINIC",
    "categoryCode": "ASC",
    "licenseStatus": null,
    "inService": null,
    "licenseNumber": null,
    "licenseEffectiveDate": null,
    "licenseExpirationDate": null,
    "dataDate": "10/18/2025",
    "capacity": 0,
    "address": "498 N WIGET LN",
    "city": "WALNUT CREEK",
    "zip": "94598",
    "county": "CONTRA COSTA",
    "phone": "(925) 933-3600",
    "lat": 37.92848635,
    "lng": -122.0305832
  },
  {
    "id": "630017506",
    "name": "SHADELANDS ENDOVASCULAR, LLC",
    "npi": "1245620954",
    "hcaiId": null,
    "businessName": null,
    "contactEmail": null,
    "categoryName": "SURGICAL CLINIC",
    "categoryCode": "ASC",
    "licenseStatus": null,
    "inService": null,
    "licenseNumber": null,
    "licenseEffectiveDate": null,
    "licenseExpirationDate": null,
    "dataDate": "10/18/2025",
    "capacity": 0,
    "address": "460 N WIGET LN, SUITE 2",
    "city": "WALNUT CREEK",
    "zip": "94598",
    "county": "CONTRA COSTA",
    "phone": "(925) 627-3495",
    "lat": 37.929501,
    "lng": -122.0303475
  },
  {
    "id": "630024814",
    "name": "SHADELANDS POST ACUTE",
    "npi": null,
    "hcaiId": "206074192",
    "businessName": "GREY PINE HOLDINGS LLC",
    "contactEmail": "MATT.HADLEY@SHADELANDS.COM",
    "categoryName": "SKILLED NURSING FACILITY",
    "categoryCode": "SNF",
    "licenseStatus": "ACTIVE",
    "inService": true,
    "licenseNumber": "550007994",
    "licenseEffectiveDate": "04/28/2025",
    "licenseExpirationDate": "04/27/2026",
    "dataDate": "10/18/2025",
    "capacity": 59,
    "address": "2765 MITCHELL DR",
    "city": "WALNUT CREEK",
    "zip": "94598",
    "county": "CONTRA COSTA",
    "phone": "(925) 296-5547",
    "lat": 37.92968612,
    "lng": -122.0239209
  },
  {
    "id": "630011479",
    "name": "SHADELANDS SURGERY CENTER",
    "npi": null,
    "hcaiId": null,
    "businessName": null,
    "contactEmail": null,
    "categoryName": "SURGICAL CLINIC",
    "categoryCode": "ASC",
    "licenseStatus": null,
    "inService": null,
    "licenseNumber": null,
    "licenseEffectiveDate": null,
    "licenseExpirationDate": null,
    "dataDate": "10/18/2025",
    "capacity": 0,
    "address": "100 N WIGET LN, SUITE 110",
    "city": "WALNUT CREEK",
    "zip": "94598",
    "county": "CONTRA COSTA",
    "phone": null,
    "lat": 37.925235,
    "lng": -122.023251
  },
  {
    "id": "140001039",
    "name": "STEVEN CHRISTIANSEN",
    "npi": null,
    "hcaiId": null,
    "businessName": null,
    "contactEmail": null,
    "categoryName": "OTHER",
    "categoryCode": "UNLICEN",
    "licenseStatus": null,
    "inService": null,
    "licenseNumber": null,
    "licenseEffectiveDate": null,
    "licenseExpirationDate": null,
    "dataDate": "10/18/2025",
    "capacity": 0,
    "address": "120 LA CASA VIA, SUITE 212",
    "city": "WALNUT CREEK",
    "zip": "94598",
    "county": "CONTRA COSTA",
    "phone": "(925) 939-8710",
    "lat": 37.911132,
    "lng": -122.0429025
  },
  {
    "id": "140000078",
    "name": "TAMPICO HEALTHCARE CENTER",
    "npi": "1215602297",
    "hcaiId": "206071061",
    "businessName": "TAMPICO HEALTHCARE CENTER, LLC",
    "contactEmail": "ADMINISTRATOR@TAMPICOHCC.COM",
    "categoryName": "SKILLED NURSING FACILITY",
    "categoryCode": "SNF",
    "licenseStatus": "ACTIVE",
    "inService": true,
    "licenseNumber": "140000138",
    "licenseEffectiveDate": "11/04/2025",
    "licenseExpirationDate": "11/03/2026",
    "dataDate": "10/18/2025",
    "capacity": 128,
    "address": "130 TAMPICO STREET",
    "city": "WALNUT CREEK",
    "zip": "94598",
    "county": "CONTRA COSTA",
    "phone": "(925) 933-7970",
    "lat": 37.9107,
    "lng": -122.0449905
  },
  {
    "id": "070001413",
    "name": "VITAS HEALTHCARE CORPORATION OF CALIFORNIA",
    "npi": "1720122831",
    "hcaiId": "406074105",
    "businessName": "VITAS HEALTHCARE CORPORATION OF CALIFORNIA",
    "contactEmail": "EMILIE.THURMAN@VITAS.COM",
    "categoryName": "HOSPICE",
    "categoryCode": "HOSPICE",
    "licenseStatus": "ACTIVE",
    "inService": true,
    "licenseNumber": "070000687",
    "licenseEffectiveDate": "05/20/2024",
    "licenseExpirationDate": "05/19/2026",
    "dataDate": "10/18/2025",
    "capacity": 0,
    "address": "355 LENNON LANE, SUITE 150",
    "city": "WALNUT CREEK",
    "zip": "94598",
    "county": "CONTRA COSTA",
    "phone": "(925) 930-9373",
    "lat": 37.927332,
    "lng": -122.0310225
  },
  {
    "id": "630012022",
    "name": "WALNUT CREEK AT HOME",
    "npi": "1891968416",
    "hcaiId": null,
    "businessName": null,
    "contactEmail": null,
    "categoryName": "CHRONIC DIALYSIS CLINIC",
    "categoryCode": "ESRD",
    "licenseStatus": null,
    "inService": null,
    "licenseNumber": null,
    "licenseEffectiveDate": null,
    "licenseExpirationDate": null,
    "dataDate": "10/18/2025",
    "capacity": 0,
    "address": "400 N WIGET LANE",
    "city": "WALNUT CREEK",
    "zip": "94598",
    "county": "CONTRA COSTA",
    "phone": "(925) 979-9732",
    "lat": 37.929978,
    "lng": -122.029362
  },
  {
    "id": "140000672",
    "name": "WALNUT CREEK DIALYSIS CENTER",
    "npi": "1952364937",
    "hcaiId": "306074122",
    "businessName": "TOTAL RENAL CARE, INC.",
    "contactEmail": "CAL_C@DAVITA.COM",
    "categoryName": "CHRONIC DIALYSIS CLINIC",
    "categoryCode": "ESRD/CDC",
    "licenseStatus": "ACTIVE",
    "inService": true,
    "licenseNumber": "140000331",
    "licenseEffectiveDate": "11/08/2024",
    "licenseExpirationDate": "11/07/2025",
    "dataDate": "10/18/2025",
    "capacity": 26,
    "address": "404 N WIGET LANE",
    "city": "WALNUT CREEK",
    "zip": "94598",
    "county": "CONTRA COSTA",
    "phone": "(925) 937-0203",
    "lat": 37.9296098,
    "lng": -122.0286116
  },
  {
    "id": "630012336",
    "name": "WALNUT CREEK ENDOSCOPY & SURGERY CENTER",
    "npi": "1851568067",
    "hcaiId": null,
    "businessName": null,
    "contactEmail": "JIMENG@SUTTERHEALTH.ORG",
    "categoryName": "SURGICAL CLINIC",
    "categoryCode": "ASC",
    "licenseStatus": null,
    "inService": null,
    "licenseNumber": null,
    "licenseEffectiveDate": null,
    "licenseExpirationDate": null,
    "dataDate": "10/18/2025",
    "capacity": 0,
    "address": "365 LENNON LANE, SUITE 100",
    "city": "WALNUT CREEK",
    "zip": "94598",
    "county": "CONTRA COSTA",
    "phone": "(925) 938-4600",
    "lat": 37.92771204,
    "lng": -122.0300597
  },
  {
    "id": "140000467",
    "name": "WILLIAM B. KIEVNING",
    "npi": null,
    "hcaiId": null,
    "businessName": null,
    "contactEmail": null,
    "categoryName": "OTHER",
    "categoryCode": "UNLICEN",
    "licenseStatus": null,
    "inService": null,
    "licenseNumber": null,
    "licenseEffectiveDate": null,
    "licenseExpirationDate": null,
    "dataDate": "10/18/2025",
    "capacity": 0,
    "address": "2255 YGNACIO VALLEY RD, SUITE E",
    "city": "WALNUT CREEK",
    "zip": "94598",
    "county": "CONTRA COSTA",
    "phone": "(925) 947-6666",
    "lat": 37.922121,
    "lng": -122.0299605
  }
]