[
  {
    "id": "110000073",
    "name": "ADVENTIST HEALTH VALLEJO",
    "npi": "1851381990",
    "hcaiId": "106481015",
    "businessName": "ST. HELENA HOSPITAL",
    "contactEmail": "ESTIPOJM@AH.ORG",
    "categoryName": "ACUTE PSYCHIATRIC HOSPITAL",
    "categoryCode": "APH",
    "licenseStatus": "ACTIVE",
    "inService": true,
    "licenseNumber": "110000042",
    "licenseEffectiveDate": "11/01/2025",
    "licenseExpirationDate": "10/31/2026",
    "dataDate": "10/18/2025",
    "capacity": 61,
    "address": "525 OREGON ST",
    "city": "VALLEJO",
    "zip": "94590",
    "county": "SOLANO",
    "phone": "(707) 649-4002",
    "lat": 38.117781,
    "lng": -122.2491015
  },
  {
    "id": "630010998",
    "name": "CARQUINEZ DIALYSIS",
    "npi": "1740385111",
    "hcaiId": "306484050",
    "businessName": "TOTAL RENAL CARE, INC.",
    "contactEmail": "CAL_C@DAVITA.COM",
    "categoryName": "CHRONIC DIALYSIS CLINIC",
    "categoryCode": "ESRD/CDC",
    "licenseStatus": "ACTIVE",
    "inService": true,
    "licenseNumber": "550000447",
    "licenseEffectiveDate": "06/26/2025",
    "licenseExpirationDate": "06/25/2026",
    "dataDate": "10/18/2025",
    "capacity": 21,
    "address": "125 CORPORATE PL, SUITE C",
    "city": "VALLEJO",
    "zip": "94590",
    "county": "SOLANO",
    "phone": "(707) 556-3637",
    "lat": 38.09439,
    "lng": -122.2487865
  },
  {
    "id": "630017599",
    "name": "CURTOLA HOME TRAINING",
    "npi": null,
    "hcaiId": null,
    "businessName": null,
    "contactEmail": "CYNTHIA.HUTCHISON@DAVITA.COM",
    "categoryName": "CHRONIC DIALYSIS CLINIC",
    "categoryCode": "ESRD",
    "licenseStatus": null,
    "inService": null,
    "licenseNumber": null,
    "licenseEffectiveDate": null,
    "licenseExpirationDate": null,
    "dataDate": "10/18/2025",
    "capacity": 0,
    "address": "125 CORPORATE PL, SUITE B",
    "city": "VALLEJO",
    "zip": "94590",
    "county": "SOLANO",
    "phone": "(615) 341-5895",
    "lat": 38.09439,
    "lng": -122.2487865
  },
  {
    "id": "630018141",
    "name": "EPIONE HEALTH SERVICES, LLC",
    "npi": null,
    "hcaiId": "406485570",
    "businessName": "EPIONE HEALTH SERVICES LLC",
    "contactEmail": "EHS@EPIONEHEALTHSERVICES.COM",
    "categoryName": "HOME HEALTH AGENCY",
    "categoryCode": "HHA",
    "licenseStatus": "ACTIVE",
    "inService": true,
    "licenseNumber": "550006619",
    "licenseEffectiveDate": "05/15/2025",
    "licenseExpirationDate": "05/14/2026",
    "dataDate": "10/18/2025",
    "capacity": 0,
    "address": "301 GEORGIA ST, SUITE 307",
    "city": "VALLEJO",
    "zip": "94590",
    "county": "SOLANO",
    "phone": "(415) 819-9926",
    "lat": 38.100834,
    "lng": -122.257476
  },
  {
    "id": "110000675",
    "name": "LA CLINICA VALLEJO",
    "npi": null,
    "hcaiId": "306480610",
    "businessName": "LA CLINICA DE LA RAZA, INC.",
    "contactEmail": "VACOMPEAN@LACLINICA.ORG",
    "categoryName": "PRIMARY CARE CLINIC",
    "categoryCode": "COMTYC",
    "licenseStatus": "ACTIVE",
    "inService": true,
    "licenseNumber": "110000270",
    "licenseEffectiveDate": "05/01/2025",
    "licenseExpirationDate": "04/30/2026",
    "dataDate": "10/18/2025",
    "capacity": 0,
    "address": "415 GEORGIA ST",
    "city": "VALLEJO",
    "zip": "94590",
    "county": "SOLANO",
    "phone": "(510) 535-2906",
    "lat": 38.1008017,
    "lng": -122.2562163
  },
  {
    "id": "630015538",
    "name": "LUXOR CARE HOME HEALTH SERVICES",
    "npi": "1003216896",
    "hcaiId": "406484067",
    "businessName": "LUXOR CARE, INC.",
    "contactEmail": "ADMIN@LUXORCAREHHS.COM",
    "categoryName": "HOME HEALTH AGENCY",
    "categoryCode": "HHA",
    "licenseStatus": "ACTIVE",
    "inService": true,
    "licenseNumber": "550002995",
    "licenseEffectiveDate": "02/26/2025",
    "licenseExpirationDate": "02/25/2026",
    "dataDate": "10/18/2025",
    "capacity": 0,
    "address": "301 GEORGIA ST, SUITE 316",
    "city": "VALLEJO",
    "zip": "94590",
    "county": "SOLANO",
    "phone": "(707) 561-8008",
    "lat": 38.100834,
    "lng": -122.257476
  },
  {
    "id": "110000129",
    "name": "PLANNED PARENTHOOD - VALLEJO CENTER",
    "npi": null,
    "hcaiId": "306480361",
    "businessName": "PLANNED PARENTHOOD: SHASTA-DIABLO, INC.",
    "contactEmail": "KWILLIAMS@PPNORCAL.ORG",
    "categoryName": "PRIMARY CARE CLINIC",
    "categoryCode": "COMTYC",
    "licenseStatus": "ACTIVE",
    "inService": true,
    "licenseNumber": "110000150",
    "licenseEffectiveDate": "05/17/2025",
    "licenseExpirationDate": "05/16/2026",
    "dataDate": "10/18/2025",
    "capacity": 0,
    "address": "303 SACRAMENTO ST",
    "city": "VALLEJO",
    "zip": "94590",
    "county": "SOLANO",
    "phone": "(707) 398-8916",
    "lat": 38.0997,
    "lng": -122.259042
  },
  {
    "id": "630010900",
    "name": "SOLANO ADULT DAY HEALTH CARE CENTER",
    "npi": null,
    "hcaiId": null,
    "businessName": "PANSOPHY, INC",
    "contactEmail": "MANJU@SOLANOCBAS.COM",
    "categoryName": "ADULT DAY HEALTH CARE",
    "categoryCode": "ADHC",
    "licenseStatus": "ACTIVE",
    "inService": true,
    "licenseNumber": "550000313",
    "licenseEffectiveDate": "12/04/2024",
    "licenseExpirationDate": "12/03/2025",
    "dataDate": "10/18/2025",
    "capacity": 0,
    "address": "100 CORPORATE PL, SUITE D",
    "city": "VALLEJO",
    "zip": "94590",
    "county": "SOLANO",
    "phone": "(510) 709-8785",
    "lat": 38.095326,
    "lng": -122.248395
  },
  {
    "id": "110000405",
    "name": "SOLANO CO. DEPT. OF PUBLIC HEALTH/FAMILY PLANNING",
    "npi": null,
    "hcaiId": null,
    "businessName": null,
    "contactEmail": null,
    "categoryName": "PRIMARY CARE CLINIC",
    "categoryCode": "COMTYC",
    "licenseStatus": null,
    "inService": null,
    "licenseNumber": null,
    "licenseEffectiveDate": null,
    "licenseExpirationDate": null,
    "dataDate": "10/18/2025",
    "capacity": 0,
    "address": "355 TUOLUMNE ST",
    "city": "VALLEJO",
    "zip": "94590",
    "county": "SOLANO",
    "phone": "(707) 553-5131",
    "lat": 38.10260901,
    "lng": -122.2382823
  },
  {
    "id": "630023228",
    "name": "VALLEJO COMMUNITY TESTING & VACCINATION SITE",
    "npi": null,
    "hcaiId": null,
    "businessName": "LA CLINICA DE LA RAZA, INC.",
    "contactEmail": null,
    "categoryName": "PRIMARY CARE CLINIC",
    "categoryCode": "COMTYC",
    "licenseStatus": "ACTIVE",
    "inService": true,
    "licenseNumber": "110000270",
    "licenseEffectiveDate": "05/01/2025",
    "licenseExpirationDate": "04/30/2026",
    "dataDate": "10/18/2025",
    "capacity": 0,
    "address": "245 GEORGIA ST",
    "city": "VALLEJO",
    "zip": "94590",
    "county": "SOLANO",
    "phone": null,
    "lat": 38.10106614,
    "lng": -122.2590833
  },
  {
    "id": "110001145",
    "name": "VALLEJO DIALYSIS",
    "npi": "1265669444",
    "hcaiId": "306484070",
    "businessName": "LLANO DIALYSIS LLC",
    "contactEmail": "CAL_C@DAVITA.COM",
    "categoryName": "CHRONIC DIALYSIS CLINIC",
    "categoryCode": "ESRD/CDC",
    "licenseStatus": "ACTIVE",
    "inService": true,
    "licenseNumber": "110000434",
    "licenseEffectiveDate": "12/15/2024",
    "licenseExpirationDate": "12/14/2025",
    "dataDate": "10/18/2025",
    "capacity": 24,
    "address": "830 REDWOOD ST",
    "city": "VALLEJO",
    "zip": "94590",
    "county": "SOLANO",
    "phone": "(707) 642-2016",
    "lat": 38.123145,
    "lng": -122.2542675
  },
  {
    "id": "630014164",
    "name": "VALLEJO FAMILY HEALTH SERVICES",
    "npi": null,
    "hcaiId": null,
    "businessName": null,
    "contactEmail": null,
    "categoryName": "PRIMARY CARE CLINIC",
    "categoryCode": "FQHC",
    "licenseStatus": null,
    "inService": null,
    "licenseNumber": null,
    "licenseEffectiveDate": null,
    "licenseExpirationDate": null,
    "dataDate": "10/18/2025",
    "capacity": 0,
    "address": "365 TUOLUMNE ST",
    "city": "VALLEJO",
    "zip": "94590",
    "county": "SOLANO",
    "phone": null,
    "lat": 38.10265049,
    "lng": -122.2382831
  },
  {
    "id": "630014168",
    "name": "VALLEJO HEALTH SERVICES",
    "npi": null,
    "hcaiId": null,
    "businessName": null,
    "contactEmail": null,
    "categoryName": "PRIMARY CARE CLINIC",
    "categoryCode": "FQHC",
    "licenseStatus": null,
    "inService": null,
    "licenseNumber": null,
    "licenseEffectiveDate": null,
    "licenseExpirationDate": null,
    "dataDate": "10/18/2025",
    "capacity": 0,
    "address": "355 TUOLUMNE ST",
    "city": "VALLEJO",
    "zip": "94590",
    "county": "SOLANO",
    "phone": null,
    "lat": 38.10260901,
    "lng": -122.2382823
  },
  {
    "id": "630011032",
    "name": "WELLBOUND OF VALLEJO",
    "npi": "1487699567",
    "hcaiId": null,
    "businessName": null,
    "contactEmail": null,
    "categoryName": "CHRONIC DIALYSIS CLINIC",
    "categoryCode": "ESRD",
    "licenseStatus": null,
    "inService": null,
    "licenseNumber": null,
    "licenseEffectiveDate": null,
    "licenseExpirationDate": null,
    "dataDate": "10/18/2025",
    "capacity": 0,
    "address": "480 REDWOOD ST, SUITE 40",
    "city": "VALLEJO",
    "zip": "94590",
    "county": "SOLANO",
    "phone": "(707) 556-3070",
    "lat": 38.12315452,
    "lng": -122.2599619
  }
]