[
  {
    "id": "140000745",
    "name": "ROSSMOOR POST ACUTE",
    "npi": "1720035090",
    "hcaiId": "206074024",
    "businessName": "WALNUT CREEK COMMUNITY HEALTHCARE, LLC",
    "contactEmail": null,
    "categoryName": "SKILLED NURSING FACILITY",
    "categoryCode": "SNF",
    "licenseStatus": "ACTIVE",
    "inService": true,
    "licenseNumber": "140000368",
    "licenseEffectiveDate": "04/25/2025",
    "licenseExpirationDate": "04/24/2026",
    "dataDate": "10/18/2025",
    "capacity": 155,
    "address": "1226 ROSSMOOR PARKWAY",
    "city": "WALNUT CREEK",
    "zip": "94595",
    "county": "CONTRA COSTA",
    "phone": "(925) 975-5000",
    "lat": 37.878723,
    "lng": -122.069187
  },
  {
    "id": "140001126",
    "name": "TICE VALLEY POST ACUTE",
    "npi": "1609817352",
    "hcaiId": "206074076",
    "businessName": "TICE VALLEY COMMUNITY HEALTHCARE, LLC",
    "contactEmail": "ABE.OYLER@VALLEYPOINTEHC.COM",
    "categoryName": "SKILLED NURSING FACILITY",
    "categoryCode": "SNF",
    "licenseStatus": "ACTIVE",
    "inService": true,
    "licenseNumber": "140000554",
    "licenseEffectiveDate": "04/01/2025",
    "licenseExpirationDate": "03/31/2026",
    "dataDate": "10/18/2025",
    "capacity": 120,
    "address": "1975 TICE VALLEY BOULEVARD",
    "city": "WALNUT CREEK",
    "zip": "94595",
    "county": "CONTRA COSTA",
    "phone": "(925) 906-0200",
    "lat": 37.876662,
    "lng": -122.074263
  },
  {
    "id": "140000083",
    "name": "WALNUT CREEK SKILLED NURSING & REHABILITATION CENTER",
    "npi": "1699795484",
    "hcaiId": "206073366",
    "businessName": "GHC OF WALNUT CREEK, LLC",
    "contactEmail": "DOLLYBINDRA@LIFEGEN.NET",
    "categoryName": "SKILLED NURSING FACILITY",
    "categoryCode": "SNF",
    "licenseStatus": "ACTIVE",
    "inService": true,
    "licenseNumber": "140000174",
    "licenseEffectiveDate": "10/30/2025",
    "licenseExpirationDate": "10/29/2026",
    "dataDate": "10/18/2025",
    "capacity": 180,
    "address": "1224 ROSSMOOR PARKWAY",
    "city": "WALNUT CREEK",
    "zip": "94595",
    "county": "CONTRA COSTA",
    "phone": "(925) 719-8883",
    "lat": 37.877661,
    "lng": -122.068332
  },
  {
    "id": "630015557",
    "name": "WALNUT CREEK WEST DIALYSIS",
    "npi": "1902212962",
    "hcaiId": "306074180",
    "businessName": "TOTAL RENAL CARE, INC.",
    "contactEmail": "CAL_C@DAVITA.COM",
    "categoryName": "CHRONIC DIALYSIS CLINIC",
    "categoryCode": "ESRD/CDC",
    "licenseStatus": "ACTIVE",
    "inService": true,
    "licenseNumber": "550002991",
    "licenseEffectiveDate": "11/07/2024",
    "licenseExpirationDate": "11/06/2025",
    "dataDate": "10/18/2025",
    "capacity": 21,
    "address": "1221 ROSSMOOR PARKWAY",
    "city": "WALNUT CREEK",
    "zip": "94595",
    "county": "CONTRA COSTA",
    "phone": "(925) 295-9830",
    "lat": 37.878498,
    "lng": -122.0710725
  }
]