[
  {
    "id": "140001062",
    "name": "ALAMEDA COUNTY DIALYSIS",
    "npi": "1568436806",
    "hcaiId": "306014127",
    "businessName": "DVA RENAL HEALTHCARE, INC.",
    "contactEmail": "CAL_C@DAVITA.COM",
    "categoryName": "CHRONIC DIALYSIS CLINIC",
    "categoryCode": "ESRD/CDC",
    "licenseStatus": "ACTIVE",
    "inService": true,
    "licenseNumber": "140000525",
    "licenseEffectiveDate": "12/31/2024",
    "licenseExpirationDate": "12/30/2025",
    "dataDate": "10/18/2025",
    "capacity": 24,
    "address": "10700 MACARTHUR BOULEVARD, BUILDING 7",
    "city": "OAKLAND",
    "zip": "94605",
    "county": "ALAMEDA",
    "phone": "(510) 568-5849",
    "lat": 37.74210892,
    "lng": -122.1511396
  },
  {
    "id": "630026815",
    "name": "ARROYO VIEJO EARLY HEAD START",
    "npi": "1689863516",
    "hcaiId": null,
    "businessName": "NATIVE AMERICAN HEALTH CENTER, INC.",
    "contactEmail": null,
    "categoryName": "PRIMARY CARE CLINIC",
    "categoryCode": "COMTYC",
    "licenseStatus": "ACTIVE",
    "inService": true,
    "licenseNumber": "140000155",
    "licenseEffectiveDate": "11/01/2025",
    "licenseExpirationDate": "10/31/2026",
    "dataDate": "10/18/2025",
    "capacity": 0,
    "address": "7701 KRAUSE AVE",
    "city": "OAKLAND",
    "zip": "94605",
    "county": "ALAMEDA",
    "phone": null,
    "lat": 37.761786,
    "lng": -122.1761835
  },
  {
    "id": "630011852",
    "name": "CENTER FOR ELDERS INDEPENDENCE",
    "npi": null,
    "hcaiId": "306014243",
    "businessName": "CENTER FOR ELDERS' INDEPENDENCE",
    "contactEmail": "COMPLIANCE@CEI.ELDERS.ORG",
    "categoryName": "PRIMARY CARE CLINIC",
    "categoryCode": "COMTYC",
    "licenseStatus": "ACTIVE",
    "inService": true,
    "licenseNumber": "550000833",
    "licenseEffectiveDate": "12/10/2024",
    "licenseExpirationDate": "12/09/2025",
    "dataDate": "10/18/2025",
    "capacity": 0,
    "address": "7200 BANCROFT AVE, SUITE 188",
    "city": "OAKLAND",
    "zip": "94605",
    "county": "ALAMEDA",
    "phone": "(510) 607-5185",
    "lat": 37.767672,
    "lng": -122.1770115
  },
  {
    "id": "140001215",
    "name": "EASTMONT WELLNESS",
    "npi": null,
    "hcaiId": null,
    "businessName": null,
    "contactEmail": null,
    "categoryName": "PRIMARY CARE CLINIC",
    "categoryCode": "FQHC",
    "licenseStatus": null,
    "inService": null,
    "licenseNumber": null,
    "licenseEffectiveDate": null,
    "licenseExpirationDate": null,
    "dataDate": "10/18/2025",
    "capacity": 0,
    "address": "6955 FOOTHILL BOULEVARD, SUITE 200",
    "city": "OAKLAND",
    "zip": "94605",
    "county": "ALAMEDA",
    "phone": "(510) 535-7480",
    "lat": 37.76895,
    "lng": -122.173362
  },
  {
    "id": "630019725",
    "name": "FRICK HEALTH CENTER (NAHC)",
    "npi": null,
    "hcaiId": null,
    "businessName": "NATIVE AMERICAN HEALTH CENTER, INC.",
    "contactEmail": null,
    "categoryName": "PRIMARY CARE CLINIC",
    "categoryCode": "COMTYC",
    "licenseStatus": "ACTIVE",
    "inService": true,
    "licenseNumber": "140000155",
    "licenseEffectiveDate": "11/01/2025",
    "licenseExpirationDate": "10/31/2026",
    "dataDate": "10/18/2025",
    "capacity": 0,
    "address": "2845 64TH AVE",
    "city": "OAKLAND",
    "zip": "94605",
    "county": "ALAMEDA",
    "phone": null,
    "lat": 37.77099385,
    "lng": -122.1842884
  },
  {
    "id": "630015891",
    "name": "LIFELONG DENTAL VAN",
    "npi": "1881082329",
    "hcaiId": "306014380",
    "businessName": "LIFELONG MEDICAL CARE",
    "contactEmail": "COMPLIANCE@LIFELONGMEDICAL.ORG",
    "categoryName": "PRIMARY CARE CLINIC",
    "categoryCode": "COMTYC",
    "licenseStatus": "ACTIVE",
    "inService": true,
    "licenseNumber": "550003060",
    "licenseEffectiveDate": "04/28/2025",
    "licenseExpirationDate": "04/27/2026",
    "dataDate": "10/18/2025",
    "capacity": 0,
    "address": "10700 MACARTHUR BOULEVARD, SUITE 14B",
    "city": "OAKLAND",
    "zip": "94605",
    "county": "ALAMEDA",
    "phone": "(510) 981-4100",
    "lat": 37.74210892,
    "lng": -122.1511396
  },
  {
    "id": "630015591",
    "name": "LIFELONG DR. WILLIAM M. JENKINS PEDIATRIC CTR.",
    "npi": null,
    "hcaiId": null,
    "businessName": null,
    "contactEmail": null,
    "categoryName": "PRIMARY CARE CLINIC",
    "categoryCode": "FQHC",
    "licenseStatus": null,
    "inService": null,
    "licenseNumber": null,
    "licenseEffectiveDate": null,
    "licenseExpirationDate": null,
    "dataDate": "10/18/2025",
    "capacity": 0,
    "address": "7200 BANCROFT AVENUE, SUITE 125A",
    "city": "OAKLAND",
    "zip": "94605",
    "county": "ALAMEDA",
    "phone": null,
    "lat": 37.767672,
    "lng": -122.1770115
  },
  {
    "id": "630012103",
    "name": "LIFELONG MEDICAL CARE - HOWARD DANIEL CLINIC",
    "npi": null,
    "hcaiId": "306014255",
    "businessName": "LIFELONG MEDICAL CARE",
    "contactEmail": "COMPLIANCE@LIFELONGMEDICAL.ORG",
    "categoryName": "PRIMARY CARE CLINIC",
    "categoryCode": "COMTYC",
    "licenseStatus": "ACTIVE",
    "inService": true,
    "licenseNumber": "550003292",
    "licenseEffectiveDate": "08/12/2025",
    "licenseExpirationDate": "11/07/2025",
    "dataDate": "10/18/2025",
    "capacity": 0,
    "address": "9933 MACARTHUR BOULEVARD",
    "city": "OAKLAND",
    "zip": "94605",
    "county": "ALAMEDA",
    "phone": "(510) 568-3206",
    "lat": 37.746324,
    "lng": -122.1568065
  },
  {
    "id": "630015593",
    "name": "LIFELONG MEDICAL CARE EASTMONT",
    "npi": null,
    "hcaiId": null,
    "businessName": "LIFELONG MEDICAL CARE",
    "contactEmail": null,
    "categoryName": "PRIMARY CARE CLINIC",
    "categoryCode": "COMTYC",
    "licenseStatus": "ACTIVE",
    "inService": true,
    "licenseNumber": "550003292",
    "licenseEffectiveDate": "08/12/2025",
    "licenseExpirationDate": "11/07/2025",
    "dataDate": "10/18/2025",
    "capacity": 0,
    "address": "7200 BANCROFT AVENUE, SUITE 125A",
    "city": "RICHMOND",
    "zip": "94605",
    "county": "ALAMEDA",
    "phone": null,
    "lat": 37.767672,
    "lng": -122.1770115
  },
  {
    "id": "140001089",
    "name": "LIFELONG MEDICAL CARE-EAST OAKLAND",
    "npi": null,
    "hcaiId": "306014131",
    "businessName": "LIFELONG MEDICAL CARE",
    "contactEmail": "COMPLIANCE@LIFELONGMEDICAL.ORG",
    "categoryName": "PRIMARY CARE CLINIC",
    "categoryCode": "COMTYC",
    "licenseStatus": "ACTIVE",
    "inService": true,
    "licenseNumber": "550003292",
    "licenseEffectiveDate": "08/12/2025",
    "licenseExpirationDate": "11/07/2025",
    "dataDate": "10/18/2025",
    "capacity": 0,
    "address": "10700 MACARTHUR BOULEVARD, SUITE 14",
    "city": "OAKLAND",
    "zip": "94605",
    "county": "ALAMEDA",
    "phone": "(510) 563-4303",
    "lat": 37.74210892,
    "lng": -122.1511396
  },
  {
    "id": "630012625",
    "name": "OKORONKWO MEDICAL CLINIC",
    "npi": "1497960819",
    "hcaiId": "306014276",
    "businessName": "OKORONKWO MEDICAL CORP. OF ALAMEDA COUNTY, INC.",
    "contactEmail": null,
    "categoryName": "PRIMARY CARE CLINIC",
    "categoryCode": "COMTYC",
    "licenseStatus": "ACTIVE",
    "inService": true,
    "licenseNumber": "550001373",
    "licenseEffectiveDate": "11/14/2021",
    "licenseExpirationDate": "11/13/2022",
    "dataDate": "10/18/2025",
    "capacity": 0,
    "address": "10500 MACARTHUR BLVD, SUITE 102",
    "city": "OAKLAND",
    "zip": "94605",
    "county": "ALAMEDA",
    "phone": "(510) 569-7326",
    "lat": 37.743435,
    "lng": -122.1525585
  },
  {
    "id": "630018833",
    "name": "ROOTS COMMUNITY HEALTH CENTER",
    "npi": null,
    "hcaiId": "306010715",
    "businessName": "ROOTS COMMUNITY HEALTH CENTER",
    "contactEmail": "ALMA@ROOTSCOMMUNITYHEALTH.ORG",
    "categoryName": "PRIMARY CARE CLINIC",
    "categoryCode": "COMTYC",
    "licenseStatus": "ACTIVE",
    "inService": true,
    "licenseNumber": "550006310",
    "licenseEffectiveDate": "05/27/2025",
    "licenseExpirationDate": "05/26/2026",
    "dataDate": "10/18/2025",
    "capacity": 0,
    "address": "7272 MACARTHUR BLVD",
    "city": "OAKLAND",
    "zip": "94605",
    "county": "ALAMEDA",
    "phone": "(408) 398-9270",
    "lat": 37.769382,
    "lng": -122.171994
  }
]