[
  {
    "id": "020000135",
    "name": "BAY AREA HEALTHCARE CENTER",
    "npi": "1639431471",
    "hcaiId": "206010808",
    "businessName": "COMPREHENSIVE CARE OF OAKLAND, L.P.",
    "contactEmail": "SMA@BAYAREAHC.COM",
    "categoryName": "SKILLED NURSING FACILITY",
    "categoryCode": "SNF",
    "licenseStatus": "ACTIVE",
    "inService": true,
    "licenseNumber": "020000033",
    "licenseEffectiveDate": "09/14/2025",
    "licenseExpirationDate": "09/13/2026",
    "dataDate": "10/18/2025",
    "capacity": 99,
    "address": "1833 10TH AVENUE",
    "city": "OAKLAND",
    "zip": "94606",
    "county": "ALAMEDA",
    "phone": "(510) 536-6512",
    "lat": 37.795338,
    "lng": -122.2459065
  },
  {
    "id": "630012690",
    "name": "FRANK KIANG MEDICAL CENTER",
    "npi": "1003134545",
    "hcaiId": "306014272",
    "businessName": "ASIAN HEALTH SERVICES",
    "contactEmail": "JLEUNG@AHSCHC.ORG",
    "categoryName": "PRIMARY CARE CLINIC",
    "categoryCode": "COMTYC",
    "licenseStatus": "ACTIVE",
    "inService": true,
    "licenseNumber": "550001298",
    "licenseEffectiveDate": "06/01/2025",
    "licenseExpirationDate": "05/31/2026",
    "dataDate": "10/18/2025",
    "capacity": 0,
    "address": "250 E 18TH ST, FL 2",
    "city": "OAKLAND",
    "zip": "94606",
    "county": "ALAMEDA",
    "phone": "(510) 735-3888",
    "lat": 37.80027,
    "lng": -122.252535
  },
  {
    "id": "630027513",
    "name": "FRANKLIN ELEMENTARY SCHOOL",
    "npi": null,
    "hcaiId": null,
    "businessName": "ASIAN HEALTH SERVICES",
    "contactEmail": null,
    "categoryName": "PRIMARY CARE CLINIC",
    "categoryCode": "COMTYC",
    "licenseStatus": "ACTIVE",
    "inService": true,
    "licenseNumber": "140000125",
    "licenseEffectiveDate": "02/24/2025",
    "licenseExpirationDate": "02/23/2026",
    "dataDate": "10/18/2025",
    "capacity": 0,
    "address": "915 FOOTHILL BLVD, ROOM 35",
    "city": "OAKLAND",
    "zip": "94606",
    "county": "ALAMEDA",
    "phone": null,
    "lat": 37.79328598,
    "lng": -122.248618
  },
  {
    "id": "020000880",
    "name": "OAKLAND HEIGHTS NURSING AND REHABILITATION",
    "npi": "1407272487",
    "hcaiId": "206014077",
    "businessName": "AOTN, LLC",
    "contactEmail": "ADAMB@ASPENHEALTH.COM",
    "categoryName": "SKILLED NURSING FACILITY",
    "categoryCode": "SNF",
    "licenseStatus": "ACTIVE",
    "inService": true,
    "licenseNumber": "020000442",
    "licenseEffectiveDate": "11/07/2024",
    "licenseExpirationDate": "11/06/2025",
    "dataDate": "10/18/2025",
    "capacity": 48,
    "address": "2361 EAST 29TH STREET",
    "city": "OAKLAND",
    "zip": "94606",
    "county": "ALAMEDA",
    "phone": "(510) 488-0420",
    "lat": 37.794726,
    "lng": -122.2252155
  },
  {
    "id": "630028047",
    "name": "PARK MERRITT",
    "npi": null,
    "hcaiId": null,
    "businessName": null,
    "contactEmail": "SMA@PARKMERRITT.COM",
    "categoryName": "CONGREGATE LIVING HEALTH FACILITY",
    "categoryCode": "CLHF",
    "licenseStatus": null,
    "inService": null,
    "licenseNumber": null,
    "licenseEffectiveDate": null,
    "licenseExpirationDate": null,
    "dataDate": "10/18/2025",
    "capacity": 12,
    "address": "525 E 18TH ST",
    "city": "OAKLAND",
    "zip": "94606",
    "county": "ALAMEDA",
    "phone": "(510) 914-3916",
    "lat": 37.79787801,
    "lng": -122.249969
  },
  {
    "id": "630012362",
    "name": "ROOSEVELT HEALTH CENTER",
    "npi": "1851522015",
    "hcaiId": "306014277",
    "businessName": "LA CLINICA DE LA RAZA, INC.",
    "contactEmail": "VACOMPEAN@LACLINICA.ORG",
    "categoryName": "PRIMARY CARE CLINIC",
    "categoryCode": "COMTYC",
    "licenseStatus": "ACTIVE",
    "inService": true,
    "licenseNumber": "550001178",
    "licenseEffectiveDate": "11/12/2025",
    "licenseExpirationDate": "11/11/2026",
    "dataDate": "10/18/2025",
    "capacity": 0,
    "address": "1926 19TH AVENUE",
    "city": "OAKLAND",
    "zip": "94606",
    "county": "ALAMEDA",
    "phone": "(510) 535-2893",
    "lat": 37.78962877,
    "lng": -122.2379089
  },
  {
    "id": "140000243",
    "name": "SAN ANTONIO NEIGHBORHOOD HEALTH CENTER",
    "npi": null,
    "hcaiId": "306013628",
    "businessName": "LA CLINICA DE LA RAZA, INC.",
    "contactEmail": "SITELICENSING@LACLINICA.ORG",
    "categoryName": "PRIMARY CARE CLINIC",
    "categoryCode": "COMTYC",
    "licenseStatus": "ACTIVE",
    "inService": true,
    "licenseNumber": "140000189",
    "licenseEffectiveDate": "01/19/2025",
    "licenseExpirationDate": "01/18/2026",
    "dataDate": "10/18/2025",
    "capacity": 0,
    "address": "1030 INTERNATIONAL BOULEVARD",
    "city": "OAKLAND",
    "zip": "94606",
    "county": "ALAMEDA",
    "phone": "(510) 535-2906",
    "lat": 37.79175502,
    "lng": -122.2492239
  },
  {
    "id": "630019957",
    "name": "YOUTH HEART HEALTH CENTER",
    "npi": null,
    "hcaiId": null,
    "businessName": "LA CLINICA DE LA RAZA, INC.",
    "contactEmail": null,
    "categoryName": "PRIMARY CARE CLINIC",
    "categoryCode": "COMTYC",
    "licenseStatus": "ACTIVE",
    "inService": true,
    "licenseNumber": "550000036",
    "licenseEffectiveDate": "06/20/2025",
    "licenseExpirationDate": "06/19/2026",
    "dataDate": "10/18/2025",
    "capacity": 0,
    "address": "286 E 10TH ST",
    "city": "OAKLAND",
    "zip": "94606",
    "county": "ALAMEDA",
    "phone": null,
    "lat": 37.79534136,
    "lng": -122.2583788
  }
]