[
  {
    "id": "630021872",
    "name": "416 OUTREACH CENTER",
    "npi": null,
    "hcaiId": null,
    "businessName": null,
    "contactEmail": "ACHANG@AHSCHC.ORG",
    "categoryName": "PRIMARY CARE CLINIC",
    "categoryCode": "COMTYC",
    "licenseStatus": null,
    "inService": null,
    "licenseNumber": null,
    "licenseEffectiveDate": null,
    "licenseExpirationDate": null,
    "dataDate": "10/18/2025",
    "capacity": 0,
    "address": "416 8TH ST",
    "city": "OAKLAND",
    "zip": "94607",
    "county": "ALAMEDA",
    "phone": "(510) 318-5850",
    "lat": 37.79995884,
    "lng": -122.2729467
  },
  {
    "id": "630020594",
    "name": "ADELINE STREET RECUPERATIVE CARE",
    "npi": "1976931295",
    "hcaiId": null,
    "businessName": "LIFELONG MEDICAL CARE",
    "contactEmail": null,
    "categoryName": "PRIMARY CARE CLINIC",
    "categoryCode": "FQHC/COMTYC",
    "licenseStatus": "ACTIVE",
    "inService": true,
    "licenseNumber": "550003292",
    "licenseEffectiveDate": "08/12/2025",
    "licenseExpirationDate": "11/07/2025",
    "dataDate": "10/18/2025",
    "capacity": 0,
    "address": "2730 ADELINE ST",
    "city": "OAKLAND",
    "zip": "94607",
    "county": "ALAMEDA",
    "phone": null,
    "lat": 37.81983698,
    "lng": -122.2823341
  },
  {
    "id": "630027435",
    "name": "AHS MOBILE UNIT #2",
    "npi": null,
    "hcaiId": null,
    "businessName": "ASIAN HEALTH SERVICES",
    "contactEmail": null,
    "categoryName": "PRIMARY CARE CLINIC",
    "categoryCode": "COMTYC",
    "licenseStatus": "ACTIVE",
    "inService": true,
    "licenseNumber": "140000125",
    "licenseEffectiveDate": "02/24/2025",
    "licenseExpirationDate": "02/23/2026",
    "dataDate": "10/18/2025",
    "capacity": 0,
    "address": "1699 W GRAND AVE",
    "city": "OAKLAND",
    "zip": "94607",
    "county": "ALAMEDA",
    "phone": null,
    "lat": 37.81699398,
    "lng": -122.292013
  },
  {
    "id": "140001300",
    "name": "ASIAN HEALTH SERVICE DENTAL CLINIC",
    "npi": "1447391719",
    "hcaiId": "306014182",
    "businessName": "ASIAN HEALTH SERVICES",
    "contactEmail": "HUONGLE@AHSCHC.ORG",
    "categoryName": "PRIMARY CARE CLINIC",
    "categoryCode": "COMTYC",
    "licenseStatus": "ACTIVE",
    "inService": true,
    "licenseNumber": "140000125",
    "licenseEffectiveDate": "02/24/2025",
    "licenseExpirationDate": "02/23/2026",
    "dataDate": "10/18/2025",
    "capacity": 0,
    "address": "345 9TH STREET, SUITE 302",
    "city": "OAKLAND",
    "zip": "94607",
    "county": "ALAMEDA",
    "phone": "(510) 986-6888",
    "lat": 37.799604,
    "lng": -122.2706835
  },
  {
    "id": "070001308",
    "name": "ASIAN NETWORK HOSPICE, INC.",
    "npi": null,
    "hcaiId": "406014202",
    "businessName": "ASIAN NETWORK HOSPICE",
    "contactEmail": "IVYKWONG@ANPHC.COM",
    "categoryName": "HOSPICE",
    "categoryCode": "HOSPICE",
    "licenseStatus": "ACTIVE",
    "inService": true,
    "licenseNumber": "070000628",
    "licenseEffectiveDate": "02/05/2024",
    "licenseExpirationDate": "02/04/2026",
    "dataDate": "10/18/2025",
    "capacity": 0,
    "address": "212 9TH STREET, SUITE 204",
    "city": "OAKLAND",
    "zip": "94607",
    "county": "ALAMEDA",
    "phone": "(510) 268-1118",
    "lat": 37.798965,
    "lng": -122.267763
  },
  {
    "id": "020001071",
    "name": "ASIAN NETWORK PACIFIC HOME CARE, INC.",
    "npi": "1932285335",
    "hcaiId": "406014204",
    "businessName": "ASIAN NETWORK PACIFIC HOME CARE INC.",
    "contactEmail": "IVYKWONG@ANPHC.COM",
    "categoryName": "HOME HEALTH AGENCY",
    "categoryCode": "HHA",
    "licenseStatus": "ACTIVE",
    "inService": true,
    "licenseNumber": "020000529",
    "licenseEffectiveDate": "12/21/2024",
    "licenseExpirationDate": "12/20/2025",
    "dataDate": "10/18/2025",
    "capacity": 0,
    "address": "212 9TH STREET, SUITE 205",
    "city": "OAKLAND",
    "zip": "94607",
    "county": "ALAMEDA",
    "phone": "(510) 268-1118",
    "lat": 37.798965,
    "lng": -122.267763
  },
  {
    "id": "140000938",
    "name": "ASIAN NETWORK PHYSICAL THERAPY AND REHAB.",
    "npi": null,
    "hcaiId": "306014215",
    "businessName": "IVY Y. KWONG, NANCY L. CHANG & MABEL M. CHENG",
    "contactEmail": "IVYKWONG@ANPHC.COM",
    "categoryName": "REHABILITATION CLINIC",
    "categoryCode": "REHABC/CORF",
    "licenseStatus": "ACTIVE",
    "inService": true,
    "licenseNumber": "140000476",
    "licenseEffectiveDate": "11/18/2024",
    "licenseExpirationDate": "11/17/2025",
    "dataDate": "10/18/2025",
    "capacity": 0,
    "address": "821 HARRISON ST",
    "city": "OAKLAND",
    "zip": "94607",
    "county": "ALAMEDA",
    "phone": "(510) 268-0222",
    "lat": 37.79923225,
    "lng": -122.269966
  },
  {
    "id": "630012075",
    "name": "BREATHMOBILE - MOBILE PRIMARY CARE CLINIC",
    "npi": null,
    "hcaiId": "306014261",
    "businessName": "PRESCOTT JOSEPH, CENTER FOR COMMUNITY ENHANCEMENT INC",
    "contactEmail": "WBURNS691@AOL.COM",
    "categoryName": "PRIMARY CARE CLINIC",
    "categoryCode": "FREEC",
    "licenseStatus": "ACTIVE",
    "inService": true,
    "licenseNumber": "550001099",
    "licenseEffectiveDate": "11/01/2022",
    "licenseExpirationDate": "10/31/2023",
    "dataDate": "10/18/2025",
    "capacity": 0,
    "address": "920 PERALTA ST",
    "city": "OAKLAND",
    "zip": "94607",
    "county": "ALAMEDA",
    "phone": "(510) 208-5651",
    "lat": 37.808208,
    "lng": -122.2959555
  },
  {
    "id": "140000211",
    "name": "CHENMING & MARGARET HU MEDICAL CENTER",
    "npi": null,
    "hcaiId": "306011006",
    "businessName": "ASIAN HEALTH SERVICES",
    "contactEmail": "EBLAND@AHSCHC.ORG",
    "categoryName": "PRIMARY CARE CLINIC",
    "categoryCode": "COMTYC",
    "licenseStatus": "ACTIVE",
    "inService": true,
    "licenseNumber": "140000125",
    "licenseEffectiveDate": "02/24/2025",
    "licenseExpirationDate": "02/23/2026",
    "dataDate": "10/18/2025",
    "capacity": 0,
    "address": "818 WEBSTER ST",
    "city": "OAKLAND",
    "zip": "94607",
    "county": "ALAMEDA",
    "phone": "(510) 986-6800",
    "lat": 37.79937,
    "lng": -122.27094
  },
  {
    "id": "630021863",
    "name": "HEAVEN'S COURT HEALTH AGENCY",
    "npi": null,
    "hcaiId": null,
    "businessName": "QUEST EDUCATION CENTER",
    "contactEmail": "ADMIN@QUESTNURSING.COM",
    "categoryName": "HOME HEALTH AGENCY",
    "categoryCode": "HHA",
    "licenseStatus": "ACTIVE",
    "inService": true,
    "licenseNumber": "550009440",
    "licenseEffectiveDate": "08/01/2025",
    "licenseExpirationDate": "07/31/2026",
    "dataDate": "10/18/2025",
    "capacity": 0,
    "address": "917 HARRISON ST, SUITE 917-1C",
    "city": "OAKLAND",
    "zip": "94607",
    "county": "ALAMEDA",
    "phone": "(888) 908-7983",
    "lat": 37.799955,
    "lng": -122.269797
  },
  {
    "id": "630019998",
    "name": "LIFELONG TRUST STREET MEDICINE MOBILE #1",
    "npi": "1976931295",
    "hcaiId": null,
    "businessName": "LIFELONG MEDICAL CARE",
    "contactEmail": "JREINKING@LIFELONGMEDICAL.ORG",
    "categoryName": "PRIMARY CARE CLINIC",
    "categoryCode": "COMTYC",
    "licenseStatus": "ACTIVE",
    "inService": true,
    "licenseNumber": "550003292",
    "licenseEffectiveDate": "08/12/2025",
    "licenseExpirationDate": "11/07/2025",
    "dataDate": "10/18/2025",
    "capacity": 0,
    "address": "2712 ADELINE ST",
    "city": "OAKLAND",
    "zip": "94607",
    "county": "ALAMEDA",
    "phone": "(510) 210-5050",
    "lat": 37.819692,
    "lng": -122.2819785
  },
  {
    "id": "630019999",
    "name": "LIFELONG TRUST STREET MEDICINE MOBILE #2",
    "npi": "1976931295",
    "hcaiId": null,
    "businessName": "LIFELONG MEDICAL CARE",
    "contactEmail": "JREINKING@LIFELONGMEDICAL.ORG",
    "categoryName": "PRIMARY CARE CLINIC",
    "categoryCode": "COMTYC",
    "licenseStatus": "ACTIVE",
    "inService": true,
    "licenseNumber": "550003292",
    "licenseEffectiveDate": "08/12/2025",
    "licenseExpirationDate": "11/07/2025",
    "dataDate": "10/18/2025",
    "capacity": 0,
    "address": "2712 ADELINE ST",
    "city": "OAKLAND",
    "zip": "94607",
    "county": "ALAMEDA",
    "phone": "(510) 210-5050",
    "lat": 37.819692,
    "lng": -122.2819785
  },
  {
    "id": "630023235",
    "name": "LIFELONG TRUST STREET MEDICINE MOBILE #3",
    "npi": "1976931295",
    "hcaiId": null,
    "businessName": "LIFELONG MEDICAL CARE",
    "contactEmail": null,
    "categoryName": "PRIMARY CARE CLINIC",
    "categoryCode": "COMTYC",
    "licenseStatus": "ACTIVE",
    "inService": true,
    "licenseNumber": "550003292",
    "licenseEffectiveDate": "08/12/2025",
    "licenseExpirationDate": "11/07/2025",
    "dataDate": "10/18/2025",
    "capacity": 0,
    "address": "2730 ADELINE ST",
    "city": "OAKLAND",
    "zip": "94607",
    "county": "ALAMEDA",
    "phone": null,
    "lat": 37.81983698,
    "lng": -122.2823341
  },
  {
    "id": "630023236",
    "name": "LIFELONG TRUST STREET MEDICINE MOBILE #4",
    "npi": "1976931295",
    "hcaiId": null,
    "businessName": "LIFELONG MEDICAL CARE",
    "contactEmail": null,
    "categoryName": "PRIMARY CARE CLINIC",
    "categoryCode": "COMTYC",
    "licenseStatus": "ACTIVE",
    "inService": true,
    "licenseNumber": "550003292",
    "licenseEffectiveDate": "08/12/2025",
    "licenseExpirationDate": "11/07/2025",
    "dataDate": "10/18/2025",
    "capacity": 0,
    "address": "2730 ADELINE ST",
    "city": "OAKLAND",
    "zip": "94607",
    "county": "ALAMEDA",
    "phone": null,
    "lat": 37.81983698,
    "lng": -122.2823341
  },
  {
    "id": "630023237",
    "name": "LIFELONG TRUST STREET MEDICINE MOBILE #5",
    "npi": "1976931295",
    "hcaiId": null,
    "businessName": "LIFELONG MEDICAL CARE",
    "contactEmail": null,
    "categoryName": "PRIMARY CARE CLINIC",
    "categoryCode": "COMTYC",
    "licenseStatus": "ACTIVE",
    "inService": true,
    "licenseNumber": "550003292",
    "licenseEffectiveDate": "08/12/2025",
    "licenseExpirationDate": "11/07/2025",
    "dataDate": "10/18/2025",
    "capacity": 0,
    "address": "2730 ADELINE ST",
    "city": "OAKLAND",
    "zip": "94607",
    "county": "ALAMEDA",
    "phone": null,
    "lat": 37.81983698,
    "lng": -122.2823341
  },
  {
    "id": "630027616",
    "name": "LIFELONG WEST OAKLAND HEALTH CENTER AT WEST OAKLAND MIDDLE SCHOOL",
    "npi": "1976931295",
    "hcaiId": null,
    "businessName": "LIFELONG MEDICAL CARE",
    "contactEmail": "MLOVERDE@LIFELONGMEDICAL.ORG",
    "categoryName": "PRIMARY CARE CLINIC",
    "categoryCode": "COMTYC",
    "licenseStatus": "ACTIVE",
    "inService": true,
    "licenseNumber": "550003292",
    "licenseEffectiveDate": "08/12/2025",
    "licenseExpirationDate": "11/07/2025",
    "dataDate": "10/18/2025",
    "capacity": 0,
    "address": "991 14TH ST, BUILDING H",
    "city": "OAKLAND",
    "zip": "94607",
    "county": "ALAMEDA",
    "phone": "(510) 549-5436",
    "lat": 37.80874,
    "lng": -122.2827923
  },
  {
    "id": "630027514",
    "name": "LINCOLN ELEMENTARY SCHOOL",
    "npi": null,
    "hcaiId": null,
    "businessName": "ASIAN HEALTH SERVICES",
    "contactEmail": null,
    "categoryName": "PRIMARY CARE CLINIC",
    "categoryCode": "COMTYC",
    "licenseStatus": "ACTIVE",
    "inService": true,
    "licenseNumber": "140000125",
    "licenseEffectiveDate": "02/24/2025",
    "licenseExpirationDate": "02/23/2026",
    "dataDate": "10/18/2025",
    "capacity": 0,
    "address": "225 11TH ST, OFFICE NURSE'S OFFICE",
    "city": "OAKLAND",
    "zip": "94607",
    "county": "ALAMEDA",
    "phone": null,
    "lat": 37.80010097,
    "lng": -122.2671747
  },
  {
    "id": "630024699",
    "name": "PORT OF OAKLAND VACCINATION SITE",
    "npi": null,
    "hcaiId": null,
    "businessName": "LA CLINICA DE LA RAZA, INC.",
    "contactEmail": "CSZETO@LACLINICA.ORG",
    "categoryName": "PRIMARY CARE CLINIC",
    "categoryCode": "COMTYC",
    "licenseStatus": "ACTIVE",
    "inService": true,
    "licenseNumber": "140000675",
    "licenseEffectiveDate": "02/06/2025",
    "licenseExpirationDate": "02/05/2026",
    "dataDate": "10/18/2025",
    "capacity": 0,
    "address": "4001 7TH ST",
    "city": "OAKLAND",
    "zip": "94607",
    "county": "ALAMEDA",
    "phone": "(510) 205-2141",
    "lat": 37.80737159,
    "lng": -122.3291675
  },
  {
    "id": "630021862",
    "name": "QUEST NURSING HEALTH CLINIC",
    "npi": null,
    "hcaiId": "306010783",
    "businessName": "QUEST NURSING HEALTH CLINIC",
    "contactEmail": "ADMIN@QUESTNURSING.COM",
    "categoryName": "PRIMARY CARE CLINIC",
    "categoryCode": "COMTYC",
    "licenseStatus": "ACTIVE",
    "inService": true,
    "licenseNumber": "550008369",
    "licenseEffectiveDate": "12/22/2024",
    "licenseExpirationDate": "12/21/2025",
    "dataDate": "10/18/2025",
    "capacity": 0,
    "address": "917 HARRISON ST",
    "city": "OAKLAND",
    "zip": "94607",
    "county": "ALAMEDA",
    "phone": "(888) 908-7983",
    "lat": 37.799955,
    "lng": -122.269797
  },
  {
    "id": "140001079",
    "name": "ROLLAND AND KATHRYN LOWE MEDICAL CENTER",
    "npi": null,
    "hcaiId": "306014327",
    "businessName": "ASIAN HEALTH SERVICES",
    "contactEmail": "SFANG@AHSCHC.ORG",
    "categoryName": "PRIMARY CARE CLINIC",
    "categoryCode": "COMTYC",
    "licenseStatus": "ACTIVE",
    "inService": true,
    "licenseNumber": "140000532",
    "licenseEffectiveDate": "11/01/2025",
    "licenseExpirationDate": "10/31/2026",
    "dataDate": "10/18/2025",
    "capacity": 0,
    "address": "835 WEBSTER STREET",
    "city": "OAKLAND",
    "zip": "94607",
    "county": "ALAMEDA",
    "phone": "(510) 318-5850",
    "lat": 37.79953488,
    "lng": -122.271246
  },
  {
    "id": "630014064",
    "name": "SATELLITE HEALTHCARE OAKLAND",
    "npi": "1164794715",
    "hcaiId": "306010020",
    "businessName": "SATELLITE DIALYSIS OF OAKLAND LLC",
    "contactEmail": "LICENSING@SATELLITEHEALTH.COM",
    "categoryName": "CHRONIC DIALYSIS CLINIC",
    "categoryCode": "ESRD/CDC",
    "licenseStatus": "ACTIVE",
    "inService": true,
    "licenseNumber": "550002213",
    "licenseEffectiveDate": "01/21/2025",
    "licenseExpirationDate": "01/20/2026",
    "dataDate": "10/18/2025",
    "capacity": 46,
    "address": "255 2ND ST",
    "city": "OAKLAND",
    "zip": "94607",
    "county": "ALAMEDA",
    "phone": "(510) 433-8340",
    "lat": 37.79406902,
    "lng": -122.272396
  },
  {
    "id": "630012890",
    "name": "SATELLITE OF ASIAN HEALTH SERVICES",
    "npi": null,
    "hcaiId": null,
    "businessName": null,
    "contactEmail": null,
    "categoryName": "PRIMARY CARE CLINIC",
    "categoryCode": "FQHC",
    "licenseStatus": null,
    "inService": null,
    "licenseNumber": null,
    "licenseEffectiveDate": null,
    "licenseExpirationDate": null,
    "dataDate": "10/18/2025",
    "capacity": 0,
    "address": "310 8TH ST",
    "city": "OAKLAND",
    "zip": "94607",
    "county": "ALAMEDA",
    "phone": null,
    "lat": 37.79895612,
    "lng": -122.2704241
  },
  {
    "id": "630017733",
    "name": "THE HARRY AND JEANETTE WEINBERG DENTAL & WELLNESS CLINIC",
    "npi": null,
    "hcaiId": null,
    "businessName": "ASIAN HEALTH SERVICES",
    "contactEmail": null,
    "categoryName": "PRIMARY CARE CLINIC",
    "categoryCode": "COMTYC",
    "licenseStatus": "ACTIVE",
    "inService": true,
    "licenseNumber": "140000125",
    "licenseEffectiveDate": "02/24/2025",
    "licenseExpirationDate": "02/23/2026",
    "dataDate": "10/18/2025",
    "capacity": 0,
    "address": "190 11TH STREET",
    "city": "OAKLAND",
    "zip": "94607",
    "county": "ALAMEDA",
    "phone": null,
    "lat": 37.79987642,
    "lng": -122.2662488
  },
  {
    "id": "630026818",
    "name": "WEST GRAND EARLY HEAD START",
    "npi": "1689863516",
    "hcaiId": null,
    "businessName": "NATIVE AMERICAN HEALTH CENTER, INC.",
    "contactEmail": null,
    "categoryName": "PRIMARY CARE CLINIC",
    "categoryCode": "COMTYC",
    "licenseStatus": "ACTIVE",
    "inService": true,
    "licenseNumber": "140000155",
    "licenseEffectiveDate": "11/01/2025",
    "licenseExpirationDate": "10/31/2026",
    "dataDate": "10/18/2025",
    "capacity": 0,
    "address": "1058 W GRAND AVE",
    "city": "OAKLAND",
    "zip": "94607",
    "county": "ALAMEDA",
    "phone": null,
    "lat": 37.81524798,
    "lng": -122.2819878
  },
  {
    "id": "140000202",
    "name": "WEST OAKLAND HEALTH CENTER",
    "npi": "1306967021",
    "hcaiId": "306010992",
    "businessName": "THE WEST OAKLAND HEALTH COUNCIL",
    "contactEmail": "ROBERTP@WOHC.ORG",
    "categoryName": "PRIMARY CARE CLINIC",
    "categoryCode": "COMTYC",
    "licenseStatus": "ACTIVE",
    "inService": true,
    "licenseNumber": "140000121",
    "licenseEffectiveDate": "11/05/2024",
    "licenseExpirationDate": "11/04/2025",
    "dataDate": "10/18/2025",
    "capacity": 0,
    "address": "700 ADELINE STREET",
    "city": "OAKLAND",
    "zip": "94607",
    "county": "ALAMEDA",
    "phone": "(510) 835-9610",
    "lat": 37.804275,
    "lng": -122.2873875
  }
]