[
  {
    "id": "630012175",
    "name": "CAL-PEP",
    "npi": "1093969891",
    "hcaiId": "306014297",
    "businessName": "CAL-PEP",
    "contactEmail": "LRYAN@CAL.PEP.ORG",
    "categoryName": "PRIMARY CARE CLINIC",
    "categoryCode": "FREEC",
    "licenseStatus": "ACTIVE",
    "inService": true,
    "licenseNumber": "550001163",
    "licenseEffectiveDate": "11/04/2024",
    "licenseExpirationDate": "11/03/2025",
    "dataDate": "10/18/2025",
    "capacity": 0,
    "address": "2811 ADELINE ST",
    "city": "OAKLAND",
    "zip": "94608",
    "county": "ALAMEDA",
    "phone": "(510) 874-7850",
    "lat": 37.820583,
    "lng": -122.2826265
  },
  {
    "id": "630013692",
    "name": "CENTRE FOR NEURO SKILLS - SAN FRANCISCO",
    "npi": null,
    "hcaiId": "306014294",
    "businessName": "CENTRE FOR NEURO SKILLS-S.F.",
    "contactEmail": "VMASANGCAY@NEUROSKILLS.COM",
    "categoryName": "REHABILITATION CLINIC",
    "categoryCode": "REHABC",
    "licenseStatus": "ACTIVE",
    "inService": true,
    "licenseNumber": "550001946",
    "licenseEffectiveDate": "05/23/2025",
    "licenseExpirationDate": "05/22/2026",
    "dataDate": "10/18/2025",
    "capacity": 0,
    "address": "2200 POWELL ST, SUITE 600",
    "city": "EMERYVILLE",
    "zip": "94608",
    "county": "ALAMEDA",
    "phone": "(510) 318-8600",
    "lat": 37.838799,
    "lng": -122.3011845
  },
  {
    "id": "140001200",
    "name": "EAST BAY ENDOSCOPY CENTER, L.P.",
    "npi": "1396741807",
    "hcaiId": "306014160",
    "businessName": "EAST BAY ENDOSCOPY CENTER, L.P.",
    "contactEmail": "EBECKD1@AOL.COM",
    "categoryName": "SURGICAL CLINIC",
    "categoryCode": "ASC",
    "licenseStatus": "INACTIVE - CAPEN DECISION",
    "inService": false,
    "licenseNumber": "140000597",
    "licenseEffectiveDate": "03/20/2008",
    "licenseExpirationDate": "03/19/2009",
    "dataDate": "10/18/2025",
    "capacity": 0,
    "address": "5858 HORTON ST, SUITE 100",
    "city": "EMERYVILLE",
    "zip": "94608",
    "county": "ALAMEDA",
    "phone": "(510) 654-4554",
    "lat": 37.839996,
    "lng": -122.290614
  },
  {
    "id": "630020085",
    "name": "HOSPICE OF THE EAST BAY",
    "npi": null,
    "hcaiId": null,
    "businessName": "EAST BAY INTEGRATED CARE, INC.",
    "contactEmail": "CINDYH@HOSPICEEASTBAY.ORG",
    "categoryName": "HOSPICE",
    "categoryCode": "HOSPICE",
    "licenseStatus": "ACTIVE",
    "inService": true,
    "licenseNumber": "070000568",
    "licenseEffectiveDate": "11/01/2024",
    "licenseExpirationDate": "10/31/2026",
    "dataDate": "10/18/2025",
    "capacity": 0,
    "address": "6425 CHRISTIE AVE, SUITE 265",
    "city": "EMERYVILLE",
    "zip": "94608",
    "county": "ALAMEDA",
    "phone": "(925) 887-5678",
    "lat": 37.844019,
    "lng": -122.2962705
  },
  {
    "id": "630016998",
    "name": "LIFELONG EMERYVILLE HEALTH CENTER",
    "npi": "1976931295",
    "hcaiId": null,
    "businessName": "LIFELONG MEDICAL CARE",
    "contactEmail": null,
    "categoryName": "PRIMARY CARE CLINIC",
    "categoryCode": "FQHC/COMTYC",
    "licenseStatus": "ACTIVE",
    "inService": true,
    "licenseNumber": "550003292",
    "licenseEffectiveDate": "08/12/2025",
    "licenseExpirationDate": "11/07/2025",
    "dataDate": "10/18/2025",
    "capacity": 0,
    "address": "4727 SAN PABLO AVENUE, ROOM B214",
    "city": "EMERYVILLE",
    "zip": "94608",
    "county": "ALAMEDA",
    "phone": null,
    "lat": 37.836477,
    "lng": -122.281902
  },
  {
    "id": "020000924",
    "name": "MAXIM HEALTHCARE SERVICES, INC.",
    "npi": "1003849886",
    "hcaiId": "406014217",
    "businessName": "MAXIM HEALTHCARE SERVICES, INC.",
    "contactEmail": "EMERYVILLE@MAXHEALTH.COM",
    "categoryName": "HOME HEALTH AGENCY",
    "categoryCode": "HHA",
    "licenseStatus": "ACTIVE",
    "inService": true,
    "licenseNumber": "020000462",
    "licenseEffectiveDate": "04/29/2025",
    "licenseExpirationDate": "04/28/2026",
    "dataDate": "10/18/2025",
    "capacity": 0,
    "address": "2000 POWELL ST, SUITE 900",
    "city": "EMERYVILLE",
    "zip": "94608",
    "county": "ALAMEDA",
    "phone": "(410) 910-2123",
    "lat": 37.838088,
    "lng": -122.301747
  },
  {
    "id": "630013164",
    "name": "PREVENTIVE CARE PATHWAYS",
    "npi": "1538431432",
    "hcaiId": "306014296",
    "businessName": "PREVENTIVE CARE PATHWAYS",
    "contactEmail": "HGEOFFREYWATSON@AOL.COM",
    "categoryName": "PRIMARY CARE CLINIC",
    "categoryCode": "COMTYC",
    "licenseStatus": "ACTIVE",
    "inService": true,
    "licenseNumber": "550002009",
    "licenseEffectiveDate": "07/02/2022",
    "licenseExpirationDate": "07/01/2023",
    "dataDate": "10/18/2025",
    "capacity": 0,
    "address": "5709 MARKET ST",
    "city": "EMERYVILLE",
    "zip": "94608",
    "county": "ALAMEDA",
    "phone": "(510) 444-9460",
    "lat": 37.84171645,
    "lng": -122.274558
  },
  {
    "id": "630000221",
    "name": "WELLBOUND OF EMERYVILLE",
    "npi": "1649242686",
    "hcaiId": null,
    "businessName": null,
    "contactEmail": null,
    "categoryName": "CHRONIC DIALYSIS CLINIC",
    "categoryCode": "ESRD",
    "licenseStatus": null,
    "inService": null,
    "licenseNumber": null,
    "licenseEffectiveDate": null,
    "licenseExpirationDate": null,
    "dataDate": "10/18/2025",
    "capacity": 0,
    "address": "2000 POWELL STREET, SUITE 140",
    "city": "EMERYVILLE",
    "zip": "94608",
    "county": "ALAMEDA",
    "phone": null,
    "lat": 37.838088,
    "lng": -122.301747
  }
]