[
  {
    "id": "630027520",
    "name": "ALAMEDA HEALTH SYSTEM BRIDGE CLINIC",
    "npi": null,
    "hcaiId": null,
    "businessName": null,
    "contactEmail": null,
    "categoryName": "PRIMARY CARE CLINIC",
    "categoryCode": "FQHC",
    "licenseStatus": null,
    "inService": null,
    "licenseNumber": null,
    "licenseEffectiveDate": null,
    "licenseExpirationDate": null,
    "dataDate": "10/18/2025",
    "capacity": 0,
    "address": "1411 E 31ST ST, FLOOR 1, ROOMS 12, 13, 19 OA WING",
    "city": "OAKLAND",
    "zip": "94602",
    "county": "ALAMEDA",
    "phone": null,
    "lat": 37.79828801,
    "lng": -122.231684
  },
  {
    "id": "020000277",
    "name": "BAY MARINA POST ACUTE",
    "npi": "1700294972",
    "hcaiId": "206010904",
    "businessName": "BROOKDALE HEALTHCARE & WELLNESS CENTRE, LP",
    "contactEmail": "ADMINISTRATOR@WHCOAKLAND.COM",
    "categoryName": "SKILLED NURSING FACILITY",
    "categoryCode": "SNF",
    "licenseStatus": "ACTIVE",
    "inService": true,
    "licenseNumber": "020000296",
    "licenseEffectiveDate": "01/13/2025",
    "licenseExpirationDate": "01/12/2026",
    "dataDate": "10/18/2025",
    "capacity": 94,
    "address": "2919 FRUITVALE AVENUE",
    "city": "OAKLAND",
    "zip": "94602",
    "county": "ALAMEDA",
    "phone": "(510) 261-8564",
    "lat": 37.793709,
    "lng": -122.2196355
  },
  {
    "id": "140000034",
    "name": "HIGHLAND HOSPITAL",
    "npi": "1396764353",
    "hcaiId": "106010846",
    "businessName": "ALAMEDA HEALTH SYSTEM",
    "contactEmail": "NILPEREZ@ALAMEDAHEALTHSYSTEM.ORG",
    "categoryName": "GENERAL ACUTE CARE HOSPITAL",
    "categoryCode": "GACH",
    "licenseStatus": "ACTIVE",
    "inService": true,
    "licenseNumber": "140000046",
    "licenseEffectiveDate": "11/01/2024",
    "licenseExpirationDate": "10/31/2025",
    "dataDate": "10/18/2025",
    "capacity": 169,
    "address": "1411 E 31ST STREET",
    "city": "OAKLAND",
    "zip": "94602",
    "county": "ALAMEDA",
    "phone": "(510) 535-7480",
    "lat": 37.798281,
    "lng": -122.231673
  },
  {
    "id": "630016971",
    "name": "HIGHLAND WELLNESS CENTER",
    "npi": null,
    "hcaiId": null,
    "businessName": null,
    "contactEmail": null,
    "categoryName": "PRIMARY CARE CLINIC",
    "categoryCode": "FQHC",
    "licenseStatus": null,
    "inService": null,
    "licenseNumber": null,
    "licenseEffectiveDate": null,
    "licenseExpirationDate": null,
    "dataDate": "10/18/2025",
    "capacity": 0,
    "address": "1411 EAST 31ST STREET",
    "city": "OAKLAND",
    "zip": "94602",
    "county": "ALAMEDA",
    "phone": null,
    "lat": 37.798281,
    "lng": -122.231673
  },
  {
    "id": "630017076",
    "name": "RISING HARTE WELLNESS CENTER - NAHC",
    "npi": "1689863516",
    "hcaiId": null,
    "businessName": "NATIVE AMERICAN HEALTH CENTER, INC.",
    "contactEmail": null,
    "categoryName": "PRIMARY CARE CLINIC",
    "categoryCode": "COMTYC",
    "licenseStatus": "ACTIVE",
    "inService": true,
    "licenseNumber": "140000155",
    "licenseEffectiveDate": "11/01/2025",
    "licenseExpirationDate": "10/31/2026",
    "dataDate": "10/18/2025",
    "capacity": 0,
    "address": "3800 COOLIDGE AVE",
    "city": "OAKLAND",
    "zip": "94602",
    "county": "ALAMEDA",
    "phone": null,
    "lat": 37.80036,
    "lng": -122.2056675
  }
]