[
  {
    "id": "630011995",
    "name": "AHF HEALTHCARE CENTER - OAKLAND",
    "npi": null,
    "hcaiId": "306014254",
    "businessName": "AIDS HEALTHCARE FOUNDATION",
    "contactEmail": "PHARMACYOPERATIONS@AHFRX.ORG",
    "categoryName": "PRIMARY CARE CLINIC",
    "categoryCode": "COMTYC",
    "licenseStatus": "ACTIVE",
    "inService": true,
    "licenseNumber": "550000984",
    "licenseEffectiveDate": "04/06/2025",
    "licenseExpirationDate": "04/05/2026",
    "dataDate": "10/18/2025",
    "capacity": 0,
    "address": "400 30TH ST, SUITE 300",
    "city": "OAKLAND",
    "zip": "94609",
    "county": "ALAMEDA",
    "phone": "(310) 999-6089",
    "lat": 37.819278,
    "lng": -122.26482
  },
  {
    "id": "140000425",
    "name": "ALTA BATES SUMMIT MEDICAL CENTER",
    "npi": "1295181477",
    "hcaiId": "106010937",
    "businessName": "SUTTER BAY HOSPITALS",
    "contactEmail": "COLINH@SUTTERHEALTH.ORG",
    "categoryName": "GENERAL ACUTE CARE HOSPITAL",
    "categoryCode": "GACH",
    "licenseStatus": "ACTIVE",
    "inService": true,
    "licenseNumber": "140000284",
    "licenseEffectiveDate": "11/01/2025",
    "licenseExpirationDate": "10/31/2026",
    "dataDate": "10/18/2025",
    "capacity": 309,
    "address": "350 HAWTHORNE AVENUE",
    "city": "OAKLAND",
    "zip": "94609",
    "county": "ALAMEDA",
    "phone": "(510) 869-8837",
    "lat": 37.81935,
    "lng": -122.2639245
  },
  {
    "id": "140000203",
    "name": "ALTA BATES SUMMIT MEDICAL CENTER - SUMMIT CAMPUS",
    "npi": null,
    "hcaiId": "106013626",
    "businessName": "SUTTER BAY HOSPITALS",
    "contactEmail": "COLINH@SUTTERHEALTH.ORG",
    "categoryName": "GENERAL ACUTE CARE HOSPITAL",
    "categoryCode": "GACH",
    "licenseStatus": "ACTIVE",
    "inService": true,
    "licenseNumber": "140000284",
    "licenseEffectiveDate": "11/01/2025",
    "licenseExpirationDate": "10/31/2026",
    "dataDate": "10/18/2025",
    "capacity": 0,
    "address": "3100 SUMMIT STREET",
    "city": "OAKLAND",
    "zip": "94609",
    "county": "ALAMEDA",
    "phone": "(510) 835-4500",
    "lat": 37.820232,
    "lng": -122.264154
  },
  {
    "id": "140001027",
    "name": "BARBARA V. BLAKENEY",
    "npi": null,
    "hcaiId": null,
    "businessName": null,
    "contactEmail": null,
    "categoryName": "OTHER",
    "categoryCode": "UNLICEN",
    "licenseStatus": null,
    "inService": null,
    "licenseNumber": null,
    "licenseEffectiveDate": null,
    "licenseExpirationDate": null,
    "dataDate": "10/18/2025",
    "capacity": 0,
    "address": "400 29TH ST, SUITE 305",
    "city": "OAKLAND",
    "zip": "94609",
    "county": "ALAMEDA",
    "phone": "(510) 451-9007",
    "lat": 37.818036,
    "lng": -122.265162
  },
  {
    "id": "140001288",
    "name": "BAY SURGERY CENTER",
    "npi": "1194794628",
    "hcaiId": "306014174",
    "businessName": "ROBERT JAMASBI, M.D. AND BRENDAN MORLEY, M.D.",
    "contactEmail": null,
    "categoryName": "SURGICAL CLINIC",
    "categoryCode": "ASC",
    "licenseStatus": "INACTIVE - CAPEN DECISION",
    "inService": false,
    "licenseNumber": "140000656",
    "licenseEffectiveDate": "11/01/2007",
    "licenseExpirationDate": "10/31/2008",
    "dataDate": "10/18/2025",
    "capacity": 0,
    "address": "6633 TELEGRAPH AVE",
    "city": "OAKLAND",
    "zip": "94609",
    "county": "ALAMEDA",
    "phone": "(510) 647-5101",
    "lat": 37.85256,
    "lng": -122.2605495
  },
  {
    "id": "630017844",
    "name": "DIALYSIS ACCESS CENTER A MEDICAL CORPORATION",
    "npi": "1760923445",
    "hcaiId": null,
    "businessName": null,
    "contactEmail": null,
    "categoryName": "SURGICAL CLINIC",
    "categoryCode": "ASC",
    "licenseStatus": null,
    "inService": null,
    "licenseNumber": null,
    "licenseEffectiveDate": null,
    "licenseExpirationDate": null,
    "dataDate": "10/18/2025",
    "capacity": 0,
    "address": "3012 SUMMIT ST",
    "city": "OAKLAND",
    "zip": "94609",
    "county": "ALAMEDA",
    "phone": null,
    "lat": 37.81935,
    "lng": -122.2639245
  },
  {
    "id": "140001184",
    "name": "EYE MD LASER AND SURGERY CENTER",
    "npi": "1023129095",
    "hcaiId": "306014159",
    "businessName": "EYE MD LASER AND SURGERY CENTER",
    "contactEmail": null,
    "categoryName": "SURGICAL CLINIC",
    "categoryCode": "ASC",
    "licenseStatus": "INACTIVE - CAPEN DECISION",
    "inService": false,
    "licenseNumber": "140000588",
    "licenseEffectiveDate": "11/23/2008",
    "licenseExpirationDate": "11/22/2009",
    "dataDate": "10/18/2025",
    "capacity": 0,
    "address": "481 30TH ST",
    "city": "OAKLAND",
    "zip": "94609",
    "county": "ALAMEDA",
    "phone": "(510) 000-0000",
    "lat": 37.81925193,
    "lng": -122.2664642
  },
  {
    "id": "140001029",
    "name": "FRANCINE MANUEL",
    "npi": null,
    "hcaiId": null,
    "businessName": null,
    "contactEmail": null,
    "categoryName": "OTHER",
    "categoryCode": "UNLICEN",
    "licenseStatus": null,
    "inService": null,
    "licenseNumber": null,
    "licenseEffectiveDate": null,
    "licenseExpirationDate": null,
    "dataDate": "10/18/2025",
    "capacity": 0,
    "address": "400 29TH ST, SUITE 204",
    "city": "OAKLAND",
    "zip": "94609",
    "county": "ALAMEDA",
    "phone": "(510) 839-1275",
    "lat": 37.818036,
    "lng": -122.265162
  },
  {
    "id": "140001031",
    "name": "JOHN S. POLOS",
    "npi": null,
    "hcaiId": null,
    "businessName": null,
    "contactEmail": null,
    "categoryName": "OTHER",
    "categoryCode": "UNLICEN",
    "licenseStatus": null,
    "inService": null,
    "licenseNumber": null,
    "licenseEffectiveDate": null,
    "licenseExpirationDate": null,
    "dataDate": "10/18/2025",
    "capacity": 0,
    "address": "411 30TH ST, SUITE 508",
    "city": "OAKLAND",
    "zip": "94609",
    "county": "ALAMEDA",
    "phone": "(510) 763-8911",
    "lat": 37.818855,
    "lng": -122.264973
  },
  {
    "id": "140001298",
    "name": "LA CHEIM BEHAVIORAL HEALTH SERVICES (OAKLAND)",
    "npi": null,
    "hcaiId": "306014274",
    "businessName": "LA CHEIM SCHOOL, INC.",
    "contactEmail": "PHP-IOP@LACHEIM.ORG",
    "categoryName": "PSYCHOLOGY CLINIC",
    "categoryCode": "PSYCHC",
    "licenseStatus": "ACTIVE",
    "inService": true,
    "licenseNumber": "140000664",
    "licenseEffectiveDate": "05/14/2025",
    "licenseExpirationDate": "05/13/2026",
    "dataDate": "10/18/2025",
    "capacity": 0,
    "address": "3031 TELEGRAPH AVENUE",
    "city": "OAKLAND",
    "zip": "94609",
    "county": "ALAMEDA",
    "phone": "(510) 596-8125",
    "lat": 37.819737,
    "lng": -122.2673985
  },
  {
    "id": "140001306",
    "name": "LA CLINICA DENTAL AT CHILDREN'S HOSPITAL OAKLAND",
    "npi": null,
    "hcaiId": "306010417",
    "businessName": "LA CLINICA DE LA RAZA, INC.",
    "contactEmail": "VACOMPEAN@LACLINICA.ORG",
    "categoryName": "PRIMARY CARE CLINIC",
    "categoryCode": "COMTYC",
    "licenseStatus": "ACTIVE",
    "inService": true,
    "licenseNumber": "140000585",
    "licenseEffectiveDate": "04/01/2025",
    "licenseExpirationDate": "03/31/2026",
    "dataDate": "10/18/2025",
    "capacity": 0,
    "address": "4881 TELEGRAPH AVE",
    "city": "OAKLAND",
    "zip": "94609",
    "county": "ALAMEDA",
    "phone": "(510) 535-2906",
    "lat": 37.835631,
    "lng": -122.263101
  },
  {
    "id": "630018345",
    "name": "LIFELONG LENIOR HEALTH CENTER",
    "npi": "1976931295",
    "hcaiId": null,
    "businessName": "LIFELONG MEDICAL CARE",
    "contactEmail": null,
    "categoryName": "PRIMARY CARE CLINIC",
    "categoryCode": "COMTYC",
    "licenseStatus": "ACTIVE",
    "inService": true,
    "licenseNumber": "550003292",
    "licenseEffectiveDate": "08/12/2025",
    "licenseExpirationDate": "11/07/2025",
    "dataDate": "10/18/2025",
    "capacity": 0,
    "address": "2940 SUMMIT ST",
    "city": "OAKLAND",
    "zip": "94609",
    "county": "ALAMEDA",
    "phone": null,
    "lat": 37.818396,
    "lng": -122.2642845
  },
  {
    "id": "020000099",
    "name": "MCCLURE POST ACUTE",
    "npi": "1396122297",
    "hcaiId": "206010881",
    "businessName": "MCCLUREIDENCE OPCO, LLC",
    "contactEmail": "RUSTY.GREINER@MCCLUREPA.COM",
    "categoryName": "SKILLED NURSING FACILITY",
    "categoryCode": "SNF",
    "licenseStatus": "ACTIVE",
    "inService": true,
    "licenseNumber": "020000064",
    "licenseEffectiveDate": "11/16/2024",
    "licenseExpirationDate": "11/15/2025",
    "dataDate": "10/18/2025",
    "capacity": 60,
    "address": "2910 MCCLURE STREET",
    "city": "OAKLAND",
    "zip": "94609",
    "county": "ALAMEDA",
    "phone": "(510) 836-3677",
    "lat": 37.818315,
    "lng": -122.266107
  },
  {
    "id": "020000079",
    "name": "MEDICAL HILL HEALTHCARE CENTER",
    "npi": "1083634893",
    "hcaiId": "206010972",
    "businessName": "OAKLANDIDENCE OPCO, LLC",
    "contactEmail": "RUSTY.GREINER@MCCLUREPA.COM",
    "categoryName": "SKILLED NURSING FACILITY",
    "categoryCode": "SNF",
    "licenseStatus": "ACTIVE",
    "inService": true,
    "licenseNumber": "020000110",
    "licenseEffectiveDate": "11/10/2024",
    "licenseExpirationDate": "11/09/2025",
    "dataDate": "10/18/2025",
    "capacity": 124,
    "address": "475 29TH STREET",
    "city": "OAKLAND",
    "zip": "94609",
    "county": "ALAMEDA",
    "phone": "(510) 832-3222",
    "lat": 37.817541,
    "lng": -122.2664445
  },
  {
    "id": "140000025",
    "name": "MPI CHEMICAL DEPENDENCY RECOVERY HOSPITAL",
    "npi": null,
    "hcaiId": "106013687",
    "businessName": "SUTTER BAY HOSPITALS",
    "contactEmail": "COLINH@SUTTERHEALTH.ORG",
    "categoryName": "CHEMICAL DEPENDENCY RECOVERY HOSPITAL",
    "categoryCode": "CDRH",
    "licenseStatus": "ACTIVE",
    "inService": true,
    "licenseNumber": "140000232",
    "licenseEffectiveDate": "11/01/2025",
    "licenseExpirationDate": "10/31/2026",
    "dataDate": "10/18/2025",
    "capacity": 24,
    "address": "3012 SUMMIT STREET",
    "city": "OAKLAND",
    "zip": "94609",
    "county": "ALAMEDA",
    "phone": "(510) 869-8837",
    "lat": 37.81935,
    "lng": -122.2639245
  },
  {
    "id": "140000453",
    "name": "NYIA DOHRMANN",
    "npi": null,
    "hcaiId": null,
    "businessName": null,
    "contactEmail": null,
    "categoryName": "OTHER",
    "categoryCode": "UNLICEN",
    "licenseStatus": null,
    "inService": null,
    "licenseNumber": null,
    "licenseEffectiveDate": null,
    "licenseExpirationDate": null,
    "dataDate": "10/18/2025",
    "capacity": 0,
    "address": "431 30TH ST, SUITE 4",
    "city": "OAKLAND",
    "zip": "94609",
    "county": "ALAMEDA",
    "phone": "(510) 339-3163",
    "lat": 37.8189,
    "lng": -122.2654005
  },
  {
    "id": "020000115",
    "name": "OAKLAND HEALTHCARE & WELLNESS CENTER",
    "npi": "1659693745",
    "hcaiId": "206010848",
    "businessName": "OAKLAND HEALTHCARE & WELLNESS CENTER LLC",
    "contactEmail": "ADMINISTRATOR@OAKLANDHC.COM",
    "categoryName": "SKILLED NURSING FACILITY",
    "categoryCode": "SNF",
    "licenseStatus": "ACTIVE",
    "inService": true,
    "licenseNumber": "020000048",
    "licenseEffectiveDate": "04/30/2025",
    "licenseExpirationDate": "04/29/2026",
    "dataDate": "10/18/2025",
    "capacity": 98,
    "address": "3030 WEBSTER STREET",
    "city": "OAKLAND",
    "zip": "94609",
    "county": "ALAMEDA",
    "phone": "(510) 250-8000",
    "lat": 37.81935,
    "lng": -122.262993
  },
  {
    "id": "630017631",
    "name": "PRIMARY CARE AT HOME, INC.",
    "npi": null,
    "hcaiId": "306014382",
    "businessName": "PRIMARY CARE AT HOME, INC.",
    "contactEmail": "ANGUYEN@PCAHI.ORG",
    "categoryName": "PRIMARY CARE CLINIC",
    "categoryCode": "COMTYC",
    "licenseStatus": "ACTIVE",
    "inService": true,
    "licenseNumber": "550004434",
    "licenseEffectiveDate": "11/15/2024",
    "licenseExpirationDate": "11/14/2025",
    "dataDate": "10/18/2025",
    "capacity": 0,
    "address": "400 29TH ST, SUITE 306",
    "city": "OAKLAND",
    "zip": "94609",
    "county": "ALAMEDA",
    "phone": "(510) 320-2711",
    "lat": 37.818036,
    "lng": -122.265162
  },
  {
    "id": "140000671",
    "name": "REALOPTIONS",
    "npi": null,
    "hcaiId": "306014058",
    "businessName": "REALOPTIONS",
    "contactEmail": "OPERATIONSDR@REALOPTIONS.NET",
    "categoryName": "PRIMARY CARE CLINIC",
    "categoryCode": "COMTYC",
    "licenseStatus": "ACTIVE",
    "inService": true,
    "licenseNumber": "140000330",
    "licenseEffectiveDate": "11/22/2024",
    "licenseExpirationDate": "11/21/2025",
    "dataDate": "10/18/2025",
    "capacity": 0,
    "address": "400 30TH ST, SUITE 401",
    "city": "OAKLAND",
    "zip": "94609",
    "county": "ALAMEDA",
    "phone": "(408) 650-7205",
    "lat": 37.819278,
    "lng": -122.264811
  },
  {
    "id": "630011263",
    "name": "SUTTER EAST BAY WOMEN'S HEALTH CLINIC",
    "npi": null,
    "hcaiId": "306014225",
    "businessName": "SUTTER COMMUNITY HEALTH",
    "contactEmail": "SHELLEY.MCDONALDSAMM@SUTTERHEALTH.ORG",
    "categoryName": "PRIMARY CARE CLINIC",
    "categoryCode": "COMTYC",
    "licenseStatus": "ACTIVE",
    "inService": true,
    "licenseNumber": "550000581",
    "licenseEffectiveDate": "07/23/2025",
    "licenseExpirationDate": "11/27/2025",
    "dataDate": "10/18/2025",
    "capacity": 0,
    "address": "350 30TH STREET",
    "city": "OAKLAND",
    "zip": "94609",
    "county": "ALAMEDA",
    "phone": "(510) 204-7785",
    "lat": 37.81935,
    "lng": -122.2639245
  },
  {
    "id": "140001084",
    "name": "TERRY HANSFORD, PTIP",
    "npi": null,
    "hcaiId": null,
    "businessName": null,
    "contactEmail": null,
    "categoryName": "OTHER",
    "categoryCode": "UNLICEN",
    "licenseStatus": null,
    "inService": null,
    "licenseNumber": null,
    "licenseEffectiveDate": null,
    "licenseExpirationDate": null,
    "dataDate": "10/18/2025",
    "capacity": 0,
    "address": "3300 WEBSTER ST, SUITE 1008",
    "city": "OAKLAND",
    "zip": "94609",
    "county": "ALAMEDA",
    "phone": "(510) 465-9891",
    "lat": 37.821105,
    "lng": -122.261553
  },
  {
    "id": "140000639",
    "name": "THE SURGERY CENTER OF ALTA BATES SUMMIT MED CTR, LLC",
    "npi": "1245327493",
    "hcaiId": "306014022",
    "businessName": "THE SURGERY CTR OF ALTA BATES SUMMIT MED CTR, LLC",
    "contactEmail": null,
    "categoryName": "SURGICAL CLINIC",
    "categoryCode": "ASC",
    "licenseStatus": "INACTIVE - CAPEN DECISION",
    "inService": false,
    "licenseNumber": "140000317",
    "licenseEffectiveDate": "04/01/2008",
    "licenseExpirationDate": "03/31/2009",
    "dataDate": "10/18/2025",
    "capacity": 0,
    "address": "3875 TELEGRAPH AVE",
    "city": "OAKLAND",
    "zip": "94609",
    "county": "ALAMEDA",
    "phone": "(510) 547-2244",
    "lat": 37.828017,
    "lng": -122.2651125
  },
  {
    "id": "140000014",
    "name": "UCSF BENIOFF CHILDREN'S HOSPITAL OAKLAND",
    "npi": null,
    "hcaiId": "106010776",
    "businessName": "CHILDREN'S HOSPITAL & RESEARCH CENTER OAKLAND",
    "contactEmail": "KAREN.REID@UCSF.EDU",
    "categoryName": "GENERAL ACUTE CARE HOSPITAL",
    "categoryCode": "GACH",
    "licenseStatus": "ACTIVE",
    "inService": true,
    "licenseNumber": "140000015",
    "licenseEffectiveDate": "10/08/2025",
    "licenseExpirationDate": "12/31/2025",
    "dataDate": "10/18/2025",
    "capacity": 163,
    "address": "747 52ND STREET",
    "city": "OAKLAND",
    "zip": "94609",
    "county": "ALAMEDA",
    "phone": "(510) 428-3000",
    "lat": 37.836855,
    "lng": -122.2670565
  },
  {
    "id": "140001187",
    "name": "WEBSTER SURGERY CENTER",
    "npi": "1366485385",
    "hcaiId": "306014157",
    "businessName": "WEBSTER SURGERY CENTER, LP",
    "contactEmail": "SHEA@WEBSTERSURGERYCENTER.COM",
    "categoryName": "SURGICAL CLINIC",
    "categoryCode": "ASC",
    "licenseStatus": "INACTIVE - CAPEN DECISION",
    "inService": false,
    "licenseNumber": "140000590",
    "licenseEffectiveDate": "11/01/2007",
    "licenseExpirationDate": "10/31/2008",
    "dataDate": "10/18/2025",
    "capacity": 0,
    "address": "3300 WEBSTER ST, SUITE 1010",
    "city": "OAKLAND",
    "zip": "94609",
    "county": "ALAMEDA",
    "phone": "(510) 451-1875",
    "lat": 37.821105,
    "lng": -122.261553
  }
]