[
  {
    "id": "630019316",
    "name": "AMERICAN INDIAN HUMAN SERVICES (NAHC)",
    "npi": "1689863516",
    "hcaiId": null,
    "businessName": "NATIVE AMERICAN HEALTH CENTER, INC.",
    "contactEmail": null,
    "categoryName": "PRIMARY CARE CLINIC",
    "categoryCode": "FQHC/COMTYC",
    "licenseStatus": "ACTIVE",
    "inService": true,
    "licenseNumber": "140000155",
    "licenseEffectiveDate": "11/01/2025",
    "licenseExpirationDate": "10/31/2026",
    "dataDate": "10/18/2025",
    "capacity": 0,
    "address": "3124 INTERNATIONAL BLVD",
    "city": "OAKLAND",
    "zip": "94601",
    "county": "ALAMEDA",
    "phone": null,
    "lat": 37.778085,
    "lng": -122.2262865
  },
  {
    "id": "020001250",
    "name": "BELLAKEN SKILLED NURSING CENTER",
    "npi": "1841295003",
    "hcaiId": "206010851",
    "businessName": "BELLAKEN HEALTH GROUP, INC.",
    "contactEmail": "INFO@BELLAKEN.COM",
    "categoryName": "SKILLED NURSING FACILITY",
    "categoryCode": "SNF",
    "licenseStatus": "ACTIVE",
    "inService": true,
    "licenseNumber": "020000634",
    "licenseEffectiveDate": "05/31/2025",
    "licenseExpirationDate": "05/30/2026",
    "dataDate": "10/18/2025",
    "capacity": 61,
    "address": "2780 26TH AVENUE",
    "city": "OAKLAND",
    "zip": "94601",
    "county": "ALAMEDA",
    "phone": "(510) 536-1838",
    "lat": 37.793313,
    "lng": -122.221305
  },
  {
    "id": "630026817",
    "name": "CAL SAFE HEAD START",
    "npi": "1689863516",
    "hcaiId": null,
    "businessName": "NATIVE AMERICAN HEALTH CENTER, INC.",
    "contactEmail": null,
    "categoryName": "PRIMARY CARE CLINIC",
    "categoryCode": "COMTYC",
    "licenseStatus": "ACTIVE",
    "inService": true,
    "licenseNumber": "140000155",
    "licenseEffectiveDate": "11/01/2025",
    "licenseExpirationDate": "10/31/2026",
    "dataDate": "10/18/2025",
    "capacity": 0,
    "address": "2615 E 15TH ST",
    "city": "OAKLAND",
    "zip": "94601",
    "county": "ALAMEDA",
    "phone": null,
    "lat": 37.78206021,
    "lng": -122.2316257
  },
  {
    "id": "140000215",
    "name": "CASA DEL SOL",
    "npi": "1174639116",
    "hcaiId": "306013347",
    "businessName": "LA CLINICA DE LA RAZA, INC.",
    "contactEmail": "SITELICENSING@LACLINICA.ORG",
    "categoryName": "PRIMARY CARE CLINIC",
    "categoryCode": "COMTYC",
    "licenseStatus": "ACTIVE",
    "inService": true,
    "licenseNumber": "140000172",
    "licenseEffectiveDate": "05/07/2025",
    "licenseExpirationDate": "05/06/2026",
    "dataDate": "10/18/2025",
    "capacity": 0,
    "address": "1501 FRUITVALE AVENUE",
    "city": "OAKLAND",
    "zip": "94601",
    "county": "ALAMEDA",
    "phone": "(510) 535-2906",
    "lat": 37.779039,
    "lng": -122.225454
  },
  {
    "id": "630002922",
    "name": "CLINICA ALTA VISTA",
    "npi": null,
    "hcaiId": "306014205",
    "businessName": "LA CLINICA DE LA RAZA, INC.",
    "contactEmail": "SITELICENSING@LACLINICA.ORG",
    "categoryName": "PRIMARY CARE CLINIC",
    "categoryCode": "COMTYC",
    "licenseStatus": "ACTIVE",
    "inService": true,
    "licenseNumber": "550000036",
    "licenseEffectiveDate": "06/20/2025",
    "licenseExpirationDate": "06/19/2026",
    "dataDate": "10/18/2025",
    "capacity": 0,
    "address": "1515 FRUITVALE AVE",
    "city": "OAKLAND",
    "zip": "94601",
    "county": "ALAMEDA",
    "phone": "(510) 535-2906",
    "lat": 37.77921,
    "lng": -122.2254045
  },
  {
    "id": "140001042",
    "name": "DEBRA HAEGEL",
    "npi": null,
    "hcaiId": null,
    "businessName": null,
    "contactEmail": null,
    "categoryName": "OTHER",
    "categoryCode": "UNLICEN",
    "licenseStatus": null,
    "inService": null,
    "licenseNumber": null,
    "licenseEffectiveDate": null,
    "licenseExpirationDate": null,
    "dataDate": "10/18/2025",
    "capacity": 0,
    "address": "3022 EAST 14TH STREET, SUITE 404",
    "city": "OAKLAND",
    "zip": "94601",
    "county": "ALAMEDA",
    "phone": "(510) 533-3280",
    "lat": 37.77856352,
    "lng": -122.2276737
  },
  {
    "id": "140001373",
    "name": "FAMILY OPTICAL I",
    "npi": null,
    "hcaiId": "306014196",
    "businessName": "LA CLINICA DE LA RAZA, INC.",
    "contactEmail": "VACOMPEAN@LACLINICA.ORG",
    "categoryName": "PRIMARY CARE CLINIC",
    "categoryCode": "COMTYC",
    "licenseStatus": "ACTIVE",
    "inService": true,
    "licenseNumber": "140000189",
    "licenseEffectiveDate": "01/19/2025",
    "licenseExpirationDate": "01/18/2026",
    "dataDate": "10/18/2025",
    "capacity": 0,
    "address": "3060 E 9TH STREET, SUITE B",
    "city": "OAKLAND",
    "zip": "94601",
    "county": "ALAMEDA",
    "phone": "(510) 535-2906",
    "lat": 37.77387711,
    "lng": -122.2290515
  },
  {
    "id": "630020396",
    "name": "FRUITVALE COMMUNITY TESTING CENTER",
    "npi": null,
    "hcaiId": null,
    "businessName": "LA CLINICA DE LA RAZA, INC.",
    "contactEmail": null,
    "categoryName": "PRIMARY CARE CLINIC",
    "categoryCode": "COMTYC",
    "licenseStatus": "ACTIVE",
    "inService": true,
    "licenseNumber": "140000675",
    "licenseEffectiveDate": "02/06/2025",
    "licenseExpirationDate": "02/05/2026",
    "dataDate": "10/18/2025",
    "capacity": 0,
    "address": "3601 E 12TH ST",
    "city": "OAKLAND",
    "zip": "94601",
    "county": "ALAMEDA",
    "phone": null,
    "lat": 37.77488724,
    "lng": -122.2223435
  },
  {
    "id": "630022131",
    "name": "FRUITVALE COMMUNITY TESTING CENTER 2",
    "npi": null,
    "hcaiId": null,
    "businessName": "LA CLINICA DE LA RAZA, INC.",
    "contactEmail": null,
    "categoryName": "PRIMARY CARE CLINIC",
    "categoryCode": "COMTYC",
    "licenseStatus": "ACTIVE",
    "inService": true,
    "licenseNumber": "140000675",
    "licenseEffectiveDate": "02/06/2025",
    "licenseExpirationDate": "02/05/2026",
    "dataDate": "10/18/2025",
    "capacity": 0,
    "address": "3709 E 12TH ST",
    "city": "OAKLAND",
    "zip": "94601",
    "county": "ALAMEDA",
    "phone": null,
    "lat": 37.77372,
    "lng": -122.2214625
  },
  {
    "id": "630023319",
    "name": "FRUITVALE COMMUNITY TESTING SITE 3",
    "npi": null,
    "hcaiId": null,
    "businessName": "LA CLINICA DE LA RAZA, INC.",
    "contactEmail": null,
    "categoryName": "PRIMARY CARE CLINIC",
    "categoryCode": "COMTYC",
    "licenseStatus": "ACTIVE",
    "inService": true,
    "licenseNumber": "140000675",
    "licenseEffectiveDate": "02/06/2025",
    "licenseExpirationDate": "02/05/2026",
    "dataDate": "10/18/2025",
    "capacity": 0,
    "address": "1102 DERBY AVE",
    "city": "OAKLAND",
    "zip": "94601",
    "county": "ALAMEDA",
    "phone": null,
    "lat": 37.7763418,
    "lng": -122.23122
  },
  {
    "id": "020000124",
    "name": "FRUITVALE HEALTHCARE CENTER",
    "npi": "1144856535",
    "hcaiId": "206010889",
    "businessName": "FRUITVALE OPERATING COMPANY, LP",
    "contactEmail": "NICHOLAS.PERSINGER@MARINERHEALTHCARE.COM",
    "categoryName": "SKILLED NURSING FACILITY",
    "categoryCode": "SNF",
    "licenseStatus": "ACTIVE",
    "inService": true,
    "licenseNumber": "020000067",
    "licenseEffectiveDate": "12/12/2024",
    "licenseExpirationDate": "12/11/2025",
    "dataDate": "10/18/2025",
    "capacity": 140,
    "address": "3020 EAST 15TH STREET",
    "city": "OAKLAND",
    "zip": "94601",
    "county": "ALAMEDA",
    "phone": "(510) 295-7668",
    "lat": 37.779705,
    "lng": -122.226822
  },
  {
    "id": "020000125",
    "name": "GARFIELD NEUROBEHAVIORAL CENTER",
    "npi": "1396832465",
    "hcaiId": "206010900",
    "businessName": "GARFIELD NURSING HOME INC.",
    "contactEmail": "CDANBY@TELECARECORP.COM",
    "categoryName": "SKILLED NURSING FACILITY",
    "categoryCode": "SNF",
    "licenseStatus": "ACTIVE",
    "inService": true,
    "licenseNumber": "020000074",
    "licenseEffectiveDate": "12/08/2024",
    "licenseExpirationDate": "12/07/2025",
    "dataDate": "10/18/2025",
    "capacity": 96,
    "address": "1451 28TH AVENUE",
    "city": "OAKLAND",
    "zip": "94601",
    "county": "ALAMEDA",
    "phone": "(510) 261-9191",
    "lat": 37.780848,
    "lng": -122.229468
  },
  {
    "id": "140000807",
    "name": "GLADMAN DAY TREATMENT PROGRAM MENTAL HEALTH",
    "npi": null,
    "hcaiId": null,
    "businessName": null,
    "contactEmail": null,
    "categoryName": "OTHER",
    "categoryCode": "UNLICEN",
    "licenseStatus": null,
    "inService": null,
    "licenseNumber": null,
    "licenseEffectiveDate": null,
    "licenseExpirationDate": null,
    "dataDate": "10/18/2025",
    "capacity": 0,
    "address": "2620 26TH AVE",
    "city": "OAKLAND",
    "zip": "94601",
    "county": "ALAMEDA",
    "phone": "(510) 536-8111",
    "lat": 37.79082,
    "lng": -122.2230195
  },
  {
    "id": "630014701",
    "name": "HAWTHORNE ELEMENTARY SCHOOL-BASED CLINIC",
    "npi": "1023445780",
    "hcaiId": "306014331",
    "businessName": "LA CLINICA DE LA RAZA, INC.",
    "contactEmail": "CRAMIREZ@LACLINICA.ORG",
    "categoryName": "PRIMARY CARE CLINIC",
    "categoryCode": "COMTYC",
    "licenseStatus": "ACTIVE",
    "inService": true,
    "licenseNumber": "550001178",
    "licenseEffectiveDate": "11/12/2025",
    "licenseExpirationDate": "11/11/2026",
    "dataDate": "10/18/2025",
    "capacity": 0,
    "address": "1700 28TH AVENUE",
    "city": "OAKLAND",
    "zip": "94601",
    "county": "ALAMEDA",
    "phone": "(510) 535-6440",
    "lat": 37.78227,
    "lng": -122.2260885
  },
  {
    "id": "140001312",
    "name": "LA CLINICA DE LA RAZA",
    "npi": null,
    "hcaiId": "306014188",
    "businessName": "LA CLINICA DE LA RAZA, INC.",
    "contactEmail": "AGAUCIN@LACLINICA.ORG",
    "categoryName": "PRIMARY CARE CLINIC",
    "categoryCode": "COMTYC",
    "licenseStatus": "ACTIVE",
    "inService": true,
    "licenseNumber": "140000675",
    "licenseEffectiveDate": "02/06/2025",
    "licenseExpirationDate": "02/05/2026",
    "dataDate": "10/18/2025",
    "capacity": 0,
    "address": "3451 E 12TH STREET",
    "city": "OAKLAND",
    "zip": "94601",
    "county": "ALAMEDA",
    "phone": "(510) 535-3302",
    "lat": 37.775484,
    "lng": -122.223537
  },
  {
    "id": "140000227",
    "name": "LA CLINICA DE LA RAZA DENTAL",
    "npi": null,
    "hcaiId": "306013346",
    "businessName": "LA CLINICA DE LA RAZA, INC.",
    "contactEmail": "CSZETO@LACLINICA.ORG",
    "categoryName": "PRIMARY CARE CLINIC",
    "categoryCode": "COMTYC",
    "licenseStatus": "ACTIVE",
    "inService": true,
    "licenseNumber": "140000585",
    "licenseEffectiveDate": "04/01/2025",
    "licenseExpirationDate": "03/31/2026",
    "dataDate": "10/18/2025",
    "capacity": 0,
    "address": "3050 E 16TH STREET",
    "city": "OAKLAND",
    "zip": "94601",
    "county": "ALAMEDA",
    "phone": "(510) 535-2906",
    "lat": 37.77995655,
    "lng": -122.2250163
  },
  {
    "id": "630017154",
    "name": "LA CLINICA JULIAN R. DAVIS PEDIATRICS",
    "npi": null,
    "hcaiId": null,
    "businessName": "LA CLINICA DE LA RAZA, INC.",
    "contactEmail": "ESTENHOLM@LACLINICA.ORG",
    "categoryName": "PRIMARY CARE CLINIC",
    "categoryCode": "COMTYC",
    "licenseStatus": "ACTIVE",
    "inService": true,
    "licenseNumber": "550000036",
    "licenseEffectiveDate": "06/20/2025",
    "licenseExpirationDate": "06/19/2026",
    "dataDate": "10/18/2025",
    "capacity": 0,
    "address": "5461 FOOTHILL BLVD",
    "city": "OAKLAND",
    "zip": "94601",
    "county": "ALAMEDA",
    "phone": "(510) 532-0918",
    "lat": 37.772433,
    "lng": -122.196969
  },
  {
    "id": "630028172",
    "name": "LA CLINICA TRUCHA",
    "npi": null,
    "hcaiId": null,
    "businessName": "LA CLINICA DE LA RAZA, INC.",
    "contactEmail": null,
    "categoryName": "PRIMARY CARE CLINIC",
    "categoryCode": "COMTYC",
    "licenseStatus": "ACTIVE",
    "inService": true,
    "licenseNumber": "140000675",
    "licenseEffectiveDate": "02/06/2025",
    "licenseExpirationDate": "02/05/2026",
    "dataDate": "10/18/2025",
    "capacity": 0,
    "address": "1525 FRUITVALE AVE",
    "city": "OAKLAND",
    "zip": "94601",
    "county": "ALAMEDA",
    "phone": null,
    "lat": 37.7794045,
    "lng": -122.2252954
  },
  {
    "id": "020000100",
    "name": "MERCY RETIREMENT & CARE CENTER",
    "npi": "1225029366",
    "hcaiId": "206013696",
    "businessName": "MERCY RETIREMENT AND CARE CENTER",
    "contactEmail": "KHASS@ELDERCAREALLIANCE.ORG",
    "categoryName": "SKILLED NURSING FACILITY",
    "categoryCode": "SNF",
    "licenseStatus": "ACTIVE",
    "inService": true,
    "licenseNumber": "020000237",
    "licenseEffectiveDate": "01/15/2025",
    "licenseExpirationDate": "01/14/2026",
    "dataDate": "10/18/2025",
    "capacity": 59,
    "address": "3431 FOOTHILL BOULEVARD",
    "city": "OAKLAND",
    "zip": "94601",
    "county": "ALAMEDA",
    "phone": "(510) 534-8540",
    "lat": 37.782108,
    "lng": -122.220765
  },
  {
    "id": "140000221",
    "name": "NATIVE AMERICAN HEALTH CENTER",
    "npi": "1689863516",
    "hcaiId": "306014240",
    "businessName": "NATIVE AMERICAN HEALTH CENTER, INC.",
    "contactEmail": "DAWNL@NATIVEHEALTH.ORG",
    "categoryName": "PRIMARY CARE CLINIC",
    "categoryCode": "COMTYC",
    "licenseStatus": "ACTIVE",
    "inService": true,
    "licenseNumber": "140000155",
    "licenseEffectiveDate": "11/01/2025",
    "licenseExpirationDate": "10/31/2026",
    "dataDate": "10/18/2025",
    "capacity": 0,
    "address": "2950 INTERNATIONAL BOULEVARD",
    "city": "OAKLAND",
    "zip": "94601",
    "county": "ALAMEDA",
    "phone": "(510) 485-5905",
    "lat": 37.77889803,
    "lng": -122.2283066
  },
  {
    "id": "140000260",
    "name": "RAI-EAST BAY-OAKLAND",
    "npi": "1982888202",
    "hcaiId": "306014306",
    "businessName": "RAI CARE CENTERS OF OAKLAND II, LLC",
    "contactEmail": "CLINIC7108@FMC-NA.COM",
    "categoryName": "CHRONIC DIALYSIS CLINIC",
    "categoryCode": "ESRD/CDC",
    "licenseStatus": "ACTIVE",
    "inService": true,
    "licenseNumber": "140000146",
    "licenseEffectiveDate": "01/01/2025",
    "licenseExpirationDate": "12/31/2025",
    "dataDate": "10/18/2025",
    "capacity": 25,
    "address": "2628 INTERNATIONAL BOULEVARD, SUITE 100",
    "city": "OAKLAND",
    "zip": "94601",
    "county": "ALAMEDA",
    "phone": "(510) 261-8219",
    "lat": 37.781271,
    "lng": -122.231718
  },
  {
    "id": "630017240",
    "name": "ROOTS COMMUNITY HEALTH CENTER",
    "npi": "1083858823",
    "hcaiId": null,
    "businessName": "ROOTS COMMUNITY HEALTH CENTER",
    "contactEmail": "DRNOHA@ROOTSCLINIC.ORG",
    "categoryName": "PRIMARY CARE CLINIC",
    "categoryCode": "COMTYC",
    "licenseStatus": "ACTIVE",
    "inService": true,
    "licenseNumber": "550002196",
    "licenseEffectiveDate": "02/11/2025",
    "licenseExpirationDate": "02/10/2026",
    "dataDate": "10/18/2025",
    "capacity": 0,
    "address": "2700 INTERNATIONAL BLVD, SUITE 11",
    "city": "OAKLAND",
    "zip": "94601",
    "county": "ALAMEDA",
    "phone": "(510) 777-1177",
    "lat": 37.780857,
    "lng": -122.231115
  },
  {
    "id": "630019726",
    "name": "SEVEN GENERATIONS SCHOOL-BASED HEALTH CENTER AT UFSA/LIFE (NAHC)",
    "npi": "1689863516",
    "hcaiId": null,
    "businessName": "NATIVE AMERICAN HEALTH CENTER, INC.",
    "contactEmail": null,
    "categoryName": "PRIMARY CARE CLINIC",
    "categoryCode": "COMTYC",
    "licenseStatus": "ACTIVE",
    "inService": true,
    "licenseNumber": "140000155",
    "licenseEffectiveDate": "11/01/2025",
    "licenseExpirationDate": "10/31/2026",
    "dataDate": "10/18/2025",
    "capacity": 0,
    "address": "2101 35TH AVE",
    "city": "OAKLAND",
    "zip": "94601",
    "county": "ALAMEDA",
    "phone": null,
    "lat": 37.7843153,
    "lng": -122.2167276
  },
  {
    "id": "630026816",
    "name": "SUNGATE HEAD START",
    "npi": "1689863516",
    "hcaiId": null,
    "businessName": "NATIVE AMERICAN HEALTH CENTER, INC.",
    "contactEmail": null,
    "categoryName": "PRIMARY CARE CLINIC",
    "categoryCode": "COMTYC",
    "licenseStatus": "ACTIVE",
    "inService": true,
    "licenseNumber": "140000155",
    "licenseEffectiveDate": "11/01/2025",
    "licenseExpirationDate": "10/31/2026",
    "dataDate": "10/18/2025",
    "capacity": 0,
    "address": "2563 INTERNATIONAL BLVD",
    "city": "OAKLAND",
    "zip": "94601",
    "county": "ALAMEDA",
    "phone": null,
    "lat": 37.78158425,
    "lng": -122.2330053
  },
  {
    "id": "630011102",
    "name": "TELECARE HERITAGE PSYCHIATRIC HEALTH FACILITY",
    "npi": null,
    "hcaiId": "106014207",
    "businessName": null,
    "contactEmail": null,
    "categoryName": "PSYCHOLOGY CLINIC",
    "categoryCode": "PSYCHC",
    "licenseStatus": null,
    "inService": null,
    "licenseNumber": null,
    "licenseEffectiveDate": null,
    "licenseExpirationDate": null,
    "dataDate": "10/18/2025",
    "capacity": 0,
    "address": "2633 E 27TH STREET",
    "city": "OAKLAND",
    "zip": "94601",
    "county": "ALAMEDA",
    "phone": null,
    "lat": 37.790631,
    "lng": -122.222232
  },
  {
    "id": "630010641",
    "name": "TIGER HEALTH CLINIC",
    "npi": null,
    "hcaiId": "306014211",
    "businessName": "LA CLINICA DE LA RAZA, INC.",
    "contactEmail": "CSZETO@LACLINICA.ORG",
    "categoryName": "PRIMARY CARE CLINIC",
    "categoryCode": "COMTYC",
    "licenseStatus": "ACTIVE",
    "inService": true,
    "licenseNumber": "550001178",
    "licenseEffectiveDate": "11/12/2025",
    "licenseExpirationDate": "11/11/2026",
    "dataDate": "10/18/2025",
    "capacity": 0,
    "address": "4610 FOOTHILL BLVD",
    "city": "OAKLAND",
    "zip": "94601",
    "county": "ALAMEDA",
    "phone": "(510) 879-2001",
    "lat": 37.774404,
    "lng": -122.209722
  }
]