[
  {
    "id": "140000625",
    "name": "BAYWELL HEALTH, ALBERT J. THOMAS MEDICAL CLINIC",
    "npi": null,
    "hcaiId": "306014019",
    "businessName": "THE WEST OAKLAND HEALTH COUNCIL",
    "contactEmail": "ROBERTP@WOHC.ORG",
    "categoryName": "PRIMARY CARE CLINIC",
    "categoryCode": "COMTYC",
    "licenseStatus": "ACTIVE",
    "inService": true,
    "licenseNumber": "140000311",
    "licenseEffectiveDate": "07/03/2025",
    "licenseExpirationDate": "01/05/2026",
    "dataDate": "10/18/2025",
    "capacity": 0,
    "address": "10615 INTERNATIONAL BLVD",
    "city": "OAKLAND",
    "zip": "94603",
    "county": "ALAMEDA",
    "phone": "(510) 835-9610",
    "lat": 37.738314,
    "lng": -122.166432
  },
  {
    "id": "630027196",
    "name": "LA CLINICA AT 95TH AVENUE",
    "npi": null,
    "hcaiId": null,
    "businessName": "LA CLINICA DE LA RAZA, INC.",
    "contactEmail": "CAVILA@LACLINICA.ORG",
    "categoryName": "PRIMARY CARE CLINIC",
    "categoryCode": "COMTYC",
    "licenseStatus": "ACTIVE",
    "inService": true,
    "licenseNumber": "140000675",
    "licenseEffectiveDate": "02/06/2025",
    "licenseExpirationDate": "02/05/2026",
    "dataDate": "10/18/2025",
    "capacity": 0,
    "address": "9475 INTERNATIONAL BLVD",
    "city": "OAKLAND",
    "zip": "94603",
    "county": "ALAMEDA",
    "phone": null,
    "lat": 37.74661871,
    "lng": -122.1723437
  },
  {
    "id": "630019724",
    "name": "MADISON HEALTH CENTER (NAHC)",
    "npi": null,
    "hcaiId": null,
    "businessName": "NATIVE AMERICAN HEALTH CENTER, INC.",
    "contactEmail": null,
    "categoryName": "PRIMARY CARE CLINIC",
    "categoryCode": "COMTYC",
    "licenseStatus": "ACTIVE",
    "inService": true,
    "licenseNumber": "140000155",
    "licenseEffectiveDate": "11/01/2025",
    "licenseExpirationDate": "10/31/2026",
    "dataDate": "10/18/2025",
    "capacity": 0,
    "address": "400 CAPISTRANO DR, ROOM 100",
    "city": "OAKLAND",
    "zip": "94603",
    "county": "ALAMEDA",
    "phone": null,
    "lat": 37.727019,
    "lng": -122.1796305
  },
  {
    "id": "630013874",
    "name": "ROOTS COMMUNITY HEALTH CENTER",
    "npi": "1083858823",
    "hcaiId": "306014311",
    "businessName": "ROOTS COMMUNITY HEALTH CENTER",
    "contactEmail": "ADMIN@ROOTSCLINIC.ORG",
    "categoryName": "PRIMARY CARE CLINIC",
    "categoryCode": "COMTYC",
    "licenseStatus": "ACTIVE",
    "inService": true,
    "licenseNumber": "550002196",
    "licenseEffectiveDate": "02/11/2025",
    "licenseExpirationDate": "02/10/2026",
    "dataDate": "10/18/2025",
    "capacity": 0,
    "address": "9925 INTERNATIONAL BOULEVARD, SUITE 5",
    "city": "OAKLAND",
    "zip": "94603",
    "county": "ALAMEDA",
    "phone": "(408) 490-4710",
    "lat": 37.743255,
    "lng": -122.1702075
  },
  {
    "id": "630017239",
    "name": "ROOTS COMMUNITY HEALTH CENTER",
    "npi": "1083858823",
    "hcaiId": null,
    "businessName": "ROOTS COMMUNITY HEALTH CENTER",
    "contactEmail": "DRNOHA@ROOTSCLINIC.ORG",
    "categoryName": "PRIMARY CARE CLINIC",
    "categoryCode": "COMTYC",
    "licenseStatus": "ACTIVE",
    "inService": true,
    "licenseNumber": "550002196",
    "licenseEffectiveDate": "02/11/2025",
    "licenseExpirationDate": "02/10/2026",
    "dataDate": "10/18/2025",
    "capacity": 0,
    "address": "9925 INTERNATIONAL BLVD, SUITE 5",
    "city": "OAKLAND",
    "zip": "94603",
    "county": "ALAMEDA",
    "phone": "(510) 777-1177",
    "lat": 37.743255,
    "lng": -122.1702075
  }
]