[
  {
    "id": "630013893",
    "name": "ASTRA HEALTH CARE HOME HEALTH AGENCY",
    "npi": "1558610808",
    "hcaiId": "406014315",
    "businessName": "ASTRA HEALTH CARE",
    "contactEmail": "INFO@ASTRAHEALTHCARE.COM",
    "categoryName": "HOME HEALTH AGENCY",
    "categoryCode": "HHA",
    "licenseStatus": "ACTIVE",
    "inService": true,
    "licenseNumber": "550002225",
    "licenseEffectiveDate": "03/25/2023",
    "licenseExpirationDate": "03/24/2024",
    "dataDate": "10/18/2025",
    "capacity": 0,
    "address": "55 SANTA CLARA AVENUE, SUITE 255",
    "city": "OAKLAND",
    "zip": "94610",
    "county": "ALAMEDA",
    "phone": "(510) 272-0777",
    "lat": 37.82052,
    "lng": -122.2551945
  },
  {
    "id": "020000110",
    "name": "LAKE MERRITT HEALTHCARE CENTER LLC",
    "npi": "1801345772",
    "hcaiId": "206010875",
    "businessName": "LAKE MERRITT HEALTHCARE CENTER LLC",
    "contactEmail": "ADMINISTRATOR@LAKEMERRITTHC.COM",
    "categoryName": "SKILLED NURSING FACILITY",
    "categoryCode": "SNF",
    "licenseStatus": "ACTIVE",
    "inService": true,
    "licenseNumber": "020000061",
    "licenseEffectiveDate": "03/10/2025",
    "licenseExpirationDate": "03/09/2026",
    "dataDate": "10/18/2025",
    "capacity": 53,
    "address": "309 MACARTHUR BOULEVARD",
    "city": "OAKLAND",
    "zip": "94610",
    "county": "ALAMEDA",
    "phone": "(510) 836-3777",
    "lat": 37.81413,
    "lng": -122.2519095
  },
  {
    "id": "630021911",
    "name": "LIFELONG AT OAKLAND LGBTQ CENTER",
    "npi": "1976931295",
    "hcaiId": null,
    "businessName": "LIFELONG MEDICAL CARE",
    "contactEmail": null,
    "categoryName": "PRIMARY CARE CLINIC",
    "categoryCode": "COMTYC",
    "licenseStatus": "ACTIVE",
    "inService": true,
    "licenseNumber": "550003292",
    "licenseEffectiveDate": "08/12/2025",
    "licenseExpirationDate": "11/07/2025",
    "dataDate": "10/18/2025",
    "capacity": 0,
    "address": "3207 LAKESHORE AVE",
    "city": "OAKLAND",
    "zip": "94610",
    "county": "ALAMEDA",
    "phone": null,
    "lat": 37.81025632,
    "lng": -122.2456461
  },
  {
    "id": "020000064",
    "name": "ST. PAUL'S TOWERS",
    "npi": null,
    "hcaiId": "206010966",
    "businessName": "FRONT PORCH COMMUNITIES AND SERVICES",
    "contactEmail": "CMARCELO@FRONTPORCH.NET",
    "categoryName": "SKILLED NURSING FACILITY",
    "categoryCode": "SNF",
    "licenseStatus": "ACTIVE",
    "inService": true,
    "licenseNumber": "020000106",
    "licenseEffectiveDate": "06/01/2025",
    "licenseExpirationDate": "05/31/2026",
    "dataDate": "10/18/2025",
    "capacity": 43,
    "address": "100 BAY PLACE",
    "city": "OAKLAND",
    "zip": "94610",
    "county": "ALAMEDA",
    "phone": "(510) 891-2514",
    "lat": 37.811898,
    "lng": -122.2602975
  },
  {
    "id": "630027515",
    "name": "WILDCAT WELLNESS CENTER",
    "npi": null,
    "hcaiId": null,
    "businessName": "ASIAN HEALTH SERVICES",
    "contactEmail": null,
    "categoryName": "PRIMARY CARE CLINIC",
    "categoryCode": "COMTYC",
    "licenseStatus": "ACTIVE",
    "inService": true,
    "licenseNumber": "140000125",
    "licenseEffectiveDate": "02/24/2025",
    "licenseExpirationDate": "02/23/2026",
    "dataDate": "10/18/2025",
    "capacity": 0,
    "address": "1023 MACARTHUR BLVD, ROOM 111, 116, 117, 118, 119",
    "city": "OAKLAND",
    "zip": "94610",
    "county": "ALAMEDA",
    "phone": null,
    "lat": 37.80525349,
    "lng": -122.2364562
  }
]