[
  {
    "id": "020000093",
    "name": "EXCELL HEALTH CARE CENTER",
    "npi": "1497875546",
    "hcaiId": "206010906",
    "businessName": "EXCELL POST ACUTE LLC",
    "contactEmail": "ADMIN@EXCELLHEALTHCARECENTER.COM",
    "categoryName": "SKILLED NURSING FACILITY",
    "categoryCode": "SNF",
    "licenseStatus": "ACTIVE",
    "inService": true,
    "licenseNumber": "020000080",
    "licenseEffectiveDate": "11/01/2024",
    "licenseExpirationDate": "10/31/2025",
    "dataDate": "10/18/2025",
    "capacity": 99,
    "address": "3025 HIGH STREET",
    "city": "OAKLAND",
    "zip": "94619",
    "county": "ALAMEDA",
    "phone": "(510) 261-5200",
    "lat": 37.785087,
    "lng": -122.2006995
  },
  {
    "id": "630016660",
    "name": "HOLISTIC PALLIATIVE CARE, INC.",
    "npi": "1649638396",
    "hcaiId": "406010659",
    "businessName": "HOLISTIC PALLIATIVE CARE, INC.",
    "contactEmail": "HPCZEN@GMAIL.COM",
    "categoryName": "HOSPICE",
    "categoryCode": "HOSPICE",
    "licenseStatus": "ACTIVE",
    "inService": true,
    "licenseNumber": "550004188",
    "licenseEffectiveDate": "11/29/2023",
    "licenseExpirationDate": "11/28/2025",
    "dataDate": "10/18/2025",
    "capacity": 0,
    "address": "5707 REDWOOD ROAD, SUITE 1",
    "city": "OAKLAND",
    "zip": "94619",
    "county": "ALAMEDA",
    "phone": "(510) 285-7800",
    "lat": 37.800054,
    "lng": -122.1710355
  },
  {
    "id": "630020570",
    "name": "OAKLAND LAUREL DIALYSIS",
    "npi": null,
    "hcaiId": "306010583",
    "businessName": "MINNEOPA DIALYSIS, LLC",
    "contactEmail": "CAL_C@DAVITA.COM",
    "categoryName": "CHRONIC DIALYSIS CLINIC",
    "categoryCode": "ESRD/CDC",
    "licenseStatus": "ACTIVE",
    "inService": true,
    "licenseNumber": "550005789",
    "licenseEffectiveDate": "10/20/2025",
    "licenseExpirationDate": "10/19/2026",
    "dataDate": "10/18/2025",
    "capacity": 24,
    "address": "3814 MACARTHUR BLVD, SUITE 201",
    "city": "OAKLAND",
    "zip": "94619",
    "county": "ALAMEDA",
    "phone": "(510) 531-6090",
    "lat": 37.791711,
    "lng": -122.19831
  },
  {
    "id": "020000119",
    "name": "REDWOOD HEALTHCARE CENTER LLC",
    "npi": "1184173056",
    "hcaiId": "206010845",
    "businessName": "REDWOOD HEALTHCARE CENTER LLC",
    "contactEmail": "ADMINISTRATOR@REDWOODHCC.COM",
    "categoryName": "SKILLED NURSING FACILITY",
    "categoryCode": "SNF",
    "licenseStatus": "ACTIVE",
    "inService": true,
    "licenseNumber": "020000045",
    "licenseEffectiveDate": "03/10/2025",
    "licenseExpirationDate": "03/09/2026",
    "dataDate": "10/18/2025",
    "capacity": 44,
    "address": "3145 HIGH STREET",
    "city": "OAKLAND",
    "zip": "94619",
    "county": "ALAMEDA",
    "phone": "(510) 533-9970",
    "lat": 37.785627,
    "lng": -122.199309
  },
  {
    "id": "630019376",
    "name": "SEVEN GENERATIONS SCHOOL-BASED HEALTH CENTER AT SKYLINE HIGH SCHOOL (NAHC)",
    "npi": null,
    "hcaiId": null,
    "businessName": "NATIVE AMERICAN HEALTH CENTER, INC.",
    "contactEmail": null,
    "categoryName": "PRIMARY CARE CLINIC",
    "categoryCode": "COMTYC",
    "licenseStatus": "ACTIVE",
    "inService": true,
    "licenseNumber": "140000155",
    "licenseEffectiveDate": "11/01/2025",
    "licenseExpirationDate": "10/31/2026",
    "dataDate": "10/18/2025",
    "capacity": 0,
    "address": "12250 SKYLINE BLVD",
    "city": "OAKLAND",
    "zip": "94619",
    "county": "ALAMEDA",
    "phone": null,
    "lat": 37.79874,
    "lng": -122.160699
  }
]