[
  {
    "id": "140000777",
    "name": "ACADEMY OF CHINESE CULTURE AND HEALTH SCIENCES",
    "npi": null,
    "hcaiId": null,
    "businessName": null,
    "contactEmail": null,
    "categoryName": "OTHER",
    "categoryCode": "UNLICEN",
    "licenseStatus": "ACTIVE",
    "inService": true,
    "licenseNumber": "140000383",
    "licenseEffectiveDate": null,
    "licenseExpirationDate": null,
    "dataDate": "10/18/2025",
    "capacity": 0,
    "address": "1601 CLAY ST",
    "city": "OAKLAND",
    "zip": "94612",
    "county": "ALAMEDA",
    "phone": "(510) 763-7787",
    "lat": 37.8066894,
    "lng": -122.2727912
  },
  {
    "id": "020000950",
    "name": "CENTER FOR ELDERS INDEPENDENCE/HHA",
    "npi": null,
    "hcaiId": "406014096",
    "businessName": "CENTER FOR ELDERS' INDEPENDENCE",
    "contactEmail": "COMPLIANCE@CEI.ELDERS.ORG",
    "categoryName": "HOME HEALTH AGENCY",
    "categoryCode": "HHA",
    "licenseStatus": "ACTIVE",
    "inService": true,
    "licenseNumber": "020000478",
    "licenseEffectiveDate": "12/02/2024",
    "licenseExpirationDate": "12/01/2025",
    "dataDate": "10/18/2025",
    "capacity": 0,
    "address": "1955 SAN PABLO AVENUE",
    "city": "OAKLAND",
    "zip": "94612",
    "county": "ALAMEDA",
    "phone": "(510) 607-5185",
    "lat": 37.809873,
    "lng": -122.273415
  },
  {
    "id": "140001213",
    "name": "CENTRAL HEALTH CENTER",
    "npi": null,
    "hcaiId": null,
    "businessName": null,
    "contactEmail": "EWILLIAMS@ACMEDCTR.ORG",
    "categoryName": "PRIMARY CARE CLINIC",
    "categoryCode": "FQHC",
    "licenseStatus": null,
    "inService": null,
    "licenseNumber": null,
    "licenseEffectiveDate": null,
    "licenseExpirationDate": null,
    "dataDate": "10/18/2025",
    "capacity": 0,
    "address": "470 27TH ST",
    "city": "OAKLAND",
    "zip": "94612",
    "county": "ALAMEDA",
    "phone": "(510) 271-4263",
    "lat": 37.816362,
    "lng": -122.2666245
  },
  {
    "id": "140000844",
    "name": "CENTRAL OAKLAND COMMUNITY MENTAL HEALTH CENTER",
    "npi": null,
    "hcaiId": null,
    "businessName": null,
    "contactEmail": null,
    "categoryName": "OTHER",
    "categoryCode": "UNLICEN",
    "licenseStatus": null,
    "inService": null,
    "licenseNumber": null,
    "licenseEffectiveDate": null,
    "licenseExpirationDate": null,
    "dataDate": "10/18/2025",
    "capacity": 0,
    "address": "285 17TH ST",
    "city": "OAKLAND",
    "zip": "94612",
    "county": "ALAMEDA",
    "phone": "(510) 271-4380",
    "lat": 37.805013,
    "lng": -122.2658145
  },
  {
    "id": "630028119",
    "name": "COUNTY OF ALAMEDA",
    "npi": null,
    "hcaiId": null,
    "businessName": null,
    "contactEmail": null,
    "categoryName": "PRIMARY CARE CLINIC",
    "categoryCode": "FQHC",
    "licenseStatus": null,
    "inService": null,
    "licenseNumber": null,
    "licenseEffectiveDate": null,
    "licenseExpirationDate": null,
    "dataDate": "10/18/2025",
    "capacity": 0,
    "address": "384 14TH ST",
    "city": "OAKLAND",
    "zip": "94612",
    "county": "ALAMEDA",
    "phone": null,
    "lat": 37.8038779,
    "lng": -122.2695003
  },
  {
    "id": "140001309",
    "name": "EAST BAY ENDOSURGERY CENTER",
    "npi": "1992990592",
    "hcaiId": "306014186",
    "businessName": "THE OAKLAND CA ENDOSCOPY ASC, LP",
    "contactEmail": "SARAH.SEELY@AMSURG.COM",
    "categoryName": "SURGICAL CLINIC",
    "categoryCode": "ASC",
    "licenseStatus": "INACTIVE - CAPEN DECISION",
    "inService": false,
    "licenseNumber": "140000674",
    "licenseEffectiveDate": "11/13/2007",
    "licenseExpirationDate": "11/12/2008",
    "dataDate": "10/18/2025",
    "capacity": 0,
    "address": "300 FRANK H OGAWA PLAZA, SUITE 135",
    "city": "OAKLAND",
    "zip": "94612",
    "county": "ALAMEDA",
    "phone": "(510) 893-1600",
    "lat": 37.80576,
    "lng": -122.2710525
  },
  {
    "id": "630012573",
    "name": "EAST BAY SPECIAL SURGERY",
    "npi": null,
    "hcaiId": null,
    "businessName": null,
    "contactEmail": null,
    "categoryName": "SURGICAL CLINIC",
    "categoryCode": "ASC",
    "licenseStatus": null,
    "inService": null,
    "licenseNumber": null,
    "licenseEffectiveDate": null,
    "licenseExpirationDate": null,
    "dataDate": "10/18/2025",
    "capacity": 0,
    "address": "80 GRAND AVE, SUITE 100",
    "city": "OAKLAND",
    "zip": "94612",
    "county": "ALAMEDA",
    "phone": "(510) 587-0650",
    "lat": 37.81149146,
    "lng": -122.2655988
  },
  {
    "id": "070001157",
    "name": "HONG FOOK ADULT DAY HEALTH CARE",
    "npi": null,
    "hcaiId": null,
    "businessName": "FAMILY BRIDGES, INC.",
    "contactEmail": "HONGFOOK@FAMBRIDGES.ORG",
    "categoryName": "ADULT DAY HEALTH CARE",
    "categoryCode": "ADHC",
    "licenseStatus": "ACTIVE",
    "inService": true,
    "licenseNumber": "070000505",
    "licenseEffectiveDate": "05/01/2025",
    "licenseExpirationDate": "04/30/2026",
    "dataDate": "10/18/2025",
    "capacity": 0,
    "address": "275 14TH ST",
    "city": "OAKLAND",
    "zip": "94612",
    "county": "ALAMEDA",
    "phone": "(510) 839-9673",
    "lat": 37.80261586,
    "lng": -122.2670264
  },
  {
    "id": "070001289",
    "name": "HONG FOOK CENTER - HARRISON STREET",
    "npi": null,
    "hcaiId": null,
    "businessName": "FAMILY BRIDGES, INC.",
    "contactEmail": "HONGFOOK@FAMBRIDGES.ORG",
    "categoryName": "ADULT DAY HEALTH CARE",
    "categoryCode": "ADHC",
    "licenseStatus": "ACTIVE",
    "inService": true,
    "licenseNumber": "070000610",
    "licenseEffectiveDate": "05/08/2025",
    "licenseExpirationDate": "05/07/2026",
    "dataDate": "10/18/2025",
    "capacity": 0,
    "address": "1388 HARRISON ST",
    "city": "OAKLAND",
    "zip": "94612",
    "county": "ALAMEDA",
    "phone": "(510) 302-0460",
    "lat": 37.80277006,
    "lng": -122.2676183
  },
  {
    "id": "020000114",
    "name": "LAKE PARK HEALTHCARE CENTER",
    "npi": null,
    "hcaiId": "206010866",
    "businessName": "AOAS, LLC",
    "contactEmail": "ADAMB@ASPENHEALTH.COM",
    "categoryName": "SKILLED NURSING FACILITY",
    "categoryCode": "SNF",
    "licenseStatus": "ACTIVE",
    "inService": true,
    "licenseNumber": "020000057",
    "licenseEffectiveDate": "11/01/2025",
    "licenseExpirationDate": "10/31/2026",
    "dataDate": "10/18/2025",
    "capacity": 35,
    "address": "1850 ALICE STREET",
    "city": "OAKLAND",
    "zip": "94612",
    "county": "ALAMEDA",
    "phone": "(510) 589-2326",
    "lat": 37.805301,
    "lng": -122.263947
  },
  {
    "id": "630011322",
    "name": "LIFELONG MEDICAL CARE-DOWNTOWN OAKLAND CLINIC & SUPPORTIVE HOUSING PROGRAM",
    "npi": null,
    "hcaiId": "306014229",
    "businessName": "LIFELONG MEDICAL CARE",
    "contactEmail": "COMPLIANCE@LIFELONGMEDICAL.ORG",
    "categoryName": "PRIMARY CARE CLINIC",
    "categoryCode": "COMTYC",
    "licenseStatus": "ACTIVE",
    "inService": true,
    "licenseNumber": "550003292",
    "licenseEffectiveDate": "08/12/2025",
    "licenseExpirationDate": "11/07/2025",
    "dataDate": "10/18/2025",
    "capacity": 0,
    "address": "616 16TH STREET",
    "city": "OAKLAND",
    "zip": "94612",
    "county": "ALAMEDA",
    "phone": "(510) 451-4270",
    "lat": 37.80728212,
    "lng": -122.2743249
  },
  {
    "id": "630005142",
    "name": "LIFELONG MEDICAL CARE-SUPPORTIVE HOUSING PROGRAM",
    "npi": null,
    "hcaiId": null,
    "businessName": null,
    "contactEmail": null,
    "categoryName": "PRIMARY CARE CLINIC",
    "categoryCode": "FQHC",
    "licenseStatus": null,
    "inService": null,
    "licenseNumber": null,
    "licenseEffectiveDate": null,
    "licenseExpirationDate": null,
    "dataDate": "10/18/2025",
    "capacity": 0,
    "address": "616 16TH ST",
    "city": "OAKLAND",
    "zip": "94612",
    "county": "ALAMEDA",
    "phone": "(510) 457-4270",
    "lat": 37.80728212,
    "lng": -122.2743249
  },
  {
    "id": "630020726",
    "name": "LIFELONG OUR PLACE",
    "npi": "1407973043",
    "hcaiId": null,
    "businessName": "LIFELONG MEDICAL CARE",
    "contactEmail": null,
    "categoryName": "PRIMARY CARE CLINIC",
    "categoryCode": "COMTYC",
    "licenseStatus": "ACTIVE",
    "inService": true,
    "licenseNumber": "550000122",
    "licenseEffectiveDate": "03/07/2025",
    "licenseExpirationDate": "03/06/2026",
    "dataDate": "10/18/2025",
    "capacity": 0,
    "address": "2577 SAN PABLO AVE",
    "city": "OAKLAND",
    "zip": "94612",
    "county": "ALAMEDA",
    "phone": null,
    "lat": 37.817001,
    "lng": -122.27571
  },
  {
    "id": "630016219",
    "name": "LIFELONG TRUST HEALTH CENTER",
    "npi": "1976931295",
    "hcaiId": "306014359",
    "businessName": "LIFELONG MEDICAL CARE",
    "contactEmail": "COMPLIANCE@LIFELONGMEDICAL.ORG",
    "categoryName": "PRIMARY CARE CLINIC",
    "categoryCode": "COMTYC",
    "licenseStatus": "ACTIVE",
    "inService": true,
    "licenseNumber": "550003292",
    "licenseEffectiveDate": "08/12/2025",
    "licenseExpirationDate": "11/07/2025",
    "dataDate": "10/18/2025",
    "capacity": 0,
    "address": "386 14TH STREET",
    "city": "OAKLAND, CA",
    "zip": "94612",
    "county": "ALAMEDA",
    "phone": "(510) 210-5050",
    "lat": 37.803879,
    "lng": -122.2695
  },
  {
    "id": "140001168",
    "name": "NOVACARE OUTPATIENT REHABILITATION - OAKLAND",
    "npi": null,
    "hcaiId": null,
    "businessName": null,
    "contactEmail": null,
    "categoryName": "OTHER",
    "categoryCode": "UNLICEN",
    "licenseStatus": null,
    "inService": null,
    "licenseNumber": null,
    "licenseEffectiveDate": null,
    "licenseExpirationDate": null,
    "dataDate": "10/18/2025",
    "capacity": 0,
    "address": "1814 FRANKLIN ST, SUITE 905",
    "city": "OAKLAND",
    "zip": "94612",
    "county": "ALAMEDA",
    "phone": "(510) 893-7463",
    "lat": 37.806939,
    "lng": -122.2675875
  },
  {
    "id": "630011722",
    "name": "ORDER OF MALTA CLINIC OF NORTHERN CALIFORNIA",
    "npi": null,
    "hcaiId": "306014245",
    "businessName": "ORDER OF MALTA OAKLAND CLINIC, INC.",
    "contactEmail": "JHALLETT@WELL.COM",
    "categoryName": "PRIMARY CARE CLINIC",
    "categoryCode": "FREEC",
    "licenseStatus": "ACTIVE",
    "inService": true,
    "licenseNumber": "550000821",
    "licenseEffectiveDate": "12/15/2024",
    "licenseExpirationDate": "12/14/2025",
    "dataDate": "10/18/2025",
    "capacity": 0,
    "address": "2121 HARRISON ST, SUITE 120",
    "city": "OAKLAND",
    "zip": "94612",
    "county": "ALAMEDA",
    "phone": "(925) 285-5824",
    "lat": 37.81022175,
    "lng": -122.2627804
  },
  {
    "id": "140000800",
    "name": "RAI-2757 TELEGRAPH-PERALTA - OAKLAND",
    "npi": "1003980350",
    "hcaiId": "306014197",
    "businessName": "RAI CARE CENTERS OF NORTHERN CALIFORNIA II, LLC",
    "contactEmail": "VICTORIA.YARCIA@FRESENIUSMEDICALCARE.COM",
    "categoryName": "CHRONIC DIALYSIS CLINIC",
    "categoryCode": "ESRD/CDC",
    "licenseStatus": "ACTIVE",
    "inService": true,
    "licenseNumber": "140000395",
    "licenseEffectiveDate": "11/01/2024",
    "licenseExpirationDate": "10/31/2025",
    "dataDate": "10/18/2025",
    "capacity": 27,
    "address": "2757 TELEGRAPH AVENUE",
    "city": "OAKLAND",
    "zip": "94612",
    "county": "ALAMEDA",
    "phone": "(510) 835-0154",
    "lat": 37.816929,
    "lng": -122.268168
  },
  {
    "id": "630011855",
    "name": "RAI-OAKLAND HOME PROGRAM 1",
    "npi": "1619164712",
    "hcaiId": null,
    "businessName": null,
    "contactEmail": null,
    "categoryName": "CHRONIC DIALYSIS CLINIC",
    "categoryCode": "ESRD",
    "licenseStatus": null,
    "inService": null,
    "licenseNumber": null,
    "licenseEffectiveDate": null,
    "licenseExpirationDate": null,
    "dataDate": "10/18/2025",
    "capacity": 0,
    "address": "2710 TELEGRAPH AVE, SUITE 205",
    "city": "OAKLAND",
    "zip": "94612",
    "county": "ALAMEDA",
    "phone": "(510) 841-0411",
    "lat": 37.816488,
    "lng": -122.2673715
  },
  {
    "id": "140000264",
    "name": "RAI-TELEGRAPH-PIEDMONT",
    "npi": "1033283395",
    "hcaiId": "306014009",
    "businessName": "RAI CARE CENTERS OF NORTHERN CALIFORNIA II, LLC",
    "contactEmail": "LEGAL@FMC-NA.COM",
    "categoryName": "CHRONIC DIALYSIS CLINIC",
    "categoryCode": "ESRD/CDC",
    "licenseStatus": "ACTIVE",
    "inService": true,
    "licenseNumber": "140000239",
    "licenseEffectiveDate": "04/01/2025",
    "licenseExpirationDate": "03/31/2026",
    "dataDate": "10/18/2025",
    "capacity": 33,
    "address": "2710 TELEGRAPH AVENUE, SUITE 100",
    "city": "OAKLAND",
    "zip": "94612",
    "county": "ALAMEDA",
    "phone": "(510) 286-9948",
    "lat": 37.816416,
    "lng": -122.267475
  },
  {
    "id": "630022429",
    "name": "SURGERY CENTER OF OAKLAND",
    "npi": null,
    "hcaiId": null,
    "businessName": null,
    "contactEmail": null,
    "categoryName": "SURGICAL CLINIC",
    "categoryCode": "ASC",
    "licenseStatus": null,
    "inService": null,
    "licenseNumber": null,
    "licenseEffectiveDate": null,
    "licenseExpirationDate": null,
    "dataDate": "10/18/2025",
    "capacity": 0,
    "address": "80 GRAND AVE, SUITE M-1",
    "city": "OAKLAND",
    "zip": "94612",
    "county": "ALAMEDA",
    "phone": "(888) 282-7472",
    "lat": 37.81149146,
    "lng": -122.2655988
  }
]