[
  {
    "id": "140000188",
    "name": "KAISER FOUNDATION HOSPITAL - OAKLAND/RICHMOND",
    "npi": "1427123132",
    "hcaiId": "106014326",
    "businessName": "KAISER FOUNDATION HOSPITALS",
    "contactEmail": "EDMUND.D.CHAN@KP.ORG",
    "categoryName": "GENERAL ACUTE CARE HOSPITAL",
    "categoryCode": "GACH",
    "licenseStatus": "ACTIVE",
    "inService": true,
    "licenseNumber": "140000052",
    "licenseEffectiveDate": "02/19/2025",
    "licenseExpirationDate": "11/30/2025",
    "dataDate": "10/18/2025",
    "capacity": 315,
    "address": "275 WEST MACARTHUR BOULEVARD",
    "city": "OAKLAND",
    "zip": "94611",
    "county": "ALAMEDA",
    "phone": "(510) 752-1000",
    "lat": 37.82395945,
    "lng": -122.2578743
  },
  {
    "id": "020000714",
    "name": "KAISER FOUNDATION HOSPITAL HOME HEALTH - OAKLAND",
    "npi": "1790869568",
    "hcaiId": "406010790",
    "businessName": "KAISER FOUNDATION HOSPITALS",
    "contactEmail": "NENETTE.D.HOFFMAN@KP.ORG",
    "categoryName": "HOME HEALTH AGENCY",
    "categoryCode": "HHA",
    "licenseStatus": "ACTIVE",
    "inService": true,
    "licenseNumber": "020000349",
    "licenseEffectiveDate": "12/01/2024",
    "licenseExpirationDate": "11/30/2025",
    "dataDate": "10/18/2025",
    "capacity": 0,
    "address": "4501 BROADWAY",
    "city": "OAKLAND",
    "zip": "94611",
    "county": "ALAMEDA",
    "phone": "(510) 752-1371",
    "lat": 37.833606,
    "lng": -122.254119
  },
  {
    "id": "070001239",
    "name": "KAISER FOUNDATION HOSPITAL HOSPICE - OAKLAND",
    "npi": null,
    "hcaiId": "406014120",
    "businessName": "KAISER FOUNDATION HOSPITALS",
    "contactEmail": "ROXANNE.BELLESORTE@KP.ORG",
    "categoryName": "HOSPICE",
    "categoryCode": "HOSPICE",
    "licenseStatus": "ACTIVE",
    "inService": true,
    "licenseNumber": "070000573",
    "licenseEffectiveDate": "01/10/2025",
    "licenseExpirationDate": "01/09/2027",
    "dataDate": "10/18/2025",
    "capacity": 0,
    "address": "4501 BROADWAY, 1ST FLOOR",
    "city": "OAKLAND",
    "zip": "94611",
    "county": "ALAMEDA",
    "phone": "(510) 414-2929",
    "lat": 37.833606,
    "lng": -122.254119
  },
  {
    "id": "020000091",
    "name": "PIEDMONT GARDENS HEALTH FACILITY",
    "npi": "1437230943",
    "hcaiId": "206010920",
    "businessName": "HUMANGOOD NORCAL",
    "contactEmail": "DANIEL.WITTMAN@HUMANGOOD.ORG",
    "categoryName": "SKILLED NURSING FACILITY",
    "categoryCode": "SNF",
    "licenseStatus": "ACTIVE",
    "inService": true,
    "licenseNumber": "020000088",
    "licenseEffectiveDate": "11/01/2025",
    "licenseExpirationDate": "10/31/2026",
    "dataDate": "10/18/2025",
    "capacity": 94,
    "address": "110 41ST STREET",
    "city": "OAKLAND",
    "zip": "94611",
    "county": "ALAMEDA",
    "phone": "(510) 654-7172",
    "lat": 37.826289,
    "lng": -122.251014
  },
  {
    "id": "140001043",
    "name": "SIMON GIBSON",
    "npi": null,
    "hcaiId": null,
    "businessName": null,
    "contactEmail": null,
    "categoryName": "OTHER",
    "categoryCode": "UNLICEN",
    "licenseStatus": null,
    "inService": null,
    "licenseNumber": null,
    "licenseEffectiveDate": null,
    "licenseExpirationDate": null,
    "dataDate": "10/18/2025",
    "capacity": 0,
    "address": "2220 MOUNTAIN BLVD, SUITE 110",
    "city": "OAKLAND",
    "zip": "94611",
    "county": "ALAMEDA",
    "phone": "(510) 531-7313",
    "lat": 37.823481,
    "lng": -122.207562
  },
  {
    "id": "630010361",
    "name": "TECHNICLINIC",
    "npi": null,
    "hcaiId": "306014210",
    "businessName": "LA CLINICA DE LA RAZA, INC.",
    "contactEmail": "CSZETO@LACLINICA.ORG",
    "categoryName": "PRIMARY CARE CLINIC",
    "categoryCode": "COMTYC",
    "licenseStatus": "ACTIVE",
    "inService": true,
    "licenseNumber": "550001178",
    "licenseEffectiveDate": "11/12/2025",
    "licenseExpirationDate": "11/11/2026",
    "dataDate": "10/18/2025",
    "capacity": 0,
    "address": "4351 BROADWAY",
    "city": "OAKLAND",
    "zip": "94611",
    "county": "ALAMEDA",
    "phone": "(510) 535-4000",
    "lat": 37.832274,
    "lng": -122.2546185
  },
  {
    "id": "020000274",
    "name": "THE REHABILITATION CENTER OF OAKLAND",
    "npi": "1386966588",
    "hcaiId": "206010990",
    "businessName": "THE REHABILITATION CENTER OF OAKLAND LLC",
    "contactEmail": "ADMINISTRATOR@OAKLANDREHABCENTER.COM",
    "categoryName": "SKILLED NURSING FACILITY",
    "categoryCode": "SNF",
    "licenseStatus": "ACTIVE",
    "inService": true,
    "licenseNumber": "020000269",
    "licenseEffectiveDate": "11/13/2024",
    "licenseExpirationDate": "11/12/2025",
    "dataDate": "10/18/2025",
    "capacity": 70,
    "address": "210 40TH STREET WAY",
    "city": "OAKLAND",
    "zip": "94611",
    "county": "ALAMEDA",
    "phone": "(510) 658-2041",
    "lat": 37.82695537,
    "lng": -122.2549127
  }
]