[
  {
    "id": "630017524",
    "name": "ACCENTCARE HOSPICE & PALLIATIVE CARE OF CALIFORNIA - OAKLAND",
    "npi": "1548812852",
    "hcaiId": "406011532",
    "businessName": "SEASONS HOSPICE & PALLIATIVE CARE OF CALIFORNIA -OAKLAND, LLC",
    "contactEmail": "SAMANTHAKHELAWAN@ACCENTCARE.COM",
    "categoryName": "HOSPICE",
    "categoryCode": "HOSPICE",
    "licenseStatus": "ACTIVE",
    "inService": true,
    "licenseNumber": "550004462",
    "licenseEffectiveDate": "12/13/2024",
    "licenseExpirationDate": "12/12/2026",
    "dataDate": "10/18/2025",
    "capacity": 0,
    "address": "7677 OAKPORT ST, SUITE 500",
    "city": "OAKLAND",
    "zip": "94621",
    "county": "ALAMEDA",
    "phone": "(510) 905-1105",
    "lat": 37.746927,
    "lng": -122.2034265
  },
  {
    "id": "630017041",
    "name": "AIDS PROJECT OF THE EAST BAY",
    "npi": null,
    "hcaiId": "306014383",
    "businessName": "AIDS PROJECT OF THE EAST BAY",
    "contactEmail": "GJACKSON@APEB.ORG",
    "categoryName": "PRIMARY CARE CLINIC",
    "categoryCode": "COMTYC",
    "licenseStatus": "ACTIVE",
    "inService": true,
    "licenseNumber": "550003848",
    "licenseEffectiveDate": "05/04/2024",
    "licenseExpirationDate": "05/03/2025",
    "dataDate": "10/18/2025",
    "capacity": 0,
    "address": "8400 ENTERPRISE WAY, SUITE 120",
    "city": "OAKLAND",
    "zip": "94621",
    "county": "ALAMEDA",
    "phone": "(510) 663-7979",
    "lat": 37.74429,
    "lng": -122.1946785
  },
  {
    "id": "630012742",
    "name": "AVEANNA HEALTHCARE",
    "npi": "1396064093",
    "hcaiId": "406014281",
    "businessName": "PREMIER HEALTHCARE SERVICES, LLC",
    "contactEmail": "CREENTIALING@AVEANNA.COM",
    "categoryName": "HOME HEALTH AGENCY",
    "categoryCode": "HHA",
    "licenseStatus": "ACTIVE",
    "inService": true,
    "licenseNumber": "550001472",
    "licenseEffectiveDate": "01/28/2025",
    "licenseExpirationDate": "01/27/2026",
    "dataDate": "10/18/2025",
    "capacity": 0,
    "address": "333 HEGENBERGER RD, SUITE 201",
    "city": "OAKLAND",
    "zip": "94621",
    "county": "ALAMEDA",
    "phone": "(510) 568-2201",
    "lat": 37.735722,
    "lng": -122.1983865
  },
  {
    "id": "020000830",
    "name": "COMMUNITY CARE SERVICES, INC.",
    "npi": null,
    "hcaiId": "406014063",
    "businessName": "THEODORA J. MARZOUK/COMMUNITY CARE SERVICES, INC.",
    "contactEmail": "TMARZOUK@AOL.COM",
    "categoryName": "HOME HEALTH AGENCY",
    "categoryCode": "HHA",
    "licenseStatus": "ACTIVE",
    "inService": true,
    "licenseNumber": "020000416",
    "licenseEffectiveDate": "11/01/2025",
    "licenseExpirationDate": "10/31/2026",
    "dataDate": "10/18/2025",
    "capacity": 0,
    "address": "8105 EDGEWATER DR, SUITE 200",
    "city": "OAKLAND",
    "zip": "94621",
    "county": "ALAMEDA",
    "phone": "(510) 923-9790",
    "lat": 37.739142,
    "lng": -122.2015815
  },
  {
    "id": "630013356",
    "name": "CROSSROADS HOME HEALTH & HOSPICE",
    "npi": "1205988854",
    "hcaiId": "406014310",
    "businessName": "OWEN HEALTHCARE, LLC",
    "contactEmail": null,
    "categoryName": "HOME HEALTH AGENCY",
    "categoryCode": "HHA",
    "licenseStatus": "ACTIVE",
    "inService": true,
    "licenseNumber": "220000345",
    "licenseEffectiveDate": "02/27/2025",
    "licenseExpirationDate": "10/08/2025",
    "dataDate": "10/18/2025",
    "capacity": 0,
    "address": "333 HEGENBERGER RD, SUITE 710",
    "city": "OAKLAND",
    "zip": "94621",
    "county": "ALAMEDA",
    "phone": "(510) 638-8033",
    "lat": 37.73573315,
    "lng": -122.1983719
  },
  {
    "id": "630013443",
    "name": "CROSSROADS HOME HEALTH & HOSPICE",
    "npi": "1205988854",
    "hcaiId": "406014283",
    "businessName": "OWEN HEALTHCARE, LLC",
    "contactEmail": "DNELSON@CROSSROADSHH.COM",
    "categoryName": "HOSPICE",
    "categoryCode": "HOSPICE",
    "licenseStatus": "ACTIVE",
    "inService": true,
    "licenseNumber": "070000588",
    "licenseEffectiveDate": "03/02/2024",
    "licenseExpirationDate": "03/01/2026",
    "dataDate": "10/18/2025",
    "capacity": 0,
    "address": "7700 EDGEWATER DR, SUITE 225",
    "city": "OAKLAND",
    "zip": "94621",
    "county": "ALAMEDA",
    "phone": "(415) 682-2111",
    "lat": 37.744047,
    "lng": -122.2033275
  },
  {
    "id": "140000222",
    "name": "EAST OAKLAND HEALTH CENTER",
    "npi": null,
    "hcaiId": "306010802",
    "businessName": "THE WEST OAKLAND HEALTH COUNCIL",
    "contactEmail": "ROBERTP@WOHC.ORG",
    "categoryName": "PRIMARY CARE CLINIC",
    "categoryCode": "COMTYC",
    "licenseStatus": "ACTIVE",
    "inService": true,
    "licenseNumber": "140000028",
    "licenseEffectiveDate": "11/19/2024",
    "licenseExpirationDate": "11/18/2025",
    "dataDate": "10/18/2025",
    "capacity": 0,
    "address": "7450 INTERNATIONAL BOULEVARD",
    "city": "OAKLAND",
    "zip": "94621",
    "county": "ALAMEDA",
    "phone": "(510) 835-9610",
    "lat": 37.75855924,
    "lng": -122.1855825
  },
  {
    "id": "630014491",
    "name": "HAVENSCOURT HEALTH CENTER",
    "npi": "1245671726",
    "hcaiId": "306014325",
    "businessName": "LA CLINICA DE LA RAZA, INC.",
    "contactEmail": "CSZETO@LACLINICA.ORG",
    "categoryName": "PRIMARY CARE CLINIC",
    "categoryCode": "COMTYC",
    "licenseStatus": "ACTIVE",
    "inService": true,
    "licenseNumber": "550001178",
    "licenseEffectiveDate": "11/12/2025",
    "licenseExpirationDate": "11/11/2026",
    "dataDate": "10/18/2025",
    "capacity": 0,
    "address": "1390 66TH AVE",
    "city": "OAKLAND",
    "zip": "94621",
    "county": "ALAMEDA",
    "phone": "(510) 535-2906",
    "lat": 37.76200471,
    "lng": -122.1932897
  },
  {
    "id": "630014034",
    "name": "HEALTHFLEX HOME HEALTH SERVICES",
    "npi": "1326399296",
    "hcaiId": "406014320",
    "businessName": "HEALTHFLEX HOME HEALTH SERVICES",
    "contactEmail": "IRENE@HEALTHFLEX.COM",
    "categoryName": "HOME HEALTH AGENCY",
    "categoryCode": "HHA",
    "licenseStatus": "ACTIVE",
    "inService": true,
    "licenseNumber": "550002283",
    "licenseEffectiveDate": "05/29/2025",
    "licenseExpirationDate": "05/28/2026",
    "dataDate": "10/18/2025",
    "capacity": 0,
    "address": "7677 OAKPORT ST, SUITE 930",
    "city": "OAKLAND",
    "zip": "94621",
    "county": "ALAMEDA",
    "phone": "(510) 553-1900",
    "lat": 37.746747,
    "lng": -122.2035435
  },
  {
    "id": "630017207",
    "name": "HEALTHFLEX HOSPICE",
    "npi": "1295277192",
    "hcaiId": "406015550",
    "businessName": "HEALTHFLEX HOSPICE",
    "contactEmail": "JALAL@HEALTHFLEX.COM",
    "categoryName": "HOSPICE",
    "categoryCode": "HOSPICE",
    "licenseStatus": "ACTIVE",
    "inService": true,
    "licenseNumber": "550004601",
    "licenseEffectiveDate": "03/21/2025",
    "licenseExpirationDate": "03/20/2027",
    "dataDate": "10/18/2025",
    "capacity": 0,
    "address": "7677 OAKPORT ST, SUITE 920",
    "city": "OAKLAND",
    "zip": "94621",
    "county": "ALAMEDA",
    "phone": "(510) 553-1900",
    "lat": 37.746747,
    "lng": -122.2035435
  },
  {
    "id": "070001231",
    "name": "PATHWAYS HOME HEALTH AND HOSPICE",
    "npi": null,
    "hcaiId": "406014235",
    "businessName": "PATHWAYS HOME HEALTH AND HOSPICE",
    "contactEmail": "MARYPAT.LARSEN@COMMONSPIRIT.ORG",
    "categoryName": "HOSPICE",
    "categoryCode": "HOSPICE",
    "licenseStatus": "ACTIVE",
    "inService": true,
    "licenseNumber": "070000565",
    "licenseEffectiveDate": "04/23/2025",
    "licenseExpirationDate": "04/22/2027",
    "dataDate": "10/18/2025",
    "capacity": 0,
    "address": "333 HEGENBERGER ROAD, SUITE 700",
    "city": "OAKLAND",
    "zip": "94621",
    "county": "ALAMEDA",
    "phone": "(408) 773-4367",
    "lat": 37.735722,
    "lng": -122.1983865
  },
  {
    "id": "630015957",
    "name": "PLANNED PARENTHOOD MAR MONTE - COLISEUM HEALTH CENTER",
    "npi": "1225426588",
    "hcaiId": "306014353",
    "businessName": "PLANNED PARENTHOOD MAR MONTE, INC.",
    "contactEmail": "SERVICESAD@PPMARMONTE.ORG",
    "categoryName": "PRIMARY CARE CLINIC",
    "categoryCode": "COMTYC",
    "licenseStatus": "ACTIVE",
    "inService": true,
    "licenseNumber": "550003074",
    "licenseEffectiveDate": "05/17/2024",
    "licenseExpirationDate": "05/16/2025",
    "dataDate": "10/18/2025",
    "capacity": 0,
    "address": "8480 ENTERPRISE WAY",
    "city": "OAKLAND",
    "zip": "94621",
    "county": "ALAMEDA",
    "phone": "(408) 799-6574",
    "lat": 37.742283,
    "lng": -122.1923745
  },
  {
    "id": "020000054",
    "name": "PRINCETON MANOR HEALTHCARE CENTER, LLC",
    "npi": "1891146593",
    "hcaiId": "206010995",
    "businessName": "PRINCETON MANOR HEALTHCARE CENTER, LLC",
    "contactEmail": "ADMINISTRATOR@PRINCETONMANORHC.COM",
    "categoryName": "SKILLED NURSING FACILITY",
    "categoryCode": "SNF",
    "licenseStatus": "ACTIVE",
    "inService": true,
    "licenseNumber": "020000123",
    "licenseEffectiveDate": "10/16/2025",
    "licenseExpirationDate": "10/15/2026",
    "dataDate": "10/18/2025",
    "capacity": 82,
    "address": "2124 57TH AVENUE",
    "city": "OAKLAND",
    "zip": "94621",
    "county": "ALAMEDA",
    "phone": "(510) 261-2628",
    "lat": 37.76996856,
    "lng": -122.1960052
  },
  {
    "id": "140001141",
    "name": "RAI - BANCROFT AVE - OAKLAND",
    "npi": "1043384324",
    "hcaiId": "306010634",
    "businessName": "RAI CARE CENTERS OF NORTHERN CALIFORNIA II, LLC",
    "contactEmail": "CLINIC7166@FMC-NA.COM",
    "categoryName": "CHRONIC DIALYSIS CLINIC",
    "categoryCode": "ESRD/CDC",
    "licenseStatus": "ACTIVE",
    "inService": true,
    "licenseNumber": "140000566",
    "licenseEffectiveDate": "04/01/2025",
    "licenseExpirationDate": "03/31/2026",
    "dataDate": "10/18/2025",
    "capacity": 26,
    "address": "610 HEGENBERGER RD, SUITE 101B",
    "city": "OAKLAND",
    "zip": "94621",
    "county": "ALAMEDA",
    "phone": "(510) 553-1333",
    "lat": 37.746216,
    "lng": -122.194926
  },
  {
    "id": "140000899",
    "name": "RAI-EAST 14TH ST.-SAN LEANDRO",
    "npi": "1336213594",
    "hcaiId": "306014083",
    "businessName": "RAI CARE CENTERS OF NORTHERN CALIFORNIA II, LLC",
    "contactEmail": "CINIC7167@FMC-NA.COM",
    "categoryName": "CHRONIC DIALYSIS CLINIC",
    "categoryCode": "ESRD/CDC",
    "licenseStatus": "ACTIVE",
    "inService": true,
    "licenseNumber": "140000451",
    "licenseEffectiveDate": "11/01/2024",
    "licenseExpirationDate": "10/31/2025",
    "dataDate": "10/18/2025",
    "capacity": 24,
    "address": "610 HEGENBERGER RD, SUITE 101A",
    "city": "OAKLAND",
    "zip": "94621",
    "county": "ALAMEDA",
    "phone": "(510) 430-8311",
    "lat": 37.746216,
    "lng": -122.194926
  }
]