[
  {
    "id": "140000271",
    "name": "ABSMC - HERRICK CAMPUS D/P APH",
    "npi": "1639523004",
    "hcaiId": null,
    "businessName": "SUTTER BAY HOSPITALS",
    "contactEmail": null,
    "categoryName": "ACUTE PSYCHIATRIC HOSPITAL",
    "categoryCode": "APH",
    "licenseStatus": "ACTIVE",
    "inService": true,
    "licenseNumber": "140000004",
    "licenseEffectiveDate": "11/01/2025",
    "licenseExpirationDate": "10/31/2026",
    "dataDate": "10/18/2025",
    "capacity": 64,
    "address": "2001 DWIGHT WAY",
    "city": "BERKELEY",
    "zip": "94704",
    "county": "ALAMEDA",
    "phone": "(650) 549-4430",
    "lat": 37.864233,
    "lng": -122.268978
  },
  {
    "id": "140000006",
    "name": "ALTA BATES SUMMIT MEDICAL CENTER-HERRICK CAMPUS",
    "npi": "1639523004",
    "hcaiId": "106010844",
    "businessName": "SUTTER BAY HOSPITALS",
    "contactEmail": "COLINH@SUTTERHEALTH.ORG",
    "categoryName": "GENERAL ACUTE CARE HOSPITAL",
    "categoryCode": "GACH",
    "licenseStatus": "ACTIVE",
    "inService": true,
    "licenseNumber": "140000004",
    "licenseEffectiveDate": "11/01/2025",
    "licenseExpirationDate": "10/31/2026",
    "dataDate": "10/18/2025",
    "capacity": 0,
    "address": "2001 DWIGHT WAY",
    "city": "BERKELEY",
    "zip": "94704",
    "county": "ALAMEDA",
    "phone": "(510) 204-4444",
    "lat": 37.864233,
    "lng": -122.268978
  },
  {
    "id": "070001164",
    "name": "ALZHEIMER'S SERVICES OF THE EAST BAY - BERKELEY",
    "npi": null,
    "hcaiId": null,
    "businessName": "ALZHEIMER'S SERVICES OF THE EAST BAY, INCORPORATED",
    "contactEmail": "MICHEAL@ASEB.ORG",
    "categoryName": "ADULT DAY HEALTH CARE",
    "categoryCode": "ADHC",
    "licenseStatus": "ACTIVE",
    "inService": true,
    "licenseNumber": "070000512",
    "licenseEffectiveDate": "02/22/2023",
    "licenseExpirationDate": "02/21/2024",
    "dataDate": "10/18/2025",
    "capacity": 0,
    "address": "2320 CHANNING WAY",
    "city": "BERKELEY",
    "zip": "94704",
    "county": "ALAMEDA",
    "phone": "(510) 644-8292",
    "lat": 37.866204,
    "lng": -122.262174
  },
  {
    "id": "140000266",
    "name": "BERKELEY COMMUNITY HEALTH PROJECT",
    "npi": null,
    "hcaiId": "306012807",
    "businessName": "BERKELEY COMMUNITY HEALTH PROJECT",
    "contactEmail": "ACCOUNTING@BERKELEYFREECLINIC.ORG",
    "categoryName": "PRIMARY CARE CLINIC",
    "categoryCode": "FREEC",
    "licenseStatus": "ACTIVE",
    "inService": true,
    "licenseNumber": "140000160",
    "licenseEffectiveDate": "11/18/2024",
    "licenseExpirationDate": "11/17/2025",
    "dataDate": "10/18/2025",
    "capacity": 0,
    "address": "2339 DURANT AVE",
    "city": "BERKELEY",
    "zip": "94704",
    "county": "ALAMEDA",
    "phone": "(510) 761-7506",
    "lat": 37.867734,
    "lng": -122.261787
  },
  {
    "id": "140000511",
    "name": "BERKELEY MENTAL HEALTH SERVICES",
    "npi": null,
    "hcaiId": null,
    "businessName": null,
    "contactEmail": null,
    "categoryName": "OTHER",
    "categoryCode": "UNLICEN",
    "licenseStatus": null,
    "inService": null,
    "licenseNumber": null,
    "licenseEffectiveDate": null,
    "licenseExpirationDate": null,
    "dataDate": "10/18/2025",
    "capacity": 0,
    "address": "2640 MARTIN LUTHER KING JR WAY",
    "city": "BERKELEY",
    "zip": "94704",
    "county": "ALAMEDA",
    "phone": "(510) 981-5290",
    "lat": 37.859949,
    "lng": -122.272083
  },
  {
    "id": "140000512",
    "name": "BERKELEY MENTAL HEALTH SERVICES-COURT PROGRAM",
    "npi": null,
    "hcaiId": null,
    "businessName": null,
    "contactEmail": null,
    "categoryName": "OTHER",
    "categoryCode": "UNLICEN",
    "licenseStatus": null,
    "inService": null,
    "licenseNumber": null,
    "licenseEffectiveDate": null,
    "licenseExpirationDate": null,
    "dataDate": "10/18/2025",
    "capacity": 0,
    "address": "2640 MARTIN LUTHER KING JR WAY",
    "city": "BERKELEY",
    "zip": "94704",
    "county": "ALAMEDA",
    "phone": "(510) 981-5290",
    "lat": 37.859949,
    "lng": -122.272083
  },
  {
    "id": "140000754",
    "name": "BERKELEY PRIMARY CARE ACCESS CLINIC, INC.",
    "npi": null,
    "hcaiId": "306014044",
    "businessName": "LIFELONG MEDICAL CARE",
    "contactEmail": "COMPLIANCE@LIFELONGMEDICAL.ORG",
    "categoryName": "PRIMARY CARE CLINIC",
    "categoryCode": "COMTYC",
    "licenseStatus": "ACTIVE",
    "inService": true,
    "licenseNumber": "140000372",
    "licenseEffectiveDate": "11/01/2025",
    "licenseExpirationDate": "10/31/2026",
    "dataDate": "10/18/2025",
    "capacity": 0,
    "address": "2001 DWIGHT WAY, FLOOR 1",
    "city": "BERKELEY",
    "zip": "94704",
    "county": "ALAMEDA",
    "phone": "(510) 981-3213",
    "lat": 37.864233,
    "lng": -122.268978
  },
  {
    "id": "140001026",
    "name": "JANET YAMADA-SOTO",
    "npi": null,
    "hcaiId": null,
    "businessName": null,
    "contactEmail": null,
    "categoryName": "OTHER",
    "categoryCode": "UNLICEN",
    "licenseStatus": null,
    "inService": null,
    "licenseNumber": null,
    "licenseEffectiveDate": null,
    "licenseExpirationDate": null,
    "dataDate": "10/18/2025",
    "capacity": 0,
    "address": "2041 BANCROFT WAY, SUITE 301",
    "city": "BERKELEY",
    "zip": "94704",
    "county": "ALAMEDA",
    "phone": "(510) 549-2225",
    "lat": 37.86753309,
    "lng": -122.268732
  },
  {
    "id": "020000112",
    "name": "KYAKAMEENA CARE CENTER",
    "npi": "1912072554",
    "hcaiId": "206010863",
    "businessName": "SANHYD, INC.",
    "contactEmail": "SEYNA.SMITH@KYAKAMEENAHC.NET",
    "categoryName": "SKILLED NURSING FACILITY",
    "categoryCode": "SNF",
    "licenseStatus": "ACTIVE",
    "inService": true,
    "licenseNumber": "020000055",
    "licenseEffectiveDate": "03/02/2025",
    "licenseExpirationDate": "03/01/2026",
    "dataDate": "10/18/2025",
    "capacity": 60,
    "address": "2131 CARLETON STREET",
    "city": "BERKELEY",
    "zip": "94704",
    "county": "ALAMEDA",
    "phone": null,
    "lat": 37.861713,
    "lng": -122.2652025
  }
]