[
  {
    "id": "020001258",
    "name": "BUILD HOME",
    "npi": null,
    "hcaiId": null,
    "businessName": "BERKELEY YOUTH LIVING WITH DISABILITIES",
    "contactEmail": "RROBINSON.BUILD@GMAIL.COM",
    "categoryName": "INTERMEDIATE CARE FACILITY-DD/H/N/CN/IID",
    "categoryCode": "ICFDDH",
    "licenseStatus": "ACTIVE",
    "inService": true,
    "licenseNumber": "020000638",
    "licenseEffectiveDate": "11/07/2024",
    "licenseExpirationDate": "11/06/2025",
    "dataDate": "10/18/2025",
    "capacity": 6,
    "address": "2110 7TH STREET",
    "city": "BERKELEY",
    "zip": "94710",
    "county": "ALAMEDA",
    "phone": "(510) 845-2744",
    "lat": 37.866447,
    "lng": -122.2963785
  },
  {
    "id": "630027617",
    "name": "LIFELONG ROSA PARKS COLLABORATIVE AT ROSA PARKS ELEMENTARY SCHOOL",
    "npi": "1976931295",
    "hcaiId": null,
    "businessName": "LIFELONG MEDICAL CARE",
    "contactEmail": "MLOVERDE@LIFELONGMEDICAL.ORG",
    "categoryName": "PRIMARY CARE CLINIC",
    "categoryCode": "COMTYC",
    "licenseStatus": "ACTIVE",
    "inService": true,
    "licenseNumber": "550003292",
    "licenseEffectiveDate": "08/12/2025",
    "licenseExpirationDate": "11/07/2025",
    "dataDate": "10/18/2025",
    "capacity": 0,
    "address": "920 ALLSTON WAY",
    "city": "BERKELEY",
    "zip": "94710",
    "county": "ALAMEDA",
    "phone": "(510) 549-5436",
    "lat": 37.86547701,
    "lng": -122.294108
  },
  {
    "id": "140001003",
    "name": "WEST BERKELEY FAMILY PRACTICE",
    "npi": null,
    "hcaiId": "306014113",
    "businessName": "LIFELONG MEDICAL CARE",
    "contactEmail": "COMPLIANCE@LIFELONGMEDICAL.ORG",
    "categoryName": "PRIMARY CARE CLINIC",
    "categoryCode": "COMTYC",
    "licenseStatus": "ACTIVE",
    "inService": true,
    "licenseNumber": "550003292",
    "licenseEffectiveDate": "08/12/2025",
    "licenseExpirationDate": "11/07/2025",
    "dataDate": "10/18/2025",
    "capacity": 0,
    "address": "2031 6TH STREET",
    "city": "BERKELEY",
    "zip": "94710",
    "county": "ALAMEDA",
    "phone": "(510) 981-3213",
    "lat": 37.867149,
    "lng": -122.2971345
  }
]