[
  {
    "id": "630015112",
    "name": "EL SOBRANTE DIALYSIS",
    "npi": "1124443791",
    "hcaiId": "306074182",
    "businessName": "CHERAW DIALYSIS LLC",
    "contactEmail": "CAL_C@DAVITA.COM",
    "categoryName": "CHRONIC DIALYSIS CLINIC",
    "categoryCode": "ESRD/CDC",
    "licenseStatus": "ACTIVE",
    "inService": true,
    "licenseNumber": "550003151",
    "licenseEffectiveDate": "07/08/2025",
    "licenseExpirationDate": "07/07/2026",
    "dataDate": "10/18/2025",
    "capacity": 20,
    "address": "3380 SAN PABLO DAM ROAD, SUITE C-D",
    "city": "SAN PABLO",
    "zip": "94803",
    "county": "CONTRA COSTA",
    "phone": "(510) 262-9230",
    "lat": 37.96289082,
    "lng": -122.3247114
  },
  {
    "id": "140000038",
    "name": "GREENRIDGE POST-ACUTE",
    "npi": "1730221268",
    "hcaiId": "206070958",
    "businessName": "ARPD, LLC",
    "contactEmail": "PATRICKB@ASPENHEALTH.COM",
    "categoryName": "SKILLED NURSING FACILITY",
    "categoryCode": "SNF",
    "licenseStatus": "ACTIVE",
    "inService": true,
    "licenseNumber": "140000102",
    "licenseEffectiveDate": "05/17/2025",
    "licenseExpirationDate": "05/16/2026",
    "dataDate": "10/18/2025",
    "capacity": 60,
    "address": "2150 PYRAMID DRIVE",
    "city": "EL SOBRANTE",
    "zip": "94803",
    "county": "CONTRA COSTA",
    "phone": "(510) 758-9600",
    "lat": 37.960011,
    "lng": -122.2988175
  },
  {
    "id": "630024855",
    "name": "NATIONAL HOME HEALTH SERVICES, INC.- EL SOBRANTE",
    "npi": null,
    "hcaiId": "406075547",
    "businessName": "NATIONAL HOME HEALTH SERVICES, INC.",
    "contactEmail": null,
    "categoryName": "HOME HEALTH AGENCY",
    "categoryCode": "HHA",
    "licenseStatus": "ACTIVE",
    "inService": true,
    "licenseNumber": "550001137",
    "licenseEffectiveDate": "11/17/2025",
    "licenseExpirationDate": "11/16/2026",
    "dataDate": "10/18/2025",
    "capacity": 0,
    "address": "3575 SAN PABLO DAM RD, UNIT 3",
    "city": "EL SOBRANTE",
    "zip": "94803",
    "county": "CONTRA COSTA",
    "phone": null,
    "lat": 37.964385,
    "lng": -122.318739
  },
  {
    "id": "630019203",
    "name": "SUNSHINE HOSPICE AND PALLIATIVE CARE",
    "npi": null,
    "hcaiId": "406073327",
    "businessName": "SUNSHINE HOSPICE AND PALLIATIVE CARE",
    "contactEmail": "SUNSHINEHOSPICEPCARE@GMAIL.COM",
    "categoryName": "HOSPICE",
    "categoryCode": "HOSPICE",
    "licenseStatus": "ACTIVE",
    "inService": true,
    "licenseNumber": "550006967",
    "licenseEffectiveDate": "10/11/2025",
    "licenseExpirationDate": "10/10/2027",
    "dataDate": "10/18/2025",
    "capacity": 0,
    "address": "3575 SAN PABLO DAM RD, SUITE 1",
    "city": "EL SOBRANTE",
    "zip": "94803",
    "county": "CONTRA COSTA",
    "phone": "(510) 938-0974",
    "lat": 37.964385,
    "lng": -122.318739
  },
  {
    "id": "630027986",
    "name": "SUPRA CARES HOME HEALTH",
    "npi": null,
    "hcaiId": null,
    "businessName": "SUPRA CARES INC",
    "contactEmail": "CARES.SUPRA@GMAIL.COM",
    "categoryName": "HOME HEALTH AGENCY",
    "categoryCode": "HHA",
    "licenseStatus": "ACTIVE",
    "inService": true,
    "licenseNumber": "550009996",
    "licenseEffectiveDate": "10/04/2025",
    "licenseExpirationDate": "04/03/2026",
    "dataDate": "10/18/2025",
    "capacity": 0,
    "address": "3980 SAN PABLO DAM RD, SUITE 101",
    "city": "EL SOBRANTE",
    "zip": "94803",
    "county": "CONTRA COSTA",
    "phone": "(510) 775-5670",
    "lat": 37.96527199,
    "lng": -122.31172
  }
]