[
  {
    "id": "630019954",
    "name": "ALVARADO PARK HOME TRAINING",
    "npi": null,
    "hcaiId": null,
    "businessName": null,
    "contactEmail": "ROBERT.HAERR@DAVITA.COM",
    "categoryName": "CHRONIC DIALYSIS CLINIC",
    "categoryCode": "ESRD",
    "licenseStatus": null,
    "inService": null,
    "licenseNumber": null,
    "licenseEffectiveDate": null,
    "licenseExpirationDate": null,
    "dataDate": "10/18/2025",
    "capacity": 0,
    "address": "2415 SAN PABLO DAM RD, SUITE 504",
    "city": "SAN PABLO",
    "zip": "94806",
    "county": "CONTRA COSTA",
    "phone": "(510) 233-2991",
    "lat": 37.95437145,
    "lng": -122.3314812
  },
  {
    "id": "630011687",
    "name": "BAYSPINE SURGERY CENTER",
    "npi": "1013116748",
    "hcaiId": null,
    "businessName": null,
    "contactEmail": null,
    "categoryName": "SURGICAL CLINIC",
    "categoryCode": "ASC",
    "licenseStatus": null,
    "inService": null,
    "licenseNumber": null,
    "licenseEffectiveDate": null,
    "licenseExpirationDate": null,
    "dataDate": "10/18/2025",
    "capacity": 0,
    "address": "3065 RICHMOND PKWY, SUITE 100",
    "city": "SAN PABLO",
    "zip": "94806",
    "county": "CONTRA COSTA",
    "phone": "(510) 243-1600",
    "lat": 37.99008167,
    "lng": -122.3294015
  },
  {
    "id": "140000449",
    "name": "CHARLES CHAPMAN",
    "npi": null,
    "hcaiId": null,
    "businessName": null,
    "contactEmail": null,
    "categoryName": "OTHER",
    "categoryCode": "UNLICEN",
    "licenseStatus": null,
    "inService": null,
    "licenseNumber": null,
    "licenseEffectiveDate": null,
    "licenseExpirationDate": null,
    "dataDate": "10/18/2025",
    "capacity": 0,
    "address": "2101 VALE RD # 210",
    "city": "SAN PABLO",
    "zip": "94806",
    "county": "CONTRA COSTA",
    "phone": "(510) 236-7226",
    "lat": 37.954548,
    "lng": -122.337648
  },
  {
    "id": "140000138",
    "name": "CREEKSIDE HEALTHCARE CENTER",
    "npi": "1306269386",
    "hcaiId": "206070932",
    "businessName": "CREEKSIDE OPERATING COMPANY, LP",
    "contactEmail": "JCROTICH@MARINERHEALTHCARE.COM",
    "categoryName": "SKILLED NURSING FACILITY",
    "categoryCode": "SNF",
    "licenseStatus": "ACTIVE",
    "inService": true,
    "licenseNumber": "140000547",
    "licenseEffectiveDate": "01/01/2025",
    "licenseExpirationDate": "12/31/2025",
    "dataDate": "10/18/2025",
    "capacity": 80,
    "address": "1900 CHURCH LANE",
    "city": "SAN PABLO",
    "zip": "94806",
    "county": "CONTRA COSTA",
    "phone": "(510) 235-5514",
    "lat": 37.956699,
    "lng": -122.3405865
  },
  {
    "id": "140000487",
    "name": "GURDEV SINGH",
    "npi": null,
    "hcaiId": null,
    "businessName": null,
    "contactEmail": null,
    "categoryName": "OTHER",
    "categoryCode": "UNLICEN",
    "licenseStatus": null,
    "inService": null,
    "licenseNumber": null,
    "licenseEffectiveDate": null,
    "licenseExpirationDate": null,
    "dataDate": "10/18/2025",
    "capacity": 0,
    "address": "2970 HILLTOP MALL RD",
    "city": "SAN PABLO",
    "zip": "94806",
    "county": "CONTRA COSTA",
    "phone": "(510) 222-8080",
    "lat": 37.97757,
    "lng": -122.3292465
  },
  {
    "id": "140001094",
    "name": "LIFELONG BROOKSIDE COMMUNITY HEALTH CENTER-SAN PABLO",
    "npi": "1487696191",
    "hcaiId": "306074080",
    "businessName": "LIFELONG MEDICAL CARE",
    "contactEmail": "COMPLIANCE@LIFELONGMEDICAL.ORG",
    "categoryName": "PRIMARY CARE CLINIC",
    "categoryCode": "COMTYC",
    "licenseStatus": "ACTIVE",
    "inService": true,
    "licenseNumber": "140000542",
    "licenseEffectiveDate": "03/07/2025",
    "licenseExpirationDate": "03/06/2026",
    "dataDate": "10/18/2025",
    "capacity": 0,
    "address": "2023 VALE ROAD, SUITE 107",
    "city": "SAN PABLO",
    "zip": "94806",
    "county": "CONTRA COSTA",
    "phone": "(510) 215-9092",
    "lat": 37.95363,
    "lng": -122.338602
  },
  {
    "id": "630027594",
    "name": "LIFELONG BROOKSIDE SAN PABLO DENTAL CARE",
    "npi": "1976931295",
    "hcaiId": null,
    "businessName": "LIFELONG MEDICAL CARE",
    "contactEmail": null,
    "categoryName": "PRIMARY CARE CLINIC",
    "categoryCode": "COMTYC",
    "licenseStatus": "ACTIVE",
    "inService": true,
    "licenseNumber": "550003292",
    "licenseEffectiveDate": "08/12/2025",
    "licenseExpirationDate": "11/07/2025",
    "dataDate": "10/18/2025",
    "capacity": 0,
    "address": "2023 VALE RD, SUITE 114",
    "city": "SAN PABLO",
    "zip": "94806",
    "county": "CONTRA COSTA",
    "phone": null,
    "lat": 37.954014,
    "lng": -122.338284
  },
  {
    "id": "630027595",
    "name": "LIFELONG BROOKSIDE SAN PABLO IMMEDIATE/URGENT CARE",
    "npi": "1976931295",
    "hcaiId": null,
    "businessName": "LIFELONG MEDICAL CARE",
    "contactEmail": null,
    "categoryName": "PRIMARY CARE CLINIC",
    "categoryCode": "COMTYC",
    "licenseStatus": "ACTIVE",
    "inService": true,
    "licenseNumber": "550003292",
    "licenseEffectiveDate": "08/12/2025",
    "licenseExpirationDate": "11/07/2025",
    "dataDate": "10/18/2025",
    "capacity": 0,
    "address": "2023 VALE RD, SUITE 103",
    "city": "SAN PABLO",
    "zip": "94806",
    "county": "CONTRA COSTA",
    "phone": null,
    "lat": 37.954014,
    "lng": -122.338284
  },
  {
    "id": "140000239",
    "name": "PLANNED PARENTHOOD OF CONTRA COSTA - RICHMOND CENTER",
    "npi": null,
    "hcaiId": "306071248",
    "businessName": "PLANNED PARENTHOOD: SHASTA-DIABLO, INC.",
    "contactEmail": "COMPLIANCE@PPNORCAL.ORG",
    "categoryName": "PRIMARY CARE CLINIC",
    "categoryCode": "COMTYC",
    "licenseStatus": "ACTIVE",
    "inService": true,
    "licenseNumber": "140000149",
    "licenseEffectiveDate": "11/17/2024",
    "licenseExpirationDate": "11/16/2025",
    "dataDate": "10/18/2025",
    "capacity": 0,
    "address": "2970 HILLTOP MALL ROAD, SUITE 307",
    "city": "RICHMOND",
    "zip": "94806",
    "county": "CONTRA COSTA",
    "phone": "(925) 887-5252",
    "lat": 37.97757,
    "lng": -122.3292465
  },
  {
    "id": "140000265",
    "name": "SAN PABLO DIALYSIS",
    "npi": "1790912970",
    "hcaiId": "306070021",
    "businessName": "LLANO DIALYSIS LLC",
    "contactEmail": "CAL_C@DAVITA.COM",
    "categoryName": "CHRONIC DIALYSIS CLINIC",
    "categoryCode": "ESRD/CDC",
    "licenseStatus": "ACTIVE",
    "inService": true,
    "licenseNumber": "140000209",
    "licenseEffectiveDate": "01/01/2025",
    "licenseExpirationDate": "12/31/2025",
    "dataDate": "10/18/2025",
    "capacity": 34,
    "address": "13352 SAN PABLO AVE",
    "city": "SAN PABLO",
    "zip": "94806",
    "county": "CONTRA COSTA",
    "phone": "(341) 300-1577",
    "lat": 37.955151,
    "lng": -122.334534
  },
  {
    "id": "140000030",
    "name": "SAN PABLO HEALTHCARE & WELLNESS CENTER",
    "npi": "1821320417",
    "hcaiId": "206070905",
    "businessName": "SAN PABLO HEALTHCARE & WELLNESS CENTER LLC",
    "contactEmail": "ADMINISTRATOR@SANPABLOHC.COM",
    "categoryName": "SKILLED NURSING FACILITY",
    "categoryCode": "SNF",
    "licenseStatus": "ACTIVE",
    "inService": true,
    "licenseNumber": "140000079",
    "licenseEffectiveDate": "05/04/2025",
    "licenseExpirationDate": "05/03/2026",
    "dataDate": "10/18/2025",
    "capacity": 108,
    "address": "13328 SAN PABLO AVENUE",
    "city": "SAN PABLO",
    "zip": "94806",
    "county": "CONTRA COSTA",
    "phone": "(510) 235-3720",
    "lat": 37.954548,
    "lng": -122.3336475
  },
  {
    "id": "140000061",
    "name": "VALE HEALTHCARE CENTER",
    "npi": "1932172491",
    "hcaiId": "206073644",
    "businessName": "VALE OPERATING COMPANY, LP",
    "contactEmail": "P.CHIB@MARINERHEALTHCARE.COM",
    "categoryName": "SKILLED NURSING FACILITY",
    "categoryCode": "SNF",
    "licenseStatus": "ACTIVE",
    "inService": true,
    "licenseNumber": "140000202",
    "licenseEffectiveDate": "04/16/2025",
    "licenseExpirationDate": "04/15/2026",
    "dataDate": "10/18/2025",
    "capacity": 202,
    "address": "13484 SAN PABLO AVENUE",
    "city": "SAN PABLO",
    "zip": "94806",
    "county": "CONTRA COSTA",
    "phone": "(510) 232-5945",
    "lat": 37.955871,
    "lng": -122.3347635
  }
]