[
  {
    "id": "140000570",
    "name": "ALVARADO SCHOOL",
    "npi": null,
    "hcaiId": null,
    "businessName": null,
    "contactEmail": null,
    "categoryName": "OTHER",
    "categoryCode": "UNLICEN",
    "licenseStatus": null,
    "inService": null,
    "licenseNumber": null,
    "licenseEffectiveDate": null,
    "licenseExpirationDate": null,
    "dataDate": "10/18/2025",
    "capacity": 0,
    "address": "5625 SUTTER AVE",
    "city": "RICHMOND",
    "zip": "94804",
    "county": "CONTRA COSTA",
    "phone": "(650) 525-6882",
    "lat": 37.90760471,
    "lng": -122.3127487
  },
  {
    "id": "140001364",
    "name": "BAART COMMUNITY HEALTHCARE",
    "npi": null,
    "hcaiId": "306074113",
    "businessName": "BAART COMMUNITY HEALTHCARE",
    "contactEmail": "UWILLIAMS@BAARTPROGRAMS.COM",
    "categoryName": "PRIMARY CARE CLINIC",
    "categoryCode": "COMTYC",
    "licenseStatus": "ACTIVE",
    "inService": true,
    "licenseNumber": "550000029",
    "licenseEffectiveDate": "05/12/2025",
    "licenseExpirationDate": "05/11/2026",
    "dataDate": "10/18/2025",
    "capacity": 0,
    "address": "1313 CUTTING BLVD",
    "city": "RICHMOND",
    "zip": "94804",
    "county": "CONTRA COSTA",
    "phone": "(510) 232-0874",
    "lat": 37.925451,
    "lng": -122.3565435
  },
  {
    "id": "630014731",
    "name": "BRIGHTER BEGINNINGS FAMILY HEALTH CENTER",
    "npi": "1942638978",
    "hcaiId": "306074172",
    "businessName": "BRIGHTER BEGINNINGS",
    "contactEmail": "CKARELL@BRIGHTER-BEGINNINGS.ORG",
    "categoryName": "PRIMARY CARE CLINIC",
    "categoryCode": "COMTYC",
    "licenseStatus": "ACTIVE",
    "inService": true,
    "licenseNumber": "550002684",
    "licenseEffectiveDate": "05/15/2025",
    "licenseExpirationDate": "05/14/2026",
    "dataDate": "10/18/2025",
    "capacity": 0,
    "address": "2727 MACDONALD AVENUE",
    "city": "RICHMOND",
    "zip": "94804",
    "county": "CONTRA COSTA",
    "phone": "(510) 393-1842",
    "lat": 37.935297,
    "lng": -122.3421345
  },
  {
    "id": "630015592",
    "name": "LIFELONG DR. WILLIAM",
    "npi": null,
    "hcaiId": null,
    "businessName": null,
    "contactEmail": null,
    "categoryName": "PRIMARY CARE CLINIC",
    "categoryCode": "FQHC",
    "licenseStatus": null,
    "inService": null,
    "licenseNumber": null,
    "licenseEffectiveDate": null,
    "licenseExpirationDate": null,
    "dataDate": "10/18/2025",
    "capacity": 0,
    "address": "2600 MACDONALD AVENUE",
    "city": "RICHMOND",
    "zip": "94804",
    "county": "CONTRA COSTA",
    "phone": null,
    "lat": 37.934883,
    "lng": -122.3434305
  },
  {
    "id": "630019427",
    "name": "LIFELONG MEDICAL CARE RICHMOND",
    "npi": null,
    "hcaiId": null,
    "businessName": "LIFELONG MEDICAL CARE",
    "contactEmail": null,
    "categoryName": "PRIMARY CARE CLINIC",
    "categoryCode": "COMTYC",
    "licenseStatus": "ACTIVE",
    "inService": true,
    "licenseNumber": "140000372",
    "licenseEffectiveDate": "11/01/2025",
    "licenseExpirationDate": "10/31/2026",
    "dataDate": "10/18/2025",
    "capacity": 0,
    "address": "2600 MACDONALD AVE, SUITE B",
    "city": "RICHMOND",
    "zip": "94804",
    "county": "CONTRA COSTA",
    "phone": null,
    "lat": 37.934883,
    "lng": -122.3434305
  },
  {
    "id": "140000049",
    "name": "RICHMOND POST ACUTE CARE",
    "npi": "1821087966",
    "hcaiId": "206071099",
    "businessName": "RICHMOND POST ACUTE CARE, LLC",
    "contactEmail": "STEVE@SUNSTONEHG.COM",
    "categoryName": "SKILLED NURSING FACILITY",
    "categoryCode": "SNF",
    "licenseStatus": "ACTIVE",
    "inService": true,
    "licenseNumber": "140000141",
    "licenseEffectiveDate": "11/18/2024",
    "licenseExpirationDate": "11/17/2025",
    "dataDate": "10/18/2025",
    "capacity": 34,
    "address": "955 23RD STREET",
    "city": "RICHMOND",
    "zip": "94804",
    "county": "CONTRA COSTA",
    "phone": "(916) 752-2443",
    "lat": 37.946268,
    "lng": -122.347872
  },
  {
    "id": "630026133",
    "name": "ROTACARE RICHMOND",
    "npi": null,
    "hcaiId": null,
    "businessName": "ROTACARE BAY AREA, INC.",
    "contactEmail": null,
    "categoryName": "PRIMARY CARE CLINIC",
    "categoryCode": "FREEC",
    "licenseStatus": "ACTIVE",
    "inService": true,
    "licenseNumber": "550006678",
    "licenseEffectiveDate": "07/20/2025",
    "licenseExpirationDate": "07/19/2026",
    "dataDate": "10/18/2025",
    "capacity": 0,
    "address": "256 24TH ST",
    "city": "RICHMOND",
    "zip": "94804",
    "county": "CONTRA COSTA",
    "phone": null,
    "lat": 37.934928,
    "lng": -122.346081
  },
  {
    "id": "140000615",
    "name": "RUBICON PROGRAMS DAY TREATMENT",
    "npi": null,
    "hcaiId": null,
    "businessName": null,
    "contactEmail": null,
    "categoryName": "OTHER",
    "categoryCode": "UNLICEN",
    "licenseStatus": null,
    "inService": null,
    "licenseNumber": null,
    "licenseEffectiveDate": null,
    "licenseExpirationDate": null,
    "dataDate": "10/18/2025",
    "capacity": 0,
    "address": "2500 BISSELL AVE",
    "city": "RICHMOND",
    "zip": "94804",
    "county": "CONTRA COSTA",
    "phone": "(510) 235-1516",
    "lat": 37.93365,
    "lng": -122.345316
  },
  {
    "id": "140000080",
    "name": "SHIELDS RICHMOND NURSING CENTER",
    "npi": "1578559480",
    "hcaiId": "206071069",
    "businessName": "SHIELDS NURSING CENTERS, INC.",
    "contactEmail": "JACQUES@SHIELDSNURSINGCENTERS.COM",
    "categoryName": "SKILLED NURSING FACILITY",
    "categoryCode": "SNF",
    "licenseStatus": "ACTIVE",
    "inService": true,
    "licenseNumber": "140000139",
    "licenseEffectiveDate": "12/09/2024",
    "licenseExpirationDate": "12/08/2025",
    "dataDate": "10/18/2025",
    "capacity": 84,
    "address": "1919 CUTTING BOULEVARD",
    "city": "RICHMOND",
    "zip": "94804",
    "county": "CONTRA COSTA",
    "phone": "(510) 233-8513",
    "lat": 37.925577,
    "lng": -122.350851
  },
  {
    "id": "140000749",
    "name": "SOJOURNE COMMUNITY COUNSELING CENTER",
    "npi": null,
    "hcaiId": null,
    "businessName": null,
    "contactEmail": null,
    "categoryName": "OTHER",
    "categoryCode": "UNLICEN",
    "licenseStatus": null,
    "inService": null,
    "licenseNumber": null,
    "licenseEffectiveDate": null,
    "licenseExpirationDate": null,
    "dataDate": "10/18/2025",
    "capacity": 0,
    "address": "3029 MACDONALD AVE",
    "city": "RICHMOND",
    "zip": "94804",
    "county": "CONTRA COSTA",
    "phone": "(510) 374-3813",
    "lat": 37.934874,
    "lng": -122.339673
  },
  {
    "id": "140000718",
    "name": "WEST COUNTY OLDER ADULTS CLINIC",
    "npi": null,
    "hcaiId": null,
    "businessName": null,
    "contactEmail": null,
    "categoryName": "OTHER",
    "categoryCode": "UNLICEN",
    "licenseStatus": null,
    "inService": null,
    "licenseNumber": null,
    "licenseEffectiveDate": null,
    "licenseExpirationDate": null,
    "dataDate": "10/18/2025",
    "capacity": 0,
    "address": "2923 MACDONALD AVE",
    "city": "RICHMOND",
    "zip": "94804",
    "county": "CONTRA COSTA",
    "phone": "(510) 464-4416",
    "lat": 37.93485375,
    "lng": -122.3407112
  }
]