[
  {
    "id": "010000998",
    "name": "ABLE",
    "npi": "1528278371",
    "hcaiId": null,
    "businessName": "A BROADER LIVING EXPERIENCE DBA ABLE",
    "contactEmail": "25DEANZA@ATT.NET",
    "categoryName": "INTERMEDIATE CARE FACILITY-DD/H/N/CN/IID",
    "categoryCode": "ICFDDH",
    "licenseStatus": "ACTIVE",
    "inService": true,
    "licenseNumber": "010000384",
    "licenseEffectiveDate": "05/21/2025",
    "licenseExpirationDate": "05/20/2026",
    "dataDate": "10/18/2025",
    "capacity": 9,
    "address": "25 DE ANZA WAY",
    "city": "SAN RAFAEL",
    "zip": "94903",
    "county": "MARIN",
    "phone": "(415) 492-8087",
    "lat": 37.995291,
    "lng": -122.5442205
  },
  {
    "id": "110000944",
    "name": "KAISER FOUNDATION HOSPITAL - SAN RAFAEL",
    "npi": "1194895227",
    "hcaiId": "106210992",
    "businessName": "KAISER FOUNDATION HOSPITALS",
    "contactEmail": "NATALIA.RABOVSKY@KP.ORG",
    "categoryName": "GENERAL ACUTE CARE HOSPITAL",
    "categoryCode": "GACH",
    "licenseStatus": "ACTIVE",
    "inService": true,
    "licenseNumber": "110000357",
    "licenseEffectiveDate": "12/01/2024",
    "licenseExpirationDate": "11/30/2025",
    "dataDate": "10/18/2025",
    "capacity": 116,
    "address": "99 MONTECILLO RD",
    "city": "SAN RAFAEL",
    "zip": "94903",
    "county": "MARIN",
    "phone": "(415) 271-0589",
    "lat": 38.0043,
    "lng": -122.554692
  },
  {
    "id": "630012843",
    "name": "LOVING CARE TO YOU",
    "npi": "1992019350",
    "hcaiId": "406214053",
    "businessName": "LOVING CARE TO YOU",
    "contactEmail": "AKHAN@GUARDIANHHA.COM",
    "categoryName": "HOME HEALTH AGENCY",
    "categoryCode": "HHA",
    "licenseStatus": "ACTIVE",
    "inService": true,
    "licenseNumber": "550001533",
    "licenseEffectiveDate": "12/17/2024",
    "licenseExpirationDate": "12/16/2025",
    "dataDate": "10/18/2025",
    "capacity": 0,
    "address": "7 MOUNT LASSEN DR, SUITE D116",
    "city": "SAN RAFAEL",
    "zip": "94903",
    "county": "MARIN",
    "phone": "(415) 499-5100",
    "lat": 38.026143,
    "lng": -122.5695645
  },
  {
    "id": "630020549",
    "name": "MADRONA HOSPICE CARE, INC.",
    "npi": "1962011551",
    "hcaiId": "406216527",
    "businessName": "MADRONA HOSPICE CARE, INC.",
    "contactEmail": "INFO@MADRONAHOSPICECARE.COM",
    "categoryName": "HOSPICE",
    "categoryCode": "HOSPICE",
    "licenseStatus": "ACTIVE",
    "inService": true,
    "licenseNumber": "550006144",
    "licenseEffectiveDate": "03/19/2025",
    "licenseExpirationDate": "03/18/2027",
    "dataDate": "10/18/2025",
    "capacity": 0,
    "address": "185 N REDWOOD DR, SUITE 110",
    "city": "SAN RAFAEL",
    "zip": "94903",
    "county": "MARIN",
    "phone": "(408) 888-8039",
    "lat": 38.024559,
    "lng": -122.536872
  },
  {
    "id": "010000959",
    "name": "MARIN POST ACUTE",
    "npi": "1124178645",
    "hcaiId": "206211048",
    "businessName": "MARINIDENCE OPCO, LLC",
    "contactEmail": "KEVAN.BILLS@MARINPOSTACUTE.COM",
    "categoryName": "SKILLED NURSING FACILITY",
    "categoryCode": "SNF",
    "licenseStatus": "ACTIVE",
    "inService": true,
    "licenseNumber": "010000364",
    "licenseEffectiveDate": "06/01/2025",
    "licenseExpirationDate": "05/31/2026",
    "dataDate": "10/18/2025",
    "capacity": 168,
    "address": "234 N SAN PEDRO RD",
    "city": "SAN RAFAEL",
    "zip": "94903",
    "county": "MARIN",
    "phone": "(801) 380-9916",
    "lat": 38.002581,
    "lng": -122.5211985
  },
  {
    "id": "110001199",
    "name": "MARIN SPECIALTY SURGERY CENTER",
    "npi": "1215930078",
    "hcaiId": "306214036",
    "businessName": "MARIN HEALTH VENTURES, INC.",
    "contactEmail": "AWILSON@MARINSURGERY.COM",
    "categoryName": "SURGICAL CLINIC",
    "categoryCode": "ASC",
    "licenseStatus": "INACTIVE - CAPEN DECISION",
    "inService": false,
    "licenseNumber": "110000487",
    "licenseEffectiveDate": "03/10/2008",
    "licenseExpirationDate": "03/09/2009",
    "dataDate": "10/18/2025",
    "capacity": 0,
    "address": "1 THORNDALE DR, SUITE 210",
    "city": "SAN RAFAEL",
    "zip": "94903",
    "county": "MARIN",
    "phone": "(415) 461-4400",
    "lat": 38.00529,
    "lng": -122.547573
  },
  {
    "id": "630022448",
    "name": "NATIONAL HOME HEALTH SERVICES, INC.-SAN RAFAEL",
    "npi": null,
    "hcaiId": "406215643",
    "businessName": "NATIONAL HOME HEALTH SERVICES, INC.",
    "contactEmail": "ALEX.RUDAKOV@NATIONALHHA.COM",
    "categoryName": "HOME HEALTH AGENCY",
    "categoryCode": "HHA",
    "licenseStatus": "ACTIVE",
    "inService": true,
    "licenseNumber": "550001137",
    "licenseEffectiveDate": "11/17/2025",
    "licenseExpirationDate": "11/16/2026",
    "dataDate": "10/18/2025",
    "capacity": 0,
    "address": "30 N SAN PEDRO RD, SUITE 130",
    "city": "SAN RAFAEL",
    "zip": "94903",
    "county": "MARIN",
    "phone": "(408) 404-4090",
    "lat": 37.995336,
    "lng": -122.529249
  },
  {
    "id": "010000980",
    "name": "NORTHGATE POSTACUTE CARE",
    "npi": "1689053274",
    "hcaiId": "206212623",
    "businessName": "NORTHGATE POSTACUTE CARE",
    "contactEmail": "ADMINISTRATOR@NORTHGATEPOSTACUTE.COM",
    "categoryName": "SKILLED NURSING FACILITY",
    "categoryCode": "SNF",
    "licenseStatus": "ACTIVE",
    "inService": true,
    "licenseNumber": "010000374",
    "licenseEffectiveDate": "12/08/2024",
    "licenseExpirationDate": "12/07/2025",
    "dataDate": "10/18/2025",
    "capacity": 54,
    "address": "40 PROFESSIONAL CENTER PKWY",
    "city": "SAN RAFAEL",
    "zip": "94903",
    "county": "MARIN",
    "phone": "(415) 479-1230",
    "lat": 38.009448,
    "lng": -122.538078
  },
  {
    "id": "010001033",
    "name": "NOVA HOUSE, INC.",
    "npi": "1932366895",
    "hcaiId": null,
    "businessName": "LIFEHOUSE, INC.",
    "contactEmail": "AAGUILAR@LIFEHOUSEAGENCY.ORG",
    "categoryName": "INTERMEDIATE CARE FACILITY-DD/H/N/CN/IID",
    "categoryCode": "ICFDDH",
    "licenseStatus": "ACTIVE",
    "inService": true,
    "licenseNumber": "010000408",
    "licenseEffectiveDate": "12/18/2024",
    "licenseExpirationDate": "12/17/2025",
    "dataDate": "10/18/2025",
    "capacity": 6,
    "address": "393 NOVA ALBION WAY",
    "city": "SAN RAFAEL",
    "zip": "94903",
    "county": "MARIN",
    "phone": "(415) 686-9643",
    "lat": 37.998702,
    "lng": -122.5485945
  },
  {
    "id": "630017774",
    "name": "PERINATAL AND WOMEN'S HEALTH SUITE",
    "npi": null,
    "hcaiId": null,
    "businessName": "MARIN CITY HEALTH & WELLNESS CENTER",
    "contactEmail": null,
    "categoryName": "PRIMARY CARE CLINIC",
    "categoryCode": "COMTYC",
    "licenseStatus": "ACTIVE",
    "inService": true,
    "licenseNumber": "550000861",
    "licenseEffectiveDate": "05/08/2025",
    "licenseExpirationDate": "01/21/2026",
    "dataDate": "10/18/2025",
    "capacity": 0,
    "address": "880 LAS GALLINAS AVE, SUITE 2",
    "city": "SAN RAFAEL",
    "zip": "94903",
    "county": "MARIN",
    "phone": null,
    "lat": 38.007693,
    "lng": -122.547807
  },
  {
    "id": "010000949",
    "name": "PINE RIDGE CARE CENTER",
    "npi": "1659610814",
    "hcaiId": "206210999",
    "businessName": "SAN RAFAEL OPERATING COMPANY LP",
    "contactEmail": "MRMONROE@MARINERHEALTHCARE.COM",
    "categoryName": "SKILLED NURSING FACILITY",
    "categoryCode": "SNF",
    "licenseStatus": "ACTIVE",
    "inService": true,
    "licenseNumber": "010000359",
    "licenseEffectiveDate": "02/01/2025",
    "licenseExpirationDate": "01/31/2026",
    "dataDate": "10/18/2025",
    "capacity": 101,
    "address": "45 PROFESSIONAL CENTER PKWY",
    "city": "SAN RAFAEL",
    "zip": "94903",
    "county": "MARIN",
    "phone": "(415) 408-8306",
    "lat": 38.010393,
    "lng": -122.539716
  },
  {
    "id": "010000968",
    "name": "PROFESSIONAL POST ACUTE CENTER",
    "npi": "1811049026",
    "hcaiId": "206212036",
    "businessName": "CF SAN RAFAEL, LLC",
    "contactEmail": "NICOLE.FOREMAN@PROFESSIONALPAC.COM",
    "categoryName": "SKILLED NURSING FACILITY",
    "categoryCode": "SNF",
    "licenseStatus": "ACTIVE",
    "inService": true,
    "licenseNumber": "010000368",
    "licenseEffectiveDate": "11/10/2024",
    "licenseExpirationDate": "11/09/2025",
    "dataDate": "10/18/2025",
    "capacity": 99,
    "address": "81 PROFESSIONAL CENTER PKWY",
    "city": "SAN RAFAEL",
    "zip": "94903",
    "county": "MARIN",
    "phone": "(415) 479-5161",
    "lat": 38.010276,
    "lng": -122.538168
  },
  {
    "id": "110001228",
    "name": "REHAB WORKS, INC.",
    "npi": null,
    "hcaiId": null,
    "businessName": null,
    "contactEmail": null,
    "categoryName": "REHABILITATION CLINIC",
    "categoryCode": "REHABC",
    "licenseStatus": null,
    "inService": null,
    "licenseNumber": null,
    "licenseEffectiveDate": null,
    "licenseExpirationDate": null,
    "dataDate": "10/18/2025",
    "capacity": 0,
    "address": "100 THORNDALE DR",
    "city": "SAN RAFAEL",
    "zip": "94903",
    "county": "MARIN",
    "phone": "(415) 492-2419",
    "lat": 38.003535,
    "lng": -122.5496115
  },
  {
    "id": "010001037",
    "name": "SMITH RANCH SKILLED NURSING & REHABILITATION CENTER",
    "npi": "1023534443",
    "hcaiId": "206214021",
    "businessName": "GHC OF SAN RAFAEL, LLC",
    "contactEmail": "KABIRNAIN@LIFEGEN.NET",
    "categoryName": "SKILLED NURSING FACILITY",
    "categoryCode": "SNF",
    "licenseStatus": "ACTIVE",
    "inService": true,
    "licenseNumber": "010000411",
    "licenseEffectiveDate": "11/28/2025",
    "licenseExpirationDate": "11/27/2026",
    "dataDate": "10/18/2025",
    "capacity": 80,
    "address": "1550 SILVEIRA PKWY",
    "city": "SAN RAFAEL",
    "zip": "94903",
    "county": "MARIN",
    "phone": "(415) 499-1000",
    "lat": 38.020149,
    "lng": -122.5261755
  },
  {
    "id": "110001093",
    "name": "ST. VINCENT SCHOOL FOR BOYS",
    "npi": null,
    "hcaiId": null,
    "businessName": null,
    "contactEmail": null,
    "categoryName": "OTHER",
    "categoryCode": "UNLICEN",
    "licenseStatus": null,
    "inService": null,
    "licenseNumber": null,
    "licenseEffectiveDate": null,
    "licenseExpirationDate": null,
    "dataDate": "10/18/2025",
    "capacity": 0,
    "address": "4900 REDWOOD HIGHWAY",
    "city": "SAN RAFAEL",
    "zip": "94903",
    "county": "MARIN",
    "phone": "(415) 479-8831",
    "lat": 38.034108,
    "lng": -122.5251135
  },
  {
    "id": "010000995",
    "name": "VILLA MARIN RETIREMENT RESIDENCES",
    "npi": null,
    "hcaiId": "206212810",
    "businessName": "VILLA MARIN HOMEOWNERS ASSOCIATION",
    "contactEmail": "PAULD@VILLA-MARIN.COM",
    "categoryName": "SKILLED NURSING FACILITY",
    "categoryCode": "SNF",
    "licenseStatus": "ACTIVE",
    "inService": true,
    "licenseNumber": "010000382",
    "licenseEffectiveDate": "11/23/2024",
    "licenseExpirationDate": "11/22/2025",
    "dataDate": "10/18/2025",
    "capacity": 31,
    "address": "100 THORNDALE DR",
    "city": "SAN RAFAEL",
    "zip": "94903",
    "county": "MARIN",
    "phone": "(707) 287-4221",
    "lat": 38.003535,
    "lng": -122.5496115
  }
]