[
  {
    "id": "630013857",
    "name": "BON AIR SURGERY CENTER",
    "npi": "1942585526",
    "hcaiId": null,
    "businessName": null,
    "contactEmail": null,
    "categoryName": "SURGICAL CLINIC",
    "categoryCode": "ASC",
    "licenseStatus": null,
    "inService": null,
    "licenseNumber": null,
    "licenseEffectiveDate": null,
    "licenseExpirationDate": null,
    "dataDate": "10/18/2025",
    "capacity": 0,
    "address": "575 SIR FRANCIS DRAKE BLVD, SUITE 3",
    "city": "GREENBRAE",
    "zip": "94904",
    "county": "MARIN",
    "phone": "(415) 925-1030",
    "lat": 37.948194,
    "lng": -122.52753
  },
  {
    "id": "110001048",
    "name": "ENDOSCOPY CENTER OF MARIN",
    "npi": "1194718056",
    "hcaiId": "306214032",
    "businessName": null,
    "contactEmail": "KHBEDFORD@SBCGLOBAL.NET",
    "categoryName": "SURGICAL CLINIC",
    "categoryCode": "ASC",
    "licenseStatus": "INACTIVE - CAPEN DECISION",
    "inService": false,
    "licenseNumber": "110000421",
    "licenseEffectiveDate": "11/01/2007",
    "licenseExpirationDate": "10/31/2008",
    "dataDate": "10/18/2025",
    "capacity": 0,
    "address": "1100 S ELISEO DR, SUITE 3",
    "city": "GREENBRAE",
    "zip": "94904",
    "county": "MARIN",
    "phone": "(415) 464-0606",
    "lat": 37.943883,
    "lng": -122.534451
  },
  {
    "id": "110001253",
    "name": "GREENBRAE SURGERY CENTER",
    "npi": "1518133321",
    "hcaiId": "306214039",
    "businessName": "GREENBRAE SURGERY CENTER, LLC.",
    "contactEmail": "GSCBILLING@AYCOCKMD.COM",
    "categoryName": "SURGICAL CLINIC",
    "categoryCode": "ASC",
    "licenseStatus": "INACTIVE - CAPEN DECISION",
    "inService": false,
    "licenseNumber": "110000520",
    "licenseEffectiveDate": "07/01/2007",
    "licenseExpirationDate": "10/31/2008",
    "dataDate": "10/18/2025",
    "capacity": 0,
    "address": "575 SIR FRANCIS DRAKE BLVD, SUITE 3",
    "city": "GREENBRAE",
    "zip": "94904",
    "county": "MARIN",
    "phone": "(415) 925-8900",
    "lat": 37.948194,
    "lng": -122.52753
  },
  {
    "id": "110000946",
    "name": "KENTFIELD HOSPITAL",
    "npi": "1760424261",
    "hcaiId": "106210993",
    "businessName": "KENTFIELD AND SAN FRANCISCO SPECIALTY HOSPITAL INC.",
    "contactEmail": "MANNY.G@AMERICANAM.ORG",
    "categoryName": "GENERAL ACUTE CARE HOSPITAL",
    "categoryCode": "GACH",
    "licenseStatus": "ACTIVE",
    "inService": true,
    "licenseNumber": "110000358",
    "licenseEffectiveDate": "11/01/2025",
    "licenseExpirationDate": "10/31/2026",
    "dataDate": "10/18/2025",
    "capacity": 60,
    "address": "1125 SIR FRANCIS DRAKE BLVD",
    "city": "KENTFIELD",
    "zip": "94904",
    "county": "MARIN",
    "phone": "(707) 503-8772",
    "lat": 37.958733,
    "lng": -122.552415
  },
  {
    "id": "630021953",
    "name": "MARIN COMMUNITY CLINIC - GREENBRAE",
    "npi": "1780292912",
    "hcaiId": null,
    "businessName": "MARIN COMMUNITY CLINIC",
    "contactEmail": null,
    "categoryName": "PRIMARY CARE CLINIC",
    "categoryCode": "COMTYC",
    "licenseStatus": "ACTIVE",
    "inService": true,
    "licenseNumber": "110000366",
    "licenseEffectiveDate": "12/01/2024",
    "licenseExpirationDate": "11/30/2025",
    "dataDate": "10/18/2025",
    "capacity": 0,
    "address": "1260 S ELISEO DR, SUITE 201",
    "city": "GREENBRAE",
    "zip": "94904",
    "county": "MARIN",
    "phone": null,
    "lat": 37.944846,
    "lng": -122.535513
  },
  {
    "id": "110000953",
    "name": "MARINHEALTH MEDICAL CENTER",
    "npi": "1396725677",
    "hcaiId": "106211006",
    "businessName": "MARIN GENERAL HOSPITAL",
    "contactEmail": "LILLIAN.CHAN@MYMARINHEALTH.ORG",
    "categoryName": "GENERAL ACUTE CARE HOSPITAL",
    "categoryCode": "GACH",
    "licenseStatus": "ACTIVE",
    "inService": true,
    "licenseNumber": "110000361",
    "licenseEffectiveDate": "12/03/2024",
    "licenseExpirationDate": "11/29/2025",
    "dataDate": "10/18/2025",
    "capacity": 310,
    "address": "250 BON AIR RD",
    "city": "GREENBRAE",
    "zip": "94904",
    "county": "MARIN",
    "phone": "(415) 925-7149",
    "lat": 37.947339,
    "lng": -122.5359045
  },
  {
    "id": "110000955",
    "name": "MARINHEALTH MEDICAL CENTER D/P APH",
    "npi": "1396725677",
    "hcaiId": null,
    "businessName": "MARIN GENERAL HOSPITAL",
    "contactEmail": null,
    "categoryName": "ACUTE PSYCHIATRIC HOSPITAL",
    "categoryCode": "APH",
    "licenseStatus": "ACTIVE",
    "inService": true,
    "licenseNumber": "110000361",
    "licenseEffectiveDate": "12/03/2024",
    "licenseExpirationDate": "11/29/2025",
    "dataDate": "10/18/2025",
    "capacity": 17,
    "address": "250 BON AIR RD",
    "city": "GREENBRAE",
    "zip": "94904",
    "county": "MARIN",
    "phone": "(415) 461-0100",
    "lat": 37.947339,
    "lng": -122.5359045
  },
  {
    "id": "110001104",
    "name": "PHYSICAL FOCUS, INC",
    "npi": null,
    "hcaiId": null,
    "businessName": null,
    "contactEmail": null,
    "categoryName": "OTHER",
    "categoryCode": "UNLICEN",
    "licenseStatus": null,
    "inService": null,
    "licenseNumber": null,
    "licenseEffectiveDate": null,
    "licenseExpirationDate": null,
    "dataDate": "10/18/2025",
    "capacity": 0,
    "address": "206 BON AIR CTR",
    "city": "GREENBRAE",
    "zip": "94904",
    "county": "MARIN",
    "phone": "(415) 927-4040",
    "lat": 37.945854,
    "lng": -122.525325
  },
  {
    "id": "110001155",
    "name": "SATELLITE HEALTHCARE LARKSPUR",
    "npi": "1164493276",
    "hcaiId": "306212807",
    "businessName": "SATELLITE GREENBRAE, LLC",
    "contactEmail": "GRUSSINGJ@SATELLITEHEALTH.COM",
    "categoryName": "CHRONIC DIALYSIS CLINIC",
    "categoryCode": "ESRD/CDC",
    "licenseStatus": "ACTIVE",
    "inService": true,
    "licenseNumber": "110000444",
    "licenseEffectiveDate": "01/09/2025",
    "licenseExpirationDate": "01/08/2026",
    "dataDate": "10/18/2025",
    "capacity": 22,
    "address": "565 SIR FRANCIS DRAKE BLVD",
    "city": "GREENBRAE",
    "zip": "94904",
    "county": "MARIN",
    "phone": "(650) 464-1455",
    "lat": 37.947861,
    "lng": -122.527008
  },
  {
    "id": "010000938",
    "name": "SOUTH MARIN HEALTH & WELLNESS CENTER",
    "npi": "1902329782",
    "hcaiId": "206210957",
    "businessName": "AGSE, LLC",
    "contactEmail": "KNECKE@ASPENHEALTH.COM",
    "categoryName": "SKILLED NURSING FACILITY",
    "categoryCode": "SNF",
    "licenseStatus": "ACTIVE",
    "inService": true,
    "licenseNumber": "010000354",
    "licenseEffectiveDate": "04/09/2025",
    "licenseExpirationDate": "04/08/2026",
    "dataDate": "10/18/2025",
    "capacity": 72,
    "address": "1220 S ELISEO DR",
    "city": "GREENBRAE",
    "zip": "94904",
    "county": "MARIN",
    "phone": "(415) 461-9700",
    "lat": 37.944234,
    "lng": -122.535801
  },
  {
    "id": "010000985",
    "name": "THE TAMALPAIS",
    "npi": null,
    "hcaiId": "206212800",
    "businessName": "SEQUOIA LIVING, INC.",
    "contactEmail": "TTUMBALE@SEQUOIALIVING.ORG",
    "categoryName": "SKILLED NURSING FACILITY",
    "categoryCode": "SNF",
    "licenseStatus": "ACTIVE",
    "inService": true,
    "licenseNumber": "010000376",
    "licenseEffectiveDate": "11/19/2024",
    "licenseExpirationDate": "11/18/2025",
    "dataDate": "10/18/2025",
    "capacity": 26,
    "address": "501 VIA CASITAS",
    "city": "GREENBRAE",
    "zip": "94904",
    "county": "MARIN",
    "phone": "(415) 461-2300",
    "lat": 37.945647,
    "lng": -122.532219
  }
]