[
  {
    "id": "110001087",
    "name": "BRAUN DAY TREATMENT",
    "npi": null,
    "hcaiId": null,
    "businessName": null,
    "contactEmail": null,
    "categoryName": "OTHER",
    "categoryCode": "UNLICEN",
    "licenseStatus": null,
    "inService": null,
    "licenseNumber": null,
    "licenseEffectiveDate": null,
    "licenseExpirationDate": null,
    "dataDate": "10/18/2025",
    "capacity": 0,
    "address": "4 BERYL LN",
    "city": "SAN RAFAEL",
    "zip": "94901",
    "county": "MARIN",
    "phone": "(415) 499-6817",
    "lat": 37.98009,
    "lng": -122.54067
  },
  {
    "id": "630020482",
    "name": "CENTER POINT OUTPATIENT SERVICES",
    "npi": "1912091018",
    "hcaiId": null,
    "businessName": "MARIN COMMUNITY CLINIC",
    "contactEmail": null,
    "categoryName": "PRIMARY CARE CLINIC",
    "categoryCode": "COMTYC",
    "licenseStatus": "ACTIVE",
    "inService": true,
    "licenseNumber": "110000366",
    "licenseEffectiveDate": "12/01/2024",
    "licenseExpirationDate": "11/30/2025",
    "dataDate": "10/18/2025",
    "capacity": 0,
    "address": "1601 2ND ST, SUITE 108",
    "city": "SAN RAFAEL",
    "zip": "94901",
    "county": "MARIN",
    "phone": null,
    "lat": 37.972035,
    "lng": -122.536206
  },
  {
    "id": "110001041",
    "name": "CENTER POINT, INC.",
    "npi": null,
    "hcaiId": "306214025",
    "businessName": "CENTER POINT INC.",
    "contactEmail": "STAYLOR@CPINC.ORG",
    "categoryName": "PRIMARY CARE CLINIC",
    "categoryCode": "COMTYC",
    "licenseStatus": "ACTIVE",
    "inService": true,
    "licenseNumber": "110000414",
    "licenseEffectiveDate": "06/23/2025",
    "licenseExpirationDate": "06/22/2026",
    "dataDate": "10/18/2025",
    "capacity": 0,
    "address": "1601 2ND ST",
    "city": "SAN RAFAEL",
    "zip": "94901",
    "county": "MARIN",
    "phone": "(415) 492-4444",
    "lat": 37.97208,
    "lng": -122.53635
  },
  {
    "id": "630028477",
    "name": "HUCKLEBERRY YOUTH PROGRAMS",
    "npi": null,
    "hcaiId": null,
    "businessName": "MARIN COMMUNITY CLINIC",
    "contactEmail": null,
    "categoryName": "PRIMARY CARE CLINIC",
    "categoryCode": "COMTYC",
    "licenseStatus": "ACTIVE",
    "inService": true,
    "licenseNumber": "550000761",
    "licenseEffectiveDate": "01/21/2025",
    "licenseExpirationDate": "01/20/2026",
    "dataDate": "10/18/2025",
    "capacity": 0,
    "address": "361 3RD ST, SUITE G",
    "city": "SAN RAFAEL",
    "zip": "94901",
    "county": "MARIN",
    "phone": null,
    "lat": 37.9695603,
    "lng": -122.5173522
  },
  {
    "id": "630018324",
    "name": "MARIN COMMUNITY CLINIC - 4TH STREET DENTAL",
    "npi": null,
    "hcaiId": null,
    "businessName": "MARIN COMMUNITY CLINIC",
    "contactEmail": "IMIHAI@MARINCLINIC.ORG",
    "categoryName": "PRIMARY CARE CLINIC",
    "categoryCode": "COMTYC",
    "licenseStatus": "ACTIVE",
    "inService": true,
    "licenseNumber": "550007823",
    "licenseEffectiveDate": "02/11/2025",
    "licenseExpirationDate": "02/10/2026",
    "dataDate": "10/18/2025",
    "capacity": 0,
    "address": "411 4TH ST, SUITE A",
    "city": "SAN RAFAEL",
    "zip": "94901",
    "county": "MARIN",
    "phone": null,
    "lat": 37.971567,
    "lng": -122.5180305
  },
  {
    "id": "630011594",
    "name": "MARIN COMMUNITY CLINIC - SAN RAFAEL",
    "npi": "1154503399",
    "hcaiId": "306214045",
    "businessName": "MARIN COMMUNITY CLINIC",
    "contactEmail": "COMPLIANCE@MARINCLINIC.ORG",
    "categoryName": "PRIMARY CARE CLINIC",
    "categoryCode": "COMTYC",
    "licenseStatus": "ACTIVE",
    "inService": true,
    "licenseNumber": "550000761",
    "licenseEffectiveDate": "01/21/2025",
    "licenseExpirationDate": "01/20/2026",
    "dataDate": "10/18/2025",
    "capacity": 0,
    "address": "3110 KERNER BLVD",
    "city": "SAN RAFAEL",
    "zip": "94901",
    "county": "MARIN",
    "phone": "(415) 448-1500",
    "lat": 37.958112,
    "lng": -122.500179
  },
  {
    "id": "630013042",
    "name": "MARIN COMMUNITY CLINIC - SAN RAFAEL CAMPUS",
    "npi": "1922303437",
    "hcaiId": "306214054",
    "businessName": "MARIN COMMUNITY CLINIC",
    "contactEmail": "SKING@MARINCLINIC.ORG",
    "categoryName": "PRIMARY CARE CLINIC",
    "categoryCode": "COMTYC",
    "licenseStatus": "ACTIVE",
    "inService": true,
    "licenseNumber": "550000761",
    "licenseEffectiveDate": "01/21/2025",
    "licenseExpirationDate": "01/20/2026",
    "dataDate": "10/18/2025",
    "capacity": 0,
    "address": "3260 KERNER BLVD, SUITE A",
    "city": "SAN RAFAEL",
    "zip": "94901",
    "county": "MARIN",
    "phone": "(415) 448-1500",
    "lat": 37.960452,
    "lng": -122.4998955
  },
  {
    "id": "630026445",
    "name": "MARIN COMMUNITY CLINIC - WEST SAN RAFAEL",
    "npi": "1154503399",
    "hcaiId": null,
    "businessName": "MARIN COMMUNITY CLINIC",
    "contactEmail": null,
    "categoryName": "PRIMARY CARE CLINIC",
    "categoryCode": "COMTYC",
    "licenseStatus": "ACTIVE",
    "inService": true,
    "licenseNumber": "550000761",
    "licenseEffectiveDate": "01/21/2025",
    "licenseExpirationDate": "01/20/2026",
    "dataDate": "10/18/2025",
    "capacity": 0,
    "address": "1618 2ND ST",
    "city": "SAN RAFAEL",
    "zip": "94901",
    "county": "MARIN",
    "phone": null,
    "lat": 37.972629,
    "lng": -122.5364085
  },
  {
    "id": "110001086",
    "name": "MARIN COUNTY SPECIALTY HIV CLINIC",
    "npi": null,
    "hcaiId": null,
    "businessName": null,
    "contactEmail": null,
    "categoryName": "PRIMARY CARE CLINIC",
    "categoryCode": "COMTYC",
    "licenseStatus": null,
    "inService": null,
    "licenseNumber": null,
    "licenseEffectiveDate": null,
    "licenseExpirationDate": null,
    "dataDate": "10/18/2025",
    "capacity": 0,
    "address": "1466 LINCOLN AVE",
    "city": "SAN RAFAEL",
    "zip": "94901",
    "county": "MARIN",
    "phone": "(415) 499-7889",
    "lat": 37.980162,
    "lng": -122.521833
  },
  {
    "id": "110001036",
    "name": "MARIN OPHTHALMIC AMBULATORY SURGI CLINIC",
    "npi": "1447253919",
    "hcaiId": "306214022",
    "businessName": "MARIN OPHTHALMIC SURGERY CENTER, INC.",
    "contactEmail": "SARNAOUT@MARINEYES.COM",
    "categoryName": "SURGICAL CLINIC",
    "categoryCode": "ASC",
    "licenseStatus": "INACTIVE - CAPEN DECISION",
    "inService": false,
    "licenseNumber": "110000410",
    "licenseEffectiveDate": "03/24/2008",
    "licenseExpirationDate": "03/23/2009",
    "dataDate": "10/18/2025",
    "capacity": 0,
    "address": "901 E ST, SUITE 270",
    "city": "SAN RAFAEL",
    "zip": "94901",
    "county": "MARIN",
    "phone": "(415) 454-2112",
    "lat": 37.972854,
    "lng": -122.533704
  },
  {
    "id": "110001044",
    "name": "MARIN TREATMENT CENTER",
    "npi": null,
    "hcaiId": "306214028",
    "businessName": "MARIN TREATMENT CENTER",
    "contactEmail": "OFFICE@MTCINC.ORG",
    "categoryName": "PRIMARY CARE CLINIC",
    "categoryCode": "COMTYC",
    "licenseStatus": "ACTIVE",
    "inService": true,
    "licenseNumber": "110000417",
    "licenseEffectiveDate": "12/16/2024",
    "licenseExpirationDate": "12/15/2025",
    "dataDate": "10/18/2025",
    "capacity": 0,
    "address": "1466 LINCOLN AVE",
    "city": "SAN RAFAEL",
    "zip": "94901",
    "county": "MARIN",
    "phone": "(415) 457-3755",
    "lat": 37.980162,
    "lng": -122.521833
  },
  {
    "id": "630013063",
    "name": "PLANNED PARENTHOOD SAN RAFAEL CENTER",
    "npi": "1902108541",
    "hcaiId": "306214058",
    "businessName": "PLANNED PARENTHOOD: SHASTA-DIABLO, INC.",
    "contactEmail": "ESOLORZANO@PPNORCAL.ORG",
    "categoryName": "PRIMARY CARE CLINIC",
    "categoryCode": "COMTYC",
    "licenseStatus": "ACTIVE",
    "inService": true,
    "licenseNumber": "550001570",
    "licenseEffectiveDate": "04/20/2025",
    "licenseExpirationDate": "04/19/2026",
    "dataDate": "10/18/2025",
    "capacity": 0,
    "address": "2 H ST",
    "city": "SAN RAFAEL",
    "zip": "94901",
    "county": "MARIN",
    "phone": "(510) 283-4990",
    "lat": 37.974357,
    "lng": -122.538384
  },
  {
    "id": "630028201",
    "name": "PROHEALTH HOSPICE INC",
    "npi": null,
    "hcaiId": null,
    "businessName": "PROHEALTH HOSPICE INC",
    "contactEmail": "PROHEALTHHOSPICE@GMAIL.COM",
    "categoryName": "HOSPICE",
    "categoryCode": "HOSPICE",
    "licenseStatus": "ACTIVE",
    "inService": true,
    "licenseNumber": "550009924",
    "licenseEffectiveDate": "08/14/2025",
    "licenseExpirationDate": "08/13/2027",
    "dataDate": "10/18/2025",
    "capacity": 0,
    "address": "851 IRWIN ST, SUITE 225F",
    "city": "SAN RAFAEL",
    "zip": "94901",
    "county": "MARIN",
    "phone": "(949) 331-4843",
    "lat": 37.97092701,
    "lng": -122.521364
  },
  {
    "id": "630013643",
    "name": "RITTER CENTER",
    "npi": "1417370032",
    "hcaiId": null,
    "businessName": null,
    "contactEmail": null,
    "categoryName": "PRIMARY CARE CLINIC",
    "categoryCode": "FQHC",
    "licenseStatus": null,
    "inService": null,
    "licenseNumber": null,
    "licenseEffectiveDate": null,
    "licenseExpirationDate": null,
    "dataDate": "10/18/2025",
    "capacity": 0,
    "address": "16 RITTER ST",
    "city": "SAN RAFAEL",
    "zip": "94901",
    "county": "MARIN",
    "phone": null,
    "lat": 37.971387,
    "lng": -122.525226
  },
  {
    "id": "630026647",
    "name": "RITTER CENTER",
    "npi": "1417370032",
    "hcaiId": null,
    "businessName": "RITTER CENTER",
    "contactEmail": "MSHOTWELL@RITTERCENTER.ORG",
    "categoryName": "PRIMARY CARE CLINIC",
    "categoryCode": "COMTYC",
    "licenseStatus": "ACTIVE",
    "inService": true,
    "licenseNumber": "110000522",
    "licenseEffectiveDate": "02/20/2025",
    "licenseExpirationDate": "02/19/2026",
    "dataDate": "10/18/2025",
    "capacity": 0,
    "address": "16 RITTER ST",
    "city": "SAN RAFAEL",
    "zip": "94901",
    "county": "MARIN",
    "phone": "(415) 457-8182",
    "lat": 37.971387,
    "lng": -122.525226
  },
  {
    "id": "110001266",
    "name": "RITTER HEALTH CENTER",
    "npi": "1417370032",
    "hcaiId": "306214057",
    "businessName": "RITTER CENTER",
    "contactEmail": "SKHAN@RITTERCENTER.ORG",
    "categoryName": "PRIMARY CARE CLINIC",
    "categoryCode": "COMTYC",
    "licenseStatus": "ACTIVE",
    "inService": true,
    "licenseNumber": "110000522",
    "licenseEffectiveDate": "02/20/2025",
    "licenseExpirationDate": "02/19/2026",
    "dataDate": "10/18/2025",
    "capacity": 0,
    "address": "16 RITTER ST",
    "city": "SAN RAFAEL",
    "zip": "94901",
    "county": "MARIN",
    "phone": "(415) 457-8182",
    "lat": 37.971387,
    "lng": -122.525226
  },
  {
    "id": "630026135",
    "name": "ROTACARE SAN RAFAEL",
    "npi": null,
    "hcaiId": null,
    "businessName": "ROTACARE BAY AREA, INC.",
    "contactEmail": "STEPHANIEC@ROTACAREBAYAREA.ORG",
    "categoryName": "PRIMARY CARE CLINIC",
    "categoryCode": "FREEC",
    "licenseStatus": "ACTIVE",
    "inService": true,
    "licenseNumber": "550006678",
    "licenseEffectiveDate": "07/20/2025",
    "licenseExpirationDate": "07/19/2026",
    "dataDate": "10/18/2025",
    "capacity": 0,
    "address": "1033 3RD ST, FLOOR 3",
    "city": "SAN RAFAEL",
    "zip": "94901",
    "county": "MARIN",
    "phone": "(415) 482-6906",
    "lat": 37.971909,
    "lng": -122.528043
  },
  {
    "id": "630016387",
    "name": "SAN RAFAEL DIALYSIS",
    "npi": null,
    "hcaiId": "306214064",
    "businessName": "TOTAL RENAL CARE, INC.",
    "contactEmail": "CAL_C@DAVITA.COM",
    "categoryName": "CHRONIC DIALYSIS CLINIC",
    "categoryCode": "ESRD/CDC",
    "licenseStatus": "ACTIVE",
    "inService": true,
    "licenseNumber": "550003375",
    "licenseEffectiveDate": "12/28/2024",
    "licenseExpirationDate": "12/27/2025",
    "dataDate": "10/18/2025",
    "capacity": 24,
    "address": "1415 3RD ST",
    "city": "SAN RAFAEL",
    "zip": "94901",
    "county": "MARIN",
    "phone": "(415) 453-4437",
    "lat": 37.97235,
    "lng": -122.532777
  },
  {
    "id": "010000936",
    "name": "SAN RAFAEL HEALTHCARE & WELLNESS CENTER, LP",
    "npi": "1417208109",
    "hcaiId": "206210946",
    "businessName": "SAN RAFAEL HEALTHCARE & WELLNESS CENTRE, LP",
    "contactEmail": "ADMINISTRATOR@SANRAFAELHC.COM",
    "categoryName": "SKILLED NURSING FACILITY",
    "categoryCode": "SNF",
    "licenseStatus": "ACTIVE",
    "inService": true,
    "licenseNumber": "010000353",
    "licenseEffectiveDate": "12/17/2024",
    "licenseExpirationDate": "12/16/2025",
    "dataDate": "10/18/2025",
    "capacity": 54,
    "address": "1601 5TH AVE",
    "city": "SAN RAFAEL",
    "zip": "94901",
    "county": "MARIN",
    "phone": "(415) 456-7170",
    "lat": 37.974582,
    "lng": -122.535549
  }
]