[
  {
    "id": "630025079",
    "name": "PETALUMA HEALTH CENTER MOBILE UNIT",
    "npi": "1053420844",
    "hcaiId": null,
    "businessName": "PETALUMA HEALTH CENTER, INC.",
    "contactEmail": null,
    "categoryName": "PRIMARY CARE CLINIC",
    "categoryCode": "COMTYC",
    "licenseStatus": "ACTIVE",
    "inService": true,
    "licenseNumber": "110000399",
    "licenseEffectiveDate": "11/25/2024",
    "licenseExpirationDate": "11/24/2025",
    "dataDate": "10/18/2025",
    "capacity": 0,
    "address": "5900 STATE FARM DR",
    "city": "ROHNERT PARK",
    "zip": "94928",
    "county": "SONOMA",
    "phone": null,
    "lat": 38.353887,
    "lng": -122.706567
  },
  {
    "id": "630026597",
    "name": "ROHNERT PARK COMMUNITY ACUPUNCTURE",
    "npi": "1053420844",
    "hcaiId": null,
    "businessName": "PETALUMA HEALTH CENTER, INC.",
    "contactEmail": null,
    "categoryName": "PRIMARY CARE CLINIC",
    "categoryCode": "COMTYC",
    "licenseStatus": "ACTIVE",
    "inService": true,
    "licenseNumber": "110000399",
    "licenseEffectiveDate": "11/25/2024",
    "licenseExpirationDate": "11/24/2025",
    "dataDate": "10/18/2025",
    "capacity": 0,
    "address": "6040 COMMERCE BLVD, SUITE 108",
    "city": "ROHNERT PARK",
    "zip": "94928",
    "county": "SONOMA",
    "phone": null,
    "lat": 38.35251,
    "lng": -122.7093435
  },
  {
    "id": "630015920",
    "name": "ROHNERT PARK HEALTH CENTER",
    "npi": "1669870739",
    "hcaiId": "306494133",
    "businessName": "PETALUMA HEALTH CENTER, INC.",
    "contactEmail": "PEDROT@PHEALTHCENTER.ORG",
    "categoryName": "PRIMARY CARE CLINIC",
    "categoryCode": "COMTYC",
    "licenseStatus": "ACTIVE",
    "inService": true,
    "licenseNumber": "550003132",
    "licenseEffectiveDate": "06/30/2025",
    "licenseExpirationDate": "06/29/2026",
    "dataDate": "10/18/2025",
    "capacity": 0,
    "address": "5900 STATE FARM DRIVE, SUITE 200",
    "city": "ROHNERT PARK",
    "zip": "94928",
    "county": "SONOMA",
    "phone": "(707) 326-7551",
    "lat": 38.353887,
    "lng": -122.706567
  },
  {
    "id": "630014399",
    "name": "SATELLITE HEALTHCARE ROHNERT PARK",
    "npi": "1164767836",
    "hcaiId": "306494123",
    "businessName": "SATELLITE HEALTHCARE ROHNERT PARK, LLC",
    "contactEmail": "GRUSSINGJ@SATELLITEHEALTH.COM",
    "categoryName": "CHRONIC DIALYSIS CLINIC",
    "categoryCode": "ESRD/CDC",
    "licenseStatus": "ACTIVE",
    "inService": true,
    "licenseNumber": "550002412",
    "licenseEffectiveDate": "04/14/2025",
    "licenseExpirationDate": "01/30/2026",
    "dataDate": "10/18/2025",
    "capacity": 25,
    "address": "6265 COMMERCE BLVD, SUITE 156",
    "city": "ROHNERT PARK",
    "zip": "94928",
    "county": "SONOMA",
    "phone": "(650) 464-1455",
    "lat": 38.349504,
    "lng": -122.711328
  },
  {
    "id": "110000847",
    "name": "SELECT PHYSICAL THERAPY",
    "npi": null,
    "hcaiId": null,
    "businessName": null,
    "contactEmail": "REGULATORY@SELECTMEDICAL.COM",
    "categoryName": "REHABILITATION CLINIC",
    "categoryCode": "OPT/SP",
    "licenseStatus": null,
    "inService": null,
    "licenseNumber": null,
    "licenseEffectiveDate": null,
    "licenseExpirationDate": null,
    "dataDate": "10/18/2025",
    "capacity": 0,
    "address": "1331 MEDICAL CENTER DR, SUITE A",
    "city": "ROHNERT PARK",
    "zip": "94928",
    "county": "SONOMA",
    "phone": "(707) 584-3433",
    "lat": 38.34729,
    "lng": -122.6841705
  },
  {
    "id": "110000810",
    "name": "SONOMA STATE UNIVERSITY STUDENT HEALTH CENTER",
    "npi": null,
    "hcaiId": null,
    "businessName": null,
    "contactEmail": null,
    "categoryName": "PRIMARY CARE CLINIC",
    "categoryCode": "COMTYC",
    "licenseStatus": null,
    "inService": null,
    "licenseNumber": null,
    "licenseEffectiveDate": null,
    "licenseExpirationDate": null,
    "dataDate": "10/18/2025",
    "capacity": 0,
    "address": "1801 E COTATI AVE",
    "city": "ROHNERT PARK",
    "zip": "94928",
    "county": "SONOMA",
    "phone": "(707) 664-2921",
    "lat": 38.339658,
    "lng": -122.673582
  }
]