[
  {
    "id": "630022295",
    "name": "ALLEGRO HOME HEALTH, INC.",
    "npi": null,
    "hcaiId": "406415779",
    "businessName": "ALLEGRO HOME HEALTH, INC",
    "contactEmail": "EDUARD.G@ALLEGROHOMEHEALTH.COM",
    "categoryName": "HOME HEALTH AGENCY",
    "categoryCode": "HHA",
    "licenseStatus": "ACTIVE",
    "inService": true,
    "licenseNumber": "550007806",
    "licenseEffectiveDate": "05/06/2025",
    "licenseExpirationDate": "01/06/2026",
    "dataDate": "10/18/2025",
    "capacity": 0,
    "address": "5 BON AIR RD, SUITE 223",
    "city": "LARKSPUR",
    "zip": "94939",
    "county": "MARIN",
    "phone": "(415) 508-4289",
    "lat": 37.94405199,
    "lng": -122.539883
  },
  {
    "id": "220000916",
    "name": "BY THE BAY HEALTH",
    "npi": "1922511807",
    "hcaiId": "406215602",
    "businessName": "INCARE HOME CARE, LLC",
    "contactEmail": "JAWILSON@BYTHEBAYHEALTH.ORG",
    "categoryName": "HOME HEALTH AGENCY",
    "categoryCode": "HHA",
    "licenseStatus": "ACTIVE",
    "inService": true,
    "licenseNumber": "220000357",
    "licenseEffectiveDate": "11/20/2024",
    "licenseExpirationDate": "11/19/2025",
    "dataDate": "10/18/2025",
    "capacity": 0,
    "address": "17 E SIR FRANCIS DRAKE BLVD, SUITE 212",
    "city": "LARKSPUR",
    "zip": "94939",
    "county": "MARIN",
    "phone": "(415) 720-1278",
    "lat": 37.945548,
    "lng": -122.513013
  },
  {
    "id": "630011432",
    "name": "BY THE BAY HEALTH",
    "npi": null,
    "hcaiId": "406214049",
    "businessName": "BY THE BAY HEALTH",
    "contactEmail": "SKELLYWINGARD@BYTHEBAYHEALTH.ORG",
    "categoryName": "HOSPICE",
    "categoryCode": "HOSPICE",
    "licenseStatus": "ACTIVE",
    "inService": true,
    "licenseNumber": "550001192",
    "licenseEffectiveDate": "12/05/2023",
    "licenseExpirationDate": "12/04/2025",
    "dataDate": "10/18/2025",
    "capacity": 0,
    "address": "17 E SIR FRANCIS DRAKE BLVD",
    "city": "LARKSPUR",
    "zip": "94939",
    "county": "MARIN",
    "phone": "(415) 927-2273",
    "lat": 37.945548,
    "lng": -122.513013
  },
  {
    "id": "630027008",
    "name": "MARIN COMMUNITY CLINIC - LARKSPUR",
    "npi": "1912091018",
    "hcaiId": null,
    "businessName": "MARIN COMMUNITY CLINIC",
    "contactEmail": null,
    "categoryName": "PRIMARY CARE CLINIC",
    "categoryCode": "COMTYC",
    "licenseStatus": "ACTIVE",
    "inService": true,
    "licenseNumber": "110000366",
    "licenseEffectiveDate": "12/01/2024",
    "licenseExpirationDate": "11/30/2025",
    "dataDate": "10/18/2025",
    "capacity": 0,
    "address": "5 BON AIR RD, SUITE 117",
    "city": "LARKSPUR",
    "zip": "94939",
    "county": "MARIN",
    "phone": null,
    "lat": 37.943802,
    "lng": -122.540031
  }
]