[
  {
    "id": "630013641",
    "name": "LIFELONG MEDICAL CARE MARIN ADULT DAY HEALTH CENTER",
    "npi": "1487814349",
    "hcaiId": null,
    "businessName": null,
    "contactEmail": null,
    "categoryName": "PRIMARY CARE CLINIC",
    "categoryCode": "FQHC",
    "licenseStatus": null,
    "inService": null,
    "licenseNumber": null,
    "licenseEffectiveDate": null,
    "licenseExpirationDate": null,
    "dataDate": "10/18/2025",
    "capacity": 0,
    "address": "1905 NOVATO BLVD",
    "city": "NOVATO",
    "zip": "94947",
    "county": "MARIN",
    "phone": "(415) 897-6884",
    "lat": 38.109888,
    "lng": -122.5879605
  },
  {
    "id": "630005761",
    "name": "MED-X MOBILE",
    "npi": null,
    "hcaiId": null,
    "businessName": null,
    "contactEmail": null,
    "categoryName": "OTHER",
    "categoryCode": "UNLICEN",
    "licenseStatus": null,
    "inService": null,
    "licenseNumber": null,
    "licenseEffectiveDate": null,
    "licenseExpirationDate": null,
    "dataDate": "10/18/2025",
    "capacity": 0,
    "address": "1364 YUKON WAY, APT 50",
    "city": "NOVATO",
    "zip": "94947",
    "county": "MARIN",
    "phone": null,
    "lat": 38.0952,
    "lng": -122.5678815
  },
  {
    "id": "010000940",
    "name": "NOVATO HEALTHCARE CENTER",
    "npi": "1417152570",
    "hcaiId": "206210969",
    "businessName": "NOVATO HEALTHCARE CENTER, LLC",
    "contactEmail": "ADMINISTRATOR@NOVATOHC.COM",
    "categoryName": "SKILLED NURSING FACILITY",
    "categoryCode": "SNF",
    "licenseStatus": "ACTIVE",
    "inService": true,
    "licenseNumber": "010000355",
    "licenseEffectiveDate": "01/01/2025",
    "licenseExpirationDate": "12/31/2025",
    "dataDate": "10/18/2025",
    "capacity": 181,
    "address": "1565 HILL RD",
    "city": "NOVATO",
    "zip": "94947",
    "county": "MARIN",
    "phone": "(415) 897-6161",
    "lat": 38.095974,
    "lng": -122.576454
  },
  {
    "id": "010001031",
    "name": "STONEHAVEN",
    "npi": "1770740623",
    "hcaiId": null,
    "businessName": "LIFEHOUSE, INC.",
    "contactEmail": "AAGUILAR@LIFEHOUSEAGENCY.ORG",
    "categoryName": "INTERMEDIATE CARE FACILITY-DD/H/N/CN/IID",
    "categoryCode": "ICFDDH",
    "licenseStatus": "ACTIVE",
    "inService": true,
    "licenseNumber": "010000407",
    "licenseEffectiveDate": "11/10/2024",
    "licenseExpirationDate": "11/09/2025",
    "dataDate": "10/18/2025",
    "capacity": 6,
    "address": "2 STONEHAVEN CT",
    "city": "NOVATO",
    "zip": "94947",
    "county": "MARIN",
    "phone": "(415) 686-9643",
    "lat": 38.112264,
    "lng": -122.608053
  }
]