[
  {
    "id": "630012638",
    "name": "BRIGHTSTAR CARE OF SAN FRANCISCO & MARIN",
    "npi": null,
    "hcaiId": "406214050",
    "businessName": "OK LTD LLC",
    "contactEmail": "CHRISTINE.OKEEFE@BRIGHTSTARCARE.COM",
    "categoryName": "HOME HEALTH AGENCY",
    "categoryCode": "HHA",
    "licenseStatus": "ACTIVE",
    "inService": true,
    "licenseNumber": "550001360",
    "licenseEffectiveDate": "11/24/2024",
    "licenseExpirationDate": "11/23/2025",
    "dataDate": "10/18/2025",
    "capacity": 0,
    "address": "150 SHORELINE HWY, SUITE B 28",
    "city": "MILL VALLEY",
    "zip": "94941",
    "county": "MARIN",
    "phone": "(415) 332-3300",
    "lat": 37.881531,
    "lng": -122.5182015
  },
  {
    "id": "110001116",
    "name": "JANICE TOMITA, P.T. AND ASSOCIATES",
    "npi": null,
    "hcaiId": null,
    "businessName": null,
    "contactEmail": null,
    "categoryName": "OTHER",
    "categoryCode": "UNLICEN",
    "licenseStatus": null,
    "inService": null,
    "licenseNumber": null,
    "licenseEffectiveDate": null,
    "licenseExpirationDate": null,
    "dataDate": "10/18/2025",
    "capacity": 0,
    "address": "591 REDWOOD HIGHWAY, SUITE 5260",
    "city": "MILL VALLEY",
    "zip": "94941",
    "county": "MARIN",
    "phone": "(415) 381-0541",
    "lat": 37.88935362,
    "lng": -122.5175507
  },
  {
    "id": "010001007",
    "name": "THE REDWOODS, A COMMUNITY OF SENIORS",
    "npi": "1205809381",
    "hcaiId": "206210916",
    "businessName": "THE REDWOODS, A COMMUNITY OF SENIORS",
    "contactEmail": "EDAVIDENKO@THEREDWOODS.ORG",
    "categoryName": "SKILLED NURSING FACILITY",
    "categoryCode": "SNF",
    "licenseStatus": "ACTIVE",
    "inService": true,
    "licenseNumber": "010000390",
    "licenseEffectiveDate": "04/01/2025",
    "licenseExpirationDate": "03/31/2026",
    "dataDate": "10/18/2025",
    "capacity": 58,
    "address": "40 CAMINO ALTO",
    "city": "MILL VALLEY",
    "zip": "94941",
    "county": "MARIN",
    "phone": "(415) 383-2741",
    "lat": 37.893933,
    "lng": -122.529123
  }
]