[
  {
    "id": "010001047",
    "name": "HEART OF HUMANITY HEALTH SERVICES",
    "npi": null,
    "hcaiId": "406214031",
    "businessName": "HEART OF HUMANITY HEALTH SERVICES, INC.",
    "contactEmail": "VMONTOYA@HEARTOFHUMANITY.COM",
    "categoryName": "HOME HEALTH AGENCY",
    "categoryCode": "HHA",
    "licenseStatus": "ACTIVE",
    "inService": true,
    "licenseNumber": "010000420",
    "licenseEffectiveDate": "12/08/2024",
    "licenseExpirationDate": "12/07/2025",
    "dataDate": "10/18/2025",
    "capacity": 0,
    "address": "1400 GRANT AVE, SUITE 203",
    "city": "NOVATO",
    "zip": "94945",
    "county": "MARIN",
    "phone": "(415) 898-4278",
    "lat": 38.108844,
    "lng": -122.575266
  },
  {
    "id": "010001004",
    "name": "KAISER FOUNDATION HOSPITAL HOME HEALTH-NOVATO",
    "npi": null,
    "hcaiId": "406210928",
    "businessName": "KAISER FOUNDATION HOSPITALS",
    "contactEmail": "ERIN.L.BROWN@KP.ORG",
    "categoryName": "HOME HEALTH AGENCY",
    "categoryCode": "HHA",
    "licenseStatus": "ACTIVE",
    "inService": true,
    "licenseNumber": "010000388",
    "licenseEffectiveDate": "12/01/2024",
    "licenseExpirationDate": "11/30/2025",
    "dataDate": "10/18/2025",
    "capacity": 0,
    "address": "7200 REDWOOD BLVD, SUITE 200",
    "city": "NOVATO",
    "zip": "94945",
    "county": "MARIN",
    "phone": "(415) 893-4132",
    "lat": 38.10321,
    "lng": -122.569641
  },
  {
    "id": "110001203",
    "name": "MARIN COMMUNITY CLINIC",
    "npi": "1003900101",
    "hcaiId": "306214047",
    "businessName": "MARIN COMMUNITY CLINIC",
    "contactEmail": "SWIEBERS@MARINCLINIC.ORG",
    "categoryName": "PRIMARY CARE CLINIC",
    "categoryCode": "COMTYC",
    "licenseStatus": "ACTIVE",
    "inService": true,
    "licenseNumber": "110000366",
    "licenseEffectiveDate": "12/01/2024",
    "licenseExpirationDate": "11/30/2025",
    "dataDate": "10/18/2025",
    "capacity": 0,
    "address": "6100 REDWOOD BLVD",
    "city": "NOVATO",
    "zip": "94945",
    "county": "MARIN",
    "phone": "(415) 798-3107",
    "lat": 38.096028,
    "lng": -122.56236
  },
  {
    "id": "630017006",
    "name": "MARIN COMMUNITY CLINIC - NOVATO",
    "npi": "1881057115",
    "hcaiId": null,
    "businessName": null,
    "contactEmail": null,
    "categoryName": "PRIMARY CARE CLINIC",
    "categoryCode": "COMTYC",
    "licenseStatus": null,
    "inService": null,
    "licenseNumber": null,
    "licenseEffectiveDate": null,
    "licenseExpirationDate": null,
    "dataDate": "10/18/2025",
    "capacity": 0,
    "address": "6090 REDWOOD BLVD, SUITE G",
    "city": "NOVATO",
    "zip": "94945",
    "county": "MARIN",
    "phone": "(415) 448-1500",
    "lat": 38.095779,
    "lng": -122.562727
  },
  {
    "id": "110000965",
    "name": "MARIN COMMUNITY CLINICS - NOVATO SOUTH",
    "npi": "1912091018",
    "hcaiId": "306210750",
    "businessName": "MARIN COMMUNITY CLINIC",
    "contactEmail": "KSONNENBERG@MARINCLINIC.ORG",
    "categoryName": "PRIMARY CARE CLINIC",
    "categoryCode": "COMTYC",
    "licenseStatus": "ACTIVE",
    "inService": true,
    "licenseNumber": "110000366",
    "licenseEffectiveDate": "12/01/2024",
    "licenseExpirationDate": "11/30/2025",
    "dataDate": "10/18/2025",
    "capacity": 0,
    "address": "6090 REDWOOD BLVD",
    "city": "NOVATO",
    "zip": "94945",
    "county": "MARIN",
    "phone": "(415) 755-2507",
    "lat": 38.096001,
    "lng": -122.56236
  },
  {
    "id": "110001234",
    "name": "MARIN COSMETIC SURGERY CENTER",
    "npi": "1184651457",
    "hcaiId": null,
    "businessName": null,
    "contactEmail": null,
    "categoryName": "SURGICAL CLINIC",
    "categoryCode": "ASC",
    "licenseStatus": null,
    "inService": null,
    "licenseNumber": null,
    "licenseEffectiveDate": null,
    "licenseExpirationDate": null,
    "dataDate": "10/18/2025",
    "capacity": 0,
    "address": "165 ROWLAND WAY, SUITE 302",
    "city": "NOVATO",
    "zip": "94945",
    "county": "MARIN",
    "phone": "(415) 898-4161",
    "lat": 38.098998,
    "lng": -122.5606905
  },
  {
    "id": "110001132",
    "name": "MARIN PREGNANCY CLINIC",
    "npi": "1013100023",
    "hcaiId": "306214033",
    "businessName": "MARIN PREGNANCY CLINIC",
    "contactEmail": "INFO@MARINPREGNANCYCLINIC.ORG",
    "categoryName": "PRIMARY CARE CLINIC",
    "categoryCode": "COMTYC",
    "licenseStatus": "ACTIVE",
    "inService": true,
    "licenseNumber": "110000429",
    "licenseEffectiveDate": "04/17/2025",
    "licenseExpirationDate": "04/16/2026",
    "dataDate": "10/18/2025",
    "capacity": 0,
    "address": "1320A GRANT AVE",
    "city": "NOVATO",
    "zip": "94945",
    "county": "MARIN",
    "phone": "(415) 892-0558",
    "lat": 38.10835955,
    "lng": -122.5739143
  },
  {
    "id": "630011751",
    "name": "NORTH BAY REGIONAL SURGERY CENTER, LLC",
    "npi": "1346425733",
    "hcaiId": null,
    "businessName": null,
    "contactEmail": "SHOCKLD@SUTTERHEALTH.ORG",
    "categoryName": "SURGICAL CLINIC",
    "categoryCode": "ASC",
    "licenseStatus": null,
    "inService": null,
    "licenseNumber": null,
    "licenseEffectiveDate": null,
    "licenseExpirationDate": null,
    "dataDate": "10/18/2025",
    "capacity": 0,
    "address": "100 ROWLAND WAY, SUITE 145",
    "city": "NOVATO",
    "zip": "94945",
    "county": "MARIN",
    "phone": "(415) 892-1920",
    "lat": 38.09709,
    "lng": -122.558139
  },
  {
    "id": "110000982",
    "name": "NOVATO COMMUNITY HOSPITAL",
    "npi": "1104059153",
    "hcaiId": "106214034",
    "businessName": "SUTTER BAY HOSPITALS",
    "contactEmail": "NCHADMIN@SUTTERHEALTH.ORG",
    "categoryName": "GENERAL ACUTE CARE HOSPITAL",
    "categoryCode": "GACH",
    "licenseStatus": "ACTIVE",
    "inService": true,
    "licenseNumber": "110000375",
    "licenseEffectiveDate": "01/01/2025",
    "licenseExpirationDate": "12/31/2025",
    "dataDate": "10/18/2025",
    "capacity": 47,
    "address": "180 ROWLAND WAY",
    "city": "NOVATO",
    "zip": "94945",
    "county": "MARIN",
    "phone": "(415) 209-1300",
    "lat": 38.099169,
    "lng": -122.560011
  },
  {
    "id": "010000956",
    "name": "SUTTER CARE AT HOME",
    "npi": "1265461024",
    "hcaiId": "406214041",
    "businessName": "SUTTER VISITING NURSE ASSOCIATION AND HOSPICE",
    "contactEmail": "SVNAHREGULATORY@SUTTERHEALTH.ORG",
    "categoryName": "HOME HEALTH AGENCY",
    "categoryCode": "HHA",
    "licenseStatus": "ACTIVE",
    "inService": true,
    "licenseNumber": "010000362",
    "licenseEffectiveDate": "11/01/2025",
    "licenseExpirationDate": "10/31/2026",
    "dataDate": "10/18/2025",
    "capacity": 0,
    "address": "100 ROWLAND WAY, SUITE 210",
    "city": "NOVATO",
    "zip": "94945",
    "county": "MARIN",
    "phone": "(415) 209-7700",
    "lat": 38.09709,
    "lng": -122.558139
  }
]