[
  {
    "id": "630021268",
    "name": "ANCHOR HEALTH LLC",
    "npi": "1679180673",
    "hcaiId": "406213469",
    "businessName": "ANCHOR HEALTH LLC",
    "contactEmail": "CRISTIKEITH@ANCHORHPC.COM",
    "categoryName": "HOSPICE",
    "categoryCode": "HOSPICE",
    "licenseStatus": "ACTIVE",
    "inService": true,
    "licenseNumber": "550006165",
    "licenseEffectiveDate": "09/10/2025",
    "licenseExpirationDate": "04/05/2027",
    "dataDate": "10/18/2025",
    "capacity": 0,
    "address": "1435 N MCDOWELL BLVD, SUITE 210",
    "city": "PETALUMA",
    "zip": "94954",
    "county": "SONOMA",
    "phone": "(415) 598-0944",
    "lat": 38.27796601,
    "lng": -122.672773
  },
  {
    "id": "630025808",
    "name": "CASA GRANDE HIGH SCHOOL-BASED HEALTH CENTER (SBHC)",
    "npi": "1053420844",
    "hcaiId": null,
    "businessName": "PETALUMA HEALTH CENTER, INC.",
    "contactEmail": null,
    "categoryName": "PRIMARY CARE CLINIC",
    "categoryCode": "FQHC/COMTYC",
    "licenseStatus": "ACTIVE",
    "inService": true,
    "licenseNumber": "110000399",
    "licenseEffectiveDate": "11/25/2024",
    "licenseExpirationDate": "11/24/2025",
    "dataDate": "10/18/2025",
    "capacity": 0,
    "address": "333 CASA GRANDE RD",
    "city": "PETALUMA",
    "zip": "94954",
    "county": "SONOMA",
    "phone": null,
    "lat": 38.24134066,
    "lng": -122.5978356
  },
  {
    "id": "630017101",
    "name": "CONTINUUM CARE NORTH BAY, LLC",
    "npi": "1649780685",
    "hcaiId": "406491350",
    "businessName": "CONTINUUM CARE NORTH BAY LLC",
    "contactEmail": "INFO@CONTINUUMHOSPICE.COM",
    "categoryName": "HOSPICE",
    "categoryCode": "HOSPICE",
    "licenseStatus": "ACTIVE",
    "inService": true,
    "licenseNumber": "550004242",
    "licenseEffectiveDate": "04/25/2024",
    "licenseExpirationDate": "04/24/2026",
    "dataDate": "10/18/2025",
    "capacity": 0,
    "address": "5401 OLD REDWOOD HWY, SUITE 110",
    "city": "PETALUMA",
    "zip": "94954",
    "county": "SONOMA",
    "phone": "(707) 540-9838",
    "lat": 38.28060584,
    "lng": -122.6682758
  },
  {
    "id": "630021882",
    "name": "CONTINUUM HOSPICE - NORTH BAY",
    "npi": "1467859900",
    "hcaiId": null,
    "businessName": "CONTINUUM CARE HOSPICE LLC",
    "contactEmail": "JESSEMOORE@CAREHOSPICE.COM",
    "categoryName": "HOSPICE",
    "categoryCode": "HOSPICE",
    "licenseStatus": "ACTIVE",
    "inService": true,
    "licenseNumber": "550003034",
    "licenseEffectiveDate": "04/09/2025",
    "licenseExpirationDate": "04/08/2027",
    "dataDate": "10/18/2025",
    "capacity": 0,
    "address": "5401 OLD REDWOOD HWY, SUITE 110",
    "city": "PETALUMA",
    "zip": "94954",
    "county": "SONOMA",
    "phone": "(857) 331-6271",
    "lat": 38.28060584,
    "lng": -122.6682758
  },
  {
    "id": "110001151",
    "name": "FMC OF PETALUMA",
    "npi": "1396857199",
    "hcaiId": "306492308",
    "businessName": "BIO-MEDICAL APPLICATIONS OF CALIFORNIA, INC.",
    "contactEmail": "CLINIC1677@FMC-NA.COM",
    "categoryName": "CHRONIC DIALYSIS CLINIC",
    "categoryCode": "ESRD/CDC",
    "licenseStatus": "ACTIVE",
    "inService": true,
    "licenseNumber": "110000440",
    "licenseEffectiveDate": "11/01/2024",
    "licenseExpirationDate": "10/31/2025",
    "dataDate": "10/18/2025",
    "capacity": 17,
    "address": "715 SOUTHPOINT BLVD, SUITE A",
    "city": "PETALUMA",
    "zip": "94954",
    "county": "SONOMA",
    "phone": "(707) 765-9379",
    "lat": 38.257173,
    "lng": -122.645637
  },
  {
    "id": "110000524",
    "name": "HAND REHAB. SERVICES OF THE NORTH BAY",
    "npi": null,
    "hcaiId": null,
    "businessName": null,
    "contactEmail": null,
    "categoryName": "REHABILITATION CLINIC",
    "categoryCode": "REHABC",
    "licenseStatus": null,
    "inService": null,
    "licenseNumber": null,
    "licenseEffectiveDate": null,
    "licenseExpirationDate": null,
    "dataDate": "10/18/2025",
    "capacity": 0,
    "address": "181 LYNCH CREEK WAY, SUITE 103",
    "city": "PETALUMA",
    "zip": "94954",
    "county": "SONOMA",
    "phone": "(707) 762-2660",
    "lat": 38.25135,
    "lng": -122.63517
  },
  {
    "id": "630026598",
    "name": "PETALUMA EYE CARE CENTER",
    "npi": "1669870739",
    "hcaiId": null,
    "businessName": "PETALUMA HEALTH CENTER, INC.",
    "contactEmail": null,
    "categoryName": "PRIMARY CARE CLINIC",
    "categoryCode": "COMTYC",
    "licenseStatus": "ACTIVE",
    "inService": true,
    "licenseNumber": "550003132",
    "licenseEffectiveDate": "06/30/2025",
    "licenseExpirationDate": "06/29/2026",
    "dataDate": "10/18/2025",
    "capacity": 0,
    "address": "1225 N MCDOWELL BLVD",
    "city": "PETALUMA",
    "zip": "94954",
    "county": "SONOMA",
    "phone": null,
    "lat": 38.269971,
    "lng": -122.66181
  },
  {
    "id": "110000812",
    "name": "PETALUMA HEALTH CENTER",
    "npi": "1588656268",
    "hcaiId": "306494066",
    "businessName": "PETALUMA HEALTH CENTER, INC.",
    "contactEmail": "XRAMOS@PHEALTHCENTER.ORG",
    "categoryName": "PRIMARY CARE CLINIC",
    "categoryCode": "COMTYC",
    "licenseStatus": "ACTIVE",
    "inService": true,
    "licenseNumber": "110000313",
    "licenseEffectiveDate": "01/07/2025",
    "licenseExpirationDate": "01/06/2026",
    "dataDate": "10/18/2025",
    "capacity": 0,
    "address": "1179 N MCDOWELL BLVD",
    "city": "PETALUMA",
    "zip": "94954",
    "county": "SONOMA",
    "phone": "(707) 559-7500",
    "lat": 38.268342,
    "lng": -122.660478
  },
  {
    "id": "110000040",
    "name": "PETALUMA VALLEY HOSPITAL",
    "npi": "1235162645",
    "hcaiId": "106491001",
    "businessName": "NORCAL HEALTHCONNECT, LLC",
    "contactEmail": "AARON.THORNE@PROVIDENCE.ORG",
    "categoryName": "GENERAL ACUTE CARE HOSPITAL",
    "categoryCode": "GACH",
    "licenseStatus": "ACTIVE",
    "inService": true,
    "licenseNumber": "110000001",
    "licenseEffectiveDate": "05/01/2025",
    "licenseExpirationDate": "01/18/2026",
    "dataDate": "10/18/2025",
    "capacity": 80,
    "address": "400 N MCDOWELL BLVD.",
    "city": "PETALUMA",
    "zip": "94954",
    "county": "SONOMA",
    "phone": "(805) 971-0155",
    "lat": 38.254806,
    "lng": -122.6318265
  },
  {
    "id": "630025813",
    "name": "SANTA ROSA JUNIOR COLLEGE - PETALUMA CAMPUS - STUDENT HEALTH SERVICES CLINIC - RICHARD CALL BUILDING",
    "npi": "1588656268",
    "hcaiId": null,
    "businessName": "PETALUMA HEALTH CENTER, INC.",
    "contactEmail": null,
    "categoryName": "PRIMARY CARE CLINIC",
    "categoryCode": "COMTYC",
    "licenseStatus": "ACTIVE",
    "inService": true,
    "licenseNumber": "110000313",
    "licenseEffectiveDate": "01/07/2025",
    "licenseExpirationDate": "01/06/2026",
    "dataDate": "10/18/2025",
    "capacity": 0,
    "address": "680 SONOMA MOUNTAIN PKWY",
    "city": "PETALUMA",
    "zip": "94954",
    "county": "SONOMA",
    "phone": null,
    "lat": 38.268036,
    "lng": -122.634585
  },
  {
    "id": "010000001",
    "name": "VINEYARD POST ACUTE",
    "npi": "1356883805",
    "hcaiId": "206492251",
    "businessName": "PETALUMAIDENCE OPCO, LLC",
    "contactEmail": "SHANE.BLOOD@PACS.COM",
    "categoryName": "SKILLED NURSING FACILITY",
    "categoryCode": "SNF",
    "licenseStatus": "ACTIVE",
    "inService": true,
    "licenseNumber": "010000102",
    "licenseEffectiveDate": "11/05/2024",
    "licenseExpirationDate": "11/04/2025",
    "dataDate": "10/18/2025",
    "capacity": 99,
    "address": "101 MONROE ST",
    "city": "PETALUMA",
    "zip": "94954",
    "county": "SONOMA",
    "phone": "(707) 763-4109",
    "lat": 38.256552,
    "lng": -122.628024
  }
]