[
  {
    "id": "020001047",
    "name": "ACCENTCARE HOME HEALTH - PETALUMA  BRANCH",
    "npi": "1972559961",
    "hcaiId": "406492301",
    "businessName": "ACCENTCARE HOME HEALTH OF CALIFORNIA, INC.",
    "contactEmail": null,
    "categoryName": "HOME HEALTH AGENCY",
    "categoryCode": "HHA",
    "licenseStatus": "ACTIVE",
    "inService": true,
    "licenseNumber": "020000285",
    "licenseEffectiveDate": "12/01/2024",
    "licenseExpirationDate": "11/30/2025",
    "dataDate": "10/18/2025",
    "capacity": 0,
    "address": "140 2ND ST, SUITE 320",
    "city": "PETALUMA",
    "zip": "94952",
    "county": "SONOMA",
    "phone": "(707) 782-1900",
    "lat": 38.233269,
    "lng": -122.637393
  },
  {
    "id": "010000079",
    "name": "HILLCREST POST ACUTE",
    "npi": "1861845836",
    "hcaiId": "206491032",
    "businessName": "TRESTLES HOLDINGS LLC",
    "contactEmail": "CWILBUR@WESTHARBORHC.COM",
    "categoryName": "SKILLED NURSING FACILITY",
    "categoryCode": "SNF",
    "licenseStatus": "ACTIVE",
    "inService": true,
    "licenseNumber": "010000053",
    "licenseEffectiveDate": "11/10/2024",
    "licenseExpirationDate": "11/09/2025",
    "dataDate": "10/18/2025",
    "capacity": 59,
    "address": "450 HAYES LN",
    "city": "PETALUMA",
    "zip": "94952",
    "county": "SONOMA",
    "phone": "(707) 778-8686",
    "lat": 38.22237,
    "lng": -122.6478825
  },
  {
    "id": "630025810",
    "name": "MARY ISAAK CENTER CLINIC",
    "npi": "1588656268",
    "hcaiId": null,
    "businessName": "PETALUMA HEALTH CENTER, INC.",
    "contactEmail": null,
    "categoryName": "PRIMARY CARE CLINIC",
    "categoryCode": "FQHC/COMTYC",
    "licenseStatus": "ACTIVE",
    "inService": true,
    "licenseNumber": "110000313",
    "licenseEffectiveDate": "01/07/2025",
    "licenseExpirationDate": "01/06/2026",
    "dataDate": "10/18/2025",
    "capacity": 0,
    "address": "900 HOPPER ST",
    "city": "PETALUMA",
    "zip": "94952",
    "county": "SONOMA",
    "phone": null,
    "lat": 38.233629,
    "lng": -122.6232405
  },
  {
    "id": "010000028",
    "name": "NORTH BAY POST ACUTE",
    "npi": "1104413517",
    "hcaiId": "206490961",
    "businessName": "NORTH BAY POST ACUTE, LLC",
    "contactEmail": "NATHAN.NOE@NORTHBAYPOSTACUTE.COM",
    "categoryName": "SKILLED NURSING FACILITY",
    "categoryCode": "SNF",
    "licenseStatus": "ACTIVE",
    "inService": true,
    "licenseNumber": "010000018",
    "licenseEffectiveDate": "11/01/2025",
    "licenseExpirationDate": "10/31/2026",
    "dataDate": "10/18/2025",
    "capacity": 98,
    "address": "300 DOUGLAS ST",
    "city": "PETALUMA",
    "zip": "94952",
    "county": "SONOMA",
    "phone": "(707) 763-6887",
    "lat": 38.228193,
    "lng": -122.6447955
  },
  {
    "id": "010000052",
    "name": "PETALUMA POST-ACUTE REHAB",
    "npi": "1205316833",
    "hcaiId": "206491035",
    "businessName": "APTB, LLC",
    "contactEmail": "HALEYM@ASPENSKILLEDHEALTH.COM",
    "categoryName": "SKILLED NURSING FACILITY",
    "categoryCode": "SNF",
    "licenseStatus": "ACTIVE",
    "inService": true,
    "licenseNumber": "010000056",
    "licenseEffectiveDate": "03/26/2025",
    "licenseExpirationDate": "03/25/2026",
    "dataDate": "10/18/2025",
    "capacity": 90,
    "address": "1115 B ST",
    "city": "PETALUMA",
    "zip": "94952",
    "county": "SONOMA",
    "phone": "(707) 765-3030",
    "lat": 38.222226,
    "lng": -122.645277
  },
  {
    "id": "100001725",
    "name": "PROVIDENCE AT HOME WITH COMPASSUS HOSPICE CARE SONOMA COUNTY",
    "npi": null,
    "hcaiId": "406494059",
    "businessName": "CP SONOMA N-CA HOSPICE, LLC",
    "contactEmail": "SHAYNA.STILES@PROVIDENCE.ORG",
    "categoryName": "HOSPICE",
    "categoryCode": "HOSPICE",
    "licenseStatus": "ACTIVE",
    "inService": true,
    "licenseNumber": "100000735",
    "licenseEffectiveDate": "10/17/2025",
    "licenseExpirationDate": "02/14/2026",
    "dataDate": "10/18/2025",
    "capacity": 0,
    "address": "416 PAYRAN ST",
    "city": "PETALUMA",
    "zip": "94952",
    "county": "SONOMA",
    "phone": "(707) 778-6242",
    "lat": 38.238354,
    "lng": -122.6268315
  },
  {
    "id": "010000005",
    "name": "RIDGEWAY POST ACUTE",
    "npi": "1669188363",
    "hcaiId": "206490931",
    "businessName": "PETALUMA SNF HEALTHCARE, LLC",
    "contactEmail": "RJ.HUBERT@SANTAROSAPOSTACUTE.COM",
    "categoryName": "SKILLED NURSING FACILITY",
    "categoryCode": "SNF",
    "licenseStatus": "ACTIVE",
    "inService": true,
    "licenseNumber": "010000010",
    "licenseEffectiveDate": "03/28/2025",
    "licenseExpirationDate": "03/27/2026",
    "dataDate": "10/18/2025",
    "capacity": 79,
    "address": "523 HAYES LN",
    "city": "PETALUMA",
    "zip": "94952",
    "county": "SONOMA",
    "phone": "(707) 763-2457",
    "lat": 38.22156,
    "lng": -122.646834
  },
  {
    "id": "630025811",
    "name": "SAN ANTONIO HIGH SCHOOL-BASED HEALTH CENTER",
    "npi": "1053420844",
    "hcaiId": null,
    "businessName": "PETALUMA HEALTH CENTER, INC.",
    "contactEmail": null,
    "categoryName": "PRIMARY CARE CLINIC",
    "categoryCode": "FQHC/COMTYC",
    "licenseStatus": "ACTIVE",
    "inService": true,
    "licenseNumber": "110000399",
    "licenseEffectiveDate": "11/25/2024",
    "licenseExpirationDate": "11/24/2025",
    "dataDate": "10/18/2025",
    "capacity": 0,
    "address": "500 VALLEJO ST",
    "city": "PETALUMA",
    "zip": "94952",
    "county": "SONOMA",
    "phone": null,
    "lat": 38.237625,
    "lng": -122.6286315
  }
]