[
  {
    "id": "630016918",
    "name": "AESTHETX SURGERY CENTER, LLC",
    "npi": "1598282196",
    "hcaiId": null,
    "businessName": null,
    "contactEmail": null,
    "categoryName": "SURGICAL CLINIC",
    "categoryCode": "ASC",
    "licenseStatus": null,
    "inService": null,
    "licenseNumber": null,
    "licenseEffectiveDate": null,
    "licenseExpirationDate": null,
    "dataDate": "10/18/2025",
    "capacity": 0,
    "address": "3803 S. BASCOM AVENUE, SUITE 101",
    "city": "CAMPBELL",
    "zip": "95008",
    "county": "SANTA CLARA",
    "phone": "(408) 559-7177",
    "lat": 37.259316,
    "lng": -121.94793
  },
  {
    "id": "020001174",
    "name": "AMEDISYS HOME HEALTH CARE",
    "npi": "1538228218",
    "hcaiId": "406434210",
    "businessName": "TENDER LOVING CARE HEALTH CARE SERVICES WESTERN, LLC",
    "contactEmail": "GRACE.CARREON@AMEDISYS.COM",
    "categoryName": "HOME HEALTH AGENCY",
    "categoryCode": "HHA",
    "licenseStatus": "ACTIVE",
    "inService": true,
    "licenseNumber": "550001171",
    "licenseEffectiveDate": "04/23/2025",
    "licenseExpirationDate": "04/22/2026",
    "dataDate": "10/18/2025",
    "capacity": 0,
    "address": "1700 WINCHESTER BOULEVARD, SUITE 102",
    "city": "CAMPBELL",
    "zip": "95008",
    "county": "SANTA CLARA",
    "phone": "(408) 370-3927",
    "lat": 37.292571,
    "lng": -121.9493115
  },
  {
    "id": "630012360",
    "name": "BAYHEALTH, INC.",
    "npi": "1851520621",
    "hcaiId": "406434224",
    "businessName": "BAYHEALTH, INC.",
    "contactEmail": "MICHELLEL@BAYHCA.COM",
    "categoryName": "HOME HEALTH AGENCY",
    "categoryCode": "HHA",
    "licenseStatus": "ACTIVE",
    "inService": true,
    "licenseNumber": "550001623",
    "licenseEffectiveDate": "11/06/2024",
    "licenseExpirationDate": "11/05/2025",
    "dataDate": "10/18/2025",
    "capacity": 0,
    "address": "30 UNION AVE, SUITE 126",
    "city": "CAMPBELL",
    "zip": "95008",
    "county": "SANTA CLARA",
    "phone": "(408) 689-8132",
    "lat": 37.28655167,
    "lng": -121.9353262
  },
  {
    "id": "070000046",
    "name": "BAYWOOD POST-ACUTE",
    "npi": "1477538114",
    "hcaiId": "206430767",
    "businessName": "ALPINE LAKE HOLDINGS, LLC",
    "contactEmail": "VANNESA.CAHUA@LINKSHEALTH.COM",
    "categoryName": "SKILLED NURSING FACILITY",
    "categoryCode": "SNF",
    "licenseStatus": "ACTIVE",
    "inService": true,
    "licenseNumber": "070000041",
    "licenseEffectiveDate": "10/01/2025",
    "licenseExpirationDate": "11/22/2025",
    "dataDate": "10/18/2025",
    "capacity": 45,
    "address": "238 VIRGINIA AVE",
    "city": "CAMPBELL",
    "zip": "95008",
    "county": "SANTA CLARA",
    "phone": "(408) 379-8114",
    "lat": 37.283265,
    "lng": -121.961583
  },
  {
    "id": "070000031",
    "name": "CAMDEN POSTACUTE CARE, INC.",
    "npi": "1013327543",
    "hcaiId": "206430730",
    "businessName": "CAMDEN POSTACUTE CARE, INC.",
    "contactEmail": "ADMINISTRATOR@CAMDENPOSTACUTE.COM",
    "categoryName": "SKILLED NURSING FACILITY",
    "categoryCode": "SNF",
    "licenseStatus": "ACTIVE",
    "inService": true,
    "licenseNumber": "070000020",
    "licenseEffectiveDate": "09/26/2025",
    "licenseExpirationDate": "09/25/2026",
    "dataDate": "10/18/2025",
    "capacity": 60,
    "address": "1331 CAMDEN AVE",
    "city": "CAMPBELL",
    "zip": "95008",
    "county": "SANTA CLARA",
    "phone": "(408) 377-4030",
    "lat": 37.268946,
    "lng": -121.9452705
  },
  {
    "id": "070000766",
    "name": "CHILDREN'S HEALTHCARE ORGANIZATION OF NORTHERN CALIFORNIA - PEDIATRIC HOSPITAL",
    "npi": null,
    "hcaiId": "106434051",
    "businessName": "CHILDREN'S RECOVERY CENTER 1, LLC",
    "contactEmail": "SAM.STUKOV@CHONC.ORG",
    "categoryName": "GENERAL ACUTE CARE HOSPITAL",
    "categoryCode": "GACH",
    "licenseStatus": "ACTIVE",
    "inService": true,
    "licenseNumber": "070000320",
    "licenseEffectiveDate": "06/17/2025",
    "licenseExpirationDate": "06/16/2026",
    "dataDate": "10/18/2025",
    "capacity": 4,
    "address": "3777 S BASCOM AVE",
    "city": "CAMPBELL",
    "zip": "95008",
    "county": "SANTA CLARA",
    "phone": "(408) 558-3640",
    "lat": 37.259847,
    "lng": -121.947507
  },
  {
    "id": "070001089",
    "name": "CHILDREN'S HEALTHCARE ORGANIZATION OF NORTHERN CALIFORNIA - PEDIATRIC HOSPITAL D/P SNF",
    "npi": "1114006830",
    "hcaiId": null,
    "businessName": "CHILDREN'S RECOVERY CENTER 1, LLC",
    "contactEmail": null,
    "categoryName": "SKILLED NURSING FACILITY",
    "categoryCode": "SNF",
    "licenseStatus": "ACTIVE",
    "inService": true,
    "licenseNumber": "070000320",
    "licenseEffectiveDate": "06/17/2025",
    "licenseExpirationDate": "06/16/2026",
    "dataDate": "10/18/2025",
    "capacity": 27,
    "address": "3777 S BASCOM AVE",
    "city": "CAMPBELL",
    "zip": "95008",
    "county": "SANTA CLARA",
    "phone": "(408) 558-3640",
    "lat": 37.259847,
    "lng": -121.947507
  },
  {
    "id": "630021228",
    "name": "ENVIGORATI, LLC",
    "npi": null,
    "hcaiId": "406433189",
    "businessName": "ENVIGORATI, LLC",
    "contactEmail": "LEMMONS@ENVIGORATI.COM",
    "categoryName": "HOME HEALTH AGENCY",
    "categoryCode": "HHA",
    "licenseStatus": "ACTIVE",
    "inService": true,
    "licenseNumber": "550006827",
    "licenseEffectiveDate": "09/27/2025",
    "licenseExpirationDate": "09/26/2026",
    "dataDate": "10/18/2025",
    "capacity": 0,
    "address": "155 E CAMPBELL AVE, SUITE 224",
    "city": "CAMPBELL",
    "zip": "95008",
    "county": "SANTA CLARA",
    "phone": "(408) 780-8506",
    "lat": 37.287468,
    "lng": -121.946679
  },
  {
    "id": "070001398",
    "name": "ROUNDTREE HOME",
    "npi": "1972653178",
    "hcaiId": null,
    "businessName": "BERKSHIRE MANOR, INC.",
    "contactEmail": "GENTRYICF@YAHOO.COM",
    "categoryName": "INTERMEDIATE CARE FACILITY-DD/H/N/CN/IID",
    "categoryCode": "ICFDDH",
    "licenseStatus": "ACTIVE",
    "inService": true,
    "licenseNumber": "070000679",
    "licenseEffectiveDate": "11/04/2025",
    "licenseExpirationDate": "11/03/2026",
    "dataDate": "10/18/2025",
    "capacity": 6,
    "address": "4868 ROUNDTREE DR",
    "city": "CAMPBELL",
    "zip": "95008",
    "county": "SANTA CLARA",
    "phone": "(408) 871-9888",
    "lat": 37.268793,
    "lng": -121.98762
  },
  {
    "id": "630011204",
    "name": "SPINE AND SPORTS SURGERY CENTER",
    "npi": "1053440917",
    "hcaiId": null,
    "businessName": null,
    "contactEmail": null,
    "categoryName": "SURGICAL CLINIC",
    "categoryCode": "ASC",
    "licenseStatus": null,
    "inService": null,
    "licenseNumber": null,
    "licenseEffectiveDate": null,
    "licenseExpirationDate": null,
    "dataDate": "10/18/2025",
    "capacity": 0,
    "address": "429 LLEWELLYN AVE",
    "city": "CAMPBELL",
    "zip": "95008",
    "county": "SANTA CLARA",
    "phone": "(408) 364-1616",
    "lat": 37.293363,
    "lng": -121.9589145
  }
]