[
  {
    "id": "070001046",
    "name": "CENTRAL COAST ENDOSCOPY CENTER",
    "npi": "1760423180",
    "hcaiId": "306444015",
    "businessName": null,
    "contactEmail": "CCEC@PMGSCC.COM",
    "categoryName": "SURGICAL CLINIC",
    "categoryCode": "ASC",
    "licenseStatus": "INACTIVE - CAPEN DECISION",
    "inService": false,
    "licenseNumber": "070000450",
    "licenseEffectiveDate": "11/24/2007",
    "licenseExpirationDate": "11/23/2008",
    "dataDate": "10/18/2025",
    "capacity": 0,
    "address": "243 GREEN VALLEY RD, SUITE F",
    "city": "FREEDOM",
    "zip": "95019",
    "county": "SANTA CRUZ",
    "phone": "(831) 728-1410",
    "lat": 36.93897,
    "lng": -121.770873
  },
  {
    "id": "070001338",
    "name": "CENTRAL COAST SURGERY CENTER",
    "npi": "1790799047",
    "hcaiId": "306444019",
    "businessName": null,
    "contactEmail": "RBERNEY@CENTRALCOASTSURGERYCENTER.COM",
    "categoryName": "SURGICAL CLINIC",
    "categoryCode": "ASC",
    "licenseStatus": "INACTIVE - CAPEN DECISION",
    "inService": false,
    "licenseNumber": "070000651",
    "licenseEffectiveDate": "12/09/2007",
    "licenseExpirationDate": "12/08/2008",
    "dataDate": "10/18/2025",
    "capacity": 0,
    "address": "160 GREEN VALLEY RD, SUITE 101",
    "city": "FREEDOM",
    "zip": "95019",
    "county": "SANTA CRUZ",
    "phone": "(831) 763-9700",
    "lat": 36.937188,
    "lng": -121.771233
  },
  {
    "id": "630019473",
    "name": "SALUD AT 208 GREEN VALLEY",
    "npi": "1730169756",
    "hcaiId": null,
    "businessName": "SALUD PARA LA GENTE",
    "contactEmail": null,
    "categoryName": "PRIMARY CARE CLINIC",
    "categoryCode": "COMTYC",
    "licenseStatus": "ACTIVE",
    "inService": true,
    "licenseNumber": "070000469",
    "licenseEffectiveDate": "11/11/2025",
    "licenseExpirationDate": "11/10/2026",
    "dataDate": "10/18/2025",
    "capacity": 0,
    "address": "208 GREEN VALLEY RD",
    "city": "FREEDOM",
    "zip": "95019",
    "county": "SANTA CRUZ",
    "phone": null,
    "lat": 36.937638,
    "lng": -121.7706885
  },
  {
    "id": "630019471",
    "name": "SALUD AT VALLE VERDE",
    "npi": "1730169756",
    "hcaiId": null,
    "businessName": "SALUD PARA LA GENTE",
    "contactEmail": null,
    "categoryName": "PRIMARY CARE CLINIC",
    "categoryCode": "COMTYC",
    "licenseStatus": "ACTIVE",
    "inService": true,
    "licenseNumber": "070000469",
    "licenseEffectiveDate": "11/11/2025",
    "licenseExpirationDate": "11/10/2026",
    "dataDate": "10/18/2025",
    "capacity": 0,
    "address": "252 GREEN VALLEY RD",
    "city": "FREEDOM",
    "zip": "95019",
    "county": "SANTA CRUZ",
    "phone": null,
    "lat": 36.937728,
    "lng": -121.7704455
  }
]