[
  {
    "id": "220001009",
    "name": "CUPERTINO HEALTHCARE & WELLNESS CENTER",
    "npi": "1477875672",
    "hcaiId": "206430862",
    "businessName": "CUPERTINO HEALTHCARE & WELLNESS CENTER, LLC",
    "contactEmail": "ADMINISTRATOR@CUPERTINOHC.COM",
    "categoryName": "SKILLED NURSING FACILITY",
    "categoryCode": "SNF",
    "licenseStatus": "ACTIVE",
    "inService": true,
    "licenseNumber": "220000407",
    "licenseEffectiveDate": "05/24/2025",
    "licenseExpirationDate": "05/23/2026",
    "dataDate": "10/18/2025",
    "capacity": 170,
    "address": "22590 VOSS AVE",
    "city": "CUPERTINO",
    "zip": "95014",
    "county": "SANTA CLARA",
    "phone": "(408) 253-9034",
    "lat": 37.317393,
    "lng": -122.06943
  },
  {
    "id": "220001079",
    "name": "HEALTH CARE CTR AT THE FORUM AT RANCHO SAN ANTONIO",
    "npi": null,
    "hcaiId": "206434056",
    "businessName": "RANCHO SAN ANTONIO RETIREMENT SERVICES, INC.",
    "contactEmail": "MARKNELSON@THEFORUMRSA.COM",
    "categoryName": "SKILLED NURSING FACILITY",
    "categoryCode": "SNF",
    "licenseStatus": "ACTIVE",
    "inService": true,
    "licenseNumber": "220000444",
    "licenseEffectiveDate": "11/05/2025",
    "licenseExpirationDate": "02/24/2026",
    "dataDate": "10/18/2025",
    "capacity": 76,
    "address": "23600 VIA ESPLENDOR",
    "city": "CUPERTINO",
    "zip": "95014",
    "county": "SANTA CLARA",
    "phone": "(650) 944-0200",
    "lat": 37.338228,
    "lng": -122.088492
  },
  {
    "id": "220001039",
    "name": "SUNNY VIEW MANOR",
    "npi": "1861578452",
    "hcaiId": "206430908",
    "businessName": "FRONT PORCH COMMUNITIES AND SERVICES",
    "contactEmail": "JDEVINE@FRONTPORCH.NET",
    "categoryName": "SKILLED NURSING FACILITY",
    "categoryCode": "SNF",
    "licenseStatus": "ACTIVE",
    "inService": true,
    "licenseNumber": "220000421",
    "licenseEffectiveDate": "03/01/2025",
    "licenseExpirationDate": "02/28/2026",
    "dataDate": "10/18/2025",
    "capacity": 48,
    "address": "22445 CUPERTINO RD",
    "city": "CUPERTINO",
    "zip": "95014",
    "county": "SANTA CLARA",
    "phone": "(818) 254-4142",
    "lat": 37.323945,
    "lng": -122.0670135
  }
]