[
  {
    "id": "630014242",
    "name": "CAPITOLA SURGERY CENTER",
    "npi": "1407116361",
    "hcaiId": null,
    "businessName": null,
    "contactEmail": null,
    "categoryName": "SURGICAL CLINIC",
    "categoryCode": "ASC",
    "licenseStatus": null,
    "inService": null,
    "licenseNumber": null,
    "licenseEffectiveDate": null,
    "licenseExpirationDate": null,
    "dataDate": "10/18/2025",
    "capacity": 0,
    "address": "2265 41ST AVE",
    "city": "CAPITOLA",
    "zip": "95010",
    "county": "SANTA CRUZ",
    "phone": "(831) 462-2252",
    "lat": 36.981369,
    "lng": -121.9653045
  },
  {
    "id": "630019164",
    "name": "CONTINUUM CARE HOSPICE, LLC",
    "npi": "1467859900",
    "hcaiId": null,
    "businessName": "CONTINUUM CARE HOSPICE LLC",
    "contactEmail": "INFO@CONTINUUMHOSPICE.COM",
    "categoryName": "HOSPICE",
    "categoryCode": "HOSPICE",
    "licenseStatus": "ACTIVE",
    "inService": true,
    "licenseNumber": "550003034",
    "licenseEffectiveDate": "04/09/2025",
    "licenseExpirationDate": "04/08/2027",
    "dataDate": "10/18/2025",
    "capacity": 0,
    "address": "4450 CAPITOLA RD, SUITE 103",
    "city": "CAPITOLA",
    "zip": "95010",
    "county": "SANTA CRUZ",
    "phone": "831-249-9454",
    "lat": 36.973251,
    "lng": -121.9601835
  },
  {
    "id": "070000049",
    "name": "PACIFIC COAST MANOR",
    "npi": "1609874163",
    "hcaiId": "206440764",
    "businessName": "CARIBE HOLDINGS LLC",
    "contactEmail": "MALMOND@PACCOASTMANOR.COM",
    "categoryName": "SKILLED NURSING FACILITY",
    "categoryCode": "SNF",
    "licenseStatus": "ACTIVE",
    "inService": true,
    "licenseNumber": "070000039",
    "licenseEffectiveDate": "08/01/2025",
    "licenseExpirationDate": "06/12/2026",
    "dataDate": "10/18/2025",
    "capacity": 99,
    "address": "1935 WHARF RD",
    "city": "CAPITOLA",
    "zip": "95010",
    "county": "SANTA CRUZ",
    "phone": "(831) 476-0770",
    "lat": 36.977247,
    "lng": -121.958037
  },
  {
    "id": "140001251",
    "name": "SATELLITE HEALTHCARE CAPITOLA",
    "npi": "1811968761",
    "hcaiId": "306444027",
    "businessName": "SATELLITE DIALYSIS OF CAPITOLA, LLC",
    "contactEmail": "LICENSING@SATELLITEHEALTH.COM",
    "categoryName": "CHRONIC DIALYSIS CLINIC",
    "categoryCode": "ESRD/CDC",
    "licenseStatus": "ACTIVE",
    "inService": true,
    "licenseNumber": "140000635",
    "licenseEffectiveDate": "02/06/2025",
    "licenseExpirationDate": "02/05/2026",
    "dataDate": "10/18/2025",
    "capacity": 24,
    "address": "3801 CLARES ST",
    "city": "CAPITOLA",
    "zip": "95010",
    "county": "SANTA CRUZ",
    "phone": "(831) 600-4600",
    "lat": 36.97832172,
    "lng": -121.9678025
  }
]