[
  {
    "id": "630017406",
    "name": "BARRAGAN FAMILY HEALTH CARE AND DIABETES CENTER",
    "npi": null,
    "hcaiId": null,
    "businessName": "SAN BENITO HEALTH CARE DISTRICT",
    "contactEmail": null,
    "categoryName": "PRIMARY CARE CLINIC",
    "categoryCode": "RHC/OP",
    "licenseStatus": "ACTIVE",
    "inService": true,
    "licenseNumber": "070000004",
    "licenseEffectiveDate": "01/01/2025",
    "licenseExpirationDate": "12/31/2025",
    "dataDate": "10/18/2025",
    "capacity": 0,
    "address": "930 SUNNYSLOPE RD, SUITE A-2",
    "city": "HOLLISTER",
    "zip": "95023",
    "county": "SAN BENITO",
    "phone": "(831) 637-2022",
    "lat": 36.839313,
    "lng": -121.385178
  },
  {
    "id": "070000142",
    "name": "HAZEL HAWKINS MEMORIAL HOSPITAL",
    "npi": "1275578817",
    "hcaiId": "106350784",
    "businessName": "SAN BENITO HEALTH CARE DISTRICT",
    "contactEmail": "SAVANT@HAZELHAWKINS.COM",
    "categoryName": "GENERAL ACUTE CARE HOSPITAL",
    "categoryCode": "GACH",
    "licenseStatus": "ACTIVE",
    "inService": true,
    "licenseNumber": "070000004",
    "licenseEffectiveDate": "01/01/2025",
    "licenseExpirationDate": "12/31/2025",
    "dataDate": "10/18/2025",
    "capacity": 25,
    "address": "911 SUNSET DR",
    "city": "HOLLISTER",
    "zip": "95023",
    "county": "SAN BENITO",
    "phone": "(831) 537-1793",
    "lat": 36.834921,
    "lng": -121.38624
  },
  {
    "id": "070000060",
    "name": "HAZEL HAWKINS MEMORIAL HOSPITAL D/P SNF",
    "npi": "1275578817",
    "hcaiId": "206351814",
    "businessName": "SAN BENITO HEALTH CARE DISTRICT",
    "contactEmail": null,
    "categoryName": "SKILLED NURSING FACILITY",
    "categoryCode": "SNF",
    "licenseStatus": "ACTIVE",
    "inService": true,
    "licenseNumber": "070000004",
    "licenseEffectiveDate": "01/01/2025",
    "licenseExpirationDate": "12/31/2025",
    "dataDate": "10/18/2025",
    "capacity": 62,
    "address": "900 SUNSET DR",
    "city": "HOLLISTER",
    "zip": "95023",
    "county": "SAN BENITO",
    "phone": "(831) 637-5772",
    "lat": 36.83538,
    "lng": -121.386798
  },
  {
    "id": "070001365",
    "name": "HAZEL HAWKINS MEMORIAL HOSPITAL D/P SNF",
    "npi": "1275578817",
    "hcaiId": null,
    "businessName": "SAN BENITO HEALTH CARE DISTRICT",
    "contactEmail": "KGAMBETTA@HAZELHAWKINS.COM",
    "categoryName": "SKILLED NURSING FACILITY",
    "categoryCode": "SNF",
    "licenseStatus": "ACTIVE",
    "inService": true,
    "licenseNumber": "070000004",
    "licenseEffectiveDate": "01/01/2025",
    "licenseExpirationDate": "12/31/2025",
    "dataDate": "10/18/2025",
    "capacity": 57,
    "address": "911 SUNSET DR",
    "city": "HOLLISTER",
    "zip": "95023",
    "county": "SAN BENITO",
    "phone": "(831) 637-5711",
    "lat": 36.834921,
    "lng": -121.38624
  },
  {
    "id": "630027276",
    "name": "HAZEL HAWKINS PRIMARY CARE & SURGICAL SPECIALTY CENTER",
    "npi": null,
    "hcaiId": null,
    "businessName": "SAN BENITO HEALTH CARE DISTRICT",
    "contactEmail": null,
    "categoryName": "PRIMARY CARE CLINIC",
    "categoryCode": "RHC/OP",
    "licenseStatus": "ACTIVE",
    "inService": true,
    "licenseNumber": "070000004",
    "licenseEffectiveDate": "01/01/2025",
    "licenseExpirationDate": "12/31/2025",
    "dataDate": "10/18/2025",
    "capacity": 0,
    "address": "930 SUNSET DR, BUILDING 1, SUITE C",
    "city": "HOLLISTER",
    "zip": "95023",
    "county": "SAN BENITO",
    "phone": "(831) 630-1019",
    "lat": 36.83513483,
    "lng": -121.3857454
  },
  {
    "id": "630001021",
    "name": "HOLLISTER PREGNANCY CENTER",
    "npi": "1578687877",
    "hcaiId": "306354002",
    "businessName": "HOLLISTER PREGNANCY CENTER",
    "contactEmail": "HPC@HOLLISTERPREGNANCYCENTER.COM",
    "categoryName": "PRIMARY CARE CLINIC",
    "categoryCode": "COMTYC",
    "licenseStatus": "ACTIVE",
    "inService": true,
    "licenseNumber": "550000040",
    "licenseEffectiveDate": "06/30/2023",
    "licenseExpirationDate": "06/29/2024",
    "dataDate": "10/18/2025",
    "capacity": 0,
    "address": "483 5TH ST",
    "city": "HOLLISTER",
    "zip": "95023",
    "county": "SAN BENITO",
    "phone": "(831) 637-4020",
    "lat": 36.85122,
    "lng": -121.405428
  },
  {
    "id": "630013749",
    "name": "MABIE FIRST STREET HEALTHCARE CENTER",
    "npi": "1205076536",
    "hcaiId": null,
    "businessName": "SAN BENITO HEALTH CARE DISTRICT",
    "contactEmail": null,
    "categoryName": "PRIMARY CARE CLINIC",
    "categoryCode": "RHC/OP",
    "licenseStatus": "ACTIVE",
    "inService": true,
    "licenseNumber": "070000004",
    "licenseEffectiveDate": "01/01/2025",
    "licenseExpirationDate": "12/31/2025",
    "dataDate": "10/18/2025",
    "capacity": 0,
    "address": "321 1ST ST",
    "city": "HOLLISTER",
    "zip": "95023",
    "county": "SAN BENITO",
    "phone": "(831) 638-1652",
    "lat": 36.855306,
    "lng": -121.402539
  },
  {
    "id": "630012138",
    "name": "MABIE SAN JUAN ROAD HEALTHCARE CENTER",
    "npi": "1588804819",
    "hcaiId": null,
    "businessName": "SAN BENITO HEALTH CARE DISTRICT",
    "contactEmail": null,
    "categoryName": "PRIMARY CARE CLINIC",
    "categoryCode": "RHC/OP",
    "licenseStatus": "ACTIVE",
    "inService": true,
    "licenseNumber": "070000004",
    "licenseEffectiveDate": "01/01/2025",
    "licenseExpirationDate": "12/31/2025",
    "dataDate": "10/18/2025",
    "capacity": 0,
    "address": "991 FOURTH STREET",
    "city": "HOLLISTER",
    "zip": "95023",
    "county": "SAN BENITO",
    "phone": "(831) 636-3277",
    "lat": 36.85265005,
    "lng": -121.4127249
  },
  {
    "id": "630023949",
    "name": "PRIMEX HEALTHCARE SERVICES, INC.",
    "npi": null,
    "hcaiId": null,
    "businessName": "PRIMEX HEALTHCARE SERVICES INC",
    "contactEmail": "STEVE@PRIMEXHEALTH.COM",
    "categoryName": "HOME HEALTH AGENCY",
    "categoryCode": "HHA",
    "licenseStatus": "ACTIVE",
    "inService": true,
    "licenseNumber": "550009913",
    "licenseEffectiveDate": "08/07/2025",
    "licenseExpirationDate": "02/06/2026",
    "dataDate": "10/18/2025",
    "capacity": 0,
    "address": "910 MONTEREY ST, SUITE 206",
    "city": "HOLLISTER",
    "zip": "95023",
    "county": "SAN BENITO",
    "phone": "(408) 772-7146",
    "lat": 36.846261,
    "lng": -121.404348
  },
  {
    "id": "070001396",
    "name": "SAN BENITO COMMUNITY HEALTH CLINIC",
    "npi": "1033235973",
    "hcaiId": null,
    "businessName": "SAN BENITO HEALTH CARE DISTRICT",
    "contactEmail": null,
    "categoryName": "PRIMARY CARE CLINIC",
    "categoryCode": "RHC/OP",
    "licenseStatus": "ACTIVE",
    "inService": true,
    "licenseNumber": "070000004",
    "licenseEffectiveDate": "01/01/2025",
    "licenseExpirationDate": "12/31/2025",
    "dataDate": "10/18/2025",
    "capacity": 0,
    "address": "930 SUNSET DR, BUILDING 3",
    "city": "HOLLISTER",
    "zip": "95023",
    "county": "SAN BENITO",
    "phone": "(831) 636-2664",
    "lat": 36.835308,
    "lng": -121.3857405
  },
  {
    "id": "070000191",
    "name": "SAN BENITO HEALTH FOUNDATION",
    "npi": null,
    "hcaiId": "306351812",
    "businessName": "SAN BENITO HEALTH FOUNDATION FUNDACION DE SALUD DE SAN BENITO",
    "contactEmail": "RVFERNANDEZ@SANBENITOHEALTH.ORG",
    "categoryName": "PRIMARY CARE CLINIC",
    "categoryCode": "COMTYC",
    "licenseStatus": "ACTIVE",
    "inService": true,
    "licenseNumber": "070000136",
    "licenseEffectiveDate": "04/04/2025",
    "licenseExpirationDate": "04/03/2026",
    "dataDate": "10/18/2025",
    "capacity": 0,
    "address": "351 FELICE DR",
    "city": "HOLLISTER",
    "zip": "95023",
    "county": "SAN BENITO",
    "phone": "(831) 637-5306",
    "lat": 36.853353,
    "lng": -121.4167995
  },
  {
    "id": "630024901",
    "name": "SATELLITE HEALTHCARE HOLLISTER",
    "npi": null,
    "hcaiId": "306350682",
    "businessName": "SATELLITE DIALYSIS OF MORGAN HILL, LLC",
    "contactEmail": "MERCADOM@SATELLITEHEALTH.COM",
    "categoryName": "CHRONIC DIALYSIS CLINIC",
    "categoryCode": "ESRD/CDC",
    "licenseStatus": "ACTIVE",
    "inService": true,
    "licenseNumber": "550007901",
    "licenseEffectiveDate": "03/10/2025",
    "licenseExpirationDate": "03/09/2026",
    "dataDate": "10/18/2025",
    "capacity": 13,
    "address": "1100 E PARK ST",
    "city": "HOLLISTER",
    "zip": "95023",
    "county": "SAN BENITO",
    "phone": "(408) 766-6500",
    "lat": 36.84343,
    "lng": -121.3961988
  }
]