[
  {
    "id": "070000918",
    "name": "AYER HOUSE",
    "npi": "1275700239",
    "hcaiId": null,
    "businessName": "TERRA BELLA COMMUNITIES",
    "contactEmail": "JOSEHERNANDEZ267@HOTMAIL.COM",
    "categoryName": "INTERMEDIATE CARE FACILITY-DD/H/N/CN/IID",
    "categoryCode": "ICFDDN",
    "licenseStatus": "ACTIVE",
    "inService": true,
    "licenseNumber": "070000380",
    "licenseEffectiveDate": "10/10/2025",
    "licenseExpirationDate": "10/09/2026",
    "dataDate": "10/18/2025",
    "capacity": 6,
    "address": "1119 AYER DR",
    "city": "GILROY",
    "zip": "95020",
    "county": "SANTA CLARA",
    "phone": "(408) 848-6069",
    "lat": 37.004994,
    "lng": -121.5901485
  },
  {
    "id": "630017714",
    "name": "BAY AREA COMMUNITY HEALTH - GLEN VIEW CLINIC",
    "npi": null,
    "hcaiId": "306430477",
    "businessName": "BAY AREA COMMUNITY HEALTH",
    "contactEmail": "SCHAVARIN@SJFFCC.ORG",
    "categoryName": "PRIMARY CARE CLINIC",
    "categoryCode": "COMTYC",
    "licenseStatus": "ACTIVE",
    "inService": true,
    "licenseNumber": "550003720",
    "licenseEffectiveDate": "11/15/2024",
    "licenseExpirationDate": "11/14/2025",
    "dataDate": "10/18/2025",
    "capacity": 0,
    "address": "480 W 8TH ST",
    "city": "GILROY",
    "zip": "95020",
    "county": "SANTA CLARA",
    "phone": "(408) 729-4290",
    "lat": 37.00146224,
    "lng": -121.5728682
  },
  {
    "id": "630015869",
    "name": "BAY AREA COMMUNITY HEALTH CENTER OF GILROY",
    "npi": "1144626649",
    "hcaiId": "306434292",
    "businessName": "BAY AREA COMMUNITY HEALTH",
    "contactEmail": "SCHAVARIN@SJFFCC.ORG",
    "categoryName": "PRIMARY CARE CLINIC",
    "categoryCode": "COMTYC",
    "licenseStatus": "ACTIVE",
    "inService": true,
    "licenseNumber": "550000139",
    "licenseEffectiveDate": "11/21/2024",
    "licenseExpirationDate": "11/20/2025",
    "dataDate": "10/18/2025",
    "capacity": 0,
    "address": "9460 NO NAME UNO, SUITE 110",
    "city": "GILROY",
    "zip": "95020",
    "county": "SANTA CLARA",
    "phone": "(408) 956-9720",
    "lat": 37.03779,
    "lng": -121.5709515
  },
  {
    "id": "630020275",
    "name": "BAY AREA COMMUNITY HEALTH CENTER OF GILROY - DENTAL",
    "npi": null,
    "hcaiId": null,
    "businessName": "BAY AREA COMMUNITY HEALTH",
    "contactEmail": null,
    "categoryName": "PRIMARY CARE CLINIC",
    "categoryCode": "COMTYC",
    "licenseStatus": "ACTIVE",
    "inService": true,
    "licenseNumber": "550000139",
    "licenseEffectiveDate": "11/21/2024",
    "licenseExpirationDate": "11/20/2025",
    "dataDate": "10/18/2025",
    "capacity": 0,
    "address": "9460 NO NAME UNO, SUITE 215",
    "city": "GILROY",
    "zip": "95020",
    "county": "SANTA CLARA",
    "phone": null,
    "lat": 37.03779,
    "lng": -121.5709515
  },
  {
    "id": "630016313",
    "name": "BONITA SPRINGS HOME HEALTH LLC",
    "npi": "1568857589",
    "hcaiId": "406434301",
    "businessName": "BONITA SPRINGS HOME HEALTH LLC",
    "contactEmail": "ANITA@BONITASPRINGSHOMEHEALTH.COM",
    "categoryName": "HOME HEALTH AGENCY",
    "categoryCode": "HHA",
    "licenseStatus": "ACTIVE",
    "inService": true,
    "licenseNumber": "550003881",
    "licenseEffectiveDate": "05/10/2025",
    "licenseExpirationDate": "05/09/2026",
    "dataDate": "10/18/2025",
    "capacity": 0,
    "address": "8545 MONTEREY ROAD, SUITE A",
    "city": "GILROY",
    "zip": "95020",
    "county": "SANTA CLARA",
    "phone": "(408) 337-8117",
    "lat": 37.020775,
    "lng": -121.5755692
  },
  {
    "id": "630015427",
    "name": "BONITA SPRINGS HOSPICE CARE LLC",
    "npi": null,
    "hcaiId": "406434277",
    "businessName": "BONITA SPRINGS HOSPICE CARE LLC",
    "contactEmail": "ADMIN@BONITASPRINGSHOSPICECARE.COM",
    "categoryName": "HOSPICE",
    "categoryCode": "HOSPICE",
    "licenseStatus": "ACTIVE",
    "inService": true,
    "licenseNumber": "550003035",
    "licenseEffectiveDate": "04/16/2025",
    "licenseExpirationDate": "04/15/2027",
    "dataDate": "10/18/2025",
    "capacity": 0,
    "address": "8545 MONTEREY ROAD, UNIT B",
    "city": "GILROY",
    "zip": "95020",
    "county": "SANTA CLARA",
    "phone": "(408) 848-1114",
    "lat": 37.020775,
    "lng": -121.5755692
  },
  {
    "id": "070001125",
    "name": "GARDNER SOUTH COUNTY HEALTH CENTER",
    "npi": "1144358748",
    "hcaiId": "306434186",
    "businessName": "GARDNER FAMILY HEALTH NETWORK, INC.",
    "contactEmail": "CRAGONA@GFHN.ORG",
    "categoryName": "PRIMARY CARE CLINIC",
    "categoryCode": "COMTYC",
    "licenseStatus": "ACTIVE",
    "inService": true,
    "licenseNumber": "070000481",
    "licenseEffectiveDate": "05/30/2025",
    "licenseExpirationDate": "05/29/2026",
    "dataDate": "10/18/2025",
    "capacity": 0,
    "address": "7526 MONTEREY ST",
    "city": "GILROY",
    "zip": "95020",
    "county": "SANTA CLARA",
    "phone": "(408) 846-9400",
    "lat": 37.008648,
    "lng": -121.569012
  },
  {
    "id": "070000040",
    "name": "GILROY HEALTHCARE CENTER",
    "npi": "1831231877",
    "hcaiId": "206430760",
    "businessName": "MANILA HOLDINGS LLC",
    "contactEmail": "RYAN@SPYGLASSHC.COM",
    "categoryName": "SKILLED NURSING FACILITY",
    "categoryCode": "SNF",
    "licenseStatus": "ACTIVE",
    "inService": true,
    "licenseNumber": "070000035",
    "licenseEffectiveDate": "08/01/2025",
    "licenseExpirationDate": "11/07/2025",
    "dataDate": "10/18/2025",
    "capacity": 134,
    "address": "8170 MURRAY AVE",
    "city": "GILROY",
    "zip": "95020",
    "county": "SANTA CLARA",
    "phone": "(408) 842-9311",
    "lat": 37.018044,
    "lng": -121.566348
  },
  {
    "id": "070001425",
    "name": "GILROY NEIGHBORHOOD HEALTH CLINIC",
    "npi": null,
    "hcaiId": "306434164",
    "businessName": "SCHOOL HEALTH CLINICS OF SANTA CLARA COUNTY",
    "contactEmail": "JOCELYNH@SCHOOLHEALTHCLINICS.ORG",
    "categoryName": "PRIMARY CARE CLINIC",
    "categoryCode": "COMTYC",
    "licenseStatus": "ACTIVE",
    "inService": true,
    "licenseNumber": "070000408",
    "licenseEffectiveDate": "11/28/2024",
    "licenseExpirationDate": "11/27/2025",
    "dataDate": "10/18/2025",
    "capacity": 0,
    "address": "9300 WREN AVE",
    "city": "GILROY",
    "zip": "95020",
    "county": "SANTA CLARA",
    "phone": "(408) 284-2289",
    "lat": 37.02973069,
    "lng": -121.587416
  },
  {
    "id": "630014438",
    "name": "HEALING TOUCH OF CALIFORNIA HOME HEALTH AGENCY, INC.",
    "npi": "1922443928",
    "hcaiId": "406434269",
    "businessName": "HEALING TOUCH OF CALIFORNIA HOME HEALTH AGENCY INC",
    "contactEmail": "DALEGRE@HTCAHHAGILROY.COM",
    "categoryName": "HOME HEALTH AGENCY",
    "categoryCode": "HHA",
    "licenseStatus": "ACTIVE",
    "inService": true,
    "licenseNumber": "550002780",
    "licenseEffectiveDate": "08/06/2025",
    "licenseExpirationDate": "08/05/2026",
    "dataDate": "10/18/2025",
    "capacity": 0,
    "address": "8010 WAYLAND LN, SUITE 1E",
    "city": "GILROY",
    "zip": "95020",
    "county": "SANTA CLARA",
    "phone": "(408) 799-1191",
    "lat": 37.014192,
    "lng": -121.5816795
  },
  {
    "id": "630016618",
    "name": "INFORMED CHOICES",
    "npi": null,
    "hcaiId": "306434300",
    "businessName": "INFORMED CHOICES",
    "contactEmail": "INFO@INFORMED-CHOICES.ORG",
    "categoryName": "PRIMARY CARE CLINIC",
    "categoryCode": "COMTYC",
    "licenseStatus": "ACTIVE",
    "inService": true,
    "licenseNumber": "550003765",
    "licenseEffectiveDate": "01/12/2025",
    "licenseExpirationDate": "01/11/2026",
    "dataDate": "10/18/2025",
    "capacity": 0,
    "address": "66 FIRST STREET, SUITE A",
    "city": "GILROY",
    "zip": "95020",
    "county": "SANTA CLARA",
    "phone": "(408) 847-8880",
    "lat": 37.014192,
    "lng": -121.5730845
  },
  {
    "id": "070000953",
    "name": "LAWRENCE HOUSE",
    "npi": "1376710335",
    "hcaiId": null,
    "businessName": "TERRA BELLA COMMUNITIES",
    "contactEmail": "JOSEHERNANDEZ261@HOTMAIL.COM",
    "categoryName": "INTERMEDIATE CARE FACILITY-DD/H/N/CN/IID",
    "categoryCode": "ICFDDN",
    "licenseStatus": "ACTIVE",
    "inService": true,
    "licenseNumber": "070000397",
    "licenseEffectiveDate": "10/18/2025",
    "licenseExpirationDate": "10/17/2026",
    "dataDate": "10/18/2025",
    "capacity": 6,
    "address": "797 LAWRENCE DR",
    "city": "GILROY",
    "zip": "95020",
    "county": "SANTA CLARA",
    "phone": "(559) 765-7498",
    "lat": 37.020753,
    "lng": -121.589127
  },
  {
    "id": "070001279",
    "name": "NEURORESTORATIVE CALIFORNIA",
    "npi": null,
    "hcaiId": "206434144",
    "businessName": "CAREMERIDIAN, LLC",
    "contactEmail": "MICHELLE.GEMPIS@SEVITAHEALTH.COM",
    "categoryName": "CONGREGATE LIVING HEALTH FACILITY",
    "categoryCode": "CLHF",
    "licenseStatus": "ACTIVE",
    "inService": true,
    "licenseNumber": "070000603",
    "licenseEffectiveDate": "03/18/2025",
    "licenseExpirationDate": "03/17/2026",
    "dataDate": "10/18/2025",
    "capacity": 12,
    "address": "11500 CENTER AVE",
    "city": "GILROY",
    "zip": "95020",
    "county": "SANTA CLARA",
    "phone": "(408) 686-0618",
    "lat": 37.070658,
    "lng": -121.572837
  },
  {
    "id": "630017188",
    "name": "PADRE PIO'S HOME HEALTH CARE SERVICES, INC.",
    "npi": "1023554334",
    "hcaiId": "406432059",
    "businessName": "PADRE PIO'S HOME HEALTH CARE SERVICES, INC.",
    "contactEmail": "SANDYZIP@GARLIC.COM",
    "categoryName": "HOME HEALTH AGENCY",
    "categoryCode": "HHA",
    "licenseStatus": "ACTIVE",
    "inService": true,
    "licenseNumber": "550005103",
    "licenseEffectiveDate": "11/19/2024",
    "licenseExpirationDate": "11/18/2025",
    "dataDate": "10/18/2025",
    "capacity": 0,
    "address": "7880 WREN AVE, SUITE C-134",
    "city": "GILROY",
    "zip": "95020",
    "county": "SANTA CLARA",
    "phone": "(408) 472-2059",
    "lat": 37.009503,
    "lng": -121.5861885
  },
  {
    "id": "630026129",
    "name": "ROTACARE GILROY",
    "npi": null,
    "hcaiId": null,
    "businessName": "ROTACARE BAY AREA, INC.",
    "contactEmail": "GILROYCLINIC@ROTACAREBAYAREA.ORG",
    "categoryName": "PRIMARY CARE CLINIC",
    "categoryCode": "FREEC",
    "licenseStatus": "ACTIVE",
    "inService": true,
    "licenseNumber": "550006678",
    "licenseEffectiveDate": "07/20/2025",
    "licenseExpirationDate": "07/19/2026",
    "dataDate": "10/18/2025",
    "capacity": 0,
    "address": "9300 WREN AVE",
    "city": "GILROY",
    "zip": "95020",
    "county": "SANTA CLARA",
    "phone": "(408) 676-3030",
    "lat": 37.02973069,
    "lng": -121.587416
  },
  {
    "id": "070000989",
    "name": "SAN MIGUEL HOUSE",
    "npi": "1285801241",
    "hcaiId": null,
    "businessName": "TERRA BELLA COMMUNITIES",
    "contactEmail": "JOSEHERNANDEZ267@HOTMAIL.COM",
    "categoryName": "INTERMEDIATE CARE FACILITY-DD/H/N/CN/IID",
    "categoryCode": "ICFDDN",
    "licenseStatus": "ACTIVE",
    "inService": true,
    "licenseNumber": "070000422",
    "licenseEffectiveDate": "10/19/2025",
    "licenseExpirationDate": "10/18/2026",
    "dataDate": "10/18/2025",
    "capacity": 6,
    "address": "1010 SAN MIGUEL ST",
    "city": "GILROY",
    "zip": "95020",
    "county": "SANTA CLARA",
    "phone": "(408) 847-6415",
    "lat": 37.005957,
    "lng": -121.5872685
  },
  {
    "id": "140001261",
    "name": "SATELLITE HEALTHCARE GILROY",
    "npi": "1588635460",
    "hcaiId": "306434303",
    "businessName": "SOUTH COUNTY DIALYSIS",
    "contactEmail": "LICENSING@SATELLITEHEALTH.COM",
    "categoryName": "CHRONIC DIALYSIS CLINIC",
    "categoryCode": "ESRD/CDC",
    "licenseStatus": "ACTIVE",
    "inService": true,
    "licenseNumber": "140000645",
    "licenseEffectiveDate": "02/09/2025",
    "licenseExpirationDate": "02/08/2026",
    "dataDate": "10/18/2025",
    "capacity": 25,
    "address": "8095 CAMINO ARROYO, SUITE 100",
    "city": "GILROY",
    "zip": "95020",
    "county": "SANTA CLARA",
    "phone": "(408) 848-5410",
    "lat": 37.019322,
    "lng": -121.561047
  },
  {
    "id": "070000635",
    "name": "ST. LOUISE REGIONAL HOSPITAL",
    "npi": "1063406551",
    "hcaiId": "106434138",
    "businessName": "COUNTY OF SANTA CLARA",
    "contactEmail": "GLORIA.DELAMERCED@HHS.SCCGOV.ORG",
    "categoryName": "GENERAL ACUTE CARE HOSPITAL",
    "categoryCode": "GACH",
    "licenseStatus": "ACTIVE",
    "inService": true,
    "licenseNumber": "070000085",
    "licenseEffectiveDate": "11/07/2025",
    "licenseExpirationDate": "04/30/2026",
    "dataDate": "10/18/2025",
    "capacity": 72,
    "address": "9400 NO NAME UNO",
    "city": "GILROY",
    "zip": "95020",
    "county": "SANTA CLARA",
    "phone": "(408) 848-4966",
    "lat": 37.035954,
    "lng": -121.5711585
  },
  {
    "id": "070000684",
    "name": "ST. LOUISE REGIONAL HOSPITAL D/P SNF",
    "npi": "1063406551",
    "hcaiId": null,
    "businessName": "COUNTY OF SANTA CLARA",
    "contactEmail": null,
    "categoryName": "SKILLED NURSING FACILITY",
    "categoryCode": "SNF",
    "licenseStatus": "ACTIVE",
    "inService": true,
    "licenseNumber": "070000085",
    "licenseEffectiveDate": "11/07/2025",
    "licenseExpirationDate": "04/30/2026",
    "dataDate": "10/18/2025",
    "capacity": 21,
    "address": "9400 N NAME UNO",
    "city": "GILROY",
    "zip": "95020",
    "county": "SANTA CLARA",
    "phone": "(408) 848-2000",
    "lat": 37.035954,
    "lng": -121.5711585
  },
  {
    "id": "630027952",
    "name": "TUMA HOME HEALTH LLC",
    "npi": null,
    "hcaiId": null,
    "businessName": "TUMA HOME HEALTH LLC",
    "contactEmail": "NDETUMA@GMAIL.COM",
    "categoryName": "HOME HEALTH AGENCY",
    "categoryCode": "HHA",
    "licenseStatus": "ACTIVE",
    "inService": true,
    "licenseNumber": "550009986",
    "licenseEffectiveDate": "10/01/2025",
    "licenseExpirationDate": "03/31/2026",
    "dataDate": "10/18/2025",
    "capacity": 0,
    "address": "8000 SANTA TERESA BLVD, SUITE 270",
    "city": "GILROY",
    "zip": "95020",
    "county": "SANTA CLARA",
    "phone": "(850) 320-4935",
    "lat": 37.01405301,
    "lng": -121.598922
  },
  {
    "id": "070000846",
    "name": "VALLEY HEALTH CENTER GILROY",
    "npi": null,
    "hcaiId": null,
    "businessName": "COUNTY OF SANTA CLARA",
    "contactEmail": null,
    "categoryName": "PRIMARY CARE CLINIC",
    "categoryCode": "FQHC",
    "licenseStatus": "ACTIVE",
    "inService": true,
    "licenseNumber": "070000085",
    "licenseEffectiveDate": "11/07/2025",
    "licenseExpirationDate": "04/30/2026",
    "dataDate": "10/18/2025",
    "capacity": 0,
    "address": "7475 CAMINO ARROYO",
    "city": "GILROY",
    "zip": "95020",
    "county": "SANTA CLARA",
    "phone": "(408) 852-2200",
    "lat": 37.011204,
    "lng": -121.55706
  }
]