[
  {
    "id": "630028120",
    "name": "HOLY SPRINGS HOME HEALTH LLC",
    "npi": null,
    "hcaiId": null,
    "businessName": "HOLY SPRINGS HOME HEALTH LLC",
    "contactEmail": "NOEL@HOLYSPRINGSHHH.COM",
    "categoryName": "HOME HEALTH AGENCY",
    "categoryCode": "HHA",
    "licenseStatus": "ACTIVE",
    "inService": true,
    "licenseNumber": "550010000",
    "licenseEffectiveDate": "10/16/2025",
    "licenseExpirationDate": "04/15/2026",
    "dataDate": "10/18/2025",
    "capacity": 0,
    "address": "50 W MAIN AVE, SUITE D",
    "city": "MORGAN HILL",
    "zip": "95037",
    "county": "SANTA CLARA",
    "phone": "(408) 422-5596",
    "lat": 37.12965232,
    "lng": -121.6553238
  },
  {
    "id": "630015953",
    "name": "MAJESTIC HOME HEALTH",
    "npi": "1144612656",
    "hcaiId": "406434285",
    "businessName": "MAJESTIC HOSPICE & HOME HEALTH, LLC",
    "contactEmail": "ALI@MAJESTICHHA.COM",
    "categoryName": "HOME HEALTH AGENCY",
    "categoryCode": "HHA",
    "licenseStatus": "ACTIVE",
    "inService": true,
    "licenseNumber": "550003214",
    "licenseEffectiveDate": "03/02/2025",
    "licenseExpirationDate": "03/01/2026",
    "dataDate": "10/18/2025",
    "capacity": 0,
    "address": "16360 MONTEREY STREET, SUITE 150",
    "city": "MORGAN HILL",
    "zip": "95037",
    "county": "SANTA CLARA",
    "phone": "(408) 779-0100",
    "lat": 37.118169,
    "lng": -121.644576
  },
  {
    "id": "630015873",
    "name": "MAJESTIC HOSPICE & HOME HEALTH LLC",
    "npi": "1255847984",
    "hcaiId": "406434282",
    "businessName": "MAJESTIC HOSPICE & HOME HEALTH, LLC",
    "contactEmail": "ALI@MAJESTICHHA.COM",
    "categoryName": "HOSPICE",
    "categoryCode": "HOSPICE",
    "licenseStatus": "ACTIVE",
    "inService": true,
    "licenseNumber": "550003135",
    "licenseEffectiveDate": "07/09/2025",
    "licenseExpirationDate": "07/08/2027",
    "dataDate": "10/18/2025",
    "capacity": 0,
    "address": "16360 MONTEREY STREET, SUITE 140",
    "city": "MORGAN HILL",
    "zip": "95037",
    "county": "SANTA CLARA",
    "phone": "(408) 779-0100",
    "lat": 37.118169,
    "lng": -121.644576
  },
  {
    "id": "070000059",
    "name": "MORGAN HILL HEALTHCARE CENTER",
    "npi": "1801504527",
    "hcaiId": "206430792",
    "businessName": "HILLVIEW HEALTHCARE CENTER, LLC",
    "contactEmail": "AESPINOZA@MORGANHILLHC.COM",
    "categoryName": "SKILLED NURSING FACILITY",
    "categoryCode": "SNF",
    "licenseStatus": "ACTIVE",
    "inService": true,
    "licenseNumber": "070000052",
    "licenseEffectiveDate": "10/03/2025",
    "licenseExpirationDate": "12/31/2025",
    "dataDate": "10/18/2025",
    "capacity": 52,
    "address": "530 W DUNNE AVE",
    "city": "MORGAN HILL",
    "zip": "95037",
    "county": "SANTA CLARA",
    "phone": "(408) 779-3633",
    "lat": 37.120374,
    "lng": -121.6598715
  },
  {
    "id": "070000048",
    "name": "PACIFIC HILLS POST ACUTE",
    "npi": "1124154422",
    "hcaiId": "206434001",
    "businessName": "GRANADA HOLDINGS, LLC",
    "contactEmail": "RYAN@SPYGLASSHC.COM",
    "categoryName": "SKILLED NURSING FACILITY",
    "categoryCode": "SNF",
    "licenseStatus": "ACTIVE",
    "inService": true,
    "licenseNumber": "070000040",
    "licenseEffectiveDate": "08/01/2025",
    "licenseExpirationDate": "06/12/2026",
    "dataDate": "10/18/2025",
    "capacity": 99,
    "address": "370 NOBLE CT",
    "city": "MORGAN HILL",
    "zip": "95037",
    "county": "SANTA CLARA",
    "phone": "(408) 779-7346",
    "lat": 37.123947,
    "lng": -121.659282
  },
  {
    "id": "630028173",
    "name": "SANTA CLARA VALLEY HEALTH & HOSPITAL SYSTEM",
    "npi": null,
    "hcaiId": null,
    "businessName": null,
    "contactEmail": null,
    "categoryName": "PRIMARY CARE CLINIC",
    "categoryCode": "FQHC",
    "licenseStatus": null,
    "inService": null,
    "licenseNumber": null,
    "licenseEffectiveDate": null,
    "licenseExpirationDate": null,
    "dataDate": "10/18/2025",
    "capacity": 0,
    "address": "18550 DE PAUL DR, UNIT 103,104,109,120,130,140,150,202,203, 205-208",
    "city": "MORGAN HILL",
    "zip": "95037",
    "county": "SANTA CLARA",
    "phone": null,
    "lat": 37.1537725,
    "lng": -121.6460269
  },
  {
    "id": "630013170",
    "name": "SATELLITE DIALYSIS OF MORGAN HILL",
    "npi": "1558666701",
    "hcaiId": "306434225",
    "businessName": "SATELLITE DIALYSIS OF MORGAN HILL, LLC",
    "contactEmail": "LICENSING@SATELLITEHEALTH.COM",
    "categoryName": "CHRONIC DIALYSIS CLINIC",
    "categoryCode": "ESRD/CDC",
    "licenseStatus": "ACTIVE",
    "inService": true,
    "licenseNumber": "550001651",
    "licenseEffectiveDate": "02/25/2025",
    "licenseExpirationDate": "02/24/2026",
    "dataDate": "10/18/2025",
    "capacity": 17,
    "address": "16060 CAPUTO DR, SUITE 140",
    "city": "MORGAN HILL",
    "zip": "95037",
    "county": "SANTA CLARA",
    "phone": "(650) 404-3600",
    "lat": 37.118439,
    "lng": -121.633983
  }
]