[
  {
    "id": "630016559",
    "name": "ANGELCARE HOME HEALTH SERVICES, LLC",
    "npi": "1558727776",
    "hcaiId": "406432661",
    "businessName": "ANGELCARE HOME HEALTH SERVICES, LLC",
    "contactEmail": "ADMIN@ANGELCAREHHS.COM",
    "categoryName": "HOME HEALTH AGENCY",
    "categoryCode": "HHA",
    "licenseStatus": "ACTIVE",
    "inService": true,
    "licenseNumber": "550003935",
    "licenseEffectiveDate": "06/21/2025",
    "licenseExpirationDate": "06/20/2026",
    "dataDate": "10/18/2025",
    "capacity": 0,
    "address": "1525 MCCARTHY BLVD, SUITE 1128",
    "city": "MILPITAS",
    "zip": "95035",
    "county": "SANTA CLARA",
    "phone": "(510) 656-1108",
    "lat": 37.406439,
    "lng": -121.9200795
  },
  {
    "id": "630012188",
    "name": "BAY AREA DENTAL SURGERY CENTER",
    "npi": "1225278997",
    "hcaiId": "306434211",
    "businessName": "P.K. PATEL & S.K. PATEL, A PROFESSIONAL DENTAL CORPORATION",
    "contactEmail": "BAYAREADSC@YAHOO.COM",
    "categoryName": "SURGICAL CLINIC",
    "categoryCode": "ASC/SURGC",
    "licenseStatus": "ACTIVE",
    "inService": true,
    "licenseNumber": "550001199",
    "licenseEffectiveDate": "11/12/2025",
    "licenseExpirationDate": "11/11/2026",
    "dataDate": "10/18/2025",
    "capacity": 0,
    "address": "1172 CADILLAC CT",
    "city": "MILPITAS",
    "zip": "95035",
    "county": "SANTA CLARA",
    "phone": "(408) 946-9800",
    "lat": 37.444329,
    "lng": -121.917735
  },
  {
    "id": "630011156",
    "name": "HOME HEALTH ALLIANCE",
    "npi": "1356598098",
    "hcaiId": "406434192",
    "businessName": "HOME HEALTH ALLIANCE, INC.",
    "contactEmail": "GLORIAHHA@YAHOO.COM",
    "categoryName": "HOME HEALTH AGENCY",
    "categoryCode": "HHA",
    "licenseStatus": "ACTIVE",
    "inService": true,
    "licenseNumber": "550000546",
    "licenseEffectiveDate": "11/19/2024",
    "licenseExpirationDate": "11/18/2025",
    "dataDate": "10/18/2025",
    "capacity": 0,
    "address": "1 N MAIN ST, SUITE 1",
    "city": "MILPITAS",
    "zip": "95035",
    "county": "SANTA CLARA",
    "phone": "(408) 263-7102",
    "lat": 37.430685,
    "lng": -121.90752
  },
  {
    "id": "630011211",
    "name": "IN GOOD HANDS HOME ICF/DD-H",
    "npi": "1073787982",
    "hcaiId": null,
    "businessName": "GLAMM CORPORATION",
    "contactEmail": "LIZALUI78@GMAIL.COM",
    "categoryName": "INTERMEDIATE CARE FACILITY-DD/H/N/CN/IID",
    "categoryCode": "ICFDDH",
    "licenseStatus": "ACTIVE",
    "inService": true,
    "licenseNumber": "550000681",
    "licenseEffectiveDate": "03/17/2025",
    "licenseExpirationDate": "03/16/2026",
    "dataDate": "10/18/2025",
    "capacity": 6,
    "address": "380 BIXBY DR",
    "city": "MILPITAS",
    "zip": "95035",
    "county": "SANTA CLARA",
    "phone": "(408) 263-1343",
    "lat": 37.432242,
    "lng": -121.873041
  },
  {
    "id": "070001130",
    "name": "KCARE HOME",
    "npi": "1124882642",
    "hcaiId": null,
    "businessName": "KCARE HOMES LLC",
    "contactEmail": "KAT@KCAREHOMES.NET",
    "categoryName": "INTERMEDIATE CARE FACILITY-DD/H/N/CN/IID",
    "categoryCode": "ICFDDH",
    "licenseStatus": "ACTIVE",
    "inService": true,
    "licenseNumber": "070000484",
    "licenseEffectiveDate": "05/20/2025",
    "licenseExpirationDate": "05/19/2026",
    "dataDate": "10/18/2025",
    "capacity": 6,
    "address": "1935 BIG BEND DR",
    "city": "MILPITAS",
    "zip": "95035",
    "county": "SANTA CLARA",
    "phone": "(408) 347-8686",
    "lat": 37.429173,
    "lng": -121.869351
  },
  {
    "id": "630026122",
    "name": "LIFESTYLE AND WELLNESS HOME HEALTH SERVICES",
    "npi": null,
    "hcaiId": null,
    "businessName": "HEALTH CARE AND SERVICE INDUSTRIES, INC.",
    "contactEmail": "INFO@HCSIINCGLOBAL.COM",
    "categoryName": "HOME HEALTH AGENCY",
    "categoryCode": "HHA",
    "licenseStatus": "ACTIVE",
    "inService": true,
    "licenseNumber": "550009540",
    "licenseEffectiveDate": "06/02/2025",
    "licenseExpirationDate": "12/01/2025",
    "dataDate": "10/18/2025",
    "capacity": 0,
    "address": "16 CORNING AVE, SUITE 176",
    "city": "MILPITAS",
    "zip": "95035",
    "county": "SANTA CLARA",
    "phone": "(408) 585-5160",
    "lat": 37.424475,
    "lng": -121.9056885
  },
  {
    "id": "070000047",
    "name": "MILPITAS CARE CENTER",
    "npi": "1982205738",
    "hcaiId": "206430766",
    "businessName": "ASM FAMILY CORPORATION",
    "contactEmail": "INFO@MILPITASCARE.COM",
    "categoryName": "SKILLED NURSING FACILITY",
    "categoryCode": "SNF",
    "licenseStatus": "ACTIVE",
    "inService": true,
    "licenseNumber": "070000003",
    "licenseEffectiveDate": "11/29/2024",
    "licenseExpirationDate": "11/28/2025",
    "dataDate": "10/18/2025",
    "capacity": 35,
    "address": "120 CORNING AVE",
    "city": "MILPITAS",
    "zip": "95035",
    "county": "SANTA CLARA",
    "phone": "(408) 262-0217",
    "lat": 37.424304,
    "lng": -121.9077495
  },
  {
    "id": "630013637",
    "name": "PERPETUAL CARE HOME HEALTH",
    "npi": "1982979316",
    "hcaiId": "406434241",
    "businessName": "MEDICS CHOICE HOME HEALTH, INC.",
    "contactEmail": "PROQUE5@COMCAST.NET",
    "categoryName": "HOME HEALTH AGENCY",
    "categoryCode": "HHA",
    "licenseStatus": "ACTIVE",
    "inService": true,
    "licenseNumber": "550002033",
    "licenseEffectiveDate": "08/29/2025",
    "licenseExpirationDate": "08/28/2026",
    "dataDate": "10/18/2025",
    "capacity": 0,
    "address": "1617 S MAIN ST",
    "city": "MILPITAS",
    "zip": "95035",
    "county": "SANTA CLARA",
    "phone": "(408) 262-8801",
    "lat": 37.4066979,
    "lng": -121.9034497
  },
  {
    "id": "070001322",
    "name": "PRESTIGE ADULT DAY HEALTH CARE",
    "npi": null,
    "hcaiId": null,
    "businessName": "PRESTIGE ADHC INC.",
    "contactEmail": "PRESTIGE.ADHC@YAHOO.COM",
    "categoryName": "ADULT DAY HEALTH CARE",
    "categoryCode": "ADHC",
    "licenseStatus": "ACTIVE",
    "inService": true,
    "licenseNumber": "070000640",
    "licenseEffectiveDate": "11/29/2024",
    "licenseExpirationDate": "11/28/2025",
    "dataDate": "10/18/2025",
    "capacity": 0,
    "address": "1765 S MAIN ST, SUITE 101",
    "city": "MILPITAS",
    "zip": "95035",
    "county": "SANTA CLARA",
    "phone": "(408) 586-9000",
    "lat": 37.405881,
    "lng": -121.904127
  },
  {
    "id": "630010918",
    "name": "SATELLITE DIALYSIS MILPITAS",
    "npi": "1386421147",
    "hcaiId": "306434182",
    "businessName": "SATELLITE MILPITAS, LLC",
    "contactEmail": "TENGM@SATELLITEHEALTH.COM",
    "categoryName": "CHRONIC DIALYSIS CLINIC",
    "categoryCode": "ESRD/CDC",
    "licenseStatus": "ACTIVE",
    "inService": true,
    "licenseNumber": "550000264",
    "licenseEffectiveDate": "02/19/2025",
    "licenseExpirationDate": "10/31/2025",
    "dataDate": "10/18/2025",
    "capacity": 24,
    "address": "1860 MILMONT DR",
    "city": "MILPITAS",
    "zip": "95035",
    "county": "SANTA CLARA",
    "phone": "(669) 236-5953",
    "lat": 37.45593125,
    "lng": -121.9170385
  },
  {
    "id": "630011046",
    "name": "SEQUOIA HOME HEALTH",
    "npi": "1679951859",
    "hcaiId": "406434237",
    "businessName": "SOUTH BAY HEALTHCARE, INC.",
    "contactEmail": "ADMIN@SEQUOIAHHH.COM",
    "categoryName": "HOME HEALTH AGENCY",
    "categoryCode": "HHA",
    "licenseStatus": "ACTIVE",
    "inService": true,
    "licenseNumber": "550000575",
    "licenseEffectiveDate": "02/18/2025",
    "licenseExpirationDate": "02/17/2026",
    "dataDate": "10/18/2025",
    "capacity": 0,
    "address": "830 HILLVIEW CT, SUITE 225",
    "city": "MILPITAS",
    "zip": "95035",
    "county": "SANTA CLARA",
    "phone": "(510) 739-1992",
    "lat": 37.445472,
    "lng": -121.892094
  },
  {
    "id": "630016507",
    "name": "SEQUOIA HOSPICE",
    "npi": "1679043814",
    "hcaiId": "406430923",
    "businessName": "SOUTH BAY HEALTHCARE, INC.",
    "contactEmail": "ADMIN@SEQUOIAHHH.COM",
    "categoryName": "HOSPICE",
    "categoryCode": "HOSPICE",
    "licenseStatus": "ACTIVE",
    "inService": true,
    "licenseNumber": "550003611",
    "licenseEffectiveDate": "10/23/2024",
    "licenseExpirationDate": "08/04/2026",
    "dataDate": "10/18/2025",
    "capacity": 0,
    "address": "920 HILLVIEW CT, SUITE 135",
    "city": "MILPITAS",
    "zip": "95035",
    "county": "SANTA CLARA",
    "phone": "(510) 460-1102",
    "lat": 37.43682501,
    "lng": -121.890763
  },
  {
    "id": "070001340",
    "name": "SILICON VALLEY ADULT DAY HEALTH CARE CENTER",
    "npi": null,
    "hcaiId": null,
    "businessName": "SILICON VALLEY COMMUNITY HEALTHCARE RESOURCE, INC.",
    "contactEmail": "SVADHC10@YAHOO.COM",
    "categoryName": "ADULT DAY HEALTH CARE",
    "categoryCode": "ADHC",
    "licenseStatus": "ACTIVE",
    "inService": true,
    "licenseNumber": "070000653",
    "licenseEffectiveDate": "04/25/2025",
    "licenseExpirationDate": "04/24/2026",
    "dataDate": "10/18/2025",
    "capacity": 0,
    "address": "631 S. MILPITAS BOULEVARD",
    "city": "MILPITAS",
    "zip": "95035",
    "county": "SANTA CLARA",
    "phone": "(408) 956-8578",
    "lat": 37.424421,
    "lng": -121.8951585
  },
  {
    "id": "630011856",
    "name": "ST. JOSEPH HOME HEALTH",
    "npi": "1134388747",
    "hcaiId": "406434197",
    "businessName": "ST. MARY'S HEALTHCARE CORP.",
    "contactEmail": "SJHHINTAKE@GMAIL.COM",
    "categoryName": "HOME HEALTH AGENCY",
    "categoryCode": "HHA",
    "licenseStatus": "ACTIVE",
    "inService": true,
    "licenseNumber": "550000792",
    "licenseEffectiveDate": "03/30/2025",
    "licenseExpirationDate": "03/29/2026",
    "dataDate": "10/18/2025",
    "capacity": 0,
    "address": "1525 MCCARTHY BLVD, SUITE 208",
    "city": "MILPITAS",
    "zip": "95035",
    "county": "SANTA CLARA",
    "phone": "(408) 244-5488",
    "lat": 37.40643,
    "lng": -121.920093
  },
  {
    "id": "630012427",
    "name": "TZU CHI MOBILE CLINIC",
    "npi": null,
    "hcaiId": "306434217",
    "businessName": "BUDDHIST TZU CHI MEDICAL  FOUNDATION",
    "contactEmail": "MOBILECLINIC@TZUCHIMEDICAL.US",
    "categoryName": "PRIMARY CARE CLINIC",
    "categoryCode": "FREEC",
    "licenseStatus": "ACTIVE",
    "inService": true,
    "licenseNumber": "550001382",
    "licenseEffectiveDate": "11/18/2025",
    "licenseExpirationDate": "11/17/2026",
    "dataDate": "10/18/2025",
    "capacity": 0,
    "address": "175 DEMPSEY RD",
    "city": "MILPITAS",
    "zip": "95035",
    "county": "SANTA CLARA",
    "phone": "(559) 291-8800",
    "lat": 37.431801,
    "lng": -121.8862215
  },
  {
    "id": "070000889",
    "name": "VALLEY HEALTH CENTER MILPITAS",
    "npi": "1285629899",
    "hcaiId": null,
    "businessName": "COUNTY OF SANTA CLARA",
    "contactEmail": null,
    "categoryName": "PRIMARY CARE CLINIC",
    "categoryCode": "FQHC",
    "licenseStatus": "ACTIVE",
    "inService": true,
    "licenseNumber": "070000085",
    "licenseEffectiveDate": "11/07/2025",
    "licenseExpirationDate": "04/30/2026",
    "dataDate": "10/18/2025",
    "capacity": 0,
    "address": "143 N MAIN ST",
    "city": "MILPITAS",
    "zip": "95035",
    "county": "SANTA CLARA",
    "phone": null,
    "lat": 37.432188,
    "lng": -121.908006
  },
  {
    "id": "070001307",
    "name": "VITAS HEALTHCARE CORPORATION OF CALIFORNIA",
    "npi": "1659415222",
    "hcaiId": "406434226",
    "businessName": "VITAS HEALTHCARE CORPORATION OF CALIFORNIA",
    "contactEmail": "RUSSELL.WILLIAMSON@VITAS.COM",
    "categoryName": "HOSPICE",
    "categoryCode": "HOSPICE",
    "licenseStatus": "ACTIVE",
    "inService": true,
    "licenseNumber": "070000627",
    "licenseEffectiveDate": "05/13/2025",
    "licenseExpirationDate": "01/15/2026",
    "dataDate": "10/18/2025",
    "capacity": 0,
    "address": "670 N MCCARTHY BLVD, SUITE 220",
    "city": "MILPITAS",
    "zip": "95035",
    "county": "SANTA CLARA",
    "phone": "(408) 964-6800",
    "lat": 37.43523,
    "lng": -121.9212945
  },
  {
    "id": "630010917",
    "name": "WELLBOUND OF MILPITAS",
    "npi": "1962457267",
    "hcaiId": null,
    "businessName": null,
    "contactEmail": null,
    "categoryName": "CHRONIC DIALYSIS CLINIC",
    "categoryCode": "ESRD",
    "licenseStatus": null,
    "inService": null,
    "licenseNumber": null,
    "licenseEffectiveDate": null,
    "licenseExpirationDate": null,
    "dataDate": "10/18/2025",
    "capacity": 0,
    "address": "1850 MILMONT DR",
    "city": "MILPITAS",
    "zip": "95035",
    "county": "SANTA CLARA",
    "phone": "(650) 404-3613",
    "lat": 37.4563217,
    "lng": -121.9168506
  }
]