[
  {
    "id": "070000136",
    "name": "EL CAMINO HEALTH LOS GATOS",
    "npi": "1093712374",
    "hcaiId": "106430743",
    "businessName": "EL CAMINO HOSPITAL",
    "contactEmail": "MARYANNE.MCRE@TENETHEALTH.COM",
    "categoryName": "GENERAL ACUTE CARE HOSPITAL",
    "categoryCode": "GACH",
    "licenseStatus": "ACTIVE",
    "inService": true,
    "licenseNumber": "070000660",
    "licenseEffectiveDate": "04/09/2025",
    "licenseExpirationDate": "12/30/2025",
    "dataDate": "10/18/2025",
    "capacity": 143,
    "address": "815 POLLARD RD",
    "city": "LOS GATOS",
    "zip": "95032",
    "county": "SANTA CLARA",
    "phone": "(408) 378-6131",
    "lat": 37.262709,
    "lng": -121.9693545
  },
  {
    "id": "140001257",
    "name": "FRESENIUS MEDICAL CARE - LOS GATOS",
    "npi": "1043322944",
    "hcaiId": "306431890",
    "businessName": "BIO-MEDICAL APPLICATIONS OF LOS GATOS, INC.",
    "contactEmail": "CLINIC1172@FMC-NA.COM",
    "categoryName": "CHRONIC DIALYSIS CLINIC",
    "categoryCode": "ESRD/CDC",
    "licenseStatus": "ACTIVE",
    "inService": true,
    "licenseNumber": "140000641",
    "licenseEffectiveDate": "11/02/2024",
    "licenseExpirationDate": "11/01/2025",
    "dataDate": "10/18/2025",
    "capacity": 12,
    "address": "14651 S BASCOM AVE, SUITE 100",
    "city": "LOS GATOS",
    "zip": "95032",
    "county": "SANTA CLARA",
    "phone": "(408) 358-3791",
    "lat": 37.256085,
    "lng": -121.951224
  },
  {
    "id": "630014550",
    "name": "LOS GATOS DIALYSIS",
    "npi": "1538509161",
    "hcaiId": "306434265",
    "businessName": "TOTAL RENAL CARE, INC.",
    "contactEmail": "CAL_C@DAVITA.COM",
    "categoryName": "CHRONIC DIALYSIS CLINIC",
    "categoryCode": "ESRD/CDC",
    "licenseStatus": "ACTIVE",
    "inService": true,
    "licenseNumber": "550002619",
    "licenseEffectiveDate": "03/18/2025",
    "licenseExpirationDate": "03/17/2026",
    "dataDate": "10/18/2025",
    "capacity": 16,
    "address": "14251 WINCHESTER BLVD, SUITE 100",
    "city": "LOS GATOS",
    "zip": "95032",
    "county": "SANTA CLARA",
    "phone": "(408) 370-6756",
    "lat": 37.261332,
    "lng": -121.9627665
  },
  {
    "id": "070000210",
    "name": "LOS GATOS SURGICAL CENTER",
    "npi": "1801859970",
    "hcaiId": "306434003",
    "businessName": null,
    "contactEmail": "DONNA.SYLVIA@HCAHEALTHCARE.COM",
    "categoryName": "SURGICAL CLINIC",
    "categoryCode": "ASC",
    "licenseStatus": "INACTIVE - CAPEN DECISION",
    "inService": false,
    "licenseNumber": "070000227",
    "licenseEffectiveDate": "11/18/2007",
    "licenseExpirationDate": "11/17/2008",
    "dataDate": "10/18/2025",
    "capacity": 0,
    "address": "15195 NATIONAL AVE",
    "city": "LOS GATOS",
    "zip": "95032",
    "county": "SANTA CLARA",
    "phone": "(408) 272-8308",
    "lat": 37.247598,
    "lng": -121.9509315
  },
  {
    "id": "070000154",
    "name": "MISSION OAKS HOSPITAL",
    "npi": null,
    "hcaiId": "106430915",
    "businessName": "GOOD SAMARITAN HOSPITAL, LP",
    "contactEmail": null,
    "categoryName": "GENERAL ACUTE CARE HOSPITAL",
    "categoryCode": "GACH",
    "licenseStatus": "ACTIVE",
    "inService": true,
    "licenseNumber": "070000048",
    "licenseEffectiveDate": "02/01/2025",
    "licenseExpirationDate": "01/31/2026",
    "dataDate": "10/18/2025",
    "capacity": 49,
    "address": "15891 LOS GATOS ALMADEN RD",
    "city": "LOS GATOS",
    "zip": "95032",
    "county": "SANTA CLARA",
    "phone": "(408) 559-2011",
    "lat": 37.244772,
    "lng": -121.948011
  },
  {
    "id": "070001410",
    "name": "MISSION OAKS HOSPITAL - D/P APH",
    "npi": null,
    "hcaiId": null,
    "businessName": "GOOD SAMARITAN HOSPITAL, LP",
    "contactEmail": null,
    "categoryName": "ACUTE PSYCHIATRIC HOSPITAL",
    "categoryCode": "APH",
    "licenseStatus": "ACTIVE",
    "inService": true,
    "licenseNumber": "070000048",
    "licenseEffectiveDate": "02/01/2025",
    "licenseExpirationDate": "01/31/2026",
    "dataDate": "10/18/2025",
    "capacity": 21,
    "address": "15891 LOS GATOS ALMADEN RD",
    "city": "LOS GATOS",
    "zip": "95032",
    "county": "SANTA CLARA",
    "phone": "(408) 559-2011",
    "lat": 37.244772,
    "lng": -121.948011
  },
  {
    "id": "070000611",
    "name": "NATIONAL AMBULATORY SURGERY CENTER, LLC",
    "npi": "1588745921",
    "hcaiId": null,
    "businessName": null,
    "contactEmail": "BARB@BAASC.COM",
    "categoryName": "SURGICAL CLINIC",
    "categoryCode": "ASC",
    "licenseStatus": null,
    "inService": null,
    "licenseNumber": null,
    "licenseEffectiveDate": null,
    "licenseExpirationDate": null,
    "dataDate": "10/18/2025",
    "capacity": 0,
    "address": "15251 NATIONAL AVE, SUITE 207",
    "city": "LOS GATOS",
    "zip": "95032",
    "county": "SANTA CLARA",
    "phone": "(408) 358-1555",
    "lat": 37.246338,
    "lng": -121.9505175
  },
  {
    "id": "630006201",
    "name": "SAMARITAN ENDOSCOPY CENTER",
    "npi": "1447352737",
    "hcaiId": "306434173",
    "businessName": "SAMARITAN ENDOSCOPY CENTER, INC.",
    "contactEmail": "DRSEGALL@VERIZON.NET",
    "categoryName": "SURGICAL CLINIC",
    "categoryCode": "ASC",
    "licenseStatus": "INACTIVE - CAPEN DECISION",
    "inService": false,
    "licenseNumber": "550000093",
    "licenseEffectiveDate": "05/28/2007",
    "licenseExpirationDate": "05/27/2008",
    "dataDate": "10/18/2025",
    "capacity": 0,
    "address": "15195 NATIONAL AVE, SUITE 204",
    "city": "LOS GATOS",
    "zip": "95032",
    "county": "SANTA CLARA",
    "phone": "(408) 356-0988",
    "lat": 37.247787,
    "lng": -121.9512285
  },
  {
    "id": "630013746",
    "name": "SHERMIN MOBILE IMAGING",
    "npi": null,
    "hcaiId": null,
    "businessName": null,
    "contactEmail": null,
    "categoryName": "OTHER",
    "categoryCode": "UNLICEN",
    "licenseStatus": null,
    "inService": null,
    "licenseNumber": null,
    "licenseEffectiveDate": null,
    "licenseExpirationDate": null,
    "dataDate": "10/18/2025",
    "capacity": 0,
    "address": "14601 S BASCOM AVE, SUITE 200",
    "city": "LOS GATOS",
    "zip": "95032",
    "county": "SANTA CLARA",
    "phone": null,
    "lat": 37.256202,
    "lng": -121.950603
  },
  {
    "id": "070001124",
    "name": "SILICON VALLEY SURGERY CENTER",
    "npi": "1881662856",
    "hcaiId": "306434135",
    "businessName": null,
    "contactEmail": null,
    "categoryName": "SURGICAL CLINIC",
    "categoryCode": "ASC",
    "licenseStatus": "INACTIVE - CAPEN DECISION",
    "inService": false,
    "licenseNumber": "070000480",
    "licenseEffectiveDate": "02/02/2008",
    "licenseExpirationDate": "02/01/2009",
    "dataDate": "10/18/2025",
    "capacity": 0,
    "address": "14601 S BASCOM AVE, SUITE 100",
    "city": "LOS GATOS",
    "zip": "95032",
    "county": "SANTA CLARA",
    "phone": "(408) 402-0663",
    "lat": 37.256202,
    "lng": -121.950603
  },
  {
    "id": "070000026",
    "name": "STONEBROOK HEALTH AND REHABILITATION",
    "npi": "1487987772",
    "hcaiId": "206430720",
    "businessName": "ALGD, LLC",
    "contactEmail": "CONNORR@ASPENHEALTH.COM",
    "categoryName": "SKILLED NURSING FACILITY",
    "categoryCode": "SNF",
    "licenseStatus": "ACTIVE",
    "inService": true,
    "licenseNumber": "070000013",
    "licenseEffectiveDate": "11/01/2025",
    "licenseExpirationDate": "10/31/2026",
    "dataDate": "10/18/2025",
    "capacity": 73,
    "address": "350 DE SOTO DR",
    "city": "LOS GATOS",
    "zip": "95032",
    "county": "SANTA CLARA",
    "phone": "(408) 356-9151",
    "lat": 37.244871,
    "lng": -121.946994
  },
  {
    "id": "070000778",
    "name": "THE TERRACES OF LOS GATOS",
    "npi": "1659356111",
    "hcaiId": "206434058",
    "businessName": "HUMANGOOD NORCAL",
    "contactEmail": "BILL.PENROD@HUMANGOOD.ORG",
    "categoryName": "SKILLED NURSING FACILITY",
    "categoryCode": "SNF",
    "licenseStatus": "ACTIVE",
    "inService": true,
    "licenseNumber": "070000326",
    "licenseEffectiveDate": "11/27/2024",
    "licenseExpirationDate": "11/26/2025",
    "dataDate": "10/18/2025",
    "capacity": 59,
    "address": "800 BLOSSOM HILL RD",
    "city": "LOS GATOS",
    "zip": "95032",
    "county": "SANTA CLARA",
    "phone": "(408) 357-1100",
    "lat": 37.234296,
    "lng": -121.9594095
  },
  {
    "id": "070000003",
    "name": "VASONA CREEK HEALTHCARE CENTER",
    "npi": "1285670851",
    "hcaiId": "206431585",
    "businessName": "GOLDEN OAK HOLDINGS, LLC",
    "contactEmail": "JEFF.EDWARDS@VASONACREEK.COM",
    "categoryName": "SKILLED NURSING FACILITY",
    "categoryCode": "SNF",
    "licenseStatus": "ACTIVE",
    "inService": true,
    "licenseNumber": "070000153",
    "licenseEffectiveDate": "11/11/2025",
    "licenseExpirationDate": "11/10/2026",
    "dataDate": "10/18/2025",
    "capacity": 148,
    "address": "16412 LOS GATOS BLVD",
    "city": "LOS GATOS",
    "zip": "95032",
    "county": "SANTA CLARA",
    "phone": "(408) 356-2191",
    "lat": 37.230192,
    "lng": -121.96458
  },
  {
    "id": "070000853",
    "name": "VIBRANTCARE REHABILITATION",
    "npi": null,
    "hcaiId": null,
    "businessName": null,
    "contactEmail": null,
    "categoryName": "REHABILITATION CLINIC",
    "categoryCode": "OPT/SP",
    "licenseStatus": null,
    "inService": null,
    "licenseNumber": null,
    "licenseEffectiveDate": null,
    "licenseExpirationDate": null,
    "dataDate": "10/18/2025",
    "capacity": 0,
    "address": "15215 NATIONAL AVE, SUITE 100",
    "city": "LOS GATOS",
    "zip": "95032",
    "county": "SANTA CLARA",
    "phone": "(408) 356-1990",
    "lat": 37.24694498,
    "lng": -121.950863
  },
  {
    "id": "630014878",
    "name": "VIP SURGICARE",
    "npi": "1053612853",
    "hcaiId": null,
    "businessName": null,
    "contactEmail": null,
    "categoryName": "SURGICAL CLINIC",
    "categoryCode": "ASC",
    "licenseStatus": null,
    "inService": null,
    "licenseNumber": null,
    "licenseEffectiveDate": null,
    "licenseExpirationDate": null,
    "dataDate": "10/18/2025",
    "capacity": 0,
    "address": "15047 LOS GATOS BLVD, SUITE 150",
    "city": "LOS GATOS",
    "zip": "95032",
    "county": "SANTA CLARA",
    "phone": "(408) 358-7000",
    "lat": 37.250082,
    "lng": -121.9555125
  },
  {
    "id": "070000002",
    "name": "WOODLANDS HEALTHCARE CENTER",
    "npi": "1265765556",
    "hcaiId": "206430723",
    "businessName": "ALGT, LLC",
    "contactEmail": "CONNORR@ASPENHEALTH.COM",
    "categoryName": "SKILLED NURSING FACILITY",
    "categoryCode": "SNF",
    "licenseStatus": "ACTIVE",
    "inService": true,
    "licenseNumber": "070000016",
    "licenseEffectiveDate": "11/01/2025",
    "licenseExpirationDate": "10/31/2026",
    "dataDate": "10/18/2025",
    "capacity": 65,
    "address": "14966 TERRENO DE FLORES LN",
    "city": "LOS GATOS",
    "zip": "95032",
    "county": "SANTA CLARA",
    "phone": "(408) 356-8136",
    "lat": 37.250811,
    "lng": -121.9525605
  }
]