[
  {
    "id": "070001343",
    "name": "GRACE ADULT DAY HEALTH CARE CENTER",
    "npi": null,
    "hcaiId": null,
    "businessName": "NAVA INCORPORATED",
    "contactEmail": "INFO@GRACEADULTCARE.COM",
    "categoryName": "ADULT DAY HEALTH CARE",
    "categoryCode": "ADHC",
    "licenseStatus": "ACTIVE",
    "inService": true,
    "licenseNumber": "070000655",
    "licenseEffectiveDate": "11/06/2025",
    "licenseExpirationDate": "11/05/2026",
    "dataDate": "10/18/2025",
    "capacity": 0,
    "address": "3010 OLCOTT ST",
    "city": "SANTA CLARA",
    "zip": "95054",
    "county": "SANTA CLARA",
    "phone": "(408) 727-6280",
    "lat": 37.376856,
    "lng": -121.967793
  },
  {
    "id": "630013367",
    "name": "HARMONY HOME HEALTH",
    "npi": "1538469929",
    "hcaiId": "406434236",
    "businessName": "HARMONY HEALTHCARE, LLC",
    "contactEmail": "BUSINESS.OFFICE@HARMONYHCARE.COM",
    "categoryName": "HOME HEALTH AGENCY",
    "categoryCode": "HHA",
    "licenseStatus": "ACTIVE",
    "inService": true,
    "licenseNumber": "550001965",
    "licenseEffectiveDate": "06/21/2025",
    "licenseExpirationDate": "06/20/2026",
    "dataDate": "10/18/2025",
    "capacity": 0,
    "address": "2350 MISSION COLLEGE BLVD, SUITE 875",
    "city": "SANTA CLARA",
    "zip": "95054",
    "county": "SANTA CLARA",
    "phone": "(408) 260-7062",
    "lat": 37.38708,
    "lng": -121.966866
  },
  {
    "id": "630016538",
    "name": "INTOUCH HOME CARE, INC.",
    "npi": "1639541758",
    "hcaiId": "406434296",
    "businessName": "INTOUCH HOME CARE, INC.",
    "contactEmail": "NAZ@INTOUCHHC.COM",
    "categoryName": "HOME HEALTH AGENCY",
    "categoryCode": "HHA",
    "licenseStatus": "ACTIVE",
    "inService": true,
    "licenseNumber": "550003584",
    "licenseEffectiveDate": "07/21/2025",
    "licenseExpirationDate": "07/20/2026",
    "dataDate": "10/18/2025",
    "capacity": 0,
    "address": "4701 PATRICK HENRY DR, BUILDING 1, STE 1107",
    "city": "SANTA CLARA",
    "zip": "95054",
    "county": "SANTA CLARA",
    "phone": "(408) 394-9529",
    "lat": 37.397574,
    "lng": -121.9841775
  },
  {
    "id": "220001006",
    "name": "KAISER FOUNDATION HOSPITAL HOME HEALTH-SANTA CLARA",
    "npi": "1588743181",
    "hcaiId": "406430748",
    "businessName": "KAISER FOUNDATION HOSPITALS",
    "contactEmail": "SANDRA.HNIZDO@KP.ORG",
    "categoryName": "HOME HEALTH AGENCY",
    "categoryCode": "HHA",
    "licenseStatus": "ACTIVE",
    "inService": true,
    "licenseNumber": "220000406",
    "licenseEffectiveDate": "04/17/2025",
    "licenseExpirationDate": "11/30/2025",
    "dataDate": "10/18/2025",
    "capacity": 0,
    "address": "3900 FREEDOM CIR, SUITE 201",
    "city": "SANTA CLARA",
    "zip": "95054",
    "county": "SANTA CLARA",
    "phone": "(408) 609-0766",
    "lat": 37.386666,
    "lng": -121.97268
  },
  {
    "id": "070000773",
    "name": "KAISER FOUNDATION HOSPITAL HOSPICE - SANTA CLARA",
    "npi": "1841364247",
    "hcaiId": "406434119",
    "businessName": "KAISER FOUNDATION HOSPITALS",
    "contactEmail": "NENETTE.D.HOFFMAN@KP.ORG",
    "categoryName": "HOSPICE",
    "categoryCode": "HOSPICE",
    "licenseStatus": "ACTIVE",
    "inService": true,
    "licenseNumber": "070000404",
    "licenseEffectiveDate": "04/17/2025",
    "licenseExpirationDate": "12/31/2025",
    "dataDate": "10/18/2025",
    "capacity": 0,
    "address": "3900 FREEDOM CIR, SUITE 201",
    "city": "SANTA CLARA",
    "zip": "95054",
    "county": "SANTA CLARA",
    "phone": "(510) 821-0276",
    "lat": 37.386666,
    "lng": -121.97268
  },
  {
    "id": "220001018",
    "name": "SANTA CLARA POST ACUTE",
    "npi": "1710058441",
    "hcaiId": "206430798",
    "businessName": "991 CLYDE AVENUE OPCO, LLC",
    "contactEmail": "ADMINISTRATOR@SANTACLARAPOSTACUTE.COM",
    "categoryName": "SKILLED NURSING FACILITY",
    "categoryCode": "SNF",
    "licenseStatus": "ACTIVE",
    "inService": true,
    "licenseNumber": "220000411",
    "licenseEffectiveDate": "11/07/2025",
    "licenseExpirationDate": "11/06/2026",
    "dataDate": "10/18/2025",
    "capacity": 201,
    "address": "991 CLYDE AVE",
    "city": "SANTA CLARA",
    "zip": "95054",
    "county": "SANTA CLARA",
    "phone": "(510) 688-5669",
    "lat": 37.389834,
    "lng": -121.951701
  }
]