[
  {
    "id": "070001355",
    "name": "KAISER FOUNDATION HOSPITAL-SANTA CLARA",
    "npi": "1356663488",
    "hcaiId": "106434153",
    "businessName": "KAISER FOUNDATION HOSPITALS",
    "contactEmail": "ELIZA.DESAGUN@KP.ORG",
    "categoryName": "GENERAL ACUTE CARE HOSPITAL",
    "categoryCode": "GACH",
    "licenseStatus": "ACTIVE",
    "inService": true,
    "licenseNumber": "070000661",
    "licenseEffectiveDate": "12/01/2024",
    "licenseExpirationDate": "11/30/2025",
    "dataDate": "10/18/2025",
    "capacity": 343,
    "address": "700 LAWRENCE EXPY",
    "city": "SANTA CLARA",
    "zip": "95051",
    "county": "SANTA CLARA",
    "phone": "(408) 851-4423",
    "lat": 37.33537712,
    "lng": -121.9958192
  },
  {
    "id": "630013527",
    "name": "KAISER PERMANENTE PSYCHIATRIC HEALTH FACILITY-SANTA CLARA",
    "npi": "1356663488",
    "hcaiId": null,
    "businessName": null,
    "contactEmail": null,
    "categoryName": "ACUTE PSYCHIATRIC HOSPITAL",
    "categoryCode": "PHF",
    "licenseStatus": null,
    "inService": null,
    "licenseNumber": null,
    "licenseEffectiveDate": null,
    "licenseExpirationDate": null,
    "dataDate": "10/18/2025",
    "capacity": 0,
    "address": "3840 HOMESTEAD RD",
    "city": "SANTA CLARA",
    "zip": "95051",
    "county": "SANTA CLARA",
    "phone": "(408) 851-4850",
    "lat": 37.33770611,
    "lng": -122.0009624
  },
  {
    "id": "630014275",
    "name": "SANTA CLARA DIALYSIS",
    "npi": "1073858361",
    "hcaiId": "306434257",
    "businessName": "TOTAL RENAL CARE, INC.",
    "contactEmail": "CAL_C@DAVITA.COM",
    "categoryName": "CHRONIC DIALYSIS CLINIC",
    "categoryCode": "ESRD/CDC",
    "licenseStatus": "ACTIVE",
    "inService": true,
    "licenseNumber": "550002409",
    "licenseEffectiveDate": "08/28/2025",
    "licenseExpirationDate": "08/27/2026",
    "dataDate": "10/18/2025",
    "capacity": 24,
    "address": "777 LAWRENCE EXPY, SUITE 18",
    "city": "SANTA CLARA",
    "zip": "95051",
    "county": "SANTA CLARA",
    "phone": "(408) 243-1130",
    "lat": 37.336437,
    "lng": -121.9947345
  },
  {
    "id": "630023203",
    "name": "WILLOW PATHWAY HOME HEALTH CARE",
    "npi": null,
    "hcaiId": "406015944",
    "businessName": "WILLOW PATHWAY, INC",
    "contactEmail": "LOUISE.RYOO@WILLOWPATHWAY.ORG",
    "categoryName": "HOME HEALTH AGENCY",
    "categoryCode": "HHA",
    "licenseStatus": "ACTIVE",
    "inService": true,
    "licenseNumber": "550007846",
    "licenseEffectiveDate": "02/11/2025",
    "licenseExpirationDate": "02/10/2026",
    "dataDate": "10/18/2025",
    "capacity": 0,
    "address": "2328 WALSH AVE, SUITE D",
    "city": "SANTA CLARA",
    "zip": "95051",
    "county": "SANTA CLARA",
    "phone": "(650) 374-2030",
    "lat": 37.36832399,
    "lng": -121.966284
  }
]