[
  {
    "id": "630026857",
    "name": "DEL MAR ELEMENTARY SCHOOL",
    "npi": "1952749541",
    "hcaiId": null,
    "businessName": "SANTA CRUZ COMMUNITY HEALTH CENTERS",
    "contactEmail": "RJASSO@SCHEALTHCENTERS.ORG",
    "categoryName": "PRIMARY CARE CLINIC",
    "categoryCode": "COMTYC",
    "licenseStatus": "ACTIVE",
    "inService": true,
    "licenseNumber": "550002690",
    "licenseEffectiveDate": "06/03/2025",
    "licenseExpirationDate": "06/02/2026",
    "dataDate": "10/18/2025",
    "capacity": 0,
    "address": "1959 MERRILL ST, ROOM 9",
    "city": "SANTA CRUZ",
    "zip": "95062",
    "county": "SANTA CRUZ",
    "phone": "(831) 427-3500",
    "lat": 36.965691,
    "lng": -121.985316
  },
  {
    "id": "630026955",
    "name": "DIENTES COMMUNITY DENTAL CARE - CAPITOLA ROAD",
    "npi": null,
    "hcaiId": null,
    "businessName": "DIENTES COMMUNITY DENTAL CARE",
    "contactEmail": "LHALSEY@DIENTES.ORG",
    "categoryName": "PRIMARY CARE CLINIC",
    "categoryCode": "COMTYC",
    "licenseStatus": "ACTIVE",
    "inService": true,
    "licenseNumber": "070000386",
    "licenseEffectiveDate": "11/15/2024",
    "licenseExpirationDate": "11/14/2025",
    "dataDate": "10/18/2025",
    "capacity": 0,
    "address": "1500 CAPITOLA RD",
    "city": "SANTA CRUZ",
    "zip": "95062",
    "county": "SANTA CRUZ",
    "phone": "(408) 600-4981",
    "lat": 36.976041,
    "lng": -121.984758
  },
  {
    "id": "070000044",
    "name": "DRIFTWOOD HEALTHCARE CENTER - SANTA CRUZ",
    "npi": "1457649436",
    "hcaiId": "206440758",
    "businessName": "DRIFTWOOD SANTA CRUZ OPERATING COMPANY LP",
    "contactEmail": "FITZGERALD.GAINES@MARINERHEALTHCARE.COM",
    "categoryName": "SKILLED NURSING FACILITY",
    "categoryCode": "SNF",
    "licenseStatus": "ACTIVE",
    "inService": true,
    "licenseNumber": "070000033",
    "licenseEffectiveDate": "11/01/2025",
    "licenseExpirationDate": "10/31/2026",
    "dataDate": "10/18/2025",
    "capacity": 92,
    "address": "675 24TH AVE",
    "city": "SANTA CRUZ",
    "zip": "95062",
    "county": "SANTA CRUZ",
    "phone": "(831) 475-6323",
    "lat": 36.964854,
    "lng": -121.9799925
  },
  {
    "id": "630015037",
    "name": "EAST CLIFF FAMILY HEALTH CENTER",
    "npi": "1952749541",
    "hcaiId": "306440769",
    "businessName": "SANTA CRUZ COMMUNITY HEALTH CENTERS",
    "contactEmail": "COMPLIANCE@SCHEALTHCENTERS.ORG",
    "categoryName": "PRIMARY CARE CLINIC",
    "categoryCode": "COMTYC",
    "licenseStatus": "ACTIVE",
    "inService": true,
    "licenseNumber": "550002690",
    "licenseEffectiveDate": "06/03/2025",
    "licenseExpirationDate": "06/02/2026",
    "dataDate": "10/18/2025",
    "capacity": 0,
    "address": "1510 CAPITOLA RD",
    "city": "SANTA CRUZ",
    "zip": "95062",
    "county": "SANTA CRUZ",
    "phone": "(831) 427-3500",
    "lat": 36.97616684,
    "lng": -121.984426
  },
  {
    "id": "630027397",
    "name": "GREEN ACRES ELEMENTARY SCHOOL",
    "npi": "1952749541",
    "hcaiId": null,
    "businessName": "SANTA CRUZ COMMUNITY HEALTH CENTERS",
    "contactEmail": null,
    "categoryName": "PRIMARY CARE CLINIC",
    "categoryCode": "COMTYC",
    "licenseStatus": "ACTIVE",
    "inService": true,
    "licenseNumber": "550002690",
    "licenseEffectiveDate": "06/03/2025",
    "licenseExpirationDate": "06/02/2026",
    "dataDate": "10/18/2025",
    "capacity": 0,
    "address": "966 BOSTWICK LN, ROOM P2",
    "city": "SANTA CRUZ",
    "zip": "95062",
    "county": "SANTA CRUZ",
    "phone": "(831) 427-3500",
    "lat": 36.983363,
    "lng": -121.987286
  },
  {
    "id": "630027939",
    "name": "HARBOR HIGH SCHOOL",
    "npi": null,
    "hcaiId": null,
    "businessName": "SANTA CRUZ COMMUNITY HEALTH CENTERS",
    "contactEmail": null,
    "categoryName": "PRIMARY CARE CLINIC",
    "categoryCode": "COMTYC",
    "licenseStatus": "ACTIVE",
    "inService": true,
    "licenseNumber": "550002690",
    "licenseEffectiveDate": "06/03/2025",
    "licenseExpirationDate": "06/02/2026",
    "dataDate": "10/18/2025",
    "capacity": 0,
    "address": "300 LA FONDA AVE",
    "city": "SANTA CRUZ",
    "zip": "95062",
    "county": "SANTA CRUZ",
    "phone": null,
    "lat": 36.98442202,
    "lng": -121.992908
  },
  {
    "id": "630027158",
    "name": "LIVE OAK ELEMENTARY SCHOOL",
    "npi": null,
    "hcaiId": null,
    "businessName": "SANTA CRUZ COMMUNITY HEALTH CENTERS",
    "contactEmail": "RJASSO@SCHEALTHCENTERS.ORG",
    "categoryName": "PRIMARY CARE CLINIC",
    "categoryCode": "COMTYC",
    "licenseStatus": "ACTIVE",
    "inService": true,
    "licenseNumber": "550002690",
    "licenseEffectiveDate": "06/03/2025",
    "licenseExpirationDate": "06/02/2026",
    "dataDate": "10/18/2025",
    "capacity": 0,
    "address": "1916 CAPITOLA RD, ROOM 110A",
    "city": "SANTA CRUZ",
    "zip": "95062",
    "county": "SANTA CRUZ",
    "phone": "(831) 427-3500",
    "lat": 36.974993,
    "lng": -121.981873
  },
  {
    "id": "070000068",
    "name": "REDWOOD GROVE POST ACUTE",
    "npi": "1780431817",
    "hcaiId": "206440727",
    "businessName": "SOQUEL CARE, LLC",
    "contactEmail": "JOSH@PACRIDGEHC.COM",
    "categoryName": "SKILLED NURSING FACILITY",
    "categoryCode": "SNF",
    "licenseStatus": "ACTIVE",
    "inService": true,
    "licenseNumber": "070000018",
    "licenseEffectiveDate": "04/01/2025",
    "licenseExpirationDate": "11/10/2025",
    "dataDate": "10/18/2025",
    "capacity": 144,
    "address": "2990 SOQUEL AVE",
    "city": "SANTA CRUZ",
    "zip": "95062",
    "county": "SANTA CRUZ",
    "phone": "(858) 504-0388",
    "lat": 36.985563,
    "lng": -121.984533
  },
  {
    "id": "630026136",
    "name": "ROTACARE SANTA CRUZ",
    "npi": null,
    "hcaiId": null,
    "businessName": "ROTACARE BAY AREA, INC.",
    "contactEmail": "SANTACRUZCLINIC@ROTACAREBAYAREA.ORG",
    "categoryName": "PRIMARY CARE CLINIC",
    "categoryCode": "FREEC",
    "licenseStatus": "ACTIVE",
    "inService": true,
    "licenseNumber": "550006678",
    "licenseEffectiveDate": "07/20/2025",
    "licenseExpirationDate": "07/19/2026",
    "dataDate": "10/18/2025",
    "capacity": 0,
    "address": "515 FREDERICK ST",
    "city": "SANTA CRUZ",
    "zip": "95062",
    "county": "SANTA CRUZ",
    "phone": "(831) 204-6040",
    "lat": 36.977652,
    "lng": -122.00418
  },
  {
    "id": "630015331",
    "name": "SANTA CRUZ COUNTY PSYCHIATRIC HEALTH FACILITY",
    "npi": "1780926964",
    "hcaiId": null,
    "businessName": null,
    "contactEmail": null,
    "categoryName": "ACUTE PSYCHIATRIC HOSPITAL",
    "categoryCode": "PHF",
    "licenseStatus": null,
    "inService": null,
    "licenseNumber": null,
    "licenseEffectiveDate": null,
    "licenseExpirationDate": null,
    "dataDate": "10/18/2025",
    "capacity": 0,
    "address": "2250 SOQUEL AVE, SUITE 150",
    "city": "SANTA CRUZ",
    "zip": "95062",
    "county": "SANTA CRUZ",
    "phone": "(831) 600-2801",
    "lat": 36.983214,
    "lng": -121.9938975
  },
  {
    "id": "070000058",
    "name": "SANTA CRUZ POST ACUTE",
    "npi": "1306369871",
    "hcaiId": "206440809",
    "businessName": "SANTA CRUZIDENCE OPCO, LLC",
    "contactEmail": "MASON.RASMUSSEN@SANTACRUZPA.COM",
    "categoryName": "SKILLED NURSING FACILITY",
    "categoryCode": "SNF",
    "licenseStatus": "ACTIVE",
    "inService": true,
    "licenseNumber": "070000059",
    "licenseEffectiveDate": "06/01/2025",
    "licenseExpirationDate": "05/31/2026",
    "dataDate": "10/18/2025",
    "capacity": 149,
    "address": "1115 CAPITOLA RD",
    "city": "SANTA CRUZ",
    "zip": "95062",
    "county": "SANTA CRUZ",
    "phone": "(831) 475-4055",
    "lat": 36.978057,
    "lng": -121.987989
  },
  {
    "id": "630026688",
    "name": "SHORELINE MIDDLE SCHOOL",
    "npi": "1952749541",
    "hcaiId": null,
    "businessName": "SANTA CRUZ COMMUNITY HEALTH CENTERS",
    "contactEmail": "RJASSO@SCHEALTHCENTERS.ORG",
    "categoryName": "PRIMARY CARE CLINIC",
    "categoryCode": "COMTYC",
    "licenseStatus": "ACTIVE",
    "inService": true,
    "licenseNumber": "550002690",
    "licenseEffectiveDate": "06/03/2025",
    "licenseExpirationDate": "06/02/2026",
    "dataDate": "10/18/2025",
    "capacity": 0,
    "address": "855 17TH AVE, ROOM 95, 96, & 204",
    "city": "SANTA CRUZ",
    "zip": "95062",
    "county": "SANTA CRUZ",
    "phone": "(831) 427-3500",
    "lat": 36.967149,
    "lng": -121.985435
  },
  {
    "id": "070000127",
    "name": "SUTTER CARE AT HOME",
    "npi": "1245590876",
    "hcaiId": "406444021",
    "businessName": "SUTTER VISITING NURSE ASSOCIATION AND HOSPICE",
    "contactEmail": "SVNAHREGULATORY@SUTTERHEALTH.ORG",
    "categoryName": "HOME HEALTH AGENCY",
    "categoryCode": "HHA",
    "licenseStatus": "ACTIVE",
    "inService": true,
    "licenseNumber": "070000224",
    "licenseEffectiveDate": "04/12/2025",
    "licenseExpirationDate": "04/11/2026",
    "dataDate": "10/18/2025",
    "capacity": 0,
    "address": "2880 SOQUEL AVE, SUITE 10",
    "city": "SANTA CRUZ",
    "zip": "95062",
    "county": "SANTA CRUZ",
    "phone": "(831) 477-2600",
    "lat": 36.985419,
    "lng": -121.9868325
  },
  {
    "id": "630014362",
    "name": "WELLBOUND OF SANTA CRUZ",
    "npi": "1669741468",
    "hcaiId": null,
    "businessName": null,
    "contactEmail": null,
    "categoryName": "CHRONIC DIALYSIS CLINIC",
    "categoryCode": "ESRD",
    "licenseStatus": null,
    "inService": null,
    "licenseNumber": null,
    "licenseEffectiveDate": null,
    "licenseExpirationDate": null,
    "dataDate": "10/18/2025",
    "capacity": 0,
    "address": "2128 SOQUEL AVE",
    "city": "SANTA CRUZ",
    "zip": "95062",
    "county": "SANTA CRUZ",
    "phone": "(831) 425-0727",
    "lat": 36.98256608,
    "lng": -121.99594
  }
]