[
  {
    "id": "630027859",
    "name": "CENTRAL CARE HOME HEALTH SERVICES LLC",
    "npi": null,
    "hcaiId": null,
    "businessName": "CENTRAL CARE HOME HEALTH SERVICES LLC",
    "contactEmail": "AJSEASAY@CENTRALCAREHHS.COM",
    "categoryName": "HOME HEALTH AGENCY",
    "categoryCode": "HHA",
    "licenseStatus": "ACTIVE",
    "inService": true,
    "licenseNumber": "550009961",
    "licenseEffectiveDate": "09/15/2025",
    "licenseExpirationDate": "03/14/2026",
    "dataDate": "10/18/2025",
    "capacity": 0,
    "address": "90 MARIPOSA AVE",
    "city": "WATSONVILLE",
    "zip": "95076",
    "county": "SANTA CRUZ",
    "phone": "(831) 440-6588",
    "lat": 36.92792501,
    "lng": -121.768854
  },
  {
    "id": "630019696",
    "name": "CESAR CHAVEZ RESOURCE CENTER",
    "npi": null,
    "hcaiId": null,
    "businessName": "SALUD PARA LA GENTE",
    "contactEmail": null,
    "categoryName": "PRIMARY CARE CLINIC",
    "categoryCode": "COMTYC",
    "licenseStatus": "ACTIVE",
    "inService": true,
    "licenseNumber": "070000469",
    "licenseEffectiveDate": "11/11/2025",
    "licenseExpirationDate": "11/10/2026",
    "dataDate": "10/18/2025",
    "capacity": 0,
    "address": "440 ARTHUR RD, ROOM A",
    "city": "WATSONVILLE",
    "zip": "95076",
    "county": "SANTA CRUZ",
    "phone": null,
    "lat": 36.920421,
    "lng": -121.771332
  },
  {
    "id": "630014149",
    "name": "CLINICA DE SALUD DEL VALLE DE SALINAS - PAJARO",
    "npi": "1003173279",
    "hcaiId": "306274087",
    "businessName": "CLINICA DE SALUD DEL VALLE DE SALINAS",
    "contactEmail": "QA@CSVS.ORG",
    "categoryName": "PRIMARY CARE CLINIC",
    "categoryCode": "COMTYC",
    "licenseStatus": "ACTIVE",
    "inService": true,
    "licenseNumber": "550002383",
    "licenseEffectiveDate": "07/26/2025",
    "licenseExpirationDate": "07/25/2026",
    "dataDate": "10/18/2025",
    "capacity": 0,
    "address": "29 BISHOP ST, SUITE A",
    "city": "ROYAL OAKS",
    "zip": "95076",
    "county": "SANTA CRUZ",
    "phone": "(831) 728-2636",
    "lat": 36.901521,
    "lng": -121.7495295
  },
  {
    "id": "070001093",
    "name": "CLINICA DEL VALLE DEL PAJARO",
    "npi": "1629269618",
    "hcaiId": "306444023",
    "businessName": "SALUD PARA LA GENTE",
    "contactEmail": "COMPLIANCE@SPLG.ORG",
    "categoryName": "PRIMARY CARE CLINIC",
    "categoryCode": "COMTYC",
    "licenseStatus": "ACTIVE",
    "inService": true,
    "licenseNumber": "070000469",
    "licenseEffectiveDate": "11/11/2025",
    "licenseExpirationDate": "11/10/2026",
    "dataDate": "10/18/2025",
    "capacity": 0,
    "address": "45 NIELSON ST",
    "city": "WATSONVILLE",
    "zip": "95076",
    "county": "SANTA CRUZ",
    "phone": "(831) 728-8250",
    "lat": 36.92819749,
    "lng": -121.7925645
  },
  {
    "id": "630015519",
    "name": "CLINICA DEL VALLE DEL PAJARO",
    "npi": null,
    "hcaiId": null,
    "businessName": null,
    "contactEmail": null,
    "categoryName": "PRIMARY CARE CLINIC",
    "categoryCode": "FQHC",
    "licenseStatus": null,
    "inService": null,
    "licenseNumber": null,
    "licenseEffectiveDate": null,
    "licenseExpirationDate": null,
    "dataDate": "10/18/2025",
    "capacity": 0,
    "address": "45 NIELSON STREET",
    "city": "WATSONVILLE",
    "zip": "95076",
    "county": "SANTA CRUZ",
    "phone": "(831) 761-1588",
    "lat": 36.92819749,
    "lng": -121.7925645
  },
  {
    "id": "070000130",
    "name": "COMMUNITY BRIDGES ELDERDAY",
    "npi": null,
    "hcaiId": null,
    "businessName": "COMMUNITY BRIDGES",
    "contactEmail": "LOISS@CBRIDGES.ORG",
    "categoryName": "ADULT DAY HEALTH CARE",
    "categoryCode": "ADHC",
    "licenseStatus": "ACTIVE",
    "inService": true,
    "licenseNumber": "070000178",
    "licenseEffectiveDate": "06/25/2025",
    "licenseExpirationDate": "06/24/2026",
    "dataDate": "10/18/2025",
    "capacity": 0,
    "address": "501 MAIN ST",
    "city": "WATSONVILLE",
    "zip": "95076",
    "county": "SANTA CRUZ",
    "phone": "(831) 458-3481",
    "lat": 36.91157401,
    "lng": -121.758872
  },
  {
    "id": "630013656",
    "name": "HOSPICE OF SANTA CRUZ COUNTY",
    "npi": "1760454672",
    "hcaiId": "406444030",
    "businessName": "HOSPICE OF SANTA CRUZ COUNTY",
    "contactEmail": null,
    "categoryName": "HOSPICE",
    "categoryCode": "HOSPICE",
    "licenseStatus": "ACTIVE",
    "inService": true,
    "licenseNumber": "070000246",
    "licenseEffectiveDate": "11/27/2024",
    "licenseExpirationDate": "11/26/2026",
    "dataDate": "10/18/2025",
    "capacity": 0,
    "address": "65 NIELSON ST, SUITE 121",
    "city": "WATSONVILLE",
    "zip": "95076",
    "county": "SANTA CRUZ",
    "phone": null,
    "lat": 36.92819749,
    "lng": -121.793268
  },
  {
    "id": "070000092",
    "name": "MANRESA HEALTHCARE CENTER",
    "npi": "1346241460",
    "hcaiId": "206440914",
    "businessName": "LAZER HOLDINGS LLC",
    "contactEmail": "MBAYUGA@MANRESA.COM",
    "categoryName": "SKILLED NURSING FACILITY",
    "categoryCode": "SNF",
    "licenseStatus": "ACTIVE",
    "inService": true,
    "licenseNumber": "070000094",
    "licenseEffectiveDate": "11/01/2025",
    "licenseExpirationDate": "10/31/2026",
    "dataDate": "10/18/2025",
    "capacity": 59,
    "address": "919 FREEDOM BLVD",
    "city": "WATSONVILLE",
    "zip": "95076",
    "county": "SANTA CRUZ",
    "phone": "(831) 722-3581",
    "lat": 36.91926,
    "lng": -121.7609145
  },
  {
    "id": "630013848",
    "name": "PAJARO RESOURCE CENTER",
    "npi": "1730169756",
    "hcaiId": null,
    "businessName": "SALUD PARA LA GENTE",
    "contactEmail": "DROSEINDA@SPLG.ORG",
    "categoryName": "PRIMARY CARE CLINIC",
    "categoryCode": "COMTYC",
    "licenseStatus": "ACTIVE",
    "inService": true,
    "licenseNumber": "070000469",
    "licenseEffectiveDate": "11/11/2025",
    "licenseExpirationDate": "11/10/2026",
    "dataDate": "10/18/2025",
    "capacity": 0,
    "address": "250 SALINAS RD, SUITE 4A",
    "city": "WATSONVILLE",
    "zip": "95076",
    "county": "SANTA CRUZ",
    "phone": "(831) 728-8250",
    "lat": 36.89935879,
    "lng": -121.7481027
  },
  {
    "id": "630019697",
    "name": "PAJARO VALLEY HIGH SCHOOL CLINIC",
    "npi": null,
    "hcaiId": null,
    "businessName": "SALUD PARA LA GENTE",
    "contactEmail": null,
    "categoryName": "PRIMARY CARE CLINIC",
    "categoryCode": "COMTYC",
    "licenseStatus": "ACTIVE",
    "inService": true,
    "licenseNumber": "070000469",
    "licenseEffectiveDate": "11/11/2025",
    "licenseExpirationDate": "11/10/2026",
    "dataDate": "10/18/2025",
    "capacity": 0,
    "address": "500 HARKINS SLOUGH RD, ROOM B110C",
    "city": "WATSONVILLE",
    "zip": "95076",
    "county": "SANTA CRUZ",
    "phone": null,
    "lat": 36.914094,
    "lng": -121.7920545
  },
  {
    "id": "630023103",
    "name": "PAJARO VALLEY MOBILE",
    "npi": "1629269618",
    "hcaiId": null,
    "businessName": "SALUD PARA LA GENTE",
    "contactEmail": "DROSEINDA@SPLG.ORG",
    "categoryName": "PRIMARY CARE CLINIC",
    "categoryCode": "COMTYC",
    "licenseStatus": "ACTIVE",
    "inService": true,
    "licenseNumber": "070000469",
    "licenseEffectiveDate": "11/11/2025",
    "licenseExpirationDate": "11/10/2026",
    "dataDate": "10/18/2025",
    "capacity": 0,
    "address": "45 NIELSON ST",
    "city": "WATSONVILLE",
    "zip": "95076",
    "county": "SANTA CRUZ",
    "phone": "(831) 728-8250",
    "lat": 36.92819749,
    "lng": -121.7925645
  },
  {
    "id": "070000691",
    "name": "PLANNED PARENTHOOD MAR MONTE - WATSONVILLE HEALTH CENTER",
    "npi": null,
    "hcaiId": "306444026",
    "businessName": "PLANNED PARENTHOOD MAR MONTE, INC.",
    "contactEmail": "SERVICES_ADMIN@PPMARMONTE.ORG",
    "categoryName": "PRIMARY CARE CLINIC",
    "categoryCode": "COMTYC",
    "licenseStatus": "ACTIVE",
    "inService": true,
    "licenseNumber": "070000284",
    "licenseEffectiveDate": "01/31/2025",
    "licenseExpirationDate": "01/30/2026",
    "dataDate": "10/18/2025",
    "capacity": 0,
    "address": "398 S GREEN VALLEY RD",
    "city": "WATSONVILLE",
    "zip": "95076",
    "county": "SANTA CRUZ",
    "phone": "(408) 806-6478",
    "lat": 36.930294,
    "lng": -121.7764485
  },
  {
    "id": "630023289",
    "name": "PREGNANCY RESOURCE CENTER OF SANTA CRUZ COUNTY",
    "npi": "1467827899",
    "hcaiId": null,
    "businessName": "PREGNANCY RESOURCE CENTER OF SANTA CRUZ COUNTY",
    "contactEmail": null,
    "categoryName": "PRIMARY CARE CLINIC",
    "categoryCode": "COMTYC",
    "licenseStatus": "ACTIVE",
    "inService": true,
    "licenseNumber": "070000446",
    "licenseEffectiveDate": "11/20/2024",
    "licenseExpirationDate": "11/19/2025",
    "dataDate": "10/18/2025",
    "capacity": 0,
    "address": "55 BRENNAN ST, ROOM 201",
    "city": "WATSONVILLE",
    "zip": "95076",
    "county": "SANTA CRUZ",
    "phone": null,
    "lat": 36.91413,
    "lng": -121.7588265
  },
  {
    "id": "630026010",
    "name": "SALUD AT 64 ASPEN WAY",
    "npi": "1629269618",
    "hcaiId": null,
    "businessName": "SALUD PARA LA GENTE",
    "contactEmail": null,
    "categoryName": "PRIMARY CARE CLINIC",
    "categoryCode": "COMTYC",
    "licenseStatus": "ACTIVE",
    "inService": true,
    "licenseNumber": "070000469",
    "licenseEffectiveDate": "11/11/2025",
    "licenseExpirationDate": "11/10/2026",
    "dataDate": "10/18/2025",
    "capacity": 0,
    "address": "64 ASPEN WAY, SUITE 102",
    "city": "WATSONVILLE",
    "zip": "95076",
    "county": "SANTA CRUZ",
    "phone": null,
    "lat": 36.930969,
    "lng": -121.779756
  },
  {
    "id": "630019474",
    "name": "SALUD AT 65 NIELSON",
    "npi": "1730169756",
    "hcaiId": null,
    "businessName": "SALUD PARA LA GENTE",
    "contactEmail": null,
    "categoryName": "PRIMARY CARE CLINIC",
    "categoryCode": "COMTYC",
    "licenseStatus": "ACTIVE",
    "inService": true,
    "licenseNumber": "070000469",
    "licenseEffectiveDate": "11/11/2025",
    "licenseExpirationDate": "11/10/2026",
    "dataDate": "10/18/2025",
    "capacity": 0,
    "address": "65 NIELSON ST, SUITE 101",
    "city": "WATSONVILLE",
    "zip": "95076",
    "county": "SANTA CRUZ",
    "phone": null,
    "lat": 36.92819749,
    "lng": -121.793268
  },
  {
    "id": "630013683",
    "name": "SALUD MOBILE",
    "npi": "1497012561",
    "hcaiId": "306274084",
    "businessName": "SALUD PARA LA GENTE",
    "contactEmail": "COMPLIANCE@SPLG.ORG",
    "categoryName": "PRIMARY CARE CLINIC",
    "categoryCode": "COMTYC",
    "licenseStatus": "ACTIVE",
    "inService": true,
    "licenseNumber": "070000469",
    "licenseEffectiveDate": "11/11/2025",
    "licenseExpirationDate": "11/10/2026",
    "dataDate": "10/18/2025",
    "capacity": 0,
    "address": "45 NIELSON ST",
    "city": "WATSONVILLE",
    "zip": "95076",
    "county": "SANTA CRUZ",
    "phone": "(831) 728-8250",
    "lat": 36.92819749,
    "lng": -121.7925645
  },
  {
    "id": "070000190",
    "name": "SALUD PARA LA GENTE CLINIC",
    "npi": "1730169756",
    "hcaiId": "306441852",
    "businessName": "SALUD PARA LA GENTE",
    "contactEmail": "COMPLIANCE@SPLG.ORG",
    "categoryName": "PRIMARY CARE CLINIC",
    "categoryCode": "COMTYC",
    "licenseStatus": "ACTIVE",
    "inService": true,
    "licenseNumber": "070000162",
    "licenseEffectiveDate": "11/06/2025",
    "licenseExpirationDate": "11/05/2026",
    "dataDate": "10/18/2025",
    "capacity": 0,
    "address": "204 E BEACH ST",
    "city": "WATSONVILLE",
    "zip": "95076",
    "county": "SANTA CRUZ",
    "phone": "(831) 728-8250",
    "lat": 36.9120177,
    "lng": -121.753542
  },
  {
    "id": "630019861",
    "name": "SANDERLING DIALYSIS OF WATSONVILLE",
    "npi": null,
    "hcaiId": "306440552",
    "businessName": "SRS-WATSONVILLE, LLC",
    "contactEmail": "JST@SANDERLINGLLC.COM",
    "categoryName": "CHRONIC DIALYSIS CLINIC",
    "categoryCode": "ESRD/CDC",
    "licenseStatus": "ACTIVE",
    "inService": true,
    "licenseNumber": "550005392",
    "licenseEffectiveDate": "03/31/2025",
    "licenseExpirationDate": "03/30/2026",
    "dataDate": "10/18/2025",
    "capacity": 17,
    "address": "65 NIELSON ST, SUITE 145",
    "city": "WATSONVILLE",
    "zip": "95076",
    "county": "SANTA CRUZ",
    "phone": "(408) 455-6281",
    "lat": 36.92819749,
    "lng": -121.793268
  },
  {
    "id": "140001258",
    "name": "SATELLITE HEALTHCARE WATSONVILLE",
    "npi": "1972380723",
    "hcaiId": "306440766",
    "businessName": "SATELLITE HEALTHCARE WATSONVILLE, LLC",
    "contactEmail": "LICENSING@SATELLITEHEALTH.COM",
    "categoryName": "CHRONIC DIALYSIS CLINIC",
    "categoryCode": "ESRD/CDC",
    "licenseStatus": "ACTIVE",
    "inService": true,
    "licenseNumber": "140000642",
    "licenseEffectiveDate": "05/04/2025",
    "licenseExpirationDate": "11/28/2025",
    "dataDate": "10/18/2025",
    "capacity": 37,
    "address": "5 NIELSON ST",
    "city": "WATSONVILLE",
    "zip": "95076",
    "county": "SANTA CRUZ",
    "phone": "(831) 728-8855",
    "lat": 36.92794802,
    "lng": -121.791405
  },
  {
    "id": "630027013",
    "name": "SOUTH COUNTY MOBILE",
    "npi": "1629269618",
    "hcaiId": null,
    "businessName": "SALUD PARA LA GENTE",
    "contactEmail": null,
    "categoryName": "PRIMARY CARE CLINIC",
    "categoryCode": "COMTYC",
    "licenseStatus": "ACTIVE",
    "inService": true,
    "licenseNumber": "070000469",
    "licenseEffectiveDate": "11/11/2025",
    "licenseExpirationDate": "11/10/2026",
    "dataDate": "10/18/2025",
    "capacity": 0,
    "address": "45 NIELSON ST",
    "city": "WATSONVILLE",
    "zip": "95076",
    "county": "SANTA CRUZ",
    "phone": null,
    "lat": 36.92819749,
    "lng": -121.7925645
  },
  {
    "id": "630020134",
    "name": "STARLIGHT ELEMENTARY HEALTH CENTER",
    "npi": "1730169756",
    "hcaiId": null,
    "businessName": "SALUD PARA LA GENTE",
    "contactEmail": "DROSEINDA@SPLG.ORG",
    "categoryName": "PRIMARY CARE CLINIC",
    "categoryCode": "COMTYC",
    "licenseStatus": "ACTIVE",
    "inService": true,
    "licenseNumber": "070000469",
    "licenseEffectiveDate": "11/11/2025",
    "licenseExpirationDate": "11/10/2026",
    "dataDate": "10/18/2025",
    "capacity": 0,
    "address": "225 HAMMER DR, ROOM C31",
    "city": "WATSONVILLE",
    "zip": "95076",
    "county": "SANTA CRUZ",
    "phone": "(831) 728-8250",
    "lat": 36.921627,
    "lng": -121.7724075
  },
  {
    "id": "070000155",
    "name": "WATSONVILLE COMMUNITY HOSPITAL",
    "npi": "1619607488",
    "hcaiId": "106444013",
    "businessName": "PAJARO VALLEY HEALTH CARE DISTRICT HOSPITAL CORPORATION",
    "contactEmail": "LISA_NEILL@WATSONVILLEHOSPITAL.COM",
    "categoryName": "GENERAL ACUTE CARE HOSPITAL",
    "categoryCode": "GACH",
    "licenseStatus": "ACTIVE",
    "inService": true,
    "licenseNumber": "070000097",
    "licenseEffectiveDate": "11/01/2025",
    "licenseExpirationDate": "10/31/2026",
    "dataDate": "10/18/2025",
    "capacity": 106,
    "address": "75 NIELSON ST",
    "city": "WATSONVILLE",
    "zip": "95076",
    "county": "SANTA CRUZ",
    "phone": "(831) 763-6040",
    "lat": 36.92819749,
    "lng": -121.7936198
  },
  {
    "id": "630015473",
    "name": "WATSONVILLE HEALTH CENTER",
    "npi": "1770709149",
    "hcaiId": null,
    "businessName": null,
    "contactEmail": null,
    "categoryName": "PRIMARY CARE CLINIC",
    "categoryCode": "FQHC",
    "licenseStatus": null,
    "inService": null,
    "licenseNumber": null,
    "licenseEffectiveDate": null,
    "licenseExpirationDate": null,
    "dataDate": "10/18/2025",
    "capacity": 0,
    "address": "9 CRESTVIEW DRIVE",
    "city": "WATSONVILLE",
    "zip": "95076",
    "county": "SANTA CRUZ",
    "phone": null,
    "lat": 36.92673527,
    "lng": -121.7642577
  },
  {
    "id": "070000093",
    "name": "WATSONVILLE NURSING CENTER",
    "npi": "1578615464",
    "hcaiId": "206441703",
    "businessName": "CF WATSONVILLE EAST, LLC",
    "contactEmail": "RAE.RADFORD@WATSONVILLENURSING.COM",
    "categoryName": "SKILLED NURSING FACILITY",
    "categoryCode": "SNF",
    "licenseStatus": "ACTIVE",
    "inService": true,
    "licenseNumber": "070000129",
    "licenseEffectiveDate": "04/30/2025",
    "licenseExpirationDate": "04/29/2026",
    "dataDate": "10/18/2025",
    "capacity": 87,
    "address": "535 AUTO CENTER DR",
    "city": "WATSONVILLE",
    "zip": "95076",
    "county": "SANTA CRUZ",
    "phone": "(831) 724-7505",
    "lat": 36.919584,
    "lng": -121.766751
  },
  {
    "id": "070000094",
    "name": "WATSONVILLE POST ACUTE CENTER",
    "npi": "1346392321",
    "hcaiId": "206441702",
    "businessName": "CF WATSONVILLE WEST, LLC",
    "contactEmail": "RAE.RADFORD@WATSONVILLENURSING.COM",
    "categoryName": "SKILLED NURSING FACILITY",
    "categoryCode": "SNF",
    "licenseStatus": "ACTIVE",
    "inService": true,
    "licenseNumber": "070000128",
    "licenseEffectiveDate": "04/30/2025",
    "licenseExpirationDate": "04/29/2026",
    "dataDate": "10/18/2025",
    "capacity": 95,
    "address": "525 AUTO CENTER DR",
    "city": "WATSONVILLE",
    "zip": "95076",
    "county": "SANTA CRUZ",
    "phone": "(831) 724-7505",
    "lat": 36.919881,
    "lng": -121.7671245
  }
]