[
  {
    "id": "070000815",
    "name": "CHILDREN'S HEALTHCARE ORGANIZATION OF NORTHERN CALIFORNIA - PEDIATRIC DAY HEALTH CENTER",
    "npi": null,
    "hcaiId": null,
    "businessName": "SCRIBBLES & GIGGLES 1, LLC",
    "contactEmail": "MARY.A@CHONC.ORG",
    "categoryName": "PEDIATRIC DAY HEALTH & RESPITE CARE FACILITY",
    "categoryCode": "PDHRCF",
    "licenseStatus": "ACTIVE",
    "inService": true,
    "licenseNumber": "070000341",
    "licenseEffectiveDate": "12/16/2024",
    "licenseExpirationDate": "12/15/2025",
    "dataDate": "10/18/2025",
    "capacity": 10,
    "address": "13411 SOUSA LN",
    "city": "SARATOGA",
    "zip": "95070",
    "county": "SANTA CLARA",
    "phone": "(408) 340-1590",
    "lat": 37.272834,
    "lng": -121.9957785
  },
  {
    "id": "220001048",
    "name": "CHILDREN'S HEALTHCARE ORGANIZATION OF NORTHERN CALIFORNIA - SARATOGA PEDIATRIC SUBACUTE",
    "npi": "1033219019",
    "hcaiId": "206431124",
    "businessName": "CHILDREN'S RECOVERY CENTER 2, LLC",
    "contactEmail": "SAM.STUKOV@CHONC.ORG",
    "categoryName": "SKILLED NURSING FACILITY",
    "categoryCode": "SNF",
    "licenseStatus": "ACTIVE",
    "inService": true,
    "licenseNumber": "220000426",
    "licenseEffectiveDate": "10/17/2025",
    "licenseExpirationDate": "10/16/2026",
    "dataDate": "10/18/2025",
    "capacity": 37,
    "address": "13425 SOUSA LN",
    "city": "SARATOGA",
    "zip": "95070",
    "county": "SANTA CLARA",
    "phone": "(408) 340-1564",
    "lat": 37.273104,
    "lng": -121.99617
  },
  {
    "id": "220001192",
    "name": "CORINTHIAN CARE CENTER",
    "npi": "1851307540",
    "hcaiId": null,
    "businessName": null,
    "contactEmail": "JKEMPIS@ICLOUD.COM",
    "categoryName": "INTERMEDIATE CARE FACILITY-DD/H/N/CN/IID",
    "categoryCode": "ICFDDH",
    "licenseStatus": "ACTIVE",
    "inService": true,
    "licenseNumber": "220000493",
    "licenseEffectiveDate": "04/21/2025",
    "licenseExpirationDate": "04/20/2026",
    "dataDate": "10/18/2025",
    "capacity": 6,
    "address": "18460 ALLENDALE AVE",
    "city": "SARATOGA",
    "zip": "95070",
    "county": "SANTA CLARA",
    "phone": "(408) 364-1916",
    "lat": 37.26666,
    "lng": -121.9935645
  },
  {
    "id": "220001027",
    "name": "SARATOGA RETIREMENT COMMUNITY HEALTH CENTER",
    "npi": "1942200225",
    "hcaiId": "206430838",
    "businessName": "ODD FELLOWS HOME OF CALIFORNIA",
    "contactEmail": "SNARASIMHAN@RETIREMENT.ORG",
    "categoryName": "SKILLED NURSING FACILITY",
    "categoryCode": "SNF",
    "licenseStatus": "ACTIVE",
    "inService": true,
    "licenseNumber": "220000416",
    "licenseEffectiveDate": "11/01/2025",
    "licenseExpirationDate": "10/31/2026",
    "dataDate": "10/18/2025",
    "capacity": 94,
    "address": "14500 FRUITVALE AVE",
    "city": "SARATOGA",
    "zip": "95070",
    "county": "SANTA CLARA",
    "phone": "(408) 741-7100",
    "lat": 37.256994,
    "lng": -122.0084685
  },
  {
    "id": "070000280",
    "name": "SUTTER CARE AT HOME",
    "npi": "1568840734",
    "hcaiId": "406434183",
    "businessName": "SUTTER VISITING NURSE ASSOCIATION AND HOSPICE",
    "contactEmail": "SVNAHREGULATORY@SUTTERHEALTH.ORG",
    "categoryName": "HOSPICE",
    "categoryCode": "HOSPICE",
    "licenseStatus": "ACTIVE",
    "inService": true,
    "licenseNumber": "070000396",
    "licenseEffectiveDate": "08/31/2025",
    "licenseExpirationDate": "08/30/2027",
    "dataDate": "10/18/2025",
    "capacity": 0,
    "address": "12930 SARATOGA AVE, SUITE A-2",
    "city": "SARATOGA",
    "zip": "95070",
    "county": "SANTA CLARA",
    "phone": "(707) 864-4840",
    "lat": 37.27993402,
    "lng": -122.002284
  },
  {
    "id": "630025313",
    "name": "SUTTER CARE AT HOME",
    "npi": null,
    "hcaiId": "406437052",
    "businessName": "SUTTER VISITING NURSE ASSOCIATION AND HOSPICE",
    "contactEmail": "SVNAHREGULATORY@SUTTERHEALTH.ORG",
    "categoryName": "HOME HEALTH AGENCY",
    "categoryCode": "HHA",
    "licenseStatus": "ACTIVE",
    "inService": true,
    "licenseNumber": "550008717",
    "licenseEffectiveDate": "08/07/2025",
    "licenseExpirationDate": "08/06/2026",
    "dataDate": "10/18/2025",
    "capacity": 0,
    "address": "12930 SARATOGA AVE, SUITE A-1",
    "city": "SARATOGA",
    "zip": "95070",
    "county": "SANTA CLARA",
    "phone": "(408) 558-6726",
    "lat": 37.27993402,
    "lng": -122.002284
  },
  {
    "id": "220001030",
    "name": "THE VILLAS AT SARATOGA SKILLED NURSING AND ASSISTED LIVING",
    "npi": "1689742785",
    "hcaiId": "206430840",
    "businessName": "THREE ARCH LLC",
    "contactEmail": "RTUCKER@KALESTAHC.COM",
    "categoryName": "SKILLED NURSING FACILITY",
    "categoryCode": "SNF",
    "licenseStatus": "ACTIVE",
    "inService": true,
    "licenseNumber": "220000417",
    "licenseEffectiveDate": "11/01/2024",
    "licenseExpirationDate": "10/31/2025",
    "dataDate": "10/18/2025",
    "capacity": 85,
    "address": "20400 SARATOGA LOS GATOS RD",
    "city": "SARATOGA",
    "zip": "95070",
    "county": "SANTA CLARA",
    "phone": "(408) 741-2950",
    "lat": 37.256985,
    "lng": -122.0308785
  },
  {
    "id": "220001194",
    "name": "TUPAZ HOME #12",
    "npi": "1992916399",
    "hcaiId": null,
    "businessName": "TUPAZ HOMES LLC",
    "contactEmail": "TUPZHOM2@PACBELL.NET",
    "categoryName": "INTERMEDIATE CARE FACILITY-DD/H/N/CN/IID",
    "categoryCode": "ICFDDN",
    "licenseStatus": "ACTIVE",
    "inService": true,
    "licenseNumber": "220000494",
    "licenseEffectiveDate": "05/06/2025",
    "licenseExpirationDate": "05/05/2026",
    "dataDate": "10/18/2025",
    "capacity": 6,
    "address": "18241 VANDERBILT DR",
    "city": "SARATOGA",
    "zip": "95070",
    "county": "SANTA CLARA",
    "phone": "(408) 866-4590",
    "lat": 37.278864,
    "lng": -121.989825
  }
]