[
  {
    "id": "630014607",
    "name": "BLIZE HEALTHCARE",
    "npi": "1558667485",
    "hcaiId": "406434290",
    "businessName": "BLIZE HEALTHCARE CALIFORNIA INC.",
    "contactEmail": "INFO@BLIZECARE.COM",
    "categoryName": "HOME HEALTH AGENCY",
    "categoryCode": "HHA",
    "licenseStatus": "ACTIVE",
    "inService": true,
    "licenseNumber": "550001547",
    "licenseEffectiveDate": "04/07/2025",
    "licenseExpirationDate": "04/06/2026",
    "dataDate": "10/18/2025",
    "capacity": 0,
    "address": "1762 TECHNOLOGY DR, SUITE 202",
    "city": "SAN JOSE",
    "zip": "95110",
    "county": "SANTA CLARA",
    "phone": "(408) 216-0137",
    "lat": 37.369809,
    "lng": -121.9198005
  },
  {
    "id": "630027001",
    "name": "CONFIDENCE HOME HEALTH, LLC",
    "npi": null,
    "hcaiId": null,
    "businessName": "CONFIDENCE HOME HEALTH, LLC",
    "contactEmail": "MBRN_18718@YAHOO.COM",
    "categoryName": "HOME HEALTH AGENCY",
    "categoryCode": "HHA",
    "licenseStatus": "ACTIVE",
    "inService": true,
    "licenseNumber": "550009512",
    "licenseEffectiveDate": "05/19/2025",
    "licenseExpirationDate": "11/18/2025",
    "dataDate": "10/18/2025",
    "capacity": 0,
    "address": "330 W HEDDING ST, SUITE 208",
    "city": "SAN JOSE",
    "zip": "95110",
    "county": "SANTA CLARA",
    "phone": "(669) 285-8072",
    "lat": 37.34876499,
    "lng": -121.911189
  },
  {
    "id": "630026134",
    "name": "ROTACARE SAN JOSE",
    "npi": null,
    "hcaiId": null,
    "businessName": "ROTACARE BAY AREA, INC.",
    "contactEmail": "SJCLINIC@ROTACAREBAYAREA.ORG",
    "categoryName": "PRIMARY CARE CLINIC",
    "categoryCode": "FREEC",
    "licenseStatus": "ACTIVE",
    "inService": true,
    "licenseNumber": "550006678",
    "licenseEffectiveDate": "07/20/2025",
    "licenseExpirationDate": "07/19/2026",
    "dataDate": "10/18/2025",
    "capacity": 0,
    "address": "100 OAK ST",
    "city": "SAN JOSE",
    "zip": "95110",
    "county": "SANTA CLARA",
    "phone": "(408) 715-3088",
    "lat": 37.32166675,
    "lng": -121.881778
  },
  {
    "id": "630018368",
    "name": "SKYPORT - KFH SANTA CLARA ESRD/CAPD",
    "npi": "1134612468",
    "hcaiId": null,
    "businessName": "KAISER FOUNDATION HOSPITALS",
    "contactEmail": null,
    "categoryName": "CHRONIC DIALYSIS CLINIC",
    "categoryCode": "ESRD",
    "licenseStatus": "ACTIVE",
    "inService": true,
    "licenseNumber": "070000661",
    "licenseEffectiveDate": "12/01/2024",
    "licenseExpirationDate": "11/30/2025",
    "dataDate": "10/18/2025",
    "capacity": 0,
    "address": "1721 TECHNOLOGY DR, SUITE 245",
    "city": "SAN JOSE",
    "zip": "95110",
    "county": "SANTA CLARA",
    "phone": null,
    "lat": 37.36386,
    "lng": -121.9167765
  },
  {
    "id": "070001108",
    "name": "WASHINGTON NEIGHBORHOOD HEALTH CLINIC",
    "npi": null,
    "hcaiId": "306434132",
    "businessName": "SCHOOL HEALTH CLINICS OF SANTA CLARA COUNTY",
    "contactEmail": "JOCELYNH@SCHOOLHEALTHCLINICS.ORG",
    "categoryName": "PRIMARY CARE CLINIC",
    "categoryCode": "COMTYC",
    "licenseStatus": "ACTIVE",
    "inService": true,
    "licenseNumber": "070000472",
    "licenseEffectiveDate": "11/28/2024",
    "licenseExpirationDate": "11/27/2025",
    "dataDate": "10/18/2025",
    "capacity": 0,
    "address": "100 OAK ST",
    "city": "SAN JOSE",
    "zip": "95110",
    "county": "SANTA CLARA",
    "phone": "(408) 295-0980",
    "lat": 37.32166675,
    "lng": -121.881778
  }
]