[
  {
    "id": "070001135",
    "name": "CITY TEAM MINISTRIES",
    "npi": "1699041566",
    "hcaiId": null,
    "businessName": "GARDNER FAMILY HEALTH NETWORK, INC.",
    "contactEmail": null,
    "categoryName": "PRIMARY CARE CLINIC",
    "categoryCode": "COMTYC",
    "licenseStatus": "ACTIVE",
    "inService": true,
    "licenseNumber": "550001949",
    "licenseEffectiveDate": "05/18/2025",
    "licenseExpirationDate": "05/17/2026",
    "dataDate": "10/18/2025",
    "capacity": 0,
    "address": "580 CHARLES ST",
    "city": "SAN JOSE",
    "zip": "95112",
    "county": "SANTA CLARA",
    "phone": null,
    "lat": 37.36512,
    "lng": -121.896072
  },
  {
    "id": "630013835",
    "name": "COMFORT HOME HEALTH CARE, LLC",
    "npi": "1477826980",
    "hcaiId": "406434246",
    "businessName": "COMFORT HOME HEALTH CARE, LLC",
    "contactEmail": "CHHCAGENCY23@GMAIL.COM",
    "categoryName": "HOME HEALTH AGENCY",
    "categoryCode": "HHA",
    "licenseStatus": "ACTIVE",
    "inService": true,
    "licenseNumber": "550002174",
    "licenseEffectiveDate": "08/14/2025",
    "licenseExpirationDate": "01/14/2026",
    "dataDate": "10/18/2025",
    "capacity": 0,
    "address": "1650 ZANKER RD, SUITE 244",
    "city": "SAN JOSE",
    "zip": "95112",
    "county": "SANTA CLARA",
    "phone": "(408) 452-5927",
    "lat": 37.372959,
    "lng": -121.9096755
  },
  {
    "id": "070001412",
    "name": "FRANKLIN MCKINLEY DISTRICT CLINIC",
    "npi": null,
    "hcaiId": "306434155",
    "businessName": "SCHOOL HEALTH CLINICS OF SANTA CLARA COUNTY",
    "contactEmail": "JOCELYNH@SCHOOLHEALTHCLINICS.ORG",
    "categoryName": "PRIMARY CARE CLINIC",
    "categoryCode": "COMTYC",
    "licenseStatus": "ACTIVE",
    "inService": true,
    "licenseNumber": "070000408",
    "licenseEffectiveDate": "11/28/2024",
    "licenseExpirationDate": "11/27/2025",
    "dataDate": "10/18/2025",
    "capacity": 0,
    "address": "645 WOOL CREEK DR",
    "city": "SAN JOSE",
    "zip": "95112",
    "county": "SANTA CLARA",
    "phone": "(408) 283-6051",
    "lat": 37.315143,
    "lng": -121.8495015
  },
  {
    "id": "630013373",
    "name": "GARDNER DOWNTOWN HEALTH CENTER",
    "npi": "1699041566",
    "hcaiId": "306434235",
    "businessName": "GARDNER FAMILY HEALTH NETWORK, INC.",
    "contactEmail": "ANASOSA@GFHN.ORG",
    "categoryName": "PRIMARY CARE CLINIC",
    "categoryCode": "COMTYC",
    "licenseStatus": "ACTIVE",
    "inService": true,
    "licenseNumber": "550001949",
    "licenseEffectiveDate": "05/18/2025",
    "licenseExpirationDate": "05/17/2026",
    "dataDate": "10/18/2025",
    "capacity": 0,
    "address": "725 E. SANTA CLARA STREET, SUITE 103",
    "city": "SAN JOSE",
    "zip": "95112",
    "county": "SANTA CLARA",
    "phone": "(408) 935-3942",
    "lat": 37.34345338,
    "lng": -121.8753821
  },
  {
    "id": "070000174",
    "name": "GARDNER HEALTH CENTER",
    "npi": "1407985534",
    "hcaiId": "306430775",
    "businessName": "GARDNER FAMILY HEALTH NETWORK, INC.",
    "contactEmail": "ANASOSA@GFHN.ORG",
    "categoryName": "PRIMARY CARE CLINIC",
    "categoryCode": "COMTYC",
    "licenseStatus": "ACTIVE",
    "inService": true,
    "licenseNumber": "070000045",
    "licenseEffectiveDate": "11/16/2025",
    "licenseExpirationDate": "11/15/2026",
    "dataDate": "10/18/2025",
    "capacity": 0,
    "address": "195 E VIRGINIA ST",
    "city": "SAN JOSE",
    "zip": "95112",
    "county": "SANTA CLARA",
    "phone": "(408) 990-5591",
    "lat": 37.326105,
    "lng": -121.8778335
  },
  {
    "id": "630012027",
    "name": "HEALTHCARE FOR THE HOMELESS MOBILE MEDICAL UNIT",
    "npi": null,
    "hcaiId": "306434204",
    "businessName": "GARDNER FAMILY HEALTH NETWORK, INC.",
    "contactEmail": "GPINON@GFHN.ORG",
    "categoryName": "PRIMARY CARE CLINIC",
    "categoryCode": "COMTYC",
    "licenseStatus": "ACTIVE",
    "inService": true,
    "licenseNumber": "550000890",
    "licenseEffectiveDate": "02/11/2025",
    "licenseExpirationDate": "02/10/2026",
    "dataDate": "10/18/2025",
    "capacity": 0,
    "address": "195 E VIRGINIA ST",
    "city": "SAN JOSE",
    "zip": "95112",
    "county": "SANTA CLARA",
    "phone": "(408) 918-2687",
    "lat": 37.326105,
    "lng": -121.8778335
  },
  {
    "id": "070001127",
    "name": "INDIAN HEALTH CENTER OF SANTA CLARA VALLEY",
    "npi": null,
    "hcaiId": "306434213",
    "businessName": "INDIAN HEALTH CENTER OF SANTA CLARA VALLEY",
    "contactEmail": "MDURAN@IHCSCV.ORG",
    "categoryName": "PSYCHOLOGY CLINIC",
    "categoryCode": "PSYCHC",
    "licenseStatus": "ACTIVE",
    "inService": true,
    "licenseNumber": "070000482",
    "licenseEffectiveDate": "06/02/2025",
    "licenseExpirationDate": "06/01/2026",
    "dataDate": "10/18/2025",
    "capacity": 0,
    "address": "602 E SANTA CLARA ST, SUITE 230",
    "city": "SAN JOSE",
    "zip": "95112",
    "county": "SANTA CLARA",
    "phone": "(408) 445-8172",
    "lat": 37.342026,
    "lng": -121.877703
  },
  {
    "id": "630018668",
    "name": "JOHN XXIII HEALTH CENTER",
    "npi": "1699041566",
    "hcaiId": null,
    "businessName": "GARDNER FAMILY HEALTH NETWORK, INC.",
    "contactEmail": null,
    "categoryName": "PRIMARY CARE CLINIC",
    "categoryCode": "COMTYC",
    "licenseStatus": "ACTIVE",
    "inService": true,
    "licenseNumber": "550001949",
    "licenseEffectiveDate": "05/18/2025",
    "licenseExpirationDate": "05/17/2026",
    "dataDate": "10/18/2025",
    "capacity": 0,
    "address": "195 E SAN FERNANDO ST, SUITE 100",
    "city": "SAN JOSE",
    "zip": "95112",
    "county": "SANTA CLARA",
    "phone": null,
    "lat": 37.336455,
    "lng": -121.885407
  },
  {
    "id": "070000061",
    "name": "SAN JOSE HEALTHCARE & WELLNESS CENTER",
    "npi": "1710219308",
    "hcaiId": "206430797",
    "businessName": "SAN JOSE HEALTHCARE & WELLNESS CENTER, LLC",
    "contactEmail": "CHOW@ROCKPORTHC.COM",
    "categoryName": "SKILLED NURSING FACILITY",
    "categoryCode": "SNF",
    "licenseStatus": "ACTIVE",
    "inService": true,
    "licenseNumber": "070000053",
    "licenseEffectiveDate": "05/04/2025",
    "licenseExpirationDate": "05/03/2026",
    "dataDate": "10/18/2025",
    "capacity": 58,
    "address": "75 N 13TH ST",
    "city": "SAN JOSE",
    "zip": "95112",
    "county": "SANTA CLARA",
    "phone": "(408) 295-2665",
    "lat": 37.342845,
    "lng": -121.879269
  },
  {
    "id": "630027326",
    "name": "SANTA CLARA VALLEY HEALTH & HOSPITAL SYSTEM",
    "npi": null,
    "hcaiId": null,
    "businessName": null,
    "contactEmail": null,
    "categoryName": "PRIMARY CARE CLINIC",
    "categoryCode": "FQHC",
    "licenseStatus": null,
    "inService": null,
    "licenseNumber": null,
    "licenseEffectiveDate": null,
    "licenseExpirationDate": null,
    "dataDate": "10/18/2025",
    "capacity": 0,
    "address": "725 E SANTA CLARA ST, SUITE 300",
    "city": "SAN JOSE",
    "zip": "95112",
    "county": "SANTA CLARA",
    "phone": null,
    "lat": 37.34352802,
    "lng": -121.875818
  },
  {
    "id": "630027630",
    "name": "SHINRAI ADULT DAY HEALTH CENTER",
    "npi": null,
    "hcaiId": null,
    "businessName": "MOURI MANAGEMENT GROUP INCORPORATED",
    "contactEmail": "SHINRAI.HOMES@YAHOO.COM",
    "categoryName": "ADULT DAY HEALTH CARE",
    "categoryCode": "ADHC",
    "licenseStatus": "ACTIVE",
    "inService": true,
    "licenseNumber": "550009642",
    "licenseEffectiveDate": "02/26/2025",
    "licenseExpirationDate": "02/25/2026",
    "dataDate": "10/18/2025",
    "capacity": 0,
    "address": "303 N 15TH ST",
    "city": "SAN JOSE",
    "zip": "95112",
    "county": "SANTA CLARA",
    "phone": "(408) 531-9126",
    "lat": 37.34743,
    "lng": -121.879945
  },
  {
    "id": "070000179",
    "name": "ST. JAMES HEALTH CENTER",
    "npi": "1700915097",
    "hcaiId": "306434004",
    "businessName": "GARDNER FAMILY HEALTH NETWORK, INC.",
    "contactEmail": "JOGARCIA@GFHN.ORG",
    "categoryName": "PRIMARY CARE CLINIC",
    "categoryCode": "COMTYC",
    "licenseStatus": "ACTIVE",
    "inService": true,
    "licenseNumber": "070000152",
    "licenseEffectiveDate": "11/20/2024",
    "licenseExpirationDate": "11/19/2025",
    "dataDate": "10/18/2025",
    "capacity": 0,
    "address": "55 E JULIAN ST",
    "city": "SAN JOSE",
    "zip": "95112",
    "county": "SANTA CLARA",
    "phone": "(408) 823-6670",
    "lat": 37.34116298,
    "lng": -121.8927175
  },
  {
    "id": "630013624",
    "name": "ST. PATRICK HOME HEALTH PROVIDERS, INC.",
    "npi": "1093089369",
    "hcaiId": "406434233",
    "businessName": "ST. PATRICK HOME HEALTH PROVIDERS, INC.",
    "contactEmail": "STPATRICK440@GMAIL.COM",
    "categoryName": "HOME HEALTH AGENCY",
    "categoryCode": "HHA",
    "licenseStatus": "ACTIVE",
    "inService": true,
    "licenseNumber": "550002008",
    "licenseEffectiveDate": "07/23/2025",
    "licenseExpirationDate": "07/22/2026",
    "dataDate": "10/18/2025",
    "capacity": 0,
    "address": "25 N 14TH ST, SUITE 660",
    "city": "SAN JOSE",
    "zip": "95112",
    "county": "SANTA CLARA",
    "phone": "(866) 282-2057",
    "lat": 37.34271,
    "lng": -121.877739
  },
  {
    "id": "630016842",
    "name": "VALLEY HEALTH CENTER AT DOWNTOWN HAP",
    "npi": "1356736029",
    "hcaiId": null,
    "businessName": null,
    "contactEmail": null,
    "categoryName": "PRIMARY CARE CLINIC",
    "categoryCode": "FQHC",
    "licenseStatus": null,
    "inService": null,
    "licenseNumber": null,
    "licenseEffectiveDate": null,
    "licenseExpirationDate": null,
    "dataDate": "10/18/2025",
    "capacity": 0,
    "address": "777 EAST SANTA CLARA STREET",
    "city": "SAN JOSE",
    "zip": "95112",
    "county": "SANTA CLARA",
    "phone": "(408) 885-7200",
    "lat": 37.34377196,
    "lng": -121.8746971
  }
]