[
  {
    "id": "630028471",
    "name": "ASIAN AMERICANS FOR COMMUNITY INVOLVEMENT OF SANTA CLARA COUNTY INC.",
    "npi": null,
    "hcaiId": null,
    "businessName": "THE ASIAN AMERICANS FOR COMMUNITY INVOLVEMENT OF SANTA CLARA COUNTY, INC.",
    "contactEmail": "CHETAN.GUJARATHI@AACI.ORG",
    "categoryName": "PRIMARY CARE CLINIC",
    "categoryCode": "COMTYC",
    "licenseStatus": "ACTIVE",
    "inService": true,
    "licenseNumber": "070000175",
    "licenseEffectiveDate": "05/04/2025",
    "licenseExpirationDate": "05/03/2026",
    "dataDate": "10/18/2025",
    "capacity": 0,
    "address": "266 N JACKSON AVE, SUITE 4",
    "city": "SAN JOSE",
    "zip": "95116",
    "county": "SANTA CLARA",
    "phone": null,
    "lat": 37.36452871,
    "lng": -121.8489314
  },
  {
    "id": "630027009",
    "name": "ASIAN AMERICANS FOR COMMUNITY INVOLVEMENT OF SANTA CLARA COUNTY, INC.",
    "npi": null,
    "hcaiId": null,
    "businessName": "THE ASIAN AMERICANS FOR COMMUNITY INVOLVEMENT OF SANTA CLARA COUNTY, INC.",
    "contactEmail": null,
    "categoryName": "PRIMARY CARE CLINIC",
    "categoryCode": "COMTYC",
    "licenseStatus": "ACTIVE",
    "inService": true,
    "licenseNumber": "070000175",
    "licenseEffectiveDate": "05/04/2025",
    "licenseExpirationDate": "05/03/2026",
    "dataDate": "10/18/2025",
    "capacity": 0,
    "address": "266 N JACKSON AVE, SUITE 1",
    "city": "SAN JOSE",
    "zip": "95116",
    "county": "SANTA CLARA",
    "phone": null,
    "lat": 37.364643,
    "lng": -121.848912
  },
  {
    "id": "070000023",
    "name": "CANYON SPRINGS POST-ACUTE",
    "npi": "1639548308",
    "hcaiId": "206430716",
    "businessName": "DRAGONFRUIT HOLDINGS, LLC",
    "contactEmail": "CHARLIE.TREANOR@CANYONSPRINGSPA.COM",
    "categoryName": "SKILLED NURSING FACILITY",
    "categoryCode": "SNF",
    "licenseStatus": "ACTIVE",
    "inService": true,
    "licenseNumber": "070000011",
    "licenseEffectiveDate": "01/25/2025",
    "licenseExpirationDate": "01/24/2026",
    "dataDate": "10/18/2025",
    "capacity": 199,
    "address": "180 N JACKSON AVE",
    "city": "SAN JOSE",
    "zip": "95116",
    "county": "SANTA CLARA",
    "phone": "(408) 259-8700",
    "lat": 37.362708,
    "lng": -121.846878
  },
  {
    "id": "630013466",
    "name": "MONTPELIER HEALTH CENTER",
    "npi": "1689950248",
    "hcaiId": "306434255",
    "businessName": "BAY AREA COMMUNITY HEALTH",
    "contactEmail": "HELTHIE@GMAIL.COM",
    "categoryName": "PRIMARY CARE CLINIC",
    "categoryCode": "COMTYC",
    "licenseStatus": "ACTIVE",
    "inService": true,
    "licenseNumber": "550000139",
    "licenseEffectiveDate": "11/21/2024",
    "licenseExpirationDate": "11/20/2025",
    "dataDate": "10/18/2025",
    "capacity": 0,
    "address": "2380 MONTPELIER DR, SUITE 200",
    "city": "SAN JOSE",
    "zip": "95116",
    "county": "SANTA CLARA",
    "phone": "(408) 254-1800",
    "lat": 37.365075,
    "lng": -121.847301
  },
  {
    "id": "630020276",
    "name": "MONTPELIER HEALTH CENTER - DENTAL",
    "npi": null,
    "hcaiId": null,
    "businessName": "BAY AREA COMMUNITY HEALTH",
    "contactEmail": null,
    "categoryName": "PRIMARY CARE CLINIC",
    "categoryCode": "COMTYC",
    "licenseStatus": "ACTIVE",
    "inService": true,
    "licenseNumber": "550000139",
    "licenseEffectiveDate": "11/21/2024",
    "licenseExpirationDate": "11/20/2025",
    "dataDate": "10/18/2025",
    "capacity": 0,
    "address": "2380 MONTPELIER DR, SUITE 400",
    "city": "SAN JOSE",
    "zip": "95116",
    "county": "SANTA CLARA",
    "phone": null,
    "lat": 37.365075,
    "lng": -121.847301
  },
  {
    "id": "070001291",
    "name": "MONTPELIER SURGERY CENTER",
    "npi": "1235155730",
    "hcaiId": "306434147",
    "businessName": null,
    "contactEmail": "MAI_NGUYEN@SJGC.COM",
    "categoryName": "SURGICAL CLINIC",
    "categoryCode": "ASC",
    "licenseStatus": "INACTIVE - CAPEN DECISION",
    "inService": false,
    "licenseNumber": "070000612",
    "licenseEffectiveDate": "11/25/2007",
    "licenseExpirationDate": "11/24/2008",
    "dataDate": "10/18/2025",
    "capacity": 0,
    "address": "2340 MONTPELIER DR, SUITE B",
    "city": "SAN JOSE",
    "zip": "95116",
    "county": "SANTA CLARA",
    "phone": "(408) 347-1875",
    "lat": 37.364841,
    "lng": -121.847661
  },
  {
    "id": "070000220",
    "name": "ON LOK EAST SAN JOSE CENTER",
    "npi": null,
    "hcaiId": null,
    "businessName": "ON LOK SENIOR HEALTH SERVICES",
    "contactEmail": "NICOLE@ONLOK.ORG",
    "categoryName": "ADULT DAY HEALTH CARE",
    "categoryCode": "ADHC",
    "licenseStatus": "ACTIVE",
    "inService": true,
    "licenseNumber": "070000200",
    "licenseEffectiveDate": "06/06/2025",
    "licenseExpirationDate": "06/05/2026",
    "dataDate": "10/18/2025",
    "capacity": 0,
    "address": "130 N JACKSON AVE",
    "city": "SAN JOSE",
    "zip": "95116",
    "county": "SANTA CLARA",
    "phone": "(415) 292-8799",
    "lat": 37.36161,
    "lng": -121.8460635
  },
  {
    "id": "630017348",
    "name": "ON LOK EAST SAN JOSE CENTER",
    "npi": null,
    "hcaiId": "306434307",
    "businessName": "ON LOK SENIOR HEALTH SERVICES",
    "contactEmail": "NICOLE@ONLOK.ORG",
    "categoryName": "PRIMARY CARE CLINIC",
    "categoryCode": "COMTYC",
    "licenseStatus": "ACTIVE",
    "inService": true,
    "licenseNumber": "550003982",
    "licenseEffectiveDate": "10/24/2025",
    "licenseExpirationDate": "10/23/2026",
    "dataDate": "10/18/2025",
    "capacity": 0,
    "address": "130 N JACKSON AVE",
    "city": "SAN JOSE",
    "zip": "95116",
    "county": "SANTA CLARA",
    "phone": "(415) 292-8799",
    "lat": 37.36161,
    "lng": -121.8460635
  },
  {
    "id": "070000133",
    "name": "REGIONAL MEDICAL CENTER OF SAN JOSE",
    "npi": "1063406551",
    "hcaiId": "106430705",
    "businessName": "COUNTY OF SANTA CLARA",
    "contactEmail": "MARITES.CORPUZ@HHS.SCCGOV.ORG",
    "categoryName": "GENERAL ACUTE CARE HOSPITAL",
    "categoryCode": "GACH",
    "licenseStatus": "ACTIVE",
    "inService": true,
    "licenseNumber": "070000085",
    "licenseEffectiveDate": "11/07/2025",
    "licenseExpirationDate": "04/30/2026",
    "dataDate": "10/18/2025",
    "capacity": 265,
    "address": "225 N JACKSON AVE",
    "city": "SAN JOSE",
    "zip": "95116",
    "county": "SANTA CLARA",
    "phone": "(408) 375-6936",
    "lat": 37.362474,
    "lng": -121.8492675
  },
  {
    "id": "070001415",
    "name": "SAN JOSE HIGH NEIGHBORHOOD CLINIC",
    "npi": null,
    "hcaiId": "306434156",
    "businessName": "SCHOOL HEALTH CLINICS OF SANTA CLARA COUNTY",
    "contactEmail": "JOCELYNH@SCHOOLHEALTHCLINICS.ORG",
    "categoryName": "PRIMARY CARE CLINIC",
    "categoryCode": "COMTYC",
    "licenseStatus": "ACTIVE",
    "inService": true,
    "licenseNumber": "070000408",
    "licenseEffectiveDate": "11/28/2024",
    "licenseExpirationDate": "11/27/2025",
    "dataDate": "10/18/2025",
    "capacity": 0,
    "address": "1149 E JULIAN ST",
    "city": "SAN JOSE",
    "zip": "95116",
    "county": "SANTA CLARA",
    "phone": "(408) 947-8804",
    "lat": 37.35086703,
    "lng": -121.8715667
  },
  {
    "id": "140001252",
    "name": "SATELLITE HEALTHCARE EAST SAN JOSE",
    "npi": "1538946397",
    "hcaiId": "306431853",
    "businessName": "SATELLITE EAST SAN JOSE, LLC",
    "contactEmail": "GRUSSINGJ@SATELLITEHEALTH.COM",
    "categoryName": "CHRONIC DIALYSIS CLINIC",
    "categoryCode": "ESRD/CDC",
    "licenseStatus": "ACTIVE",
    "inService": true,
    "licenseNumber": "140000636",
    "licenseEffectiveDate": "06/25/2025",
    "licenseExpirationDate": "06/24/2026",
    "dataDate": "10/18/2025",
    "capacity": 49,
    "address": "2121 ALEXIAN DR, SUITE 900",
    "city": "SAN JOSE",
    "zip": "95116",
    "county": "SANTA CLARA",
    "phone": "(408) 258-8720",
    "lat": 37.360359,
    "lng": -121.8482415
  },
  {
    "id": "070000845",
    "name": "VALLEY HEALTH CENTER EAST VALLEY",
    "npi": null,
    "hcaiId": null,
    "businessName": "COUNTY OF SANTA CLARA",
    "contactEmail": null,
    "categoryName": "PRIMARY CARE CLINIC",
    "categoryCode": "FQHC",
    "licenseStatus": "ACTIVE",
    "inService": true,
    "licenseNumber": "070000085",
    "licenseEffectiveDate": "11/07/2025",
    "licenseExpirationDate": "04/30/2026",
    "dataDate": "10/18/2025",
    "capacity": 0,
    "address": "1993 MCKEE RD",
    "city": "SAN JOSE",
    "zip": "95116",
    "county": "SANTA CLARA",
    "phone": "(408) 259-9160",
    "lat": 37.364733,
    "lng": -121.851873
  },
  {
    "id": "630012932",
    "name": "VALLEY HEALTH CENTER-ALEXIAN",
    "npi": "1578082400",
    "hcaiId": null,
    "businessName": null,
    "contactEmail": null,
    "categoryName": "PRIMARY CARE CLINIC",
    "categoryCode": "FQHC",
    "licenseStatus": null,
    "inService": null,
    "licenseNumber": null,
    "licenseEffectiveDate": null,
    "licenseExpirationDate": null,
    "dataDate": "10/18/2025",
    "capacity": 0,
    "address": "2101 ALEXIAN DR",
    "city": "SAN JOSE",
    "zip": "95116",
    "county": "SANTA CLARA",
    "phone": "(408) 272-6050",
    "lat": 37.359693,
    "lng": -121.848336
  },
  {
    "id": "070000009",
    "name": "VISTA MANOR NURSING CENTER",
    "npi": "1104820562",
    "hcaiId": "206431468",
    "businessName": "GHC OF SAN JOSE, LLC",
    "contactEmail": "AMYSANTO@LIFEGEN.NET",
    "categoryName": "SKILLED NURSING FACILITY",
    "categoryCode": "SNF",
    "licenseStatus": "ACTIVE",
    "inService": true,
    "licenseNumber": "070000210",
    "licenseEffectiveDate": "05/01/2025",
    "licenseExpirationDate": "04/30/2026",
    "dataDate": "10/18/2025",
    "capacity": 99,
    "address": "120 JOSE FIGUERES AVE",
    "city": "SAN JOSE",
    "zip": "95116",
    "county": "SANTA CLARA",
    "phone": "(408) 272-1400",
    "lat": 37.360062,
    "lng": -121.848894
  }
]