[
  {
    "id": "630020277",
    "name": "BAY AREA COMMUNITY HEALTH - ANDREW HILL HIGH SCHOOL",
    "npi": null,
    "hcaiId": null,
    "businessName": "BAY AREA COMMUNITY HEALTH",
    "contactEmail": null,
    "categoryName": "PRIMARY CARE CLINIC",
    "categoryCode": "COMTYC",
    "licenseStatus": "ACTIVE",
    "inService": true,
    "licenseNumber": "550003720",
    "licenseEffectiveDate": "11/15/2024",
    "licenseExpirationDate": "11/14/2025",
    "dataDate": "10/18/2025",
    "capacity": 0,
    "address": "3200 SENTER RD, ROOM S104",
    "city": "SAN JOSE",
    "zip": "95111",
    "county": "SANTA CLARA",
    "phone": null,
    "lat": 37.292328,
    "lng": -121.831029
  },
  {
    "id": "630026731",
    "name": "SANTA CLARA VALLEY HEALTH & HOSPITAL SYSTEM",
    "npi": null,
    "hcaiId": null,
    "businessName": null,
    "contactEmail": null,
    "categoryName": "PRIMARY CARE CLINIC",
    "categoryCode": "FQHC",
    "licenseStatus": null,
    "inService": null,
    "licenseNumber": null,
    "licenseEffectiveDate": null,
    "licenseExpirationDate": null,
    "dataDate": "10/18/2025",
    "capacity": 0,
    "address": "2410 SENTER RD, SUITE 205,206,209,215,223-229,231-237,246",
    "city": "SAN JOSE",
    "zip": "95111",
    "county": "SANTA CLARA",
    "phone": null,
    "lat": 37.307439,
    "lng": -121.8465315
  },
  {
    "id": "630014370",
    "name": "TULLY DIALYSIS",
    "npi": "1154668184",
    "hcaiId": "306430720",
    "businessName": "TOTAL RENAL CARE, INC.",
    "contactEmail": "CAL_C@DAVITA.COM",
    "categoryName": "CHRONIC DIALYSIS CLINIC",
    "categoryCode": "ESRD/CDC",
    "licenseStatus": "ACTIVE",
    "inService": true,
    "licenseNumber": "550002327",
    "licenseEffectiveDate": "07/26/2025",
    "licenseExpirationDate": "07/25/2026",
    "dataDate": "10/18/2025",
    "capacity": 48,
    "address": "614 TULLY RD, SUITE 30",
    "city": "SAN JOSE",
    "zip": "95111",
    "county": "SANTA CLARA",
    "phone": "(669) 369-3425",
    "lat": 37.308105,
    "lng": -121.846167
  },
  {
    "id": "070000844",
    "name": "VALLEY HEALTH CENTER TULLY",
    "npi": "1376538991",
    "hcaiId": null,
    "businessName": "COUNTY OF SANTA CLARA",
    "contactEmail": null,
    "categoryName": "PRIMARY CARE CLINIC",
    "categoryCode": "FQHC",
    "licenseStatus": "ACTIVE",
    "inService": true,
    "licenseNumber": "070000085",
    "licenseEffectiveDate": "11/07/2025",
    "licenseExpirationDate": "04/30/2026",
    "dataDate": "10/18/2025",
    "capacity": 0,
    "address": "500 TULLY RD",
    "city": "SAN JOSE",
    "zip": "95111",
    "county": "SANTA CLARA",
    "phone": "(408) 885-5700",
    "lat": 37.30631999,
    "lng": -121.8498138
  }
]