[
  {
    "id": "070000043",
    "name": "ALMADEN HEALTHCARE AND REHABILITATION CENTER",
    "npi": "1548558521",
    "hcaiId": "206430759",
    "businessName": "ALMADEN OPERATING COMPANY, LP",
    "contactEmail": "NEWUD.HABTOM@MARINERHEALTHCARE.COM",
    "categoryName": "SKILLED NURSING FACILITY",
    "categoryCode": "SNF",
    "licenseStatus": "ACTIVE",
    "inService": true,
    "licenseNumber": "070000034",
    "licenseEffectiveDate": "11/01/2025",
    "licenseExpirationDate": "10/31/2026",
    "dataDate": "10/18/2025",
    "capacity": 77,
    "address": "2065 LOS GATOS-ALMADEN ROAD",
    "city": "SAN JOSE",
    "zip": "95124",
    "county": "SANTA CLARA",
    "phone": "(408) 377-9275",
    "lat": 37.243908,
    "lng": -121.9333725
  },
  {
    "id": "070001302",
    "name": "ENDOSCOPY CENTER OF SILICON VALLEY",
    "npi": "1033448782",
    "hcaiId": "306434148",
    "businessName": null,
    "contactEmail": "ECSV@SBCGLOBAL.NET",
    "categoryName": "SURGICAL CLINIC",
    "categoryCode": "ASC",
    "licenseStatus": "INACTIVE - CAPEN DECISION",
    "inService": false,
    "licenseNumber": "070000622",
    "licenseEffectiveDate": "03/11/2008",
    "licenseExpirationDate": "03/10/2009",
    "dataDate": "10/18/2025",
    "capacity": 0,
    "address": "2410 SAMARITAN DR, SUITE 100",
    "city": "SAN JOSE",
    "zip": "95124",
    "county": "SANTA CLARA",
    "phone": "(408) 402-9990",
    "lat": 37.250829,
    "lng": -121.9451355
  },
  {
    "id": "070000153",
    "name": "GOOD SAMARITAN HOSPITAL",
    "npi": "1437103777",
    "hcaiId": "106430779",
    "businessName": "GOOD SAMARITAN HOSPITAL, LP",
    "contactEmail": "GSHOREGULATORYCOMPLIANCE@HCAHEALTHCARE.COM",
    "categoryName": "GENERAL ACUTE CARE HOSPITAL",
    "categoryCode": "GACH",
    "licenseStatus": "ACTIVE",
    "inService": true,
    "licenseNumber": "070000048",
    "licenseEffectiveDate": "02/01/2025",
    "licenseExpirationDate": "01/31/2026",
    "dataDate": "10/18/2025",
    "capacity": 404,
    "address": "2425 SAMARITAN DR",
    "city": "SAN JOSE",
    "zip": "95124",
    "county": "SANTA CLARA",
    "phone": "(408) 559-2383",
    "lat": 37.251738,
    "lng": -121.94649
  },
  {
    "id": "070001284",
    "name": "GREAT ENDEAVORS ADULT DAY HEALTH CARE CENTER",
    "npi": null,
    "hcaiId": null,
    "businessName": "TUPAZ DAY CARE SERVICES INC.",
    "contactEmail": "TUPZHOM2@PACBELL.NET",
    "categoryName": "ADULT DAY HEALTH CARE",
    "categoryCode": "ADHC",
    "licenseStatus": "ACTIVE",
    "inService": true,
    "licenseNumber": "070000606",
    "licenseEffectiveDate": "11/21/2024",
    "licenseExpirationDate": "11/20/2025",
    "dataDate": "10/18/2025",
    "capacity": 0,
    "address": "3015 UNION AVE",
    "city": "SAN JOSE",
    "zip": "95124",
    "county": "SANTA CLARA",
    "phone": "(408) 377-1622",
    "lat": 37.266984,
    "lng": -121.9319505
  },
  {
    "id": "070000082",
    "name": "PLUM TREE CARE CENTER",
    "npi": "1083618441",
    "hcaiId": "206430863",
    "businessName": "GHC OF LOS GATOS, LLC",
    "contactEmail": "JEFFPRUDENCIO@LIFEGEN.NET",
    "categoryName": "SKILLED NURSING FACILITY",
    "categoryCode": "SNF",
    "licenseStatus": "ACTIVE",
    "inService": true,
    "licenseNumber": "070000080",
    "licenseEffectiveDate": "11/01/2025",
    "licenseExpirationDate": "10/31/2026",
    "dataDate": "10/18/2025",
    "capacity": 76,
    "address": "2580 SAMARITAN DR",
    "city": "SAN JOSE",
    "zip": "95124",
    "county": "SANTA CLARA",
    "phone": "(408) 356-8181",
    "lat": 37.252575,
    "lng": -121.950918
  },
  {
    "id": "630019691",
    "name": "SUNRISE HOSPICE CARE INC.",
    "npi": null,
    "hcaiId": "406436194",
    "businessName": "SUNRISE HOSPICE CARE INC.",
    "contactEmail": "SUNRISEHOSPICECARE@GMAIL.COM",
    "categoryName": "HOSPICE",
    "categoryCode": "HOSPICE",
    "licenseStatus": "ACTIVE",
    "inService": true,
    "licenseNumber": "550006283",
    "licenseEffectiveDate": "05/14/2025",
    "licenseExpirationDate": "05/13/2027",
    "dataDate": "10/18/2025",
    "capacity": 0,
    "address": "4606 MERIDIAN AVE, SUITE 201",
    "city": "SAN JOSE",
    "zip": "95124",
    "county": "SANTA CLARA",
    "phone": "(408) 766-7720",
    "lat": 37.25722199,
    "lng": -121.89787
  },
  {
    "id": "630015334",
    "name": "SURGERY CENTER SAN JOSE",
    "npi": "1043654486",
    "hcaiId": "306434271",
    "businessName": "SUTTER BAY MEDICAL FOUNDATION",
    "contactEmail": "MATNEYD@SUTTERHEALTH.ORG",
    "categoryName": "SURGICAL CLINIC",
    "categoryCode": "ASC/SURGC",
    "licenseStatus": "ACTIVE",
    "inService": true,
    "licenseNumber": "550002777",
    "licenseEffectiveDate": "02/01/2025",
    "licenseExpirationDate": "01/31/2026",
    "dataDate": "10/18/2025",
    "capacity": 0,
    "address": "2581 SAMARITAN DR, SUITE 308",
    "city": "SAN JOSE",
    "zip": "95124",
    "county": "SANTA CLARA",
    "phone": "(408) 355-1700",
    "lat": 37.253484,
    "lng": -121.950171
  },
  {
    "id": "630027233",
    "name": "SUTTER SAMARITAN SURGERY CENTER",
    "npi": null,
    "hcaiId": "306430021",
    "businessName": "SUTTER BAY MEDICAL FOUNDATION",
    "contactEmail": "CYNTHIA.GLAGOLA2@SUTTERHEALTH.ORG",
    "categoryName": "SURGICAL CLINIC",
    "categoryCode": "ASC/SURGC",
    "licenseStatus": "ACTIVE",
    "inService": true,
    "licenseNumber": "550008793",
    "licenseEffectiveDate": "10/19/2025",
    "licenseExpirationDate": "10/18/2026",
    "dataDate": "10/18/2025",
    "capacity": 0,
    "address": "2506 SAMARITAN CT",
    "city": "SAN JOSE",
    "zip": "95124",
    "county": "SANTA CLARA",
    "phone": "(408) 524-5770",
    "lat": 37.25069899,
    "lng": -121.949907
  },
  {
    "id": "630017244",
    "name": "TRINITY SURGERY CENTER",
    "npi": null,
    "hcaiId": null,
    "businessName": null,
    "contactEmail": null,
    "categoryName": "SURGICAL CLINIC",
    "categoryCode": "ASC",
    "licenseStatus": null,
    "inService": null,
    "licenseNumber": null,
    "licenseEffectiveDate": null,
    "licenseExpirationDate": null,
    "dataDate": "10/18/2025",
    "capacity": 0,
    "address": "1610 BLOSSOM HILL RD, SUITE 10",
    "city": "SAN JOSE",
    "zip": "95124",
    "county": "SANTA CLARA",
    "phone": "(408) 620-1532",
    "lat": 37.2362852,
    "lng": -121.9043477
  },
  {
    "id": "070000476",
    "name": "TUPAZ HOME",
    "npi": "1407067937",
    "hcaiId": null,
    "businessName": "TUPAZ HOMES LLC",
    "contactEmail": "TUPZHOM2@PACBELL.NET",
    "categoryName": "INTERMEDIATE CARE FACILITY-DD/H/N/CN/IID",
    "categoryCode": "ICFDDN",
    "licenseStatus": "ACTIVE",
    "inService": true,
    "licenseNumber": "070000235",
    "licenseEffectiveDate": "11/01/2024",
    "licenseExpirationDate": "10/31/2025",
    "dataDate": "10/18/2025",
    "capacity": 6,
    "address": "14910 UNION AVE",
    "city": "SAN JOSE",
    "zip": "95124",
    "county": "SANTA CLARA",
    "phone": "(408) 559-1349",
    "lat": 37.251999,
    "lng": -121.9308345
  },
  {
    "id": "070000568",
    "name": "TUPAZ HOME #10",
    "npi": "1518178904",
    "hcaiId": null,
    "businessName": "TUPAZ HOMES LLC",
    "contactEmail": "ANU@TUPAZHOMES.COM",
    "categoryName": "INTERMEDIATE CARE FACILITY-DD/H/N/CN/IID",
    "categoryCode": "ICFDDN",
    "licenseStatus": "ACTIVE",
    "inService": true,
    "licenseNumber": "070000257",
    "licenseEffectiveDate": "01/01/2025",
    "licenseExpirationDate": "12/31/2025",
    "dataDate": "10/18/2025",
    "capacity": 6,
    "address": "2893 ROSS AVE",
    "city": "SAN JOSE",
    "zip": "95124",
    "county": "SANTA CLARA",
    "phone": "(408) 978-5540",
    "lat": 37.268532,
    "lng": -121.920363
  },
  {
    "id": "070001404",
    "name": "TUPAZ HOME #11",
    "npi": "1568673960",
    "hcaiId": null,
    "businessName": "TUPAZ HOMES LLC",
    "contactEmail": "TUPZHOME2@PACBELL.NET",
    "categoryName": "INTERMEDIATE CARE FACILITY-DD/H/N/CN/IID",
    "categoryCode": "ICFDDN",
    "licenseStatus": "ACTIVE",
    "inService": true,
    "licenseNumber": "070000681",
    "licenseEffectiveDate": "04/21/2025",
    "licenseExpirationDate": "04/20/2026",
    "dataDate": "10/18/2025",
    "capacity": 6,
    "address": "1850 POTRERO DR",
    "city": "SAN JOSE",
    "zip": "95124",
    "county": "SANTA CLARA",
    "phone": "(408) 266-2461",
    "lat": 37.27150151,
    "lng": -121.9205769
  },
  {
    "id": "630011863",
    "name": "TUPAZ HOME #14",
    "npi": null,
    "hcaiId": null,
    "businessName": "TUPAZ HOMES LLC",
    "contactEmail": "TUPZHOM2@PACBELL.NET",
    "categoryName": "INTERMEDIATE CARE FACILITY-DD/H/N/CN/IID",
    "categoryCode": "ICFDDCN",
    "licenseStatus": "ACTIVE",
    "inService": true,
    "licenseNumber": "550000884",
    "licenseEffectiveDate": "02/23/2025",
    "licenseExpirationDate": "02/22/2026",
    "dataDate": "10/18/2025",
    "capacity": 6,
    "address": "14716 UNION AVE",
    "city": "SAN JOSE",
    "zip": "95124",
    "county": "SANTA CLARA",
    "phone": "(408) 210-3949",
    "lat": 37.254906,
    "lng": -121.930866
  },
  {
    "id": "070000527",
    "name": "TUPAZ HOME #2",
    "npi": "1114138476",
    "hcaiId": null,
    "businessName": "TUPAZ HOMES LLC",
    "contactEmail": "TUPZHOM2@PACBELL.NET",
    "categoryName": "INTERMEDIATE CARE FACILITY-DD/H/N/CN/IID",
    "categoryCode": "ICFDDN",
    "licenseStatus": "ACTIVE",
    "inService": true,
    "licenseNumber": "070000250",
    "licenseEffectiveDate": "11/01/2024",
    "licenseExpirationDate": "10/31/2025",
    "dataDate": "10/18/2025",
    "capacity": 6,
    "address": "14926 UNION AVE",
    "city": "SAN JOSE",
    "zip": "95124",
    "county": "SANTA CLARA",
    "phone": "(408) 559-4613",
    "lat": 37.251729,
    "lng": -121.93083
  },
  {
    "id": "070000890",
    "name": "TUPAZ HOME #5",
    "npi": "1962613422",
    "hcaiId": null,
    "businessName": "TUPAZ HOMES LLC",
    "contactEmail": "TUPZHOM2@PACBELL.NET",
    "categoryName": "INTERMEDIATE CARE FACILITY-DD/H/N/CN/IID",
    "categoryCode": "ICFDDN",
    "licenseStatus": "ACTIVE",
    "inService": true,
    "licenseNumber": "070000368",
    "licenseEffectiveDate": "11/01/2024",
    "licenseExpirationDate": "10/31/2025",
    "dataDate": "10/18/2025",
    "capacity": 6,
    "address": "3456 CALVIN AVE",
    "city": "SAN JOSE",
    "zip": "95124",
    "county": "SANTA CLARA",
    "phone": "(408) 371-6543",
    "lat": 37.262826,
    "lng": -121.9397355
  },
  {
    "id": "070001309",
    "name": "TUPAZ HOME #8",
    "npi": "1922219302",
    "hcaiId": null,
    "businessName": "TUPAZ HOMES LLC",
    "contactEmail": "TUPZHOM2@PACBELL.NET",
    "categoryName": "INTERMEDIATE CARE FACILITY-DD/H/N/CN/IID",
    "categoryCode": "ICFDDN",
    "licenseStatus": "ACTIVE",
    "inService": true,
    "licenseNumber": "070000629",
    "licenseEffectiveDate": "01/04/2025",
    "licenseExpirationDate": "01/03/2026",
    "dataDate": "10/18/2025",
    "capacity": 6,
    "address": "4189 LEIGH AVE",
    "city": "SAN JOSE",
    "zip": "95124",
    "county": "SANTA CLARA",
    "phone": "(408) 559-5214",
    "lat": 37.25676,
    "lng": -121.9221315
  },
  {
    "id": "070000726",
    "name": "TUPAZ HOME #9",
    "npi": "1003027491",
    "hcaiId": null,
    "businessName": "TUPAZ HOMES LLC",
    "contactEmail": "TUPZHOM2@PACBELL.NET",
    "categoryName": "INTERMEDIATE CARE FACILITY-DD/H/N/CN/IID",
    "categoryCode": "ICFDDN",
    "licenseStatus": "ACTIVE",
    "inService": true,
    "licenseNumber": "070000302",
    "licenseEffectiveDate": "01/01/2025",
    "licenseExpirationDate": "12/31/2025",
    "dataDate": "10/18/2025",
    "capacity": 6,
    "address": "1602 ORCHARD VIEW DR",
    "city": "SAN JOSE",
    "zip": "95124",
    "county": "SANTA CLARA",
    "phone": "(408) 448-5411",
    "lat": 37.234305,
    "lng": -121.9038345
  }
]