[
  {
    "id": "630014431",
    "name": "BACH FAMILY CLINIC",
    "npi": "1538508015",
    "hcaiId": "306434259",
    "businessName": "BAY AREA COMMUNITY HEALTH",
    "contactEmail": "SCHAVARIN@SJFFCC.ORG",
    "categoryName": "PRIMARY CARE CLINIC",
    "categoryCode": "COMTYC",
    "licenseStatus": "ACTIVE",
    "inService": true,
    "licenseNumber": "550000139",
    "licenseEffectiveDate": "11/21/2024",
    "licenseExpirationDate": "11/20/2025",
    "dataDate": "10/18/2025",
    "capacity": 0,
    "address": "1066 S WHITE RD, SUITE 170",
    "city": "SAN JOSE",
    "zip": "95127",
    "county": "SANTA CLARA",
    "phone": "(408) 755-3800",
    "lat": 37.35663737,
    "lng": -121.8195276
  },
  {
    "id": "630026875",
    "name": "BACH MCKEE ROAD CLINIC",
    "npi": null,
    "hcaiId": null,
    "businessName": "BAY AREA COMMUNITY HEALTH",
    "contactEmail": null,
    "categoryName": "PRIMARY CARE CLINIC",
    "categoryCode": "FQHC/COMTYC",
    "licenseStatus": "ACTIVE",
    "inService": true,
    "licenseNumber": "550000139",
    "licenseEffectiveDate": "11/21/2024",
    "licenseExpirationDate": "11/20/2025",
    "dataDate": "10/18/2025",
    "capacity": 0,
    "address": "3055 MCKEE RD",
    "city": "SAN JOSE",
    "zip": "95127",
    "county": "SANTA CLARA",
    "phone": null,
    "lat": 37.374867,
    "lng": -121.837554
  },
  {
    "id": "630020278",
    "name": "BAY AREA COMMUNITY HEALTH - MOMENTUM AT THE CROSSROADS",
    "npi": null,
    "hcaiId": null,
    "businessName": "BAY AREA COMMUNITY HEALTH",
    "contactEmail": null,
    "categoryName": "PRIMARY CARE CLINIC",
    "categoryCode": "COMTYC",
    "licenseStatus": "ACTIVE",
    "inService": true,
    "licenseNumber": "550003720",
    "licenseEffectiveDate": "11/15/2024",
    "licenseExpirationDate": "11/14/2025",
    "dataDate": "10/18/2025",
    "capacity": 0,
    "address": "438 N WHITE RD",
    "city": "SAN JOSE",
    "zip": "95127",
    "county": "SANTA CLARA",
    "phone": null,
    "lat": 37.37778997,
    "lng": -121.8375754
  },
  {
    "id": "070001018",
    "name": "BAY AREA COMMUNITY HEALTH STORY ROAD CLINIC",
    "npi": null,
    "hcaiId": "306434203",
    "businessName": "BAY AREA COMMUNITY HEALTH",
    "contactEmail": "SCHAVARIN@SJFFCC.COM",
    "categoryName": "PRIMARY CARE CLINIC",
    "categoryCode": "COMTYC",
    "licenseStatus": "ACTIVE",
    "inService": true,
    "licenseNumber": "550003720",
    "licenseEffectiveDate": "11/15/2024",
    "licenseExpirationDate": "11/14/2025",
    "dataDate": "10/18/2025",
    "capacity": 0,
    "address": "2880 STORY RD, SUITE 10",
    "city": "SAN JOSE",
    "zip": "95127",
    "county": "SANTA CLARA",
    "phone": "(408) 729-4282",
    "lat": 37.353474,
    "lng": -121.822497
  },
  {
    "id": "070000169",
    "name": "COMPRECARE HEALTH CENTER",
    "npi": "1558491043",
    "hcaiId": "306431874",
    "businessName": "GARDNER FAMILY HEALTH NETWORK, INC.",
    "contactEmail": "SLABAD@GFHN.ORG",
    "categoryName": "PRIMARY CARE CLINIC",
    "categoryCode": "COMTYC",
    "licenseStatus": "ACTIVE",
    "inService": true,
    "licenseNumber": "070000179",
    "licenseEffectiveDate": "11/25/2024",
    "licenseExpirationDate": "11/24/2025",
    "dataDate": "10/18/2025",
    "capacity": 0,
    "address": "3030 ALUM ROCK AVE",
    "city": "SAN JOSE",
    "zip": "95127",
    "county": "SANTA CLARA",
    "phone": "(408) 918-5500",
    "lat": 37.364643,
    "lng": -121.8288735
  },
  {
    "id": "070000085",
    "name": "INSPIRE BEHAVIORAL HEALTH",
    "npi": "1306421748",
    "hcaiId": "206431104",
    "businessName": "INSPIRE BEHAVIORAL HEALTH, LLC",
    "contactEmail": "AMAN.DHILLON@INSPIREBHC.COM",
    "categoryName": "SKILLED NURSING FACILITY",
    "categoryCode": "SNF",
    "licenseStatus": "ACTIVE",
    "inService": true,
    "licenseNumber": "070000209",
    "licenseEffectiveDate": "06/13/2025",
    "licenseExpirationDate": "06/12/2026",
    "dataDate": "10/18/2025",
    "capacity": 116,
    "address": "401 RIDGE VISTA AVE",
    "city": "SAN JOSE",
    "zip": "95127",
    "county": "SANTA CLARA",
    "phone": "(408) 923-7232",
    "lat": 37.378107,
    "lng": -121.8356595
  },
  {
    "id": "630019707",
    "name": "MOBILE UNIT-PRIMARY CARE",
    "npi": "1699041566",
    "hcaiId": null,
    "businessName": "GARDNER FAMILY HEALTH NETWORK, INC.",
    "contactEmail": null,
    "categoryName": "PRIMARY CARE CLINIC",
    "categoryCode": "COMTYC",
    "licenseStatus": "ACTIVE",
    "inService": true,
    "licenseNumber": "550001949",
    "licenseEffectiveDate": "05/18/2025",
    "licenseExpirationDate": "05/17/2026",
    "dataDate": "10/18/2025",
    "capacity": 0,
    "address": "3030 ALUM ROCK AVE",
    "city": "SAN JOSE",
    "zip": "95127",
    "county": "SANTA CLARA",
    "phone": null,
    "lat": 37.364643,
    "lng": -121.8288735
  },
  {
    "id": "630013791",
    "name": "MT. PLEASANT HEALTH CENTER",
    "npi": "1326302027",
    "hcaiId": "306434250",
    "businessName": "BAY AREA COMMUNITY HEALTH",
    "contactEmail": "RPENA@SJFFCC.ORG",
    "categoryName": "PRIMARY CARE CLINIC",
    "categoryCode": "COMTYC",
    "licenseStatus": "ACTIVE",
    "inService": true,
    "licenseNumber": "550000139",
    "licenseEffectiveDate": "11/21/2024",
    "licenseExpirationDate": "11/20/2025",
    "dataDate": "10/18/2025",
    "capacity": 0,
    "address": "1650 S WHITE RD",
    "city": "SAN JOSE",
    "zip": "95127",
    "county": "SANTA CLARA",
    "phone": "(408) 928-5250",
    "lat": 37.34655022,
    "lng": -121.8103119
  },
  {
    "id": "070000237",
    "name": "PLANNED PARENTHOOD MAR MONTE - EASTSIDE HEALTH CENTER",
    "npi": null,
    "hcaiId": "306431915",
    "businessName": "PLANNED PARENTHOOD MAR MONTE, INC.",
    "contactEmail": "SERVICESAD@PPMARMONTE.ORG",
    "categoryName": "PRIMARY CARE CLINIC",
    "categoryCode": "COMTYC",
    "licenseStatus": "ACTIVE",
    "inService": true,
    "licenseNumber": "070000207",
    "licenseEffectiveDate": "11/07/2025",
    "licenseExpirationDate": "11/06/2026",
    "dataDate": "10/18/2025",
    "capacity": 0,
    "address": "3131 ALUM ROCK AVE",
    "city": "SAN JOSE",
    "zip": "95127",
    "county": "SANTA CLARA",
    "phone": "(408) 795-3695",
    "lat": 37.36638354,
    "lng": -121.82728
  },
  {
    "id": "630013615",
    "name": "REALOPTIONS",
    "npi": "1568973071",
    "hcaiId": "306434230",
    "businessName": "REALOPTIONS",
    "contactEmail": "VALERIE@REALOPTIONS.NET",
    "categoryName": "PRIMARY CARE CLINIC",
    "categoryCode": "COMTYC",
    "licenseStatus": "ACTIVE",
    "inService": true,
    "licenseNumber": "550002002",
    "licenseEffectiveDate": "06/29/2025",
    "licenseExpirationDate": "06/28/2026",
    "dataDate": "10/18/2025",
    "capacity": 0,
    "address": "12 N WHITE RD, SUITE 1",
    "city": "SAN JOSE",
    "zip": "95127",
    "county": "SANTA CLARA",
    "phone": "(408) 272-5577",
    "lat": 37.366362,
    "lng": -121.8281085
  },
  {
    "id": "630012628",
    "name": "SATELLITE DIALYSIS OF WHITE ROAD LLC",
    "npi": "1972838944",
    "hcaiId": "306434214",
    "businessName": "SATELLITE DIALYSIS OF WHITE ROAD, LLC",
    "contactEmail": "LICENSING@SATELLITEHEALTH.COM",
    "categoryName": "CHRONIC DIALYSIS CLINIC",
    "categoryCode": "ESRD/CDC",
    "licenseStatus": "ACTIVE",
    "inService": true,
    "licenseNumber": "550001276",
    "licenseEffectiveDate": "04/30/2025",
    "licenseExpirationDate": "04/29/2026",
    "dataDate": "10/18/2025",
    "capacity": 25,
    "address": "1450 S WHITE RD, SUITE 30",
    "city": "SAN JOSE",
    "zip": "95127",
    "county": "SANTA CLARA",
    "phone": "(408) 272-9810",
    "lat": 37.350234,
    "lng": -121.812921
  },
  {
    "id": "070001025",
    "name": "SHINRAI-GRIDLEY",
    "npi": "1245380146",
    "hcaiId": null,
    "businessName": "MOURI MANAGEMENT GROUP INCORPORATED",
    "contactEmail": "NB_DE_JESUS@YAHOO.COM",
    "categoryName": "INTERMEDIATE CARE FACILITY-DD/H/N/CN/IID",
    "categoryCode": "ICFDDN",
    "licenseStatus": "ACTIVE",
    "inService": true,
    "licenseNumber": "070000439",
    "licenseEffectiveDate": "02/25/2025",
    "licenseExpirationDate": "02/24/2026",
    "dataDate": "10/18/2025",
    "capacity": 6,
    "address": "394 GRIDLEY ST",
    "city": "SAN JOSE",
    "zip": "95127",
    "county": "SANTA CLARA",
    "phone": "(408) 729-5717",
    "lat": 37.379583,
    "lng": -121.832424
  },
  {
    "id": "630012069",
    "name": "SHINRAI-WHITE",
    "npi": "1982842894",
    "hcaiId": null,
    "businessName": "MOURI MANAGEMENT GROUP INCORPORATED",
    "contactEmail": "NB_DE_JESUS@YAHOO.COM",
    "categoryName": "INTERMEDIATE CARE FACILITY-DD/H/N/CN/IID",
    "categoryCode": "ICFDDH",
    "licenseStatus": "ACTIVE",
    "inService": true,
    "licenseNumber": "550001055",
    "licenseEffectiveDate": "11/15/2024",
    "licenseExpirationDate": "11/14/2025",
    "dataDate": "10/18/2025",
    "capacity": 6,
    "address": "187 N WHITE RD",
    "city": "SAN JOSE",
    "zip": "95127",
    "county": "SANTA CLARA",
    "phone": "(408) 990-6850",
    "lat": 37.371636,
    "lng": -121.8332745
  },
  {
    "id": "070000076",
    "name": "THE RIDGE POST-ACUTE",
    "npi": "1720066129",
    "hcaiId": "206430829",
    "businessName": "FLETCHER COVE HOLDINGS, LLC",
    "contactEmail": "KOLBY.HEATON@LINKSHEALTH.COM",
    "categoryName": "SKILLED NURSING FACILITY",
    "categoryCode": "SNF",
    "licenseStatus": "ACTIVE",
    "inService": true,
    "licenseNumber": "070000068",
    "licenseEffectiveDate": "11/18/2025",
    "licenseExpirationDate": "11/17/2026",
    "dataDate": "10/18/2025",
    "capacity": 54,
    "address": "1355 CLAYTON RD",
    "city": "SAN JOSE",
    "zip": "95127",
    "county": "SANTA CLARA",
    "phone": "(408) 251-3070",
    "lat": 37.356399,
    "lng": -121.8071295
  }
]