[
  {
    "id": "630017670",
    "name": "ALL SUPPORT AT HOME, LLC",
    "npi": "1205218732",
    "hcaiId": "406432029",
    "businessName": "ALL SUPPORT AT HOME, LLC",
    "contactEmail": "MKSAAD@ALLSUPPORTATHOME.COM",
    "categoryName": "HOME HEALTH AGENCY",
    "categoryCode": "HHA",
    "licenseStatus": "ACTIVE",
    "inService": true,
    "licenseNumber": "550005085",
    "licenseEffectiveDate": "11/07/2025",
    "licenseExpirationDate": "11/06/2026",
    "dataDate": "10/18/2025",
    "capacity": 0,
    "address": "1038 LEIGH AVE, SUITE 216",
    "city": "SAN JOSE",
    "zip": "95126",
    "county": "SANTA CLARA",
    "phone": "(408) 971-1997",
    "lat": 37.305927,
    "lng": -121.921173
  },
  {
    "id": "630020281",
    "name": "BAY AREA COMMUNITY HEALTH - MOMENTUM AT THE ALAMEDA",
    "npi": null,
    "hcaiId": null,
    "businessName": "BAY AREA COMMUNITY HEALTH",
    "contactEmail": null,
    "categoryName": "PRIMARY CARE CLINIC",
    "categoryCode": "COMTYC",
    "licenseStatus": "ACTIVE",
    "inService": true,
    "licenseNumber": "550003720",
    "licenseEffectiveDate": "11/15/2024",
    "licenseExpirationDate": "11/14/2025",
    "dataDate": "10/18/2025",
    "capacity": 0,
    "address": "2001 THE ALAMEDA",
    "city": "SAN JOSE",
    "zip": "95126",
    "county": "SANTA CLARA",
    "phone": null,
    "lat": 37.342467,
    "lng": -121.9272615
  },
  {
    "id": "020001298",
    "name": "CENTERWELL ASIAN AMERICAN HOME HEALTH",
    "npi": "1336144484",
    "hcaiId": "406434160",
    "businessName": "ASIAN AMERICAN HOME CARE, INC.",
    "contactEmail": null,
    "categoryName": "HOME HEALTH AGENCY",
    "categoryCode": "HHA",
    "licenseStatus": "ACTIVE",
    "inService": true,
    "licenseNumber": "020000654",
    "licenseEffectiveDate": "04/30/2025",
    "licenseExpirationDate": "01/10/2026",
    "dataDate": "10/18/2025",
    "capacity": 0,
    "address": "1840 THE ALAMEDA",
    "city": "SAN JOSE",
    "zip": "95126",
    "county": "SANTA CLARA",
    "phone": "(000) 000-0000",
    "lat": 37.339839,
    "lng": -121.9213305
  },
  {
    "id": "630018812",
    "name": "GARDEN ALAMEDA NEIGHBORHOOD HEALTH CLINIC",
    "npi": null,
    "hcaiId": null,
    "businessName": "SCHOOL HEALTH CLINICS OF SANTA CLARA COUNTY",
    "contactEmail": null,
    "categoryName": "PRIMARY CARE CLINIC",
    "categoryCode": "COMTYC",
    "licenseStatus": "ACTIVE",
    "inService": true,
    "licenseNumber": "070000408",
    "licenseEffectiveDate": "11/28/2024",
    "licenseExpirationDate": "11/27/2025",
    "dataDate": "10/18/2025",
    "capacity": 0,
    "address": "855 LENZEN AVE, ROOM 105",
    "city": "SAN JOSE",
    "zip": "95126",
    "county": "SANTA CLARA",
    "phone": null,
    "lat": 37.336023,
    "lng": -121.9114935
  },
  {
    "id": "630016024",
    "name": "GUARDIAN ANGEL HOME CARE OF SAN JOSE LLC",
    "npi": "1285011676",
    "hcaiId": "406434297",
    "businessName": "GUARDIAN ANGEL HOME CARE OF SAN JOSE LLC",
    "contactEmail": "ADMIN@GAHC94.COM",
    "categoryName": "HOME HEALTH AGENCY",
    "categoryCode": "HHA",
    "licenseStatus": "ACTIVE",
    "inService": true,
    "licenseNumber": "550003564",
    "licenseEffectiveDate": "06/30/2025",
    "licenseExpirationDate": "06/29/2026",
    "dataDate": "10/18/2025",
    "capacity": 0,
    "address": "1885 THE ALAMEDA, SUITE 208",
    "city": "SAN JOSE",
    "zip": "95126",
    "county": "SANTA CLARA",
    "phone": "(408) 261-1120",
    "lat": 37.340109,
    "lng": -121.92318
  },
  {
    "id": "630011724",
    "name": "ON LOK SENIOR HEALTH SERVICES - SAN JOSE CENTER",
    "npi": null,
    "hcaiId": "306434199",
    "businessName": "ON LOK SENIOR HEALTH SERVICES",
    "contactEmail": "NICOLE@ONLOK.ORG",
    "categoryName": "PRIMARY CARE CLINIC",
    "categoryCode": "COMTYC",
    "licenseStatus": "ACTIVE",
    "inService": true,
    "licenseNumber": "550000845",
    "licenseEffectiveDate": "12/31/2024",
    "licenseExpirationDate": "12/30/2025",
    "dataDate": "10/18/2025",
    "capacity": 0,
    "address": "299 STOCKTON AVE",
    "city": "SAN JOSE",
    "zip": "95126",
    "county": "SANTA CLARA",
    "phone": "(415) 292-8799",
    "lat": 37.333431,
    "lng": -121.9060035
  },
  {
    "id": "630011726",
    "name": "ON LOK SENIOR HEALTH SERVICES-SAN JOSE CENTER",
    "npi": null,
    "hcaiId": null,
    "businessName": "ON LOK SENIOR HEALTH SERVICES",
    "contactEmail": "NICOLE@ONLOK.ORG",
    "categoryName": "ADULT DAY HEALTH CARE",
    "categoryCode": "ADHC",
    "licenseStatus": "ACTIVE",
    "inService": true,
    "licenseNumber": "550000839",
    "licenseEffectiveDate": "01/06/2025",
    "licenseExpirationDate": "01/05/2026",
    "dataDate": "10/18/2025",
    "capacity": 0,
    "address": "299 STOCKTON AVE",
    "city": "SAN JOSE",
    "zip": "95126",
    "county": "SANTA CLARA",
    "phone": "(415) 292-8799",
    "lat": 37.333431,
    "lng": -121.9060035
  },
  {
    "id": "070000182",
    "name": "PLANNED PARENTHOOD MAR MONTE - SAN JOSE HEALTH CENTER",
    "npi": null,
    "hcaiId": "306430976",
    "businessName": "PLANNED PARENTHOOD MAR MONTE, INC.",
    "contactEmail": "SERVICESAD@PPMARMONTE.ORG",
    "categoryName": "PRIMARY CARE CLINIC",
    "categoryCode": "COMTYC",
    "licenseStatus": "ACTIVE",
    "inService": true,
    "licenseNumber": "070000101",
    "licenseEffectiveDate": "11/01/2025",
    "licenseExpirationDate": "10/31/2026",
    "dataDate": "10/18/2025",
    "capacity": 0,
    "address": "1691 THE ALAMEDA",
    "city": "SAN JOSE",
    "zip": "95126",
    "county": "SANTA CLARA",
    "phone": "(408) 795-3695",
    "lat": 37.337148,
    "lng": -121.919535
  },
  {
    "id": "630015654",
    "name": "REALOPTIONS",
    "npi": "1568973071",
    "hcaiId": "306434276",
    "businessName": "REALOPTIONS",
    "contactEmail": "VALERIE@REALOPTIONS.NET",
    "categoryName": "PRIMARY CARE CLINIC",
    "categoryCode": "COMTYC",
    "licenseStatus": "ACTIVE",
    "inService": true,
    "licenseNumber": "550002937",
    "licenseEffectiveDate": "01/12/2025",
    "licenseExpirationDate": "01/11/2026",
    "dataDate": "10/18/2025",
    "capacity": 0,
    "address": "1671 THE ALAMEDA, SUITE 101",
    "city": "SAN JOSE",
    "zip": "95126",
    "county": "SANTA CLARA",
    "phone": "(408) 978-9310",
    "lat": 37.33659,
    "lng": -121.919004
  },
  {
    "id": "630017241",
    "name": "ROOTS COMMUNITY HEALTH CENTER",
    "npi": "1083145122",
    "hcaiId": "306430529",
    "businessName": "ROOTS COMMUNITY HEALTH CENTER",
    "contactEmail": "DRNOHA@ROOTSCOMMUNITYHEALTH.ORG",
    "categoryName": "PRIMARY CARE CLINIC",
    "categoryCode": "COMTYC",
    "licenseStatus": "ACTIVE",
    "inService": true,
    "licenseNumber": "550004774",
    "licenseEffectiveDate": "04/16/2025",
    "licenseExpirationDate": "04/15/2026",
    "dataDate": "10/18/2025",
    "capacity": 0,
    "address": "1898 THE ALAMEDA",
    "city": "SAN JOSE",
    "zip": "95126",
    "county": "SANTA CLARA",
    "phone": "(408) 490-4710",
    "lat": 37.34074059,
    "lng": -121.9228944
  },
  {
    "id": "070000271",
    "name": "SANTA CLARA COUNTY TUBERCULOSIS CLINIC",
    "npi": null,
    "hcaiId": null,
    "businessName": null,
    "contactEmail": null,
    "categoryName": "OTHER",
    "categoryCode": "UNLICEN",
    "licenseStatus": null,
    "inService": null,
    "licenseNumber": null,
    "licenseEffectiveDate": null,
    "licenseExpirationDate": null,
    "dataDate": "10/18/2025",
    "capacity": 0,
    "address": "976 LENZEN AVE",
    "city": "SAN JOSE",
    "zip": "95126",
    "county": "SANTA CLARA",
    "phone": "(408) 299-5846",
    "lat": 37.334295,
    "lng": -121.911777
  },
  {
    "id": "630017344",
    "name": "SOUTH BAY HOME HEALTH CARE, LLC",
    "npi": "1992063283",
    "hcaiId": "406434302",
    "businessName": "SOUTH BAY HOME HEALTH CARE, LLC",
    "contactEmail": "INFO@SOUTHBAYHHC.COM",
    "categoryName": "HOME HEALTH AGENCY",
    "categoryCode": "HHA",
    "licenseStatus": "ACTIVE",
    "inService": true,
    "licenseNumber": "550003870",
    "licenseEffectiveDate": "05/08/2025",
    "licenseExpirationDate": "05/07/2026",
    "dataDate": "10/18/2025",
    "capacity": 0,
    "address": "551 STOCKTON AVE, SUITE C",
    "city": "SAN JOSE",
    "zip": "95126",
    "county": "SANTA CLARA",
    "phone": "(408) 775-4499",
    "lat": 37.338363,
    "lng": -121.9112775
  },
  {
    "id": "630012184",
    "name": "VALLEY HEALTH CENTER LENZEN",
    "npi": null,
    "hcaiId": null,
    "businessName": null,
    "contactEmail": null,
    "categoryName": "PRIMARY CARE CLINIC",
    "categoryCode": "FQHC",
    "licenseStatus": null,
    "inService": null,
    "licenseNumber": null,
    "licenseEffectiveDate": null,
    "licenseExpirationDate": null,
    "dataDate": "10/18/2025",
    "capacity": 0,
    "address": "976 LENZEN AVE",
    "city": "SAN JOSE",
    "zip": "95126",
    "county": "SANTA CLARA",
    "phone": null,
    "lat": 37.334295,
    "lng": -121.911777
  }
]