[
  {
    "id": "070000095",
    "name": "A GRACE SUB ACUTE & SKILLED CARE",
    "npi": "1689828840",
    "hcaiId": "206430789",
    "businessName": "LITA & AVA INC.",
    "contactEmail": "CCORTEZ@AGRACESUBACUTE.COM",
    "categoryName": "SKILLED NURSING FACILITY",
    "categoryCode": "SNF",
    "licenseStatus": "ACTIVE",
    "inService": true,
    "licenseNumber": "070000051",
    "licenseEffectiveDate": "12/08/2024",
    "licenseExpirationDate": "12/07/2025",
    "dataDate": "10/18/2025",
    "capacity": 166,
    "address": "1250 S WINCHESTER BLVD",
    "city": "SAN JOSE",
    "zip": "95128",
    "county": "SANTA CLARA",
    "phone": "(408) 241-3844",
    "lat": 37.302552,
    "lng": -121.949289
  },
  {
    "id": "630000201",
    "name": "ADVANCED SURGERY CENTER",
    "npi": "1508942996",
    "hcaiId": "306434163",
    "businessName": null,
    "contactEmail": "JOESONG916@GMAIL.COM",
    "categoryName": "SURGICAL CLINIC",
    "categoryCode": "ASC",
    "licenseStatus": "INACTIVE - CAPEN DECISION",
    "inService": false,
    "licenseNumber": "550000041",
    "licenseEffectiveDate": "01/01/2008",
    "licenseExpirationDate": "12/31/2008",
    "dataDate": "10/18/2025",
    "capacity": 0,
    "address": "235 O'CONNOR DR",
    "city": "SAN JOSE",
    "zip": "95128",
    "county": "SANTA CLARA",
    "phone": "(408) 279-0791",
    "lat": 37.324998,
    "lng": -121.940136
  },
  {
    "id": "630018838",
    "name": "ADVANCED SURGERY CENTER",
    "npi": "1508942996",
    "hcaiId": null,
    "businessName": null,
    "contactEmail": "TRACEYPHAN@OURASC.COM",
    "categoryName": "SURGICAL CLINIC",
    "categoryCode": "ASC",
    "licenseStatus": null,
    "inService": null,
    "licenseNumber": null,
    "licenseEffectiveDate": null,
    "licenseExpirationDate": null,
    "dataDate": "10/18/2025",
    "capacity": 0,
    "address": "2039 FOREST AVE, SUITE 101",
    "city": "SAN JOSE",
    "zip": "95128",
    "county": "SANTA CLARA",
    "phone": "(408) 550-8650",
    "lat": 37.327401,
    "lng": -121.9342005
  },
  {
    "id": "630015561",
    "name": "ANX HOME HEALTHCARE",
    "npi": "1073769543",
    "hcaiId": "406432660",
    "businessName": "ANX HOME HEALTHCARE",
    "contactEmail": null,
    "categoryName": "HOME HEALTH AGENCY",
    "categoryCode": "HHA",
    "licenseStatus": "ACTIVE",
    "inService": true,
    "licenseNumber": "550000921",
    "licenseEffectiveDate": "03/11/2025",
    "licenseExpirationDate": "03/10/2026",
    "dataDate": "10/18/2025",
    "capacity": 0,
    "address": "828 S. BASCOM AVE, SUITE 240",
    "city": "SAN JOSE",
    "zip": "95128",
    "county": "SANTA CLARA",
    "phone": "(408) 292-5269",
    "lat": 37.312308,
    "lng": -121.9309155
  },
  {
    "id": "070000165",
    "name": "ASIAN AMERICANS FOR COMMUNITY INVOLVEMENT OF SANTA CLARA COUNTY",
    "npi": null,
    "hcaiId": "306431867",
    "businessName": "THE ASIAN AMERICANS FOR COMMUNITY INVOLVEMENT OF SANTA CLARA COUNTY, INC.",
    "contactEmail": "YESHE.MENGESHA@AACI.ORG",
    "categoryName": "PRIMARY CARE CLINIC",
    "categoryCode": "COMTYC",
    "licenseStatus": "ACTIVE",
    "inService": true,
    "licenseNumber": "070000175",
    "licenseEffectiveDate": "05/04/2025",
    "licenseExpirationDate": "05/03/2026",
    "dataDate": "10/18/2025",
    "capacity": 0,
    "address": "2400 MOORPARK AVE, SUITE 300",
    "city": "SAN JOSE",
    "zip": "95128",
    "county": "SANTA CLARA",
    "phone": "(408) 975-2730",
    "lat": 37.315719,
    "lng": -121.937103
  },
  {
    "id": "630012946",
    "name": "AVEANNA HEALTHCARE",
    "npi": "1114246816",
    "hcaiId": "406434239",
    "businessName": "PREMIER HEALTHCARE SERVICES, LLC",
    "contactEmail": "BB.VANG@AVEANNA.COM",
    "categoryName": "HOME HEALTH AGENCY",
    "categoryCode": "HHA",
    "licenseStatus": "ACTIVE",
    "inService": true,
    "licenseNumber": "550002023",
    "licenseEffectiveDate": "08/08/2025",
    "licenseExpirationDate": "08/07/2026",
    "dataDate": "10/18/2025",
    "capacity": 0,
    "address": "950 S BASCOM AVE, SUITE 3113",
    "city": "SAN JOSE",
    "zip": "95128",
    "county": "SANTA CLARA",
    "phone": "(408) 288-6700",
    "lat": 37.309248,
    "lng": -121.9311
  },
  {
    "id": "630011620",
    "name": "CORNERHOUSE DIALYSIS CENTER",
    "npi": "1467649111",
    "hcaiId": "306434167",
    "businessName": "TOTAL RENAL CARE, INC.",
    "contactEmail": "CAL_C@DAVITA.COM",
    "categoryName": "CHRONIC DIALYSIS CLINIC",
    "categoryCode": "ESRD/CDC",
    "licenseStatus": "ACTIVE",
    "inService": true,
    "licenseNumber": "550000818",
    "licenseEffectiveDate": "05/08/2025",
    "licenseExpirationDate": "05/07/2026",
    "dataDate": "10/18/2025",
    "capacity": 25,
    "address": "2005 NAGLEE AVE",
    "city": "SAN JOSE",
    "zip": "95128",
    "county": "SANTA CLARA",
    "phone": "(408) 998-0183",
    "lat": 37.32804,
    "lng": -121.932522
  },
  {
    "id": "070000050",
    "name": "EMPRESS CARE CENTER, LLC",
    "npi": "1396732046",
    "hcaiId": "206430768",
    "businessName": "EMPRESS CARE CENTER, LLC",
    "contactEmail": "ADMIN@EMPRESSCARE.COM",
    "categoryName": "SKILLED NURSING FACILITY",
    "categoryCode": "SNF",
    "licenseStatus": "ACTIVE",
    "inService": true,
    "licenseNumber": "070000042",
    "licenseEffectiveDate": "04/13/2025",
    "licenseExpirationDate": "04/12/2026",
    "dataDate": "10/18/2025",
    "capacity": 67,
    "address": "1299 S BASCOM AVE",
    "city": "SAN JOSE",
    "zip": "95128",
    "county": "SANTA CLARA",
    "phone": "(408) 287-0616",
    "lat": 37.301805,
    "lng": -121.932495
  },
  {
    "id": "070001320",
    "name": "ENDOSCOPY CENTER OF SAN JOSE",
    "npi": "1598815110",
    "hcaiId": "306434150",
    "businessName": "EXECUTIVE ENDOSCOPY INC.",
    "contactEmail": "DWETHU@EX.NETCOM.COM",
    "categoryName": "SURGICAL CLINIC",
    "categoryCode": "ASC",
    "licenseStatus": "INACTIVE - CAPEN DECISION",
    "inService": false,
    "licenseNumber": "070000639",
    "licenseEffectiveDate": "06/04/2007",
    "licenseExpirationDate": "06/03/2008",
    "dataDate": "10/18/2025",
    "capacity": 0,
    "address": "2100 FOREST AVE, SUITE 109",
    "city": "SAN JOSE",
    "zip": "95128",
    "county": "SANTA CLARA",
    "phone": "(408) 297-2314",
    "lat": 37.326519,
    "lng": -121.936779
  },
  {
    "id": "630027316",
    "name": "EV SURGERY INSTITUTE, LLC",
    "npi": null,
    "hcaiId": null,
    "businessName": null,
    "contactEmail": "BARB@BAASC.COM",
    "categoryName": "SURGICAL CLINIC",
    "categoryCode": "ASC",
    "licenseStatus": null,
    "inService": null,
    "licenseNumber": null,
    "licenseEffectiveDate": null,
    "licenseExpirationDate": null,
    "dataDate": "10/18/2025",
    "capacity": 0,
    "address": "105 N BASCOM AVE, SUITE 103",
    "city": "SAN JOSE",
    "zip": "95128",
    "county": "SANTA CLARA",
    "phone": "(408) 761-5847",
    "lat": 37.32585,
    "lng": -121.932769
  },
  {
    "id": "070001444",
    "name": "FOCUS HEALTH",
    "npi": "1922240035",
    "hcaiId": "406434161",
    "businessName": "REHABFOCUS HOME HEALTH, INC.",
    "contactEmail": "FOCUSSANJOSEREG@COVENANTCARE.COM",
    "categoryName": "HOME HEALTH AGENCY",
    "categoryCode": "HHA",
    "licenseStatus": "ACTIVE",
    "inService": true,
    "licenseNumber": "070000714",
    "licenseEffectiveDate": "02/04/2025",
    "licenseExpirationDate": "02/03/2026",
    "dataDate": "10/18/2025",
    "capacity": 0,
    "address": "1245 S WINCHESTER BLVD, SUITE 200",
    "city": "SAN JOSE",
    "zip": "95128",
    "county": "SANTA CLARA",
    "phone": "(408) 725-1840",
    "lat": 37.302831,
    "lng": -121.950639
  },
  {
    "id": "070000209",
    "name": "FOREST SURGERY CENTER",
    "npi": "1043275183",
    "hcaiId": "306434024",
    "businessName": null,
    "contactEmail": "MARYAM@BASURGICAL.COM",
    "categoryName": "SURGICAL CLINIC",
    "categoryCode": "ASC",
    "licenseStatus": "INACTIVE - CAPEN DECISION",
    "inService": false,
    "licenseNumber": "070000226",
    "licenseEffectiveDate": "11/03/2007",
    "licenseExpirationDate": "11/02/2008",
    "dataDate": "10/18/2025",
    "capacity": 0,
    "address": "2110 FOREST AVE",
    "city": "SAN JOSE",
    "zip": "95128",
    "county": "SANTA CLARA",
    "phone": "(408) 297-3432",
    "lat": 37.326753,
    "lng": -121.937463
  },
  {
    "id": "630015146",
    "name": "GHS WOMEN'S CENTER",
    "npi": null,
    "hcaiId": "306434294",
    "businessName": "GUADALUPE HOPE SOCIETY, INCORPORATED",
    "contactEmail": "ADMIN@GHSWOMENSCENTER.COM",
    "categoryName": "PRIMARY CARE CLINIC",
    "categoryCode": "COMTYC",
    "licenseStatus": "ACTIVE",
    "inService": true,
    "licenseNumber": "550003519",
    "licenseEffectiveDate": "06/02/2025",
    "licenseExpirationDate": "06/01/2026",
    "dataDate": "10/18/2025",
    "capacity": 0,
    "address": "100 O'CONNOR DRIVE, SUITE 1",
    "city": "SAN JOSE",
    "zip": "95128",
    "county": "SANTA CLARA",
    "phone": "(408) 447-5433",
    "lat": 37.32382116,
    "lng": -121.937096
  },
  {
    "id": "630011551",
    "name": "GREAT ENDEAVORS ADULT DAY HEALTH CARE CENTER BASCOM",
    "npi": null,
    "hcaiId": null,
    "businessName": "TUPAZ DAY CARE SERVICES INC.",
    "contactEmail": "TUPZHOM2@PACBELL.NET",
    "categoryName": "ADULT DAY HEALTH CARE",
    "categoryCode": "ADHC",
    "licenseStatus": "ACTIVE",
    "inService": true,
    "licenseNumber": "550000598",
    "licenseEffectiveDate": "11/10/2024",
    "licenseExpirationDate": "11/09/2025",
    "dataDate": "10/18/2025",
    "capacity": 0,
    "address": "1305 N BASCOM AVE, SUITE J",
    "city": "SAN JOSE",
    "zip": "95128",
    "county": "SANTA CLARA",
    "phone": "(408) 247-4856",
    "lat": 37.337499,
    "lng": -121.938291
  },
  {
    "id": "630013582",
    "name": "INDIAN HEALTH CENTER OF SANTA CLARA VALLEY",
    "npi": "1114290780",
    "hcaiId": "306434234",
    "businessName": "INDIAN HEALTH CENTER OF SANTA CLARA VALLEY",
    "contactEmail": "JEIDSCHUN@IHCSCV.ORG",
    "categoryName": "PRIMARY CARE CLINIC",
    "categoryCode": "COMTYC",
    "licenseStatus": "ACTIVE",
    "inService": true,
    "licenseNumber": "550001941",
    "licenseEffectiveDate": "06/25/2025",
    "licenseExpirationDate": "06/24/2026",
    "dataDate": "10/18/2025",
    "capacity": 0,
    "address": "455 O'CONNOR DR, SUITE 200",
    "city": "SAN JOSE",
    "zip": "95128",
    "county": "SANTA CLARA",
    "phone": "(408) 283-7676",
    "lat": 37.326645,
    "lng": -121.9403025
  },
  {
    "id": "630015973",
    "name": "INDIAN HEALTH CENTER OF SANTA CLARA VALLEY",
    "npi": "1629462312",
    "hcaiId": "306434283",
    "businessName": "INDIAN HEALTH CENTER OF SANTA CLARA VALLEY",
    "contactEmail": "MMCGRAW@IHCSCV.ORG",
    "categoryName": "PRIMARY CARE CLINIC",
    "categoryCode": "COMTYC",
    "licenseStatus": "ACTIVE",
    "inService": true,
    "licenseNumber": "550003155",
    "licenseEffectiveDate": "07/02/2025",
    "licenseExpirationDate": "07/01/2026",
    "dataDate": "10/18/2025",
    "capacity": 0,
    "address": "2039 FOREST AVENUE, SUITE 105",
    "city": "SAN JOSE",
    "zip": "95128",
    "county": "SANTA CLARA",
    "phone": "(408) 947-2929",
    "lat": 37.327392,
    "lng": -121.9343985
  },
  {
    "id": "630017025",
    "name": "INDIAN HEALTH CENTER OF SANTA CLARA VALLEY",
    "npi": "1164643862",
    "hcaiId": null,
    "businessName": "INDIAN HEALTH CENTER OF SANTA CLARA VALLEY",
    "contactEmail": null,
    "categoryName": "PRIMARY CARE CLINIC",
    "categoryCode": "COMTYC",
    "licenseStatus": "ACTIVE",
    "inService": true,
    "licenseNumber": "070000118",
    "licenseEffectiveDate": "03/07/2025",
    "licenseExpirationDate": "03/06/2026",
    "dataDate": "10/18/2025",
    "capacity": 0,
    "address": "2039 FOREST AVE., SUITE 204B",
    "city": "SAN JOSE",
    "zip": "95128",
    "county": "SANTA CLARA",
    "phone": null,
    "lat": 37.327608,
    "lng": -121.934304
  },
  {
    "id": "630012951",
    "name": "MIJI CARE OF PALM SPRINGS INC",
    "npi": "1922472877",
    "hcaiId": "406434221",
    "businessName": "MIJI CARE OF PALM SPRINGS INC",
    "contactEmail": "ESTHER.HONIG@LIBERTANA.COM",
    "categoryName": "HOME HEALTH AGENCY",
    "categoryCode": "HHA",
    "licenseStatus": "ACTIVE",
    "inService": true,
    "licenseNumber": "550001546",
    "licenseEffectiveDate": "04/14/2025",
    "licenseExpirationDate": "02/13/2026",
    "dataDate": "10/18/2025",
    "capacity": 0,
    "address": "950 S BASCOM AVE, SUITE 3010",
    "city": "SAN JOSE",
    "zip": "95128",
    "county": "SANTA CLARA",
    "phone": "(408) 437-3045",
    "lat": 37.30917701,
    "lng": -121.931154
  },
  {
    "id": "630013095",
    "name": "NOR-CAL PROFESSIONAL HOME HEALTH CARE SERVICES, INC.",
    "npi": "1588962740",
    "hcaiId": "406434244",
    "businessName": "NOR-CAL PROFESSIONAL HOME HEALTH CARE SERVICES, INC.",
    "contactEmail": "NORCAL@HHRGCONNECT.COM",
    "categoryName": "HOME HEALTH AGENCY",
    "categoryCode": "HHA",
    "licenseStatus": "ACTIVE",
    "inService": true,
    "licenseNumber": "550002142",
    "licenseEffectiveDate": "04/11/2025",
    "licenseExpirationDate": "04/10/2026",
    "dataDate": "10/18/2025",
    "capacity": 0,
    "address": "3031 TISCH WAY, SUITE 100",
    "city": "SAN JOSE",
    "zip": "95128",
    "county": "SANTA CLARA",
    "phone": "(408) 244-6700",
    "lat": 37.317618,
    "lng": -121.947642
  },
  {
    "id": "630014092",
    "name": "O'CONNOR BUILDING SURGERY CENTER LLC",
    "npi": "1023370251",
    "hcaiId": null,
    "businessName": null,
    "contactEmail": null,
    "categoryName": "SURGICAL CLINIC",
    "categoryCode": "ASC",
    "licenseStatus": null,
    "inService": null,
    "licenseNumber": null,
    "licenseEffectiveDate": null,
    "licenseExpirationDate": null,
    "dataDate": "10/18/2025",
    "capacity": 0,
    "address": "125 CIRO AVE, SUITE 110",
    "city": "SAN JOSE",
    "zip": "95128",
    "county": "SANTA CLARA",
    "phone": "(408) 287-7905",
    "lat": 37.326357,
    "lng": -121.9385565
  },
  {
    "id": "070000146",
    "name": "O'CONNOR HOSPITAL",
    "npi": "1063406551",
    "hcaiId": "106430837",
    "businessName": "COUNTY OF SANTA CLARA",
    "contactEmail": "JUANA.CASTILLO@HHS.SCCGOV.ORG",
    "categoryName": "GENERAL ACUTE CARE HOSPITAL",
    "categoryCode": "GACH",
    "licenseStatus": "ACTIVE",
    "inService": true,
    "licenseNumber": "070000085",
    "licenseEffectiveDate": "11/07/2025",
    "licenseExpirationDate": "04/30/2026",
    "dataDate": "10/18/2025",
    "capacity": 334,
    "address": "2105 FOREST AVE",
    "city": "SAN JOSE",
    "zip": "95128",
    "county": "SANTA CLARA",
    "phone": "(408) 947-2590",
    "lat": 37.327995,
    "lng": -121.9372695
  },
  {
    "id": "070000868",
    "name": "O'CONNOR HOSPITAL DP/SNF",
    "npi": "1447724646",
    "hcaiId": null,
    "businessName": "COUNTY OF SANTA CLARA",
    "contactEmail": null,
    "categoryName": "SKILLED NURSING FACILITY",
    "categoryCode": "SNF",
    "licenseStatus": "ACTIVE",
    "inService": true,
    "licenseNumber": "070000085",
    "licenseEffectiveDate": "11/07/2025",
    "licenseExpirationDate": "04/30/2026",
    "dataDate": "10/18/2025",
    "capacity": 24,
    "address": "2105 FOREST AVE",
    "city": "SAN JOSE",
    "zip": "95128",
    "county": "SANTA CLARA",
    "phone": "(408) 947-2831",
    "lat": 37.327995,
    "lng": -121.9372695
  },
  {
    "id": "630027558",
    "name": "O'CONNOR MEDICAL CLINIC HOSPITAL CAMPUS",
    "npi": null,
    "hcaiId": null,
    "businessName": null,
    "contactEmail": null,
    "categoryName": "PRIMARY CARE CLINIC",
    "categoryCode": "FQHC",
    "licenseStatus": null,
    "inService": null,
    "licenseNumber": null,
    "licenseEffectiveDate": null,
    "licenseExpirationDate": null,
    "dataDate": "10/18/2025",
    "capacity": 0,
    "address": "2101 FOREST AVE",
    "city": "SAN JOSE",
    "zip": "95128",
    "county": "SANTA CLARA",
    "phone": null,
    "lat": 37.32805599,
    "lng": -121.937308
  },
  {
    "id": "630017461",
    "name": "READY2NURSE",
    "npi": "1285163949",
    "hcaiId": "406431410",
    "businessName": "REJUVENEXT, INC.",
    "contactEmail": "AMYWANG@READY2NURSE.COM",
    "categoryName": "HOME HEALTH AGENCY",
    "categoryCode": "HHA",
    "licenseStatus": "ACTIVE",
    "inService": true,
    "licenseNumber": "550004370",
    "licenseEffectiveDate": "03/14/2025",
    "licenseExpirationDate": "03/13/2026",
    "dataDate": "10/18/2025",
    "capacity": 0,
    "address": "2211 MOORPARK AVE, SUITE 250",
    "city": "SAN JOSE",
    "zip": "95128",
    "county": "SANTA CLARA",
    "phone": "(408) 296-9009",
    "lat": 37.316138,
    "lng": -121.93265
  },
  {
    "id": "630021257",
    "name": "REDWOOD HOSPICE",
    "npi": "1164021226",
    "hcaiId": "406435674",
    "businessName": "SAN JOSE CARE HOSPICE",
    "contactEmail": "VKHORN@REDWOODHOSPICE.COM",
    "categoryName": "HOSPICE",
    "categoryCode": "HOSPICE",
    "licenseStatus": "ACTIVE",
    "inService": true,
    "licenseNumber": "550006166",
    "licenseEffectiveDate": "03/29/2025",
    "licenseExpirationDate": "03/28/2027",
    "dataDate": "10/18/2025",
    "capacity": 0,
    "address": "1101 S WINCHESTER BLVD, SUITE J-216",
    "city": "SAN JOSE",
    "zip": "95128",
    "county": "SANTA CLARA",
    "phone": "(800) 825-8556",
    "lat": 37.305693,
    "lng": -121.9515345
  },
  {
    "id": "630027325",
    "name": "SANTA CLARA VALLEY HEALTH & HOSPITAL SYSTEM",
    "npi": null,
    "hcaiId": null,
    "businessName": null,
    "contactEmail": null,
    "categoryName": "PRIMARY CARE CLINIC",
    "categoryCode": "FQHC",
    "licenseStatus": null,
    "inService": null,
    "licenseNumber": null,
    "licenseEffectiveDate": null,
    "licenseExpirationDate": null,
    "dataDate": "10/18/2025",
    "capacity": 0,
    "address": "455 OCONNOR DR, SUITE 300",
    "city": "SAN JOSE",
    "zip": "95128",
    "county": "SANTA CLARA",
    "phone": null,
    "lat": 37.32665202,
    "lng": -121.940321
  },
  {
    "id": "630027739",
    "name": "SANTA CLARA VALLEY HEALTH & HOSPITAL SYSTEM",
    "npi": null,
    "hcaiId": null,
    "businessName": null,
    "contactEmail": null,
    "categoryName": "PRIMARY CARE CLINIC",
    "categoryCode": "FQHC",
    "licenseStatus": null,
    "inService": null,
    "licenseNumber": null,
    "licenseEffectiveDate": null,
    "licenseExpirationDate": null,
    "dataDate": "10/18/2025",
    "capacity": 0,
    "address": "455 OCONNOR DR, SUITE 350",
    "city": "SAN JOSE",
    "zip": "95128",
    "county": "SANTA CLARA",
    "phone": null,
    "lat": 37.32665202,
    "lng": -121.940321
  },
  {
    "id": "630028000",
    "name": "SANTA CLARA VALLEY HEALTH & HOSPITAL SYSTEM",
    "npi": null,
    "hcaiId": null,
    "businessName": null,
    "contactEmail": null,
    "categoryName": "PRIMARY CARE CLINIC",
    "categoryCode": "FQHC",
    "licenseStatus": null,
    "inService": null,
    "licenseNumber": null,
    "licenseEffectiveDate": null,
    "licenseExpirationDate": null,
    "dataDate": "10/18/2025",
    "capacity": 0,
    "address": "2100 FOREST AVE, SUITE 103",
    "city": "SAN JOSE",
    "zip": "95128",
    "county": "SANTA CLARA",
    "phone": null,
    "lat": 37.326504,
    "lng": -121.936865
  },
  {
    "id": "630028228",
    "name": "SANTA CLARA VALLEY HEALTH & HOSPITAL SYSTEM",
    "npi": null,
    "hcaiId": null,
    "businessName": null,
    "contactEmail": null,
    "categoryName": "PRIMARY CARE CLINIC",
    "categoryCode": "FQHC",
    "licenseStatus": null,
    "inService": null,
    "licenseNumber": null,
    "licenseEffectiveDate": null,
    "licenseExpirationDate": null,
    "dataDate": "10/18/2025",
    "capacity": 0,
    "address": "2100 FOREST AVE, SUITE 104",
    "city": "SAN JOSE",
    "zip": "95128",
    "county": "SANTA CLARA",
    "phone": null,
    "lat": 37.3265532,
    "lng": -121.9368227
  },
  {
    "id": "070000149",
    "name": "SANTA CLARA VALLEY MEDICAL CENTER",
    "npi": null,
    "hcaiId": "106430883",
    "businessName": "COUNTY OF SANTA CLARA",
    "contactEmail": "MARITES.CORPUZ@HHS.SCCGOV.ORG",
    "categoryName": "GENERAL ACUTE CARE HOSPITAL",
    "categoryCode": "GACH",
    "licenseStatus": "ACTIVE",
    "inService": true,
    "licenseNumber": "070000085",
    "licenseEffectiveDate": "11/07/2025",
    "licenseExpirationDate": "04/30/2026",
    "dataDate": "10/18/2025",
    "capacity": 578,
    "address": "751 S BASCOM AVE",
    "city": "SAN JOSE",
    "zip": "95128",
    "county": "SANTA CLARA",
    "phone": "(408) 375-0830",
    "lat": 37.313424,
    "lng": -121.9342095
  },
  {
    "id": "070001381",
    "name": "SANTA CLARA VALLEY MEDICAL CENTER - ESRD",
    "npi": "1124107420",
    "hcaiId": null,
    "businessName": "COUNTY OF SANTA CLARA",
    "contactEmail": null,
    "categoryName": "CHRONIC DIALYSIS CLINIC",
    "categoryCode": "ESRD",
    "licenseStatus": "ACTIVE",
    "inService": true,
    "licenseNumber": "070000085",
    "licenseEffectiveDate": "11/07/2025",
    "licenseExpirationDate": "04/30/2026",
    "dataDate": "10/18/2025",
    "capacity": 0,
    "address": "2220 MOORPARK AVE",
    "city": "SAN JOSE",
    "zip": "95128",
    "county": "SANTA CLARA",
    "phone": "(408) 885-5730",
    "lat": 37.31605691,
    "lng": -121.9323005
  },
  {
    "id": "070000290",
    "name": "SANTA CLARA VALLEY MEDICAL CENTER DP/APH",
    "npi": null,
    "hcaiId": null,
    "businessName": "COUNTY OF SANTA CLARA",
    "contactEmail": null,
    "categoryName": "ACUTE PSYCHIATRIC HOSPITAL",
    "categoryCode": "APH",
    "licenseStatus": "ACTIVE",
    "inService": true,
    "licenseNumber": "070000085",
    "licenseEffectiveDate": "11/07/2025",
    "licenseExpirationDate": "04/30/2026",
    "dataDate": "10/18/2025",
    "capacity": 50,
    "address": "751 S BASCOM AVE",
    "city": "SAN JOSE",
    "zip": "95128",
    "county": "SANTA CLARA",
    "phone": "(408) 885-5000",
    "lat": 37.313424,
    "lng": -121.9342095
  },
  {
    "id": "630015515",
    "name": "SATELLITE HEALTHCARE SAN JOSE",
    "npi": "1972927960",
    "hcaiId": "306434274",
    "businessName": "SATELLITE HEALTHCARE SAN JOSE, LLC",
    "contactEmail": "LICENSING@SATELLITEHEALTH.COM",
    "categoryName": "CHRONIC DIALYSIS CLINIC",
    "categoryCode": "ESRD/CDC",
    "licenseStatus": "ACTIVE",
    "inService": true,
    "licenseNumber": "550002903",
    "licenseEffectiveDate": "05/22/2025",
    "licenseExpirationDate": "05/21/2026",
    "dataDate": "10/18/2025",
    "capacity": 25,
    "address": "888 S. BASCOM AVENUE",
    "city": "SAN JOSE",
    "zip": "95128",
    "county": "SANTA CLARA",
    "phone": "(408) 885-6900",
    "lat": 37.31099756,
    "lng": -121.9317626
  },
  {
    "id": "070001362",
    "name": "SHINRAI-ARAM",
    "npi": "1205019767",
    "hcaiId": null,
    "businessName": "MOURI MANAGEMENT GROUP INCORPORATED",
    "contactEmail": "NB_DE_JESUS@YAHOO.COM",
    "categoryName": "INTERMEDIATE CARE FACILITY-DD/H/N/CN/IID",
    "categoryCode": "ICFDDN",
    "licenseStatus": "ACTIVE",
    "inService": true,
    "licenseNumber": "070000663",
    "licenseEffectiveDate": "05/16/2025",
    "licenseExpirationDate": "05/15/2026",
    "dataDate": "10/18/2025",
    "capacity": 6,
    "address": "2492 ARAM AVE",
    "city": "SAN JOSE",
    "zip": "95128",
    "county": "SANTA CLARA",
    "phone": "(408) 298-5205",
    "lat": 37.301769,
    "lng": -121.9380435
  },
  {
    "id": "070000089",
    "name": "SKYLINE HEALTHCARE CENTER - SAN JOSE",
    "npi": "1780972463",
    "hcaiId": "206431125",
    "businessName": "SKYLINE SAN JOSE OPERATING COMPANY LP",
    "contactEmail": "MARK.PENYACSEK@MARINERHEALTHCARE.COM",
    "categoryName": "SKILLED NURSING FACILITY",
    "categoryCode": "SNF",
    "licenseStatus": "ACTIVE",
    "inService": true,
    "licenseNumber": "070000110",
    "licenseEffectiveDate": "11/01/2025",
    "licenseExpirationDate": "10/31/2026",
    "dataDate": "10/18/2025",
    "capacity": 253,
    "address": "2065 FOREST AVE",
    "city": "SAN JOSE",
    "zip": "95128",
    "county": "SANTA CLARA",
    "phone": "(408) 649-4218",
    "lat": 37.327617,
    "lng": -121.9350555
  },
  {
    "id": "630014512",
    "name": "STEVENS CREEK DIALYSIS",
    "npi": "1457797474",
    "hcaiId": "306434260",
    "businessName": "CLOVER DIALYSIS LLC",
    "contactEmail": "CAL_C@DAVITA.COM",
    "categoryName": "CHRONIC DIALYSIS CLINIC",
    "categoryCode": "ESRD/CDC",
    "licenseStatus": "ACTIVE",
    "inService": true,
    "licenseNumber": "550002503",
    "licenseEffectiveDate": "05/26/2025",
    "licenseExpirationDate": "05/25/2026",
    "dataDate": "10/18/2025",
    "capacity": 24,
    "address": "275 DI SALVO AVE",
    "city": "SAN JOSE",
    "zip": "95128",
    "county": "SANTA CLARA",
    "phone": "(408) 297-0103",
    "lat": 37.323927,
    "lng": -121.9373325
  },
  {
    "id": "070001324",
    "name": "VALLEY HEALTH CENTER AT PUENTES",
    "npi": null,
    "hcaiId": null,
    "businessName": null,
    "contactEmail": null,
    "categoryName": "PRIMARY CARE CLINIC",
    "categoryCode": "FQHC",
    "licenseStatus": null,
    "inService": null,
    "licenseNumber": null,
    "licenseEffectiveDate": null,
    "licenseExpirationDate": null,
    "dataDate": "10/18/2025",
    "capacity": 0,
    "address": "2425 ENBORG LN",
    "city": "SAN JOSE",
    "zip": "95128",
    "county": "SANTA CLARA",
    "phone": "(408) 885-5700",
    "lat": 37.313172,
    "lng": -121.9380975
  },
  {
    "id": "070001075",
    "name": "VALLEY HEALTH CENTER MOORPARK",
    "npi": null,
    "hcaiId": null,
    "businessName": "COUNTY OF SANTA CLARA",
    "contactEmail": null,
    "categoryName": "PRIMARY CARE CLINIC",
    "categoryCode": "FQHC",
    "licenseStatus": "ACTIVE",
    "inService": true,
    "licenseNumber": "070000085",
    "licenseEffectiveDate": "11/07/2025",
    "licenseExpirationDate": "04/30/2026",
    "dataDate": "10/18/2025",
    "capacity": 0,
    "address": "2400 MOORPARK AVE, SUITE 204 # 118",
    "city": "SAN JOSE",
    "zip": "95128",
    "county": "SANTA CLARA",
    "phone": "(408) 885-4600",
    "lat": 37.315719,
    "lng": -121.937103
  },
  {
    "id": "070000847",
    "name": "VALLEY HEALTH CENTER SAN JOSE",
    "npi": null,
    "hcaiId": null,
    "businessName": "COUNTY OF SANTA CLARA",
    "contactEmail": null,
    "categoryName": "PRIMARY CARE CLINIC",
    "categoryCode": "FQHC",
    "licenseStatus": "ACTIVE",
    "inService": true,
    "licenseNumber": "070000085",
    "licenseEffectiveDate": "11/07/2025",
    "licenseExpirationDate": "04/30/2026",
    "dataDate": "10/18/2025",
    "capacity": 0,
    "address": "750 S BASCOM AVE",
    "city": "SAN JOSE",
    "zip": "95128",
    "county": "SANTA CLARA",
    "phone": "(408) 885-4600",
    "lat": 37.3142471,
    "lng": -121.9312672
  },
  {
    "id": "630012763",
    "name": "VALLEY SPECIALTY CENTER - HOME PERITONEAL DIALYSIS TRAINING AND SUPPORT SERVICES",
    "npi": null,
    "hcaiId": null,
    "businessName": "COUNTY OF SANTA CLARA",
    "contactEmail": null,
    "categoryName": "CHRONIC DIALYSIS CLINIC",
    "categoryCode": "ESRD",
    "licenseStatus": "ACTIVE",
    "inService": true,
    "licenseNumber": "070000085",
    "licenseEffectiveDate": "11/07/2025",
    "licenseExpirationDate": "04/30/2026",
    "dataDate": "10/18/2025",
    "capacity": 0,
    "address": "751 S BASCOM AVE",
    "city": "SAN JOSE",
    "zip": "95128",
    "county": "SANTA CLARA",
    "phone": null,
    "lat": 37.313424,
    "lng": -121.9342095
  },
  {
    "id": "630019311",
    "name": "VISTA CENTER FOR THE BLIND AND VISUALLY IMPAIRED",
    "npi": "1447804844",
    "hcaiId": null,
    "businessName": "VISTA CENTER FOR THE BLIND AND VISUALLY IMPAIRED",
    "contactEmail": null,
    "categoryName": "PRIMARY CARE CLINIC",
    "categoryCode": "COMTYC",
    "licenseStatus": "ACTIVE",
    "inService": true,
    "licenseNumber": "220000439",
    "licenseEffectiveDate": "11/13/2025",
    "licenseExpirationDate": "11/12/2026",
    "dataDate": "10/18/2025",
    "capacity": 0,
    "address": "101 N BASCOM AVE, ROOM 210",
    "city": "SAN JOSE",
    "zip": "95128",
    "county": "SANTA CLARA",
    "phone": null,
    "lat": 37.325682,
    "lng": -121.9340925
  },
  {
    "id": "070000036",
    "name": "WHITE BLOSSOM CARE CENTER",
    "npi": "1720024391",
    "hcaiId": "206431532",
    "businessName": "HAWTHORNE HOLDINGS, LLC",
    "contactEmail": "NATHAN.FERNSTEN@WHITEBLOSSOMCC.COM",
    "categoryName": "SKILLED NURSING FACILITY",
    "categoryCode": "SNF",
    "licenseStatus": "ACTIVE",
    "inService": true,
    "licenseNumber": "070000120",
    "licenseEffectiveDate": "11/11/2025",
    "licenseExpirationDate": "11/10/2026",
    "dataDate": "10/18/2025",
    "capacity": 153,
    "address": "1990 FRUITDALE AVE",
    "city": "SAN JOSE",
    "zip": "95128",
    "county": "SANTA CLARA",
    "phone": "(408) 998-8447",
    "lat": 37.310103,
    "lng": -121.928598
  }
]