[
  {
    "id": "630010913",
    "name": "ADVANCED SURGERY MEDICAL CENTER, LLC",
    "npi": "1821181488",
    "hcaiId": null,
    "businessName": null,
    "contactEmail": null,
    "categoryName": "SURGICAL CLINIC",
    "categoryCode": "ASC",
    "licenseStatus": null,
    "inService": null,
    "licenseNumber": null,
    "licenseEffectiveDate": null,
    "licenseExpirationDate": null,
    "dataDate": "10/18/2025",
    "capacity": 0,
    "address": "989 STORY RD, SUITE 8066",
    "city": "SAN JOSE",
    "zip": "95122",
    "county": "SANTA CLARA",
    "phone": "(408) 295-1204",
    "lat": 37.33254,
    "lng": -121.8574575
  },
  {
    "id": "630016060",
    "name": "ASIAN AMERICANS FOR COMMUNITY INVOLVEMENT OF SANTA CLARA COUNTY, INC.",
    "npi": null,
    "hcaiId": null,
    "businessName": "THE ASIAN AMERICANS FOR COMMUNITY INVOLVEMENT OF SANTA CLARA COUNTY, INC.",
    "contactEmail": null,
    "categoryName": "PRIMARY CARE CLINIC",
    "categoryCode": "COMTYC",
    "licenseStatus": "ACTIVE",
    "inService": true,
    "licenseNumber": "070000175",
    "licenseEffectiveDate": "05/04/2025",
    "licenseExpirationDate": "05/03/2026",
    "dataDate": "10/18/2025",
    "capacity": 0,
    "address": "749 STORY ROAD, SUITE 50",
    "city": "SAN JOSE",
    "zip": "95122",
    "county": "SANTA CLARA",
    "phone": null,
    "lat": 37.328544,
    "lng": -121.8611655
  },
  {
    "id": "630017646",
    "name": "EASTRIDGE DIALYSIS",
    "npi": "1427572908",
    "hcaiId": "306430408",
    "businessName": "TOULOUSE DIALYSIS LLC",
    "contactEmail": "CAL_C@DAVITA.COM",
    "categoryName": "CHRONIC DIALYSIS CLINIC",
    "categoryCode": "ESRD/CDC",
    "licenseStatus": "ACTIVE",
    "inService": true,
    "licenseNumber": "550004424",
    "licenseEffectiveDate": "11/08/2025",
    "licenseExpirationDate": "11/07/2026",
    "dataDate": "10/18/2025",
    "capacity": 24,
    "address": "3501 E CAPITOL EXPY",
    "city": "SAN JOSE",
    "zip": "95122",
    "county": "SANTA CLARA",
    "phone": "(408) 929-2274",
    "lat": 37.347174,
    "lng": -121.825296
  },
  {
    "id": "630017997",
    "name": "EVERGREEN SURGERY CENTER",
    "npi": "1538618368",
    "hcaiId": null,
    "businessName": null,
    "contactEmail": null,
    "categoryName": "SURGICAL CLINIC",
    "categoryCode": "ASC",
    "licenseStatus": null,
    "inService": null,
    "licenseNumber": null,
    "licenseEffectiveDate": null,
    "licenseExpirationDate": null,
    "dataDate": "10/18/2025",
    "capacity": 0,
    "address": "2365 QUIMBY RD, SUITE 180",
    "city": "SAN JOSE",
    "zip": "95122",
    "county": "SANTA CLARA",
    "phone": "(408) 309-8068",
    "lat": 37.325106,
    "lng": -121.809447
  },
  {
    "id": "630028107",
    "name": "MAR MONTE COMMUNITY CLINIC",
    "npi": null,
    "hcaiId": null,
    "businessName": "PLANNED PARENTHOOD MAR MONTE, INC.",
    "contactEmail": "KANDY_LI@PPMARMONTE.ORG",
    "categoryName": "PRIMARY CARE CLINIC",
    "categoryCode": "COMTYC",
    "licenseStatus": "ACTIVE",
    "inService": true,
    "licenseNumber": "550009760",
    "licenseEffectiveDate": "04/22/2025",
    "licenseExpirationDate": "04/21/2026",
    "dataDate": "10/18/2025",
    "capacity": 0,
    "address": "1694 TULLY RD, SUITE 40",
    "city": "SAN JOSE",
    "zip": "95122",
    "county": "SANTA CLARA",
    "phone": "(408) 795-3695",
    "lat": 37.32104495,
    "lng": -121.8258081
  },
  {
    "id": "070000969",
    "name": "OVERFELT HIGH SCHOOL HEALTH CLINIC",
    "npi": null,
    "hcaiId": "306434105",
    "businessName": "SCHOOL HEALTH CLINICS OF SANTA CLARA COUNTY",
    "contactEmail": "JOCELYNH@SCHOOLHEALTHCLINICS.ORG",
    "categoryName": "PRIMARY CARE CLINIC",
    "categoryCode": "COMTYC",
    "licenseStatus": "ACTIVE",
    "inService": true,
    "licenseNumber": "070000408",
    "licenseEffectiveDate": "11/28/2024",
    "licenseExpirationDate": "11/27/2025",
    "dataDate": "10/18/2025",
    "capacity": 0,
    "address": "1835 CUNNINGHAM AVE",
    "city": "SAN JOSE",
    "zip": "95122",
    "county": "SANTA CLARA",
    "phone": "(408) 347-5988",
    "lat": 37.33092,
    "lng": -121.8299355
  },
  {
    "id": "630011779",
    "name": "SAN JOSE DENTAL SURGERY CENTER",
    "npi": "1902086606",
    "hcaiId": "306434201",
    "businessName": "SAN JOSE DENTAL SURGERY CENTER, INC.",
    "contactEmail": "SANJOSEDENTALSURGERYCENTER@HOTMAIL.COM",
    "categoryName": "SURGICAL CLINIC",
    "categoryCode": "ASC/SURGC",
    "licenseStatus": "ACTIVE",
    "inService": true,
    "licenseNumber": "550000854",
    "licenseEffectiveDate": "03/28/2025",
    "licenseExpirationDate": "01/19/2026",
    "dataDate": "10/18/2025",
    "capacity": 0,
    "address": "2048 STORY RD",
    "city": "SAN JOSE",
    "zip": "95122",
    "county": "SANTA CLARA",
    "phone": "(408) 240-9000",
    "lat": 37.34393634,
    "lng": -121.836497
  },
  {
    "id": "630018079",
    "name": "SANTEE-YERBA BUENA COMMUNITY HEALTH CENTER",
    "npi": null,
    "hcaiId": "306430478",
    "businessName": "BAY AREA COMMUNITY HEALTH",
    "contactEmail": "SCHAVARIN@SJFFCC.ORG",
    "categoryName": "PRIMARY CARE CLINIC",
    "categoryCode": "COMTYC",
    "licenseStatus": "ACTIVE",
    "inService": true,
    "licenseNumber": "550003720",
    "licenseEffectiveDate": "11/15/2024",
    "licenseExpirationDate": "11/14/2025",
    "dataDate": "10/18/2025",
    "capacity": 0,
    "address": "1855 LUCRETIA AVE, BUILDING M",
    "city": "SAN JOSE",
    "zip": "95122",
    "county": "SANTA CLARA",
    "phone": "(408) 347-4752",
    "lat": 37.32077745,
    "lng": -121.8482331
  },
  {
    "id": "630014374",
    "name": "TULLY ROAD HOME TRAINING",
    "npi": "1538400239",
    "hcaiId": null,
    "businessName": null,
    "contactEmail": "CAL_C@DAVITA.COM",
    "categoryName": "CHRONIC DIALYSIS CLINIC",
    "categoryCode": "ESRD",
    "licenseStatus": null,
    "inService": null,
    "licenseNumber": null,
    "licenseEffectiveDate": null,
    "licenseExpirationDate": null,
    "dataDate": "10/18/2025",
    "capacity": 0,
    "address": "1290 TULLY RD, SUITE 60",
    "city": "SAN JOSE",
    "zip": "95122",
    "county": "SANTA CLARA",
    "phone": "(408) 275-0105",
    "lat": 37.315674,
    "lng": -121.834773
  }
]