[
  {
    "id": "630017558",
    "name": "ABORN DENTAL CLINIC",
    "npi": "1487165544",
    "hcaiId": "306430359",
    "businessName": "BAY AREA COMMUNITY HEALTH",
    "contactEmail": "SCHAVARIN@SJFFCC.ORG",
    "categoryName": "PRIMARY CARE CLINIC",
    "categoryCode": "COMTYC",
    "licenseStatus": "ACTIVE",
    "inService": true,
    "licenseNumber": "550000139",
    "licenseEffectiveDate": "11/21/2024",
    "licenseExpirationDate": "11/20/2025",
    "dataDate": "10/18/2025",
    "capacity": 0,
    "address": "2060 ABORN RD, SUITE 125",
    "city": "SAN JOSE",
    "zip": "95121",
    "county": "SANTA CLARA",
    "phone": "(408) 729-4290",
    "lat": 37.31121,
    "lng": -121.8072195
  },
  {
    "id": "630020279",
    "name": "BAY AREA COMMUNITY HEALTH  - SILVER CREEK HIGH SCHOOL CLINIC",
    "npi": null,
    "hcaiId": null,
    "businessName": "BAY AREA COMMUNITY HEALTH",
    "contactEmail": null,
    "categoryName": "PRIMARY CARE CLINIC",
    "categoryCode": "COMTYC",
    "licenseStatus": "ACTIVE",
    "inService": true,
    "licenseNumber": "550003720",
    "licenseEffectiveDate": "11/15/2024",
    "licenseExpirationDate": "11/14/2025",
    "dataDate": "10/18/2025",
    "capacity": 0,
    "address": "3434 SILVER CREEK RD, ROOM M1",
    "city": "SAN JOSE",
    "zip": "95121",
    "county": "SANTA CLARA",
    "phone": null,
    "lat": 37.30412668,
    "lng": -121.8082631
  },
  {
    "id": "630010977",
    "name": "CIRCLE OF CARE ICF/DD-N",
    "npi": "1396995072",
    "hcaiId": null,
    "businessName": "CIRCLE OF CARE CORPORATION",
    "contactEmail": "CIRCLEOFCARE23@GMAIL.COM",
    "categoryName": "INTERMEDIATE CARE FACILITY-DD/H/N/CN/IID",
    "categoryCode": "ICFDDN",
    "licenseStatus": "ACTIVE",
    "inService": true,
    "licenseNumber": "550000569",
    "licenseEffectiveDate": "03/01/2025",
    "licenseExpirationDate": "02/28/2026",
    "dataDate": "10/18/2025",
    "capacity": 6,
    "address": "2130 TURNHOUSE LN",
    "city": "SAN JOSE",
    "zip": "95121",
    "county": "SANTA CLARA",
    "phone": "(408) 334-7020",
    "lat": 37.310868,
    "lng": -121.8027735
  },
  {
    "id": "630014667",
    "name": "GOLDEN CIRCLE, ICF-DDN",
    "npi": "1053659086",
    "hcaiId": null,
    "businessName": "MCR CARE INC.",
    "contactEmail": "MCRCARE@GMAIL.COM",
    "categoryName": "INTERMEDIATE CARE FACILITY-DD/H/N/CN/IID",
    "categoryCode": "ICFDDN",
    "licenseStatus": "ACTIVE",
    "inService": true,
    "licenseNumber": "550002610",
    "licenseEffectiveDate": "03/18/2025",
    "licenseExpirationDate": "03/17/2026",
    "dataDate": "10/18/2025",
    "capacity": 6,
    "address": "2223 GOLDEN DEW CIR",
    "city": "SAN JOSE",
    "zip": "95121",
    "county": "SANTA CLARA",
    "phone": "(408) 440-8630",
    "lat": 37.305261,
    "lng": -121.7949615
  },
  {
    "id": "630013314",
    "name": "INDIAN HEALTH CENTER OF SANTA CLARA VALLEY",
    "npi": "1881997963",
    "hcaiId": "306434227",
    "businessName": "INDIAN HEALTH CENTER OF SANTA CLARA VALLEY",
    "contactEmail": "AGUTIERREZ@IHCSCV.ORG",
    "categoryName": "PRIMARY CARE CLINIC",
    "categoryCode": "COMTYC",
    "licenseStatus": "ACTIVE",
    "inService": true,
    "licenseNumber": "550001783",
    "licenseEffectiveDate": "12/02/2024",
    "licenseExpirationDate": "12/01/2025",
    "dataDate": "10/18/2025",
    "capacity": 0,
    "address": "1642 E CAPITOL EXPY",
    "city": "SAN JOSE",
    "zip": "95121",
    "county": "SANTA CLARA",
    "phone": "(408) 445-3030",
    "lat": 37.30632417,
    "lng": -121.8115863
  },
  {
    "id": "070000626",
    "name": "MISSION DE LA CASA NURSING & REHABILITATION CENTER",
    "npi": "1720032329",
    "hcaiId": "206434018",
    "businessName": "CASAVINA FOUNDATION CORPORATION",
    "contactEmail": "JOSH.HEDGER@MISSIONDELACASA.COM",
    "categoryName": "SKILLED NURSING FACILITY",
    "categoryCode": "SNF",
    "licenseStatus": "ACTIVE",
    "inService": true,
    "licenseNumber": "070000265",
    "licenseEffectiveDate": "06/30/2025",
    "licenseExpirationDate": "06/29/2026",
    "dataDate": "10/18/2025",
    "capacity": 163,
    "address": "2501 ALVIN AVE",
    "city": "SAN JOSE",
    "zip": "95121",
    "county": "SANTA CLARA",
    "phone": "(408) 238-9751",
    "lat": 37.318428,
    "lng": -121.826871
  },
  {
    "id": "630014203",
    "name": "SATELLITE HEALTHCARE SILVER CREEK",
    "npi": "1073888699",
    "hcaiId": "306434251",
    "businessName": "SATELLITE HEALTHCARE SILVER CREEK, LLC",
    "contactEmail": "LICENSING@SATELLITEHEALTH.COM",
    "categoryName": "CHRONIC DIALYSIS CLINIC",
    "categoryCode": "ESRD/CDC",
    "licenseStatus": "ACTIVE",
    "inService": true,
    "licenseNumber": "550002245",
    "licenseEffectiveDate": "05/29/2025",
    "licenseExpirationDate": "05/28/2026",
    "dataDate": "10/18/2025",
    "capacity": 31,
    "address": "1620 E CAPITOL EXPY",
    "city": "SAN JOSE",
    "zip": "95121",
    "county": "SANTA CLARA",
    "phone": "(408) 754-3400",
    "lat": 37.30628002,
    "lng": -121.8116464
  }
]