[
  {
    "id": "070000057",
    "name": "HERMAN HEALTH CARE CENTER",
    "npi": "1083685606",
    "hcaiId": "206430785",
    "businessName": "THE HERMAN SANITARIUM",
    "contactEmail": "ADMINISTRATOR@SVPOSTACUTE.COM",
    "categoryName": "SKILLED NURSING FACILITY",
    "categoryCode": "SNF",
    "licenseStatus": "ACTIVE",
    "inService": true,
    "licenseNumber": "070000049",
    "licenseEffectiveDate": "01/01/2025",
    "licenseExpirationDate": "12/31/2025",
    "dataDate": "10/18/2025",
    "capacity": 99,
    "address": "2295 PLUMMER AVE",
    "city": "SAN JOSE",
    "zip": "95125",
    "county": "SANTA CLARA",
    "phone": "(408) 269-0701",
    "lat": 37.282473,
    "lng": -121.899492
  },
  {
    "id": "070000175",
    "name": "INDIAN HEALTH CENTER OF SANTA CLARA VALLEY",
    "npi": "1164643862",
    "hcaiId": "306431525",
    "businessName": "INDIAN HEALTH CENTER OF SANTA CLARA VALLEY",
    "contactEmail": "JTORRES@IHCSCV.ORG",
    "categoryName": "PRIMARY CARE CLINIC",
    "categoryCode": "COMTYC",
    "licenseStatus": "ACTIVE",
    "inService": true,
    "licenseNumber": "070000118",
    "licenseEffectiveDate": "03/07/2025",
    "licenseExpirationDate": "03/06/2026",
    "dataDate": "10/18/2025",
    "capacity": 0,
    "address": "1333 MERIDIAN AVE",
    "city": "SAN JOSE",
    "zip": "95125",
    "county": "SANTA CLARA",
    "phone": "(408) 445-3400",
    "lat": 37.30176,
    "lng": -121.9140585
  },
  {
    "id": "630015547",
    "name": "INDIAN HEALTH CENTER OF SANTA CLARA VALLEY",
    "npi": null,
    "hcaiId": null,
    "businessName": "INDIAN HEALTH CENTER OF SANTA CLARA VALLEY",
    "contactEmail": null,
    "categoryName": "PRIMARY CARE CLINIC",
    "categoryCode": "COMTYC",
    "licenseStatus": "ACTIVE",
    "inService": true,
    "licenseNumber": "070000118",
    "licenseEffectiveDate": "03/07/2025",
    "licenseExpirationDate": "03/06/2026",
    "dataDate": "10/18/2025",
    "capacity": 0,
    "address": "1118 MERIDIAN AVE, SUITE 150",
    "city": "SAN JOSE",
    "zip": "95125",
    "county": "SANTA CLARA",
    "phone": null,
    "lat": 37.30337099,
    "lng": -121.913224
  },
  {
    "id": "630023730",
    "name": "INDIAN HEALTH CENTER OF SANTA CLARA VALLEY - MOBILE CLINIC",
    "npi": null,
    "hcaiId": "306430020",
    "businessName": "INDIAN HEALTH CENTER OF SANTA CLARA VALLEY",
    "contactEmail": "JTORRES@IHCSCV.ORG",
    "categoryName": "PRIMARY CARE CLINIC",
    "categoryCode": "COMTYC",
    "licenseStatus": "ACTIVE",
    "inService": true,
    "licenseNumber": "550008426",
    "licenseEffectiveDate": "02/23/2025",
    "licenseExpirationDate": "02/22/2026",
    "dataDate": "10/18/2025",
    "capacity": 0,
    "address": "1333 MERIDIAN AVE",
    "city": "SAN JOSE",
    "zip": "95125",
    "county": "SANTA CLARA",
    "phone": "(408) 445-3400",
    "lat": 37.30176,
    "lng": -121.9140585
  },
  {
    "id": "070000012",
    "name": "LINCOLN GLEN SKILLED NURSING",
    "npi": "1093704249",
    "hcaiId": "206431530",
    "businessName": "LINCOLN GLEN MANOR FOR SENIOR CITIZENS, INC.",
    "contactEmail": "BMORTENSEN@LGMANOR.ORG",
    "categoryName": "SKILLED NURSING FACILITY",
    "categoryCode": "SNF",
    "licenseStatus": "ACTIVE",
    "inService": true,
    "licenseNumber": "070000119",
    "licenseEffectiveDate": "04/22/2025",
    "licenseExpirationDate": "04/21/2026",
    "dataDate": "10/18/2025",
    "capacity": 59,
    "address": "2671 PLUMMER AVE",
    "city": "SAN JOSE",
    "zip": "95125",
    "county": "SANTA CLARA",
    "phone": "(408) 757-8580",
    "lat": 37.27702464,
    "lng": -121.8952794
  },
  {
    "id": "630011627",
    "name": "MY FRIENDS",
    "npi": null,
    "hcaiId": null,
    "businessName": "SPECIALIZED DAYCARE SERVICES, INC.",
    "contactEmail": "AHNS@ALWAYSHOMENURSING.COM",
    "categoryName": "PEDIATRIC DAY HEALTH & RESPITE CARE FACILITY",
    "categoryCode": "PDHRCF",
    "licenseStatus": "ACTIVE",
    "inService": true,
    "licenseNumber": "550000689",
    "licenseEffectiveDate": "06/11/2025",
    "licenseExpirationDate": "11/26/2025",
    "dataDate": "10/18/2025",
    "capacity": 4,
    "address": "2288 LINCOLN AVE",
    "city": "SAN JOSE",
    "zip": "95125",
    "county": "SANTA CLARA",
    "phone": "(408) 723-2288",
    "lat": 37.288953,
    "lng": -121.886649
  },
  {
    "id": "630012031",
    "name": "PREMIER HOME HEALTH PROVIDERS INC.",
    "npi": "1477705341",
    "hcaiId": "406434154",
    "businessName": "PREMIER HOME HEALTH PROVIDERS INC.",
    "contactEmail": "PREMIERHHP@GMAIL.COM",
    "categoryName": "HOME HEALTH AGENCY",
    "categoryCode": "HHA",
    "licenseStatus": "ACTIVE",
    "inService": true,
    "licenseNumber": "550001110",
    "licenseEffectiveDate": "01/23/2025",
    "licenseExpirationDate": "01/22/2026",
    "dataDate": "10/18/2025",
    "capacity": 0,
    "address": "1095 BIRD AVE, SUITE 4",
    "city": "SAN JOSE",
    "zip": "95125",
    "county": "SANTA CLARA",
    "phone": "(408) 286-1199",
    "lat": 37.31110056,
    "lng": -121.8960049
  },
  {
    "id": "070000097",
    "name": "THE REDWOODS POST-ACUTE",
    "npi": "1083788079",
    "hcaiId": "206430926",
    "businessName": "BETTER CARE, INCORPORATED",
    "contactEmail": "CHRISTOPHER.SHEPPERT@LINKSHEALTH.COM",
    "categoryName": "SKILLED NURSING FACILITY",
    "categoryCode": "SNF",
    "licenseStatus": "ACTIVE",
    "inService": true,
    "licenseNumber": "070000099",
    "licenseEffectiveDate": "05/01/2025",
    "licenseExpirationDate": "04/30/2026",
    "dataDate": "10/18/2025",
    "capacity": 152,
    "address": "1267 MERIDIAN AVE",
    "city": "SAN JOSE",
    "zip": "95125",
    "county": "SANTA CLARA",
    "phone": "(408) 265-4211",
    "lat": 37.30212,
    "lng": -121.9151385
  },
  {
    "id": "070000789",
    "name": "TUPAZ HOME #3",
    "npi": "1922219476",
    "hcaiId": null,
    "businessName": "TUPAZ HOMES LLC",
    "contactEmail": "TUPZHOM2@PACBELL.NET",
    "categoryName": "INTERMEDIATE CARE FACILITY-DD/H/N/CN/IID",
    "categoryCode": "ICFDDN",
    "licenseStatus": "ACTIVE",
    "inService": true,
    "licenseNumber": "070000328",
    "licenseEffectiveDate": "11/01/2024",
    "licenseExpirationDate": "10/31/2025",
    "dataDate": "10/18/2025",
    "capacity": 6,
    "address": "1955 PATIO DR",
    "city": "SAN JOSE",
    "zip": "95125",
    "county": "SANTA CLARA",
    "phone": "(408) 879-9631",
    "lat": 37.288719,
    "lng": -121.9216095
  },
  {
    "id": "630010925",
    "name": "VALLEY HEALTH CENTER AT EMERGENCY HOUSING CONSORTIUM",
    "npi": null,
    "hcaiId": null,
    "businessName": null,
    "contactEmail": null,
    "categoryName": "PRIMARY CARE CLINIC",
    "categoryCode": "FQHC",
    "licenseStatus": null,
    "inService": null,
    "licenseNumber": null,
    "licenseEffectiveDate": null,
    "licenseExpirationDate": null,
    "dataDate": "10/18/2025",
    "capacity": 0,
    "address": "2011 LITTLE ORCHARD ST",
    "city": "SAN JOSE",
    "zip": "95125",
    "county": "SANTA CLARA",
    "phone": "(408) 885-5000",
    "lat": 37.30437929,
    "lng": -121.8709642
  },
  {
    "id": "630011719",
    "name": "WELLBOUND OF SAN JOSE",
    "npi": "1548232572",
    "hcaiId": null,
    "businessName": null,
    "contactEmail": "LICENSING@SATELLITEHEALTH.COM",
    "categoryName": "CHRONIC DIALYSIS CLINIC",
    "categoryCode": "ESRD",
    "licenseStatus": null,
    "inService": null,
    "licenseNumber": null,
    "licenseEffectiveDate": null,
    "licenseExpirationDate": null,
    "dataDate": "10/18/2025",
    "capacity": 0,
    "address": "1525 MERIDIAN AVE, SUITE 101",
    "city": "SAN JOSE",
    "zip": "95125",
    "county": "SANTA CLARA",
    "phone": "(408) 269-3600",
    "lat": 37.297368,
    "lng": -121.9140585
  }
]