[
  {
    "id": "630016466",
    "name": "CARE MUST",
    "npi": "1396100053",
    "hcaiId": "406434304",
    "businessName": "CARE MUST",
    "contactEmail": "CAREMUSTINC@GMAIL.COM",
    "categoryName": "HOME HEALTH AGENCY",
    "categoryCode": "HHA",
    "licenseStatus": "ACTIVE",
    "inService": true,
    "licenseNumber": "550003801",
    "licenseEffectiveDate": "12/13/2024",
    "licenseExpirationDate": "12/12/2025",
    "dataDate": "10/18/2025",
    "capacity": 0,
    "address": "4075 EVERGREEN VILLAGE SQ, SUITE 230B",
    "city": "SAN JOSE",
    "zip": "95135",
    "county": "SANTA CLARA",
    "phone": "(408) 755-1215",
    "lat": 37.31438699,
    "lng": -121.773303
  },
  {
    "id": "630016481",
    "name": "CARE MUST HOSPICE INC",
    "npi": "1205291960",
    "hcaiId": "406434306",
    "businessName": "CARE MUST HOSPICE, INC.",
    "contactEmail": "CAREMUSTINC@GMAIL.COM",
    "categoryName": "HOSPICE",
    "categoryCode": "HOSPICE",
    "licenseStatus": "ACTIVE",
    "inService": true,
    "licenseNumber": "550003744",
    "licenseEffectiveDate": "08/18/2024",
    "licenseExpirationDate": "08/17/2026",
    "dataDate": "10/18/2025",
    "capacity": 0,
    "address": "4075 EVERGREEN VILLAGE SQ, SUITE 230A",
    "city": "SAN JOSE",
    "zip": "95135",
    "county": "SANTA CLARA",
    "phone": "(408) 755-1216",
    "lat": 37.314387,
    "lng": -121.7733165
  },
  {
    "id": "630010933",
    "name": "SILVER STAR ICF/DD-N",
    "npi": "1790949303",
    "hcaiId": null,
    "businessName": "SILVER PUNZALAN II, INC.",
    "contactEmail": "FE@PUNZALANINC.COM",
    "categoryName": "INTERMEDIATE CARE FACILITY-DD/H/N/CN/IID",
    "categoryCode": "ICFDDN",
    "licenseStatus": "ACTIVE",
    "inService": true,
    "licenseNumber": "550000428",
    "licenseEffectiveDate": "03/07/2025",
    "licenseExpirationDate": "03/06/2026",
    "dataDate": "10/18/2025",
    "capacity": 6,
    "address": "2928 SILVER ESTATES",
    "city": "SAN JOSE",
    "zip": "95135",
    "county": "SANTA CLARA",
    "phone": "(408) 592-6183",
    "lat": 37.293588,
    "lng": -121.762071
  },
  {
    "id": "630015484",
    "name": "WITH GRACE HOSPICE AND PALLIATIVE CARE",
    "npi": "1952704645",
    "hcaiId": "406434291",
    "businessName": "WITH GRACE MINISTRIES INC.",
    "contactEmail": "LLE@WITHGRACEHOSPICE.COM",
    "categoryName": "HOSPICE",
    "categoryCode": "HOSPICE",
    "licenseStatus": "ACTIVE",
    "inService": true,
    "licenseNumber": "550002922",
    "licenseEffectiveDate": "12/23/2024",
    "licenseExpirationDate": "12/22/2026",
    "dataDate": "10/18/2025",
    "capacity": 0,
    "address": "4075 EVERGREEN VILLAGE SQ, SUITE 210",
    "city": "SAN JOSE",
    "zip": "95135",
    "county": "SANTA CLARA",
    "phone": "(408) 444-5500",
    "lat": 37.314387,
    "lng": -121.7733165
  }
]