[
  {
    "id": "070000817",
    "name": "TUPAZ HOME #4",
    "npi": null,
    "hcaiId": null,
    "businessName": "TUPAZ HOMES LLC",
    "contactEmail": "TUPZHOM2@PACBELL.NET",
    "categoryName": "INTERMEDIATE CARE FACILITY-DD/H/N/CN/IID",
    "categoryCode": "ICFDDN",
    "licenseStatus": "ACTIVE",
    "inService": true,
    "licenseNumber": "070000342",
    "licenseEffectiveDate": "11/01/2024",
    "licenseExpirationDate": "10/31/2025",
    "dataDate": "10/18/2025",
    "capacity": 6,
    "address": "888 CLARKSTON DR",
    "city": "SAN JOSE",
    "zip": "95136",
    "county": "SANTA CLARA",
    "phone": "(408) 266-1521",
    "lat": 37.271142,
    "lng": -121.8679515
  },
  {
    "id": "070000980",
    "name": "TUPAZ HOME #6",
    "npi": "1750592119",
    "hcaiId": null,
    "businessName": "TUPAZ HOMES LLC",
    "contactEmail": "TUPZHOM2@PACBELL.NET",
    "categoryName": "INTERMEDIATE CARE FACILITY-DD/H/N/CN/IID",
    "categoryCode": "ICFDDN",
    "licenseStatus": "ACTIVE",
    "inService": true,
    "licenseNumber": "070000416",
    "licenseEffectiveDate": "11/01/2024",
    "licenseExpirationDate": "10/31/2025",
    "dataDate": "10/18/2025",
    "capacity": 6,
    "address": "4328 SAYOKO CIR",
    "city": "SAN JOSE",
    "zip": "95136",
    "county": "SANTA CLARA",
    "phone": "(408) 365-8378",
    "lat": 37.270233,
    "lng": -121.837023
  },
  {
    "id": "070000998",
    "name": "TUPAZ HOME #7",
    "npi": "1841401213",
    "hcaiId": null,
    "businessName": "TUPAZ HOMES LLC",
    "contactEmail": "TUPZHOM2@PACBELL.NET",
    "categoryName": "INTERMEDIATE CARE FACILITY-DD/H/N/CN/IID",
    "categoryCode": "ICFDDN",
    "licenseStatus": "ACTIVE",
    "inService": true,
    "licenseNumber": "070000428",
    "licenseEffectiveDate": "05/04/2025",
    "licenseExpirationDate": "05/03/2026",
    "dataDate": "10/18/2025",
    "capacity": 6,
    "address": "308 MARTI WAY",
    "city": "SAN JOSE",
    "zip": "95136",
    "county": "SANTA CLARA",
    "phone": "(408) 629-5216",
    "lat": 37.272159,
    "lng": -121.845393
  }
]