[
  {
    "id": "630015991",
    "name": "ASCENSION HEALTHCARE SERVICES",
    "npi": "1295127256",
    "hcaiId": "406434293",
    "businessName": "AMLIFE HOME HEALTH SERVICES, LLC",
    "contactEmail": "JPB@AMPLIFYBLISS.COM",
    "categoryName": "HOME HEALTH AGENCY",
    "categoryCode": "HHA",
    "licenseStatus": "ACTIVE",
    "inService": true,
    "licenseNumber": "550003452",
    "licenseEffectiveDate": "03/30/2025",
    "licenseExpirationDate": "03/29/2026",
    "dataDate": "10/18/2025",
    "capacity": 0,
    "address": "800 CHARCOT AVE, SUITE 106",
    "city": "SAN JOSE",
    "zip": "95131",
    "county": "SANTA CLARA",
    "phone": "(408) 782-7400",
    "lat": 37.385813,
    "lng": -121.907368
  },
  {
    "id": "630016969",
    "name": "CVHCARE SAN JOSE",
    "npi": null,
    "hcaiId": "406430661",
    "businessName": "CVHCARE CORPORATION",
    "contactEmail": "COMPLIANCE@CVHCARE.COM",
    "categoryName": "HOME HEALTH AGENCY",
    "categoryCode": "HHA",
    "licenseStatus": "ACTIVE",
    "inService": true,
    "licenseNumber": "550004050",
    "licenseEffectiveDate": "04/11/2025",
    "licenseExpirationDate": "04/10/2026",
    "dataDate": "10/18/2025",
    "capacity": 0,
    "address": "1857 OTOOLE LN",
    "city": "SAN JOSE",
    "zip": "95131",
    "county": "SANTA CLARA",
    "phone": "(510) 690-1930",
    "lat": 37.38454599,
    "lng": -121.906171
  },
  {
    "id": "630016662",
    "name": "HEART OF HOPE ASIAN AMERICAN HOSPICE CARE, A NONPROFIT CORPORATION",
    "npi": "1114313418",
    "hcaiId": "406434299",
    "businessName": "HEART OF HOPE ASIAN AMERICAN HOSPICE CARE, A NONPROFIT CORPORATION",
    "contactEmail": "BCHEN@HEARTOFHOPEHOSPICE.ORG",
    "categoryName": "HOSPICE",
    "categoryCode": "HOSPICE",
    "licenseStatus": "ACTIVE",
    "inService": false,
    "licenseNumber": "550003675",
    "licenseEffectiveDate": "10/06/2024",
    "licenseExpirationDate": "10/05/2026",
    "dataDate": "10/18/2025",
    "capacity": 0,
    "address": "1879 LUNDY AVE, SUITE 223",
    "city": "SAN JOSE",
    "zip": "95131",
    "county": "SANTA CLARA",
    "phone": "(408) 986-8584",
    "lat": 37.392759,
    "lng": -121.892058
  },
  {
    "id": "630013634",
    "name": "HELENIUM HOME HEALTH INC.",
    "npi": "1306111901",
    "hcaiId": "406434240",
    "businessName": "HELENIUM HOME HEALTH INC.",
    "contactEmail": "ADMIN@HELENIUMHH.COM",
    "categoryName": "HOME HEALTH AGENCY",
    "categoryCode": "HHA",
    "licenseStatus": "ACTIVE",
    "inService": true,
    "licenseNumber": "550002015",
    "licenseEffectiveDate": "02/12/2025",
    "licenseExpirationDate": "02/11/2026",
    "dataDate": "10/18/2025",
    "capacity": 0,
    "address": "1590 OAKLAND RD, SUITE B-113",
    "city": "SAN JOSE",
    "zip": "95131",
    "county": "SANTA CLARA",
    "phone": "(408) 326-2971",
    "lat": 37.380393,
    "lng": -121.894731
  },
  {
    "id": "630014735",
    "name": "NORTH EAST MEDICAL SERVICES - 1870 LUNDY",
    "npi": "1548697444",
    "hcaiId": "306434262",
    "businessName": "NORTH EAST MEDICAL SERVICES",
    "contactEmail": "WENDY.WU@NEMS.ORG",
    "categoryName": "PRIMARY CARE CLINIC",
    "categoryCode": "COMTYC",
    "licenseStatus": "ACTIVE",
    "inService": true,
    "licenseNumber": "550002534",
    "licenseEffectiveDate": "05/29/2025",
    "licenseExpirationDate": "12/25/2025",
    "dataDate": "10/18/2025",
    "capacity": 0,
    "address": "1870 LUNDY AVE",
    "city": "SAN JOSE",
    "zip": "95131",
    "county": "SANTA CLARA",
    "phone": "(408) 573-9686",
    "lat": 37.392903,
    "lng": -121.8897
  },
  {
    "id": "630013885",
    "name": "SILICON VALLEY DIALYSIS",
    "npi": "1104187202",
    "hcaiId": "306434249",
    "businessName": "SKAGIT DIALYSIS LLC",
    "contactEmail": "CAL_C@DAVITA.COM",
    "categoryName": "CHRONIC DIALYSIS CLINIC",
    "categoryCode": "ESRD/CDC",
    "licenseStatus": "ACTIVE",
    "inService": true,
    "licenseNumber": "550002208",
    "licenseEffectiveDate": "03/11/2025",
    "licenseExpirationDate": "03/10/2026",
    "dataDate": "10/18/2025",
    "capacity": 32,
    "address": "725 RIDDER PARK DR, SUITE 10",
    "city": "SAN JOSE",
    "zip": "95131",
    "county": "SANTA CLARA",
    "phone": "(408) 392-0390",
    "lat": 37.379871,
    "lng": -121.902048
  },
  {
    "id": "630014211",
    "name": "SILICON VALLEY HOME TRAINING",
    "npi": "1427319524",
    "hcaiId": null,
    "businessName": null,
    "contactEmail": null,
    "categoryName": "CHRONIC DIALYSIS CLINIC",
    "categoryCode": "ESRD",
    "licenseStatus": null,
    "inService": null,
    "licenseNumber": null,
    "licenseEffectiveDate": null,
    "licenseExpirationDate": null,
    "dataDate": "10/18/2025",
    "capacity": 0,
    "address": "725 RIDDER PARK DR, SUITE 50",
    "city": "SAN JOSE",
    "zip": "95131",
    "county": "SANTA CLARA",
    "phone": "(408) 392-0239",
    "lat": 37.379871,
    "lng": -121.902048
  },
  {
    "id": "630022134",
    "name": "SOLEIL HOSPICE, LLC",
    "npi": null,
    "hcaiId": "406435125",
    "businessName": "SOLEIL HOSPICE, LLC",
    "contactEmail": "JONBLISS@SOLEILHOSPICE.COM",
    "categoryName": "HOSPICE",
    "categoryCode": "HOSPICE",
    "licenseStatus": "ACTIVE",
    "inService": true,
    "licenseNumber": "550007617",
    "licenseEffectiveDate": "12/21/2023",
    "licenseExpirationDate": "12/20/2025",
    "dataDate": "10/18/2025",
    "capacity": 0,
    "address": "800 CHARCOT AVE, SUITE 107",
    "city": "SAN JOSE",
    "zip": "95131",
    "county": "SANTA CLARA",
    "phone": "(408) 498-9945",
    "lat": 37.386018,
    "lng": -121.9080285
  },
  {
    "id": "630014378",
    "name": "SOUTH SPRINGS HOME HEALTH CARE",
    "npi": "1992048508",
    "hcaiId": "406434266",
    "businessName": "SOUTH SPRINGS HOME HEALTH CARE, INC.",
    "contactEmail": "ADMIN@SOUTHSPRINGSHEALTHCARE.COM",
    "categoryName": "HOME HEALTH AGENCY",
    "categoryCode": "HHA",
    "licenseStatus": "ACTIVE",
    "inService": true,
    "licenseNumber": "550002592",
    "licenseEffectiveDate": "03/04/2025",
    "licenseExpirationDate": "03/03/2026",
    "dataDate": "10/18/2025",
    "capacity": 0,
    "address": "1590 OAKLAND RD, SUITE B-213",
    "city": "SAN JOSE",
    "zip": "95131",
    "county": "SANTA CLARA",
    "phone": "(408) 883-4460",
    "lat": 37.380393,
    "lng": -121.894731
  },
  {
    "id": "070001436",
    "name": "VN HOME HEALTH CARE",
    "npi": "1891747978",
    "hcaiId": "406434168",
    "businessName": "VN HOME HEALTH CARE",
    "contactEmail": "VNHOMEHEALTH@GMAIL.COM",
    "categoryName": "HOME HEALTH AGENCY",
    "categoryCode": "HHA",
    "licenseStatus": "ACTIVE",
    "inService": true,
    "licenseNumber": "070000706",
    "licenseEffectiveDate": "11/01/2025",
    "licenseExpirationDate": "10/31/2026",
    "dataDate": "10/18/2025",
    "capacity": 0,
    "address": "2528 QUME DR, SUITE 7",
    "city": "SAN JOSE",
    "zip": "95131",
    "county": "SANTA CLARA",
    "phone": "(408) 998-0550",
    "lat": 37.400553,
    "lng": -121.8873915
  }
]