[
  {
    "id": "630016083",
    "name": "MONTEREY PLAZA HEALTH CLINIC",
    "npi": "1922485952",
    "hcaiId": "306434287",
    "businessName": "BAY AREA COMMUNITY HEALTH",
    "contactEmail": "SCHAVARIN@SJFFCC.ORG",
    "categoryName": "PRIMARY CARE CLINIC",
    "categoryCode": "COMTYC",
    "licenseStatus": "ACTIVE",
    "inService": true,
    "licenseNumber": "550000139",
    "licenseEffectiveDate": "11/21/2024",
    "licenseExpirationDate": "11/20/2025",
    "dataDate": "10/18/2025",
    "capacity": 0,
    "address": "5504 MONTEREY HWY",
    "city": "SAN JOSE",
    "zip": "95138",
    "county": "SANTA CLARA",
    "phone": "(408) 729-9700",
    "lat": 37.25468437,
    "lng": -121.8004102
  },
  {
    "id": "630016368",
    "name": "SAN JOSE BEHAVIORAL HEALTH",
    "npi": "1508252149",
    "hcaiId": "106434032",
    "businessName": "SJBH, LLC",
    "contactEmail": "BREANNE.TANKERSLEY@SANJOSEBH.COM",
    "categoryName": "ACUTE PSYCHIATRIC HOSPITAL",
    "categoryCode": "APH",
    "licenseStatus": "ACTIVE",
    "inService": true,
    "licenseNumber": "550003449",
    "licenseEffectiveDate": "03/31/2025",
    "licenseExpirationDate": "03/30/2026",
    "dataDate": "10/18/2025",
    "capacity": 133,
    "address": "455 SILICON VALLEY BOULEVARD",
    "city": "SAN JOSE",
    "zip": "95138",
    "county": "SANTA CLARA",
    "phone": "(669) 234-5959",
    "lat": 37.24837109,
    "lng": -121.7725608
  },
  {
    "id": "630017830",
    "name": "SILVER CREEK SURGERY CTR LLC",
    "npi": "1801269121",
    "hcaiId": null,
    "businessName": null,
    "contactEmail": "SCSURGERYCENTER@GMAIL.COM",
    "categoryName": "SURGICAL CLINIC",
    "categoryCode": "ASC",
    "licenseStatus": null,
    "inService": null,
    "licenseNumber": null,
    "licenseEffectiveDate": null,
    "licenseExpirationDate": null,
    "dataDate": "10/18/2025",
    "capacity": 0,
    "address": "6010 HELLYER AVENUE, SUITE 100",
    "city": "SAN JOSE",
    "zip": "95138",
    "county": "SANTA CLARA",
    "phone": "(408) 677-3101",
    "lat": 37.258245,
    "lng": -121.7807775
  }
]