[
  {
    "id": "070000700",
    "name": "MAXIM HEALTHCARE SERVICES, INC.",
    "npi": "1417994864",
    "hcaiId": "406434029",
    "businessName": "MAXIM HEALTHCARE SERVICES, INC.",
    "contactEmail": "SANJOSEHH@MAXHEALTH.COM",
    "categoryName": "HOME HEALTH AGENCY",
    "categoryCode": "HHA",
    "licenseStatus": "ACTIVE",
    "inService": true,
    "licenseNumber": "070000287",
    "licenseEffectiveDate": "04/29/2025",
    "licenseExpirationDate": "04/28/2026",
    "dataDate": "10/18/2025",
    "capacity": 0,
    "address": "631 RIVER OAKS PARKWAY",
    "city": "SAN JOSE",
    "zip": "95134",
    "county": "SANTA CLARA",
    "phone": "(408) 914-7478",
    "lat": 37.396962,
    "lng": -121.921092
  },
  {
    "id": "630012185",
    "name": "NATIONAL HOME HEALTH SERVICES, INC.",
    "npi": "1104067826",
    "hcaiId": "406434206",
    "businessName": "NATIONAL HOME HEALTH SERVICES, INC.",
    "contactEmail": "ALEXR@NATIONALHHA.COM",
    "categoryName": "HOME HEALTH AGENCY",
    "categoryCode": "HHA",
    "licenseStatus": "ACTIVE",
    "inService": true,
    "licenseNumber": "550001137",
    "licenseEffectiveDate": "11/17/2025",
    "licenseExpirationDate": "11/16/2026",
    "dataDate": "10/18/2025",
    "capacity": 0,
    "address": "2880 ZANKER RD, SUITE 106",
    "city": "SAN JOSE",
    "zip": "95134",
    "county": "SANTA CLARA",
    "phone": "(408) 404-4090",
    "lat": 37.39589807,
    "lng": -121.9282954
  },
  {
    "id": "630010955",
    "name": "PROHEALTH HOME CARE, INC.",
    "npi": "1255531570",
    "hcaiId": "406434195",
    "businessName": "PROHEALTH HOME CARE, INC.",
    "contactEmail": "MARLEEN@PROHEALTH.US",
    "categoryName": "HOME HEALTH AGENCY",
    "categoryCode": "HHA",
    "licenseStatus": "ACTIVE",
    "inService": true,
    "licenseNumber": "550000275",
    "licenseEffectiveDate": "06/10/2025",
    "licenseExpirationDate": "04/29/2026",
    "dataDate": "10/18/2025",
    "capacity": 0,
    "address": "2700 ZANKER RD, SUITE 180",
    "city": "SAN JOSE",
    "zip": "95134",
    "county": "SANTA CLARA",
    "phone": "(408) 451-9055",
    "lat": 37.391598,
    "lng": -121.925907
  },
  {
    "id": "630012100",
    "name": "PROHEALTH HOME CARE, INC.",
    "npi": null,
    "hcaiId": null,
    "businessName": "PROHEALTH HOME CARE, INC.",
    "contactEmail": "MARLEEN@PROHEALTHHOMECARE.COM",
    "categoryName": "HOSPICE",
    "categoryCode": "HOSPICE",
    "licenseStatus": "ACTIVE",
    "inService": true,
    "licenseNumber": "550000275",
    "licenseEffectiveDate": "06/10/2025",
    "licenseExpirationDate": "04/29/2026",
    "dataDate": "10/18/2025",
    "capacity": 0,
    "address": "2700 ZANKER RD, SUITE 180",
    "city": "SAN JOSE",
    "zip": "95134",
    "county": "SANTA CLARA",
    "phone": "(408) 451-9090",
    "lat": 37.391598,
    "lng": -121.925907
  }
]