[
  {
    "id": "630019612",
    "name": "CAP KERN KENNEDY",
    "npi": "1285059923",
    "hcaiId": null,
    "businessName": "COMMUNITY MEDICAL CENTERS, INC.",
    "contactEmail": null,
    "categoryName": "PRIMARY CARE CLINIC",
    "categoryCode": "COMTYC",
    "licenseStatus": "ACTIVE",
    "inService": true,
    "licenseNumber": "550003006",
    "licenseEffectiveDate": "03/13/2025",
    "licenseExpirationDate": "03/12/2026",
    "dataDate": "10/18/2025",
    "capacity": 0,
    "address": "2800 S D ST",
    "city": "STOCKTON",
    "zip": "95206",
    "county": "SAN JOAQUIN",
    "phone": null,
    "lat": 37.929456,
    "lng": -121.24872
  },
  {
    "id": "630019619",
    "name": "CAPK - EARLY HEAD START",
    "npi": "1285059923",
    "hcaiId": null,
    "businessName": "COMMUNITY MEDICAL CENTERS, INC.",
    "contactEmail": null,
    "categoryName": "PRIMARY CARE CLINIC",
    "categoryCode": "COMTYC",
    "licenseStatus": "ACTIVE",
    "inService": true,
    "licenseNumber": "550003006",
    "licenseEffectiveDate": "03/13/2025",
    "licenseExpirationDate": "03/12/2026",
    "dataDate": "10/18/2025",
    "capacity": 0,
    "address": "215 W 5TH ST",
    "city": "STOCKTON",
    "zip": "95206",
    "county": "SAN JOAQUIN",
    "phone": null,
    "lat": 37.932336,
    "lng": -121.288932
  },
  {
    "id": "630018360",
    "name": "COMMUNITY MEDICAL CENTERS, DOROTHY L. JONES",
    "npi": "1285059923",
    "hcaiId": null,
    "businessName": "COMMUNITY MEDICAL CENTERS, INC.",
    "contactEmail": null,
    "categoryName": "PRIMARY CARE CLINIC",
    "categoryCode": "COMTYC",
    "licenseStatus": "ACTIVE",
    "inService": true,
    "licenseNumber": "550003006",
    "licenseEffectiveDate": "03/13/2025",
    "licenseExpirationDate": "03/12/2026",
    "dataDate": "10/18/2025",
    "capacity": 0,
    "address": "2044 FAIR ST",
    "city": "STOCKTON",
    "zip": "95206",
    "county": "SAN JOAQUIN",
    "phone": null,
    "lat": 37.93359558,
    "lng": -121.2647287
  },
  {
    "id": "630019942",
    "name": "COMMUNITY MEDICAL CENTERS, SUTTER STREET",
    "npi": "1285059923",
    "hcaiId": null,
    "businessName": "COMMUNITY MEDICAL CENTERS, INC.",
    "contactEmail": null,
    "categoryName": "PRIMARY CARE CLINIC",
    "categoryCode": "COMTYC",
    "licenseStatus": "ACTIVE",
    "inService": true,
    "licenseNumber": "550003006",
    "licenseEffectiveDate": "03/13/2025",
    "licenseExpirationDate": "03/12/2026",
    "dataDate": "10/18/2025",
    "capacity": 0,
    "address": "1800 S SUTTER ST, 11B",
    "city": "STOCKTON",
    "zip": "95206",
    "county": "SAN JOAQUIN",
    "phone": null,
    "lat": 37.934073,
    "lng": -121.2801615
  },
  {
    "id": "030001103",
    "name": "EDISON HEALTH CENTER",
    "npi": "1407934458",
    "hcaiId": "306394057",
    "businessName": "DELTA HEALTH CARE AND MANAGEMENT SERVICES, CORP.",
    "contactEmail": "BWILLIAMS@DELTAHEALTHCARE.ORG",
    "categoryName": "PRIMARY CARE CLINIC",
    "categoryCode": "COMTYC",
    "licenseStatus": "ACTIVE",
    "inService": true,
    "licenseNumber": "030000682",
    "licenseEffectiveDate": "03/19/2025",
    "licenseExpirationDate": "03/18/2026",
    "dataDate": "10/18/2025",
    "capacity": 0,
    "address": "1425 S. CENTER STREET",
    "city": "STOCKTON",
    "zip": "95206",
    "county": "SAN JOAQUIN",
    "phone": "(209) 444-8300",
    "lat": 37.937277,
    "lng": -121.287735
  },
  {
    "id": "630015220",
    "name": "PORT CITY DIALYSIS",
    "npi": "1437569514",
    "hcaiId": "306394124",
    "businessName": "CORAL DIALYSIS LLC",
    "contactEmail": "CAL_C@DAVITA.COM",
    "categoryName": "CHRONIC DIALYSIS CLINIC",
    "categoryCode": "ESRD/CDC",
    "licenseStatus": "ACTIVE",
    "inService": true,
    "licenseNumber": "550003517",
    "licenseEffectiveDate": "05/31/2025",
    "licenseExpirationDate": "05/30/2026",
    "dataDate": "10/18/2025",
    "capacity": 24,
    "address": "1810 S. FRESNO AVENUE",
    "city": "STOCKTON",
    "zip": "95206",
    "county": "SAN JOAQUIN",
    "phone": "(209) 946-0738",
    "lat": 37.931958,
    "lng": -121.3116345
  }
]