[
  {
    "id": "630019614",
    "name": "CAP KERN - EARLY HEAD START - ST. MARY'S",
    "npi": "1285059923",
    "hcaiId": null,
    "businessName": "COMMUNITY MEDICAL CENTERS, INC.",
    "contactEmail": null,
    "categoryName": "PRIMARY CARE CLINIC",
    "categoryCode": "COMTYC",
    "licenseStatus": "ACTIVE",
    "inService": true,
    "licenseNumber": "550003006",
    "licenseEffectiveDate": "03/13/2025",
    "licenseExpirationDate": "03/12/2026",
    "dataDate": "10/18/2025",
    "capacity": 0,
    "address": "545 W SONORA ST",
    "city": "STOCKTON",
    "zip": "95203",
    "county": "SAN JOAQUIN",
    "phone": null,
    "lat": 37.94751,
    "lng": -121.297239
  },
  {
    "id": "630014105",
    "name": "COMMUNITY MEDICAL CENTERS, GLEASON HOUSE",
    "npi": "1649525544",
    "hcaiId": "306394118",
    "businessName": "COMMUNITY MEDICAL CENTERS, INC.",
    "contactEmail": "GLRAMIREZ@CMCENTERS.ORG",
    "categoryName": "PRIMARY CARE CLINIC",
    "categoryCode": "COMTYC",
    "licenseStatus": "ACTIVE",
    "inService": true,
    "licenseNumber": "550002980",
    "licenseEffectiveDate": "01/15/2025",
    "licenseExpirationDate": "01/14/2026",
    "dataDate": "10/18/2025",
    "capacity": 0,
    "address": "423 S. SAN JOAQUIN STREET",
    "city": "STOCKTON",
    "zip": "95203",
    "county": "SAN JOAQUIN",
    "phone": "(209) 373-2800",
    "lat": 37.94877,
    "lng": -121.2863085
  },
  {
    "id": "630021709",
    "name": "COMMUNITY MEDICAL CENTERS, ST. MARY'S DINING ROOM",
    "npi": null,
    "hcaiId": null,
    "businessName": "COMMUNITY MEDICAL CENTERS, INC.",
    "contactEmail": "MFLORES@CMCENTERS.ORG",
    "categoryName": "PRIMARY CARE CLINIC",
    "categoryCode": "COMTYC",
    "licenseStatus": "ACTIVE",
    "inService": true,
    "licenseNumber": "550002980",
    "licenseEffectiveDate": "01/15/2025",
    "licenseExpirationDate": "01/14/2026",
    "dataDate": "10/18/2025",
    "capacity": 0,
    "address": "545 W SONORA ST, BUILDING #1",
    "city": "STOCKTON",
    "zip": "95203",
    "county": "SAN JOAQUIN",
    "phone": "(209) 373-3537",
    "lat": 37.94751,
    "lng": -121.297239
  },
  {
    "id": "030000117",
    "name": "DAMERON HOSPITAL",
    "npi": "1538163886",
    "hcaiId": "106390846",
    "businessName": "DAMERON HOSPITAL ASSOCIATION",
    "contactEmail": "D.HABERKERN@DAMERONHOSPITAL.ORG",
    "categoryName": "GENERAL ACUTE CARE HOSPITAL",
    "categoryCode": "GACH",
    "licenseStatus": "ACTIVE",
    "inService": true,
    "licenseNumber": "030000024",
    "licenseEffectiveDate": "04/30/2025",
    "licenseExpirationDate": "04/29/2026",
    "dataDate": "10/18/2025",
    "capacity": 202,
    "address": "525 W. ACACIA STREET",
    "city": "STOCKTON",
    "zip": "95203",
    "county": "SAN JOAQUIN",
    "phone": "(209) 461-7515",
    "lat": 37.961748,
    "lng": -121.3010235
  },
  {
    "id": "100000041",
    "name": "LINCOLN SQUARE POST ACUTE CARE",
    "npi": "1780816777",
    "hcaiId": "206392310",
    "businessName": "STOCKTON HEALTH CARE SERVICES, INC.",
    "contactEmail": "TELLIS@LINCOLNSQUAREREHAB.COM",
    "categoryName": "SKILLED NURSING FACILITY",
    "categoryCode": "SNF",
    "licenseStatus": "ACTIVE",
    "inService": true,
    "licenseNumber": "100000209",
    "licenseEffectiveDate": "06/17/2025",
    "licenseExpirationDate": "06/16/2026",
    "dataDate": "10/18/2025",
    "capacity": 68,
    "address": "1032 N. LINCOLN STREET",
    "city": "STOCKTON",
    "zip": "95203",
    "county": "SAN JOAQUIN",
    "phone": "(209) 466-5341",
    "lat": 37.962009,
    "lng": -121.299858
  }
]