[
  {
    "id": "030001767",
    "name": "AMBULATORY SURGERY CENTER OF STOCKTON",
    "npi": "1245285857",
    "hcaiId": "306394061",
    "businessName": null,
    "contactEmail": null,
    "categoryName": "SURGICAL CLINIC",
    "categoryCode": "ASC",
    "licenseStatus": "INACTIVE - CAPEN DECISION",
    "inService": false,
    "licenseNumber": "030000758",
    "licenseEffectiveDate": "04/05/2008",
    "licenseExpirationDate": "04/04/2009",
    "dataDate": "10/18/2025",
    "capacity": 0,
    "address": "2388 N. CALIFORNIA STREET",
    "city": "STOCKTON",
    "zip": "95204",
    "county": "SAN JOAQUIN",
    "phone": "(209) 944-9100",
    "lat": 37.97532,
    "lng": -121.29048
  },
  {
    "id": "630018690",
    "name": "COMMUNITY MEDICAL CENTERS, CALIFORNIA STREET",
    "npi": null,
    "hcaiId": null,
    "businessName": "COMMUNITY MEDICAL CENTERS, INC.",
    "contactEmail": null,
    "categoryName": "PRIMARY CARE CLINIC",
    "categoryCode": "COMTYC",
    "licenseStatus": "ACTIVE",
    "inService": true,
    "licenseNumber": "550003006",
    "licenseEffectiveDate": "03/13/2025",
    "licenseExpirationDate": "03/12/2026",
    "dataDate": "10/18/2025",
    "capacity": 0,
    "address": "2349 N CALIFORNIA ST",
    "city": "STOCKTON",
    "zip": "95204",
    "county": "SAN JOAQUIN",
    "phone": "(209) 469-2229",
    "lat": 37.975356,
    "lng": -121.2912945
  },
  {
    "id": "110001157",
    "name": "FRESENIUS KIDNEY CARE NORTH CALIFORNIA STOCKTON",
    "npi": "1669546990",
    "hcaiId": "306390778",
    "businessName": "RAI CARE CENTERS OF NORTHERN CALIFORNIA I, LLC",
    "contactEmail": "VIANCA.ROUGEAU@FRESENIUSMEDICALCARE.COM",
    "categoryName": "CHRONIC DIALYSIS CLINIC",
    "categoryCode": "ESRD/CDC",
    "licenseStatus": "ACTIVE",
    "inService": true,
    "licenseNumber": "110000446",
    "licenseEffectiveDate": "04/01/2025",
    "licenseExpirationDate": "03/31/2026",
    "dataDate": "10/18/2025",
    "capacity": 20,
    "address": "545 E CLEVELAND ST",
    "city": "STOCKTON",
    "zip": "95204",
    "county": "SAN JOAQUIN",
    "phone": "(209) 943-0854",
    "lat": 37.974015,
    "lng": -121.2894135
  },
  {
    "id": "030001819",
    "name": "FULTON GARDENS POST ACUTE, LLC",
    "npi": "1629631312",
    "hcaiId": "206390916",
    "businessName": "FULTON GARDENS POST ACUTE, LLC",
    "contactEmail": "ELIZABETH.MILLAN@FULTONGARDENSPOSTACUTE.COM",
    "categoryName": "SKILLED NURSING FACILITY",
    "categoryCode": "SNF",
    "licenseStatus": "ACTIVE",
    "inService": true,
    "licenseNumber": "030000054",
    "licenseEffectiveDate": "11/15/2024",
    "licenseExpirationDate": "11/14/2025",
    "dataDate": "10/18/2025",
    "capacity": 116,
    "address": "537 E. FULTON STREET",
    "city": "STOCKTON",
    "zip": "95204",
    "county": "SAN JOAQUIN",
    "phone": "(209) 466-2066",
    "lat": 37.985517,
    "lng": -121.293891
  },
  {
    "id": "100000069",
    "name": "GOOD SAMARITAN REHABILITATION AND CARE CENTER",
    "npi": "1548283542",
    "hcaiId": "206390902",
    "businessName": "STOCKTON EDISON HEALTH CARE CORPORATION",
    "contactEmail": "GSRCC.ADM@GMAIL.COM",
    "categoryName": "SKILLED NURSING FACILITY",
    "categoryCode": "SNF",
    "licenseStatus": "ACTIVE",
    "inService": true,
    "licenseNumber": "100000048",
    "licenseEffectiveDate": "11/01/2025",
    "licenseExpirationDate": "10/31/2026",
    "dataDate": "10/18/2025",
    "capacity": 98,
    "address": "1630 N. EDISON STREET",
    "city": "STOCKTON",
    "zip": "95204",
    "county": "SAN JOAQUIN",
    "phone": "(209) 948-8762",
    "lat": 37.966905,
    "lng": -121.3040025
  },
  {
    "id": "100000039",
    "name": "HAMPTON POST ACUTE",
    "npi": "1629114178",
    "hcaiId": "206392202",
    "businessName": "WINDSOR HAMPTON CARE CENTER, LLC",
    "contactEmail": "ADMINISTRATOR@WINDSORHAMPTON.COM",
    "categoryName": "SKILLED NURSING FACILITY",
    "categoryCode": "SNF",
    "licenseStatus": "ACTIVE",
    "inService": true,
    "licenseNumber": "100000148",
    "licenseEffectiveDate": "09/04/2025",
    "licenseExpirationDate": "03/31/2026",
    "dataDate": "10/18/2025",
    "capacity": 120,
    "address": "442 E HAMPTON STREET",
    "city": "STOCKTON",
    "zip": "95204",
    "county": "SAN JOAQUIN",
    "phone": "(209) 466-0456",
    "lat": 37.974798,
    "lng": -121.291974
  },
  {
    "id": "100000982",
    "name": "HOSPICE OF SAN JOAQUIN",
    "npi": "1518962083",
    "hcaiId": "406394011",
    "businessName": "HOSPICE OF SAN JOAQUIN",
    "contactEmail": "RBURNETT@HOSPICESJ.ORG",
    "categoryName": "HOSPICE",
    "categoryCode": "HOSPICE",
    "licenseStatus": "ACTIVE",
    "inService": true,
    "licenseNumber": "100000706",
    "licenseEffectiveDate": "04/01/2024",
    "licenseExpirationDate": "03/31/2026",
    "dataDate": "10/18/2025",
    "capacity": 0,
    "address": "3888 PACIFIC AVENUE",
    "city": "STOCKTON",
    "zip": "95204",
    "county": "SAN JOAQUIN",
    "phone": "(209) 957-3888",
    "lat": 37.983465,
    "lng": -121.3089345
  },
  {
    "id": "630017161",
    "name": "HOSPICE OF SAN JOAQUIN HOSPICE HOUSE",
    "npi": null,
    "hcaiId": "206394067",
    "businessName": "HOSPICE OF SAN JOAQUIN",
    "contactEmail": "RBURNETT@HOSPICESJ.ORG",
    "categoryName": "HOSPICE FACILITY",
    "categoryCode": "HOFA",
    "licenseStatus": "ACTIVE",
    "inService": true,
    "licenseNumber": "550004286",
    "licenseEffectiveDate": "02/07/2025",
    "licenseExpirationDate": "02/06/2026",
    "dataDate": "10/18/2025",
    "capacity": 6,
    "address": "3888 PACIFIC AVE, BUILDING B",
    "city": "STOCKTON",
    "zip": "95204",
    "county": "SAN JOAQUIN",
    "phone": "(209) 957-3888",
    "lat": 37.983465,
    "lng": -121.3089345
  },
  {
    "id": "630013268",
    "name": "MY FRIENDS PEDIATRIC DAY HEALTH CARE CENTER",
    "npi": "1245524792",
    "hcaiId": null,
    "businessName": "SPECIALIZED DAYCARE SERVICES, INC.",
    "contactEmail": "AHNS@ALWAYSHOMENURSING.COM",
    "categoryName": "PEDIATRIC DAY HEALTH & RESPITE CARE FACILITY",
    "categoryCode": "PDHRCF",
    "licenseStatus": "ACTIVE",
    "inService": true,
    "licenseNumber": "550001883",
    "licenseEffectiveDate": "04/10/2025",
    "licenseExpirationDate": "04/09/2026",
    "dataDate": "10/18/2025",
    "capacity": 2,
    "address": "2427 N. CALIFORNIA STREET",
    "city": "STOCKTON",
    "zip": "95204",
    "county": "SAN JOAQUIN",
    "phone": "(209) 242-2299",
    "lat": 37.975968,
    "lng": -121.2916095
  },
  {
    "id": "630021898",
    "name": "NATIONAL SURGICAL CENTERS STOCKTON",
    "npi": "1922625995",
    "hcaiId": null,
    "businessName": null,
    "contactEmail": null,
    "categoryName": "SURGICAL CLINIC",
    "categoryCode": "ASC",
    "licenseStatus": null,
    "inService": null,
    "licenseNumber": null,
    "licenseEffectiveDate": null,
    "licenseExpirationDate": null,
    "dataDate": "10/18/2025",
    "capacity": 0,
    "address": "415 E HARDING WAY, SUITE E",
    "city": "STOCKTON",
    "zip": "95204",
    "county": "SAN JOAQUIN",
    "phone": null,
    "lat": 37.968921,
    "lng": -121.2900975
  },
  {
    "id": "030001823",
    "name": "NOBLE CARE CENTER",
    "npi": "1548843899",
    "hcaiId": "206391045",
    "businessName": "NOBLE CARE CENTER, LLC",
    "contactEmail": "ADMINISTRATOR@NOBLECARECENTER.ORG",
    "categoryName": "SKILLED NURSING FACILITY",
    "categoryCode": "SNF",
    "licenseStatus": "ACTIVE",
    "inService": true,
    "licenseNumber": "030000097",
    "licenseEffectiveDate": "11/01/2025",
    "licenseExpirationDate": "10/31/2026",
    "dataDate": "10/18/2025",
    "capacity": 99,
    "address": "2740 N. CALIFORNIA STREET",
    "city": "STOCKTON",
    "zip": "95204",
    "county": "SAN JOAQUIN",
    "phone": "(209) 466-3522",
    "lat": 37.977642,
    "lng": -121.2901425
  },
  {
    "id": "030000638",
    "name": "SAN JOAQUIN LASER AND SURGERY CENTER",
    "npi": "1730112178",
    "hcaiId": "306394023",
    "businessName": null,
    "contactEmail": "ONEVISION101@HOTMAIL.COM",
    "categoryName": "SURGICAL CLINIC",
    "categoryCode": "ASC",
    "licenseStatus": "INACTIVE - CAPEN DECISION",
    "inService": false,
    "licenseNumber": "030000469",
    "licenseEffectiveDate": "02/01/2008",
    "licenseExpirationDate": "01/31/2009",
    "dataDate": "10/18/2025",
    "capacity": 0,
    "address": "1805 N. CALIFORNIA STREET, SUITE 101A",
    "city": "STOCKTON",
    "zip": "95204",
    "county": "SAN JOAQUIN",
    "phone": "(209) 948-3241",
    "lat": 37.971189,
    "lng": -121.289805
  },
  {
    "id": "630013822",
    "name": "SATELLITE HEALTHCARE UNIVERSITY PARK",
    "npi": "1104190826",
    "hcaiId": "306394108",
    "businessName": "SATELLITE DIALYSIS OF SOUTH STOCKTON LLC",
    "contactEmail": "LICENSING@SATELLITEHEALTH.COM",
    "categoryName": "CHRONIC DIALYSIS CLINIC",
    "categoryCode": "ESRD/CDC",
    "licenseStatus": "ACTIVE",
    "inService": true,
    "licenseNumber": "550002047",
    "licenseEffectiveDate": "09/13/2025",
    "licenseExpirationDate": "09/12/2026",
    "dataDate": "10/18/2025",
    "capacity": 25,
    "address": "590 E. HARDING WAY",
    "city": "STOCKTON",
    "zip": "95204",
    "county": "SAN JOAQUIN",
    "phone": "(209) 774-5800",
    "lat": 37.96865435,
    "lng": -121.2867898
  },
  {
    "id": "030000862",
    "name": "ST. JOSEPH'S BEHAVIORAL HEALTH CENTER",
    "npi": "1053443473",
    "hcaiId": "106392232",
    "businessName": "PORT CITY OPERATING COMPANY, LLC",
    "contactEmail": "PAUL.RAINS@COMMONSPIRIT.ORG",
    "categoryName": "ACUTE PSYCHIATRIC HOSPITAL",
    "categoryCode": "APH",
    "licenseStatus": "ACTIVE",
    "inService": true,
    "licenseNumber": "030000367",
    "licenseEffectiveDate": "09/06/2025",
    "licenseExpirationDate": "09/05/2026",
    "dataDate": "10/18/2025",
    "capacity": 35,
    "address": "2510 N. CALIFORNIA STREET",
    "city": "STOCKTON",
    "zip": "95204",
    "county": "SAN JOAQUIN",
    "phone": "(209) 461-2020",
    "lat": 37.976724,
    "lng": -121.291065
  },
  {
    "id": "030000143",
    "name": "ST. JOSEPH'S MEDICAL CENTER OF STOCKTON",
    "npi": "1528190931",
    "hcaiId": "106391042",
    "businessName": "PORT CITY OPERATING COMPANY, LLC",
    "contactEmail": "DAVID.ZIOLKOWSKI@COMMONSPIRT.ORG",
    "categoryName": "GENERAL ACUTE CARE HOSPITAL",
    "categoryCode": "GACH",
    "licenseStatus": "ACTIVE",
    "inService": true,
    "licenseNumber": "030000284",
    "licenseEffectiveDate": "06/01/2025",
    "licenseExpirationDate": "05/31/2026",
    "dataDate": "10/18/2025",
    "capacity": 355,
    "address": "1800 N. CALIFORNIA STREET",
    "city": "STOCKTON",
    "zip": "95204",
    "county": "SAN JOAQUIN",
    "phone": "(209) 467-6384",
    "lat": 37.97046,
    "lng": -121.288257
  },
  {
    "id": "030001807",
    "name": "ST. JOSEPH'S SURGERY CENTER",
    "npi": "1619974219",
    "hcaiId": null,
    "businessName": null,
    "contactEmail": null,
    "categoryName": "SURGICAL CLINIC",
    "categoryCode": "ASC",
    "licenseStatus": null,
    "inService": null,
    "licenseNumber": null,
    "licenseEffectiveDate": null,
    "licenseExpirationDate": null,
    "dataDate": "10/18/2025",
    "capacity": 0,
    "address": "1800 N. CALIFORNIA STREET",
    "city": "STOCKTON",
    "zip": "95204",
    "county": "SAN JOAQUIN",
    "phone": "(209) 943-2000",
    "lat": 37.97046,
    "lng": -121.288257
  }
]