[
  {
    "id": "630019617",
    "name": "CAPC - BABY STEPS",
    "npi": "1285059923",
    "hcaiId": null,
    "businessName": "COMMUNITY MEDICAL CENTERS, INC.",
    "contactEmail": null,
    "categoryName": "PRIMARY CARE CLINIC",
    "categoryCode": "COMTYC",
    "licenseStatus": "ACTIVE",
    "inService": true,
    "licenseNumber": "550003006",
    "licenseEffectiveDate": "03/13/2025",
    "licenseExpirationDate": "03/12/2026",
    "dataDate": "10/18/2025",
    "capacity": 0,
    "address": "521 E MINER AVE",
    "city": "STOCKTON",
    "zip": "95202",
    "county": "SAN JOAQUIN",
    "phone": null,
    "lat": 37.95696,
    "lng": -121.284882
  },
  {
    "id": "630019611",
    "name": "CHILD ABUSE PREVENTION COUNCIL",
    "npi": "1285059923",
    "hcaiId": null,
    "businessName": "COMMUNITY MEDICAL CENTERS, INC.",
    "contactEmail": null,
    "categoryName": "PRIMARY CARE CLINIC",
    "categoryCode": "COMTYC",
    "licenseStatus": "ACTIVE",
    "inService": true,
    "licenseNumber": "550003006",
    "licenseEffectiveDate": "03/13/2025",
    "licenseExpirationDate": "03/12/2026",
    "dataDate": "10/18/2025",
    "capacity": 0,
    "address": "540 N CALIFORNIA ST",
    "city": "STOCKTON",
    "zip": "95202",
    "county": "SAN JOAQUIN",
    "phone": null,
    "lat": 37.959327,
    "lng": -121.285854
  },
  {
    "id": "630015765",
    "name": "CHILDREN'S HEALTH SERVICES - STOCKTON",
    "npi": "1083955801",
    "hcaiId": null,
    "businessName": null,
    "contactEmail": null,
    "categoryName": "PRIMARY CARE CLINIC",
    "categoryCode": "FQHC",
    "licenseStatus": null,
    "inService": null,
    "licenseNumber": null,
    "licenseEffectiveDate": null,
    "licenseExpirationDate": null,
    "dataDate": "10/18/2025",
    "capacity": 0,
    "address": "1414 N. CALIFORNIA STREET, SUITE A",
    "city": "STOCKTON",
    "zip": "95202",
    "county": "SAN JOAQUIN",
    "phone": null,
    "lat": 37.96756533,
    "lng": -121.2883247
  },
  {
    "id": "630019620",
    "name": "COMMUNITY ACTION PARTNERSHIP (CAP) OF KERN EARLY HEAD START - CALIFORNIA ST.",
    "npi": "1285059923",
    "hcaiId": null,
    "businessName": "COMMUNITY MEDICAL CENTERS, INC.",
    "contactEmail": null,
    "categoryName": "PRIMARY CARE CLINIC",
    "categoryCode": "COMTYC",
    "licenseStatus": "ACTIVE",
    "inService": true,
    "licenseNumber": "550003006",
    "licenseEffectiveDate": "03/13/2025",
    "licenseExpirationDate": "03/12/2026",
    "dataDate": "10/18/2025",
    "capacity": 0,
    "address": "425 N CALIFORNIA ST, SUITE 6",
    "city": "STOCKTON",
    "zip": "95202",
    "county": "SAN JOAQUIN",
    "phone": null,
    "lat": 37.95804,
    "lng": -121.286088
  },
  {
    "id": "630020958",
    "name": "COMMUNITY MEDICAL CENTERS, 747 CHANNEL",
    "npi": "1285059923",
    "hcaiId": null,
    "businessName": "COMMUNITY MEDICAL CENTERS, INC.",
    "contactEmail": null,
    "categoryName": "PRIMARY CARE CLINIC",
    "categoryCode": "COMTYC",
    "licenseStatus": "ACTIVE",
    "inService": true,
    "licenseNumber": "550003006",
    "licenseEffectiveDate": "03/13/2025",
    "licenseExpirationDate": "03/12/2026",
    "dataDate": "10/18/2025",
    "capacity": 0,
    "address": "747 E CHANNEL ST",
    "city": "STOCKTON",
    "zip": "95202",
    "county": "SAN JOAQUIN",
    "phone": null,
    "lat": 37.95613769,
    "lng": -121.2819328
  },
  {
    "id": "030001344",
    "name": "COMMUNITY MEDICAL CENTERS, CHANNEL",
    "npi": "1578552543",
    "hcaiId": "306394036",
    "businessName": "COMMUNITY MEDICAL CENTERS, INC.",
    "contactEmail": "LICENSING@CMCENTERS.ORG",
    "categoryName": "PRIMARY CARE CLINIC",
    "categoryCode": "COMTYC",
    "licenseStatus": "ACTIVE",
    "inService": true,
    "licenseNumber": "030000561",
    "licenseEffectiveDate": "11/01/2025",
    "licenseExpirationDate": "10/31/2026",
    "dataDate": "10/18/2025",
    "capacity": 0,
    "address": "701 E. CHANNEL STREET",
    "city": "STOCKTON",
    "zip": "95202",
    "county": "SAN JOAQUIN",
    "phone": "(209) 373-3800",
    "lat": 37.956303,
    "lng": -121.282236
  },
  {
    "id": "630021127",
    "name": "COMMUNITY MEDICAL CENTERS, RESPITE CENTER",
    "npi": "1285059923",
    "hcaiId": null,
    "businessName": "COMMUNITY MEDICAL CENTERS, INC.",
    "contactEmail": "MFLORES@CMCENTERS.ORG",
    "categoryName": "PRIMARY CARE CLINIC",
    "categoryCode": "COMTYC",
    "licenseStatus": "ACTIVE",
    "inService": true,
    "licenseNumber": "550003006",
    "licenseEffectiveDate": "03/13/2025",
    "licenseExpirationDate": "03/12/2026",
    "dataDate": "10/18/2025",
    "capacity": 0,
    "address": "201 N STANISLAUS ST, SUITE 101",
    "city": "STOCKTON",
    "zip": "95202",
    "county": "SAN JOAQUIN",
    "phone": "(209) 373-2831",
    "lat": 37.956141,
    "lng": -121.28301
  },
  {
    "id": "630017355",
    "name": "COMMUNITY MEDICAL CENTERS, WIC STOCKTON",
    "npi": "1578552543",
    "hcaiId": null,
    "businessName": "COMMUNITY MEDICAL CENTERS, INC.",
    "contactEmail": null,
    "categoryName": "PRIMARY CARE CLINIC",
    "categoryCode": "COMTYC",
    "licenseStatus": "ACTIVE",
    "inService": true,
    "licenseNumber": "030000561",
    "licenseEffectiveDate": "11/01/2025",
    "licenseExpirationDate": "10/31/2026",
    "dataDate": "10/18/2025",
    "capacity": 0,
    "address": "425 N CALIFORNIA ST, SUITE 7",
    "city": "STOCKTON",
    "zip": "95202",
    "county": "SAN JOAQUIN",
    "phone": null,
    "lat": 37.95804,
    "lng": -121.286088
  },
  {
    "id": "630015767",
    "name": "FAMILY PRACTICE CALIFORNIA STREET",
    "npi": "1891036612",
    "hcaiId": null,
    "businessName": null,
    "contactEmail": null,
    "categoryName": "PRIMARY CARE CLINIC",
    "categoryCode": "FQHC",
    "licenseStatus": null,
    "inService": null,
    "licenseNumber": null,
    "licenseEffectiveDate": null,
    "licenseExpirationDate": null,
    "dataDate": "10/18/2025",
    "capacity": 0,
    "address": "1414 N. CALIFORNIA STREET, SUITE C",
    "city": "STOCKTON",
    "zip": "95202",
    "county": "SAN JOAQUIN",
    "phone": "(209) 468-9540",
    "lat": 37.96756533,
    "lng": -121.2883247
  },
  {
    "id": "630015766",
    "name": "HEALTHY BEGINNINGS - CALIFORNIA STREET CLINIC",
    "npi": "1538400353",
    "hcaiId": null,
    "businessName": null,
    "contactEmail": null,
    "categoryName": "PRIMARY CARE CLINIC",
    "categoryCode": "FQHC",
    "licenseStatus": null,
    "inService": null,
    "licenseNumber": null,
    "licenseEffectiveDate": null,
    "licenseExpirationDate": null,
    "dataDate": "10/18/2025",
    "capacity": 0,
    "address": "1414 N. CALIFORNIA STREET, SUITE B",
    "city": "STOCKTON",
    "zip": "95202",
    "county": "SAN JOAQUIN",
    "phone": null,
    "lat": 37.96756533,
    "lng": -121.2883247
  },
  {
    "id": "630017031",
    "name": "HOME HEALTH OF CALIFORNIA INC",
    "npi": "1578911459",
    "hcaiId": "406391401",
    "businessName": "HOME HEALTH OF CALIFORNIA INC",
    "contactEmail": "QAPI@HOMEHEALTHCA.ORG",
    "categoryName": "HOME HEALTH AGENCY",
    "categoryCode": "HHA",
    "licenseStatus": "ACTIVE",
    "inService": true,
    "licenseNumber": "550004466",
    "licenseEffectiveDate": "11/10/2025",
    "licenseExpirationDate": "11/09/2026",
    "dataDate": "10/18/2025",
    "capacity": 0,
    "address": "1145 N CALIFORNIA ST, SUITE 205",
    "city": "STOCKTON",
    "zip": "95202",
    "county": "SAN JOAQUIN",
    "phone": "(209) 463-8005",
    "lat": 37.965204,
    "lng": -121.2879915
  },
  {
    "id": "630015745",
    "name": "INFINITY CARE SERVICES HOSPICE",
    "npi": null,
    "hcaiId": "406394119",
    "businessName": "INFINITY CARE SERVICES, INC.",
    "contactEmail": "GROWE@INFINITYCARES.COM",
    "categoryName": "HOSPICE",
    "categoryCode": "HOSPICE",
    "licenseStatus": "ACTIVE",
    "inService": true,
    "licenseNumber": "550002941",
    "licenseEffectiveDate": "01/07/2025",
    "licenseExpirationDate": "01/06/2027",
    "dataDate": "10/18/2025",
    "capacity": 0,
    "address": "1325 N. CENTER STREET, SUITE 2B",
    "city": "STOCKTON",
    "zip": "95202",
    "county": "SAN JOAQUIN",
    "phone": "(800) 294-1461",
    "lat": 37.965753,
    "lng": -121.295124
  },
  {
    "id": "630012331",
    "name": "INFINITY CARE SERVICES, INC",
    "npi": "1104057991",
    "hcaiId": "406394100",
    "businessName": "INFINITY CARE SERVICES, INC.",
    "contactEmail": "GROWE@INFINITYCARES.NET",
    "categoryName": "HOME HEALTH AGENCY",
    "categoryCode": "HHA",
    "licenseStatus": "ACTIVE",
    "inService": true,
    "licenseNumber": "550001165",
    "licenseEffectiveDate": "11/17/2024",
    "licenseExpirationDate": "11/16/2025",
    "dataDate": "10/18/2025",
    "capacity": 0,
    "address": "1325 N. CENTER STREET, SUITE 2A",
    "city": "STOCKTON",
    "zip": "95202",
    "county": "SAN JOAQUIN",
    "phone": "(209) 264-0300",
    "lat": 37.965753,
    "lng": -121.295124
  },
  {
    "id": "630026859",
    "name": "STOCKTON REGIONAL REHABILITATION HOSPITAL",
    "npi": "1386390755",
    "hcaiId": "106394128",
    "businessName": "STOCKTON REGIONAL REHABILITATION HOSPITAL LLC",
    "contactEmail": "JUSTINJOY@ERNESTHEALTH.COM",
    "categoryName": "GENERAL ACUTE CARE HOSPITAL",
    "categoryCode": "GACH",
    "licenseStatus": "ACTIVE",
    "inService": true,
    "licenseNumber": "550008586",
    "licenseEffectiveDate": "06/21/2025",
    "licenseExpirationDate": "06/20/2026",
    "dataDate": "10/18/2025",
    "capacity": 50,
    "address": "607 E MAGNOLIA ST",
    "city": "STOCKTON",
    "zip": "95202",
    "county": "SAN JOAQUIN",
    "phone": "(209) 687-5490",
    "lat": 37.9647742,
    "lng": -121.2857902
  }
]