[
  {
    "id": "630022683",
    "name": "1ST CHOICE HOME HEALTHCARE",
    "npi": null,
    "hcaiId": "406395317",
    "businessName": "1ST CHOICE HOME HEALTHCARE LATHROP, INC.",
    "contactEmail": "AAMIR@FIRSTCHOICE-HHA.COM",
    "categoryName": "HOME HEALTH AGENCY",
    "categoryCode": "HHA",
    "licenseStatus": "ACTIVE",
    "inService": true,
    "licenseNumber": "550008021",
    "licenseEffectiveDate": "06/01/2025",
    "licenseExpirationDate": "05/31/2026",
    "dataDate": "10/18/2025",
    "capacity": 0,
    "address": "2321 W MARCH LN, SUITE 220B",
    "city": "STOCKTON",
    "zip": "95207",
    "county": "SAN JOAQUIN",
    "phone": "(650) 822-3398",
    "lat": 37.985904,
    "lng": -121.3357095
  },
  {
    "id": "100000032",
    "name": "BROOKSIDE CARE CENTER",
    "npi": "1366025520",
    "hcaiId": "206390826",
    "businessName": "BROOKSIDE CARE CENTER, LLC",
    "contactEmail": "ADMINISTRATOR@BROOKSIDECARE.ORG",
    "categoryName": "SKILLED NURSING FACILITY",
    "categoryCode": "SNF",
    "licenseStatus": "ACTIVE",
    "inService": true,
    "licenseNumber": "100000021",
    "licenseEffectiveDate": "01/30/2025",
    "licenseExpirationDate": "01/29/2026",
    "dataDate": "10/18/2025",
    "capacity": 99,
    "address": "1221 ROSEMARIE LANE",
    "city": "STOCKTON",
    "zip": "95207",
    "county": "SAN JOAQUIN",
    "phone": "(209) 477-2664",
    "lat": 37.987443,
    "lng": -121.3200495
  },
  {
    "id": "630014090",
    "name": "COMMUNITY HOSPICE, INC.",
    "npi": null,
    "hcaiId": "406391319",
    "businessName": "COMMUNITY HOSPICE INC.",
    "contactEmail": "DESHA.MCLEOD@HOSPICEHEART.ORG",
    "categoryName": "HOSPICE",
    "categoryCode": "HOSPICE",
    "licenseStatus": "ACTIVE",
    "inService": true,
    "licenseNumber": "100000613",
    "licenseEffectiveDate": "11/02/2024",
    "licenseExpirationDate": "11/01/2026",
    "dataDate": "10/18/2025",
    "capacity": 0,
    "address": "2431 W MARCH LN, SUITE 100",
    "city": "STOCKTON",
    "zip": "95207",
    "county": "SAN JOAQUIN",
    "phone": "(209) 477-6300",
    "lat": 37.986696,
    "lng": -121.337838
  },
  {
    "id": "630021463",
    "name": "COMMUNITY MEDICAL CENTERS, DELTA COLLEGE HEALTH CENTER",
    "npi": "1285059923",
    "hcaiId": null,
    "businessName": "COMMUNITY MEDICAL CENTERS, INC.",
    "contactEmail": "MFLORES@CMCENTERS.ORG",
    "categoryName": "PRIMARY CARE CLINIC",
    "categoryCode": "COMTYC",
    "licenseStatus": "ACTIVE",
    "inService": true,
    "licenseNumber": "550003006",
    "licenseEffectiveDate": "03/13/2025",
    "licenseExpirationDate": "03/12/2026",
    "dataDate": "10/18/2025",
    "capacity": 0,
    "address": "5151 PACIFIC AVE, ROOM 126",
    "city": "STOCKTON",
    "zip": "95207",
    "county": "SAN JOAQUIN",
    "phone": "(209) 373-2831",
    "lat": 37.996318,
    "lng": -121.314781
  },
  {
    "id": "630017319",
    "name": "COMMUNITY MEDICAL CENTERS, WEBERSTOWN",
    "npi": "1932633930",
    "hcaiId": "306394131",
    "businessName": "COMMUNITY MEDICAL CENTERS, INC.",
    "contactEmail": "LICENSING@CMCENTERS.ORG",
    "categoryName": "PRIMARY CARE CLINIC",
    "categoryCode": "COMTYC",
    "licenseStatus": "ACTIVE",
    "inService": true,
    "licenseNumber": "550003957",
    "licenseEffectiveDate": "09/18/2025",
    "licenseExpirationDate": "09/17/2026",
    "dataDate": "10/18/2025",
    "capacity": 0,
    "address": "83 W MARCH LN",
    "city": "STOCKTON",
    "zip": "95207",
    "county": "SAN JOAQUIN",
    "phone": "(209) 373-2800",
    "lat": 37.995903,
    "lng": -121.307733
  },
  {
    "id": "630026970",
    "name": "COMMUNITY MEDICAL CENTERS, WEBERSTOWN MEDICAL",
    "npi": "1285059923",
    "hcaiId": null,
    "businessName": "COMMUNITY MEDICAL CENTERS, INC.",
    "contactEmail": null,
    "categoryName": "PRIMARY CARE CLINIC",
    "categoryCode": "COMTYC",
    "licenseStatus": "ACTIVE",
    "inService": true,
    "licenseNumber": "550003006",
    "licenseEffectiveDate": "03/13/2025",
    "licenseExpirationDate": "03/12/2026",
    "dataDate": "10/18/2025",
    "capacity": 0,
    "address": "87 W MARCH LN, SUITE 3",
    "city": "STOCKTON",
    "zip": "95207",
    "county": "SAN JOAQUIN",
    "phone": null,
    "lat": 37.995039,
    "lng": -121.307994
  },
  {
    "id": "100000035",
    "name": "CRESTWOOD MANOR",
    "npi": "1730128174",
    "hcaiId": "206392343",
    "businessName": "CRESTWOOD BEHAVIORAL HEALTH, INC.",
    "contactEmail": "MCARRICK@CBHI.NET",
    "categoryName": "SKILLED NURSING FACILITY",
    "categoryCode": "SNF",
    "licenseStatus": "ACTIVE",
    "inService": true,
    "licenseNumber": "100000227",
    "licenseEffectiveDate": "01/01/2025",
    "licenseExpirationDate": "12/31/2025",
    "dataDate": "10/18/2025",
    "capacity": 190,
    "address": "1130 MONACO COURT",
    "city": "STOCKTON",
    "zip": "95207",
    "county": "SAN JOAQUIN",
    "phone": "(209) 478-2060",
    "lat": 37.988622,
    "lng": -121.320324
  },
  {
    "id": "100000049",
    "name": "DELTA OAKS POST ACUTE",
    "npi": "1396881033",
    "hcaiId": "206390865",
    "businessName": "WINDSOR ELMHAVEN CARE CENTER, LLC",
    "contactEmail": "ADMINISTRATOR@WINDSORELMHAVEN.COM",
    "categoryName": "SKILLED NURSING FACILITY",
    "categoryCode": "SNF",
    "licenseStatus": "ACTIVE",
    "inService": true,
    "licenseNumber": "100000034",
    "licenseEffectiveDate": "09/18/2025",
    "licenseExpirationDate": "11/17/2025",
    "dataDate": "10/18/2025",
    "capacity": 128,
    "address": "6940 PACIFIC AVENUE",
    "city": "STOCKTON",
    "zip": "95207",
    "county": "SAN JOAQUIN",
    "phone": "(209) 629-9476",
    "lat": 38.013516,
    "lng": -121.3210035
  },
  {
    "id": "630013020",
    "name": "DHK MANOR",
    "npi": "1750687687",
    "hcaiId": null,
    "businessName": "DHK MANOR,  INC.",
    "contactEmail": "DHK.MANOR@GMAIL.COM",
    "categoryName": "INTERMEDIATE CARE FACILITY-DD/H/N/CN/IID",
    "categoryCode": "ICFDDN",
    "licenseStatus": "ACTIVE",
    "inService": true,
    "licenseNumber": "550001601",
    "licenseEffectiveDate": "06/03/2025",
    "licenseExpirationDate": "06/02/2026",
    "dataDate": "10/18/2025",
    "capacity": 6,
    "address": "4513 AUGUSTUS COURT",
    "city": "STOCKTON",
    "zip": "95207",
    "county": "SAN JOAQUIN",
    "phone": "(209) 478-9833",
    "lat": 37.984869,
    "lng": -121.3292565
  },
  {
    "id": "630028370",
    "name": "DIRECTIONS MEDICAL CLINIC",
    "npi": null,
    "hcaiId": null,
    "businessName": "DIRECTIONS MEDICAL CLINIC",
    "contactEmail": null,
    "categoryName": "PRIMARY CARE CLINIC",
    "categoryCode": "FREEC",
    "licenseStatus": "ACTIVE",
    "inService": true,
    "licenseNumber": "030000633",
    "licenseEffectiveDate": "11/29/2024",
    "licenseExpirationDate": "11/28/2025",
    "dataDate": "10/18/2025",
    "capacity": 0,
    "address": "829 ROSEMARIE LN, SUITE B",
    "city": "STOCKTON",
    "zip": "95207",
    "county": "SAN JOAQUIN",
    "phone": null,
    "lat": 37.988549,
    "lng": -121.314205
  },
  {
    "id": "100001687",
    "name": "DUKE FACILITIES, INC. #2",
    "npi": "1154470953",
    "hcaiId": null,
    "businessName": "DUKE FACILITIES, INC.",
    "contactEmail": "BPDUKE.DFI@GMAIL.COM",
    "categoryName": "INTERMEDIATE CARE FACILITY-DD/H/N/CN/IID",
    "categoryCode": "ICFDDH",
    "licenseStatus": "ACTIVE",
    "inService": true,
    "licenseNumber": "100000709",
    "licenseEffectiveDate": "04/01/2025",
    "licenseExpirationDate": "03/31/2026",
    "dataDate": "10/18/2025",
    "capacity": 6,
    "address": "238 VINCENTE WAY",
    "city": "STOCKTON",
    "zip": "95207",
    "county": "SAN JOAQUIN",
    "phone": "(209) 482-3476",
    "lat": 38.014551,
    "lng": -121.306635
  },
  {
    "id": "630002961",
    "name": "DUKE FACILITIES, INC. #3",
    "npi": "1962551713",
    "hcaiId": null,
    "businessName": "DUKE FACILITIES, INC.",
    "contactEmail": "BPDUKE.DFI@GMAIL.COM",
    "categoryName": "INTERMEDIATE CARE FACILITY-DD/H/N/CN/IID",
    "categoryCode": "ICFDDH",
    "licenseStatus": "ACTIVE",
    "inService": true,
    "licenseNumber": "550000114",
    "licenseEffectiveDate": "11/27/2024",
    "licenseExpirationDate": "11/26/2025",
    "dataDate": "10/18/2025",
    "capacity": 6,
    "address": "403 GOYA DRIVE",
    "city": "STOCKTON",
    "zip": "95207",
    "county": "SAN JOAQUIN",
    "phone": "(209) 482-3476",
    "lat": 38.0186222,
    "lng": -121.3059504
  },
  {
    "id": "630011994",
    "name": "DUKE FACILITIES, INC. #4",
    "npi": "1659525061",
    "hcaiId": null,
    "businessName": "DUKE FACILITIES, INC.",
    "contactEmail": "SARAHDUKE.DFI@GMAIL.COM",
    "categoryName": "INTERMEDIATE CARE FACILITY-DD/H/N/CN/IID",
    "categoryCode": "ICFDDH",
    "licenseStatus": "ACTIVE",
    "inService": true,
    "licenseNumber": "550000885",
    "licenseEffectiveDate": "02/25/2025",
    "licenseExpirationDate": "02/24/2026",
    "dataDate": "10/18/2025",
    "capacity": 6,
    "address": "6142 GREENFIELD LANE",
    "city": "STOCKTON",
    "zip": "95207",
    "county": "SAN JOAQUIN",
    "phone": "(209) 482-3476",
    "lat": 38.01123,
    "lng": -121.299939
  },
  {
    "id": "630016774",
    "name": "DUKE FACILITIES, INC. #5",
    "npi": null,
    "hcaiId": null,
    "businessName": "DUKE FACILITIES, INC.",
    "contactEmail": "BPDUKE@GMAIL.COM",
    "categoryName": "INTERMEDIATE CARE FACILITY-DD/H/N/CN/IID",
    "categoryCode": "ICFDDH",
    "licenseStatus": "ACTIVE",
    "inService": true,
    "licenseNumber": "550003942",
    "licenseEffectiveDate": "07/26/2024",
    "licenseExpirationDate": "07/25/2025",
    "dataDate": "10/18/2025",
    "capacity": 6,
    "address": "620 EAST GARNER LANE",
    "city": "STOCKTON",
    "zip": "95207",
    "county": "SAN JOAQUIN",
    "phone": "(209) 482-3476",
    "lat": 38.00727,
    "lng": -121.301064
  },
  {
    "id": "630017362",
    "name": "EMERALD HEALTH AND WELLNESS",
    "npi": "1881134906",
    "hcaiId": "406391550",
    "businessName": "OURFIRST INC.",
    "contactEmail": "LEILAYEE@YAHOO.COM",
    "categoryName": "HOME HEALTH AGENCY",
    "categoryCode": "HHA",
    "licenseStatus": "ACTIVE",
    "inService": true,
    "licenseNumber": "550004530",
    "licenseEffectiveDate": "01/29/2025",
    "licenseExpirationDate": "01/28/2026",
    "dataDate": "10/18/2025",
    "capacity": 0,
    "address": "1151 W ROBINHOOD DR, SUITE B-5",
    "city": "STOCKTON",
    "zip": "95207",
    "county": "SAN JOAQUIN",
    "phone": "(510) 789-8282",
    "lat": 37.999827,
    "lng": -121.3214085
  },
  {
    "id": "100001802",
    "name": "FOCUS HEALTH",
    "npi": "1437258464",
    "hcaiId": "406394077",
    "businessName": "REHABFOCUS HOME HEALTH, INC.",
    "contactEmail": "WKESSINGER@ELEVATEHOMEHEALTH.COM",
    "categoryName": "HOME HEALTH AGENCY",
    "categoryCode": "HHA",
    "licenseStatus": "ACTIVE",
    "inService": true,
    "licenseNumber": "100000770",
    "licenseEffectiveDate": "11/25/2024",
    "licenseExpirationDate": "11/24/2025",
    "dataDate": "10/18/2025",
    "capacity": 0,
    "address": "4643 QUAIL LAKES DR, SUITE 101",
    "city": "STOCKTON",
    "zip": "95207",
    "county": "SAN JOAQUIN",
    "phone": "(209) 472-7005",
    "lat": 37.98709599,
    "lng": -121.343393
  },
  {
    "id": "100001194",
    "name": "HOLISTIC APPROACH INC.",
    "npi": "1609946003",
    "hcaiId": "406394084",
    "businessName": "HOLISTIC APPROACH INC.",
    "contactEmail": "SYLVIAMSN@HOLISTICAPPROACHINC.NET",
    "categoryName": "HOME HEALTH AGENCY",
    "categoryCode": "HHA",
    "licenseStatus": "ACTIVE",
    "inService": true,
    "licenseNumber": "100000497",
    "licenseEffectiveDate": "11/15/2024",
    "licenseExpirationDate": "11/14/2025",
    "dataDate": "10/18/2025",
    "capacity": 0,
    "address": "5250 CLAREMONT AVE, SUITE 248",
    "city": "STOCKTON",
    "zip": "95207",
    "county": "SAN JOAQUIN",
    "phone": "(209) 956-7050",
    "lat": 37.998738,
    "lng": -121.3094205
  },
  {
    "id": "630026724",
    "name": "HOME CARE FOR THE 21ST CENTURY STOCKTON",
    "npi": null,
    "hcaiId": "406390020",
    "businessName": "21ST CENTURY HOME CARE LLC",
    "contactEmail": "ELMAR.SIBAYAN@HC21ST.COM",
    "categoryName": "HOME HEALTH AGENCY",
    "categoryCode": "HHA",
    "licenseStatus": "ACTIVE",
    "inService": true,
    "licenseNumber": "550008944",
    "licenseEffectiveDate": "02/01/2025",
    "licenseExpirationDate": "01/31/2026",
    "dataDate": "10/18/2025",
    "capacity": 0,
    "address": "1743 GRAND CANAL BLVD, SUITE 11",
    "city": "STOCKTON",
    "zip": "95207",
    "county": "SAN JOAQUIN",
    "phone": "(559) 802-0518",
    "lat": 37.986724,
    "lng": -121.327406
  },
  {
    "id": "630011088",
    "name": "INTERIM HEALTHCARE OF CALIFORNIA - BRANCH",
    "npi": "1902848211",
    "hcaiId": "406504063",
    "businessName": "SYNERGY HEALTH COMPANIES, INC",
    "contactEmail": null,
    "categoryName": "HOME HEALTH AGENCY",
    "categoryCode": "HHA",
    "licenseStatus": "ACTIVE",
    "inService": true,
    "licenseNumber": "100000457",
    "licenseEffectiveDate": "04/19/2025",
    "licenseExpirationDate": "04/18/2026",
    "dataDate": "10/18/2025",
    "capacity": 0,
    "address": "5250 CLAREMONT AVE, SUITE 121",
    "city": "STOCKTON",
    "zip": "95207",
    "county": "SAN JOAQUIN",
    "phone": "(209) 472-6040",
    "lat": 37.998738,
    "lng": -121.3094205
  },
  {
    "id": "100001800",
    "name": "J & M'S ICF/DDH HOME",
    "npi": "1992912513",
    "hcaiId": null,
    "businessName": "CARCIDO'S HOMES. INC.",
    "contactEmail": "JNMCARCIDO@GMAIL.COM",
    "categoryName": "INTERMEDIATE CARE FACILITY-DD/H/N/CN/IID",
    "categoryCode": "ICFDDH",
    "licenseStatus": "ACTIVE",
    "inService": true,
    "licenseNumber": "100000769",
    "licenseEffectiveDate": "11/16/2024",
    "licenseExpirationDate": "11/15/2025",
    "dataDate": "10/18/2025",
    "capacity": 6,
    "address": "1905 AMBERWOOD COURT",
    "city": "STOCKTON",
    "zip": "95207",
    "county": "SAN JOAQUIN",
    "phone": "(209) 952-3833",
    "lat": 37.982961,
    "lng": -121.327839
  },
  {
    "id": "100000073",
    "name": "OAK GROVE POST ACUTE",
    "npi": "1447817739",
    "hcaiId": "206390910",
    "businessName": "4545 SHELLEY COURT OPCO, LLC",
    "contactEmail": "ADMINISTRATOR@STOCKTONNRC.COM",
    "categoryName": "SKILLED NURSING FACILITY",
    "categoryCode": "SNF",
    "licenseStatus": "ACTIVE",
    "inService": true,
    "licenseNumber": "100000051",
    "licenseEffectiveDate": "11/01/2025",
    "licenseExpirationDate": "10/31/2026",
    "dataDate": "10/18/2025",
    "capacity": 119,
    "address": "4545 SHELLEY COURT",
    "city": "STOCKTON",
    "zip": "95207",
    "county": "SAN JOAQUIN",
    "phone": "(209) 477-0271",
    "lat": 37.992609,
    "lng": -121.303719
  },
  {
    "id": "030000249",
    "name": "PLANNED PARENTHOOD MAR MONTE - NORTH STOCKTON HEALTH CENTER",
    "npi": "1366496838",
    "hcaiId": "306394110",
    "businessName": "PLANNED PARENTHOOD MAR MONTE, INC.",
    "contactEmail": "SERVICES_ADMIN@PPMARMONTE.ORG",
    "categoryName": "PRIMARY CARE CLINIC",
    "categoryCode": "COMTYC",
    "licenseStatus": "ACTIVE",
    "inService": true,
    "licenseNumber": "030000211",
    "licenseEffectiveDate": "01/31/2025",
    "licenseExpirationDate": "01/30/2026",
    "dataDate": "10/18/2025",
    "capacity": 0,
    "address": "4555 PRECISSI LANE",
    "city": "STOCKTON",
    "zip": "95207",
    "county": "SAN JOAQUIN",
    "phone": "(209) 472-6633",
    "lat": 37.989135,
    "lng": -121.3153965
  },
  {
    "id": "630014446",
    "name": "PROHEALTH HOME CARE, INC.",
    "npi": "1952855447",
    "hcaiId": "406394115",
    "businessName": "PROHEALTH HOME CARE, INC.",
    "contactEmail": "MARLEEN@PROHEALTH.US",
    "categoryName": "HOME HEALTH AGENCY",
    "categoryCode": "HHA",
    "licenseStatus": "ACTIVE",
    "inService": true,
    "licenseNumber": "550002611",
    "licenseEffectiveDate": "07/18/2025",
    "licenseExpirationDate": "02/26/2026",
    "dataDate": "10/18/2025",
    "capacity": 0,
    "address": "1776 W MARCH LN, SUITE 400A",
    "city": "STOCKTON",
    "zip": "95207",
    "county": "SAN JOAQUIN",
    "phone": "(877) 667-8770",
    "lat": 37.98711,
    "lng": -121.326912
  },
  {
    "id": "630014495",
    "name": "PROHEALTH HOME CARE, INC.",
    "npi": "1538507587",
    "hcaiId": "406394114",
    "businessName": "PROHEALTH HOME CARE, INC.",
    "contactEmail": "MARLEEN@PROHEALTH.US",
    "categoryName": "HOSPICE",
    "categoryCode": "HOSPICE",
    "licenseStatus": "ACTIVE",
    "inService": true,
    "licenseNumber": "550002613",
    "licenseEffectiveDate": "02/27/2024",
    "licenseExpirationDate": "02/26/2026",
    "dataDate": "10/18/2025",
    "capacity": 0,
    "address": "1776 W MARCH LN, SUITE 400B",
    "city": "STOCKTON",
    "zip": "95207",
    "county": "SAN JOAQUIN",
    "phone": "(877) 667-8770",
    "lat": 37.98711,
    "lng": -121.326912
  },
  {
    "id": "030001632",
    "name": "SELECT PHYSICAL THERAPY",
    "npi": "1649206467",
    "hcaiId": null,
    "businessName": null,
    "contactEmail": null,
    "categoryName": "REHABILITATION CLINIC",
    "categoryCode": "OPT/SP",
    "licenseStatus": null,
    "inService": null,
    "licenseNumber": null,
    "licenseEffectiveDate": null,
    "licenseExpirationDate": null,
    "dataDate": "10/18/2025",
    "capacity": 0,
    "address": "707 LINCOLN CENTER",
    "city": "STOCKTON",
    "zip": "95207",
    "county": "SAN JOAQUIN",
    "phone": "(209) 478-3900",
    "lat": 38.01172296,
    "lng": -121.3236319
  },
  {
    "id": "630012038",
    "name": "SERVICE FIRST OF NORTHERN CALIFORNIA",
    "npi": "1689880809",
    "hcaiId": null,
    "businessName": null,
    "contactEmail": null,
    "categoryName": "REHABILITATION CLINIC",
    "categoryCode": "OPT/SP",
    "licenseStatus": null,
    "inService": null,
    "licenseNumber": null,
    "licenseEffectiveDate": null,
    "licenseExpirationDate": null,
    "dataDate": "10/18/2025",
    "capacity": 0,
    "address": "102 W. BIANCHI ROAD",
    "city": "STOCKTON",
    "zip": "95207",
    "county": "SAN JOAQUIN",
    "phone": "(209) 644-6320",
    "lat": 37.990854,
    "lng": -121.30578
  },
  {
    "id": "630014990",
    "name": "ST. PAUL'S ICFDDN",
    "npi": "1952728412",
    "hcaiId": null,
    "businessName": "GAPUZ INCORPORATED",
    "contactEmail": "MINERVINAGAPUZ@GMAIL.COM",
    "categoryName": "INTERMEDIATE CARE FACILITY-DD/H/N/CN/IID",
    "categoryCode": "ICFDDN",
    "licenseStatus": "ACTIVE",
    "inService": true,
    "licenseNumber": "550003059",
    "licenseEffectiveDate": "04/29/2025",
    "licenseExpirationDate": "04/28/2026",
    "dataDate": "10/18/2025",
    "capacity": 6,
    "address": "409 WOODSTOCK DRIVE",
    "city": "STOCKTON",
    "zip": "95207",
    "county": "SAN JOAQUIN",
    "phone": "(209) 610-3867",
    "lat": 38.00043,
    "lng": -121.3012305
  },
  {
    "id": "030001635",
    "name": "STAGG HEALTHY START CENTER",
    "npi": null,
    "hcaiId": "306394058",
    "businessName": "DELTA HEALTH CARE AND MANAGEMENT SERVICES, CORP.",
    "contactEmail": "BWILLIAMS@DELTAHEALTHCARE.ORG",
    "categoryName": "PRIMARY CARE CLINIC",
    "categoryCode": "COMTYC",
    "licenseStatus": "ACTIVE",
    "inService": true,
    "licenseNumber": "030000681",
    "licenseEffectiveDate": "06/04/2025",
    "licenseExpirationDate": "06/03/2026",
    "dataDate": "10/18/2025",
    "capacity": 0,
    "address": "1621 BROOKSIDE ROAD",
    "city": "STOCKTON",
    "zip": "95207",
    "county": "SAN JOAQUIN",
    "phone": "(209) 933-7445",
    "lat": 37.983303,
    "lng": -121.3255395
  },
  {
    "id": "030000292",
    "name": "STEVENS KIM, MD/STEPHEN LIN, MD MEDICAL GROUP INC",
    "npi": "1669540118",
    "hcaiId": null,
    "businessName": null,
    "contactEmail": null,
    "categoryName": "SURGICAL CLINIC",
    "categoryCode": "ASC",
    "licenseStatus": null,
    "inService": null,
    "licenseNumber": null,
    "licenseEffectiveDate": null,
    "licenseExpirationDate": null,
    "dataDate": "10/18/2025",
    "capacity": 0,
    "address": "36 W. YOKUTS AVENUE, SUITE 3",
    "city": "STOCKTON",
    "zip": "95207",
    "county": "SAN JOAQUIN",
    "phone": "(209) 952-1189",
    "lat": 37.997811,
    "lng": -121.307202
  },
  {
    "id": "110001261",
    "name": "STOCKTON HOME TRAINING DIALYSIS",
    "npi": "1437124476",
    "hcaiId": null,
    "businessName": null,
    "contactEmail": null,
    "categoryName": "CHRONIC DIALYSIS CLINIC",
    "categoryCode": "ESRD",
    "licenseStatus": null,
    "inService": null,
    "licenseNumber": null,
    "licenseEffectiveDate": null,
    "licenseExpirationDate": null,
    "dataDate": "10/18/2025",
    "capacity": 0,
    "address": "5608 N. PERSHING AVENUE",
    "city": "STOCKTON",
    "zip": "95207",
    "county": "SAN JOAQUIN",
    "phone": "(209) 954-9563",
    "lat": 37.998594,
    "lng": -121.324995
  },
  {
    "id": "100001649",
    "name": "TRI-VALLEY HOME HEALTH CARE, INC.",
    "npi": "1316088099",
    "hcaiId": "406394059",
    "businessName": "TRI-VALLEY HOME HEALTH CARE, INC.",
    "contactEmail": "TVHHCI@YAHOO.COM",
    "categoryName": "HOME HEALTH AGENCY",
    "categoryCode": "HHA",
    "licenseStatus": "ACTIVE",
    "inService": true,
    "licenseNumber": "100000689",
    "licenseEffectiveDate": "11/15/2024",
    "licenseExpirationDate": "11/14/2025",
    "dataDate": "10/18/2025",
    "capacity": 0,
    "address": "1231 W ROBINHOOD DR, SUITE D5",
    "city": "STOCKTON",
    "zip": "95207",
    "county": "SAN JOAQUIN",
    "phone": "(209) 957-0708",
    "lat": 37.999458,
    "lng": -121.322124
  }
]