[
  {
    "id": "630027563",
    "name": "COMMUNITY MEDICAL CENTERS, CARELINK COMMUNITY RESPONSE MOBILE UNIT 106",
    "npi": "1285059923",
    "hcaiId": null,
    "businessName": "COMMUNITY MEDICAL CENTERS, INC.",
    "contactEmail": null,
    "categoryName": "PRIMARY CARE CLINIC",
    "categoryCode": "COMTYC",
    "licenseStatus": "ACTIVE",
    "inService": true,
    "licenseNumber": "550003006",
    "licenseEffectiveDate": "03/13/2025",
    "licenseExpirationDate": "03/12/2026",
    "dataDate": "10/18/2025",
    "capacity": 0,
    "address": "2666 WEST LN, SUITE 700",
    "city": "STOCKTON",
    "zip": "95205",
    "county": "SAN JOAQUIN",
    "phone": null,
    "lat": 37.98026801,
    "lng": -121.281165
  },
  {
    "id": "630027623",
    "name": "COMMUNITY MEDICAL CENTERS, CARELINK COMMUNITY RESPONSE MOBILE UNIT II",
    "npi": "1285059923",
    "hcaiId": null,
    "businessName": "COMMUNITY MEDICAL CENTERS, INC.",
    "contactEmail": null,
    "categoryName": "PRIMARY CARE CLINIC",
    "categoryCode": "COMTYC",
    "licenseStatus": "ACTIVE",
    "inService": true,
    "licenseNumber": "550003006",
    "licenseEffectiveDate": "03/13/2025",
    "licenseExpirationDate": "03/12/2026",
    "dataDate": "10/18/2025",
    "capacity": 0,
    "address": "2666 WEST LN, SUITE 700",
    "city": "STOCKTON",
    "zip": "95205",
    "county": "SAN JOAQUIN",
    "phone": null,
    "lat": 37.98026801,
    "lng": -121.281165
  },
  {
    "id": "630027445",
    "name": "COMMUNITY MEDICAL CENTERS, CARELINK DENTAL VAN",
    "npi": "1285059923",
    "hcaiId": null,
    "businessName": "COMMUNITY MEDICAL CENTERS, INC.",
    "contactEmail": null,
    "categoryName": "PRIMARY CARE CLINIC",
    "categoryCode": "COMTYC",
    "licenseStatus": "ACTIVE",
    "inService": true,
    "licenseNumber": "550003006",
    "licenseEffectiveDate": "03/13/2025",
    "licenseExpirationDate": "03/12/2026",
    "dataDate": "10/18/2025",
    "capacity": 0,
    "address": "2650 WIGWAM DR, UNIT O",
    "city": "STOCKTON",
    "zip": "95205",
    "county": "SAN JOAQUIN",
    "phone": null,
    "lat": 37.986924,
    "lng": -121.256786
  },
  {
    "id": "630026856",
    "name": "COMMUNITY MEDICAL CENTERS, EAST MAIN",
    "npi": "1285059923",
    "hcaiId": null,
    "businessName": "COMMUNITY MEDICAL CENTERS, INC.",
    "contactEmail": null,
    "categoryName": "PRIMARY CARE CLINIC",
    "categoryCode": "COMTYC",
    "licenseStatus": "ACTIVE",
    "inService": true,
    "licenseNumber": "550003006",
    "licenseEffectiveDate": "03/13/2025",
    "licenseExpirationDate": "03/12/2026",
    "dataDate": "10/18/2025",
    "capacity": 0,
    "address": "2524 E MAIN ST",
    "city": "STOCKTON",
    "zip": "95205",
    "county": "SAN JOAQUIN",
    "phone": null,
    "lat": 37.954458,
    "lng": -121.2514335
  },
  {
    "id": "630014251",
    "name": "COMMUNITY MEDICAL CENTERS, MARIPOSA ROAD",
    "npi": "1669720157",
    "hcaiId": "306394111",
    "businessName": "COMMUNITY MEDICAL CENTERS, INC.",
    "contactEmail": "GLRAMIREZ@CMCENTERS.ORG",
    "categoryName": "PRIMARY CARE CLINIC",
    "categoryCode": "COMTYC",
    "licenseStatus": "ACTIVE",
    "inService": true,
    "licenseNumber": "550002241",
    "licenseEffectiveDate": "04/11/2025",
    "licenseExpirationDate": "04/10/2026",
    "dataDate": "10/18/2025",
    "capacity": 0,
    "address": "2015 S MARIPOSA RD",
    "city": "STOCKTON",
    "zip": "95205",
    "county": "SAN JOAQUIN",
    "phone": "(209) 259-6546",
    "lat": 37.93936109,
    "lng": -121.2452161
  },
  {
    "id": "630020960",
    "name": "COMMUNITY MEDICAL CENTERS, MOBILE UNIT 101",
    "npi": "1285059923",
    "hcaiId": null,
    "businessName": "COMMUNITY MEDICAL CENTERS, INC.",
    "contactEmail": null,
    "categoryName": "PRIMARY CARE CLINIC",
    "categoryCode": "COMTYC",
    "licenseStatus": "ACTIVE",
    "inService": true,
    "licenseNumber": "550003006",
    "licenseEffectiveDate": "03/13/2025",
    "licenseExpirationDate": "03/12/2026",
    "dataDate": "10/18/2025",
    "capacity": 0,
    "address": "2650 WIGWAM DR, UNIT O",
    "city": "STOCKTON",
    "zip": "95205",
    "county": "SAN JOAQUIN",
    "phone": null,
    "lat": 37.986912,
    "lng": -121.256775
  },
  {
    "id": "630021051",
    "name": "COMMUNITY MEDICAL CENTERS, MOBILE UNIT 102",
    "npi": "1285059923",
    "hcaiId": null,
    "businessName": "COMMUNITY MEDICAL CENTERS, INC.",
    "contactEmail": "MFLORES@CMCENTERS.ORG",
    "categoryName": "PRIMARY CARE CLINIC",
    "categoryCode": "COMTYC",
    "licenseStatus": "ACTIVE",
    "inService": true,
    "licenseNumber": "550003006",
    "licenseEffectiveDate": "03/13/2025",
    "licenseExpirationDate": "03/12/2026",
    "dataDate": "10/18/2025",
    "capacity": 0,
    "address": "2650 WIGWAM DR, UNIT O",
    "city": "STOCKTON",
    "zip": "95205",
    "county": "SAN JOAQUIN",
    "phone": "(209) 373-2831",
    "lat": 37.986912,
    "lng": -121.256775
  },
  {
    "id": "630025408",
    "name": "COMMUNITY MEDICAL CENTERS, MOBILE UNIT 104",
    "npi": "1285059923",
    "hcaiId": null,
    "businessName": "COMMUNITY MEDICAL CENTERS, INC.",
    "contactEmail": null,
    "categoryName": "PRIMARY CARE CLINIC",
    "categoryCode": "COMTYC",
    "licenseStatus": "ACTIVE",
    "inService": true,
    "licenseNumber": "550003006",
    "licenseEffectiveDate": "03/13/2025",
    "licenseExpirationDate": "03/12/2026",
    "dataDate": "10/18/2025",
    "capacity": 0,
    "address": "2650 WIGWAM DR, UNIT O",
    "city": "STOCKTON",
    "zip": "95205",
    "county": "SAN JOAQUIN",
    "phone": null,
    "lat": 37.986912,
    "lng": -121.256775
  },
  {
    "id": "630025410",
    "name": "COMMUNITY MEDICAL CENTERS, MOBILE UNIT 105",
    "npi": "1285059923",
    "hcaiId": null,
    "businessName": "COMMUNITY MEDICAL CENTERS, INC.",
    "contactEmail": null,
    "categoryName": "PRIMARY CARE CLINIC",
    "categoryCode": "COMTYC",
    "licenseStatus": "ACTIVE",
    "inService": true,
    "licenseNumber": "550003006",
    "licenseEffectiveDate": "03/13/2025",
    "licenseExpirationDate": "03/12/2026",
    "dataDate": "10/18/2025",
    "capacity": 0,
    "address": "2650 WIGWAM DR, UNIT O",
    "city": "STOCKTON",
    "zip": "95205",
    "county": "SAN JOAQUIN",
    "phone": null,
    "lat": 37.986912,
    "lng": -121.256775
  },
  {
    "id": "630015722",
    "name": "COMMUNITY MEDICAL CENTERS, WATERLOO",
    "npi": "1285059923",
    "hcaiId": "306394117",
    "businessName": "COMMUNITY MEDICAL CENTERS, INC.",
    "contactEmail": "GLRAMIREZ@CMCENTERS.ORG",
    "categoryName": "PRIMARY CARE CLINIC",
    "categoryCode": "COMTYC",
    "licenseStatus": "ACTIVE",
    "inService": true,
    "licenseNumber": "550003006",
    "licenseEffectiveDate": "03/13/2025",
    "licenseExpirationDate": "03/12/2026",
    "dataDate": "10/18/2025",
    "capacity": 0,
    "address": "1031 WATERLOO RD",
    "city": "STOCKTON",
    "zip": "95205",
    "county": "SAN JOAQUIN",
    "phone": "(209) 259-6546",
    "lat": 37.967472,
    "lng": -121.2726645
  },
  {
    "id": "030000251",
    "name": "PLANNED PARENTHOOD MAR MONTE - EASTLAND PLAZA HEALTH CENTER",
    "npi": "1174579957",
    "hcaiId": "306390985",
    "businessName": "PLANNED PARENTHOOD MAR MONTE, INC.",
    "contactEmail": "ANDREA_CASTILLO@PPMARMONTE.ORG",
    "categoryName": "PRIMARY CARE CLINIC",
    "categoryCode": "COMTYC",
    "licenseStatus": "ACTIVE",
    "inService": true,
    "licenseNumber": "030000075",
    "licenseEffectiveDate": "01/31/2025",
    "licenseExpirationDate": "01/30/2026",
    "dataDate": "10/18/2025",
    "capacity": 0,
    "address": "678 N. WILSON WAY, SUITE G",
    "city": "STOCKTON",
    "zip": "95205",
    "county": "SAN JOAQUIN",
    "phone": "(209) 472-8533",
    "lat": 37.962351,
    "lng": -121.272804
  },
  {
    "id": "630017297",
    "name": "SAN JOAQUIN COUNTY CLINICS - HAZELTON",
    "npi": null,
    "hcaiId": null,
    "businessName": null,
    "contactEmail": null,
    "categoryName": "PRIMARY CARE CLINIC",
    "categoryCode": "FQHC",
    "licenseStatus": null,
    "inService": null,
    "licenseNumber": null,
    "licenseEffectiveDate": null,
    "licenseExpirationDate": null,
    "dataDate": "10/18/2025",
    "capacity": 0,
    "address": "1601 E HAZELTON AVE",
    "city": "STOCKTON",
    "zip": "95205",
    "county": "SAN JOAQUIN",
    "phone": "(209) 468-6372",
    "lat": 37.950543,
    "lng": -121.268736
  }
]