[
  {
    "id": "630015801",
    "name": "ANGEL'S HOME ICF, INC.",
    "npi": "1205224334",
    "hcaiId": null,
    "businessName": "ANGEL'S HOME ICF, INC.",
    "contactEmail": "ANGELSHOMEICF@GMAIL.COM",
    "categoryName": "INTERMEDIATE CARE FACILITY-DD/H/N/CN/IID",
    "categoryCode": "ICFDDN",
    "licenseStatus": "ACTIVE",
    "inService": true,
    "licenseNumber": "550003190",
    "licenseEffectiveDate": "08/20/2025",
    "licenseExpirationDate": "08/19/2026",
    "dataDate": "10/18/2025",
    "capacity": 6,
    "address": "10712 WATERBURY DRIVE",
    "city": "STOCKTON",
    "zip": "95209",
    "county": "SAN JOAQUIN",
    "phone": "(209) 851-8842",
    "lat": 38.052513,
    "lng": -121.337343
  },
  {
    "id": "630019615",
    "name": "CAPC - EMERALD POINTE",
    "npi": "1285059923",
    "hcaiId": null,
    "businessName": "COMMUNITY MEDICAL CENTERS, INC.",
    "contactEmail": null,
    "categoryName": "PRIMARY CARE CLINIC",
    "categoryCode": "COMTYC",
    "licenseStatus": "ACTIVE",
    "inService": true,
    "licenseNumber": "550003006",
    "licenseEffectiveDate": "03/13/2025",
    "licenseExpirationDate": "03/12/2026",
    "dataDate": "10/18/2025",
    "capacity": 0,
    "address": "9537 KELLEY DR",
    "city": "STOCKTON",
    "zip": "95209",
    "county": "SAN JOAQUIN",
    "phone": null,
    "lat": 38.035116,
    "lng": -121.364523
  },
  {
    "id": "100001166",
    "name": "CARCIDO'S ICF/DD-H #1",
    "npi": "1447466321",
    "hcaiId": null,
    "businessName": "CARCIDO'S HOMES. INC.",
    "contactEmail": "JNMCARCIDO@GMAIL.COM",
    "categoryName": "INTERMEDIATE CARE FACILITY-DD/H/N/CN/IID",
    "categoryCode": "ICFDDH",
    "licenseStatus": "ACTIVE",
    "inService": true,
    "licenseNumber": "100000491",
    "licenseEffectiveDate": "11/11/2025",
    "licenseExpirationDate": "11/10/2026",
    "dataDate": "10/18/2025",
    "capacity": 6,
    "address": "8514 COLONIAL DRIVE",
    "city": "STOCKTON",
    "zip": "95209",
    "county": "SAN JOAQUIN",
    "phone": "(209) 639-6525",
    "lat": 38.02734,
    "lng": -121.3421895
  },
  {
    "id": "100001332",
    "name": "CARCIDO'S ICF/DD-H #2",
    "npi": "1033326798",
    "hcaiId": null,
    "businessName": "CARCIDO'S HOMES. INC.",
    "contactEmail": "JNMCARCIDO@GMAIL.COM",
    "categoryName": "INTERMEDIATE CARE FACILITY-DD/H/N/CN/IID",
    "categoryCode": "ICFDDH",
    "licenseStatus": "ACTIVE",
    "inService": true,
    "licenseNumber": "100000553",
    "licenseEffectiveDate": "01/05/2025",
    "licenseExpirationDate": "01/04/2026",
    "dataDate": "10/18/2025",
    "capacity": 6,
    "address": "1949 WAGNER HEIGHTS ROAD",
    "city": "STOCKTON",
    "zip": "95209",
    "county": "SAN JOAQUIN",
    "phone": "(209) 639-6525",
    "lat": 38.0358,
    "lng": -121.337982
  },
  {
    "id": "100001457",
    "name": "CARCIDO'S ICFDD-H #3",
    "npi": "1568679223",
    "hcaiId": null,
    "businessName": "CARCIDO'S HOMES. INC.",
    "contactEmail": "JNMCARCIDO@GMAIL.COM",
    "categoryName": "INTERMEDIATE CARE FACILITY-DD/H/N/CN/IID",
    "categoryCode": "ICFDDH",
    "licenseStatus": "ACTIVE",
    "inService": true,
    "licenseNumber": "100000596",
    "licenseEffectiveDate": "11/20/2024",
    "licenseExpirationDate": "11/19/2025",
    "dataDate": "10/18/2025",
    "capacity": 6,
    "address": "2721 JIMENEZ WAY",
    "city": "STOCKTON",
    "zip": "95209",
    "county": "SAN JOAQUIN",
    "phone": "(209) 639-6525",
    "lat": 38.032236,
    "lng": -121.3492635
  },
  {
    "id": "100000826",
    "name": "CREEKSIDE CENTER",
    "npi": "1487601704",
    "hcaiId": "206394007",
    "businessName": "SUNBRIDGE STOCKTON REHABILITATION CENTER, LLC",
    "contactEmail": "ADMINISTRATOR@CREEKSIDECENTER.COM",
    "categoryName": "SKILLED NURSING FACILITY",
    "categoryCode": "SNF",
    "licenseStatus": "ACTIVE",
    "inService": true,
    "licenseNumber": "100000358",
    "licenseEffectiveDate": "11/01/2025",
    "licenseExpirationDate": "10/31/2026",
    "dataDate": "10/18/2025",
    "capacity": 75,
    "address": "9107 DAVIS ROAD",
    "city": "STOCKTON",
    "zip": "95209",
    "county": "SAN JOAQUIN",
    "phone": "(209) 478-6488",
    "lat": 38.032974,
    "lng": -121.332609
  },
  {
    "id": "100000814",
    "name": "CRYSTAL CREEK POST-ACUTE",
    "npi": "1801938816",
    "hcaiId": "206394006",
    "businessName": "QUAIL LAKE HOLDINGS, LLC",
    "contactEmail": "WAGNERSNFREG@COVENANTCARE.COM",
    "categoryName": "SKILLED NURSING FACILITY",
    "categoryCode": "SNF",
    "licenseStatus": "ACTIVE",
    "inService": true,
    "licenseNumber": "100000355",
    "licenseEffectiveDate": "08/01/2025",
    "licenseExpirationDate": "01/12/2026",
    "dataDate": "10/18/2025",
    "capacity": 152,
    "address": "9289 BRANSTETTER PLACE",
    "city": "STOCKTON",
    "zip": "95209",
    "county": "SAN JOAQUIN",
    "phone": "(209) 477-5252",
    "lat": 38.034351,
    "lng": -121.347855
  },
  {
    "id": "100001505",
    "name": "DUKE FACILITIES, INC. #1",
    "npi": "1700935509",
    "hcaiId": null,
    "businessName": "DUKE FACILITIES, INC.",
    "contactEmail": "SARAHDUKE.DFI@GMAIL.COM",
    "categoryName": "INTERMEDIATE CARE FACILITY-DD/H/N/CN/IID",
    "categoryCode": "ICFDDH",
    "licenseStatus": "ACTIVE",
    "inService": true,
    "licenseNumber": "100000619",
    "licenseEffectiveDate": "03/31/2025",
    "licenseExpirationDate": "03/30/2026",
    "dataDate": "10/18/2025",
    "capacity": 6,
    "address": "2661 OTTO DRIVE",
    "city": "STOCKTON",
    "zip": "95209",
    "county": "SAN JOAQUIN",
    "phone": "(209) 482-3476",
    "lat": 38.037906,
    "lng": -121.3504515
  },
  {
    "id": "100001179",
    "name": "GAPASIN MANOR ICF DDN #1",
    "npi": "1568676492",
    "hcaiId": null,
    "businessName": "GAPASIN MANOR, INC.",
    "contactEmail": "VIGAPASIN@GMAIL.COM",
    "categoryName": "INTERMEDIATE CARE FACILITY-DD/H/N/CN/IID",
    "categoryCode": "ICFDDN",
    "licenseStatus": "ACTIVE",
    "inService": true,
    "licenseNumber": "100000498",
    "licenseEffectiveDate": "11/02/2024",
    "licenseExpirationDate": "11/01/2025",
    "dataDate": "10/18/2025",
    "capacity": 6,
    "address": "2451 SHROPSHIRE DRIVE",
    "city": "STOCKTON",
    "zip": "95209",
    "county": "SAN JOAQUIN",
    "phone": "(209) 482-1430",
    "lat": 38.032533,
    "lng": -121.345056
  },
  {
    "id": "100001424",
    "name": "GAPASIN MANOR ICF DDN #2",
    "npi": "1194939025",
    "hcaiId": null,
    "businessName": "GAPASIN MANOR, INC.",
    "contactEmail": "VGAPASIN@GMAIL.COM",
    "categoryName": "INTERMEDIATE CARE FACILITY-DD/H/N/CN/IID",
    "categoryCode": "ICFDDN",
    "licenseStatus": "ACTIVE",
    "inService": true,
    "licenseNumber": "100000576",
    "licenseEffectiveDate": "02/06/2025",
    "licenseExpirationDate": "02/05/2026",
    "dataDate": "10/18/2025",
    "capacity": 6,
    "address": "2325 STANFIELD DRIVE",
    "city": "STOCKTON",
    "zip": "95209",
    "county": "SAN JOAQUIN",
    "phone": "(209) 482-1430",
    "lat": 38.036853,
    "lng": -121.343256
  },
  {
    "id": "100001511",
    "name": "GAPASIN MANOR ICF DDN #3",
    "npi": "1912111840",
    "hcaiId": null,
    "businessName": "GAPASIN MANOR, INC.",
    "contactEmail": "VIGAPASIN@GMAIL.COM",
    "categoryName": "INTERMEDIATE CARE FACILITY-DD/H/N/CN/IID",
    "categoryCode": "ICFDDN",
    "licenseStatus": "ACTIVE",
    "inService": true,
    "licenseNumber": "100000623",
    "licenseEffectiveDate": "06/01/2025",
    "licenseExpirationDate": "05/31/2026",
    "dataDate": "10/18/2025",
    "capacity": 6,
    "address": "3813 STEEDMAN WAY",
    "city": "STOCKTON",
    "zip": "95209",
    "county": "SAN JOAQUIN",
    "phone": "(209) 482-1430",
    "lat": 38.038527,
    "lng": -121.3642485
  },
  {
    "id": "100001535",
    "name": "MEADOWOOD A HEALTH & REHABILITATION CENTER",
    "npi": "1730269184",
    "hcaiId": "206394041",
    "businessName": "O'CONNOR WOODS HOUSING CORPORATION",
    "contactEmail": "MICHELLE.SMITH@OCONNORWOODS.ORG",
    "categoryName": "SKILLED NURSING FACILITY",
    "categoryCode": "SNF",
    "licenseStatus": "ACTIVE",
    "inService": true,
    "licenseNumber": "100000631",
    "licenseEffectiveDate": "12/18/2024",
    "licenseExpirationDate": "12/17/2025",
    "dataDate": "10/18/2025",
    "capacity": 100,
    "address": "3110 WAGNER HEIGHTS ROAD",
    "city": "STOCKTON",
    "zip": "95209",
    "county": "SAN JOAQUIN",
    "phone": "(209) 956-3444",
    "lat": 38.031345,
    "lng": -121.3564995
  },
  {
    "id": "100001594",
    "name": "SHIRLEY'S ICF/DD-H #2",
    "npi": "1770760019",
    "hcaiId": null,
    "businessName": "SHIRLEY'S CARE HOME, INC.",
    "contactEmail": "SHIRLEYVGAPASIN@GMAIL.COM",
    "categoryName": "INTERMEDIATE CARE FACILITY-DD/H/N/CN/IID",
    "categoryCode": "ICFDDH",
    "licenseStatus": "ACTIVE",
    "inService": true,
    "licenseNumber": "100000663",
    "licenseEffectiveDate": "12/31/2024",
    "licenseExpirationDate": "12/30/2025",
    "dataDate": "10/18/2025",
    "capacity": 6,
    "address": "8351 HAMILTON WAY",
    "city": "STOCKTON",
    "zip": "95209",
    "county": "SAN JOAQUIN",
    "phone": "(209) 607-9380",
    "lat": 38.025504,
    "lng": -121.3539795
  },
  {
    "id": "100001810",
    "name": "SHIRLEY'S ICF/DD-H #4",
    "npi": "1245415272",
    "hcaiId": null,
    "businessName": "SHIRLEY'S CARE HOME, INC.",
    "contactEmail": "SHIRLEYVGAPASIN@GMAIL.COM",
    "categoryName": "INTERMEDIATE CARE FACILITY-DD/H/N/CN/IID",
    "categoryCode": "ICFDDH",
    "licenseStatus": "ACTIVE",
    "inService": true,
    "licenseNumber": "100000776",
    "licenseEffectiveDate": "11/03/2025",
    "licenseExpirationDate": "11/02/2026",
    "dataDate": "10/18/2025",
    "capacity": 6,
    "address": "3507 ADMIRAL DRIVE",
    "city": "STOCKTON",
    "zip": "95209",
    "county": "SAN JOAQUIN",
    "phone": "(209) 607-9380",
    "lat": 38.033676,
    "lng": -121.359906
  },
  {
    "id": "100001398",
    "name": "SHIRLEY'S ICF/DD-N #1",
    "npi": "1417009507",
    "hcaiId": null,
    "businessName": "SHIRLEY'S CARE HOME, INC.",
    "contactEmail": "SHIRLEYVGAPASIN@GMAIL.COM",
    "categoryName": "INTERMEDIATE CARE FACILITY-DD/H/N/CN/IID",
    "categoryCode": "ICFDDN",
    "licenseStatus": "ACTIVE",
    "inService": true,
    "licenseNumber": "100000572",
    "licenseEffectiveDate": "02/19/2025",
    "licenseExpirationDate": "02/18/2026",
    "dataDate": "10/18/2025",
    "capacity": 6,
    "address": "2812 APPLING CIRCLE",
    "city": "STOCKTON",
    "zip": "95209",
    "county": "SAN JOAQUIN",
    "phone": "(209) 607-9380",
    "lat": 38.037294,
    "lng": -121.35321
  },
  {
    "id": "100001766",
    "name": "SHIRLEY'S ICF/DD-N #3",
    "npi": "1326225665",
    "hcaiId": null,
    "businessName": "SHIRLEY'S CARE HOME, INC.",
    "contactEmail": "SHIRLEYVGAPASIN@GMAIL.COM",
    "categoryName": "INTERMEDIATE CARE FACILITY-DD/H/N/CN/IID",
    "categoryCode": "ICFDDN",
    "licenseStatus": "ACTIVE",
    "inService": true,
    "licenseNumber": "100000758",
    "licenseEffectiveDate": "04/16/2025",
    "licenseExpirationDate": "04/15/2026",
    "dataDate": "10/18/2025",
    "capacity": 6,
    "address": "2330 SHROPSHIRE DRIVE",
    "city": "STOCKTON",
    "zip": "95209",
    "county": "SAN JOAQUIN",
    "phone": "(209) 607-9380",
    "lat": 38.033532,
    "lng": -121.3415775
  },
  {
    "id": "630006461",
    "name": "SOLIDUM CARE HOME ICFDD-N #1",
    "npi": "1285821272",
    "hcaiId": null,
    "businessName": "SOLIDUM CARE HOMES, INC.",
    "contactEmail": "ANNEBOLUS@GMAIL.COM",
    "categoryName": "INTERMEDIATE CARE FACILITY-DD/H/N/CN/IID",
    "categoryCode": "ICFDDN",
    "licenseStatus": "ACTIVE",
    "inService": true,
    "licenseNumber": "550000249",
    "licenseEffectiveDate": "11/01/2024",
    "licenseExpirationDate": "10/31/2025",
    "dataDate": "10/18/2025",
    "capacity": 6,
    "address": "3522 OTTO DRIVE",
    "city": "STOCKTON",
    "zip": "95209",
    "county": "SAN JOAQUIN",
    "phone": "(209) 478-1322",
    "lat": 38.037429,
    "lng": -121.3607025
  },
  {
    "id": "630013067",
    "name": "SOLIDUM CARE HOME ICFDD-N #2",
    "npi": "1285821272",
    "hcaiId": null,
    "businessName": "SOLIDUM CARE HOMES, INC.",
    "contactEmail": "ANNEBOLUS@GMAIL.COM",
    "categoryName": "INTERMEDIATE CARE FACILITY-DD/H/N/CN/IID",
    "categoryCode": "ICFDDN",
    "licenseStatus": "ACTIVE",
    "inService": true,
    "licenseNumber": "550001684",
    "licenseEffectiveDate": "11/21/2024",
    "licenseExpirationDate": "11/20/2025",
    "dataDate": "10/18/2025",
    "capacity": 6,
    "address": "2114 CODY CT",
    "city": "STOCKTON",
    "zip": "95209",
    "county": "SAN JOAQUIN",
    "phone": "(209) 474-6785",
    "lat": 38.04039,
    "lng": -121.340745
  },
  {
    "id": "630016433",
    "name": "SONIA'S ICFDDN",
    "npi": "1063886638",
    "hcaiId": null,
    "businessName": "SONIA'S CARE HOME, INC.",
    "contactEmail": "SONIACGAPASIN@GMAIL.COM",
    "categoryName": "INTERMEDIATE CARE FACILITY-DD/H/N/CN/IID",
    "categoryCode": "ICFDDN",
    "licenseStatus": "ACTIVE",
    "inService": true,
    "licenseNumber": "550003735",
    "licenseEffectiveDate": "12/19/2024",
    "licenseExpirationDate": "12/18/2025",
    "dataDate": "10/18/2025",
    "capacity": 6,
    "address": "8516 EDGEFIELD WAY",
    "city": "STOCKTON",
    "zip": "95209",
    "county": "SAN JOAQUIN",
    "phone": "(209) 609-9342",
    "lat": 38.027502,
    "lng": -121.350312
  },
  {
    "id": "630012217",
    "name": "STOCKTON SURGERY CENTER",
    "npi": "1316190796",
    "hcaiId": "306394096",
    "businessName": "SUTTER VALLEY MEDICAL FOUNDATION",
    "contactEmail": "JOHNNY.RUSSELL@SUTTERHEALTH.ORG",
    "categoryName": "SURGICAL CLINIC",
    "categoryCode": "ASC/SURGC",
    "licenseStatus": "ACTIVE",
    "inService": true,
    "licenseNumber": "550001065",
    "licenseEffectiveDate": "03/01/2025",
    "licenseExpirationDate": "02/28/2026",
    "dataDate": "10/18/2025",
    "capacity": 0,
    "address": "8011 DON AVENUE",
    "city": "STOCKTON",
    "zip": "95209",
    "county": "SAN JOAQUIN",
    "phone": "(209) 955-3001",
    "lat": 38.022957,
    "lng": -121.345956
  }
]