[
  {
    "id": "100001573",
    "name": "CARCIDO'S ICF/DD-H #4",
    "npi": "1063628972",
    "hcaiId": null,
    "businessName": "CARCIDO'S HOMES. INC.",
    "contactEmail": "JNMCARCIDO@GMAIL.COM",
    "categoryName": "INTERMEDIATE CARE FACILITY-DD/H/N/CN/IID",
    "categoryCode": "ICFDDH",
    "licenseStatus": "ACTIVE",
    "inService": true,
    "licenseNumber": "100000657",
    "licenseEffectiveDate": "11/27/2025",
    "licenseExpirationDate": "11/26/2026",
    "dataDate": "10/18/2025",
    "capacity": 6,
    "address": "8344 CHEVALIER WAY",
    "city": "STOCKTON",
    "zip": "95210",
    "county": "SAN JOAQUIN",
    "phone": "(209) 639-6525",
    "lat": 38.026116,
    "lng": -121.290138
  },
  {
    "id": "100000773",
    "name": "CLEARWATER HEALTHCARE CENTER",
    "npi": "1538683974",
    "hcaiId": "206394003",
    "businessName": "CHESAPEAKE BAY HOLDINGS LLC",
    "contactEmail": "STEVE.TU@LINKSHEALTH.COM",
    "categoryName": "SKILLED NURSING FACILITY",
    "categoryCode": "SNF",
    "licenseStatus": "ACTIVE",
    "inService": true,
    "licenseNumber": "100000349",
    "licenseEffectiveDate": "11/02/2024",
    "licenseExpirationDate": "11/01/2025",
    "dataDate": "10/18/2025",
    "capacity": 120,
    "address": "1517 KNICKERBOCKER DRIVE",
    "city": "STOCKTON",
    "zip": "95210",
    "county": "SAN JOAQUIN",
    "phone": "(209) 957-4539",
    "lat": 38.024946,
    "lng": -121.2928785
  },
  {
    "id": "630016082",
    "name": "COMMUNITY MEDICAL CENTERS, E. MARCH LANE",
    "npi": "1356723936",
    "hcaiId": "306394121",
    "businessName": "COMMUNITY MEDICAL CENTERS, INC.",
    "contactEmail": "GLRAMIREZ@CMCENTERS.ORG",
    "categoryName": "PRIMARY CARE CLINIC",
    "categoryCode": "COMTYC",
    "licenseStatus": "ACTIVE",
    "inService": true,
    "licenseNumber": "550003180",
    "licenseEffectiveDate": "08/05/2024",
    "licenseExpirationDate": "08/04/2025",
    "dataDate": "10/18/2025",
    "capacity": 0,
    "address": "1801 E. MARCH LANE, SUITE D-470",
    "city": "STOCKTON",
    "zip": "95210",
    "county": "SAN JOAQUIN",
    "phone": "(209) 373-2800",
    "lat": 38.004012,
    "lng": -121.2874785
  },
  {
    "id": "630021050",
    "name": "COMMUNITY MEDICAL CENTERS, MOBILE UNIT 103",
    "npi": "1285059923",
    "hcaiId": null,
    "businessName": "COMMUNITY MEDICAL CENTERS, INC.",
    "contactEmail": "MFLORES@CMCENTERS.ORG",
    "categoryName": "PRIMARY CARE CLINIC",
    "categoryCode": "COMTYC",
    "licenseStatus": "ACTIVE",
    "inService": true,
    "licenseNumber": "550003006",
    "licenseEffectiveDate": "03/13/2025",
    "licenseExpirationDate": "03/12/2026",
    "dataDate": "10/18/2025",
    "capacity": 0,
    "address": "7912 N WEST LN, SUITE 221",
    "city": "STOCKTON",
    "zip": "95210",
    "county": "SAN JOAQUIN",
    "phone": "(209) 373-2831",
    "lat": 38.0203025,
    "lng": -121.2946992
  },
  {
    "id": "630018201",
    "name": "COMMUNITY MEDICAL CENTERS, WEST LANE",
    "npi": null,
    "hcaiId": "306390398",
    "businessName": "COMMUNITY MEDICAL CENTERS, INC.",
    "contactEmail": "LICENSING@CMCENTERS.ORG",
    "categoryName": "PRIMARY CARE CLINIC",
    "categoryCode": "COMTYC",
    "licenseStatus": "ACTIVE",
    "inService": true,
    "licenseNumber": "550004380",
    "licenseEffectiveDate": "10/09/2025",
    "licenseExpirationDate": "10/08/2026",
    "dataDate": "10/18/2025",
    "capacity": 0,
    "address": "7912 WEST LN, SUITE 221",
    "city": "STOCKTON",
    "zip": "95210",
    "county": "SAN JOAQUIN",
    "phone": "(209) 373-2831",
    "lat": 38.0203025,
    "lng": -121.2946992
  },
  {
    "id": "110001180",
    "name": "DELTA SIERRA DIALYSIS CENTER",
    "npi": "1922069319",
    "hcaiId": "306390560",
    "businessName": "TOTAL RENAL CARE, INC.",
    "contactEmail": "CAL_C@DAVITA.COM",
    "categoryName": "CHRONIC DIALYSIS CLINIC",
    "categoryCode": "ESRD/CDC",
    "licenseStatus": "ACTIVE",
    "inService": true,
    "licenseNumber": "110000469",
    "licenseEffectiveDate": "03/01/2025",
    "licenseExpirationDate": "02/28/2026",
    "dataDate": "10/18/2025",
    "capacity": 36,
    "address": "7500 WEST LN",
    "city": "STOCKTON",
    "zip": "95210",
    "county": "SAN JOAQUIN",
    "phone": "(209) 473-7472",
    "lat": 38.017899,
    "lng": -121.29399
  },
  {
    "id": "630011276",
    "name": "DELTA SURGICAL",
    "npi": null,
    "hcaiId": "306394088",
    "businessName": "DENTAL SURGERY CENTERS OF AMERICA",
    "contactEmail": "HEATHER.HOLTON@BLUECLOUDPSC.COM",
    "categoryName": "SURGICAL CLINIC",
    "categoryCode": "ASC/SURGC",
    "licenseStatus": "ACTIVE",
    "inService": true,
    "licenseNumber": "550000809",
    "licenseEffectiveDate": "11/20/2025",
    "licenseExpirationDate": "11/19/2026",
    "dataDate": "10/18/2025",
    "capacity": 0,
    "address": "1523 E. MARCH LANE, SUITE A",
    "city": "STOCKTON",
    "zip": "95210",
    "county": "SAN JOAQUIN",
    "phone": "(209) 952-9000",
    "lat": 38.00268,
    "lng": -121.289769
  },
  {
    "id": "630019610",
    "name": "JOAN RICHARD LEARNING VILLAGE",
    "npi": "1285059923",
    "hcaiId": null,
    "businessName": "COMMUNITY MEDICAL CENTERS, INC.",
    "contactEmail": null,
    "categoryName": "PRIMARY CARE CLINIC",
    "categoryCode": "COMTYC",
    "licenseStatus": "ACTIVE",
    "inService": true,
    "licenseNumber": "550003006",
    "licenseEffectiveDate": "03/13/2025",
    "licenseExpirationDate": "03/12/2026",
    "dataDate": "10/18/2025",
    "capacity": 0,
    "address": "5211 BARBADOS CIR",
    "city": "STOCKTON",
    "zip": "95210",
    "county": "SAN JOAQUIN",
    "phone": null,
    "lat": 38.00484,
    "lng": -121.286385
  },
  {
    "id": "100000290",
    "name": "RIVERWOOD HEALTHCARE CENTER",
    "npi": "1639519986",
    "hcaiId": "206392394",
    "businessName": "ASCC, LLC",
    "contactEmail": "RGORING@ASPENHEALTH.COM",
    "categoryName": "SKILLED NURSING FACILITY",
    "categoryCode": "SNF",
    "licenseStatus": "ACTIVE",
    "inService": true,
    "licenseNumber": "100000288",
    "licenseEffectiveDate": "01/27/2025",
    "licenseExpirationDate": "01/26/2026",
    "dataDate": "10/18/2025",
    "capacity": 99,
    "address": "5320 CARRINGTON CIRCLE",
    "city": "STOCKTON",
    "zip": "95210",
    "county": "SAN JOAQUIN",
    "phone": "(209) 473-3004",
    "lat": 38.00547,
    "lng": -121.2939585
  },
  {
    "id": "630011177",
    "name": "SATELLITE HEALTHCARE STOCKTON",
    "npi": "1134142565",
    "hcaiId": "306394078",
    "businessName": "SATELLITE DIALYSIS OF STOCKTON, LLC",
    "contactEmail": "LICENSING@SATELLITEHEALTH.COM",
    "categoryName": "CHRONIC DIALYSIS CLINIC",
    "categoryCode": "ESRD/CDC",
    "licenseStatus": "ACTIVE",
    "inService": true,
    "licenseNumber": "550000468",
    "licenseEffectiveDate": "11/02/2025",
    "licenseExpirationDate": "11/01/2026",
    "dataDate": "10/18/2025",
    "capacity": 25,
    "address": "1801 E. MARCH LANE, SUITE A100",
    "city": "STOCKTON",
    "zip": "95210",
    "county": "SAN JOAQUIN",
    "phone": "(209) 473-6890",
    "lat": 38.003634,
    "lng": -121.2859845
  },
  {
    "id": "630011558",
    "name": "SHIRLEY'S ICF/DD-N #5",
    "npi": "1053563536",
    "hcaiId": null,
    "businessName": "SHIRLEY'S CARE HOME, INC.",
    "contactEmail": "SHIRLEYVGAPASIN@GMAIL.COM",
    "categoryName": "INTERMEDIATE CARE FACILITY-DD/H/N/CN/IID",
    "categoryCode": "ICFDDN",
    "licenseStatus": "ACTIVE",
    "inService": true,
    "licenseNumber": "550000686",
    "licenseEffectiveDate": "03/14/2025",
    "licenseExpirationDate": "03/13/2026",
    "dataDate": "10/18/2025",
    "capacity": 6,
    "address": "1182 DUVALL COURT",
    "city": "STOCKTON",
    "zip": "95210",
    "county": "SAN JOAQUIN",
    "phone": "(209) 607-9380",
    "lat": 38.007072,
    "lng": -121.2956775
  },
  {
    "id": "630015178",
    "name": "SOLIDUM CARE HOME ICF/DD-N #3",
    "npi": "1730596214",
    "hcaiId": null,
    "businessName": "SOLIDUM CARE HOMES, INC.",
    "contactEmail": "ANNEBOLUS@GMAIL.COM",
    "categoryName": "INTERMEDIATE CARE FACILITY-DD/H/N/CN/IID",
    "categoryCode": "ICFDDN",
    "licenseStatus": "ACTIVE",
    "inService": true,
    "licenseNumber": "550002904",
    "licenseEffectiveDate": "12/03/2024",
    "licenseExpirationDate": "12/02/2025",
    "dataDate": "10/18/2025",
    "capacity": 6,
    "address": "8712 ENSENADA DRIVE",
    "city": "STOCKTON",
    "zip": "95210",
    "county": "SAN JOAQUIN",
    "phone": "(209) 476-0541",
    "lat": 38.032047,
    "lng": -121.312845
  },
  {
    "id": "630011481",
    "name": "STOCKTON KIDNEY CENTER",
    "npi": "1790929826",
    "hcaiId": "306394087",
    "businessName": "ROOSE DIALYSIS, LLC",
    "contactEmail": "CAL_C@DAVITA.COM",
    "categoryName": "CHRONIC DIALYSIS CLINIC",
    "categoryCode": "ESRD/CDC",
    "licenseStatus": "ACTIVE",
    "inService": true,
    "licenseNumber": "550000652",
    "licenseEffectiveDate": "01/01/2025",
    "licenseExpirationDate": "12/31/2025",
    "dataDate": "10/18/2025",
    "capacity": 20,
    "address": "1523 E MARCH LN, SUITE 200",
    "city": "STOCKTON",
    "zip": "95210",
    "county": "SAN JOAQUIN",
    "phone": "(209) 472-3300",
    "lat": 38.00268,
    "lng": -121.289769
  },
  {
    "id": "630011180",
    "name": "ZEITER EYE SURGICAL CENTER, INC.",
    "npi": "1003884982",
    "hcaiId": "306394079",
    "businessName": null,
    "contactEmail": "THERESAS@ZEITEREYE.COM",
    "categoryName": "SURGICAL CLINIC",
    "categoryCode": "ASC",
    "licenseStatus": "INACTIVE - CAPEN DECISION",
    "inService": false,
    "licenseNumber": "550000527",
    "licenseEffectiveDate": "06/14/2008",
    "licenseExpirationDate": "06/13/2009",
    "dataDate": "10/18/2025",
    "capacity": 0,
    "address": "1801 E. MARCH LANE, SUITE C360",
    "city": "STOCKTON",
    "zip": "95210",
    "county": "SAN JOAQUIN",
    "phone": "(209) 466-5566",
    "lat": 38.003481,
    "lng": -121.286592
  }
]