[
  {
    "id": "630015129",
    "name": "CALIFORNIA HEALTH CARE FACILITY - DIALYSIS UNIT",
    "npi": null,
    "hcaiId": "306390403",
    "businessName": "CA DEPARTMENT OF CORRECTIONS AND REHABILITATION",
    "contactEmail": "CHCF.COMPLIANCEUNIT@CDCR.CA.GOV",
    "categoryName": "CHRONIC DIALYSIS CLINIC",
    "categoryCode": "CDC",
    "licenseStatus": "ACTIVE",
    "inService": true,
    "licenseNumber": "550002675",
    "licenseEffectiveDate": "07/19/2025",
    "licenseExpirationDate": "07/18/2026",
    "dataDate": "10/18/2025",
    "capacity": 29,
    "address": "7707 AUSTIN RD",
    "city": "STOCKTON",
    "zip": "95215",
    "county": "SAN JOAQUIN",
    "phone": "(209) 467-5424",
    "lat": 37.889172,
    "lng": -121.1925285
  },
  {
    "id": "630014470",
    "name": "CALIFORNIA HEALTH CARE FACILITY - STOCKTON",
    "npi": null,
    "hcaiId": null,
    "businessName": "CA DEPARTMENT OF CORRECTIONS AND REHABILITATION",
    "contactEmail": "CHCF.COMPLIANCEUNIT@CDCR.CA.GOV",
    "categoryName": "CORRECTIONAL TREATMENT CENTER",
    "categoryCode": "CTC",
    "licenseStatus": "ACTIVE",
    "inService": true,
    "licenseNumber": "550002338",
    "licenseEffectiveDate": "07/23/2025",
    "licenseExpirationDate": "07/18/2026",
    "dataDate": "10/18/2025",
    "capacity": 792,
    "address": "7707 AUSTIN RD",
    "city": "STOCKTON",
    "zip": "95215",
    "county": "SAN JOAQUIN",
    "phone": "(209) 467-4394",
    "lat": 37.889172,
    "lng": -121.1925285
  },
  {
    "id": "100001441",
    "name": "SOLARI RANCH",
    "npi": "1659596856",
    "hcaiId": null,
    "businessName": "JANET RIOS, R.N., Q.M.R.P., ANITA EDELMAN, M.A. ED",
    "contactEmail": "CASADELRIOS@YAHOO.COM",
    "categoryName": "INTERMEDIATE CARE FACILITY-DD/H/N/CN/IID",
    "categoryCode": "ICFDDN",
    "licenseStatus": "ACTIVE",
    "inService": true,
    "licenseNumber": "100000587",
    "licenseEffectiveDate": "05/20/2025",
    "licenseExpirationDate": "05/19/2026",
    "dataDate": "10/18/2025",
    "capacity": 15,
    "address": "5541 SOLARI RANCH ROAD",
    "city": "STOCKTON",
    "zip": "95215",
    "county": "SAN JOAQUIN",
    "phone": "(209) 481-7848",
    "lat": 38.018529,
    "lng": -121.229631
  }
]