[
  {
    "id": "630016046",
    "name": "BLOSSOM RIDGE HOME HEALTH AGENCY",
    "npi": "1245588581",
    "hcaiId": "406394126",
    "businessName": "LHC CALIFORNIA HOME HEALTH I, LLC",
    "contactEmail": "RICK@BLOSSOMRIDGE.NET",
    "categoryName": "HOME HEALTH AGENCY",
    "categoryCode": "HHA",
    "licenseStatus": "ACTIVE",
    "inService": true,
    "licenseNumber": "550002053",
    "licenseEffectiveDate": "09/21/2025",
    "licenseExpirationDate": "09/20/2026",
    "dataDate": "10/18/2025",
    "capacity": 0,
    "address": "3558 DEER PARK DRIVE, SUITE 105",
    "city": "STOCKTON",
    "zip": "95219",
    "county": "SAN JOAQUIN",
    "phone": "(800) 991-6147",
    "lat": 37.987155,
    "lng": -121.3516845
  },
  {
    "id": "630013205",
    "name": "BRISTOL HOSPICE - STOCKTON",
    "npi": "1821166745",
    "hcaiId": "406394104",
    "businessName": "OPTIMAL HOSPICE, INC.",
    "contactEmail": "BRENNEN.BUTTRAM@BRISTOLHOSPICE.COM",
    "categoryName": "HOSPICE",
    "categoryCode": "HOSPICE",
    "licenseStatus": "ACTIVE",
    "inService": true,
    "licenseNumber": "550000173",
    "licenseEffectiveDate": "03/20/2024",
    "licenseExpirationDate": "03/19/2026",
    "dataDate": "10/18/2025",
    "capacity": 0,
    "address": "2800 W MARCH LN, SUITE 110",
    "city": "STOCKTON",
    "zip": "95219",
    "county": "SAN JOAQUIN",
    "phone": "(209) 670-8000",
    "lat": 37.983933,
    "lng": -121.34547
  },
  {
    "id": "100001466",
    "name": "CENTERWELL HOME HEALTH",
    "npi": "1962434134",
    "hcaiId": "406394086",
    "businessName": "CENTERWELL CERTIFIED HEALTHCARE CORP.",
    "contactEmail": "RACHELCANTU@CENTERWELLHOMEHEALTH.COM",
    "categoryName": "HOME HEALTH AGENCY",
    "categoryCode": "HHA",
    "licenseStatus": "ACTIVE",
    "inService": true,
    "licenseNumber": "100000602",
    "licenseEffectiveDate": "11/01/2023",
    "licenseExpirationDate": "10/31/2024",
    "dataDate": "10/18/2025",
    "capacity": 0,
    "address": "10100 TRINITY PARKWAY, SUITE 425",
    "city": "STOCKTON",
    "zip": "95219",
    "county": "SAN JOAQUIN",
    "phone": "(209) 474-7881",
    "lat": 38.04759,
    "lng": -121.3703415
  },
  {
    "id": "110001170",
    "name": "RAI-WEST MARCH-STOCKTON",
    "npi": "1063586394",
    "hcaiId": "306394010",
    "businessName": "RAI CARE CENTERS OF NORTHERN CALIFORNIA I, LLC",
    "contactEmail": "PRINCES.ALDAY@FRESENIUSMEDICALCARE.COM",
    "categoryName": "CHRONIC DIALYSIS CLINIC",
    "categoryCode": "ESRD/CDC",
    "licenseStatus": "ACTIVE",
    "inService": true,
    "licenseNumber": "110000459",
    "licenseEffectiveDate": "04/01/2025",
    "licenseExpirationDate": "03/31/2026",
    "dataDate": "10/18/2025",
    "capacity": 36,
    "address": "3115 W. MARCH LANE",
    "city": "STOCKTON",
    "zip": "95219",
    "county": "SAN JOAQUIN",
    "phone": "(209) 955-7527",
    "lat": 37.985049,
    "lng": -121.35051
  },
  {
    "id": "100000213",
    "name": "ST. JOSEPH'S MEDICAL CENTER HOME HEALTH",
    "npi": "1306978945",
    "hcaiId": "406392222",
    "businessName": "PORT CITY OPERATING COMPANY, LLC",
    "contactEmail": "REBECCA.HARKUS@COMMONSPIRIT.ORG",
    "categoryName": "HOME HEALTH AGENCY",
    "categoryCode": "HHA",
    "licenseStatus": "ACTIVE",
    "inService": true,
    "licenseNumber": "100000166",
    "licenseEffectiveDate": "07/12/2025",
    "licenseExpirationDate": "07/11/2026",
    "dataDate": "10/18/2025",
    "capacity": 0,
    "address": "3555 DEER PARK DR, SUITE 100",
    "city": "STOCKTON",
    "zip": "95219",
    "county": "SAN JOAQUIN",
    "phone": "(209) 473-6700",
    "lat": 37.987245,
    "lng": -121.352769
  },
  {
    "id": "630018024",
    "name": "SUNCREST HOSPICE SAN JOAQUIN",
    "npi": null,
    "hcaiId": "406372882",
    "businessName": "AMERICAS BEST HOSPICE CARE INC",
    "contactEmail": "SNIELSEN@SUNCRESTCARE.COM",
    "categoryName": "HOSPICE",
    "categoryCode": "HOSPICE",
    "licenseStatus": "ACTIVE",
    "inService": true,
    "licenseNumber": "550005723",
    "licenseEffectiveDate": "07/17/2024",
    "licenseExpirationDate": "07/16/2026",
    "dataDate": "10/18/2025",
    "capacity": 0,
    "address": "3121 WEST MARCH LANE, SUITE 250",
    "city": "STOCKTON",
    "zip": "95219",
    "county": "SAN JOAQUIN",
    "phone": "(801) 656-5800",
    "lat": 37.9854502,
    "lng": -121.3512121
  },
  {
    "id": "630010890",
    "name": "WELLBOUND OF STOCKTON, LLC",
    "npi": "1144260811",
    "hcaiId": null,
    "businessName": null,
    "contactEmail": null,
    "categoryName": "CHRONIC DIALYSIS CLINIC",
    "categoryCode": "ESRD",
    "licenseStatus": null,
    "inService": null,
    "licenseNumber": null,
    "licenseEffectiveDate": null,
    "licenseExpirationDate": null,
    "dataDate": "10/18/2025",
    "capacity": 0,
    "address": "3555 DEER PARK DRIVE, SUITE 104",
    "city": "STOCKTON",
    "zip": "95219",
    "county": "SAN JOAQUIN",
    "phone": "(209) 955-5630",
    "lat": 37.987245,
    "lng": -121.352769
  }
]