[
  {
    "id": "630015796",
    "name": "FAMILY MEDICINE CLINIC - FRENCH CAMP",
    "npi": "1578803428",
    "hcaiId": null,
    "businessName": null,
    "contactEmail": null,
    "categoryName": "PRIMARY CARE CLINIC",
    "categoryCode": "FQHC",
    "licenseStatus": null,
    "inService": null,
    "licenseNumber": null,
    "licenseEffectiveDate": null,
    "licenseExpirationDate": null,
    "dataDate": "10/18/2025",
    "capacity": 0,
    "address": "500 WEST HOSPITAL ROAD, SUITE B",
    "city": "FRENCH CAMP",
    "zip": "95231",
    "county": "SAN JOAQUIN",
    "phone": "(209) 468-6709",
    "lat": 37.886715,
    "lng": -121.284144
  },
  {
    "id": "630015795",
    "name": "HEALTHY BEGINNINGS - FRENCH CAMP",
    "npi": "1629319447",
    "hcaiId": null,
    "businessName": null,
    "contactEmail": null,
    "categoryName": "PRIMARY CARE CLINIC",
    "categoryCode": "FQHC",
    "licenseStatus": null,
    "inService": null,
    "licenseNumber": null,
    "licenseEffectiveDate": null,
    "licenseExpirationDate": null,
    "dataDate": "10/18/2025",
    "capacity": 0,
    "address": "500 WEST HOSPITAL ROAD, SUITE A",
    "city": "FRENCH CAMP",
    "zip": "95231",
    "county": "SAN JOAQUIN",
    "phone": "(209) 468-6147",
    "lat": 37.886715,
    "lng": -121.284144
  },
  {
    "id": "630015797",
    "name": "PRIMARY MEDICINE CLINIC- FRENCH CAMP",
    "npi": "1710228531",
    "hcaiId": null,
    "businessName": null,
    "contactEmail": null,
    "categoryName": "PRIMARY CARE CLINIC",
    "categoryCode": "FQHC",
    "licenseStatus": null,
    "inService": null,
    "licenseNumber": null,
    "licenseEffectiveDate": null,
    "licenseExpirationDate": null,
    "dataDate": "10/18/2025",
    "capacity": 0,
    "address": "500 WEST HOSPITAL ROAD, SUITE C",
    "city": "FRENCH CAMP",
    "zip": "95231",
    "county": "SAN JOAQUIN",
    "phone": "(209) 568-6820",
    "lat": 37.886715,
    "lng": -121.284144
  },
  {
    "id": "030000135",
    "name": "SAN JOAQUIN GENERAL HOSPITAL",
    "npi": "1275605180",
    "hcaiId": "106391010",
    "businessName": "COUNTY OF SAN JOAQUIN",
    "contactEmail": "CJUMAOAS@SJGH.ORG",
    "categoryName": "GENERAL ACUTE CARE HOSPITAL",
    "categoryCode": "GACH",
    "licenseStatus": "ACTIVE",
    "inService": true,
    "licenseNumber": "030000087",
    "licenseEffectiveDate": "11/01/2025",
    "licenseExpirationDate": "10/31/2026",
    "dataDate": "10/18/2025",
    "capacity": 152,
    "address": "500 W. HOSPITAL ROAD",
    "city": "FRENCH CAMP",
    "zip": "95231",
    "county": "SAN JOAQUIN",
    "phone": "(209) 468-6010",
    "lat": 37.886715,
    "lng": -121.284144
  },
  {
    "id": "030001790",
    "name": "SAN JOAQUIN GENERAL HOSPITAL-ESRD",
    "npi": "1992870430",
    "hcaiId": null,
    "businessName": "COUNTY OF SAN JOAQUIN",
    "contactEmail": null,
    "categoryName": "CHRONIC DIALYSIS CLINIC",
    "categoryCode": "ESRD",
    "licenseStatus": "ACTIVE",
    "inService": true,
    "licenseNumber": "030000087",
    "licenseEffectiveDate": "11/01/2025",
    "licenseExpirationDate": "10/31/2026",
    "dataDate": "10/18/2025",
    "capacity": 0,
    "address": "7783 SOUTH FREEDOM ROAD",
    "city": "FRENCH CAMP",
    "zip": "95231",
    "county": "SAN JOAQUIN",
    "phone": null,
    "lat": 37.88257327,
    "lng": -121.2819861
  }
]