[
  {
    "id": "100000190",
    "name": "ADVENTIST HEALTH HOME CARE SERVICES",
    "npi": "1770042103",
    "hcaiId": "406392219",
    "businessName": "WESTERN HEALTH RESOURCES",
    "contactEmail": "CREDENTIALING@AH.ORG",
    "categoryName": "HOME HEALTH AGENCY",
    "categoryCode": "HHA",
    "licenseStatus": "ACTIVE",
    "inService": true,
    "licenseNumber": "100000269",
    "licenseEffectiveDate": "10/22/2025",
    "licenseExpirationDate": "11/15/2025",
    "dataDate": "10/18/2025",
    "capacity": 0,
    "address": "800 S. LOWER SACRAMENTO ROAD",
    "city": "LODI",
    "zip": "95242",
    "county": "SAN JOAQUIN",
    "phone": "(916) 405-1430",
    "lat": 38.123703,
    "lng": -121.305186
  },
  {
    "id": "030001037",
    "name": "COMMUNITY MEDICAL CENTERS, LODI",
    "npi": "1881685964",
    "hcaiId": "306394014",
    "businessName": "COMMUNITY MEDICAL CENTERS, INC.",
    "contactEmail": "GLRAMIREZ@CMCENTERS.ORG",
    "categoryName": "PRIMARY CARE CLINIC",
    "categoryCode": "COMTYC",
    "licenseStatus": "ACTIVE",
    "inService": true,
    "licenseNumber": "030000424",
    "licenseEffectiveDate": "05/20/2025",
    "licenseExpirationDate": "05/19/2026",
    "dataDate": "10/18/2025",
    "capacity": 0,
    "address": "2401 W. TURNER ROAD, SUITE 450",
    "city": "LODI",
    "zip": "95242",
    "county": "SAN JOAQUIN",
    "phone": "(209) 259-6546",
    "lat": 38.146131,
    "lng": -121.305582
  },
  {
    "id": "630019406",
    "name": "COMMUNITY MEDICAL CENTERS, LODI VINE FAMILY CARE",
    "npi": null,
    "hcaiId": null,
    "businessName": "COMMUNITY MEDICAL CENTERS, INC.",
    "contactEmail": null,
    "categoryName": "PRIMARY CARE CLINIC",
    "categoryCode": "COMTYC",
    "licenseStatus": "ACTIVE",
    "inService": true,
    "licenseNumber": "550003006",
    "licenseEffectiveDate": "03/13/2025",
    "licenseExpirationDate": "03/12/2026",
    "dataDate": "10/18/2025",
    "capacity": 0,
    "address": "2415 W VINE ST, SUITE 105",
    "city": "LODI",
    "zip": "95242",
    "county": "SAN JOAQUIN",
    "phone": "(209) 333-3121",
    "lat": 38.122911,
    "lng": -121.3051352
  },
  {
    "id": "630019405",
    "name": "COMMUNITY MEDICAL CENTERS, LODI VINE PEDIATRICS",
    "npi": "1285059923",
    "hcaiId": null,
    "businessName": "COMMUNITY MEDICAL CENTERS, INC.",
    "contactEmail": null,
    "categoryName": "PRIMARY CARE CLINIC",
    "categoryCode": "COMTYC",
    "licenseStatus": "ACTIVE",
    "inService": true,
    "licenseNumber": "550003006",
    "licenseEffectiveDate": "03/13/2025",
    "licenseExpirationDate": "03/12/2026",
    "dataDate": "10/18/2025",
    "capacity": 0,
    "address": "2415 W VINE ST, SUITE 100",
    "city": "LODI",
    "zip": "95242",
    "county": "SAN JOAQUIN",
    "phone": null,
    "lat": 38.122911,
    "lng": -121.3051352
  },
  {
    "id": "100001371",
    "name": "GABRIEL'S ICF/DDN",
    "npi": "1104976794",
    "hcaiId": null,
    "businessName": "ARYSA, LLC",
    "contactEmail": "LUZMARCOS@ARYSALLC.COM",
    "categoryName": "INTERMEDIATE CARE FACILITY-DD/H/N/CN/IID",
    "categoryCode": "ICFDDN",
    "licenseStatus": "ACTIVE",
    "inService": true,
    "licenseNumber": "100000569",
    "licenseEffectiveDate": "08/05/2025",
    "licenseExpirationDate": "03/25/2026",
    "dataDate": "10/18/2025",
    "capacity": 6,
    "address": "2155 W. ELM STREET",
    "city": "LODI",
    "zip": "95242",
    "county": "SAN JOAQUIN",
    "phone": "(209) 598-1186",
    "lat": 38.136546,
    "lng": -121.3011
  },
  {
    "id": "630027788",
    "name": "HANLEY HOME HEALTHCARE LLC",
    "npi": null,
    "hcaiId": null,
    "businessName": "HANLEY HOME HEALTHCARE LLC",
    "contactEmail": "CHERISEHANLEY@GMAIL.COM",
    "categoryName": "HOME HEALTH AGENCY",
    "categoryCode": "HHA",
    "licenseStatus": "ACTIVE",
    "inService": true,
    "licenseNumber": "550009993",
    "licenseEffectiveDate": "10/21/2025",
    "licenseExpirationDate": "04/20/2026",
    "dataDate": "10/18/2025",
    "capacity": 0,
    "address": "1806 W KETTLEMAN LN, SUITE D1",
    "city": "LODI",
    "zip": "95242",
    "county": "SAN JOAQUIN",
    "phone": "(209) 263-7151",
    "lat": 38.11452401,
    "lng": -121.294869
  },
  {
    "id": "630014938",
    "name": "HOSPICE OF SAN JOAQUIN - LODI",
    "npi": "1518962083",
    "hcaiId": null,
    "businessName": "HOSPICE OF SAN JOAQUIN",
    "contactEmail": null,
    "categoryName": "HOSPICE",
    "categoryCode": "HOSPICE",
    "licenseStatus": "ACTIVE",
    "inService": true,
    "licenseNumber": "100000706",
    "licenseEffectiveDate": "04/01/2024",
    "licenseExpirationDate": "03/31/2026",
    "dataDate": "10/18/2025",
    "capacity": 0,
    "address": "1300 W. LODI AVENUE, SUITE S",
    "city": "LODI",
    "zip": "95242",
    "county": "SAN JOAQUIN",
    "phone": "(209) 957-3888",
    "lat": 38.129787,
    "lng": -121.288689
  },
  {
    "id": "110001176",
    "name": "LODI DIALYSIS CENTER",
    "npi": "1528027349",
    "hcaiId": "306394076",
    "businessName": "TOTAL RENAL CARE, INC.",
    "contactEmail": "CAL_C@DAVITA.COM",
    "categoryName": "CHRONIC DIALYSIS CLINIC",
    "categoryCode": "ESRD/CDC",
    "licenseStatus": "ACTIVE",
    "inService": true,
    "licenseNumber": "110000465",
    "licenseEffectiveDate": "12/01/2024",
    "licenseExpirationDate": "11/30/2025",
    "dataDate": "10/18/2025",
    "capacity": 21,
    "address": "1610 W. KETTLEMAN LANE, SUITE D",
    "city": "LODI",
    "zip": "95242",
    "county": "SAN JOAQUIN",
    "phone": "(209) 334-9888",
    "lat": 38.114964,
    "lng": -121.2928605
  },
  {
    "id": "030001825",
    "name": "LODI NURSING & REHABILITATION",
    "npi": "1861868721",
    "hcaiId": "206391887",
    "businessName": "ALHL, LLC",
    "contactEmail": "DOUGB@ASPENHEALTH.COM",
    "categoryName": "SKILLED NURSING FACILITY",
    "categoryCode": "SNF",
    "licenseStatus": "ACTIVE",
    "inService": true,
    "licenseNumber": "030000138",
    "licenseEffectiveDate": "02/01/2025",
    "licenseExpirationDate": "01/31/2026",
    "dataDate": "10/18/2025",
    "capacity": 74,
    "address": "1334 S. HAM LANE",
    "city": "LODI",
    "zip": "95242",
    "county": "SAN JOAQUIN",
    "phone": "(209) 334-3825",
    "lat": 38.11581,
    "lng": -121.287339
  },
  {
    "id": "030000689",
    "name": "LODI OUTPATIENT SURGICAL CENTER",
    "npi": "1093771073",
    "hcaiId": "306394004",
    "businessName": "ARTEL, INC.",
    "contactEmail": "YAKOT@LODINET.COM",
    "categoryName": "SURGICAL CLINIC",
    "categoryCode": "ASC",
    "licenseStatus": "INACTIVE - CAPEN DECISION",
    "inService": false,
    "licenseNumber": "030000345",
    "licenseEffectiveDate": "04/11/2008",
    "licenseExpirationDate": "04/10/2009",
    "dataDate": "10/18/2025",
    "capacity": 0,
    "address": "521 S. HAM LANE",
    "city": "LODI",
    "zip": "95242",
    "county": "SAN JOAQUIN",
    "phone": "(209) 333-0905",
    "lat": 38.127924,
    "lng": -121.2889005
  },
  {
    "id": "630011841",
    "name": "SARGENT CARE HOME",
    "npi": "1619132198",
    "hcaiId": null,
    "businessName": null,
    "contactEmail": "SARGENTCAREHOME@GMAIL.COM",
    "categoryName": "INTERMEDIATE CARE FACILITY-DD/H/N/CN/IID",
    "categoryCode": "ICFDDH",
    "licenseStatus": "ACTIVE",
    "inService": true,
    "licenseNumber": "550000811",
    "licenseEffectiveDate": "11/12/2024",
    "licenseExpirationDate": "11/11/2025",
    "dataDate": "10/18/2025",
    "capacity": 6,
    "address": "3261 W. SARGENT ROAD",
    "city": "LODI",
    "zip": "95242",
    "county": "SAN JOAQUIN",
    "phone": "(209) 365-7934",
    "lat": 38.13045648,
    "lng": -121.3561892
  },
  {
    "id": "630012655",
    "name": "SUNSHINE ICF DDN",
    "npi": "1437473063",
    "hcaiId": null,
    "businessName": "ARYSA, LLC",
    "contactEmail": "LUZMARCOS@ARYSALLC.COM",
    "categoryName": "INTERMEDIATE CARE FACILITY-DD/H/N/CN/IID",
    "categoryCode": "ICFDDN",
    "licenseStatus": "ACTIVE",
    "inService": true,
    "licenseNumber": "550001405",
    "licenseEffectiveDate": "06/17/2025",
    "licenseExpirationDate": "11/26/2025",
    "dataDate": "10/18/2025",
    "capacity": 6,
    "address": "1701 W. ELM STREET",
    "city": "LODI",
    "zip": "95242",
    "county": "SAN JOAQUIN",
    "phone": "(209) 263-7196",
    "lat": 38.136492,
    "lng": -121.294386
  },
  {
    "id": "630011254",
    "name": "TOKAY HOME DIALYSIS CENTER",
    "npi": "1912054941",
    "hcaiId": null,
    "businessName": null,
    "contactEmail": null,
    "categoryName": "CHRONIC DIALYSIS CLINIC",
    "categoryCode": "ESRD",
    "licenseStatus": null,
    "inService": null,
    "licenseNumber": null,
    "licenseEffectiveDate": null,
    "licenseExpirationDate": null,
    "dataDate": "10/18/2025",
    "capacity": 0,
    "address": "777 S. HAM LANE, SUITE L",
    "city": "LODI",
    "zip": "95242",
    "county": "SAN JOAQUIN",
    "phone": "(209) 333-8909",
    "lat": 38.125224,
    "lng": -121.2888915
  },
  {
    "id": "100000104",
    "name": "VIENNA NURSING AND REHABILITATION CENTER",
    "npi": "1972501823",
    "hcaiId": "206391070",
    "businessName": "VIENNA CONVALESCENT HOSPITAL INC.",
    "contactEmail": "CWRIGHT@VIENNANURSING.COM",
    "categoryName": "SKILLED NURSING FACILITY",
    "categoryCode": "SNF",
    "licenseStatus": "ACTIVE",
    "inService": true,
    "licenseNumber": "100000111",
    "licenseEffectiveDate": "11/01/2025",
    "licenseExpirationDate": "10/31/2026",
    "dataDate": "10/18/2025",
    "capacity": 150,
    "address": "800 S. HAM LANE",
    "city": "LODI",
    "zip": "95242",
    "county": "SAN JOAQUIN",
    "phone": "(209) 368-7141",
    "lat": 38.124144,
    "lng": -121.287627
  }
]