[
  {
    "id": "030000139",
    "name": "ADVENTIST HEALTH LODI MEMORIAL",
    "npi": "1316938301",
    "hcaiId": "106390923",
    "businessName": "LODI MEMORIAL HOSPITAL ASSOCIATION, INC.",
    "contactEmail": "MCCOLLB1@AH.ORG",
    "categoryName": "GENERAL ACUTE CARE HOSPITAL",
    "categoryCode": "GACH",
    "licenseStatus": "ACTIVE",
    "inService": true,
    "licenseNumber": "030000056",
    "licenseEffectiveDate": "05/01/2025",
    "licenseExpirationDate": "04/30/2026",
    "dataDate": "10/18/2025",
    "capacity": 194,
    "address": "975 S. FAIRMONT AVENUE",
    "city": "LODI",
    "zip": "95240",
    "county": "SAN JOAQUIN",
    "phone": "(209) 339-7884",
    "lat": 38.120355,
    "lng": -121.287798
  },
  {
    "id": "100001617",
    "name": "ALPINE ICF",
    "npi": "1013183581",
    "hcaiId": null,
    "businessName": "ARYSA, LLC",
    "contactEmail": "LUZMARCOS@ARYSALLC.COM",
    "categoryName": "INTERMEDIATE CARE FACILITY-DD/H/N/CN/IID",
    "categoryCode": "ICFDDN",
    "licenseStatus": "ACTIVE",
    "inService": true,
    "licenseNumber": "100000675",
    "licenseEffectiveDate": "01/30/2025",
    "licenseExpirationDate": "11/05/2025",
    "dataDate": "10/18/2025",
    "capacity": 6,
    "address": "2216 ALPINE DRIVE",
    "city": "LODI",
    "zip": "95240",
    "county": "SAN JOAQUIN",
    "phone": "(209) 333-0592",
    "lat": 38.105541,
    "lng": -121.273938
  },
  {
    "id": "100000022",
    "name": "ARBOR REHABILITATION & NURSING CENTER",
    "npi": "1396986436",
    "hcaiId": "206392330",
    "businessName": "BRODY BAY HEALTHCARE, INC.",
    "contactEmail": "KPERRY@ENSIGNSERVICES.NET",
    "categoryName": "SKILLED NURSING FACILITY",
    "categoryCode": "SNF",
    "licenseStatus": "ACTIVE",
    "inService": true,
    "licenseNumber": "100000220",
    "licenseEffectiveDate": "08/01/2025",
    "licenseExpirationDate": "04/15/2026",
    "dataDate": "10/18/2025",
    "capacity": 149,
    "address": "900 N. CHURCH STREET",
    "city": "LODI",
    "zip": "95240",
    "county": "SAN JOAQUIN",
    "phone": "(209) 333-1222",
    "lat": 38.144718,
    "lng": -121.2737895
  },
  {
    "id": "630019621",
    "name": "CAPK LODI UCCC",
    "npi": "1285059923",
    "hcaiId": null,
    "businessName": "COMMUNITY MEDICAL CENTERS, INC.",
    "contactEmail": null,
    "categoryName": "PRIMARY CARE CLINIC",
    "categoryCode": "COMTYC",
    "licenseStatus": "ACTIVE",
    "inService": true,
    "licenseNumber": "550003006",
    "licenseEffectiveDate": "03/13/2025",
    "licenseExpirationDate": "03/12/2026",
    "dataDate": "10/18/2025",
    "capacity": 0,
    "address": "701 S HUTCHINS ST",
    "city": "LODI",
    "zip": "95240",
    "county": "SAN JOAQUIN",
    "phone": null,
    "lat": 38.125629,
    "lng": -121.2799005
  },
  {
    "id": "630014066",
    "name": "COMMUNITY MEDICAL CENTERS, LAWRENCE",
    "npi": null,
    "hcaiId": null,
    "businessName": "COMMUNITY MEDICAL CENTERS, INC.",
    "contactEmail": null,
    "categoryName": "PRIMARY CARE CLINIC",
    "categoryCode": "COMTYC",
    "licenseStatus": "ACTIVE",
    "inService": true,
    "licenseNumber": "550003006",
    "licenseEffectiveDate": "03/13/2025",
    "licenseExpirationDate": "03/12/2026",
    "dataDate": "10/18/2025",
    "capacity": 0,
    "address": "721 CALAVERAS STREET",
    "city": "LODI",
    "zip": "95240",
    "county": "SAN JOAQUIN",
    "phone": "(209) 331-8019",
    "lat": 38.14285502,
    "lng": -121.2656911
  },
  {
    "id": "630028191",
    "name": "COMMUNITY MEDICAL CENTERS, LODI EAST",
    "npi": null,
    "hcaiId": null,
    "businessName": "COMMUNITY MEDICAL CENTERS, INC.",
    "contactEmail": null,
    "categoryName": "PRIMARY CARE CLINIC",
    "categoryCode": "FQHC/COMTYC",
    "licenseStatus": "ACTIVE",
    "inService": true,
    "licenseNumber": "550003006",
    "licenseEffectiveDate": "03/13/2025",
    "licenseExpirationDate": "03/12/2026",
    "dataDate": "10/18/2025",
    "capacity": 0,
    "address": "1150 S CHEROKEE LN",
    "city": "LODI",
    "zip": "95240",
    "county": "SAN JOAQUIN",
    "phone": null,
    "lat": 38.11892627,
    "lng": -121.2596641
  },
  {
    "id": "030001539",
    "name": "DIRECTIONS MEDICAL CLINIC",
    "npi": null,
    "hcaiId": "306394092",
    "businessName": "DIRECTIONS MEDICAL CLINIC",
    "contactEmail": "BRIANNA@DMCFORWOMEN.ORG",
    "categoryName": "PRIMARY CARE CLINIC",
    "categoryCode": "FREEC",
    "licenseStatus": "ACTIVE",
    "inService": true,
    "licenseNumber": "030000633",
    "licenseEffectiveDate": "11/29/2024",
    "licenseExpirationDate": "11/28/2025",
    "dataDate": "10/18/2025",
    "capacity": 0,
    "address": "942 E. PINE STREET",
    "city": "LODI",
    "zip": "95240",
    "county": "SAN JOAQUIN",
    "phone": "(209) 368-7190",
    "lat": 38.13394143,
    "lng": -121.2546286
  },
  {
    "id": "100000003",
    "name": "FAIRMONT REHABILITATION HOSPITAL",
    "npi": "1295448967",
    "hcaiId": "206390873",
    "businessName": "DEERGRASS HEALTHCARE, INC.",
    "contactEmail": "RTU@ENSIGNSERVICES.NET",
    "categoryName": "SKILLED NURSING FACILITY",
    "categoryCode": "SNF",
    "licenseStatus": "ACTIVE",
    "inService": true,
    "licenseNumber": "100000039",
    "licenseEffectiveDate": "06/01/2025",
    "licenseExpirationDate": "05/31/2026",
    "dataDate": "10/18/2025",
    "capacity": 59,
    "address": "950 S FAIRMONT AVE",
    "city": "LODI",
    "zip": "95240",
    "county": "SAN JOAQUIN",
    "phone": "(209) 368-0693",
    "lat": 38.121552,
    "lng": -121.2853995
  },
  {
    "id": "100000029",
    "name": "LODI CREEK POST ACUTE",
    "npi": "1619531258",
    "hcaiId": "206390894",
    "businessName": "ENGLISH CHANNEL HOLDINGS, LLC",
    "contactEmail": "CMARCHESCHI@LINKSHEALTH.COM",
    "categoryName": "SKILLED NURSING FACILITY",
    "categoryCode": "SNF",
    "licenseStatus": "ACTIVE",
    "inService": true,
    "licenseNumber": "100000044",
    "licenseEffectiveDate": "04/01/2025",
    "licenseExpirationDate": "03/31/2026",
    "dataDate": "10/18/2025",
    "capacity": 86,
    "address": "321 W. TURNER ROAD",
    "city": "LODI",
    "zip": "95240",
    "county": "SAN JOAQUIN",
    "phone": "(209) 334-3760",
    "lat": 38.146527,
    "lng": -121.277592
  },
  {
    "id": "110001240",
    "name": "TOKAY DIALYSIS CENTER",
    "npi": "1295798338",
    "hcaiId": "306394062",
    "businessName": "RENAL TREATMENT CENTERS - CALIFORNIA, INC.",
    "contactEmail": "CAL_C@DAVITA.COM",
    "categoryName": "CHRONIC DIALYSIS CLINIC",
    "categoryCode": "ESRD/CDC",
    "licenseStatus": "ACTIVE",
    "inService": true,
    "licenseNumber": "110000506",
    "licenseEffectiveDate": "11/17/2025",
    "licenseExpirationDate": "11/16/2026",
    "dataDate": "10/18/2025",
    "capacity": 12,
    "address": "312 S. FAIRMONT AVENUE, SUITE A",
    "city": "LODI",
    "zip": "95240",
    "county": "SAN JOAQUIN",
    "phone": "(209) 369-5418",
    "lat": 38.129139,
    "lng": -121.2854445
  }
]