[
  {
    "id": "630012164",
    "name": "FAMILY MEDICAL CENTER - SAN ANDREAS",
    "npi": "1205002938",
    "hcaiId": null,
    "businessName": "MARK TWAIN MEDICAL CENTER",
    "contactEmail": null,
    "categoryName": "PRIMARY CARE CLINIC",
    "categoryCode": "RHC/OP",
    "licenseStatus": "ACTIVE",
    "inService": true,
    "licenseNumber": "030000058",
    "licenseEffectiveDate": "12/20/2024",
    "licenseExpirationDate": "12/19/2025",
    "dataDate": "10/18/2025",
    "capacity": 0,
    "address": "702 MOUNTAIN RANCH RD",
    "city": "SAN ANDREAS",
    "zip": "95249",
    "county": "CALAVERAS",
    "phone": "(209) 754-4564",
    "lat": 38.18972979,
    "lng": -120.6716909
  },
  {
    "id": "030000012",
    "name": "GOLDEN SAN ANDREAS CARE CENTER",
    "npi": "1215921242",
    "hcaiId": "206051802",
    "businessName": "SAN ANDREAS SNF OPERATIONS LLC",
    "contactEmail": "157_ADMINISTRATOR@AVALONHEALTHCARE.COM",
    "categoryName": "SKILLED NURSING FACILITY",
    "categoryCode": "SNF",
    "licenseStatus": "ACTIVE",
    "inService": true,
    "licenseNumber": "030000135",
    "licenseEffectiveDate": "12/01/2024",
    "licenseExpirationDate": "11/30/2025",
    "dataDate": "10/18/2025",
    "capacity": 99,
    "address": "900 MOUNTAIN RANCH ROAD",
    "city": "SAN ANDREAS",
    "zip": "95249",
    "county": "CALAVERAS",
    "phone": "(209) 754-3823",
    "lat": 38.18943,
    "lng": -120.668841
  },
  {
    "id": "630017063",
    "name": "MACT DENTAL CLINIC, SAN ANDREAS",
    "npi": "1366519431",
    "hcaiId": "306054014",
    "businessName": "M.A.C.T. HEALTH BOARD, INCORPORATED",
    "contactEmail": "MARGARET.METCALF@MACTHEALTH.ORG",
    "categoryName": "PRIMARY CARE CLINIC",
    "categoryCode": "FQHC/COMTYC",
    "licenseStatus": "ACTIVE",
    "inService": true,
    "licenseNumber": "550003856",
    "licenseEffectiveDate": "05/05/2025",
    "licenseExpirationDate": "05/04/2026",
    "dataDate": "10/18/2025",
    "capacity": 0,
    "address": "1113A HIGHWAY 49",
    "city": "SAN ANDREAS",
    "zip": "95249",
    "county": "CALAVERAS",
    "phone": "(209) 754-6242",
    "lat": 38.20839937,
    "lng": -120.6972582
  },
  {
    "id": "630011444",
    "name": "MACT MEDICAL CLINIC, SAN ANDREAS",
    "npi": "1366519431",
    "hcaiId": "306054013",
    "businessName": "M.A.C.T. HEALTH BOARD, INCORPORATED",
    "contactEmail": "PURCHASING@MACTHEALTH.ORG",
    "categoryName": "PRIMARY CARE CLINIC",
    "categoryCode": "COMTYC",
    "licenseStatus": "ACTIVE",
    "inService": true,
    "licenseNumber": "550000678",
    "licenseEffectiveDate": "01/28/2025",
    "licenseExpirationDate": "01/27/2026",
    "dataDate": "10/18/2025",
    "capacity": 0,
    "address": "1113 HIGHWAY 49",
    "city": "SAN ANDREAS",
    "zip": "95249",
    "county": "CALAVERAS",
    "phone": "(209) 755-1400",
    "lat": 38.20788,
    "lng": -120.6985995
  },
  {
    "id": "030000120",
    "name": "MARK TWAIN MEDICAL CENTER",
    "npi": "1508968819",
    "hcaiId": "106050932",
    "businessName": "MARK TWAIN MEDICAL CENTER",
    "contactEmail": "DOUG.ARCHER@DIGNITYHEALTH.ORG",
    "categoryName": "GENERAL ACUTE CARE HOSPITAL",
    "categoryCode": "GACH",
    "licenseStatus": "ACTIVE",
    "inService": true,
    "licenseNumber": "030000058",
    "licenseEffectiveDate": "12/20/2024",
    "licenseExpirationDate": "12/19/2025",
    "dataDate": "10/18/2025",
    "capacity": 25,
    "address": "768 MOUNTAIN RANCH ROAD",
    "city": "SAN ANDREAS",
    "zip": "95249",
    "county": "CALAVERAS",
    "phone": "(209) 754-3521",
    "lat": 38.190204,
    "lng": -120.670002
  }
]