[
  {
    "id": "630011281",
    "name": "CERES DIALYSIS CENTER",
    "npi": "1801923164",
    "hcaiId": "306504065",
    "businessName": "TOTAL RENAL CARE, INC.",
    "contactEmail": "CAL_C@DAVITA.COM",
    "categoryName": "CHRONIC DIALYSIS CLINIC",
    "categoryCode": "ESRD/CDC",
    "licenseStatus": "ACTIVE",
    "inService": true,
    "licenseNumber": "550000565",
    "licenseEffectiveDate": "12/20/2024",
    "licenseExpirationDate": "12/19/2025",
    "dataDate": "10/18/2025",
    "capacity": 16,
    "address": "1768 MITCHELL RD, SUITE 308",
    "city": "CERES",
    "zip": "95307",
    "county": "STANISLAUS",
    "phone": "(209) 538-9853",
    "lat": 37.605564,
    "lng": -120.938085
  },
  {
    "id": "030000066",
    "name": "CERES POSTACUTE CARE",
    "npi": "1568818367",
    "hcaiId": "206502269",
    "businessName": "VISTA DEL SOL POSTACUTE CARE",
    "contactEmail": "ADMINISTRATOR@VISTADELSOLPOSTACUTE.COM",
    "categoryName": "SKILLED NURSING FACILITY",
    "categoryCode": "SNF",
    "licenseStatus": "ACTIVE",
    "inService": true,
    "licenseNumber": "030000195",
    "licenseEffectiveDate": "03/28/2025",
    "licenseExpirationDate": "03/27/2026",
    "dataDate": "10/18/2025",
    "capacity": 46,
    "address": "1711 RICHLAND AVE",
    "city": "CERES",
    "zip": "95307",
    "county": "STANISLAUS",
    "phone": "(209) 537-4581",
    "lat": 37.604196,
    "lng": -120.966975
  },
  {
    "id": "630016890",
    "name": "GOLDEN VALLEY HEALTH CENTER",
    "npi": null,
    "hcaiId": "306504083",
    "businessName": "GOLDEN VALLEY HEALTH CENTERS",
    "contactEmail": "EVILLARAMA@GVHC.ORG",
    "categoryName": "PRIMARY CARE CLINIC",
    "categoryCode": "COMTYC",
    "licenseStatus": "ACTIVE",
    "inService": false,
    "licenseNumber": "550003752",
    "licenseEffectiveDate": "12/12/2024",
    "licenseExpirationDate": "12/11/2025",
    "dataDate": "10/18/2025",
    "capacity": 0,
    "address": "1920 MEMORIAL DRIVE",
    "city": "CERES",
    "zip": "95307",
    "county": "STANISLAUS",
    "phone": "(209) 385-5554",
    "lat": 37.600155,
    "lng": -120.960765
  },
  {
    "id": "630020132",
    "name": "GOLDEN VALLEY HEALTH CENTERS - CERES WHITMORE",
    "npi": null,
    "hcaiId": null,
    "businessName": "GOLDEN VALLEY HEALTH CENTERS",
    "contactEmail": null,
    "categoryName": "PRIMARY CARE CLINIC",
    "categoryCode": "COMTYC",
    "licenseStatus": "ACTIVE",
    "inService": true,
    "licenseNumber": "550001810",
    "licenseEffectiveDate": "02/03/2025",
    "licenseExpirationDate": "12/06/2025",
    "dataDate": "10/18/2025",
    "capacity": 0,
    "address": "3109 E WHITMORE AVE",
    "city": "CERES",
    "zip": "95307",
    "county": "STANISLAUS",
    "phone": null,
    "lat": 37.595232,
    "lng": -120.937572
  }
]