[
  {
    "id": "630018227",
    "name": "ALTRUITY HOME HEALTH AND HOSPICE",
    "npi": null,
    "hcaiId": "406242447",
    "businessName": "ALTRUITY HOME HEALTH & HOSPICE LLC",
    "contactEmail": "LMACIAS@ANBERRY.COM",
    "categoryName": "HOME HEALTH AGENCY",
    "categoryCode": "HHA",
    "licenseStatus": "ACTIVE",
    "inService": true,
    "licenseNumber": "550005336",
    "licenseEffectiveDate": "02/10/2025",
    "licenseExpirationDate": "02/09/2026",
    "dataDate": "10/18/2025",
    "capacity": 0,
    "address": "1675 SHAFFER RD, SUITE 1",
    "city": "ATWATER",
    "zip": "95301",
    "county": "MERCED",
    "phone": "(209) 259-8111",
    "lat": 37.348119,
    "lng": -120.5968275
  },
  {
    "id": "040000225",
    "name": "ANBERRY NURSING AND REHABILITATION CENTER",
    "npi": "1053020453",
    "hcaiId": "206242280",
    "businessName": "GHC OF ANBERRY, LLC",
    "contactEmail": "CASSANDRAENS@LIFEGEN.NET",
    "categoryName": "SKILLED NURSING FACILITY",
    "categoryCode": "SNF",
    "licenseStatus": "ACTIVE",
    "inService": true,
    "licenseNumber": "040000070",
    "licenseEffectiveDate": "12/01/2024",
    "licenseExpirationDate": "11/30/2025",
    "dataDate": "10/18/2025",
    "capacity": 99,
    "address": "1685 SHAFFER RD",
    "city": "ATWATER",
    "zip": "95301",
    "county": "MERCED",
    "phone": "(209) 357-3420",
    "lat": 37.349028,
    "lng": -120.5971875
  },
  {
    "id": "240001799",
    "name": "ATWATER DIALYSIS",
    "npi": "1689648206",
    "hcaiId": "306244055",
    "businessName": "DVA RENAL HEALTHCARE, INC.",
    "contactEmail": "CAL_C@DAVITA.COM",
    "categoryName": "CHRONIC DIALYSIS CLINIC",
    "categoryCode": "ESRD/CDC",
    "licenseStatus": "ACTIVE",
    "inService": true,
    "licenseNumber": "240000793",
    "licenseEffectiveDate": "05/25/2025",
    "licenseExpirationDate": "05/24/2026",
    "dataDate": "10/18/2025",
    "capacity": 16,
    "address": "1201 COMMERCE AVE",
    "city": "ATWATER",
    "zip": "95301",
    "county": "MERCED",
    "phone": "(209) 358-7681",
    "lat": 37.34305386,
    "lng": -120.6124236
  },
  {
    "id": "040000794",
    "name": "CASTLE FAMILY HEALTH CENTER AT BLOSS",
    "npi": null,
    "hcaiId": "306244051",
    "businessName": "CASTLE FAMILY HEALTH CENTERS, INC.",
    "contactEmail": "MOJARRASP@CFHCINC.ORG",
    "categoryName": "PRIMARY CARE CLINIC",
    "categoryCode": "FQHC/COMTYC",
    "licenseStatus": "ACTIVE",
    "inService": false,
    "licenseNumber": "550001159",
    "licenseEffectiveDate": "11/01/2024",
    "licenseExpirationDate": "10/31/2025",
    "dataDate": "10/18/2025",
    "capacity": 0,
    "address": "1251 GROVE AVE",
    "city": "ATWATER",
    "zip": "95301",
    "county": "MERCED",
    "phone": "(209) 358-8425",
    "lat": 37.35107789,
    "lng": -120.607438
  },
  {
    "id": "040001103",
    "name": "CASTLE FAMILY HEALTH CENTER AT CASTLE",
    "npi": "1639100027",
    "hcaiId": "306244049",
    "businessName": "CASTLE FAMILY HEALTH CENTERS, INC.",
    "contactEmail": "MOJARRASP@CFHCINC.ORG",
    "categoryName": "PRIMARY CARE CLINIC",
    "categoryCode": "FQHC/COMTYC",
    "licenseStatus": "ACTIVE",
    "inService": true,
    "licenseNumber": "550001157",
    "licenseEffectiveDate": "11/02/2025",
    "licenseExpirationDate": "11/01/2026",
    "dataDate": "10/18/2025",
    "capacity": 0,
    "address": "3605 HOSPITAL RD",
    "city": "ATWATER",
    "zip": "95301",
    "county": "MERCED",
    "phone": "(209) 726-1235",
    "lat": 37.366767,
    "lng": -120.577455
  },
  {
    "id": "630027348",
    "name": "CASTLE FAMILY HEALTH CENTERS AT ATWATER",
    "npi": "1447281746",
    "hcaiId": null,
    "businessName": "CASTLE FAMILY HEALTH CENTERS, INC.",
    "contactEmail": "LUJANOE@CFHCINC.ORG",
    "categoryName": "PRIMARY CARE CLINIC",
    "categoryCode": "COMTYC",
    "licenseStatus": "ACTIVE",
    "inService": true,
    "licenseNumber": "550001158",
    "licenseEffectiveDate": "11/02/2025",
    "licenseExpirationDate": "11/01/2026",
    "dataDate": "10/18/2025",
    "capacity": 0,
    "address": "1775 3RD ST",
    "city": "ATWATER",
    "zip": "95301",
    "county": "MERCED",
    "phone": "(209) 724-4101",
    "lat": 37.35201499,
    "lng": -120.606808
  },
  {
    "id": "040001244",
    "name": "CENTRAL CALIFORNIA DENTAL SURGERY CENTER",
    "npi": "1528154986",
    "hcaiId": "306244030",
    "businessName": "DENTAL SURGERY CENTERS OF AMERICA",
    "contactEmail": "MILES.SHEPARD@BLUECLOUDPSC.COM",
    "categoryName": "SURGICAL CLINIC",
    "categoryCode": "ASC/SURGC",
    "licenseStatus": "ACTIVE",
    "inService": true,
    "licenseNumber": "040000485",
    "licenseEffectiveDate": "09/21/2025",
    "licenseExpirationDate": "09/20/2026",
    "dataDate": "10/18/2025",
    "capacity": 0,
    "address": "3605 HOSPITAL RD, SUITE H",
    "city": "ATWATER",
    "zip": "95301",
    "county": "MERCED",
    "phone": "(209) 381-2047",
    "lat": 37.366794,
    "lng": -120.5782245
  },
  {
    "id": "070001367",
    "name": "DAY BREAK ADULT DAY HEALTH CARE CENTER",
    "npi": null,
    "hcaiId": null,
    "businessName": "AUGUST CHAI ENTERPRISES, LLC",
    "contactEmail": "MCHAI@DAYBREAKADHC.COM",
    "categoryName": "ADULT DAY HEALTH CARE",
    "categoryCode": "ADHC",
    "licenseStatus": "ACTIVE",
    "inService": true,
    "licenseNumber": "070000665",
    "licenseEffectiveDate": "11/01/2025",
    "licenseExpirationDate": "10/31/2026",
    "dataDate": "10/18/2025",
    "capacity": 0,
    "address": "1251 GROVE AVE, SUITE E",
    "city": "ATWATER",
    "zip": "95301",
    "county": "MERCED",
    "phone": "(209) 357-0765",
    "lat": 37.35107789,
    "lng": -120.607438
  },
  {
    "id": "040000605",
    "name": "LOYD'S LIBERTY HOMES, INC. -  AUGUSTA",
    "npi": "1518147636",
    "hcaiId": null,
    "businessName": "LOYD'S LIBERTY HOMES, INC.",
    "contactEmail": "BRITTANY.CUPPS@SEVITAHEALTH.COM",
    "categoryName": "INTERMEDIATE CARE FACILITY-DD/H/N/CN/IID",
    "categoryCode": "ICFDDN",
    "licenseStatus": "ACTIVE",
    "inService": true,
    "licenseNumber": "040000269",
    "licenseEffectiveDate": "03/02/2025",
    "licenseExpirationDate": "03/01/2026",
    "dataDate": "10/18/2025",
    "capacity": 6,
    "address": "1733 AUGUSTA LN",
    "city": "ATWATER",
    "zip": "95301",
    "county": "MERCED",
    "phone": "(209) 357-7477",
    "lat": 37.346949,
    "lng": -120.5789895
  },
  {
    "id": "040000727",
    "name": "TAMARACK HOME",
    "npi": "1275879801",
    "hcaiId": null,
    "businessName": "PROVIDENT HEALTH CARE, INC.",
    "contactEmail": "PROVIDENTHEALTHCARE@YAHOO.COM",
    "categoryName": "INTERMEDIATE CARE FACILITY-DD/H/N/CN/IID",
    "categoryCode": "ICFDDN",
    "licenseStatus": "ACTIVE",
    "inService": true,
    "licenseNumber": "040000305",
    "licenseEffectiveDate": "05/03/2025",
    "licenseExpirationDate": "05/02/2026",
    "dataDate": "10/18/2025",
    "capacity": 6,
    "address": "1553 TAMARACK AVE",
    "city": "ATWATER",
    "zip": "95301",
    "county": "MERCED",
    "phone": "(209) 388-1002",
    "lat": 37.358991,
    "lng": -120.6095985
  }
]