[
  {
    "id": "630027230",
    "name": "ALL AGES HOME HEALTH SERVICES INC",
    "npi": null,
    "hcaiId": null,
    "businessName": "ALL AGES HOME HEALTH SERVICES INC",
    "contactEmail": "ALLAGESHOMEHEALTH@GMAIL.COM",
    "categoryName": "HOME HEALTH AGENCY",
    "categoryCode": "HHA",
    "licenseStatus": "ACTIVE",
    "inService": true,
    "licenseNumber": "550009897",
    "licenseEffectiveDate": "07/10/2025",
    "licenseExpirationDate": "01/09/2026",
    "dataDate": "10/18/2025",
    "capacity": 0,
    "address": "965 E YOSEMITE AVE, #22",
    "city": "MANTECA",
    "zip": "95336",
    "county": "SAN JOAQUIN",
    "phone": "(313) 463-0123",
    "lat": 37.79769713,
    "lng": -121.2033713
  },
  {
    "id": "630012570",
    "name": "COMMUNITY MEDICAL CENTERS, MANTECA",
    "npi": "1710211214",
    "hcaiId": "306394101",
    "businessName": "COMMUNITY MEDICAL CENTERS, INC.",
    "contactEmail": "GLRAMIREZ@CMCENTERS.ORG",
    "categoryName": "PRIMARY CARE CLINIC",
    "categoryCode": "COMTYC",
    "licenseStatus": "ACTIVE",
    "inService": true,
    "licenseNumber": "550001225",
    "licenseEffectiveDate": "03/08/2025",
    "licenseExpirationDate": "03/07/2026",
    "dataDate": "10/18/2025",
    "capacity": 0,
    "address": "200 COTTAGE AVENUE, SUITE 103",
    "city": "MANTECA",
    "zip": "95336",
    "county": "SAN JOAQUIN",
    "phone": "(209) 259-6546",
    "lat": 37.79955,
    "lng": -121.197951
  },
  {
    "id": "030000118",
    "name": "DOCTORS HOSPITAL OF MANTECA",
    "npi": "1992736599",
    "hcaiId": "106392287",
    "businessName": "DOCTORS HOSPITAL OF MANTECA, INC.",
    "contactEmail": "TINA.BURCH@TENETHEALTH.COM",
    "categoryName": "GENERAL ACUTE CARE HOSPITAL",
    "categoryCode": "GACH",
    "licenseStatus": "ACTIVE",
    "inService": true,
    "licenseNumber": "030000203",
    "licenseEffectiveDate": "06/01/2025",
    "licenseExpirationDate": "05/31/2026",
    "dataDate": "10/18/2025",
    "capacity": 73,
    "address": "1205 E. NORTH STREET",
    "city": "MANTECA",
    "zip": "95336",
    "county": "SAN JOAQUIN",
    "phone": "(209) 239-8361",
    "lat": 37.80153,
    "lng": -121.1972895
  },
  {
    "id": "630018841",
    "name": "GOLDEN VALLEY HEALTH CENTERS - MANTECA NORTHGATE WEST",
    "npi": "1477020121",
    "hcaiId": "306390463",
    "businessName": "GOLDEN VALLEY HEALTH CENTERS",
    "contactEmail": "EVILLARAMA@GVHC.ORG",
    "categoryName": "PRIMARY CARE CLINIC",
    "categoryCode": "COMTYC",
    "licenseStatus": "ACTIVE",
    "inService": true,
    "licenseNumber": "550004109",
    "licenseEffectiveDate": "02/03/2025",
    "licenseExpirationDate": "02/01/2026",
    "dataDate": "10/18/2025",
    "capacity": 0,
    "address": "302 NORTHGATE DR",
    "city": "MANTECA",
    "zip": "95336",
    "county": "SAN JOAQUIN",
    "phone": "(209) 385-5400",
    "lat": 37.81900617,
    "lng": -121.2206278
  },
  {
    "id": "630017621",
    "name": "GOLDEN VALLEY HEALTH CENTERS-MANTECA",
    "npi": "1679013726",
    "hcaiId": "306391314",
    "businessName": "GOLDEN VALLEY HEALTH CENTERS",
    "contactEmail": "EVILLARAMA@GVHC.ORG",
    "categoryName": "PRIMARY CARE CLINIC",
    "categoryCode": "COMTYC",
    "licenseStatus": "ACTIVE",
    "inService": true,
    "licenseNumber": "550004109",
    "licenseEffectiveDate": "02/03/2025",
    "licenseExpirationDate": "02/01/2026",
    "dataDate": "10/18/2025",
    "capacity": 0,
    "address": "250 NORTHGATE DR",
    "city": "MANTECA",
    "zip": "95336",
    "county": "SAN JOAQUIN",
    "phone": "(209) 385-5554",
    "lat": 37.818531,
    "lng": -121.219227
  },
  {
    "id": "100000010",
    "name": "GUARDIAN CARE AND REHAB CENTER",
    "npi": "1184321036",
    "hcaiId": "206390929",
    "businessName": "EASTWOOD CARE, INC.",
    "contactEmail": "PGROSS@GUARDIANCAREREHAB.COM",
    "categoryName": "SKILLED NURSING FACILITY",
    "categoryCode": "SNF",
    "licenseStatus": "ACTIVE",
    "inService": true,
    "licenseNumber": "100000057",
    "licenseEffectiveDate": "11/01/2024",
    "licenseExpirationDate": "10/31/2025",
    "dataDate": "10/18/2025",
    "capacity": 176,
    "address": "410 EASTWOOD AVENUE",
    "city": "MANTECA",
    "zip": "95336",
    "county": "SAN JOAQUIN",
    "phone": "(209) 239-1222",
    "lat": 37.817217,
    "lng": -121.2225435
  },
  {
    "id": "100000082",
    "name": "HARVEST CROSSING POST ACUTE",
    "npi": "1629097761",
    "hcaiId": "206390973",
    "businessName": "CORONADO BAY LLC",
    "contactEmail": "SBUSH@KALESTAHC.COM",
    "categoryName": "SKILLED NURSING FACILITY",
    "categoryCode": "SNF",
    "licenseStatus": "ACTIVE",
    "inService": true,
    "licenseNumber": "100000071",
    "licenseEffectiveDate": "11/25/2024",
    "licenseExpirationDate": "11/24/2025",
    "dataDate": "10/18/2025",
    "capacity": 99,
    "address": "469 E. NORTH STREET",
    "city": "MANTECA",
    "zip": "95336",
    "county": "SAN JOAQUIN",
    "phone": "(916) 751-8189",
    "lat": 37.801485,
    "lng": -121.211514
  },
  {
    "id": "630025269",
    "name": "INTEGRITY CARE GROUP LLC",
    "npi": null,
    "hcaiId": "206390396",
    "businessName": "INTEGRITY CARE GROUP LLC",
    "contactEmail": "MICHELLEK@INTEGRITYCAREGROUPLLC.COM",
    "categoryName": "CONGREGATE LIVING HEALTH FACILITY",
    "categoryCode": "CLHF",
    "licenseStatus": "ACTIVE",
    "inService": true,
    "licenseNumber": "550008218",
    "licenseEffectiveDate": "11/08/2024",
    "licenseExpirationDate": "11/07/2025",
    "dataDate": "10/18/2025",
    "capacity": 18,
    "address": "295 MCNARY CIR",
    "city": "MANTECA",
    "zip": "95336",
    "county": "SAN JOAQUIN",
    "phone": "(209) 647-4371",
    "lat": 37.80084812,
    "lng": -121.1946675
  },
  {
    "id": "100001075",
    "name": "NAVAJO HOME",
    "npi": "1356535389",
    "hcaiId": null,
    "businessName": "HERITAGE ESTATES, INC.",
    "contactEmail": "SHERRYHYLTON@HERITAGEESTATESINC.COM",
    "categoryName": "INTERMEDIATE CARE FACILITY-DD/H/N/CN/IID",
    "categoryCode": "ICFDDH",
    "licenseStatus": "ACTIVE",
    "inService": true,
    "licenseNumber": "100000451",
    "licenseEffectiveDate": "05/15/2025",
    "licenseExpirationDate": "05/14/2026",
    "dataDate": "10/18/2025",
    "capacity": 6,
    "address": "14646 NAVAJO WAY",
    "city": "MANTECA",
    "zip": "95336",
    "county": "SAN JOAQUIN",
    "phone": "(209) 823-6061",
    "lat": 37.829862,
    "lng": -121.2153795
  },
  {
    "id": "030001598",
    "name": "PLANNED PARENTHOOD MAR MONTE - MANTECA HEALTH CENTER",
    "npi": "1487607222",
    "hcaiId": "306394056",
    "businessName": "PLANNED PARENTHOOD MAR MONTE, INC.",
    "contactEmail": "SERVICES_ADMIN@PPMARMONTE.ORG",
    "categoryName": "PRIMARY CARE CLINIC",
    "categoryCode": "COMTYC",
    "licenseStatus": "ACTIVE",
    "inService": true,
    "licenseNumber": "030000666",
    "licenseEffectiveDate": "12/18/2024",
    "licenseExpirationDate": "12/17/2025",
    "dataDate": "10/18/2025",
    "capacity": 0,
    "address": "965 E YOSEMITE AVE, SUITE 2",
    "city": "MANTECA",
    "zip": "95336",
    "county": "SAN JOAQUIN",
    "phone": "(408) 813-5714",
    "lat": 37.797759,
    "lng": -121.2033825
  },
  {
    "id": "630017893",
    "name": "SAN JOAQUIN COUNTY CLINICS - MANTECA",
    "npi": null,
    "hcaiId": null,
    "businessName": null,
    "contactEmail": null,
    "categoryName": "PRIMARY CARE CLINIC",
    "categoryCode": "FQHC",
    "licenseStatus": null,
    "inService": null,
    "licenseNumber": null,
    "licenseEffectiveDate": null,
    "licenseExpirationDate": null,
    "dataDate": "10/18/2025",
    "capacity": 0,
    "address": "283 SPRECKELS AVE",
    "city": "MANTECA",
    "zip": "95336",
    "county": "SAN JOAQUIN",
    "phone": "(209) 468-6820",
    "lat": 37.79500511,
    "lng": -121.1980367
  },
  {
    "id": "630024572",
    "name": "UNITED HOME HEALTH",
    "npi": null,
    "hcaiId": "406395933",
    "businessName": "UNITED HOME HEALTH GROUP, INC.",
    "contactEmail": "INFO@UNITEDHHS.COM",
    "categoryName": "HOME HEALTH AGENCY",
    "categoryCode": "HHA",
    "licenseStatus": "ACTIVE",
    "inService": true,
    "licenseNumber": "550008236",
    "licenseEffectiveDate": "11/15/2025",
    "licenseExpirationDate": "11/14/2026",
    "dataDate": "10/18/2025",
    "capacity": 0,
    "address": "415 N MAIN ST, SUITE 1A",
    "city": "MANTECA",
    "zip": "95336",
    "county": "SAN JOAQUIN",
    "phone": "(209) 921-3890",
    "lat": 37.80324,
    "lng": -121.2168825
  },
  {
    "id": "030001528",
    "name": "VIBRANTCARE OUTPATIENT REHABILITATION OF CALIFORNIA INC.",
    "npi": "1760486120",
    "hcaiId": null,
    "businessName": null,
    "contactEmail": null,
    "categoryName": "REHABILITATION CLINIC",
    "categoryCode": "OPT/SP",
    "licenseStatus": null,
    "inService": null,
    "licenseNumber": null,
    "licenseEffectiveDate": null,
    "licenseExpirationDate": null,
    "dataDate": "10/18/2025",
    "capacity": 0,
    "address": "965 E. YOSEMITE AVENUE, SUITE 14",
    "city": "MANTECA",
    "zip": "95336",
    "county": "SAN JOAQUIN",
    "phone": "(209) 823-3736",
    "lat": 37.797759,
    "lng": -121.2033825
  }
]