[
  {
    "id": "030000973",
    "name": "KAISER FOUNDATION HOSPITAL MANTECA",
    "npi": "1740354851",
    "hcaiId": "106394009",
    "businessName": "KAISER FOUNDATION HOSPITALS",
    "contactEmail": "NEVIN.SAHOTA@KP.ORG",
    "categoryName": "GENERAL ACUTE CARE HOSPITAL",
    "categoryCode": "GACH",
    "licenseStatus": "ACTIVE",
    "inService": true,
    "licenseNumber": "030000393",
    "licenseEffectiveDate": "11/01/2025",
    "licenseExpirationDate": "10/31/2026",
    "dataDate": "10/18/2025",
    "capacity": 61,
    "address": "1777 W. YOSEMITE AVENUE",
    "city": "MANTECA",
    "zip": "95337",
    "county": "SAN JOAQUIN",
    "phone": "(209) 494-7712",
    "lat": 37.798209,
    "lng": -121.246101
  },
  {
    "id": "100000194",
    "name": "LOCUST HOME",
    "npi": "1710171749",
    "hcaiId": null,
    "businessName": "HERITAGE ESTATES, INC.",
    "contactEmail": "MARYPERRY@HERITAGEESTATESINC.COM",
    "categoryName": "INTERMEDIATE CARE FACILITY-DD/H/N/CN/IID",
    "categoryCode": "ICFDDH",
    "licenseStatus": "ACTIVE",
    "inService": true,
    "licenseNumber": "100000239",
    "licenseEffectiveDate": "12/01/2024",
    "licenseExpirationDate": "11/30/2025",
    "dataDate": "10/18/2025",
    "capacity": 15,
    "address": "1151 LOCUST AVENUE",
    "city": "MANTECA",
    "zip": "95337",
    "county": "SAN JOAQUIN",
    "phone": "(209) 823-6061",
    "lat": 37.786095,
    "lng": -121.226715
  },
  {
    "id": "110001173",
    "name": "MANTECA DIALYSIS",
    "npi": "1881668788",
    "hcaiId": "306394122",
    "businessName": "DVA HEALTHCARE RENAL CARE, INC.",
    "contactEmail": "CAL_C@DAVITA.COM",
    "categoryName": "CHRONIC DIALYSIS CLINIC",
    "categoryCode": "ESRD/CDC",
    "licenseStatus": "ACTIVE",
    "inService": true,
    "licenseNumber": "110000462",
    "licenseEffectiveDate": "02/20/2025",
    "licenseExpirationDate": "02/19/2026",
    "dataDate": "10/18/2025",
    "capacity": 12,
    "address": "1620 W. YOSEMITE AVENUE",
    "city": "MANTECA",
    "zip": "95337",
    "county": "SAN JOAQUIN",
    "phone": "(209) 825-3905",
    "lat": 37.796193,
    "lng": -121.2428295
  },
  {
    "id": "630026313",
    "name": "NAADI MANTECA ASC",
    "npi": null,
    "hcaiId": null,
    "businessName": null,
    "contactEmail": "DROY@NAADIHEALTHCARE.COM",
    "categoryName": "SURGICAL CLINIC",
    "categoryCode": "ASC",
    "licenseStatus": null,
    "inService": null,
    "licenseNumber": null,
    "licenseEffectiveDate": null,
    "licenseExpirationDate": null,
    "dataDate": "10/18/2025",
    "capacity": 0,
    "address": "145 TREVINO AVE",
    "city": "MANTECA",
    "zip": "95337",
    "county": "SAN JOAQUIN",
    "phone": "(209) 788-8180",
    "lat": 37.798416,
    "lng": -121.2408495
  },
  {
    "id": "630026429",
    "name": "NATIONAL HOME HEALTH SERVICES INC. - MANTECA",
    "npi": null,
    "hcaiId": "406391308",
    "businessName": "NATIONAL HOME HEALTH SERVICES, INC.",
    "contactEmail": null,
    "categoryName": "HOME HEALTH AGENCY",
    "categoryCode": "HHA",
    "licenseStatus": "ACTIVE",
    "inService": true,
    "licenseNumber": "550001137",
    "licenseEffectiveDate": "11/17/2025",
    "licenseExpirationDate": "11/16/2026",
    "dataDate": "10/18/2025",
    "capacity": 0,
    "address": "302 CHERRY LN, SUITE 106",
    "city": "MANTECA",
    "zip": "95337",
    "county": "SAN JOAQUIN",
    "phone": null,
    "lat": 37.801359,
    "lng": -121.2306615
  },
  {
    "id": "630014752",
    "name": "NATIONAL HOSPICE AND PALLIATIVE CARE",
    "npi": "1134559032",
    "hcaiId": "406391391",
    "businessName": "AMERICAN CAREQUEST EAST BAY",
    "contactEmail": "ALEX.RUDAKOV@NATIONALHHA.COM",
    "categoryName": "HOSPICE",
    "categoryCode": "HOSPICE",
    "licenseStatus": "ACTIVE",
    "inService": true,
    "licenseNumber": "550002819",
    "licenseEffectiveDate": "09/08/2024",
    "licenseExpirationDate": "09/07/2026",
    "dataDate": "10/18/2025",
    "capacity": 0,
    "address": "302 CHERRY LN, SUITE 107 & 108",
    "city": "MANTECA",
    "zip": "95337",
    "county": "SAN JOAQUIN",
    "phone": "(415) 812-2955",
    "lat": 37.801359,
    "lng": -121.2306615
  },
  {
    "id": "630027765",
    "name": "SATELLITE HEALTHCARE MANTECA",
    "npi": null,
    "hcaiId": null,
    "businessName": "SATELLITE HEALTHCARE OF WEST YOSEMITE AVENUE, LLC",
    "contactEmail": "LINDSEY.CLEMENTE@USRENALCARE.COM",
    "categoryName": "CHRONIC DIALYSIS CLINIC",
    "categoryCode": "ESRD/CDC",
    "licenseStatus": "ACTIVE",
    "inService": true,
    "licenseNumber": "550009570",
    "licenseEffectiveDate": "06/16/2025",
    "licenseExpirationDate": "12/15/2025",
    "dataDate": "10/18/2025",
    "capacity": 22,
    "address": "2077 W YOSEMITE AVE",
    "city": "MANTECA",
    "zip": "95337",
    "county": "SAN JOAQUIN",
    "phone": "(781) 724-0559",
    "lat": 37.79740634,
    "lng": -121.2517544
  },
  {
    "id": "100000495",
    "name": "TAHOE HOME",
    "npi": "1629263231",
    "hcaiId": null,
    "businessName": "HERITAGE ESTATES, INC.",
    "contactEmail": "MARYPERRY@HERITAGEESTATESINC.COM",
    "categoryName": "INTERMEDIATE CARE FACILITY-DD/H/N/CN/IID",
    "categoryCode": "ICFDDH",
    "licenseStatus": "ACTIVE",
    "inService": true,
    "licenseNumber": "100000295",
    "licenseEffectiveDate": "11/03/2024",
    "licenseExpirationDate": "11/02/2025",
    "dataDate": "10/18/2025",
    "capacity": 6,
    "address": "790 TAHOE STREET",
    "city": "MANTECA",
    "zip": "95337",
    "county": "SAN JOAQUIN",
    "phone": "(209) 823-6061",
    "lat": 37.786491,
    "lng": -121.225995
  },
  {
    "id": "630019618",
    "name": "WALNUT EARLY HEAD START",
    "npi": "1285059923",
    "hcaiId": null,
    "businessName": "COMMUNITY MEDICAL CENTERS, INC.",
    "contactEmail": null,
    "categoryName": "PRIMARY CARE CLINIC",
    "categoryCode": "COMTYC",
    "licenseStatus": "ACTIVE",
    "inService": true,
    "licenseNumber": "550003006",
    "licenseEffectiveDate": "03/13/2025",
    "licenseExpirationDate": "03/12/2026",
    "dataDate": "10/18/2025",
    "capacity": 0,
    "address": "115 N WALNUT AVE",
    "city": "MANTECA",
    "zip": "95337",
    "county": "SAN JOAQUIN",
    "phone": null,
    "lat": 37.798101,
    "lng": -121.229199
  },
  {
    "id": "100000998",
    "name": "WAWONA HOME",
    "npi": "1356536965",
    "hcaiId": null,
    "businessName": "HERITAGE ESTATES, INC.",
    "contactEmail": "MARYPERRY@HERITAGEESTATESINC.COM",
    "categoryName": "INTERMEDIATE CARE FACILITY-DD/H/N/CN/IID",
    "categoryCode": "ICFDDH",
    "licenseStatus": "ACTIVE",
    "inService": true,
    "licenseNumber": "100000412",
    "licenseEffectiveDate": "03/07/2025",
    "licenseExpirationDate": "03/06/2026",
    "dataDate": "10/18/2025",
    "capacity": 6,
    "address": "304 WAWONA STREET",
    "city": "MANTECA",
    "zip": "95337",
    "county": "SAN JOAQUIN",
    "phone": "(209) 823-6061",
    "lat": 37.789101,
    "lng": -121.21965
  },
  {
    "id": "630011977",
    "name": "YOSEMITE STREET DIALYSIS CENTER",
    "npi": "1073798674",
    "hcaiId": "306394089",
    "businessName": "TOTAL RENAL CARE, INC.",
    "contactEmail": "CAL_C@DAVITA.COM",
    "categoryName": "CHRONIC DIALYSIS CLINIC",
    "categoryCode": "ESRD/CDC",
    "licenseStatus": "ACTIVE",
    "inService": true,
    "licenseNumber": "550000831",
    "licenseEffectiveDate": "06/10/2025",
    "licenseExpirationDate": "06/09/2026",
    "dataDate": "10/18/2025",
    "capacity": 21,
    "address": "1650 W YOSEMITE AVE, BUILDING 2",
    "city": "MANTECA",
    "zip": "95337",
    "county": "SAN JOAQUIN",
    "phone": "(209) 824-5552",
    "lat": 37.79627501,
    "lng": -121.243869
  }
]