[
  {
    "id": "630021293",
    "name": "CAMARENA HEALTH MARIPOSA MOBILE UNIT",
    "npi": null,
    "hcaiId": null,
    "businessName": "CAMARENA HEALTH",
    "contactEmail": null,
    "categoryName": "PRIMARY CARE CLINIC",
    "categoryCode": "COMTYC",
    "licenseStatus": "ACTIVE",
    "inService": true,
    "licenseNumber": "550004158",
    "licenseEffectiveDate": "03/06/2025",
    "licenseExpirationDate": "03/05/2026",
    "dataDate": "10/18/2025",
    "capacity": 0,
    "address": "5082 OLD HWY N",
    "city": "MARIPOSA",
    "zip": "95338",
    "county": "MARIPOSA",
    "phone": null,
    "lat": 37.48982366,
    "lng": -119.9652287
  },
  {
    "id": "630018031",
    "name": "COMMUNITY HEALTH CENTERS OF AMERICA",
    "npi": null,
    "hcaiId": "306220485",
    "businessName": "COMMUNITY HEALTH CENTERS OF AMERICA",
    "contactEmail": "ROSA.INIGUEZ@CHCAHEALTH.ORG",
    "categoryName": "PRIMARY CARE CLINIC",
    "categoryCode": "COMTYC",
    "licenseStatus": "ACTIVE",
    "inService": true,
    "licenseNumber": "550005091",
    "licenseEffectiveDate": "11/07/2025",
    "licenseExpirationDate": "11/06/2026",
    "dataDate": "10/18/2025",
    "capacity": 0,
    "address": "5320 STATE HIGHWAY 49 N, SUITE 1",
    "city": "MARIPOSA",
    "zip": "95338",
    "county": "MARIPOSA",
    "phone": "(209) 733-9427",
    "lat": 37.499643,
    "lng": -119.983059
  },
  {
    "id": "040000153",
    "name": "JOHN C. FREMONT HEALTHCARE DIST HOME HEALTH AGENCY",
    "npi": "1285857706",
    "hcaiId": "406224007",
    "businessName": "JOHN C. FREMONT HEALTHCARE DISTRICT",
    "contactEmail": "JCFADM@JCF-HOSPITAL.COM",
    "categoryName": "HOME HEALTH AGENCY",
    "categoryCode": "HHA",
    "licenseStatus": "ACTIVE",
    "inService": true,
    "licenseNumber": "040000011",
    "licenseEffectiveDate": "11/01/2024",
    "licenseExpirationDate": "10/31/2025",
    "dataDate": "10/18/2025",
    "capacity": 0,
    "address": "5108 STATE HIGHWAY 140, SUITE A",
    "city": "MARIPOSA",
    "zip": "95338",
    "county": "MARIPOSA",
    "phone": "(209) 966-3631",
    "lat": 37.489311,
    "lng": -119.9698605
  },
  {
    "id": "040000105",
    "name": "JOHN C. FREMONT HEALTHCARE DISTRICT",
    "npi": "1720201247",
    "hcaiId": "106220733",
    "businessName": "JOHN C. FREMONT HEALTHCARE DISTRICT",
    "contactEmail": "JCFADM@JCF-HOSPITAL.COM",
    "categoryName": "GENERAL ACUTE CARE HOSPITAL",
    "categoryCode": "GACH",
    "licenseStatus": "ACTIVE",
    "inService": true,
    "licenseNumber": "040000108",
    "licenseEffectiveDate": "04/30/2025",
    "licenseExpirationDate": "04/29/2026",
    "dataDate": "10/18/2025",
    "capacity": 18,
    "address": "5189 HOSPITAL RD",
    "city": "MARIPOSA",
    "zip": "95338",
    "county": "MARIPOSA",
    "phone": "(209) 966-3631",
    "lat": 37.50039,
    "lng": -119.977668
  },
  {
    "id": "040001420",
    "name": "JOHN C. FREMONT HEALTHCARE DISTRICT - RHC II",
    "npi": "1487877908",
    "hcaiId": null,
    "businessName": "JOHN C. FREMONT HEALTHCARE DISTRICT",
    "contactEmail": null,
    "categoryName": "PRIMARY CARE CLINIC",
    "categoryCode": "RHC/OP",
    "licenseStatus": "ACTIVE",
    "inService": true,
    "licenseNumber": "040000108",
    "licenseEffectiveDate": "04/30/2025",
    "licenseExpirationDate": "04/29/2026",
    "dataDate": "10/18/2025",
    "capacity": 0,
    "address": "5186 HOSPITAL RD",
    "city": "MARIPOSA",
    "zip": "95338",
    "county": "MARIPOSA",
    "phone": "(209) 966-3631",
    "lat": 37.500048,
    "lng": -119.9764305
  },
  {
    "id": "040000345",
    "name": "JOHN C. FREMONT HEALTHCARE DISTRICT D/P SNF",
    "npi": "1841342334",
    "hcaiId": null,
    "businessName": "JOHN C. FREMONT HEALTHCARE DISTRICT",
    "contactEmail": null,
    "categoryName": "SKILLED NURSING FACILITY",
    "categoryCode": "SNF",
    "licenseStatus": "ACTIVE",
    "inService": true,
    "licenseNumber": "040000108",
    "licenseEffectiveDate": "04/30/2025",
    "licenseExpirationDate": "04/29/2026",
    "dataDate": "10/18/2025",
    "capacity": 16,
    "address": "5189 HOSPITAL RD",
    "city": "MARIPOSA",
    "zip": "95338",
    "county": "MARIPOSA",
    "phone": "(209) 966-3631",
    "lat": 37.50039,
    "lng": -119.977668
  },
  {
    "id": "100001747",
    "name": "JOHN C. FREMONT HEALTHCARE DISTRICT HOSPICE",
    "npi": "1093938516",
    "hcaiId": "406224006",
    "businessName": "JOHN C. FREMONT HEALTHCARE DISTRICT",
    "contactEmail": "KYMBERLY.BROWNELL@JCF-HOSPITAL.COM",
    "categoryName": "HOSPICE",
    "categoryCode": "HOSPICE",
    "licenseStatus": "ACTIVE",
    "inService": true,
    "licenseNumber": "100000746",
    "licenseEffectiveDate": "11/11/2023",
    "licenseExpirationDate": "11/10/2025",
    "dataDate": "10/18/2025",
    "capacity": 0,
    "address": "5108 HIGHWAY 140, SUITE A",
    "city": "MARIPOSA",
    "zip": "95338",
    "county": "MARIPOSA",
    "phone": "(209) 966-3631",
    "lat": 37.489311,
    "lng": -119.9698605
  },
  {
    "id": "040000751",
    "name": "JOHN C. FREMONT MEDICAL CLINIC",
    "npi": "1184662652",
    "hcaiId": null,
    "businessName": "JOHN C. FREMONT HEALTHCARE DISTRICT",
    "contactEmail": null,
    "categoryName": "PRIMARY CARE CLINIC",
    "categoryCode": "RHC/OP",
    "licenseStatus": "ACTIVE",
    "inService": true,
    "licenseNumber": "040000108",
    "licenseEffectiveDate": "04/30/2025",
    "licenseExpirationDate": "04/29/2026",
    "dataDate": "10/18/2025",
    "capacity": 0,
    "address": "5189 HOSPITAL RD",
    "city": "MARIPOSA",
    "zip": "95338",
    "county": "MARIPOSA",
    "phone": "(209) 966-0850",
    "lat": 37.50039,
    "lng": -119.977668
  },
  {
    "id": "630027290",
    "name": "MACT DENTAL, MARIPOSA",
    "npi": "1366519431",
    "hcaiId": null,
    "businessName": "M.A.C.T. HEALTH BOARD, INCORPORATED",
    "contactEmail": null,
    "categoryName": "PRIMARY CARE CLINIC",
    "categoryCode": "COMTYC",
    "licenseStatus": "ACTIVE",
    "inService": true,
    "licenseNumber": "550008701",
    "licenseEffectiveDate": "08/24/2025",
    "licenseExpirationDate": "08/23/2026",
    "dataDate": "10/18/2025",
    "capacity": 0,
    "address": "5204 HOSPITAL RD",
    "city": "MARIPOSA",
    "zip": "95338",
    "county": "MARIPOSA",
    "phone": "(209) 966-0573",
    "lat": 37.5013918,
    "lng": -119.9768312
  },
  {
    "id": "040001141",
    "name": "MACT MEDICAL, MARIPOSA",
    "npi": "1740272731",
    "hcaiId": "306224005",
    "businessName": "M.A.C.T. HEALTH BOARD, INCORPORATED",
    "contactEmail": "COMPLIANCE@MACTHEALTH.ORG",
    "categoryName": "PRIMARY CARE CLINIC",
    "categoryCode": "COMTYC",
    "licenseStatus": "ACTIVE",
    "inService": true,
    "licenseNumber": "040000459",
    "licenseEffectiveDate": "06/27/2025",
    "licenseExpirationDate": "06/26/2026",
    "dataDate": "10/18/2025",
    "capacity": 0,
    "address": "5192 HOSPITAL RD",
    "city": "MARIPOSA",
    "zip": "95338",
    "county": "MARIPOSA",
    "phone": "(209) 754-6242",
    "lat": 37.500804,
    "lng": -119.97675
  }
]