[
  {
    "id": "630024595",
    "name": "COMMUNITY HEALTH CENTERS OF AMERICA",
    "npi": null,
    "hcaiId": null,
    "businessName": "COMMUNITY HEALTH CENTERS OF AMERICA",
    "contactEmail": null,
    "categoryName": "PRIMARY CARE CLINIC",
    "categoryCode": "COMTYC",
    "licenseStatus": "ACTIVE",
    "inService": true,
    "licenseNumber": "550005091",
    "licenseEffectiveDate": "11/07/2025",
    "licenseExpirationDate": "11/06/2026",
    "dataDate": "10/18/2025",
    "capacity": 0,
    "address": "517 MAIN ST, SUITE A",
    "city": "LIVINGSTON",
    "zip": "95334",
    "county": "MERCED",
    "phone": "(209) 761-0134",
    "lat": 37.385532,
    "lng": -120.72294
  },
  {
    "id": "040000039",
    "name": "GRACE HOME, INC.",
    "npi": "1750368387",
    "hcaiId": "206240893",
    "businessName": "CHURCH OF GOD IN CHRIST",
    "contactEmail": "ADMIN@GRACEHOMEINC.COM",
    "categoryName": "SKILLED NURSING FACILITY",
    "categoryCode": "SNF",
    "licenseStatus": "ACTIVE",
    "inService": true,
    "licenseNumber": "040000171",
    "licenseEffectiveDate": "03/01/2025",
    "licenseExpirationDate": "02/28/2026",
    "dataDate": "10/18/2025",
    "capacity": 33,
    "address": "13435 PEACH AVE",
    "city": "LIVINGSTON",
    "zip": "95334",
    "county": "MERCED",
    "phone": "(209) 325-0101",
    "lat": 37.374759,
    "lng": -120.731247
  },
  {
    "id": "040000205",
    "name": "LIVINGSTON COMMUNITY HEALTH",
    "npi": "1427110329",
    "hcaiId": "306240787",
    "businessName": "LIVINGSTON COMMUNITY HEALTH",
    "contactEmail": "CREDENTIALING@VISITLCH.ORG",
    "categoryName": "PRIMARY CARE CLINIC",
    "categoryCode": "RHC/COMTYC",
    "licenseStatus": "ACTIVE",
    "inService": true,
    "licenseNumber": "040000176",
    "licenseEffectiveDate": "11/01/2025",
    "licenseExpirationDate": "10/31/2026",
    "dataDate": "10/18/2025",
    "capacity": 0,
    "address": "600 B ST, BUILDING B",
    "city": "LIVINGSTON",
    "zip": "95334",
    "county": "MERCED",
    "phone": "(209) 850-3500",
    "lat": 37.38585288,
    "lng": -120.7331374
  },
  {
    "id": "630021717",
    "name": "LIVINGSTON COMMUNITY HEALTH CAMPUS - DENTAL",
    "npi": null,
    "hcaiId": null,
    "businessName": "LIVINGSTON COMMUNITY HEALTH",
    "contactEmail": null,
    "categoryName": "PRIMARY CARE CLINIC",
    "categoryCode": "COMTYC",
    "licenseStatus": "ACTIVE",
    "inService": true,
    "licenseNumber": "040000176",
    "licenseEffectiveDate": "11/01/2025",
    "licenseExpirationDate": "10/31/2026",
    "dataDate": "10/18/2025",
    "capacity": 0,
    "address": "600 B ST, BUILDING C",
    "city": "LIVINGSTON",
    "zip": "95334",
    "county": "MERCED",
    "phone": null,
    "lat": 37.38585288,
    "lng": -120.7331374
  },
  {
    "id": "630017946",
    "name": "RAN HEALTH SERVICES, INC.",
    "npi": null,
    "hcaiId": null,
    "businessName": null,
    "contactEmail": "RANHEALTHSERVICES@YAHOO.COM",
    "categoryName": "PRIMARY CARE CLINIC",
    "categoryCode": "RHC",
    "licenseStatus": null,
    "inService": null,
    "licenseNumber": null,
    "licenseEffectiveDate": null,
    "licenseExpirationDate": null,
    "dataDate": "10/18/2025",
    "capacity": 0,
    "address": "2275 F ST, SUITE 1&2",
    "city": "LIVINGSTON",
    "zip": "95334",
    "county": "MERCED",
    "phone": "(209) 394-3800",
    "lat": 37.382463,
    "lng": -120.7130805
  },
  {
    "id": "630011697",
    "name": "UNIVERSAL MEDICAL CENTER, INC.",
    "npi": "1467634238",
    "hcaiId": null,
    "businessName": null,
    "contactEmail": "JSDPIE@AOL.COM",
    "categoryName": "PRIMARY CARE CLINIC",
    "categoryCode": "RHC",
    "licenseStatus": null,
    "inService": null,
    "licenseNumber": null,
    "licenseEffectiveDate": null,
    "licenseExpirationDate": null,
    "dataDate": "10/18/2025",
    "capacity": 0,
    "address": "1472 B ST, SUITE A",
    "city": "LIVINGSTON",
    "zip": "95334",
    "county": "MERCED",
    "phone": "(209) 394-7614",
    "lat": 37.385721,
    "lng": -120.7216215
  },
  {
    "id": "630017120",
    "name": "WOLVES WELLNESS CENTER",
    "npi": "1487012779",
    "hcaiId": "306244061",
    "businessName": "LIVINGSTON COMMUNITY HEALTH",
    "contactEmail": "CREDENTIALING@VISITHC.ORG",
    "categoryName": "PRIMARY CARE CLINIC",
    "categoryCode": "COMTYC",
    "licenseStatus": "ACTIVE",
    "inService": true,
    "licenseNumber": "040000176",
    "licenseEffectiveDate": "11/01/2025",
    "licenseExpirationDate": "10/31/2026",
    "dataDate": "10/18/2025",
    "capacity": 0,
    "address": "1617 MAIN ST",
    "city": "LIVINGSTON",
    "zip": "95334",
    "county": "MERCED",
    "phone": "(209) 850-3500",
    "lat": 37.37645467,
    "lng": -120.7233911
  }
]