[
  {
    "id": "630016406",
    "name": "ANBERRY TRANSITIONAL CARE",
    "npi": "1609255637",
    "hcaiId": "206244044",
    "businessName": "ANBERRY TRANSITIONAL CARE LLC",
    "contactEmail": "DKUHLS@ANBERRY.COM",
    "categoryName": "SKILLED NURSING FACILITY",
    "categoryCode": "SNF",
    "licenseStatus": "ACTIVE",
    "inService": true,
    "licenseNumber": "550003619",
    "licenseEffectiveDate": "08/09/2025",
    "licenseExpirationDate": "08/08/2026",
    "dataDate": "10/18/2025",
    "capacity": 120,
    "address": "1000 WEST YOSEMITE AVE",
    "city": "MERCED",
    "zip": "95341",
    "county": "MERCED",
    "phone": "(209) 783-9200",
    "lat": 37.331559,
    "lng": -120.4853895
  },
  {
    "id": "070001190",
    "name": "DAYOUT ADHC - MERCED",
    "npi": null,
    "hcaiId": null,
    "businessName": "ELDER SERVICES, INC.",
    "contactEmail": "CONTACT@DAYOUT-MERCED.COM",
    "categoryName": "ADULT DAY HEALTH CARE",
    "categoryCode": "ADHC",
    "licenseStatus": "ACTIVE",
    "inService": true,
    "licenseNumber": "070000537",
    "licenseEffectiveDate": "10/28/2025",
    "licenseExpirationDate": "10/27/2026",
    "dataDate": "10/18/2025",
    "capacity": 0,
    "address": "1460 MERCED AVE",
    "city": "MERCED",
    "zip": "95341",
    "county": "MERCED",
    "phone": "(209) 388-9175",
    "lat": 37.291095,
    "lng": -120.45861
  },
  {
    "id": "040000686",
    "name": "FAMILY CARE",
    "npi": "1518018191",
    "hcaiId": null,
    "businessName": "DIGNITY HEALTH",
    "contactEmail": null,
    "categoryName": "PRIMARY CARE CLINIC",
    "categoryCode": "RHC/OP",
    "licenseStatus": "ACTIVE",
    "inService": true,
    "licenseNumber": "040000178",
    "licenseEffectiveDate": "03/07/2025",
    "licenseExpirationDate": "03/06/2026",
    "dataDate": "10/18/2025",
    "capacity": 0,
    "address": "315 E 13TH ST",
    "city": "MERCED",
    "zip": "95341",
    "county": "MERCED",
    "phone": "(209) 564-4500",
    "lat": 37.293777,
    "lng": -120.473469
  },
  {
    "id": "040001101",
    "name": "GENERAL MEDICINE CLINIC",
    "npi": null,
    "hcaiId": null,
    "businessName": "DIGNITY HEALTH",
    "contactEmail": null,
    "categoryName": "PRIMARY CARE CLINIC",
    "categoryCode": "RHC/OP",
    "licenseStatus": "ACTIVE",
    "inService": true,
    "licenseNumber": "040000178",
    "licenseEffectiveDate": "03/07/2025",
    "licenseExpirationDate": "03/06/2026",
    "dataDate": "10/18/2025",
    "capacity": 0,
    "address": "1248 D ST",
    "city": "MERCED",
    "zip": "95341",
    "county": "MERCED",
    "phone": "(209) 725-7525",
    "lat": 37.290483,
    "lng": -120.474117
  },
  {
    "id": "040000207",
    "name": "GOLDEN VALLEY HEALTH CENTER - MERCED",
    "npi": "1932324449",
    "hcaiId": "306240945",
    "businessName": "GOLDEN VALLEY HEALTH CENTERS",
    "contactEmail": "EVILLARAMA@GVHC.ORG",
    "categoryName": "PRIMARY CARE CLINIC",
    "categoryCode": "RHC/COMTYC",
    "licenseStatus": "ACTIVE",
    "inService": true,
    "licenseNumber": "040000180",
    "licenseEffectiveDate": "11/01/2025",
    "licenseExpirationDate": "10/31/2026",
    "dataDate": "10/18/2025",
    "capacity": 0,
    "address": "847 W CHILDS AVE",
    "city": "MERCED",
    "zip": "95341",
    "county": "MERCED",
    "phone": "(209) 385-5400",
    "lat": 37.288989,
    "lng": -120.496311
  },
  {
    "id": "040000701",
    "name": "GOLDEN VALLEY HEALTH CENTER - WOMEN'S HEALTH",
    "npi": null,
    "hcaiId": "306244010",
    "businessName": "GOLDEN VALLEY HEALTH CENTERS",
    "contactEmail": "EVILLARAMA@GVHC.ORG",
    "categoryName": "PRIMARY CARE CLINIC",
    "categoryCode": "RHC/COMTYC",
    "licenseStatus": "ACTIVE",
    "inService": true,
    "licenseNumber": "040000300",
    "licenseEffectiveDate": "11/09/2025",
    "licenseExpirationDate": "11/08/2026",
    "dataDate": "10/18/2025",
    "capacity": 0,
    "address": "797 W CHILDS AVE",
    "city": "MERCED",
    "zip": "95341",
    "county": "MERCED",
    "phone": "(209) 385-5554",
    "lat": 37.289061,
    "lng": -120.4962615
  },
  {
    "id": "040001102",
    "name": "KIDS CARE",
    "npi": null,
    "hcaiId": null,
    "businessName": "DIGNITY HEALTH",
    "contactEmail": null,
    "categoryName": "PRIMARY CARE CLINIC",
    "categoryCode": "RHC/OP",
    "licenseStatus": "ACTIVE",
    "inService": true,
    "licenseNumber": "040000178",
    "licenseEffectiveDate": "03/07/2025",
    "licenseExpirationDate": "03/06/2026",
    "dataDate": "10/18/2025",
    "capacity": 0,
    "address": "1260 D ST",
    "city": "MERCED",
    "zip": "95341",
    "county": "MERCED",
    "phone": "(209) 385-7060",
    "lat": 37.29230856,
    "lng": -120.4740402
  },
  {
    "id": "040000048",
    "name": "MERCED BEHAVIORAL CENTER",
    "npi": "1245342021",
    "hcaiId": "206240946",
    "businessName": "CF MERCED BEHAVIORAL, LLC",
    "contactEmail": "JERI.ALLGOOD@MERCEDBEHAVIORAL.COM",
    "categoryName": "SKILLED NURSING FACILITY",
    "categoryCode": "SNF",
    "licenseStatus": "ACTIVE",
    "inService": true,
    "licenseNumber": "040000216",
    "licenseEffectiveDate": "11/26/2024",
    "licenseExpirationDate": "11/25/2025",
    "dataDate": "10/18/2025",
    "capacity": 96,
    "address": "1255 B ST",
    "city": "MERCED",
    "zip": "95341",
    "county": "MERCED",
    "phone": "(209) 723-8814",
    "lat": 37.290663,
    "lng": -120.4721505
  }
]