[
  {
    "id": "630011076",
    "name": "BRISTOL HOSPICE - CALIFORNIA, LLC",
    "npi": "1487603452",
    "hcaiId": "406244042",
    "businessName": "BRISTOL HOSPICE-CALIFORNIA, L.L.C.",
    "contactEmail": "MEKELLE.ANDREZZI@BRISTOLHOSPICE.COM",
    "categoryName": "HOSPICE",
    "categoryCode": "HOSPICE",
    "licenseStatus": "ACTIVE",
    "inService": true,
    "licenseNumber": "550000358",
    "licenseEffectiveDate": "12/05/2024",
    "licenseExpirationDate": "12/04/2026",
    "dataDate": "10/18/2025",
    "capacity": 0,
    "address": "374 E YOSEMITE AVE, SUITE 200",
    "city": "MERCED",
    "zip": "95340",
    "county": "MERCED",
    "phone": "(209) 384-1415",
    "lat": 37.33092,
    "lng": -120.463704
  },
  {
    "id": "040000583",
    "name": "DAVIDSON HOME - BROOKDALE",
    "npi": "1831774603",
    "hcaiId": null,
    "businessName": "DAVIDSON BROOKDALE, LLC",
    "contactEmail": "IFE@CITRUSCG.COM",
    "categoryName": "INTERMEDIATE CARE FACILITY-DD/H/N/CN/IID",
    "categoryCode": "ICFDDN",
    "licenseStatus": "ACTIVE",
    "inService": true,
    "licenseNumber": "040000266",
    "licenseEffectiveDate": "05/01/2025",
    "licenseExpirationDate": "04/30/2026",
    "dataDate": "10/18/2025",
    "capacity": 6,
    "address": "1326 BROOKDALE DR",
    "city": "MERCED",
    "zip": "95340",
    "county": "MERCED",
    "phone": "(209) 722-5204",
    "lat": 37.322658,
    "lng": -120.456306
  },
  {
    "id": "040000905",
    "name": "DAVIDSON HOME - DONNA DRIVE",
    "npi": "1922683796",
    "hcaiId": null,
    "businessName": "DAVIDSON DONNA DRIVE, LLC",
    "contactEmail": "IFE@CITRUSCG.COM",
    "categoryName": "INTERMEDIATE CARE FACILITY-DD/H/N/CN/IID",
    "categoryCode": "ICFDDH",
    "licenseStatus": "ACTIVE",
    "inService": true,
    "licenseNumber": "040000362",
    "licenseEffectiveDate": "11/08/2024",
    "licenseExpirationDate": "11/07/2025",
    "dataDate": "10/18/2025",
    "capacity": 6,
    "address": "1110 E DONNA DR",
    "city": "MERCED",
    "zip": "95340",
    "county": "MERCED",
    "phone": "(916) 225-0349",
    "lat": 37.328283,
    "lng": -120.457719
  },
  {
    "id": "040000617",
    "name": "DAVIDSON HOME - MARIE LANE",
    "npi": "1033794805",
    "hcaiId": null,
    "businessName": "DAVIDSON MARIE LANE, LLC",
    "contactEmail": "IFE@CITRUSCG.COM",
    "categoryName": "INTERMEDIATE CARE FACILITY-DD/H/N/CN/IID",
    "categoryCode": "ICFDDN",
    "licenseStatus": "ACTIVE",
    "inService": true,
    "licenseNumber": "040000275",
    "licenseEffectiveDate": "11/01/2025",
    "licenseExpirationDate": "10/31/2026",
    "dataDate": "10/18/2025",
    "capacity": 6,
    "address": "2834 MARIE LN",
    "city": "MERCED",
    "zip": "95340",
    "county": "MERCED",
    "phone": "(915) 225-0349",
    "lat": 37.313316,
    "lng": -120.449187
  },
  {
    "id": "630027837",
    "name": "EAST CAMPUS HEALTH CENTER",
    "npi": "1427110329",
    "hcaiId": null,
    "businessName": "LIVINGSTON COMMUNITY HEALTH",
    "contactEmail": null,
    "categoryName": "PRIMARY CARE CLINIC",
    "categoryCode": "FQHC/COMTYC",
    "licenseStatus": "ACTIVE",
    "inService": true,
    "licenseNumber": "040000176",
    "licenseEffectiveDate": "11/01/2025",
    "licenseExpirationDate": "10/31/2026",
    "dataDate": "10/18/2025",
    "capacity": 0,
    "address": "125 E 18TH ST",
    "city": "MERCED",
    "zip": "95340",
    "county": "MERCED",
    "phone": null,
    "lat": 37.298878,
    "lng": -120.472563
  },
  {
    "id": "040001316",
    "name": "GOLDEN VALLEY HEALTH CENTERS - MERCED NORTHVIEW",
    "npi": null,
    "hcaiId": "306244048",
    "businessName": "GOLDEN VALLEY HEALTH CENTERS",
    "contactEmail": "EVILLARAMA@GVHC.ORG",
    "categoryName": "PRIMARY CARE CLINIC",
    "categoryCode": "RHC/COMTYC",
    "licenseStatus": "ACTIVE",
    "inService": true,
    "licenseNumber": "040000513",
    "licenseEffectiveDate": "04/05/2025",
    "licenseExpirationDate": "04/04/2026",
    "dataDate": "10/18/2025",
    "capacity": 0,
    "address": "3940 SANDPIPER AVENUE",
    "city": "MERCED",
    "zip": "95340",
    "county": "MERCED",
    "phone": "(209) 385-5554",
    "lat": 37.337508,
    "lng": -120.466021
  },
  {
    "id": "100001773",
    "name": "HINDS HOSPICE - MERCED",
    "npi": "1538143318",
    "hcaiId": "406244024",
    "businessName": "HINDS HOSPICE",
    "contactEmail": null,
    "categoryName": "HOSPICE",
    "categoryCode": "HOSPICE",
    "licenseStatus": "ACTIVE",
    "inService": true,
    "licenseNumber": "100000749",
    "licenseEffectiveDate": "02/22/2025",
    "licenseExpirationDate": "02/21/2027",
    "dataDate": "10/18/2025",
    "capacity": 0,
    "address": "410 W MAIN ST, SUITE A",
    "city": "MERCED",
    "zip": "95340",
    "county": "MERCED",
    "phone": "(209) 383-3123",
    "lat": 37.300716,
    "lng": -120.48237
  },
  {
    "id": "040001407",
    "name": "INTERVENTIONAL PAIN CENTER OF MERCED",
    "npi": "1205911716",
    "hcaiId": "306244040",
    "businessName": "INTERVENTIONAL PAIN CENTER OF MERCED",
    "contactEmail": "IPCMERCED@GMAIL.COM",
    "categoryName": "SURGICAL CLINIC",
    "categoryCode": "ASC",
    "licenseStatus": "INACTIVE - CAPEN DECISION",
    "inService": false,
    "licenseNumber": "550000054",
    "licenseEffectiveDate": "05/13/2007",
    "licenseExpirationDate": "05/12/2008",
    "dataDate": "10/18/2025",
    "capacity": 0,
    "address": "1390 E YOSEMITE AVE, SUITE C",
    "city": "MERCED",
    "zip": "95340",
    "county": "MERCED",
    "phone": "(209) 724-0316",
    "lat": 37.331523,
    "lng": -120.4521975
  },
  {
    "id": "040000027",
    "name": "LA SIERRA CARE CENTER",
    "npi": "1740332121",
    "hcaiId": "206242204",
    "businessName": "CF MERCED LA SIERRA, LLC",
    "contactEmail": "MICHAEL.DAROUZE@MERCEDNURSINGHCC.COM",
    "categoryName": "SKILLED NURSING FACILITY",
    "categoryCode": "SNF",
    "licenseStatus": "ACTIVE",
    "inService": true,
    "licenseNumber": "040000211",
    "licenseEffectiveDate": "11/25/2024",
    "licenseExpirationDate": "11/24/2025",
    "dataDate": "10/18/2025",
    "capacity": 68,
    "address": "2424 M ST",
    "city": "MERCED",
    "zip": "95340",
    "county": "MERCED",
    "phone": "(209) 723-4224",
    "lat": 37.309104,
    "lng": -120.480318
  },
  {
    "id": "040001033",
    "name": "LOYD'S LIBERTY HOMES, INC. - COLUMBIA NORTH",
    "npi": "1700069721",
    "hcaiId": null,
    "businessName": "LOYD'S LIBERTY HOMES, INC.",
    "contactEmail": "BRITTANY.CUPPS@SEVITAHEALTH.COM",
    "categoryName": "INTERMEDIATE CARE FACILITY-DD/H/N/CN/IID",
    "categoryCode": "ICFDDN",
    "licenseStatus": "ACTIVE",
    "inService": true,
    "licenseNumber": "040000422",
    "licenseEffectiveDate": "03/02/2025",
    "licenseExpirationDate": "03/01/2026",
    "dataDate": "10/18/2025",
    "capacity": 6,
    "address": "775 COLUMBIA AVE",
    "city": "MERCED",
    "zip": "95340",
    "county": "MERCED",
    "phone": "(209) 726-6280",
    "lat": 37.324026,
    "lng": -120.4618185
  },
  {
    "id": "040001032",
    "name": "LOYD'S LIBERTY HOMES, INC. - EL PORTAL",
    "npi": "1184808925",
    "hcaiId": null,
    "businessName": "LOYD'S LIBERTY HOMES, INC.",
    "contactEmail": "BRITTANY.CUPPS@SEVITAHEALTH.COM",
    "categoryName": "INTERMEDIATE CARE FACILITY-DD/H/N/CN/IID",
    "categoryCode": "ICFDDH",
    "licenseStatus": "ACTIVE",
    "inService": true,
    "licenseNumber": "040000421",
    "licenseEffectiveDate": "03/02/2025",
    "licenseExpirationDate": "03/01/2026",
    "dataDate": "10/18/2025",
    "capacity": 6,
    "address": "450 EL PORTAL DR",
    "city": "MERCED",
    "zip": "95340",
    "county": "MERCED",
    "phone": "(559) 451-0399",
    "lat": 37.326069,
    "lng": -120.4647975
  },
  {
    "id": "240001787",
    "name": "MERCED DIALYSIS",
    "npi": "1639143332",
    "hcaiId": "306244059",
    "businessName": "DVA RENAL HEALTHCARE, INC.",
    "contactEmail": "CAL_C@DAVITA.COM",
    "categoryName": "CHRONIC DIALYSIS CLINIC",
    "categoryCode": "ESRD/CDC",
    "licenseStatus": "ACTIVE",
    "inService": true,
    "licenseNumber": "240000781",
    "licenseEffectiveDate": "06/28/2025",
    "licenseExpirationDate": "06/27/2026",
    "dataDate": "10/18/2025",
    "capacity": 32,
    "address": "3393 G ST, SUITE A",
    "city": "MERCED",
    "zip": "95340",
    "county": "MERCED",
    "phone": "(209) 723-0013",
    "lat": 37.326177,
    "lng": -120.46995
  },
  {
    "id": "630012219",
    "name": "MERCED EAST DIALYSIS",
    "npi": "1427392539",
    "hcaiId": "306244052",
    "businessName": "TOTAL RENAL CARE, INC.",
    "contactEmail": "CAL_C@DAVITA.COM",
    "categoryName": "CHRONIC DIALYSIS CLINIC",
    "categoryCode": "ESRD/CDC",
    "licenseStatus": "ACTIVE",
    "inService": true,
    "licenseNumber": "550001174",
    "licenseEffectiveDate": "01/01/2025",
    "licenseExpirationDate": "12/31/2025",
    "dataDate": "10/18/2025",
    "capacity": 12,
    "address": "464 E YOSEMITE AVE, SUITE B",
    "city": "MERCED",
    "zip": "95340",
    "county": "MERCED",
    "phone": "(209) 205-1126",
    "lat": 37.331568,
    "lng": -120.4614
  },
  {
    "id": "040000046",
    "name": "MERCED NURSING & REHABILITATION CENTER",
    "npi": "1992857999",
    "hcaiId": "206240943",
    "businessName": "CF MERCED, LLC",
    "contactEmail": "MICHAEL.DAROUZE@MERCEDNURSINGHCC.COM",
    "categoryName": "SKILLED NURSING FACILITY",
    "categoryCode": "SNF",
    "licenseStatus": "ACTIVE",
    "inService": true,
    "licenseNumber": "040000212",
    "licenseEffectiveDate": "03/09/2025",
    "licenseExpirationDate": "03/08/2026",
    "dataDate": "10/18/2025",
    "capacity": 79,
    "address": "510 W 26TH ST",
    "city": "MERCED",
    "zip": "95340",
    "county": "MERCED",
    "phone": "(209) 723-2911",
    "lat": 37.310292,
    "lng": -120.478788
  },
  {
    "id": "040000958",
    "name": "MERCY HOME CARE",
    "npi": "1235289117",
    "hcaiId": "406244039",
    "businessName": "DIGNITY HEALTH",
    "contactEmail": "ANGELO.MANTOAN@COMMONSPIRIT.ORG",
    "categoryName": "HOME HEALTH AGENCY",
    "categoryCode": "HHA",
    "licenseStatus": "ACTIVE",
    "inService": true,
    "licenseNumber": "040000383",
    "licenseEffectiveDate": "06/30/2025",
    "licenseExpirationDate": "06/29/2026",
    "dataDate": "10/18/2025",
    "capacity": 0,
    "address": "2740 M ST",
    "city": "MERCED",
    "zip": "95340",
    "county": "MERCED",
    "phone": "(209) 564-4321",
    "lat": 37.3122,
    "lng": -120.4779555
  },
  {
    "id": "040000113",
    "name": "MERCY MEDICAL CENTER",
    "npi": "1518018191",
    "hcaiId": "106240942",
    "businessName": "DIGNITY HEALTH",
    "contactEmail": "DALE.JOHNS@COMMONSPIRIT.ORG",
    "categoryName": "GENERAL ACUTE CARE HOSPITAL",
    "categoryCode": "GACH",
    "licenseStatus": "ACTIVE",
    "inService": true,
    "licenseNumber": "040000178",
    "licenseEffectiveDate": "03/07/2025",
    "licenseExpirationDate": "03/06/2026",
    "dataDate": "10/18/2025",
    "capacity": 186,
    "address": "333 MERCY AVE",
    "city": "MERCED",
    "zip": "95340",
    "county": "MERCED",
    "phone": "(209) 564-5000",
    "lat": 37.340019,
    "lng": -120.467106
  },
  {
    "id": "630027200",
    "name": "MISSION GARDENS FACILITY",
    "npi": null,
    "hcaiId": null,
    "businessName": "MISSION GARDENS FACILITY, LLC",
    "contactEmail": "SENIORCAREMODESTO@GMAIL.COM",
    "categoryName": "CONGREGATE LIVING HEALTH FACILITY",
    "categoryCode": "CLHF",
    "licenseStatus": "ACTIVE",
    "inService": true,
    "licenseNumber": "550008796",
    "licenseEffectiveDate": "11/07/2024",
    "licenseExpirationDate": "11/06/2025",
    "dataDate": "10/18/2025",
    "capacity": 18,
    "address": "1450 E 27TH ST",
    "city": "MERCED",
    "zip": "95340",
    "county": "MERCED",
    "phone": "(646) 416-1430",
    "lat": 37.30375798,
    "lng": -120.456214
  },
  {
    "id": "630028038",
    "name": "SKY'S PEDIATRIC DAY CENTER",
    "npi": null,
    "hcaiId": null,
    "businessName": "SKY'S PEDIATRIC DAY CENTER, LLC",
    "contactEmail": "SKYLER.MCCONICO@SKYSPEDIATRICS.COM",
    "categoryName": "PEDIATRIC DAY HEALTH & RESPITE CARE FACILITY",
    "categoryCode": "PDHRCF",
    "licenseStatus": "ACTIVE",
    "inService": true,
    "licenseNumber": "550009831",
    "licenseEffectiveDate": "05/30/2025",
    "licenseExpirationDate": "05/29/2026",
    "dataDate": "10/18/2025",
    "capacity": 3,
    "address": "3381 G ST, BUILDING M SUITE B",
    "city": "MERCED",
    "zip": "95340",
    "county": "MERCED",
    "phone": "(209) 382-5293",
    "lat": 37.32566199,
    "lng": -120.470572
  },
  {
    "id": "040001370",
    "name": "UNIVERSITY SURGERY CENTER",
    "npi": "1306905815",
    "hcaiId": "306244035",
    "businessName": "UAS MANAGEMENT INC.",
    "contactEmail": "TERRY@UNIVERSITYSURGERYCENTER.COM",
    "categoryName": "SURGICAL CLINIC",
    "categoryCode": "ASC",
    "licenseStatus": "INACTIVE - CAPEN DECISION",
    "inService": false,
    "licenseNumber": "040000537",
    "licenseEffectiveDate": "12/04/2007",
    "licenseExpirationDate": "12/03/2008",
    "dataDate": "10/18/2025",
    "capacity": 0,
    "address": "1390 E YOSEMITE AVE, SUITE B",
    "city": "MERCED",
    "zip": "95340",
    "county": "MERCED",
    "phone": "(209) 580-3400",
    "lat": 37.331523,
    "lng": -120.4521975
  }
]