[
  {
    "id": "030001271",
    "name": "GOLDEN VALLEY HEALTH CENTER",
    "npi": null,
    "hcaiId": "306504020",
    "businessName": "GOLDEN VALLEY HEALTH CENTERS",
    "contactEmail": "EVILLARAMA@GVHC.ORG",
    "categoryName": "PRIMARY CARE CLINIC",
    "categoryCode": "COMTYC",
    "licenseStatus": "ACTIVE",
    "inService": true,
    "licenseNumber": "030000528",
    "licenseEffectiveDate": "11/06/2025",
    "licenseExpirationDate": "11/05/2026",
    "dataDate": "10/18/2025",
    "capacity": 0,
    "address": "1717 LAS VEGAS ST",
    "city": "MODESTO",
    "zip": "95358",
    "county": "STANISLAUS",
    "phone": "(209) 385-5400",
    "lat": 37.605339,
    "lng": -121.0031775
  },
  {
    "id": "630019348",
    "name": "PACIFIC CARE II, INC.",
    "npi": null,
    "hcaiId": "206500318",
    "businessName": "PACIFIC CARE II INC.",
    "contactEmail": "KAHLONTALWINDER@GMAIL.COM",
    "categoryName": "CONGREGATE LIVING HEALTH FACILITY",
    "categoryCode": "CLHF",
    "licenseStatus": "ACTIVE",
    "inService": true,
    "licenseNumber": "550006309",
    "licenseEffectiveDate": "04/14/2025",
    "licenseExpirationDate": "04/13/2026",
    "dataDate": "10/18/2025",
    "capacity": 6,
    "address": "1024 JAYHAWK WAY",
    "city": "MODESTO",
    "zip": "95358",
    "county": "STANISLAUS",
    "phone": "(646) 416-1430",
    "lat": 37.649088,
    "lng": -121.033431
  },
  {
    "id": "630022785",
    "name": "SUNLIGHT ADULT DAY HEALTH CARE CENTER",
    "npi": null,
    "hcaiId": null,
    "businessName": "SUNLIGHT ADULT DAY HEALTH CARE CENTER, LLC",
    "contactEmail": "SUNLIGHTADHC@YAHOO.COM",
    "categoryName": "ADULT DAY HEALTH CARE",
    "categoryCode": "ADHC",
    "licenseStatus": "ACTIVE",
    "inService": true,
    "licenseNumber": "550008205",
    "licenseEffectiveDate": "11/02/2025",
    "licenseExpirationDate": "11/01/2026",
    "dataDate": "10/18/2025",
    "capacity": 0,
    "address": "1581 CUMMINS DR",
    "city": "MODESTO",
    "zip": "95358",
    "county": "STANISLAUS",
    "phone": "(818) 314-4373",
    "lat": 37.658187,
    "lng": -121.036716
  }
]