[
  {
    "id": "630016478",
    "name": "ASSOCIATE HOME HEALTH CARE INC",
    "npi": null,
    "hcaiId": "406390811",
    "businessName": "ASSOCIATE HOME HEALTH INC",
    "contactEmail": "PRAVINMAYA@YAHOO.COM",
    "categoryName": "HOME HEALTH AGENCY",
    "categoryCode": "HHA",
    "licenseStatus": "ACTIVE",
    "inService": true,
    "licenseNumber": "550004200",
    "licenseEffectiveDate": "03/06/2025",
    "licenseExpirationDate": "03/05/2026",
    "dataDate": "10/18/2025",
    "capacity": 0,
    "address": "3501 COFFEE RD, SUITE 7",
    "city": "MODESTO",
    "zip": "95355",
    "county": "STANISLAUS",
    "phone": "(209) 233-5567",
    "lat": 37.68924029,
    "lng": -120.9765238
  },
  {
    "id": "630020035",
    "name": "ATTA HOME HEALTHCARE",
    "npi": "1861012916",
    "hcaiId": "406504795",
    "businessName": "ATTA HEALTHCARE, INC.",
    "contactEmail": "MICHELLE@ATTAHH.COM",
    "categoryName": "HOME HEALTH AGENCY",
    "categoryCode": "HHA",
    "licenseStatus": "ACTIVE",
    "inService": true,
    "licenseNumber": "550005882",
    "licenseEffectiveDate": "11/20/2025",
    "licenseExpirationDate": "11/19/2026",
    "dataDate": "10/18/2025",
    "capacity": 0,
    "address": "1316 COFFEE RD, BUILDING B-2",
    "city": "MODESTO",
    "zip": "95355",
    "county": "STANISLAUS",
    "phone": "(510) 598-6355",
    "lat": 37.6623,
    "lng": -120.975435
  },
  {
    "id": "030000798",
    "name": "BRIGGSMORE SPECIALTY CENTER",
    "npi": "1588803373",
    "hcaiId": null,
    "businessName": null,
    "contactEmail": null,
    "categoryName": "SURGICAL CLINIC",
    "categoryCode": "ASC",
    "licenseStatus": null,
    "inService": null,
    "licenseNumber": null,
    "licenseEffectiveDate": null,
    "licenseExpirationDate": null,
    "dataDate": "10/18/2025",
    "capacity": 0,
    "address": "1409 E BRIGGSMORE AVE",
    "city": "MODESTO",
    "zip": "95355",
    "county": "STANISLAUS",
    "phone": "(209) 521-6097",
    "lat": 37.66815,
    "lng": -120.971835
  },
  {
    "id": "630022338",
    "name": "COFFEE ROAD DIALYSIS",
    "npi": null,
    "hcaiId": "306500694",
    "businessName": "TOTAL RENAL CARE, INC.",
    "contactEmail": "CAL_C@DAVITA.COM",
    "categoryName": "CHRONIC DIALYSIS CLINIC",
    "categoryCode": "ESRD/CDC",
    "licenseStatus": "ACTIVE",
    "inService": true,
    "licenseNumber": "550007759",
    "licenseEffectiveDate": "01/12/2025",
    "licenseExpirationDate": "01/11/2026",
    "dataDate": "10/18/2025",
    "capacity": 24,
    "address": "1328 COFFEE RD",
    "city": "MODESTO",
    "zip": "95355",
    "county": "STANISLAUS",
    "phone": "(209) 491-3639",
    "lat": 37.662696,
    "lng": -120.9754485
  },
  {
    "id": "630028144",
    "name": "COFFEE ROAD SURGERY CENTER LLC",
    "npi": null,
    "hcaiId": null,
    "businessName": null,
    "contactEmail": "MINI@COFFEEROADSURGERY.COM",
    "categoryName": "SURGICAL CLINIC",
    "categoryCode": "ASC",
    "licenseStatus": null,
    "inService": null,
    "licenseNumber": null,
    "licenseEffectiveDate": null,
    "licenseExpirationDate": null,
    "dataDate": "10/18/2025",
    "capacity": 0,
    "address": "1335 COFFEE RD, SUITE 201",
    "city": "MODESTO",
    "zip": "95355",
    "county": "STANISLAUS",
    "phone": "(209) 360-2582",
    "lat": 37.6629038,
    "lng": -120.9762058
  },
  {
    "id": "100000036",
    "name": "CRESTWOOD MANOR",
    "npi": "1508884487",
    "hcaiId": "206502207",
    "businessName": "CRESTWOOD BEHAVIORAL HEALTH, INC.",
    "contactEmail": "BSOUZA@CBHI.NET",
    "categoryName": "SKILLED NURSING FACILITY",
    "categoryCode": "SNF",
    "licenseStatus": "ACTIVE",
    "inService": true,
    "licenseNumber": "100000264",
    "licenseEffectiveDate": "06/30/2025",
    "licenseExpirationDate": "06/29/2026",
    "dataDate": "10/18/2025",
    "capacity": 194,
    "address": "1400 CELESTE DR",
    "city": "MODESTO",
    "zip": "95355",
    "county": "STANISLAUS",
    "phone": "(209) 526-8050",
    "lat": 37.671858,
    "lng": -120.97179
  },
  {
    "id": "030001568",
    "name": "DOCTORS MEDICAL CENTER - BEHAVIORAL HEALTH DEPARTMENT",
    "npi": null,
    "hcaiId": "106501016",
    "businessName": "DOCTORS MEDICAL CENTER OF MODESTO, INC.",
    "contactEmail": "JAY.KRISHNASWAMY@TENETHEALTH.COM",
    "categoryName": "ACUTE PSYCHIATRIC HOSPITAL",
    "categoryCode": "APH",
    "licenseStatus": "ACTIVE",
    "inService": true,
    "licenseNumber": "030000026",
    "licenseEffectiveDate": "06/18/2025",
    "licenseExpirationDate": "05/31/2026",
    "dataDate": "10/18/2025",
    "capacity": 67,
    "address": "1501 CLAUS RD",
    "city": "MODESTO",
    "zip": "95355",
    "county": "STANISLAUS",
    "phone": "(209) 578-1211",
    "lat": 37.665423,
    "lng": -120.922056
  },
  {
    "id": "630016419",
    "name": "ENCOMPASS HEALTH REHABILITATION HOSPITAL OF MODESTO",
    "npi": "1598139891",
    "hcaiId": "106504079",
    "businessName": "ENCOMPASS HEALTH REHABILITATION HOSPITAL OF MODESTO, LLC",
    "contactEmail": "SUKHRAJ.DHAMI@ENCOMPASSHEALTH.COM",
    "categoryName": "GENERAL ACUTE CARE HOSPITAL",
    "categoryCode": "GACH",
    "licenseStatus": "ACTIVE",
    "inService": true,
    "licenseNumber": "550003684",
    "licenseEffectiveDate": "10/20/2025",
    "licenseExpirationDate": "10/19/2026",
    "dataDate": "10/18/2025",
    "capacity": 50,
    "address": "1303 MABLE AVENUE",
    "city": "MODESTO",
    "zip": "95355",
    "county": "STANISLAUS",
    "phone": "(209) 857-3509",
    "lat": 37.69618652,
    "lng": -120.9754811
  },
  {
    "id": "030001786",
    "name": "FIRST CHOICE HEALTH SERVICES",
    "npi": null,
    "hcaiId": "306504074",
    "businessName": "MODESTO PREGNANCY CENTER",
    "contactEmail": "INFO@MODESTOPC.ORG",
    "categoryName": "PRIMARY CARE CLINIC",
    "categoryCode": "COMTYC",
    "licenseStatus": "ACTIVE",
    "inService": true,
    "licenseNumber": "030000774",
    "licenseEffectiveDate": "05/31/2025",
    "licenseExpirationDate": "05/30/2026",
    "dataDate": "10/18/2025",
    "capacity": 0,
    "address": "2801 COFFEE RD, SUITE A-5",
    "city": "MODESTO",
    "zip": "95355",
    "county": "STANISLAUS",
    "phone": "(209) 526-1734",
    "lat": 37.67994,
    "lng": -120.9764565
  },
  {
    "id": "630024135",
    "name": "FIRST CHOICE HEALTH SERVICES",
    "npi": null,
    "hcaiId": null,
    "businessName": "MODESTO PREGNANCY CENTER",
    "contactEmail": "EKOOLHAAS@MODESTOPC.ORG",
    "categoryName": "PRIMARY CARE CLINIC",
    "categoryCode": "COMTYC",
    "licenseStatus": "ACTIVE",
    "inService": true,
    "licenseNumber": "030000774",
    "licenseEffectiveDate": "05/31/2025",
    "licenseExpirationDate": "05/30/2026",
    "dataDate": "10/18/2025",
    "capacity": 0,
    "address": "2030 COFFEE RD, SUITE B7",
    "city": "MODESTO",
    "zip": "95355",
    "county": "STANISLAUS",
    "phone": "(209) 526-1734",
    "lat": 37.672965,
    "lng": -120.975354
  },
  {
    "id": "100000072",
    "name": "GOLDEN MODESTO CARE CENTER",
    "npi": "1821708173",
    "hcaiId": "206500820",
    "businessName": "MODESTO SNF OPERATIONS LLC",
    "contactEmail": "SEARL@EVERGREENHCG.COM",
    "categoryName": "SKILLED NURSING FACILITY",
    "categoryCode": "SNF",
    "licenseStatus": "ACTIVE",
    "inService": true,
    "licenseNumber": "100000018",
    "licenseEffectiveDate": "12/01/2024",
    "licenseExpirationDate": "11/30/2025",
    "dataDate": "10/18/2025",
    "capacity": 120,
    "address": "1900 COFFEE RD",
    "city": "MODESTO",
    "zip": "95355",
    "county": "STANISLAUS",
    "phone": "(408) 455-3247",
    "lat": 37.671084,
    "lng": -120.974958
  },
  {
    "id": "030000123",
    "name": "MEMORIAL MEDICAL CENTER",
    "npi": "1699129601",
    "hcaiId": "106500939",
    "businessName": "SUTTER VALLEY HOSPITALS",
    "contactEmail": "TRACY.ROMAN@SUTTERHEALTH.ORG",
    "categoryName": "GENERAL ACUTE CARE HOSPITAL",
    "categoryCode": "GACH",
    "licenseStatus": "ACTIVE",
    "inService": true,
    "licenseNumber": "030000061",
    "licenseEffectiveDate": "11/13/2025",
    "licenseExpirationDate": "04/30/2026",
    "dataDate": "10/18/2025",
    "capacity": 419,
    "address": "1700 COFFEE RD",
    "city": "MODESTO",
    "zip": "95355",
    "county": "STANISLAUS",
    "phone": "(209) 572-7288",
    "lat": 37.668762,
    "lng": -120.9746565
  },
  {
    "id": "630026929",
    "name": "MODESTO HEALTH CENTER",
    "npi": null,
    "hcaiId": null,
    "businessName": "LIVINGSTON COMMUNITY HEALTH",
    "contactEmail": null,
    "categoryName": "PRIMARY CARE CLINIC",
    "categoryCode": "COMTYC",
    "licenseStatus": "ACTIVE",
    "inService": true,
    "licenseNumber": "040000176",
    "licenseEffectiveDate": "11/01/2025",
    "licenseExpirationDate": "10/31/2026",
    "dataDate": "10/18/2025",
    "capacity": 0,
    "address": "2116 E ORANGEBURG AVE",
    "city": "MODESTO",
    "zip": "95355",
    "county": "STANISLAUS",
    "phone": null,
    "lat": 37.663299,
    "lng": -120.958227
  },
  {
    "id": "630028065",
    "name": "PCCC SURGERY CENTER INC",
    "npi": null,
    "hcaiId": null,
    "businessName": null,
    "contactEmail": "TJONES@PAINCLINICSCC.COM",
    "categoryName": "SURGICAL CLINIC",
    "categoryCode": "ASC",
    "licenseStatus": null,
    "inService": null,
    "licenseNumber": null,
    "licenseEffectiveDate": null,
    "licenseExpirationDate": null,
    "dataDate": "10/18/2025",
    "capacity": 0,
    "address": "1130 COFFEE RD, BUILDING 5B",
    "city": "MODESTO",
    "zip": "95355",
    "county": "STANISLAUS",
    "phone": "(833) 478-1818",
    "lat": 37.65915298,
    "lng": -120.975347
  },
  {
    "id": "100000042",
    "name": "RIVER VIEW POST ACUTE",
    "npi": "1811646987",
    "hcaiId": "206500855",
    "businessName": "PEAHI BAY LLC",
    "contactEmail": "SBUSH@KALESTAHC.COM",
    "categoryName": "SKILLED NURSING FACILITY",
    "categoryCode": "SNF",
    "licenseStatus": "ACTIVE",
    "inService": true,
    "licenseNumber": "100000028",
    "licenseEffectiveDate": "04/16/2025",
    "licenseExpirationDate": "04/15/2026",
    "dataDate": "10/18/2025",
    "capacity": 99,
    "address": "1611 SCENIC DR",
    "city": "MODESTO",
    "zip": "95355",
    "county": "STANISLAUS",
    "phone": "(209) 523-5667",
    "lat": 37.651536,
    "lng": -120.96954
  },
  {
    "id": "110001158",
    "name": "SATELLITE HEALTHCARE MODESTO",
    "npi": "1861463770",
    "hcaiId": "306504045",
    "businessName": "SATELLITE HEALTHCARE MODESTO, LLC",
    "contactEmail": "LICENSING@SATELLITEHEALTH.COM",
    "categoryName": "CHRONIC DIALYSIS CLINIC",
    "categoryCode": "ESRD/CDC",
    "licenseStatus": "ACTIVE",
    "inService": true,
    "licenseNumber": "110000447",
    "licenseEffectiveDate": "01/23/2025",
    "licenseExpirationDate": "01/22/2026",
    "dataDate": "10/18/2025",
    "capacity": 25,
    "address": "3500 COFFEE RD, SUITE 21",
    "city": "MODESTO",
    "zip": "95355",
    "county": "STANISLAUS",
    "phone": "(209) 578-0691",
    "lat": 37.690326,
    "lng": -120.9742335
  },
  {
    "id": "630019846",
    "name": "SATELLITE HEALTHCARE MODESTO BRIGGSMORE",
    "npi": null,
    "hcaiId": "306500551",
    "businessName": "SATELLITE MODESTO BRIGGSMORE, LLC",
    "contactEmail": "LICENSING@SATELLITEHEALTH.COM",
    "categoryName": "CHRONIC DIALYSIS CLINIC",
    "categoryCode": "ESRD/CDC",
    "licenseStatus": "ACTIVE",
    "inService": true,
    "licenseNumber": "550005379",
    "licenseEffectiveDate": "03/27/2025",
    "licenseExpirationDate": "03/26/2026",
    "dataDate": "10/18/2025",
    "capacity": 25,
    "address": "2401 E ORANGEBURG AVE, SUITE 340",
    "city": "MODESTO",
    "zip": "95355",
    "county": "STANISLAUS",
    "phone": "(209) 855-8104",
    "lat": 37.66428,
    "lng": -120.95541
  },
  {
    "id": "100000197",
    "name": "SUTTER CARE AT HOME",
    "npi": "1972876506",
    "hcaiId": "406504068",
    "businessName": "SUTTER VISITING NURSE ASSOCIATION AND HOSPICE",
    "contactEmail": "SVNAREGULATORY@SUTTERHEALTH.ORG",
    "categoryName": "HOME HEALTH AGENCY",
    "categoryCode": "HHA",
    "licenseStatus": "ACTIVE",
    "inService": true,
    "licenseNumber": "100000249",
    "licenseEffectiveDate": "06/17/2025",
    "licenseExpirationDate": "06/16/2026",
    "dataDate": "10/18/2025",
    "capacity": 0,
    "address": "1316 CELESTE DR, SUITE 140",
    "city": "MODESTO",
    "zip": "95355",
    "county": "STANISLAUS",
    "phone": "(707) 864-4840",
    "lat": 37.671444,
    "lng": -120.973671
  },
  {
    "id": "630002882",
    "name": "SYLVAN SURGERY CENTER, INC.",
    "npi": "1801822739",
    "hcaiId": "306504054",
    "businessName": null,
    "contactEmail": "ELSAKR@AOL.COM",
    "categoryName": "SURGICAL CLINIC",
    "categoryCode": "ASC",
    "licenseStatus": "INACTIVE - CAPEN DECISION",
    "inService": false,
    "licenseNumber": "550000147",
    "licenseEffectiveDate": "04/20/2008",
    "licenseExpirationDate": "04/19/2009",
    "dataDate": "10/18/2025",
    "capacity": 0,
    "address": "2336 SYLVAN AVE",
    "city": "MODESTO",
    "zip": "95355",
    "county": "STANISLAUS",
    "phone": "(209) 613-7828",
    "lat": 37.68858,
    "lng": -120.9547755
  },
  {
    "id": "030001801",
    "name": "VALLEY SURGERY CENTER, LP",
    "npi": "1235106782",
    "hcaiId": "306504046",
    "businessName": null,
    "contactEmail": "VALLEYSURGERYCENTER@YAHOO.COM",
    "categoryName": "SURGICAL CLINIC",
    "categoryCode": "ASC",
    "licenseStatus": "INACTIVE - CAPEN DECISION",
    "inService": false,
    "licenseNumber": "030000784",
    "licenseEffectiveDate": "05/19/2008",
    "licenseExpirationDate": "05/18/2009",
    "dataDate": "10/18/2025",
    "capacity": 0,
    "address": "1300 MABLE AVE, SUITE 1",
    "city": "MODESTO",
    "zip": "95355",
    "county": "STANISLAUS",
    "phone": "(209) 571-1633",
    "lat": 37.695843,
    "lng": -120.9756465
  }
]