[
  {
    "id": "630021429",
    "name": "ALWAYS HOME NURSING SERVICES, INC.",
    "npi": "1043211857",
    "hcaiId": null,
    "businessName": "ALWAYS HOME NURSING SERVICES, INC.",
    "contactEmail": "ANDREW@ALWAYSHOMENURSING.COM",
    "categoryName": "HOME HEALTH AGENCY",
    "categoryCode": "HHA",
    "licenseStatus": "ACTIVE",
    "inService": true,
    "licenseNumber": "100000450",
    "licenseEffectiveDate": "05/29/2025",
    "licenseExpirationDate": "05/28/2026",
    "dataDate": "10/18/2025",
    "capacity": 0,
    "address": "1100 KANSAS AVE, SUITE H",
    "city": "MODESTO",
    "zip": "95351",
    "county": "STANISLAUS",
    "phone": "(916) 989-6420",
    "lat": 37.645973,
    "lng": -121.023399
  },
  {
    "id": "630016334",
    "name": "CONNECTED LIVING",
    "npi": null,
    "hcaiId": "206504101",
    "businessName": "CONNECTED LIVING INC",
    "contactEmail": "SCICONNECTEDLIVING@GMAIL.COM",
    "categoryName": "CONGREGATE LIVING HEALTH FACILITY",
    "categoryCode": "CLHF",
    "licenseStatus": "ACTIVE",
    "inService": true,
    "licenseNumber": "550003821",
    "licenseEffectiveDate": "03/17/2025",
    "licenseExpirationDate": "03/16/2026",
    "dataDate": "10/18/2025",
    "capacity": 18,
    "address": "1325 HOUSER LN",
    "city": "MODESTO",
    "zip": "95351",
    "county": "STANISLAUS",
    "phone": "(855) 391-9700",
    "lat": 37.627965,
    "lng": -121.027725
  },
  {
    "id": "030001233",
    "name": "GOLDEN VALLEY HEALTH CENTER",
    "npi": null,
    "hcaiId": "306504017",
    "businessName": "GOLDEN VALLEY HEALTH CENTERS",
    "contactEmail": "EVILLARAMA@GVHC.ORG",
    "categoryName": "PRIMARY CARE CLINIC",
    "categoryCode": "COMTYC",
    "licenseStatus": "ACTIVE",
    "inService": true,
    "licenseNumber": "030000519",
    "licenseEffectiveDate": "03/09/2025",
    "licenseExpirationDate": "03/08/2026",
    "dataDate": "10/18/2025",
    "capacity": 0,
    "address": "1121 HAMMOND ST",
    "city": "MODESTO",
    "zip": "95351",
    "county": "STANISLAUS",
    "phone": "(209) 385-5554",
    "lat": 37.614726,
    "lng": -121.019256
  },
  {
    "id": "630027971",
    "name": "GOLDEN VALLEY HEALTH CENTERS - MODESTO PARADISE SUITE E101",
    "npi": null,
    "hcaiId": null,
    "businessName": "GOLDEN VALLEY HEALTH CENTERS",
    "contactEmail": null,
    "categoryName": "PRIMARY CARE CLINIC",
    "categoryCode": "COMTYC",
    "licenseStatus": "ACTIVE",
    "inService": true,
    "licenseNumber": "550000688",
    "licenseEffectiveDate": "04/03/2025",
    "licenseExpirationDate": "04/02/2026",
    "dataDate": "10/18/2025",
    "capacity": 0,
    "address": "401 PARADISE RD, SUITE E101",
    "city": "MODESTO",
    "zip": "95351",
    "county": "STANISLAUS",
    "phone": null,
    "lat": 37.628201,
    "lng": -121.014609
  },
  {
    "id": "630027973",
    "name": "GOLDEN VALLEY HEALTH CENTERS - MODESTO PARADISE SUITE E102",
    "npi": null,
    "hcaiId": null,
    "businessName": "GOLDEN VALLEY HEALTH CENTERS",
    "contactEmail": null,
    "categoryName": "PRIMARY CARE CLINIC",
    "categoryCode": "COMTYC",
    "licenseStatus": "ACTIVE",
    "inService": true,
    "licenseNumber": "550000688",
    "licenseEffectiveDate": "04/03/2025",
    "licenseExpirationDate": "04/02/2026",
    "dataDate": "10/18/2025",
    "capacity": 0,
    "address": "401 PARADISE RD, SUITE E102",
    "city": "MODESTO",
    "zip": "95351",
    "county": "STANISLAUS",
    "phone": null,
    "lat": 37.628201,
    "lng": -121.014609
  },
  {
    "id": "630027972",
    "name": "GOLDEN VALLEY HEALTH CENTERS - MODESTO PARADISE SUITE E103",
    "npi": null,
    "hcaiId": null,
    "businessName": "GOLDEN VALLEY HEALTH CENTERS",
    "contactEmail": null,
    "categoryName": "PRIMARY CARE CLINIC",
    "categoryCode": "COMTYC",
    "licenseStatus": "ACTIVE",
    "inService": true,
    "licenseNumber": "550000688",
    "licenseEffectiveDate": "04/03/2025",
    "licenseExpirationDate": "04/02/2026",
    "dataDate": "10/18/2025",
    "capacity": 0,
    "address": "401 PARADISE RD, SUITE E103",
    "city": "MODESTO",
    "zip": "95351",
    "county": "STANISLAUS",
    "phone": null,
    "lat": 37.6281786,
    "lng": -121.0172082
  },
  {
    "id": "630027975",
    "name": "GOLDEN VALLEY HEALTH CENTERS - MODESTO PARADISE SUITE E104",
    "npi": null,
    "hcaiId": null,
    "businessName": "GOLDEN VALLEY HEALTH CENTERS",
    "contactEmail": null,
    "categoryName": "PRIMARY CARE CLINIC",
    "categoryCode": "COMTYC",
    "licenseStatus": "ACTIVE",
    "inService": true,
    "licenseNumber": "550000688",
    "licenseEffectiveDate": "04/03/2025",
    "licenseExpirationDate": "04/02/2026",
    "dataDate": "10/18/2025",
    "capacity": 0,
    "address": "401 PARADISE RD, SUITE E104",
    "city": "MODESTO",
    "zip": "95351",
    "county": "STANISLAUS",
    "phone": null,
    "lat": 37.6281786,
    "lng": -121.0172082
  },
  {
    "id": "100001067",
    "name": "INTERIM HEALTHCARE OF CENTRAL CALIFORNIA",
    "npi": "1902848211",
    "hcaiId": "406504066",
    "businessName": "SYNERGY HEALTH COMPANIES, INC",
    "contactEmail": "RONMURPHY@INTERIMHEALTHCARE.COM",
    "categoryName": "HOME HEALTH AGENCY",
    "categoryCode": "HHA",
    "licenseStatus": "ACTIVE",
    "inService": true,
    "licenseNumber": "100000457",
    "licenseEffectiveDate": "04/19/2025",
    "licenseExpirationDate": "04/18/2026",
    "dataDate": "10/18/2025",
    "capacity": 0,
    "address": "1521 N CARPENTER RD, SUITE D-1",
    "city": "MODESTO",
    "zip": "95351",
    "county": "STANISLAUS",
    "phone": "(209) 577-4625",
    "lat": 37.657305,
    "lng": -121.0323825
  },
  {
    "id": "630016434",
    "name": "MY FRIENDS",
    "npi": null,
    "hcaiId": null,
    "businessName": "SPECIALIZED DAYCARE SERVICES, INC.",
    "contactEmail": "AHNS@ALWAYSHOMENURSING.COM",
    "categoryName": "PEDIATRIC DAY HEALTH & RESPITE CARE FACILITY",
    "categoryCode": "PDHRCF",
    "licenseStatus": "ACTIVE",
    "inService": true,
    "licenseNumber": "550003654",
    "licenseEffectiveDate": "03/13/2025",
    "licenseExpirationDate": "03/12/2026",
    "dataDate": "10/18/2025",
    "capacity": 4,
    "address": "1100 KANSAS AVENUE",
    "city": "MODESTO",
    "zip": "95351",
    "county": "STANISLAUS",
    "phone": "(916) 989-6420",
    "lat": 37.64574,
    "lng": -121.023432
  },
  {
    "id": "030001776",
    "name": "PARADISE MEDICAL OFFICE",
    "npi": null,
    "hcaiId": "306504040",
    "businessName": null,
    "contactEmail": "LRUPPEL@SCHSA.ORG",
    "categoryName": "PRIMARY CARE CLINIC",
    "categoryCode": "FQHC",
    "licenseStatus": null,
    "inService": null,
    "licenseNumber": null,
    "licenseEffectiveDate": null,
    "licenseExpirationDate": null,
    "dataDate": "10/18/2025",
    "capacity": 0,
    "address": "401 PARADISE RD, SUITE E",
    "city": "MODESTO",
    "zip": "95351",
    "county": "STANISLAUS",
    "phone": "(209) 558-7163",
    "lat": 37.62819,
    "lng": -121.014603
  },
  {
    "id": "630015976",
    "name": "SATELLITE HEALTHCARE CERES",
    "npi": null,
    "hcaiId": "306504088",
    "businessName": "SATELLITE CERES, LLC",
    "contactEmail": "NORNDORFF@USRENALCARE.COM",
    "categoryName": "CHRONIC DIALYSIS CLINIC",
    "categoryCode": "ESRD/CDC",
    "licenseStatus": "ACTIVE",
    "inService": true,
    "licenseNumber": "550003322",
    "licenseEffectiveDate": "12/23/2024",
    "licenseExpirationDate": "12/22/2025",
    "dataDate": "10/18/2025",
    "capacity": 25,
    "address": "1372 MITCHELL RD",
    "city": "MODESTO",
    "zip": "95351",
    "county": "STANISLAUS",
    "phone": "(615) 330-4400",
    "lat": 37.61118,
    "lng": -120.937589
  }
]