[
  {
    "id": "030000129",
    "name": "CENTRAL VALLEY SPECIALTY HOSPITAL",
    "npi": "1578989703",
    "hcaiId": "106500954",
    "businessName": "CENTRAL VALLEY SPECIALTY HOSPITAL, INC.",
    "contactEmail": "DUPINDER.SIDHU@CENTRALVALLEYSPECIALTY.ORG",
    "categoryName": "GENERAL ACUTE CARE HOSPITAL",
    "categoryCode": "GACH",
    "licenseStatus": "ACTIVE",
    "inService": true,
    "licenseNumber": "030000464",
    "licenseEffectiveDate": "07/19/2025",
    "licenseExpirationDate": "07/18/2026",
    "dataDate": "10/18/2025",
    "capacity": 96,
    "address": "730 17TH ST",
    "city": "MODESTO",
    "zip": "95354",
    "county": "STANISLAUS",
    "phone": "(209) 248-7700",
    "lat": 37.64349,
    "lng": -120.990735
  },
  {
    "id": "630018505",
    "name": "DANNY'S HOME HEALTH CARE INC.",
    "npi": null,
    "hcaiId": "406501790",
    "businessName": "DANNY'S HOME HEALTH CARE, INC.",
    "contactEmail": "CEOADMIN@DANNYSHOMEHEALTH.COM",
    "categoryName": "HOME HEALTH AGENCY",
    "categoryCode": "HHA",
    "licenseStatus": "ACTIVE",
    "inService": true,
    "licenseNumber": "550004911",
    "licenseEffectiveDate": "08/14/2025",
    "licenseExpirationDate": "08/13/2026",
    "dataDate": "10/18/2025",
    "capacity": 0,
    "address": "1722 H ST",
    "city": "MODESTO",
    "zip": "95354",
    "county": "STANISLAUS",
    "phone": "(209) 232-8907",
    "lat": 37.644012,
    "lng": -120.990438
  },
  {
    "id": "630011255",
    "name": "GLOBAL HEALTHCARE SERVICES, LLC",
    "npi": "1366572141",
    "hcaiId": "406394097",
    "businessName": "GLOBAL HEALTHCARE SERVICES, LLC",
    "contactEmail": "INFO@GLOBALHEALTHCARESERVICES.NET",
    "categoryName": "HOME HEALTH AGENCY",
    "categoryCode": "HHA",
    "licenseStatus": "ACTIVE",
    "inService": true,
    "licenseNumber": "550001109",
    "licenseEffectiveDate": "11/17/2024",
    "licenseExpirationDate": "11/16/2025",
    "dataDate": "10/18/2025",
    "capacity": 0,
    "address": "1200 G ST, SUITE A",
    "city": "MODESTO",
    "zip": "95354",
    "county": "STANISLAUS",
    "phone": "(209) 549-9875",
    "lat": 37.639035,
    "lng": -120.994596
  },
  {
    "id": "630015970",
    "name": "GLOBAL HOSPICE AND PALLIATIVE CARE, INC",
    "npi": "1528306529",
    "hcaiId": "406500877",
    "businessName": "GLOBAL HOSPICE AND PALLIATIVE CARE, INC.",
    "contactEmail": "GLOBALHOSPICEINC@YAHOO.COM",
    "categoryName": "HOSPICE",
    "categoryCode": "HOSPICE",
    "licenseStatus": "ACTIVE",
    "inService": true,
    "licenseNumber": "550003462",
    "licenseEffectiveDate": "03/21/2024",
    "licenseExpirationDate": "03/20/2026",
    "dataDate": "10/18/2025",
    "capacity": 0,
    "address": "1200 G ST, SUITE B",
    "city": "MODESTO",
    "zip": "95354",
    "county": "STANISLAUS",
    "phone": "(209) 572-2726",
    "lat": 37.63904501,
    "lng": -120.994605
  },
  {
    "id": "030000260",
    "name": "GOLDEN VALLEY HEALTH CENTER",
    "npi": null,
    "hcaiId": "306502214",
    "businessName": "GOLDEN VALLEY HEALTH CENTERS",
    "contactEmail": "EVILLARAMA@GVHC.ORG",
    "categoryName": "PRIMARY CARE CLINIC",
    "categoryCode": "COMTYC",
    "licenseStatus": "ACTIVE",
    "inService": true,
    "licenseNumber": "030000278",
    "licenseEffectiveDate": "11/26/2024",
    "licenseExpirationDate": "11/25/2025",
    "dataDate": "10/18/2025",
    "capacity": 0,
    "address": "1114 6TH ST",
    "city": "MODESTO",
    "zip": "95354",
    "county": "STANISLAUS",
    "phone": "(209) 385-5554",
    "lat": 37.639224,
    "lng": -121.0055625
  },
  {
    "id": "630011578",
    "name": "GOLDEN VALLEY HEALTH CENTERS",
    "npi": null,
    "hcaiId": "306504067",
    "businessName": "GOLDEN VALLEY HEALTH CENTERS",
    "contactEmail": "EVILLARAMA@GVHC.ORG",
    "categoryName": "PRIMARY CARE CLINIC",
    "categoryCode": "COMTYC",
    "licenseStatus": "ACTIVE",
    "inService": true,
    "licenseNumber": "550000688",
    "licenseEffectiveDate": "04/03/2025",
    "licenseExpirationDate": "04/02/2026",
    "dataDate": "10/18/2025",
    "capacity": 0,
    "address": "2101 TENAYA DR",
    "city": "MODESTO",
    "zip": "95354",
    "county": "STANISLAUS",
    "phone": "(209) 385-5554",
    "lat": 37.63269,
    "lng": -120.9567375
  },
  {
    "id": "630019540",
    "name": "GOLDEN VALLEY HEALTH CENTERS - MODESTO MISSION",
    "npi": null,
    "hcaiId": null,
    "businessName": "GOLDEN VALLEY HEALTH CENTERS",
    "contactEmail": null,
    "categoryName": "PRIMARY CARE CLINIC",
    "categoryCode": "COMTYC",
    "licenseStatus": "ACTIVE",
    "inService": true,
    "licenseNumber": "550000688",
    "licenseEffectiveDate": "04/03/2025",
    "licenseExpirationDate": "04/02/2026",
    "dataDate": "10/18/2025",
    "capacity": 0,
    "address": "209 KERR AVE",
    "city": "MODESTO",
    "zip": "95354",
    "county": "STANISLAUS",
    "phone": null,
    "lat": 37.636659,
    "lng": -120.9717405
  },
  {
    "id": "630028171",
    "name": "GVHC - WEST MODESTO DENTAL",
    "npi": null,
    "hcaiId": null,
    "businessName": "GOLDEN VALLEY HEALTH CENTERS",
    "contactEmail": null,
    "categoryName": "PRIMARY CARE CLINIC",
    "categoryCode": "COMTYC",
    "licenseStatus": "ACTIVE",
    "inService": true,
    "licenseNumber": "550004109",
    "licenseEffectiveDate": "02/03/2025",
    "licenseExpirationDate": "02/01/2026",
    "dataDate": "10/18/2025",
    "capacity": 0,
    "address": "1008 6TH ST, SUITE A",
    "city": "MODESTO",
    "zip": "95354",
    "county": "STANISLAUS",
    "phone": null,
    "lat": 37.63823062,
    "lng": -121.0041789
  },
  {
    "id": "630027217",
    "name": "GVHC MOBILE UNIT - TENAYA",
    "npi": null,
    "hcaiId": null,
    "businessName": "GOLDEN VALLEY HEALTH CENTERS",
    "contactEmail": null,
    "categoryName": "PRIMARY CARE CLINIC",
    "categoryCode": "COMTYC",
    "licenseStatus": "ACTIVE",
    "inService": true,
    "licenseNumber": "550000688",
    "licenseEffectiveDate": "04/03/2025",
    "licenseExpirationDate": "04/02/2026",
    "dataDate": "10/18/2025",
    "capacity": 0,
    "address": "2101 TENAYA DR",
    "city": "MODESTO",
    "zip": "95354",
    "county": "STANISLAUS",
    "phone": null,
    "lat": 37.632846,
    "lng": -120.956465
  },
  {
    "id": "630016278",
    "name": "PROGRESSIVE HOME HEALTH CARE",
    "npi": "1942688528",
    "hcaiId": "406504094",
    "businessName": "PROGRESSIVE HOME HEALTH AND HOSPICE CARE LLC",
    "contactEmail": "PROGRESSIVEMANAGEMENT21@PHHHC.ORG.COM",
    "categoryName": "HOME HEALTH AGENCY",
    "categoryCode": "HHA",
    "licenseStatus": "ACTIVE",
    "inService": true,
    "licenseNumber": "550003817",
    "licenseEffectiveDate": "11/08/2024",
    "licenseExpirationDate": "11/07/2025",
    "dataDate": "10/18/2025",
    "capacity": 0,
    "address": "1619 H STREET, SUITE B",
    "city": "MODESTO",
    "zip": "95354",
    "county": "STANISLAUS",
    "phone": "(209) 422-3700",
    "lat": 37.64309116,
    "lng": -120.9921064
  },
  {
    "id": "630016280",
    "name": "PROGRESSIVE HOSPICE CARE",
    "npi": null,
    "hcaiId": "406504095",
    "businessName": "PROGRESSIVE HOME HEALTH AND HOSPICE CARE LLC",
    "contactEmail": "PROGESSIVEMANAGMENT21@OUTLOOK.COM",
    "categoryName": "HOSPICE",
    "categoryCode": "HOSPICE",
    "licenseStatus": "ACTIVE",
    "inService": true,
    "licenseNumber": "550003836",
    "licenseEffectiveDate": "11/09/2024",
    "licenseExpirationDate": "11/08/2026",
    "dataDate": "10/18/2025",
    "capacity": 0,
    "address": "1619 H ST, SUITE A",
    "city": "MODESTO",
    "zip": "95354",
    "county": "STANISLAUS",
    "phone": "(818) 961-4420",
    "lat": 37.64361398,
    "lng": -120.991774
  },
  {
    "id": "110001272",
    "name": "SATELLITE HEALTHCARE CENTRAL MODESTO",
    "npi": "1609847581",
    "hcaiId": "306504051",
    "businessName": "SATELLITE DIALYSIS - CENTRAL MODESTO, LLC",
    "contactEmail": "LICENSING@SATELLITEHEALTH.COM",
    "categoryName": "CHRONIC DIALYSIS CLINIC",
    "categoryCode": "ESRD/CDC",
    "licenseStatus": "ACTIVE",
    "inService": true,
    "licenseNumber": "110000527",
    "licenseEffectiveDate": "06/07/2025",
    "licenseExpirationDate": "06/06/2026",
    "dataDate": "10/18/2025",
    "capacity": 25,
    "address": "1315 10TH ST, SUITE 300",
    "city": "MODESTO",
    "zip": "95354",
    "county": "STANISLAUS",
    "phone": "(209) 238-4087",
    "lat": 37.643625,
    "lng": -121.0043205
  },
  {
    "id": "630022105",
    "name": "VALLEY HOME HEALTH - BRANCH",
    "npi": "1952434185",
    "hcaiId": null,
    "businessName": "VALLEY MEDICAL SYSTEMS, INC.",
    "contactEmail": "MATT@VALLEYHHA.COM",
    "categoryName": "HOME HEALTH AGENCY",
    "categoryCode": "HHA",
    "licenseStatus": "ACTIVE",
    "inService": true,
    "licenseNumber": "550001358",
    "licenseEffectiveDate": "02/09/2025",
    "licenseExpirationDate": "02/08/2026",
    "dataDate": "10/18/2025",
    "capacity": 0,
    "address": "909 15TH ST, SUITE 2",
    "city": "MODESTO",
    "zip": "95354",
    "county": "STANISLAUS",
    "phone": "(559) 222-4060",
    "lat": 37.643391,
    "lng": -120.9951945
  },
  {
    "id": "110001259",
    "name": "WELLBOUND OF MODESTO",
    "npi": "1932171972",
    "hcaiId": null,
    "businessName": null,
    "contactEmail": null,
    "categoryName": "CHRONIC DIALYSIS CLINIC",
    "categoryCode": "ESRD",
    "licenseStatus": null,
    "inService": null,
    "licenseNumber": null,
    "licenseEffectiveDate": null,
    "licenseExpirationDate": null,
    "dataDate": "10/18/2025",
    "capacity": 0,
    "address": "1315 10TH ST, SUITE 100",
    "city": "MODESTO",
    "zip": "95354",
    "county": "STANISLAUS",
    "phone": "(650) 404-3613",
    "lat": 37.643625,
    "lng": -121.0043205
  }
]