[
  {
    "id": "100000038",
    "name": "ALMOND VISTA HEALTHCARE",
    "npi": null,
    "hcaiId": "206500872",
    "businessName": "NEWPORT, LLC",
    "contactEmail": "HLACHANCE@KALESTAHC.COM",
    "categoryName": "SKILLED NURSING FACILITY",
    "categoryCode": "SNF",
    "licenseStatus": "ACTIVE",
    "inService": true,
    "licenseNumber": "100000038",
    "licenseEffectiveDate": "02/01/2025",
    "licenseExpirationDate": "01/31/2026",
    "dataDate": "10/18/2025",
    "capacity": 175,
    "address": "2030 EVERGREEN AVE",
    "city": "MODESTO",
    "zip": "95350",
    "county": "STANISLAUS",
    "phone": "(209) 577-1055",
    "lat": 37.667124,
    "lng": -121.028562
  },
  {
    "id": "630008881",
    "name": "BRISTOL HOSPICE - MODESTO",
    "npi": "1821166745",
    "hcaiId": "406504056",
    "businessName": "OPTIMAL HOSPICE, INC.",
    "contactEmail": "LINA.MEJIA@BRISTOLHOSPICE.COM",
    "categoryName": "HOSPICE",
    "categoryCode": "HOSPICE",
    "licenseStatus": "ACTIVE",
    "inService": true,
    "licenseNumber": "550000173",
    "licenseEffectiveDate": "03/20/2024",
    "licenseExpirationDate": "03/19/2026",
    "dataDate": "10/18/2025",
    "capacity": 0,
    "address": "1101 SYLVAN AVENUE, SUITE B-10",
    "city": "MODESTO",
    "zip": "95350",
    "county": "STANISLAUS",
    "phone": "(801) 433-0927",
    "lat": 37.6894704,
    "lng": -120.9780182
  },
  {
    "id": "630004701",
    "name": "CALIFORNIA REHABILITATION",
    "npi": null,
    "hcaiId": null,
    "businessName": null,
    "contactEmail": "PROGRESSIVETHERAPY@SBCGLOBAL.NET",
    "categoryName": "REHABILITATION CLINIC",
    "categoryCode": "OPT/SP",
    "licenseStatus": null,
    "inService": null,
    "licenseNumber": null,
    "licenseEffectiveDate": null,
    "licenseExpirationDate": null,
    "dataDate": "10/18/2025",
    "capacity": 0,
    "address": "1539 MCHENRY AVENUE, UNIT A",
    "city": "MODESTO",
    "zip": "95350",
    "county": "STANISLAUS",
    "phone": "(209) 578-3290",
    "lat": 37.666827,
    "lng": -120.99483
  },
  {
    "id": "030000122",
    "name": "DOCTORS MEDICAL CENTER",
    "npi": "1184654923",
    "hcaiId": "106500852",
    "businessName": "DOCTORS MEDICAL CENTER OF MODESTO, INC.",
    "contactEmail": "JAY.KRISHNASWAMY@TENETHEALTH.COM",
    "categoryName": "GENERAL ACUTE CARE HOSPITAL",
    "categoryCode": "GACH",
    "licenseStatus": "ACTIVE",
    "inService": true,
    "licenseNumber": "030000026",
    "licenseEffectiveDate": "06/18/2025",
    "licenseExpirationDate": "05/31/2026",
    "dataDate": "10/18/2025",
    "capacity": 394,
    "address": "1441 FLORIDA AVE",
    "city": "MODESTO",
    "zip": "95350",
    "county": "STANISLAUS",
    "phone": "(209) 578-1211",
    "lat": 37.665198,
    "lng": -120.99735
  },
  {
    "id": "100000051",
    "name": "ENGLISH OAKS CONVALESCENT & REHABILITATION HOSPITAL",
    "npi": "1154325512",
    "hcaiId": "206502364",
    "businessName": "GHC OF MODESTO, LLC",
    "contactEmail": "MARYLEERAMIREZ@LIFEGEN.NET",
    "categoryName": "SKILLED NURSING FACILITY",
    "categoryCode": "SNF",
    "licenseStatus": "ACTIVE",
    "inService": true,
    "licenseNumber": "100000240",
    "licenseEffectiveDate": "11/07/2025",
    "licenseExpirationDate": "11/06/2026",
    "dataDate": "10/18/2025",
    "capacity": 180,
    "address": "2633 W RUMBLE RD",
    "city": "MODESTO",
    "zip": "95350",
    "county": "STANISLAUS",
    "phone": "(209) 577-1001",
    "lat": 37.682532,
    "lng": -121.04397
  },
  {
    "id": "030001558",
    "name": "FAMILY PRACTICE",
    "npi": null,
    "hcaiId": null,
    "businessName": null,
    "contactEmail": null,
    "categoryName": "PRIMARY CARE CLINIC",
    "categoryCode": "RHC",
    "licenseStatus": null,
    "inService": null,
    "licenseNumber": null,
    "licenseEffectiveDate": null,
    "licenseExpirationDate": null,
    "dataDate": "10/18/2025",
    "capacity": 0,
    "address": "830 SCENIC DR",
    "city": "MODESTO",
    "zip": "95350",
    "county": "STANISLAUS",
    "phone": "(209) 558-7646",
    "lat": 37.646172,
    "lng": -120.982473
  },
  {
    "id": "630014806",
    "name": "FOCUS HEALTH",
    "npi": "1437258464",
    "hcaiId": "406504082",
    "businessName": "REHABFOCUS HOME HEALTH, INC.",
    "contactEmail": "AFRANKS@FOCUSHOMEHEALTH.COM",
    "categoryName": "HOME HEALTH AGENCY",
    "categoryCode": "HHA",
    "licenseStatus": "ACTIVE",
    "inService": true,
    "licenseNumber": "100000770",
    "licenseEffectiveDate": "11/25/2024",
    "licenseExpirationDate": "11/24/2025",
    "dataDate": "10/18/2025",
    "capacity": 0,
    "address": "1209 WOODROW AVE, SUITE A-6",
    "city": "MODESTO",
    "zip": "95350",
    "county": "STANISLAUS",
    "phone": "(209) 524-8700",
    "lat": 37.68621702,
    "lng": -121.01077
  },
  {
    "id": "100000055",
    "name": "GARDEN CITY HEALTHCARE CENTER",
    "npi": "1801832464",
    "hcaiId": "206500827",
    "businessName": "FIG HOLDINGS, LLC",
    "contactEmail": "LAWRENCE.MORADKHANI@GARDENCITYHC.COM",
    "categoryName": "SKILLED NURSING FACILITY",
    "categoryCode": "SNF",
    "licenseStatus": "ACTIVE",
    "inService": true,
    "licenseNumber": "100000022",
    "licenseEffectiveDate": "03/01/2025",
    "licenseExpirationDate": "02/28/2026",
    "dataDate": "10/18/2025",
    "capacity": 104,
    "address": "1310 W GRANGER AVE",
    "city": "MODESTO",
    "zip": "95350",
    "county": "STANISLAUS",
    "phone": "(209) 524-4817",
    "lat": 37.667349,
    "lng": -121.013136
  },
  {
    "id": "030001333",
    "name": "GOLDEN VALLEY HEALTH CENTER",
    "npi": "1326252693",
    "hcaiId": "306504026",
    "businessName": "GOLDEN VALLEY HEALTH CENTERS",
    "contactEmail": "EVILLARAMA@GVHC.ORG",
    "categoryName": "PRIMARY CARE CLINIC",
    "categoryCode": "COMTYC",
    "licenseStatus": "ACTIVE",
    "inService": true,
    "licenseNumber": "030000554",
    "licenseEffectiveDate": "11/07/2025",
    "licenseExpirationDate": "11/06/2026",
    "dataDate": "10/18/2025",
    "capacity": 0,
    "address": "1510 FLORIDA AVE",
    "city": "MODESTO",
    "zip": "95350",
    "county": "STANISLAUS",
    "phone": "(209) 385-5400",
    "lat": 37.666053,
    "lng": -120.996108
  },
  {
    "id": "630019771",
    "name": "GOLDEN VALLEY HEALTH CENTERS - MODESTO TULLY",
    "npi": "1548568421",
    "hcaiId": null,
    "businessName": "GOLDEN VALLEY HEALTH CENTERS",
    "contactEmail": null,
    "categoryName": "PRIMARY CARE CLINIC",
    "categoryCode": "COMTYC",
    "licenseStatus": "ACTIVE",
    "inService": true,
    "licenseNumber": "550001810",
    "licenseEffectiveDate": "02/03/2025",
    "licenseExpirationDate": "12/06/2025",
    "dataDate": "10/18/2025",
    "capacity": 0,
    "address": "1801 TULLY RD, SUITE F",
    "city": "MODESTO",
    "zip": "95350",
    "county": "STANISLAUS",
    "phone": null,
    "lat": 37.670751,
    "lng": -121.0128885
  },
  {
    "id": "630021014",
    "name": "GOLDEN VALLEY HEALTH CENTERS - MODESTO WOMEN'S HEALTH",
    "npi": null,
    "hcaiId": null,
    "businessName": "GOLDEN VALLEY HEALTH CENTERS",
    "contactEmail": "EWILKINS@GVHC.ORG",
    "categoryName": "PRIMARY CARE CLINIC",
    "categoryCode": "COMTYC",
    "licenseStatus": "ACTIVE",
    "inService": true,
    "licenseNumber": "030000554",
    "licenseEffectiveDate": "11/07/2025",
    "licenseExpirationDate": "11/06/2026",
    "dataDate": "10/18/2025",
    "capacity": 0,
    "address": "1500 FLORIDA AVE",
    "city": "MODESTO",
    "zip": "95350",
    "county": "STANISLAUS",
    "phone": "(209) 385-5554",
    "lat": 37.6657192,
    "lng": -120.9976625
  },
  {
    "id": "630025350",
    "name": "GOLDEN VALLEY HEALTH CENTERS-MODESTO COOLIDGE",
    "npi": null,
    "hcaiId": null,
    "businessName": "GOLDEN VALLEY HEALTH CENTERS",
    "contactEmail": null,
    "categoryName": "PRIMARY CARE CLINIC",
    "categoryCode": "COMTYC",
    "licenseStatus": "ACTIVE",
    "inService": true,
    "licenseNumber": "550000688",
    "licenseEffectiveDate": "04/03/2025",
    "licenseExpirationDate": "04/02/2026",
    "dataDate": "10/18/2025",
    "capacity": 0,
    "address": "208 W COOLIDGE AVE",
    "city": "MODESTO",
    "zip": "95350",
    "county": "STANISLAUS",
    "phone": null,
    "lat": 37.66543667,
    "lng": -120.9941979
  },
  {
    "id": "630019329",
    "name": "GRACE HOME HEALTH",
    "npi": null,
    "hcaiId": "406502735",
    "businessName": "GRACE HOME HEALTH & HOSPICE, INC.",
    "contactEmail": "INFO@CARINGWITHGRACE.NET",
    "categoryName": "HOME HEALTH AGENCY",
    "categoryCode": "HHA",
    "licenseStatus": "ACTIVE",
    "inService": true,
    "licenseNumber": "550005612",
    "licenseEffectiveDate": "05/29/2025",
    "licenseExpirationDate": "05/28/2026",
    "dataDate": "10/18/2025",
    "capacity": 0,
    "address": "1500 STANDIFORD AVE BLDG C, SUITE 10",
    "city": "MODESTO",
    "zip": "95350",
    "county": "STANISLAUS",
    "phone": "(209) 800-6168",
    "lat": 37.689066,
    "lng": -121.0174965
  },
  {
    "id": "630019328",
    "name": "GRACE HOSPICE CARE",
    "npi": null,
    "hcaiId": "406505050",
    "businessName": "GRACE HOME HEALTH & HOSPICE, INC.",
    "contactEmail": "INFO@CARINGWITHGRACE.NET",
    "categoryName": "HOSPICE",
    "categoryCode": "HOSPICE",
    "licenseStatus": "ACTIVE",
    "inService": true,
    "licenseNumber": "550007477",
    "licenseEffectiveDate": "12/03/2023",
    "licenseExpirationDate": "12/02/2025",
    "dataDate": "10/18/2025",
    "capacity": 0,
    "address": "1500 STANDIFORD AVE, BUILDING C, SUITE #9",
    "city": "MODESTO",
    "zip": "95350",
    "county": "STANISLAUS",
    "phone": "(209) 800-6168",
    "lat": 37.689066,
    "lng": -121.0174965
  },
  {
    "id": "630027976",
    "name": "GVHC - MCHENRY SUITE 300",
    "npi": null,
    "hcaiId": null,
    "businessName": "GOLDEN VALLEY HEALTH CENTERS",
    "contactEmail": null,
    "categoryName": "PRIMARY CARE CLINIC",
    "categoryCode": "FQHC/COMTYC",
    "licenseStatus": "ACTIVE",
    "inService": true,
    "licenseNumber": "550000688",
    "licenseEffectiveDate": "04/03/2025",
    "licenseExpirationDate": "04/02/2026",
    "dataDate": "10/18/2025",
    "capacity": 0,
    "address": "1524 MCHENRY AVE, SUITE 300",
    "city": "MODESTO",
    "zip": "95350",
    "county": "STANISLAUS",
    "phone": null,
    "lat": 37.666232,
    "lng": -120.99253
  },
  {
    "id": "630027977",
    "name": "GVHC - MCHENRY SUITE 330",
    "npi": null,
    "hcaiId": null,
    "businessName": "GOLDEN VALLEY HEALTH CENTERS",
    "contactEmail": null,
    "categoryName": "PRIMARY CARE CLINIC",
    "categoryCode": "COMTYC",
    "licenseStatus": "ACTIVE",
    "inService": true,
    "licenseNumber": "550000688",
    "licenseEffectiveDate": "04/03/2025",
    "licenseExpirationDate": "04/02/2026",
    "dataDate": "10/18/2025",
    "capacity": 0,
    "address": "1524 MCHENRY AVE, SUITE 330",
    "city": "MODESTO",
    "zip": "95350",
    "county": "STANISLAUS",
    "phone": null,
    "lat": 37.666232,
    "lng": -120.99253
  },
  {
    "id": "630022172",
    "name": "GVHC - MCHENRY SUITE 535",
    "npi": null,
    "hcaiId": null,
    "businessName": "GOLDEN VALLEY HEALTH CENTERS",
    "contactEmail": "EWILKINS@GVHC.ORG",
    "categoryName": "PRIMARY CARE CLINIC",
    "categoryCode": "COMTYC",
    "licenseStatus": "ACTIVE",
    "inService": true,
    "licenseNumber": "550000688",
    "licenseEffectiveDate": "04/03/2025",
    "licenseExpirationDate": "04/02/2026",
    "dataDate": "10/18/2025",
    "capacity": 0,
    "address": "1524 MCHENRY AVE, SUITE 535",
    "city": "MODESTO",
    "zip": "95350",
    "county": "STANISLAUS",
    "phone": "(209) 385-5554",
    "lat": 37.666143,
    "lng": -120.9925755
  },
  {
    "id": "630022173",
    "name": "GVHC - MCHENRY SUITE 550",
    "npi": null,
    "hcaiId": null,
    "businessName": "GOLDEN VALLEY HEALTH CENTERS",
    "contactEmail": "EWILKINS@GVHC.ORG",
    "categoryName": "PRIMARY CARE CLINIC",
    "categoryCode": "COMTYC",
    "licenseStatus": "ACTIVE",
    "inService": true,
    "licenseNumber": "550000688",
    "licenseEffectiveDate": "04/03/2025",
    "licenseExpirationDate": "04/02/2026",
    "dataDate": "10/18/2025",
    "capacity": 0,
    "address": "1524 MCHENRY AVE, SUITE 550",
    "city": "MODESTO",
    "zip": "95350",
    "county": "STANISLAUS",
    "phone": "(209) 385-5554",
    "lat": 37.666143,
    "lng": -120.9925755
  },
  {
    "id": "630022174",
    "name": "GVHC - MCHENRY SUITE 560",
    "npi": null,
    "hcaiId": null,
    "businessName": "GOLDEN VALLEY HEALTH CENTERS",
    "contactEmail": "EWILKINS@GVHC.ORG",
    "categoryName": "PRIMARY CARE CLINIC",
    "categoryCode": "COMTYC",
    "licenseStatus": "ACTIVE",
    "inService": true,
    "licenseNumber": "550000688",
    "licenseEffectiveDate": "04/03/2025",
    "licenseExpirationDate": "04/02/2026",
    "dataDate": "10/18/2025",
    "capacity": 0,
    "address": "1524 MCHENRY AVE, SUITE 560",
    "city": "MODESTO",
    "zip": "95350",
    "county": "STANISLAUS",
    "phone": "(209) 385-5554",
    "lat": 37.666143,
    "lng": -120.9925755
  },
  {
    "id": "630022175",
    "name": "GVHC - MCHENRY SUITE 565",
    "npi": null,
    "hcaiId": null,
    "businessName": "GOLDEN VALLEY HEALTH CENTERS",
    "contactEmail": "EWILKINS@GVHC.ORG",
    "categoryName": "PRIMARY CARE CLINIC",
    "categoryCode": "COMTYC",
    "licenseStatus": "ACTIVE",
    "inService": true,
    "licenseNumber": "550000688",
    "licenseEffectiveDate": "04/03/2025",
    "licenseExpirationDate": "04/02/2026",
    "dataDate": "10/18/2025",
    "capacity": 0,
    "address": "1524 MCHENRY AVE, SUITE 565",
    "city": "MODESTO",
    "zip": "95350",
    "county": "STANISLAUS",
    "phone": "(209) 385-5554",
    "lat": 37.666143,
    "lng": -120.9925755
  },
  {
    "id": "630022176",
    "name": "GVHC - MCHENRY SUITE 570",
    "npi": null,
    "hcaiId": null,
    "businessName": "GOLDEN VALLEY HEALTH CENTERS",
    "contactEmail": "EWILKINS@GVHC.ORG",
    "categoryName": "PRIMARY CARE CLINIC",
    "categoryCode": "COMTYC",
    "licenseStatus": "ACTIVE",
    "inService": true,
    "licenseNumber": "550000688",
    "licenseEffectiveDate": "04/03/2025",
    "licenseExpirationDate": "04/02/2026",
    "dataDate": "10/18/2025",
    "capacity": 0,
    "address": "1524 MCHENRY AVE, SUITE 570",
    "city": "MODESTO",
    "zip": "95350",
    "county": "STANISLAUS",
    "phone": "(209) 385-5554",
    "lat": 37.666143,
    "lng": -120.9925755
  },
  {
    "id": "630016920",
    "name": "KIRKWOOD HOME",
    "npi": "1225488703",
    "hcaiId": null,
    "businessName": "SIERRA SALEM CHRISTIAN HOMES, INC.",
    "contactEmail": "TMEINDERS@SIERRASALEM.ORG",
    "categoryName": "INTERMEDIATE CARE FACILITY-DD/H/N/CN/IID",
    "categoryCode": "ICFDDH",
    "licenseStatus": "ACTIVE",
    "inService": true,
    "licenseNumber": "550004363",
    "licenseEffectiveDate": "09/11/2025",
    "licenseExpirationDate": "09/10/2026",
    "dataDate": "10/18/2025",
    "capacity": 6,
    "address": "2414 KIRKWOOD AVENUE",
    "city": "MODESTO",
    "zip": "95350",
    "county": "STANISLAUS",
    "phone": "(209) 544-9300",
    "lat": 37.677177,
    "lng": -120.996207
  },
  {
    "id": "030001557",
    "name": "MCHENRY MEDICAL OFFICE",
    "npi": null,
    "hcaiId": null,
    "businessName": null,
    "contactEmail": null,
    "categoryName": "PRIMARY CARE CLINIC",
    "categoryCode": "FQHC",
    "licenseStatus": null,
    "inService": null,
    "licenseNumber": null,
    "licenseEffectiveDate": null,
    "licenseExpirationDate": null,
    "dataDate": "10/18/2025",
    "capacity": 0,
    "address": "1209 WOODROW AVE, SUITE B10",
    "city": "MODESTO",
    "zip": "95350",
    "county": "STANISLAUS",
    "phone": "(209) 558-5312",
    "lat": 37.686132,
    "lng": -121.011093
  },
  {
    "id": "630028441",
    "name": "MODESTO HEALTH CENTER - FLORIDA AVENUE",
    "npi": null,
    "hcaiId": null,
    "businessName": "LIVINGSTON COMMUNITY HEALTH",
    "contactEmail": null,
    "categoryName": "PRIMARY CARE CLINIC",
    "categoryCode": "COMTYC",
    "licenseStatus": "ACTIVE",
    "inService": true,
    "licenseNumber": "040000176",
    "licenseEffectiveDate": "11/01/2025",
    "licenseExpirationDate": "10/31/2026",
    "dataDate": "10/18/2025",
    "capacity": 0,
    "address": "1444 FLORIDA AVE, SUITE 202",
    "city": "MODESTO",
    "zip": "95350",
    "county": "STANISLAUS",
    "phone": null,
    "lat": 37.66488931,
    "lng": -120.9959302
  },
  {
    "id": "100000107",
    "name": "MODESTO POST ACUTE CENTER",
    "npi": "1932251808",
    "hcaiId": "206501094",
    "businessName": "CF MODESTO, LLC",
    "contactEmail": "MAXINEANN.NIEL@MODESTOHCC.COM",
    "categoryName": "SKILLED NURSING FACILITY",
    "categoryCode": "SNF",
    "licenseStatus": "ACTIVE",
    "inService": true,
    "licenseNumber": "100000118",
    "licenseEffectiveDate": "11/11/2025",
    "licenseExpirationDate": "11/10/2026",
    "dataDate": "10/18/2025",
    "capacity": 99,
    "address": "159 E ORANGEBURG AVE",
    "city": "MODESTO",
    "zip": "95350",
    "county": "STANISLAUS",
    "phone": "(209) 526-2811",
    "lat": 37.664181,
    "lng": -120.9913065
  },
  {
    "id": "630016310",
    "name": "MODESTO SPECIALTY SURGERY CENTER, PC",
    "npi": "1265859573",
    "hcaiId": null,
    "businessName": null,
    "contactEmail": "ZIADK@LALASERCENTER.COM",
    "categoryName": "SURGICAL CLINIC",
    "categoryCode": "ASC",
    "licenseStatus": null,
    "inService": null,
    "licenseNumber": null,
    "licenseEffectiveDate": null,
    "licenseExpirationDate": null,
    "dataDate": "10/18/2025",
    "capacity": 0,
    "address": "3105 MCHENRY STREET, SUITE 102",
    "city": "MODESTO",
    "zip": "95350",
    "county": "STANISLAUS",
    "phone": "(209) 575-2700",
    "lat": 37.683708,
    "lng": -120.994265
  },
  {
    "id": "030001329",
    "name": "MODESTO SURGERY CENTER, LLC",
    "npi": "1346287232",
    "hcaiId": "306504022",
    "businessName": "MODESTO SURGERY CENTER, INC.",
    "contactEmail": "MODESTOSC@YAHOO.COM",
    "categoryName": "SURGICAL CLINIC",
    "categoryCode": "ASC",
    "licenseStatus": "INACTIVE - CAPEN DECISION",
    "inService": false,
    "licenseNumber": "030000552",
    "licenseEffectiveDate": "06/21/2007",
    "licenseExpirationDate": "06/20/2008",
    "dataDate": "10/18/2025",
    "capacity": 0,
    "address": "400 E ORANGEBURG AVE, SUITE 1",
    "city": "MODESTO",
    "zip": "95350",
    "county": "STANISLAUS",
    "phone": "(209) 526-3000",
    "lat": 37.66347,
    "lng": -120.987621
  },
  {
    "id": "630020552",
    "name": "NOBLE HOSPICE AND HOME HEALTH CARE INC.",
    "npi": "1982910584",
    "hcaiId": null,
    "businessName": "NOBLE HOSPICE & HOME HEALTH CARE, INC.",
    "contactEmail": "INDERDHILLON1122@GMAIL.COM",
    "categoryName": "HOME HEALTH AGENCY",
    "categoryCode": "HHA",
    "licenseStatus": "ACTIVE",
    "inService": true,
    "licenseNumber": "550001473",
    "licenseEffectiveDate": "01/14/2025",
    "licenseExpirationDate": "01/13/2026",
    "dataDate": "10/18/2025",
    "capacity": 0,
    "address": "605 STANDIFORD AVE, SUITE K",
    "city": "MODESTO",
    "zip": "95350",
    "county": "STANISLAUS",
    "phone": "(925) 594-1122",
    "lat": 37.689498,
    "lng": -121.0004055
  },
  {
    "id": "630018604",
    "name": "NOBLE HOSPICE AND PALLIATIVE CARE",
    "npi": "1124582937",
    "hcaiId": "406502646",
    "businessName": "CENTRAL VALLEY HOSPICE CARE, INC.",
    "contactEmail": "CENTRALVALLEYHOSPICE@GMAIL.COM",
    "categoryName": "HOSPICE",
    "categoryCode": "HOSPICE",
    "licenseStatus": "ACTIVE",
    "inService": true,
    "licenseNumber": "550004846",
    "licenseEffectiveDate": "07/25/2025",
    "licenseExpirationDate": "07/24/2027",
    "dataDate": "10/18/2025",
    "capacity": 0,
    "address": "605 STANDIFORD AVE, SUITE K",
    "city": "MODESTO",
    "zip": "95350",
    "county": "STANISLAUS",
    "phone": "(925) 594-1112",
    "lat": 37.689498,
    "lng": -121.0004055
  },
  {
    "id": "030001175",
    "name": "PLANNED PARENTHOOD MAR MONTE - MODESTO HEALTH CENTER",
    "npi": null,
    "hcaiId": "306504049",
    "businessName": "PLANNED PARENTHOOD MAR MONTE, INC.",
    "contactEmail": "SERVICES_ADMIN@PPMARMONTE.ORG",
    "categoryName": "PRIMARY CARE CLINIC",
    "categoryCode": "COMTYC",
    "licenseStatus": "ACTIVE",
    "inService": true,
    "licenseNumber": "030000478",
    "licenseEffectiveDate": "01/31/2025",
    "licenseExpirationDate": "01/30/2026",
    "dataDate": "10/18/2025",
    "capacity": 0,
    "address": "1431 MCHENRY AVE, SUITE 100",
    "city": "MODESTO",
    "zip": "95350",
    "county": "STANISLAUS",
    "phone": "(209) 472-6633",
    "lat": 37.664829,
    "lng": -120.9944565
  },
  {
    "id": "630010681",
    "name": "RIVER SURGICAL INSTITUTE, INC.",
    "npi": "1538280284",
    "hcaiId": null,
    "businessName": null,
    "contactEmail": null,
    "categoryName": "SURGICAL CLINIC",
    "categoryCode": "ASC",
    "licenseStatus": null,
    "inService": null,
    "licenseNumber": null,
    "licenseEffectiveDate": null,
    "licenseExpirationDate": null,
    "dataDate": "10/18/2025",
    "capacity": 0,
    "address": "609 E. ORANGEBURG AVENUE, BLDG B",
    "city": "MODESTO",
    "zip": "95350",
    "county": "STANISLAUS",
    "phone": "(209) 527-6700",
    "lat": 37.663884,
    "lng": -120.9857895
  },
  {
    "id": "030001559",
    "name": "SPECIALTY CLINIC",
    "npi": null,
    "hcaiId": null,
    "businessName": null,
    "contactEmail": null,
    "categoryName": "PRIMARY CARE CLINIC",
    "categoryCode": "FQHC",
    "licenseStatus": null,
    "inService": null,
    "licenseNumber": null,
    "licenseEffectiveDate": null,
    "licenseExpirationDate": null,
    "dataDate": "10/18/2025",
    "capacity": 0,
    "address": "1524 MCHENRY AVE, SUITE 370",
    "city": "MODESTO",
    "zip": "95350",
    "county": "STANISLAUS",
    "phone": "(209) 558-7646",
    "lat": 37.666224,
    "lng": -120.992526
  },
  {
    "id": "110001179",
    "name": "U.S. RENAL CARE MODESTO DIALYSIS",
    "npi": "1669657805",
    "hcaiId": "306504031",
    "businessName": "MODESTO KIDNEY CENTER, LLC",
    "contactEmail": "LEGAL@USRENALCARE.COM",
    "categoryName": "CHRONIC DIALYSIS CLINIC",
    "categoryCode": "ESRD/CDC",
    "licenseStatus": "ACTIVE",
    "inService": true,
    "licenseNumber": "110000468",
    "licenseEffectiveDate": "04/09/2025",
    "licenseExpirationDate": "04/08/2026",
    "dataDate": "10/18/2025",
    "capacity": 17,
    "address": "305 E GRANGER AVE, SUITE 102",
    "city": "MODESTO",
    "zip": "95350",
    "county": "STANISLAUS",
    "phone": "(209) 574-6800",
    "lat": 37.667511,
    "lng": -120.98916
  },
  {
    "id": "110001229",
    "name": "U.S. RENAL CARE PARKWAY DIALYSIS",
    "npi": "1922070283",
    "hcaiId": "306504041",
    "businessName": "BRIGGSMORE KIDNEY CENTER, LLC",
    "contactEmail": "LEGAL@USRENALCARE.COM",
    "categoryName": "CHRONIC DIALYSIS CLINIC",
    "categoryCode": "ESRD/CDC",
    "licenseStatus": "ACTIVE",
    "inService": true,
    "licenseNumber": "110000499",
    "licenseEffectiveDate": "02/13/2025",
    "licenseExpirationDate": "02/12/2026",
    "dataDate": "10/18/2025",
    "capacity": 24,
    "address": "2200 PLAZA PKWY, SUITE B1-B4",
    "city": "MODESTO",
    "zip": "95350",
    "county": "STANISLAUS",
    "phone": "(209) 574-6818",
    "lat": 37.67085,
    "lng": -121.033917
  },
  {
    "id": "100000026",
    "name": "VALLEY SKILLED NURSING CENTER",
    "npi": "1326032327",
    "hcaiId": "206501354",
    "businessName": "HAMOA, LLC",
    "contactEmail": "BSWEENEY@KALESTAHC.COM",
    "categoryName": "SKILLED NURSING FACILITY",
    "categoryCode": "SNF",
    "licenseStatus": "ACTIVE",
    "inService": true,
    "licenseNumber": "100000127",
    "licenseEffectiveDate": "05/16/2025",
    "licenseExpirationDate": "05/15/2026",
    "dataDate": "10/18/2025",
    "capacity": 70,
    "address": "515 E ORANGEBURG AVE",
    "city": "MODESTO",
    "zip": "95350",
    "county": "STANISLAUS",
    "phone": "(209) 529-0516",
    "lat": 37.664028,
    "lng": -120.986289
  }
]