[
  {
    "id": "630027648",
    "name": "ALPHA HEALTHCARE INC.",
    "npi": null,
    "hcaiId": null,
    "businessName": "ALPHA HEALTHCARE INC",
    "contactEmail": null,
    "categoryName": "HOME HEALTH AGENCY",
    "categoryCode": "HHA",
    "licenseStatus": "ACTIVE",
    "inService": true,
    "licenseNumber": "550009771",
    "licenseEffectiveDate": "10/16/2025",
    "licenseExpirationDate": "04/15/2026",
    "dataDate": "10/18/2025",
    "capacity": 0,
    "address": "4260 SISK RD, SUITE F",
    "city": "MODESTO",
    "zip": "95356",
    "county": "STANISLAUS",
    "phone": "(510) 696-9925",
    "lat": 37.701544,
    "lng": -121.070097
  },
  {
    "id": "630014791",
    "name": "ARCHWAY DIALYSIS OF MODESTO",
    "npi": "1396176020",
    "hcaiId": "306504084",
    "businessName": "TOTAL RENAL CARE, INC.",
    "contactEmail": "CAL_C@DAVITA.COM",
    "categoryName": "CHRONIC DIALYSIS CLINIC",
    "categoryCode": "ESRD/CDC",
    "licenseStatus": "ACTIVE",
    "inService": true,
    "licenseNumber": "550002742",
    "licenseEffectiveDate": "06/30/2025",
    "licenseExpirationDate": "06/29/2026",
    "dataDate": "10/18/2025",
    "capacity": 32,
    "address": "3001 HEALTH CARE WAY, BUILDING E, SUITE 102",
    "city": "MODESTO",
    "zip": "95356",
    "county": "STANISLAUS",
    "phone": "(209) 543-1720",
    "lat": 37.709091,
    "lng": -121.0522995
  },
  {
    "id": "630014837",
    "name": "ARCHWAY MODESTO HOME TRAINING",
    "npi": "1295166965",
    "hcaiId": null,
    "businessName": null,
    "contactEmail": "ALESHIA.JOHNSON@DAVITA.COM",
    "categoryName": "CHRONIC DIALYSIS CLINIC",
    "categoryCode": "ESRD",
    "licenseStatus": null,
    "inService": null,
    "licenseNumber": null,
    "licenseEffectiveDate": null,
    "licenseExpirationDate": null,
    "dataDate": "10/18/2025",
    "capacity": 0,
    "address": "3001 HEALTH CARE WAY, BUILDING 200",
    "city": "MODESTO",
    "zip": "95356",
    "county": "STANISLAUS",
    "phone": "(615) 341-6282",
    "lat": 37.70907099,
    "lng": -121.052314
  },
  {
    "id": "630027094",
    "name": "CALIFORNIA CLINICAL CARE HOME HEALTH SERVICES LLC",
    "npi": null,
    "hcaiId": null,
    "businessName": "CALIFORNIA CLINICAL CARE HOME HEALTH SERVICES LLC",
    "contactEmail": "ELLENJAEWONG@GMAIL.COM",
    "categoryName": "HOME HEALTH AGENCY",
    "categoryCode": "HHA",
    "licenseStatus": "ACTIVE",
    "inService": true,
    "licenseNumber": "550009211",
    "licenseEffectiveDate": "06/19/2025",
    "licenseExpirationDate": "06/18/2026",
    "dataDate": "10/18/2025",
    "capacity": 0,
    "address": "3600 SISK RD, SUITE 11",
    "city": "MODESTO",
    "zip": "95356",
    "county": "STANISLAUS",
    "phone": "(209) 408-8022",
    "lat": 37.690658,
    "lng": -121.060465
  },
  {
    "id": "100000816",
    "name": "COMMUNITY HOSPICE, INC. - HOSPICE",
    "npi": null,
    "hcaiId": "406504052",
    "businessName": "COMMUNITY HOSPICE INC.",
    "contactEmail": "ERIN.JIMENEZ@HOSPICEHEART.ORG",
    "categoryName": "HOSPICE",
    "categoryCode": "HOSPICE",
    "licenseStatus": "ACTIVE",
    "inService": true,
    "licenseNumber": "100000613",
    "licenseEffectiveDate": "11/02/2024",
    "licenseExpirationDate": "11/01/2026",
    "dataDate": "10/18/2025",
    "capacity": 0,
    "address": "4368 SPYRES WAY",
    "city": "MODESTO",
    "zip": "95356",
    "county": "STANISLAUS",
    "phone": "(209) 578-6300",
    "lat": 37.702566,
    "lng": -120.9979485
  },
  {
    "id": "630014510",
    "name": "HOSPICE OF SAN JOAQUIN - MANTECA",
    "npi": "1518962083",
    "hcaiId": null,
    "businessName": "HOSPICE OF SAN JOAQUIN",
    "contactEmail": "RBURNETT@HOSPICESJ.ORG",
    "categoryName": "HOSPICE",
    "categoryCode": "HOSPICE",
    "licenseStatus": "ACTIVE",
    "inService": true,
    "licenseNumber": "100000706",
    "licenseEffectiveDate": "04/01/2024",
    "licenseExpirationDate": "03/31/2026",
    "dataDate": "10/18/2025",
    "capacity": 0,
    "address": "4216 KIERNAN AVE, SUITE 102",
    "city": "MODESTO",
    "zip": "95356",
    "county": "STANISLAUS",
    "phone": "(209) 957-3888",
    "lat": 37.710424,
    "lng": -121.072854
  },
  {
    "id": "630011683",
    "name": "KAISER FOUNDATION HOSPITAL MODESTO",
    "npi": null,
    "hcaiId": "106504042",
    "businessName": "KAISER FOUNDATION HOSPITALS",
    "contactEmail": null,
    "categoryName": "GENERAL ACUTE CARE HOSPITAL",
    "categoryCode": "GACH",
    "licenseStatus": "ACTIVE",
    "inService": true,
    "licenseNumber": "030000393",
    "licenseEffectiveDate": "11/01/2025",
    "licenseExpirationDate": "10/31/2026",
    "dataDate": "10/18/2025",
    "capacity": 176,
    "address": "4601 DALE ROAD",
    "city": "MODESTO",
    "zip": "95356",
    "county": "STANISLAUS",
    "phone": "(209) 735-4130",
    "lat": 37.705941,
    "lng": -121.052853
  },
  {
    "id": "100001807",
    "name": "KINDRED AT HOME",
    "npi": "1962434134",
    "hcaiId": "406504059",
    "businessName": "CENTERWELL CERTIFIED HEALTHCARE CORP.",
    "contactEmail": null,
    "categoryName": "HOME HEALTH AGENCY",
    "categoryCode": "HHA",
    "licenseStatus": "ACTIVE",
    "inService": true,
    "licenseNumber": "100000602",
    "licenseEffectiveDate": "11/01/2023",
    "licenseExpirationDate": "10/31/2024",
    "dataDate": "10/18/2025",
    "capacity": 0,
    "address": "4216 KIERNAN AVE, SUITE 100",
    "city": "MODESTO",
    "zip": "95356",
    "county": "STANISLAUS",
    "phone": "(209) 545-7803",
    "lat": 37.7104167,
    "lng": -121.0728518
  },
  {
    "id": "100001815",
    "name": "MAXIM HEALTHCARE SERVICES, INC",
    "npi": null,
    "hcaiId": "406504078",
    "businessName": "MAXIM HEALTHCARE SERVICES, INC.",
    "contactEmail": "MODESTOCAHOMECARE-245@MAXHEALTH.COM",
    "categoryName": "HOME HEALTH AGENCY",
    "categoryCode": "HHA",
    "licenseStatus": "ACTIVE",
    "inService": true,
    "licenseNumber": "100000780",
    "licenseEffectiveDate": "07/02/2025",
    "licenseExpirationDate": "12/13/2025",
    "dataDate": "10/18/2025",
    "capacity": 0,
    "address": "4712 STODDARD RD, SUITE 280",
    "city": "MODESTO",
    "zip": "95356",
    "county": "STANISLAUS",
    "phone": "(209) 477-2737",
    "lat": 37.70647302,
    "lng": -121.069046
  },
  {
    "id": "630015359",
    "name": "MISSION HOME HEALTH OF MODESTO",
    "npi": null,
    "hcaiId": "406504086",
    "businessName": "HEALTHY LIVING AT HOME - MODESTO, LLC",
    "contactEmail": "GPINERO@MISSIONHH.COM",
    "categoryName": "HOME HEALTH AGENCY",
    "categoryCode": "HHA",
    "licenseStatus": "ACTIVE",
    "inService": true,
    "licenseNumber": "550003067",
    "licenseEffectiveDate": "03/11/2025",
    "licenseExpirationDate": "03/10/2026",
    "dataDate": "10/18/2025",
    "capacity": 0,
    "address": "3600 SISK ROAD, SUITE 1C",
    "city": "MODESTO",
    "zip": "95356",
    "county": "STANISLAUS",
    "phone": "(619) 642-1310",
    "lat": 37.690749,
    "lng": -121.060494
  },
  {
    "id": "630014721",
    "name": "SATELLITE HEALTHCARE NORTH MODESTO",
    "npi": "1154682441",
    "hcaiId": "306504077",
    "businessName": "SATELLITE HEALTHCARE NORTH MODESTO, LLC",
    "contactEmail": "LINDSEY.CLEMENTE@USRENALCARE.COM",
    "categoryName": "CHRONIC DIALYSIS CLINIC",
    "categoryCode": "ESRD/CDC",
    "licenseStatus": "ACTIVE",
    "inService": true,
    "licenseNumber": "550002626",
    "licenseEffectiveDate": "05/07/2025",
    "licenseExpirationDate": "03/16/2026",
    "dataDate": "10/18/2025",
    "capacity": 16,
    "address": "4207 BANGS AVE, SUITE 100",
    "city": "MODESTO",
    "zip": "95356",
    "county": "STANISLAUS",
    "phone": "(781) 724-0559",
    "lat": 37.704699,
    "lng": -121.072464
  },
  {
    "id": "630022253",
    "name": "SUMMIT SURGERY CENTER MODESTO",
    "npi": "1619525912",
    "hcaiId": null,
    "businessName": null,
    "contactEmail": "SREDDY@STAN-CARD.COM",
    "categoryName": "SURGICAL CLINIC",
    "categoryCode": "ASC",
    "licenseStatus": null,
    "inService": null,
    "licenseNumber": null,
    "licenseEffectiveDate": null,
    "licenseExpirationDate": null,
    "dataDate": "10/18/2025",
    "capacity": 0,
    "address": "654 LYELL DR, SUITE B",
    "city": "MODESTO",
    "zip": "95356",
    "county": "STANISLAUS",
    "phone": "(209) 521-9661",
    "lat": 37.7027922,
    "lng": -121.0016882
  },
  {
    "id": "100000851",
    "name": "VINTAGE FAIRE NURSING & REHABILITATION CENTER",
    "npi": "1437291929",
    "hcaiId": "206504004",
    "businessName": "VINTAGE COURT HEALTHCARE, INC.",
    "contactEmail": "SBURNAM@ENSIGNSERVICES.NET",
    "categoryName": "SKILLED NURSING FACILITY",
    "categoryCode": "SNF",
    "licenseStatus": "ACTIVE",
    "inService": true,
    "licenseNumber": "100000366",
    "licenseEffectiveDate": "08/01/2025",
    "licenseExpirationDate": "01/12/2026",
    "dataDate": "10/18/2025",
    "capacity": 99,
    "address": "3620 DALE RD, SUITE B",
    "city": "MODESTO",
    "zip": "95356",
    "county": "STANISLAUS",
    "phone": "(949) 540-1249",
    "lat": 37.691712,
    "lng": -121.0485195
  }
]