[
  {
    "id": "040000927",
    "name": "GOLDEN VALLEY HEALTH CENTER - GUSTINE-NEWMAN",
    "npi": null,
    "hcaiId": "306244045",
    "businessName": "GOLDEN VALLEY HEALTH CENTERS",
    "contactEmail": "EVILLARAMA@GVHC.ORG",
    "categoryName": "PRIMARY CARE CLINIC",
    "categoryCode": "COMTYC",
    "licenseStatus": "ACTIVE",
    "inService": true,
    "licenseNumber": "040000364",
    "licenseEffectiveDate": "11/17/2024",
    "licenseExpirationDate": "11/16/2025",
    "dataDate": "10/18/2025",
    "capacity": 0,
    "address": "637 MERCED ST",
    "city": "NEWMAN",
    "zip": "95360",
    "county": "STANISLAUS",
    "phone": "(209) 385-5554",
    "lat": 37.315008,
    "lng": -121.0163355
  },
  {
    "id": "630011401",
    "name": "RURAL HEALTH NETWORK INC.",
    "npi": "1366136665",
    "hcaiId": null,
    "businessName": null,
    "contactEmail": "MILA.DUENAS@WIPFLI.COM",
    "categoryName": "PRIMARY CARE CLINIC",
    "categoryCode": "RHC/MD",
    "licenseStatus": null,
    "inService": null,
    "licenseNumber": null,
    "licenseEffectiveDate": null,
    "licenseExpirationDate": null,
    "dataDate": "10/18/2025",
    "capacity": 0,
    "address": "1349 MAIN ST",
    "city": "NEWMAN",
    "zip": "95360",
    "county": "STANISLAUS",
    "phone": "(510) 913-3244",
    "lat": 37.314909,
    "lng": -121.0227885
  },
  {
    "id": "030000096",
    "name": "SAN LUIS CARE CENTER",
    "npi": "1750375846",
    "hcaiId": "206501355",
    "businessName": "AVALON CARE CENTER - NEWMAN, LLC",
    "contactEmail": "155_ADMINISTRATOR@AVALONHEALTHCARE.COM",
    "categoryName": "SKILLED NURSING FACILITY",
    "categoryCode": "SNF",
    "licenseStatus": "ACTIVE",
    "inService": true,
    "licenseNumber": "030000128",
    "licenseEffectiveDate": "12/01/2024",
    "licenseExpirationDate": "11/30/2025",
    "dataDate": "10/18/2025",
    "capacity": 71,
    "address": "709 N ST",
    "city": "NEWMAN",
    "zip": "95360",
    "county": "STANISLAUS",
    "phone": "(209) 862-2862",
    "lat": 37.3221,
    "lng": -121.0247595
  }
]