[
  {
    "id": "630013145",
    "name": "CAREONE HOME HEALTH AND HOSPICE, INC.",
    "npi": "1972809838",
    "hcaiId": "406504080",
    "businessName": "CAREONE HOME HEALTH AND HOSPICE, INC.",
    "contactEmail": "LINDSEY@CAREONEHOMEHEALTH.NET",
    "categoryName": "HOME HEALTH AGENCY",
    "categoryCode": "HHA",
    "licenseStatus": "ACTIVE",
    "inService": true,
    "licenseNumber": "550001794",
    "licenseEffectiveDate": "12/13/2024",
    "licenseExpirationDate": "12/12/2025",
    "dataDate": "10/18/2025",
    "capacity": 0,
    "address": "5380 PIRRONE RD, SUITE 302",
    "city": "SALIDA",
    "zip": "95368",
    "county": "STANISLAUS",
    "phone": "(209) 632-8888",
    "lat": 37.71741999,
    "lng": -121.09296
  },
  {
    "id": "630025748",
    "name": "PACIFIC CARE SALIDA",
    "npi": null,
    "hcaiId": "206500394",
    "businessName": "PACIFIC CARE SALIDA, LLC",
    "contactEmail": "KAHLONTALWINDER@GMAIL.COM",
    "categoryName": "CONGREGATE LIVING HEALTH FACILITY",
    "categoryCode": "CLHF",
    "licenseStatus": "ACTIVE",
    "inService": true,
    "licenseNumber": "550008216",
    "licenseEffectiveDate": "11/09/2025",
    "licenseExpirationDate": "11/08/2026",
    "dataDate": "10/18/2025",
    "capacity": 18,
    "address": "5404 KIERNAN AVE",
    "city": "SALIDA",
    "zip": "95368",
    "county": "STANISLAUS",
    "phone": "(646) 416-1430",
    "lat": 37.710522,
    "lng": -121.094631
  },
  {
    "id": "630002883",
    "name": "SALIDA SURGERY CENTER",
    "npi": "1588875967",
    "hcaiId": "306504055",
    "businessName": "PANKAJ K. PATEL, DMD & SHAILESH K. PATEL, DDS, INC",
    "contactEmail": "SALIDASURGERYCENTER@YAHOO.COM",
    "categoryName": "SURGICAL CLINIC",
    "categoryCode": "SURGC",
    "licenseStatus": "ACTIVE",
    "inService": true,
    "licenseNumber": "550000144",
    "licenseEffectiveDate": "03/09/2025",
    "licenseExpirationDate": "03/08/2026",
    "dataDate": "10/18/2025",
    "capacity": 0,
    "address": "5712 PIRRONE RD",
    "city": "SALIDA",
    "zip": "95368",
    "county": "STANISLAUS",
    "phone": "(209) 543-9299",
    "lat": 37.721655,
    "lng": -121.0976235
  },
  {
    "id": "630016171",
    "name": "SEVA HOSPICE INC",
    "npi": "1821498478",
    "hcaiId": "406500999",
    "businessName": "SEVA HOSPICE INC.",
    "contactEmail": "TEJ@SEVAHOSPICE.COM",
    "categoryName": "HOSPICE",
    "categoryCode": "HOSPICE",
    "licenseStatus": "ACTIVE",
    "inService": true,
    "licenseNumber": "550003563",
    "licenseEffectiveDate": "06/23/2024",
    "licenseExpirationDate": "06/22/2026",
    "dataDate": "10/18/2025",
    "capacity": 0,
    "address": "5380 PIRRONE RD, SUITE 301A",
    "city": "SALIDA",
    "zip": "95368",
    "county": "STANISLAUS",
    "phone": "(209) 846-9488",
    "lat": 37.71741999,
    "lng": -121.09296
  }
]