[
  {
    "id": "030001804",
    "name": "DEL PUERTO HEALTH CENTER",
    "npi": "1063430916",
    "hcaiId": null,
    "businessName": null,
    "contactEmail": null,
    "categoryName": "PRIMARY CARE CLINIC",
    "categoryCode": "RHC",
    "licenseStatus": null,
    "inService": null,
    "licenseNumber": null,
    "licenseEffectiveDate": null,
    "licenseExpirationDate": null,
    "dataDate": "10/18/2025",
    "capacity": 0,
    "address": "1700 KEYSTONE PACIFIC PKWY, UNIT B",
    "city": "PATTERSON",
    "zip": "95363",
    "county": "STANISLAUS",
    "phone": "(209) 892-9100",
    "lat": 37.475613,
    "lng": -121.161087
  },
  {
    "id": "030000261",
    "name": "GOLDEN VALLEY HEALTH CENTER",
    "npi": null,
    "hcaiId": "306502212",
    "businessName": "GOLDEN VALLEY HEALTH CENTERS",
    "contactEmail": "EVILLARAMA@GVHC.ORG",
    "categoryName": "PRIMARY CARE CLINIC",
    "categoryCode": "COMTYC",
    "licenseStatus": "ACTIVE",
    "inService": true,
    "licenseNumber": "030000279",
    "licenseEffectiveDate": "11/27/2024",
    "licenseExpirationDate": "11/26/2025",
    "dataDate": "10/18/2025",
    "capacity": 0,
    "address": "200 C ST",
    "city": "PATTERSON",
    "zip": "95363",
    "county": "STANISLAUS",
    "phone": "(209) 385-5554",
    "lat": 37.467153,
    "lng": -121.12578
  },
  {
    "id": "630016524",
    "name": "PATTERSON 1ST CARE",
    "npi": null,
    "hcaiId": null,
    "businessName": null,
    "contactEmail": null,
    "categoryName": "PRIMARY CARE CLINIC",
    "categoryCode": "RHC",
    "licenseStatus": null,
    "inService": null,
    "licenseNumber": null,
    "licenseEffectiveDate": null,
    "licenseExpirationDate": null,
    "dataDate": "10/18/2025",
    "capacity": 0,
    "address": "101 N. 3RD STREET",
    "city": "PATTERSON",
    "zip": "95363",
    "county": "STANISLAUS",
    "phone": null,
    "lat": 37.473354,
    "lng": -121.1312925
  },
  {
    "id": "630015350",
    "name": "U.S. RENAL CARE PATTERSON DIALYSIS",
    "npi": "1942629977",
    "hcaiId": "306504085",
    "businessName": "INNOVATIVE DIALYSIS OF PATTERSON, LLC",
    "contactEmail": "TCOTA@USRENALCARE.COM",
    "categoryName": "CHRONIC DIALYSIS CLINIC",
    "categoryCode": "ESRD/CDC",
    "licenseStatus": "ACTIVE",
    "inService": true,
    "licenseNumber": "550002876",
    "licenseEffectiveDate": "10/27/2025",
    "licenseExpirationDate": "10/26/2026",
    "dataDate": "10/18/2025",
    "capacity": 16,
    "address": "1700 KEYSTONE PACIFIC PKWY, SUITE A-1",
    "city": "PATTERSON",
    "zip": "95363",
    "county": "STANISLAUS",
    "phone": "(209) 690-3768",
    "lat": 37.475613,
    "lng": -121.161087
  },
  {
    "id": "630013931",
    "name": "WAHID MEDICAL CORPORATION",
    "npi": "1710254313",
    "hcaiId": null,
    "businessName": null,
    "contactEmail": "DR.ALIWAHID@GMAIL.COM",
    "categoryName": "PRIMARY CARE CLINIC",
    "categoryCode": "RHC",
    "licenseStatus": null,
    "inService": null,
    "licenseNumber": null,
    "licenseEffectiveDate": null,
    "licenseExpirationDate": null,
    "dataDate": "10/18/2025",
    "capacity": 0,
    "address": "1108 WARD AVE, BUILDING A, SUITE 1",
    "city": "PATTERSON",
    "zip": "95363",
    "county": "STANISLAUS",
    "phone": "(209) 892-1300",
    "lat": 37.48634,
    "lng": -121.140011
  }
]