[
  {
    "id": "030000131",
    "name": "OAK VALLEY HOSPITAL DISTRICT",
    "npi": "1346381415",
    "hcaiId": "106500967",
    "businessName": "OAK VALLEY HOSPITAL DISTRICT",
    "contactEmail": "SPERRY@OVHD.COM",
    "categoryName": "GENERAL ACUTE CARE HOSPITAL",
    "categoryCode": "GACH",
    "licenseStatus": "ACTIVE",
    "inService": true,
    "licenseNumber": "030000069",
    "licenseEffectiveDate": "11/01/2025",
    "licenseExpirationDate": "10/31/2026",
    "dataDate": "10/18/2025",
    "capacity": 29,
    "address": "350 S OAK AVE",
    "city": "OAKDALE",
    "zip": "95361",
    "county": "STANISLAUS",
    "phone": "(209) 847-3011",
    "lat": 37.757637,
    "lng": -120.86091
  },
  {
    "id": "030001532",
    "name": "OAKDALE COMMUNITY HEALTH CENTER",
    "npi": null,
    "hcaiId": null,
    "businessName": "OAK VALLEY HOSPITAL DISTRICT",
    "contactEmail": null,
    "categoryName": "PRIMARY CARE CLINIC",
    "categoryCode": "RHC/OP",
    "licenseStatus": "ACTIVE",
    "inService": true,
    "licenseNumber": "030000069",
    "licenseEffectiveDate": "11/01/2025",
    "licenseExpirationDate": "10/31/2026",
    "dataDate": "10/18/2025",
    "capacity": 0,
    "address": "1420 W H ST",
    "city": "OAKDALE",
    "zip": "95361",
    "county": "STANISLAUS",
    "phone": "(209) 848-4180",
    "lat": 37.758546,
    "lng": -120.8627145
  },
  {
    "id": "030000079",
    "name": "OAKDALE NURSING AND REHABILITATION CENTER",
    "npi": "1861533648",
    "hcaiId": "206501352",
    "businessName": "OAK VALLEY HOSPITAL DISTRICT",
    "contactEmail": "DHIATT@OVHD.COM",
    "categoryName": "SKILLED NURSING FACILITY",
    "categoryCode": "SNF",
    "licenseStatus": "ACTIVE",
    "inService": true,
    "licenseNumber": "030000069",
    "licenseEffectiveDate": "11/01/2025",
    "licenseExpirationDate": "10/31/2026",
    "dataDate": "10/18/2025",
    "capacity": 115,
    "address": "275 S OAK AVE",
    "city": "OAKDALE",
    "zip": "95361",
    "county": "STANISLAUS",
    "phone": "(209) 848-4159",
    "lat": 37.759212,
    "lng": -120.8603205
  },
  {
    "id": "030001145",
    "name": "PATHWAY HEALTHCARE",
    "npi": "1982797239",
    "hcaiId": null,
    "businessName": null,
    "contactEmail": null,
    "categoryName": "PRIMARY CARE CLINIC",
    "categoryCode": "RHC",
    "licenseStatus": null,
    "inService": null,
    "licenseNumber": null,
    "licenseEffectiveDate": null,
    "licenseExpirationDate": null,
    "dataDate": "10/18/2025",
    "capacity": 0,
    "address": "190 S OAK AVE, BLDG. 2, SUITE 1",
    "city": "OAKDALE",
    "zip": "95361",
    "county": "STANISLAUS",
    "phone": "(209) 848-8410",
    "lat": 37.759248,
    "lng": -120.862053
  },
  {
    "id": "110001188",
    "name": "U.S. RENAL CARE OAKDALE DIALYSIS",
    "npi": "1265403976",
    "hcaiId": "306504037",
    "businessName": "OAKDALE KIDNEY CENTER, LLC",
    "contactEmail": "LICENSING@USRENALCARE.COM",
    "categoryName": "CHRONIC DIALYSIS CLINIC",
    "categoryCode": "ESRD/CDC",
    "licenseStatus": "ACTIVE",
    "inService": true,
    "licenseNumber": "110000477",
    "licenseEffectiveDate": "03/24/2025",
    "licenseExpirationDate": "03/23/2026",
    "dataDate": "10/18/2025",
    "capacity": 12,
    "address": "4 WILLOW GLEN AVE",
    "city": "OAKDALE",
    "zip": "95361",
    "county": "STANISLAUS",
    "phone": "(562) 495-8075",
    "lat": 37.75803438,
    "lng": -120.868341
  }
]