[
  {
    "id": "630020959",
    "name": "A CARING LIFE HOME HEALTH, INC",
    "npi": "1851924286",
    "hcaiId": "406393549",
    "businessName": "A CARING LIFE HOME HEALTH, INC",
    "contactEmail": "BALROOP@ACARINGLIFEHOMEHEALTH.COM",
    "categoryName": "HOME HEALTH AGENCY",
    "categoryCode": "HHA",
    "licenseStatus": "ACTIVE",
    "inService": true,
    "licenseNumber": "550006475",
    "licenseEffectiveDate": "06/29/2025",
    "licenseExpirationDate": "06/28/2026",
    "dataDate": "10/18/2025",
    "capacity": 0,
    "address": "35 E 10TH ST, SUITE H",
    "city": "TRACY",
    "zip": "95376",
    "county": "SAN JOAQUIN",
    "phone": "(209) 278-9072",
    "lat": 37.738863,
    "lng": -121.4249805
  },
  {
    "id": "630016574",
    "name": "ADVANCED HOME HEALTH CARE, LLC",
    "npi": "1669839825",
    "hcaiId": "406390921",
    "businessName": "ADVANCED HOME HEALTH CARE, LLC",
    "contactEmail": "ADVANCEDHOMEHEALTHLLC@GMAIL.COM",
    "categoryName": "HOME HEALTH AGENCY",
    "categoryCode": "HHA",
    "licenseStatus": "ACTIVE",
    "inService": true,
    "licenseNumber": "550004259",
    "licenseEffectiveDate": "01/26/2024",
    "licenseExpirationDate": "01/25/2025",
    "dataDate": "10/18/2025",
    "capacity": 0,
    "address": "35 E 10TH ST, SUITE K-1 & K-2",
    "city": "TRACY",
    "zip": "95376",
    "county": "SAN JOAQUIN",
    "phone": "(510) 573-1800",
    "lat": 37.738863,
    "lng": -121.4249805
  },
  {
    "id": "630024607",
    "name": "AMERIPRIME HOME HEALTH CARE",
    "npi": null,
    "hcaiId": "406395440",
    "businessName": "AMERIPRIME HEALTHCARE, INC.",
    "contactEmail": "PANKTI@AMERIPRIMEHC.COM",
    "categoryName": "HOME HEALTH AGENCY",
    "categoryCode": "HHA",
    "licenseStatus": "ACTIVE",
    "inService": true,
    "licenseNumber": "550008113",
    "licenseEffectiveDate": "08/09/2025",
    "licenseExpirationDate": "08/08/2026",
    "dataDate": "10/18/2025",
    "capacity": 0,
    "address": "324 E 11TH ST, SUITE E1A",
    "city": "TRACY",
    "zip": "95376",
    "county": "SAN JOAQUIN",
    "phone": "(209) 221-0741",
    "lat": 37.739376,
    "lng": -121.4205705
  },
  {
    "id": "630027706",
    "name": "CARESYNC HOME HEALTH INC",
    "npi": null,
    "hcaiId": null,
    "businessName": "CARESYNC HOME HEALTH INC",
    "contactEmail": "PREETBESTCARE@GMAIL.COM",
    "categoryName": "HOME HEALTH AGENCY",
    "categoryCode": "HHA",
    "licenseStatus": "ACTIVE",
    "inService": true,
    "licenseNumber": "550009793",
    "licenseEffectiveDate": "10/03/2025",
    "licenseExpirationDate": "04/02/2026",
    "dataDate": "10/18/2025",
    "capacity": 0,
    "address": "95 W 11TH ST, SUITE 202",
    "city": "TRACY",
    "zip": "95376",
    "county": "SAN JOAQUIN",
    "phone": "(408) 482-5735",
    "lat": 37.73986401,
    "lng": -121.426445
  },
  {
    "id": "630015978",
    "name": "CENTRAL VALLEY CONGREGATE LIVING",
    "npi": null,
    "hcaiId": "206394129",
    "businessName": "VIROSA, INC.",
    "contactEmail": "LEE.CHERBONNIER@VIROSA.ORG",
    "categoryName": "CONGREGATE LIVING HEALTH FACILITY",
    "categoryCode": "CLHF",
    "licenseStatus": "ACTIVE",
    "inService": true,
    "licenseNumber": "550003672",
    "licenseEffectiveDate": "03/01/2025",
    "licenseExpirationDate": "02/28/2026",
    "dataDate": "10/18/2025",
    "capacity": 6,
    "address": "1051 TENNIS LANE",
    "city": "TRACY",
    "zip": "95376",
    "county": "SAN JOAQUIN",
    "phone": "(209) 740-4483",
    "lat": 37.731735,
    "lng": -121.438863
  },
  {
    "id": "030001036",
    "name": "COMMUNITY MEDICAL CENTERS, TRACY",
    "npi": "1609867787",
    "hcaiId": "306394013",
    "businessName": "COMMUNITY MEDICAL CENTERS, INC.",
    "contactEmail": "GLRAMIREZ@CMCENTERS.ORG",
    "categoryName": "PRIMARY CARE CLINIC",
    "categoryCode": "COMTYC",
    "licenseStatus": "ACTIVE",
    "inService": true,
    "licenseNumber": "030000423",
    "licenseEffectiveDate": "05/17/2025",
    "licenseExpirationDate": "05/16/2026",
    "dataDate": "10/18/2025",
    "capacity": 0,
    "address": "730 N. CENTRAL AVENUE",
    "city": "TRACY",
    "zip": "95376",
    "county": "SAN JOAQUIN",
    "phone": "(209) 259-6546",
    "lat": 37.736208,
    "lng": -121.4255115
  },
  {
    "id": "630017781",
    "name": "COMMUNITY MEDICAL CENTERS, TRACY DENTAL",
    "npi": "1497261606",
    "hcaiId": "306390357",
    "businessName": "COMMUNITY MEDICAL CENTERS, INC.",
    "contactEmail": "GLRAMIREZ@CMCENTERS.ORG",
    "categoryName": "PRIMARY CARE CLINIC",
    "categoryCode": "COMTYC",
    "licenseStatus": "ACTIVE",
    "inService": true,
    "licenseNumber": "550004155",
    "licenseEffectiveDate": "03/06/2025",
    "licenseExpirationDate": "03/05/2026",
    "dataDate": "10/18/2025",
    "capacity": 0,
    "address": "2135 N TRACY BLVD",
    "city": "TRACY",
    "zip": "95376",
    "county": "SAN JOAQUIN",
    "phone": "(209) 259-6546",
    "lat": 37.75181213,
    "lng": -121.4351854
  },
  {
    "id": "630027446",
    "name": "COMMUNITY MEDICAL CENTERS, TUSD STUDENT WELLNESS CENTER",
    "npi": "1285059923",
    "hcaiId": null,
    "businessName": "COMMUNITY MEDICAL CENTERS, INC.",
    "contactEmail": null,
    "categoryName": "PRIMARY CARE CLINIC",
    "categoryCode": "COMTYC",
    "licenseStatus": "ACTIVE",
    "inService": true,
    "licenseNumber": "550003006",
    "licenseEffectiveDate": "03/13/2025",
    "licenseExpirationDate": "03/12/2026",
    "dataDate": "10/18/2025",
    "capacity": 0,
    "address": "164 W GRANT LINE RD, BUILDING 001 PORTABLE ROOM 8",
    "city": "TRACY",
    "zip": "95376",
    "county": "SAN JOAQUIN",
    "phone": null,
    "lat": 37.75353799,
    "lng": -121.427541
  },
  {
    "id": "630017356",
    "name": "COMMUNITY MEDICAL CENTERS, WIC, TRACY",
    "npi": null,
    "hcaiId": null,
    "businessName": null,
    "contactEmail": null,
    "categoryName": "PRIMARY CARE CLINIC",
    "categoryCode": "COMTYC",
    "licenseStatus": null,
    "inService": null,
    "licenseNumber": null,
    "licenseEffectiveDate": null,
    "licenseExpirationDate": null,
    "dataDate": "10/18/2025",
    "capacity": 0,
    "address": "73 E 10TH ST",
    "city": "TRACY",
    "zip": "95376",
    "county": "SAN JOAQUIN",
    "phone": null,
    "lat": 37.73858821,
    "lng": -121.4244371
  },
  {
    "id": "630019593",
    "name": "GRANT LINE DIALYSIS",
    "npi": "1093211609",
    "hcaiId": "306390527",
    "businessName": "PATTISON DIALYSIS LLC",
    "contactEmail": "CAL_C@DAVITA.COM",
    "categoryName": "CHRONIC DIALYSIS CLINIC",
    "categoryCode": "ESRD/CDC",
    "licenseStatus": "ACTIVE",
    "inService": true,
    "licenseNumber": "550005371",
    "licenseEffectiveDate": "03/25/2025",
    "licenseExpirationDate": "03/24/2026",
    "dataDate": "10/18/2025",
    "capacity": 24,
    "address": "2955 N CORRAL HOLLOW RD, SUITE 101",
    "city": "TRACY",
    "zip": "95376",
    "county": "SAN JOAQUIN",
    "phone": "(209) 839-8302",
    "lat": 37.75716,
    "lng": -121.4542575
  },
  {
    "id": "630027865",
    "name": "HEART 2 HEART HOME HEALTH CARE",
    "npi": null,
    "hcaiId": null,
    "businessName": "RASEK HEALTH CARE INC",
    "contactEmail": null,
    "categoryName": "HOME HEALTH AGENCY",
    "categoryCode": "HHA",
    "licenseStatus": "ACTIVE",
    "inService": true,
    "licenseNumber": "550009766",
    "licenseEffectiveDate": "10/03/2025",
    "licenseExpirationDate": "04/02/2026",
    "dataDate": "10/18/2025",
    "capacity": 0,
    "address": "902 N CENTRAL AVE, SUITE 214",
    "city": "TRACY",
    "zip": "95376",
    "county": "SAN JOAQUIN",
    "phone": null,
    "lat": 37.73755601,
    "lng": -121.425521
  },
  {
    "id": "630027577",
    "name": "LA CARLOTAS HOME HEALTH AGENCY INC",
    "npi": null,
    "hcaiId": null,
    "businessName": "LA CARLOTAS HOME HEALTH AGENCY INC",
    "contactEmail": "LACARLOTASHOMEHEALTHAGENCY@GMAIL.COM",
    "categoryName": "HOME HEALTH AGENCY",
    "categoryCode": "HHA",
    "licenseStatus": "ACTIVE",
    "inService": true,
    "licenseNumber": "550009938",
    "licenseEffectiveDate": "10/16/2025",
    "licenseExpirationDate": "04/15/2026",
    "dataDate": "10/18/2025",
    "capacity": 0,
    "address": "68 E 11TH ST, SUITE 116",
    "city": "TRACY",
    "zip": "95376",
    "county": "SAN JOAQUIN",
    "phone": "(650) 653-1608",
    "lat": 37.73936599,
    "lng": -121.42438
  },
  {
    "id": "100000324",
    "name": "NORTH PARK POST-ACUTE",
    "npi": "1649876541",
    "hcaiId": "206394001",
    "businessName": "ATBA, LLC",
    "contactEmail": "TANNERH@ASPENHEALTH.COM",
    "categoryName": "SKILLED NURSING FACILITY",
    "categoryCode": "SNF",
    "licenseStatus": "ACTIVE",
    "inService": true,
    "licenseNumber": "100000285",
    "licenseEffectiveDate": "02/14/2025",
    "licenseExpirationDate": "02/13/2026",
    "dataDate": "10/18/2025",
    "capacity": 99,
    "address": "2586 BUTHMANN AVENUE",
    "city": "TRACY",
    "zip": "95376",
    "county": "SAN JOAQUIN",
    "phone": "(209) 832-2273",
    "lat": 37.755585,
    "lng": -121.4313165
  },
  {
    "id": "630012065",
    "name": "PLANNED PARENTHOOD MAR MONTE - TRACY HEALTH CENTER",
    "npi": "1245493097",
    "hcaiId": "306394093",
    "businessName": "PLANNED PARENTHOOD MAR MONTE, INC.",
    "contactEmail": "SERVICESAD@PPMARMONTE.ORG",
    "categoryName": "PRIMARY CARE CLINIC",
    "categoryCode": "COMTYC",
    "licenseStatus": "ACTIVE",
    "inService": true,
    "licenseNumber": "550001082",
    "licenseEffectiveDate": "06/01/2025",
    "licenseExpirationDate": "05/31/2026",
    "dataDate": "10/18/2025",
    "capacity": 0,
    "address": "1441 N. TRACY BOULEVARD",
    "city": "TRACY",
    "zip": "95376",
    "county": "SAN JOAQUIN",
    "phone": "(408) 795-3600",
    "lat": 37.744659,
    "lng": -121.435344
  },
  {
    "id": "030001811",
    "name": "PREGNANCY RESOURCE CENTER OF TRACY",
    "npi": null,
    "hcaiId": "306394071",
    "businessName": "CRISIS PREGNANCY CENTER OF TRACY",
    "contactEmail": "IBAYARDO@TRACYPRC.NET",
    "categoryName": "PRIMARY CARE CLINIC",
    "categoryCode": "FREEC",
    "licenseStatus": "ACTIVE",
    "inService": true,
    "licenseNumber": "030000793",
    "licenseEffectiveDate": "06/20/2025",
    "licenseExpirationDate": "11/10/2025",
    "dataDate": "10/18/2025",
    "capacity": 0,
    "address": "1039 N. CENTRAL AVENUE",
    "city": "TRACY",
    "zip": "95376",
    "county": "SAN JOAQUIN",
    "phone": "(209) 836-4415",
    "lat": 37.73921105,
    "lng": -121.4260424
  },
  {
    "id": "030000141",
    "name": "SUTTER TRACY COMMUNITY HOSPITAL",
    "npi": "1821442864",
    "hcaiId": "106391056",
    "businessName": "SUTTER VALLEY HOSPITALS",
    "contactEmail": "JAVEEN.THOMAS@SUTTERHEALTH.ORG",
    "categoryName": "GENERAL ACUTE CARE HOSPITAL",
    "categoryCode": "GACH",
    "licenseStatus": "ACTIVE",
    "inService": true,
    "licenseNumber": "030000105",
    "licenseEffectiveDate": "05/01/2025",
    "licenseExpirationDate": "04/30/2026",
    "dataDate": "10/18/2025",
    "capacity": 77,
    "address": "1420 N. TRACY BOULEVARD",
    "city": "TRACY",
    "zip": "95376",
    "county": "SAN JOAQUIN",
    "phone": "(209) 833-2429",
    "lat": 37.743867,
    "lng": -121.4339895
  },
  {
    "id": "110001182",
    "name": "TRACY DIALYSIS",
    "npi": "1548236268",
    "hcaiId": "306394050",
    "businessName": "DVA HEALTHCARE RENAL CARE, INC.",
    "contactEmail": "CAL_C@DAVITA.COM",
    "categoryName": "CHRONIC DIALYSIS CLINIC",
    "categoryCode": "ESRD/CDC",
    "licenseStatus": "ACTIVE",
    "inService": true,
    "licenseNumber": "110000471",
    "licenseEffectiveDate": "11/23/2025",
    "licenseExpirationDate": "11/22/2026",
    "dataDate": "10/18/2025",
    "capacity": 12,
    "address": "425 W. BEVERLY PLACE, SUITE A",
    "city": "TRACY",
    "zip": "95376",
    "county": "SAN JOAQUIN",
    "phone": "(209) 839-0398",
    "lat": 37.745298,
    "lng": -121.432122
  },
  {
    "id": "100000058",
    "name": "TRACY NURSING AND REHABILITATION CENTER",
    "npi": "1972865301",
    "hcaiId": "206392288",
    "businessName": "ATMC, LLC",
    "contactEmail": "BFISHER@ASPENHEALTH.COM",
    "categoryName": "SKILLED NURSING FACILITY",
    "categoryCode": "SNF",
    "licenseStatus": "ACTIVE",
    "inService": true,
    "licenseNumber": "100000204",
    "licenseEffectiveDate": "12/07/2024",
    "licenseExpirationDate": "12/06/2025",
    "dataDate": "10/18/2025",
    "capacity": 62,
    "address": "545 W. BEVERLY PLACE",
    "city": "TRACY",
    "zip": "95376",
    "county": "SAN JOAQUIN",
    "phone": "(209) 835-6034",
    "lat": 37.745343,
    "lng": -121.4337645
  }
]