[
  {
    "id": "100001177",
    "name": "ADVENTIST HEALTH HOME CARE SERVICES",
    "npi": "1104456391",
    "hcaiId": "406554008",
    "businessName": "WESTERN HEALTH RESOURCES",
    "contactEmail": "MICKLEJM@AH.ORG",
    "categoryName": "HOSPICE",
    "categoryCode": "HOSPICE",
    "licenseStatus": "ACTIVE",
    "inService": true,
    "licenseNumber": "100000558",
    "licenseEffectiveDate": "11/01/2025",
    "licenseExpirationDate": "10/31/2027",
    "dataDate": "10/18/2025",
    "capacity": 0,
    "address": "20100 CEDAR ROAD N",
    "city": "SONORA",
    "zip": "95370",
    "county": "TUOLUMNE",
    "phone": "(209) 536-5685",
    "lat": 37.987209,
    "lng": -120.3667515
  },
  {
    "id": "100001311",
    "name": "ADVENTIST HEALTH HOME CARE SERVICES",
    "npi": "1437789229",
    "hcaiId": "406554018",
    "businessName": "WESTERN HEALTH RESOURCES",
    "contactEmail": "STEWARJC@AH.ORG",
    "categoryName": "HOME HEALTH AGENCY",
    "categoryCode": "HHA",
    "licenseStatus": "ACTIVE",
    "inService": true,
    "licenseNumber": "100000546",
    "licenseEffectiveDate": "06/15/2025",
    "licenseExpirationDate": "06/14/2026",
    "dataDate": "10/18/2025",
    "capacity": 0,
    "address": "20100 CEDAR ROAD N",
    "city": "SONORA",
    "zip": "95370",
    "county": "TUOLUMNE",
    "phone": "(209) 536-5700",
    "lat": 37.987209,
    "lng": -120.3667515
  },
  {
    "id": "030000365",
    "name": "ADVENTIST HEALTH SONORA",
    "npi": null,
    "hcaiId": "106552209",
    "businessName": "SONORA COMMUNITY HOSPITAL",
    "contactEmail": null,
    "categoryName": "GENERAL ACUTE CARE HOSPITAL",
    "categoryCode": "GACH",
    "licenseStatus": "ACTIVE",
    "inService": true,
    "licenseNumber": "030000094",
    "licenseEffectiveDate": "11/01/2024",
    "licenseExpirationDate": "10/31/2025",
    "dataDate": "10/18/2025",
    "capacity": 12,
    "address": "179 FAIRVIEW LANE",
    "city": "SONORA",
    "zip": "95370",
    "county": "TUOLUMNE",
    "phone": "(209) 532-3161",
    "lat": 37.979613,
    "lng": -120.39084
  },
  {
    "id": "030001114",
    "name": "ADVENTIST HEALTH SONORA",
    "npi": "1003014952",
    "hcaiId": null,
    "businessName": "SONORA COMMUNITY HOSPITAL",
    "contactEmail": null,
    "categoryName": "PRIMARY CARE CLINIC",
    "categoryCode": "RHC/OP",
    "licenseStatus": "ACTIVE",
    "inService": true,
    "licenseNumber": "030000094",
    "licenseEffectiveDate": "11/01/2024",
    "licenseExpirationDate": "10/31/2025",
    "dataDate": "10/18/2025",
    "capacity": 0,
    "address": "193 FAIRVIEW LANE",
    "city": "SONORA",
    "zip": "95370",
    "county": "TUOLUMNE",
    "phone": "(209) 536-5100",
    "lat": 37.979973,
    "lng": -120.389931
  },
  {
    "id": "030001799",
    "name": "ADVENTIST HEALTH SONORA",
    "npi": "1780673376",
    "hcaiId": "106554011",
    "businessName": "SONORA COMMUNITY HOSPITAL",
    "contactEmail": "MICHELLE.FUENTES@AH.ORG",
    "categoryName": "GENERAL ACUTE CARE HOSPITAL",
    "categoryCode": "GACH",
    "licenseStatus": "ACTIVE",
    "inService": true,
    "licenseNumber": "030000094",
    "licenseEffectiveDate": "11/01/2024",
    "licenseExpirationDate": "10/31/2025",
    "dataDate": "10/18/2025",
    "capacity": 72,
    "address": "1000 GREENLEY ROAD",
    "city": "SONORA",
    "zip": "95370",
    "county": "TUOLUMNE",
    "phone": "(209) 536-5000",
    "lat": 37.97568069,
    "lng": -120.3689996
  },
  {
    "id": "030000023",
    "name": "ADVENTIST HEALTH SONORA - D/P SNF (UNIT 6)",
    "npi": "1801887401",
    "hcaiId": "206551035",
    "businessName": "SONORA COMMUNITY HOSPITAL",
    "contactEmail": null,
    "categoryName": "SKILLED NURSING FACILITY",
    "categoryCode": "SNF",
    "licenseStatus": "ACTIVE",
    "inService": true,
    "licenseNumber": "030000094",
    "licenseEffectiveDate": "11/01/2024",
    "licenseExpirationDate": "10/31/2025",
    "dataDate": "10/18/2025",
    "capacity": 32,
    "address": "179 SOUTH FAIRVIEW LANE",
    "city": "SONORA",
    "zip": "95370",
    "county": "TUOLUMNE",
    "phone": "(209) 536-3779",
    "lat": 37.979613,
    "lng": -120.39084
  },
  {
    "id": "630014616",
    "name": "ADVENTIST HEALTH SONORA - D/P SNF (UNIT 7)",
    "npi": "1780673376",
    "hcaiId": null,
    "businessName": "SONORA COMMUNITY HOSPITAL",
    "contactEmail": null,
    "categoryName": "SKILLED NURSING FACILITY",
    "categoryCode": "SNF",
    "licenseStatus": "ACTIVE",
    "inService": true,
    "licenseNumber": "030000094",
    "licenseEffectiveDate": "11/01/2024",
    "licenseExpirationDate": "10/31/2025",
    "dataDate": "10/18/2025",
    "capacity": 36,
    "address": "538 PONDEROSA DRIVE",
    "city": "SONORA",
    "zip": "95370",
    "county": "TUOLUMNE",
    "phone": "(209) 536-3779",
    "lat": 37.978803,
    "lng": -120.39354
  },
  {
    "id": "030001615",
    "name": "GOLDEN SONORA CARE CENTER",
    "npi": "1851004170",
    "hcaiId": "206554007",
    "businessName": "SONORA SNF OPERATIONS LLC",
    "contactEmail": "GENESIS.LEININGER@GOLDENSONORAHC.COM",
    "categoryName": "SKILLED NURSING FACILITY",
    "categoryCode": "SNF",
    "licenseStatus": "ACTIVE",
    "inService": true,
    "licenseNumber": "030000674",
    "licenseEffectiveDate": "12/01/2024",
    "licenseExpirationDate": "11/30/2025",
    "dataDate": "10/18/2025",
    "capacity": 210,
    "address": "19929 GREENLEY ROAD",
    "city": "SONORA",
    "zip": "95370",
    "county": "TUOLUMNE",
    "phone": "(209) 533-2500",
    "lat": 37.983357,
    "lng": -120.3655005
  },
  {
    "id": "030001678",
    "name": "MACT MEDICAL, SONORA",
    "npi": "1366519431",
    "hcaiId": "306554009",
    "businessName": "M.A.C.T. HEALTH BOARD, INCORPORATED",
    "contactEmail": "MARGARET.METCALF@MACTHEALTH.ORG",
    "categoryName": "PRIMARY CARE CLINIC",
    "categoryCode": "COMTYC",
    "licenseStatus": "ACTIVE",
    "inService": true,
    "licenseNumber": "030000704",
    "licenseEffectiveDate": "10/08/2025",
    "licenseExpirationDate": "04/03/2026",
    "dataDate": "10/18/2025",
    "capacity": 0,
    "address": "905 MORNING STAR DR",
    "city": "SONORA",
    "zip": "95370",
    "county": "TUOLUMNE",
    "phone": "(209) 754-6262",
    "lat": 37.98443398,
    "lng": -120.369503
  },
  {
    "id": "630027416",
    "name": "MACT OPTOMETRY, SONORA",
    "npi": "1366519431",
    "hcaiId": null,
    "businessName": "M.A.C.T. HEALTH BOARD, INCORPORATED",
    "contactEmail": "JOHN.ALEXANDER@MACTHEALTH.ORG",
    "categoryName": "PRIMARY CARE CLINIC",
    "categoryCode": "FQHC/COMTYC",
    "licenseStatus": "ACTIVE",
    "inService": true,
    "licenseNumber": "550003856",
    "licenseEffectiveDate": "05/05/2025",
    "licenseExpirationDate": "05/04/2026",
    "dataDate": "10/18/2025",
    "capacity": 0,
    "address": "940 SYLVA LN, SUITE H",
    "city": "SONORA",
    "zip": "95370",
    "county": "TUOLUMNE",
    "phone": "(209) 754-6258",
    "lat": 37.98799701,
    "lng": -120.367577
  },
  {
    "id": "630026170",
    "name": "MACT SONORA PEDIATRIC HEALTH CENTER",
    "npi": "1366519431",
    "hcaiId": null,
    "businessName": "M.A.C.T. HEALTH BOARD, INCORPORATED",
    "contactEmail": "JOHN.ALEXANDER@MACTHEALTH.ORG",
    "categoryName": "PRIMARY CARE CLINIC",
    "categoryCode": "FQHC/COMTYC",
    "licenseStatus": "ACTIVE",
    "inService": true,
    "licenseNumber": "030000704",
    "licenseEffectiveDate": "10/08/2025",
    "licenseExpirationDate": "04/03/2026",
    "dataDate": "10/18/2025",
    "capacity": 0,
    "address": "940 SYLVA LN, SUITE B",
    "city": "SONORA",
    "zip": "95370",
    "county": "TUOLUMNE",
    "phone": "(209) 588-4660",
    "lat": 37.987992,
    "lng": -120.3675705
  },
  {
    "id": "630026109",
    "name": "MACT SONORA WOMEN'S HEALTH CENTER",
    "npi": "1366519431",
    "hcaiId": null,
    "businessName": "M.A.C.T. HEALTH BOARD, INCORPORATED",
    "contactEmail": null,
    "categoryName": "PRIMARY CARE CLINIC",
    "categoryCode": "COMTYC",
    "licenseStatus": "ACTIVE",
    "inService": true,
    "licenseNumber": "030000704",
    "licenseEffectiveDate": "10/08/2025",
    "licenseExpirationDate": "04/03/2026",
    "dataDate": "10/18/2025",
    "capacity": 0,
    "address": "13975 MONO WAY, SUITE G",
    "city": "SONORA",
    "zip": "95370",
    "county": "TUOLUMNE",
    "phone": null,
    "lat": 37.977876,
    "lng": -120.339585
  },
  {
    "id": "630015919",
    "name": "SIERRA NATURAL BIRTH CENTER",
    "npi": "1871985812",
    "hcaiId": "306554022",
    "businessName": "SIERRA NATURAL BIRTH CENTER LLC",
    "contactEmail": "CARE@SIERRANATURALBIRTHCENTER.COM",
    "categoryName": "ALTERNATIVE BIRTHING CENTER",
    "categoryCode": "ABC",
    "licenseStatus": "ACTIVE",
    "inService": true,
    "licenseNumber": "550003423",
    "licenseEffectiveDate": "06/12/2025",
    "licenseExpirationDate": "02/04/2026",
    "dataDate": "10/18/2025",
    "capacity": 0,
    "address": "16575 DRAPER MINE ROAD, SUITE B",
    "city": "SONORA",
    "zip": "95370",
    "county": "TUOLUMNE",
    "phone": "(209) 481-8989",
    "lat": 37.983663,
    "lng": -120.279708
  },
  {
    "id": "030000680",
    "name": "SONORA EYE SURGERY CENTER",
    "npi": "1558497263",
    "hcaiId": "306554001",
    "businessName": null,
    "contactEmail": "EYETEAM@MLODE.COM",
    "categoryName": "SURGICAL CLINIC",
    "categoryCode": "ASC",
    "licenseStatus": "INACTIVE - CAPEN DECISION",
    "inService": false,
    "licenseNumber": "030000368",
    "licenseEffectiveDate": "04/05/2008",
    "licenseExpirationDate": "04/04/2009",
    "dataDate": "10/18/2025",
    "capacity": 0,
    "address": "940 SYLVA LANE, SUITE G",
    "city": "SONORA",
    "zip": "95370",
    "county": "TUOLUMNE",
    "phone": "(209) 532-2020",
    "lat": 37.987992,
    "lng": -120.3675705
  },
  {
    "id": "630022450",
    "name": "TUOLUMNE ME WUK INDIAN HEALTH CENTER",
    "npi": "1124286885",
    "hcaiId": null,
    "businessName": "TUOLUMNE ME-WUK INDIAN HEALTH CENTER, INC.",
    "contactEmail": null,
    "categoryName": "PRIMARY CARE CLINIC",
    "categoryCode": "COMTYC",
    "licenseStatus": "ACTIVE",
    "inService": true,
    "licenseNumber": "550000723",
    "licenseEffectiveDate": "04/25/2025",
    "licenseExpirationDate": "04/24/2026",
    "dataDate": "10/18/2025",
    "capacity": 0,
    "address": "19969 GREENLEY RD, SUITE A",
    "city": "SONORA",
    "zip": "95370",
    "county": "TUOLUMNE",
    "phone": null,
    "lat": 37.985067,
    "lng": -120.3664005
  },
  {
    "id": "630027206",
    "name": "TUOLUMNE ME WUK INDIAN HEALTH SERVICES - DENTAL CLINIC",
    "npi": "1124286885",
    "hcaiId": null,
    "businessName": "TUOLUMNE ME-WUK INDIAN HEALTH CENTER, INC.",
    "contactEmail": null,
    "categoryName": "PRIMARY CARE CLINIC",
    "categoryCode": "COMTYC",
    "licenseStatus": "ACTIVE",
    "inService": true,
    "licenseNumber": "550000723",
    "licenseEffectiveDate": "04/25/2025",
    "licenseExpirationDate": "04/24/2026",
    "dataDate": "10/18/2025",
    "capacity": 0,
    "address": "19969 GREENLEY RD, SUITE C & D",
    "city": "SONORA",
    "zip": "95370",
    "county": "TUOLUMNE",
    "phone": null,
    "lat": 37.984997,
    "lng": -120.3664
  },
  {
    "id": "630011544",
    "name": "TUOLUMNE ME-WUK HEALTH AND WELLNESS CENTER",
    "npi": "1124286885",
    "hcaiId": "306554021",
    "businessName": "TUOLUMNE ME-WUK INDIAN HEALTH CENTER, INC.",
    "contactEmail": "BEVERLY.ABARCA@TMWIHC.ORG",
    "categoryName": "PRIMARY CARE CLINIC",
    "categoryCode": "COMTYC",
    "licenseStatus": "ACTIVE",
    "inService": true,
    "licenseNumber": "550000723",
    "licenseEffectiveDate": "04/25/2025",
    "licenseExpirationDate": "04/24/2026",
    "dataDate": "10/18/2025",
    "capacity": 0,
    "address": "22044 CEDAR ROAD",
    "city": "SONORA",
    "zip": "95370",
    "county": "TUOLUMNE",
    "phone": "(209) 529-5400",
    "lat": 37.985292,
    "lng": -120.3655815
  }
]