[
  {
    "id": "630026449",
    "name": "BLOOMING ROSES HOME HEALTH",
    "npi": null,
    "hcaiId": null,
    "businessName": "BLOOMING ROSES INC.",
    "contactEmail": "BLOOMINGROSESHOSPICE@GMAIL.COM",
    "categoryName": "HOME HEALTH AGENCY",
    "categoryCode": "HHA",
    "licenseStatus": "ACTIVE",
    "inService": true,
    "licenseNumber": "550009690",
    "licenseEffectiveDate": "09/03/2025",
    "licenseExpirationDate": "03/02/2026",
    "dataDate": "10/18/2025",
    "capacity": 0,
    "address": "1199 DELBON AVE, SUITE 6",
    "city": "TURLOCK",
    "zip": "95382",
    "county": "STANISLAUS",
    "phone": "(209) 226-1342",
    "lat": 37.510956,
    "lng": -120.835818
  },
  {
    "id": "030001657",
    "name": "COVENANT VILLAGE CARE CENTER",
    "npi": "1205906989",
    "hcaiId": "206504035",
    "businessName": "COVENANT LIVING WEST",
    "contactEmail": "DCLORENZEN@COVLIVING.ORG",
    "categoryName": "SKILLED NURSING FACILITY",
    "categoryCode": "SNF",
    "licenseStatus": "ACTIVE",
    "inService": true,
    "licenseNumber": "030000694",
    "licenseEffectiveDate": "11/03/2025",
    "licenseExpirationDate": "11/02/2026",
    "dataDate": "10/18/2025",
    "capacity": 50,
    "address": "2125 N OLIVE AVE",
    "city": "TURLOCK",
    "zip": "95382",
    "county": "STANISLAUS",
    "phone": "(209) 664-5300",
    "lat": 37.512621,
    "lng": -120.840714
  },
  {
    "id": "030000125",
    "name": "EMANUEL MEDICAL CENTER",
    "npi": "1396087672",
    "hcaiId": "106500867",
    "businessName": "DOCTOR'S MEDICAL CENTER OF MODESTO, INC.",
    "contactEmail": "BETTY1.LOPEZ@TENETHEALTH.COM",
    "categoryName": "GENERAL ACUTE CARE HOSPITAL",
    "categoryCode": "GACH",
    "licenseStatus": "ACTIVE",
    "inService": true,
    "licenseNumber": "030000035",
    "licenseEffectiveDate": "08/01/2025",
    "licenseExpirationDate": "07/31/2026",
    "dataDate": "10/18/2025",
    "capacity": 209,
    "address": "825 DELBON AVE",
    "city": "TURLOCK",
    "zip": "95382",
    "county": "STANISLAUS",
    "phone": "(209) 664-2859",
    "lat": 37.511172,
    "lng": -120.8383335
  },
  {
    "id": "630016534",
    "name": "GOLDEN STATE DIALYSIS",
    "npi": null,
    "hcaiId": "306504089",
    "businessName": "GATE DIALYSIS, LLC",
    "contactEmail": "CAL_C@DAVITA.COM",
    "categoryName": "CHRONIC DIALYSIS CLINIC",
    "categoryCode": "ESRD/CDC",
    "licenseStatus": "ACTIVE",
    "inService": true,
    "licenseNumber": "550003520",
    "licenseEffectiveDate": "05/17/2025",
    "licenseExpirationDate": "05/16/2026",
    "dataDate": "10/18/2025",
    "capacity": 24,
    "address": "4200 N GOLDEN STATE BLVD",
    "city": "TURLOCK",
    "zip": "95382",
    "county": "STANISLAUS",
    "phone": "(209) 634-0014",
    "lat": 37.531566,
    "lng": -120.887099
  },
  {
    "id": "630017963",
    "name": "GOLDEN VALLEY HEALTH CENTERS - TURLOCK MONTE VISTA",
    "npi": "1114434552",
    "hcaiId": "306500366",
    "businessName": "GOLDEN VALLEY HEALTH CENTERS",
    "contactEmail": "EVILLARAMA@GVHC.ORG",
    "categoryName": "PRIMARY CARE CLINIC",
    "categoryCode": "COMTYC",
    "licenseStatus": "ACTIVE",
    "inService": true,
    "licenseNumber": "550004300",
    "licenseEffectiveDate": "07/23/2025",
    "licenseExpirationDate": "07/22/2026",
    "dataDate": "10/18/2025",
    "capacity": 0,
    "address": "2240 W MONTE VISTA AVE",
    "city": "TURLOCK",
    "zip": "95382",
    "county": "STANISLAUS",
    "phone": "(209) 385-5400",
    "lat": 37.521234,
    "lng": -120.874338
  },
  {
    "id": "630018940",
    "name": "GOLDEN VALLEY HEALTH CENTERS - TURLOCK PEDIATRICS",
    "npi": null,
    "hcaiId": null,
    "businessName": null,
    "contactEmail": null,
    "categoryName": "PRIMARY CARE CLINIC",
    "categoryCode": "COMTYC",
    "licenseStatus": null,
    "inService": null,
    "licenseNumber": null,
    "licenseEffectiveDate": null,
    "licenseExpirationDate": null,
    "dataDate": "10/18/2025",
    "capacity": 0,
    "address": "1100 DELBON AVE",
    "city": "TURLOCK",
    "zip": "95382",
    "county": "STANISLAUS",
    "phone": null,
    "lat": 37.510443,
    "lng": -120.8357595
  },
  {
    "id": "630018941",
    "name": "GOLDEN VALLEY HEALTH CENTERS - TURLOCK PEDIATRICS 1120",
    "npi": null,
    "hcaiId": null,
    "businessName": null,
    "contactEmail": null,
    "categoryName": "PRIMARY CARE CLINIC",
    "categoryCode": "COMTYC",
    "licenseStatus": null,
    "inService": null,
    "licenseNumber": null,
    "licenseEffectiveDate": null,
    "licenseExpirationDate": null,
    "dataDate": "10/18/2025",
    "capacity": 0,
    "address": "1120 DELBON AVE",
    "city": "TURLOCK",
    "zip": "95382",
    "county": "STANISLAUS",
    "phone": null,
    "lat": 37.51056184,
    "lng": -120.8362207
  },
  {
    "id": "630018836",
    "name": "GOLDEN VALLEY HEALTH CENTERS- TURLOCK PEDIATRICS SUITE 2",
    "npi": null,
    "hcaiId": null,
    "businessName": null,
    "contactEmail": null,
    "categoryName": "PRIMARY CARE CLINIC",
    "categoryCode": "COMTYC",
    "licenseStatus": null,
    "inService": null,
    "licenseNumber": null,
    "licenseEffectiveDate": null,
    "licenseExpirationDate": null,
    "dataDate": "10/18/2025",
    "capacity": 0,
    "address": "1199 DELBON AVE, SUITE 2",
    "city": "TURLOCK",
    "zip": "95382",
    "county": "STANISLAUS",
    "phone": null,
    "lat": 37.510956,
    "lng": -120.835818
  },
  {
    "id": "630018837",
    "name": "GOLDEN VALLEY HEALTH CENTERS- TURLOCK PEDIATRICS SUITE 3",
    "npi": null,
    "hcaiId": null,
    "businessName": null,
    "contactEmail": null,
    "categoryName": "PRIMARY CARE CLINIC",
    "categoryCode": "COMTYC",
    "licenseStatus": null,
    "inService": null,
    "licenseNumber": null,
    "licenseEffectiveDate": null,
    "licenseExpirationDate": null,
    "dataDate": "10/18/2025",
    "capacity": 0,
    "address": "1199 DELBON AVE, SUITE 3",
    "city": "TURLOCK",
    "zip": "95382",
    "county": "STANISLAUS",
    "phone": null,
    "lat": 37.510956,
    "lng": -120.835818
  },
  {
    "id": "630018900",
    "name": "GOLDEN VALLEY HEALTH CENTERS- TURLOCK PEDIATRICS SUITE 5",
    "npi": null,
    "hcaiId": null,
    "businessName": null,
    "contactEmail": null,
    "categoryName": "PRIMARY CARE CLINIC",
    "categoryCode": "COMTYC",
    "licenseStatus": null,
    "inService": null,
    "licenseNumber": null,
    "licenseEffectiveDate": null,
    "licenseExpirationDate": null,
    "dataDate": "10/18/2025",
    "capacity": 0,
    "address": "1199 DELBON AVE, SUITE 5",
    "city": "TURLOCK",
    "zip": "95382",
    "county": "STANISLAUS",
    "phone": null,
    "lat": 37.510956,
    "lng": -120.835818
  },
  {
    "id": "630002541",
    "name": "NORTHERN CALIFORNIA SURGERY CENTER",
    "npi": "1528012978",
    "hcaiId": "306504047",
    "businessName": null,
    "contactEmail": "BHARMON@SCNCSC.NVETERRA.COM",
    "categoryName": "SURGICAL CLINIC",
    "categoryCode": "ASC",
    "licenseStatus": "INACTIVE - CAPEN DECISION",
    "inService": false,
    "licenseNumber": "550000135",
    "licenseEffectiveDate": "02/22/2008",
    "licenseExpirationDate": "02/21/2009",
    "dataDate": "10/18/2025",
    "capacity": 0,
    "address": "3850 GEER RD",
    "city": "TURLOCK",
    "zip": "95382",
    "county": "STANISLAUS",
    "phone": "(209) 668-9866",
    "lat": 37.527885,
    "lng": -120.848508
  },
  {
    "id": "110001165",
    "name": "SATELLITE HEALTHCARE TURLOCK",
    "npi": "1376514141",
    "hcaiId": "306502390",
    "businessName": "SATELLITE HEALTHCARE TURLOCK, LLC",
    "contactEmail": "NORNDORFF@USRENALCARE.COM",
    "categoryName": "CHRONIC DIALYSIS CLINIC",
    "categoryCode": "ESRD/CDC",
    "licenseStatus": "ACTIVE",
    "inService": true,
    "licenseNumber": "110000454",
    "licenseEffectiveDate": "03/22/2025",
    "licenseExpirationDate": "03/21/2026",
    "dataDate": "10/18/2025",
    "capacity": 25,
    "address": "1729 N OLIVE AVE, SUITE 9",
    "city": "TURLOCK",
    "zip": "95382",
    "county": "STANISLAUS",
    "phone": "(615) 330-4400",
    "lat": 37.508868,
    "lng": -120.840192
  },
  {
    "id": "630028165",
    "name": "SUTTER TURLOCK SURGERY CENTER",
    "npi": null,
    "hcaiId": null,
    "businessName": null,
    "contactEmail": "KAITLYN.MCKEEHAN@SUTTERHEALTH.ORG",
    "categoryName": "SURGICAL CLINIC",
    "categoryCode": "ASC",
    "licenseStatus": null,
    "inService": null,
    "licenseNumber": null,
    "licenseEffectiveDate": null,
    "licenseExpirationDate": null,
    "dataDate": "10/18/2025",
    "capacity": 0,
    "address": "1801 COLORADO AVE, SUITE 140",
    "city": "TURLOCK",
    "zip": "95382",
    "county": "STANISLAUS",
    "phone": "(916) 684-6311",
    "lat": 37.50938698,
    "lng": -120.836415
  },
  {
    "id": "630019917",
    "name": "TURLOCK HEALTH CENTER",
    "npi": null,
    "hcaiId": null,
    "businessName": "LIVINGSTON COMMUNITY HEALTH",
    "contactEmail": null,
    "categoryName": "PRIMARY CARE CLINIC",
    "categoryCode": "COMTYC",
    "licenseStatus": "ACTIVE",
    "inService": true,
    "licenseNumber": "550009874",
    "licenseEffectiveDate": "07/09/2025",
    "licenseExpirationDate": "07/08/2026",
    "dataDate": "10/18/2025",
    "capacity": 0,
    "address": "2141 COLORADO AVE",
    "city": "TURLOCK",
    "zip": "95382",
    "county": "STANISLAUS",
    "phone": null,
    "lat": 37.512316,
    "lng": -120.835684
  },
  {
    "id": "030000288",
    "name": "TURLOCK NURSING AND REHABILITATION CENTER",
    "npi": "1164563276",
    "hcaiId": "206504002",
    "businessName": "TRACY RIDGE HEALTHCARE, INC.",
    "contactEmail": "CHERICE@ENSIGNSERVICES.NET",
    "categoryName": "SKILLED NURSING FACILITY",
    "categoryCode": "SNF",
    "licenseStatus": "ACTIVE",
    "inService": true,
    "licenseNumber": "030000261",
    "licenseEffectiveDate": "08/01/2025",
    "licenseExpirationDate": "01/12/2026",
    "dataDate": "10/18/2025",
    "capacity": 144,
    "address": "1111 E TUOLUMNE RD",
    "city": "TURLOCK",
    "zip": "95382",
    "county": "STANISLAUS",
    "phone": "(209) 632-7577",
    "lat": 37.515294,
    "lng": -120.8365155
  },
  {
    "id": "630016210",
    "name": "TURLOCK PREGNANCY CENTER",
    "npi": null,
    "hcaiId": "306504099",
    "businessName": "TURLOCK PREGNANCY CENTER",
    "contactEmail": "INFO@TURLOCKPHC.COM",
    "categoryName": "PRIMARY CARE CLINIC",
    "categoryCode": "COMTYC",
    "licenseStatus": "ACTIVE",
    "inService": true,
    "licenseNumber": "550003962",
    "licenseEffectiveDate": "09/07/2025",
    "licenseExpirationDate": "09/06/2026",
    "dataDate": "10/18/2025",
    "capacity": 0,
    "address": "134 REGIS ST, SUITE B",
    "city": "TURLOCK",
    "zip": "95382",
    "county": "STANISLAUS",
    "phone": "(209) 656-9898",
    "lat": 37.519083,
    "lng": -120.8508165
  }
]