[
  {
    "id": "100000177",
    "name": "COVENANT CARE AT HOME",
    "npi": "1538251525",
    "hcaiId": "406500048",
    "businessName": "COVENANT HOME SERVICES",
    "contactEmail": "RBMALMBERG@COVENANTCAREATHOME.ORG",
    "categoryName": "HOME HEALTH AGENCY",
    "categoryCode": "HHA",
    "licenseStatus": "ACTIVE",
    "inService": true,
    "licenseNumber": "100000007",
    "licenseEffectiveDate": "11/24/2024",
    "licenseExpirationDate": "11/23/2025",
    "dataDate": "10/18/2025",
    "capacity": 0,
    "address": "125 N BROADWAY, SUITE 1B",
    "city": "TURLOCK",
    "zip": "95380",
    "county": "STANISLAUS",
    "phone": "(209) 250-5200",
    "lat": 37.493865,
    "lng": -120.848247
  },
  {
    "id": "100001198",
    "name": "COVENANT CARE HOSPICE",
    "npi": null,
    "hcaiId": "406504069",
    "businessName": "COVENANT HOME SERVICES",
    "contactEmail": "RBMALMBERG@COVENANTCAREATHOME.ORG",
    "categoryName": "HOSPICE",
    "categoryCode": "HOSPICE",
    "licenseStatus": "ACTIVE",
    "inService": true,
    "licenseNumber": "550000869",
    "licenseEffectiveDate": "12/20/2023",
    "licenseExpirationDate": "12/19/2025",
    "dataDate": "10/18/2025",
    "capacity": 0,
    "address": "125 N BROADWAY, SUITE 1A",
    "city": "TURLOCK",
    "zip": "95380",
    "county": "STANISLAUS",
    "phone": "(209) 664-2550",
    "lat": 37.493865,
    "lng": -120.848247
  },
  {
    "id": "630012223",
    "name": "GOLDEN VALLEY HEALTH CENTER",
    "npi": "1922249077",
    "hcaiId": "306504070",
    "businessName": "GOLDEN VALLEY HEALTH CENTERS",
    "contactEmail": "EVILLARAMA@GVHC.ORG",
    "categoryName": "PRIMARY CARE CLINIC",
    "categoryCode": "COMTYC",
    "licenseStatus": "ACTIVE",
    "inService": true,
    "licenseNumber": "550001084",
    "licenseEffectiveDate": "06/01/2025",
    "licenseExpirationDate": "05/31/2026",
    "dataDate": "10/18/2025",
    "capacity": 0,
    "address": "1200 W MAIN ST",
    "city": "TURLOCK",
    "zip": "95380",
    "county": "STANISLAUS",
    "phone": "(209) 385-5554",
    "lat": 37.492524,
    "lng": -120.862935
  },
  {
    "id": "030000050",
    "name": "MAIN WEST POSTACUTE CARE",
    "npi": "1376926931",
    "hcaiId": "206501990",
    "businessName": "VISTA DEL SOL POSTACUTE CARE",
    "contactEmail": "ADMINISTRATOR@VISTADELSOLPOSTACUTE.COM",
    "categoryName": "SKILLED NURSING FACILITY",
    "categoryCode": "SNF",
    "licenseStatus": "ACTIVE",
    "inService": true,
    "licenseNumber": "030000263",
    "licenseEffectiveDate": "03/28/2025",
    "licenseExpirationDate": "03/27/2026",
    "dataDate": "10/18/2025",
    "capacity": 99,
    "address": "812 W MAIN ST",
    "city": "TURLOCK",
    "zip": "95380",
    "county": "STANISLAUS",
    "phone": "(209) 667-2828",
    "lat": 37.492227,
    "lng": -120.8585655
  },
  {
    "id": "030000016",
    "name": "NORTH STARR POSTACUTE CARE",
    "npi": "1598112864",
    "hcaiId": "206501989",
    "businessName": "VISTA DEL SOL POSTACUTE CARE",
    "contactEmail": "ADMINISTRATOR@VISTADELSOLPOSTACUTE.COM",
    "categoryName": "SKILLED NURSING FACILITY",
    "categoryCode": "SNF",
    "licenseStatus": "ACTIVE",
    "inService": true,
    "licenseNumber": "030000141",
    "licenseEffectiveDate": "03/28/2025",
    "licenseExpirationDate": "03/27/2026",
    "dataDate": "10/18/2025",
    "capacity": 31,
    "address": "180 STARR AVE",
    "city": "TURLOCK",
    "zip": "95380",
    "county": "STANISLAUS",
    "phone": "(209) 632-1075",
    "lat": 37.502145,
    "lng": -120.8468565
  },
  {
    "id": "630028125",
    "name": "PREMIER VASCULAR AND VEIN SURGERY CENTER",
    "npi": null,
    "hcaiId": null,
    "businessName": null,
    "contactEmail": "PREMIERVASCULARANDVEIN@GMAIL.COM",
    "categoryName": "SURGICAL CLINIC",
    "categoryCode": "ASC",
    "licenseStatus": null,
    "inService": null,
    "licenseNumber": null,
    "licenseEffectiveDate": null,
    "licenseExpirationDate": null,
    "dataDate": "10/18/2025",
    "capacity": 0,
    "address": "1512 COLORADO AVE",
    "city": "TURLOCK",
    "zip": "95380",
    "county": "STANISLAUS",
    "phone": "(209) 226-1770",
    "lat": 37.5067099,
    "lng": -120.8352088
  },
  {
    "id": "630016891",
    "name": "SATELLITE HEALTHCARE WEST TURLOCK",
    "npi": null,
    "hcaiId": "306504096",
    "businessName": "SATELLITE HEALTHCARE WEST TURLOCK, LLC",
    "contactEmail": "GRUSSINGJ@SATELLITEHEALTH.COM",
    "categoryName": "CHRONIC DIALYSIS CLINIC",
    "categoryCode": "ESRD/CDC",
    "licenseStatus": "ACTIVE",
    "inService": true,
    "licenseNumber": "550003925",
    "licenseEffectiveDate": "07/11/2025",
    "licenseExpirationDate": "07/10/2026",
    "dataDate": "10/18/2025",
    "capacity": 25,
    "address": "2350 MARYANN DR",
    "city": "TURLOCK",
    "zip": "95380",
    "county": "STANISLAUS",
    "phone": "(650) 464-1455",
    "lat": 37.49615401,
    "lng": -120.875285
  }
]