[
  {
    "id": "630016674",
    "name": "BENTLEY HEALTH CENTER",
    "npi": "1528433588",
    "hcaiId": "306504091",
    "businessName": "LIVINGSTON COMMUNITY HEALTH",
    "contactEmail": "CREDENTIALING@VISITLCH.ORG",
    "categoryName": "PRIMARY CARE CLINIC",
    "categoryCode": "COMTYC",
    "licenseStatus": "ACTIVE",
    "inService": true,
    "licenseNumber": "550003652",
    "licenseEffectiveDate": "03/02/2025",
    "licenseExpirationDate": "03/01/2026",
    "dataDate": "10/18/2025",
    "capacity": 0,
    "address": "12619 BENTLEY STREET",
    "city": "WATERFORD",
    "zip": "95386",
    "county": "STANISLAUS",
    "phone": "(209) 850-3500",
    "lat": 37.640943,
    "lng": -120.7612845
  },
  {
    "id": "030001003",
    "name": "CEDAR FAMILY PRACTICE",
    "npi": "1326106501",
    "hcaiId": null,
    "businessName": null,
    "contactEmail": null,
    "categoryName": "PRIMARY CARE CLINIC",
    "categoryCode": "RHC/MD",
    "licenseStatus": null,
    "inService": null,
    "licenseNumber": null,
    "licenseEffectiveDate": null,
    "licenseExpirationDate": null,
    "dataDate": "10/18/2025",
    "capacity": 0,
    "address": "12700 WELCH ST",
    "city": "WATERFORD",
    "zip": "95386",
    "county": "STANISLAUS",
    "phone": "(209) 874-2345",
    "lat": 37.639431,
    "lng": -120.7602315
  },
  {
    "id": "030001244",
    "name": "KRISHNAMOORTHI M.D. INC., A PROFESSIONAL MEDICAL CORPORATION",
    "npi": "1316098205",
    "hcaiId": null,
    "businessName": null,
    "contactEmail": null,
    "categoryName": "PRIMARY CARE CLINIC",
    "categoryCode": "RHC/MD",
    "licenseStatus": null,
    "inService": null,
    "licenseNumber": null,
    "licenseEffectiveDate": null,
    "licenseExpirationDate": null,
    "dataDate": "10/18/2025",
    "capacity": 0,
    "address": "324 F ST",
    "city": "WATERFORD",
    "zip": "95386",
    "county": "STANISLAUS",
    "phone": "(209) 874-2321",
    "lat": 37.641483,
    "lng": -120.7620225
  },
  {
    "id": "630014979",
    "name": "WATERFORD COMMUNITY HEALTH CENTER",
    "npi": null,
    "hcaiId": null,
    "businessName": "OAK VALLEY HOSPITAL DISTRICT",
    "contactEmail": null,
    "categoryName": "PRIMARY CARE CLINIC",
    "categoryCode": "RHC/OP",
    "licenseStatus": "ACTIVE",
    "inService": true,
    "licenseNumber": "030000069",
    "licenseEffectiveDate": "11/01/2025",
    "licenseExpirationDate": "10/31/2026",
    "dataDate": "10/18/2025",
    "capacity": 0,
    "address": "12146 YOSEMITE BLVD",
    "city": "WATERFORD",
    "zip": "95386",
    "county": "STANISLAUS",
    "phone": "(209) 874-9254",
    "lat": 37.63737,
    "lng": -120.768147
  }
]