[
  {
    "id": "010001140",
    "name": "ARBOL HEALTHCARE CENTER OF SANTA ROSA",
    "npi": null,
    "hcaiId": "206494078",
    "businessName": "ASRF, LLC",
    "contactEmail": "HALEYM@ASPENHEALTH.COM",
    "categoryName": "SKILLED NURSING FACILITY",
    "categoryCode": "SNF",
    "licenseStatus": "ACTIVE",
    "inService": true,
    "licenseNumber": "010000430",
    "licenseEffectiveDate": "06/13/2025",
    "licenseExpirationDate": "11/23/2025",
    "dataDate": "10/18/2025",
    "capacity": 45,
    "address": "300 FOUNTAINGROVE PKWY",
    "city": "SANTA ROSA",
    "zip": "95403",
    "county": "SONOMA",
    "phone": "(707) 566-8600",
    "lat": 38.474964,
    "lng": -122.7225555
  },
  {
    "id": "010000801",
    "name": "DANNY'S PLACE",
    "npi": "1902839962",
    "hcaiId": null,
    "businessName": "DUMOLIN SERVICE CORPORATION",
    "contactEmail": "DENISE@DUMOLINHOMES.COM",
    "categoryName": "INTERMEDIATE CARE FACILITY-DD/H/N/CN/IID",
    "categoryCode": "ICFDDN",
    "licenseStatus": "ACTIVE",
    "inService": true,
    "licenseNumber": "010000317",
    "licenseEffectiveDate": "01/20/2025",
    "licenseExpirationDate": "01/19/2026",
    "dataDate": "10/18/2025",
    "capacity": 6,
    "address": "6133 OLD REDWOOD HWY",
    "city": "SANTA ROSA",
    "zip": "95403",
    "county": "SONOMA",
    "phone": "(707) 838-2300",
    "lat": 38.53021545,
    "lng": -122.7824537
  },
  {
    "id": "110000508",
    "name": "KAISER FOUNDATION HOSPITAL - SANTA ROSA",
    "npi": "1407925928",
    "hcaiId": "106494019",
    "businessName": "KAISER FOUNDATION HOSPITALS",
    "contactEmail": "LYNN.B.KELLY@KP.ORG",
    "categoryName": "GENERAL ACUTE CARE HOSPITAL",
    "categoryCode": "GACH",
    "licenseStatus": "ACTIVE",
    "inService": true,
    "licenseNumber": "110000213",
    "licenseEffectiveDate": "03/12/2025",
    "licenseExpirationDate": "11/30/2025",
    "dataDate": "10/18/2025",
    "capacity": 172,
    "address": "401 BICENTENNIAL WAY",
    "city": "SANTA ROSA",
    "zip": "95403",
    "county": "SONOMA",
    "phone": "(707) 393-5228",
    "lat": 38.471814,
    "lng": -122.726088
  },
  {
    "id": "010000652",
    "name": "KAISER FOUNDATION HOSPITAL HOME HEALTH-SANTA ROSA",
    "npi": "1104996933",
    "hcaiId": "406494092",
    "businessName": "KAISER FOUNDATION HOSPITALS",
    "contactEmail": "ERIN.L.BROWN@KP.ORG",
    "categoryName": "HOME HEALTH AGENCY",
    "categoryCode": "HHA",
    "licenseStatus": "ACTIVE",
    "inService": true,
    "licenseNumber": "010000259",
    "licenseEffectiveDate": "12/15/2024",
    "licenseExpirationDate": "12/14/2025",
    "dataDate": "10/18/2025",
    "capacity": 0,
    "address": "3550 ROUND BARN BLVD, SUITE 112",
    "city": "SANTA ROSA",
    "zip": "95403",
    "county": "SONOMA",
    "phone": "(707) 566-5488",
    "lat": 38.47617,
    "lng": -122.725773
  },
  {
    "id": "630013209",
    "name": "LASERVUE EYE CENTER",
    "npi": "1194913103",
    "hcaiId": null,
    "businessName": null,
    "contactEmail": null,
    "categoryName": "SURGICAL CLINIC",
    "categoryCode": "ASC",
    "licenseStatus": null,
    "inService": null,
    "licenseNumber": null,
    "licenseEffectiveDate": null,
    "licenseExpirationDate": null,
    "dataDate": "10/18/2025",
    "capacity": 0,
    "address": "3540 MENDOCINO AVE, SUITE 100",
    "city": "SANTA ROSA",
    "zip": "95403",
    "county": "SONOMA",
    "phone": null,
    "lat": 38.474028,
    "lng": -122.725656
  },
  {
    "id": "010000481",
    "name": "REDWOOD HOUSE",
    "npi": "1902839962",
    "hcaiId": null,
    "businessName": "DUMOLIN SERVICE CORPORATION",
    "contactEmail": "DENISE@DUMOLINHOMES.COM",
    "categoryName": "INTERMEDIATE CARE FACILITY-DD/H/N/CN/IID",
    "categoryCode": "ICFDDN",
    "licenseStatus": "ACTIVE",
    "inService": true,
    "licenseNumber": "010000208",
    "licenseEffectiveDate": "11/16/2024",
    "licenseExpirationDate": "11/15/2025",
    "dataDate": "10/18/2025",
    "capacity": 6,
    "address": "5028 OLD REDWOOD HWY",
    "city": "SANTA ROSA",
    "zip": "95403",
    "county": "SONOMA",
    "phone": "(707) 568-5881",
    "lat": 38.505429,
    "lng": -122.7584745
  },
  {
    "id": "630004341",
    "name": "SANTA ROSA COMMUNITY HEALTH VISTA CAMPUS",
    "npi": "1578631172",
    "hcaiId": "306490499",
    "businessName": "SANTA ROSA COMMUNITY HEALTH CENTERS",
    "contactEmail": "YUDITHC@SRHEALTH.ORG",
    "categoryName": "PRIMARY CARE CLINIC",
    "categoryCode": "COMTYC",
    "licenseStatus": "ACTIVE",
    "inService": true,
    "licenseNumber": "550000087",
    "licenseEffectiveDate": "05/01/2025",
    "licenseExpirationDate": "04/30/2026",
    "dataDate": "10/18/2025",
    "capacity": 0,
    "address": "3569 ROUND BARN CIR",
    "city": "SANTA ROSA",
    "zip": "95403",
    "county": "SONOMA",
    "phone": "(707) 303-3600",
    "lat": 38.47977,
    "lng": -122.7297555
  },
  {
    "id": "630019941",
    "name": "SANTA ROSA COMMUNITY HEALTH: VAN #2",
    "npi": null,
    "hcaiId": null,
    "businessName": "SANTA ROSA COMMUNITY HEALTH CENTERS",
    "contactEmail": null,
    "categoryName": "PRIMARY CARE CLINIC",
    "categoryCode": "COMTYC",
    "licenseStatus": "ACTIVE",
    "inService": true,
    "licenseNumber": "550005901",
    "licenseEffectiveDate": "12/10/2024",
    "licenseExpirationDate": "12/09/2025",
    "dataDate": "10/18/2025",
    "capacity": 0,
    "address": "3569 ROUND BARN CIR",
    "city": "SANTA ROSA",
    "zip": "95403",
    "county": "SONOMA",
    "phone": null,
    "lat": 38.47977,
    "lng": -122.7297555
  },
  {
    "id": "110000007",
    "name": "SUTTER SANTA ROSA REGIONAL HOSPITAL",
    "npi": "1740413798",
    "hcaiId": "106494106",
    "businessName": "SUTTER BAY HOSPITALS",
    "contactEmail": "PATRICIA.KRAL@SUTTERHEALTH.ORG",
    "categoryName": "GENERAL ACUTE CARE HOSPITAL",
    "categoryCode": "GACH",
    "licenseStatus": "ACTIVE",
    "inService": true,
    "licenseNumber": "110000005",
    "licenseEffectiveDate": "01/01/2025",
    "licenseExpirationDate": "12/31/2025",
    "dataDate": "10/18/2025",
    "capacity": 124,
    "address": "30 MARK WEST SPRINGS ROAD",
    "city": "SANTA ROSA",
    "zip": "95403",
    "county": "SONOMA",
    "phone": "(707) 576-4564",
    "lat": 38.495187,
    "lng": -122.752017
  },
  {
    "id": "630020154",
    "name": "THE GOOD SAMARITAN HOSPICE OF ST. JOSEPH LLC",
    "npi": null,
    "hcaiId": "406495224",
    "businessName": "THE GOOD SAMARITAN HOSPICE OF ST. JOSEPH LLC",
    "contactEmail": "AOALCONES@GMAIL.COM",
    "categoryName": "HOSPICE",
    "categoryCode": "HOSPICE",
    "licenseStatus": "ACTIVE",
    "inService": true,
    "licenseNumber": "550007553",
    "licenseEffectiveDate": "12/09/2023",
    "licenseExpirationDate": "12/08/2025",
    "dataDate": "10/18/2025",
    "capacity": 0,
    "address": "2800 CLEVELAND AVE, UNIT D",
    "city": "SANTA ROSA",
    "zip": "95403",
    "county": "SONOMA",
    "phone": "(707) 536-9131",
    "lat": 38.464767,
    "lng": -122.727789
  },
  {
    "id": "010000480",
    "name": "VELMA HOUSE",
    "npi": "1902839962",
    "hcaiId": null,
    "businessName": "DUMOLIN SERVICE CORPORATION",
    "contactEmail": "DENISE@DUMOLINHOMES.COM",
    "categoryName": "INTERMEDIATE CARE FACILITY-DD/H/N/CN/IID",
    "categoryCode": "ICFDDH",
    "licenseStatus": "ACTIVE",
    "inService": true,
    "licenseNumber": "010000211",
    "licenseEffectiveDate": "11/05/2023",
    "licenseExpirationDate": "11/04/2024",
    "dataDate": "10/18/2025",
    "capacity": 6,
    "address": "1450 VELMA AVE",
    "city": "SANTA ROSA",
    "zip": "95403",
    "county": "SONOMA",
    "phone": "(707) 838-2300",
    "lat": 38.452221,
    "lng": -122.7658815
  }
]