[
  {
    "id": "110000914",
    "name": "4TH STREET LASER AND SURGERY CENTER",
    "npi": "1902964174",
    "hcaiId": "306494075",
    "businessName": "4TH STREET LASER & SURGERY CENTER, INC.",
    "contactEmail": "ELAYNEC@4THSTREETLASER.COM",
    "categoryName": "SURGICAL CLINIC",
    "categoryCode": "ASC",
    "licenseStatus": "INACTIVE - CAPEN DECISION",
    "inService": false,
    "licenseNumber": "110000344",
    "licenseEffectiveDate": "11/01/2007",
    "licenseExpirationDate": "10/31/2008",
    "dataDate": "10/18/2025",
    "capacity": 0,
    "address": "1720 4TH ST",
    "city": "SANTA ROSA",
    "zip": "95404",
    "county": "SONOMA",
    "phone": "(707) 546-8100",
    "lat": 38.448522,
    "lng": -122.698836
  },
  {
    "id": "630012203",
    "name": "ADVANCED HOME HEALTH NORTHBAY, INC.",
    "npi": "1457720617",
    "hcaiId": "406072960",
    "businessName": "ADVANCED HOME HEALTH NORTHBAY, INC",
    "contactEmail": "AROJAS@AHH1.COM",
    "categoryName": "HOME HEALTH AGENCY",
    "categoryCode": "HHA",
    "licenseStatus": "ACTIVE",
    "inService": true,
    "licenseNumber": "550001265",
    "licenseEffectiveDate": "04/28/2025",
    "licenseExpirationDate": "02/17/2026",
    "dataDate": "10/18/2025",
    "capacity": 0,
    "address": "2455 BENNETT VALLEY RD, SUITE C-217",
    "city": "SANTA ROSA",
    "zip": "95404",
    "county": "SONOMA",
    "phone": "(972) 445-9117",
    "lat": 38.43436344,
    "lng": -122.6926731
  },
  {
    "id": "630017263",
    "name": "BRIDGE HEALTH SERVICES",
    "npi": null,
    "hcaiId": null,
    "businessName": null,
    "contactEmail": null,
    "categoryName": "PRIMARY CARE CLINIC",
    "categoryCode": "FQHC",
    "licenseStatus": null,
    "inService": null,
    "licenseNumber": null,
    "licenseEffectiveDate": null,
    "licenseExpirationDate": null,
    "dataDate": "10/18/2025",
    "capacity": 0,
    "address": "3333 CHANATE RD",
    "city": "SANTA ROSA",
    "zip": "95404",
    "county": "SONOMA",
    "phone": "(707) 303-4070",
    "lat": 38.469483,
    "lng": -122.7054825
  },
  {
    "id": "010000003",
    "name": "CREEKSIDE REHABILITATION & BEHAVIORAL HEALTH",
    "npi": "1326734625",
    "hcaiId": "206490940",
    "businessName": "HILBORN CARE INC",
    "contactEmail": "RAUL@HIBORNCARE.COM",
    "categoryName": "SKILLED NURSING FACILITY",
    "categoryCode": "SNF",
    "licenseStatus": "ACTIVE",
    "inService": true,
    "licenseNumber": "010000011",
    "licenseEffectiveDate": "11/19/2024",
    "licenseExpirationDate": "11/18/2025",
    "dataDate": "10/18/2025",
    "capacity": 181,
    "address": "850 SONOMA AVE",
    "city": "SANTA ROSA",
    "zip": "95404",
    "county": "SONOMA",
    "phone": "(707) 303-8810",
    "lat": 38.438712,
    "lng": -122.7059775
  },
  {
    "id": "110001142",
    "name": "FMC DIALYSIS OF SANTA ROSA",
    "npi": "1205948007",
    "hcaiId": "306490918",
    "businessName": "BIO-MEDICAL APPLICATIONS OF CALIFORNIA INC.",
    "contactEmail": "CLINIC1678@FMC-NA.COM",
    "categoryName": "CHRONIC DIALYSIS CLINIC",
    "categoryCode": "ESRD/CDC",
    "licenseStatus": "ACTIVE",
    "inService": true,
    "licenseNumber": "110000431",
    "licenseEffectiveDate": "11/01/2024",
    "licenseExpirationDate": "10/31/2025",
    "dataDate": "10/18/2025",
    "capacity": 16,
    "address": "1020 2ND ST",
    "city": "SANTA ROSA",
    "zip": "95404",
    "county": "SONOMA",
    "phone": "(707) 527-5350",
    "lat": 38.44224,
    "lng": -122.7052755
  },
  {
    "id": "630011871",
    "name": "JEWISH COMMUNITY FREE CLINIC",
    "npi": null,
    "hcaiId": "306494129",
    "businessName": "THE JEWISH COMMUNITY FREE CLINIC",
    "contactEmail": "DIRECTOR.JCFC@GMAIL.COM",
    "categoryName": "PRIMARY CARE CLINIC",
    "categoryCode": "FREEC",
    "licenseStatus": "ACTIVE",
    "inService": true,
    "licenseNumber": "550001029",
    "licenseEffectiveDate": "11/23/2024",
    "licenseExpirationDate": "11/22/2025",
    "dataDate": "10/18/2025",
    "capacity": 0,
    "address": "50 MONTGOMERY DR",
    "city": "SANTA ROSA",
    "zip": "95404",
    "county": "SONOMA",
    "phone": "(707) 585-7780",
    "lat": 38.443095,
    "lng": -122.7037005
  },
  {
    "id": "110001202",
    "name": "SANTA ROSA AMBULATORY SURGICAL CENTER",
    "npi": "1215002852",
    "hcaiId": null,
    "businessName": null,
    "contactEmail": null,
    "categoryName": "SURGICAL CLINIC",
    "categoryCode": "ASC",
    "licenseStatus": null,
    "inService": null,
    "licenseNumber": null,
    "licenseEffectiveDate": null,
    "licenseExpirationDate": null,
    "dataDate": "10/18/2025",
    "capacity": 0,
    "address": "76 BROOKWOOD AVE",
    "city": "SANTA ROSA",
    "zip": "95404",
    "county": "SONOMA",
    "phone": "(707) 523-4907",
    "lat": 38.443023,
    "lng": -122.70645
  },
  {
    "id": "630026774",
    "name": "SANTA ROSA SURGICAL SERVICES LLC",
    "npi": null,
    "hcaiId": null,
    "businessName": null,
    "contactEmail": null,
    "categoryName": "SURGICAL CLINIC",
    "categoryCode": "ASC",
    "licenseStatus": null,
    "inService": null,
    "licenseNumber": null,
    "licenseEffectiveDate": null,
    "licenseExpirationDate": null,
    "dataDate": "10/18/2025",
    "capacity": 0,
    "address": "1739 4TH ST",
    "city": "SANTA ROSA",
    "zip": "95404",
    "county": "SONOMA",
    "phone": "(707) 931-5599",
    "lat": 38.44935,
    "lng": -122.6987595
  },
  {
    "id": "110000757",
    "name": "SONOMA CO PUBLIC HEALTH DIV. - E.I.C.",
    "npi": null,
    "hcaiId": null,
    "businessName": null,
    "contactEmail": null,
    "categoryName": "PRIMARY CARE CLINIC",
    "categoryCode": "COMTYC",
    "licenseStatus": null,
    "inService": null,
    "licenseNumber": null,
    "licenseEffectiveDate": null,
    "licenseExpirationDate": null,
    "dataDate": "10/18/2025",
    "capacity": 0,
    "address": "499 HUMBOLDT ST",
    "city": "SANTA ROSA",
    "zip": "95404",
    "county": "SONOMA",
    "phone": "(707) 524-7400",
    "lat": 38.442717,
    "lng": -122.714109
  },
  {
    "id": "110000756",
    "name": "SONOMA CO. PUBLIC HEALTH DIV. - CLINICAL SERVICES",
    "npi": null,
    "hcaiId": null,
    "businessName": null,
    "contactEmail": null,
    "categoryName": "PRIMARY CARE CLINIC",
    "categoryCode": "COMTYC",
    "licenseStatus": null,
    "inService": null,
    "licenseNumber": null,
    "licenseEffectiveDate": null,
    "licenseExpirationDate": null,
    "dataDate": "10/18/2025",
    "capacity": 0,
    "address": "3420 CHANATE RD",
    "city": "SANTA ROSA",
    "zip": "95404",
    "county": "SONOMA",
    "phone": "(707) 576-4820",
    "lat": 38.46972357,
    "lng": -122.7038985
  },
  {
    "id": "630014307",
    "name": "SOUTHWEST COMMUNITY HEALTH CENTER-BROOKWOOD HEALTH CENTER",
    "npi": null,
    "hcaiId": null,
    "businessName": null,
    "contactEmail": null,
    "categoryName": "PRIMARY CARE CLINIC",
    "categoryCode": "FQHC",
    "licenseStatus": null,
    "inService": null,
    "licenseNumber": null,
    "licenseEffectiveDate": null,
    "licenseExpirationDate": null,
    "dataDate": "10/18/2025",
    "capacity": 0,
    "address": "983 SONOMA AVE, SUITE A",
    "city": "SANTA ROSA",
    "zip": "95404",
    "county": "SONOMA",
    "phone": "(707) 583-8700",
    "lat": 38.440764,
    "lng": -122.70249
  }
]