[
  {
    "id": "010000822",
    "name": "BADGER CREEK",
    "npi": "1124192364",
    "hcaiId": null,
    "businessName": "SLOW SCULPTURE",
    "contactEmail": "SARANE@SBCGLOBAL.NET",
    "categoryName": "INTERMEDIATE CARE FACILITY-DD/H/N/CN/IID",
    "categoryCode": "ICFDDN",
    "licenseStatus": "ACTIVE",
    "inService": true,
    "licenseNumber": "010000319",
    "licenseEffectiveDate": "02/10/2025",
    "licenseExpirationDate": "02/09/2026",
    "dataDate": "10/18/2025",
    "capacity": 6,
    "address": "4520 BADGER RD",
    "city": "SANTA ROSA",
    "zip": "95409",
    "county": "SONOMA",
    "phone": "(707) 539-4191",
    "lat": 38.481912,
    "lng": -122.6767815
  },
  {
    "id": "010000585",
    "name": "FIFTY-O-ONE PARKHURST",
    "npi": "1942372933",
    "hcaiId": null,
    "businessName": "SLOW SCULPTURE",
    "contactEmail": "SLOWSCULPTUREHOMES@GMAIL.COM",
    "categoryName": "INTERMEDIATE CARE FACILITY-DD/H/N/CN/IID",
    "categoryCode": "ICFDDH",
    "licenseStatus": "ACTIVE",
    "inService": true,
    "licenseNumber": "010000231",
    "licenseEffectiveDate": "12/03/2024",
    "licenseExpirationDate": "12/02/2025",
    "dataDate": "10/18/2025",
    "capacity": 6,
    "address": "5001 PARKHURST DR",
    "city": "SANTA ROSA",
    "zip": "95409",
    "county": "SONOMA",
    "phone": "(707) 538-4669",
    "lat": 38.47608,
    "lng": -122.6612835
  },
  {
    "id": "010001124",
    "name": "MONTE VERDE",
    "npi": "1831263078",
    "hcaiId": null,
    "businessName": "SLOW SCULPTURE",
    "contactEmail": "SARANE@SBCGLOBAL.NET",
    "categoryName": "INTERMEDIATE CARE FACILITY-DD/H/N/CN/IID",
    "categoryCode": "ICFDDN",
    "licenseStatus": "ACTIVE",
    "inService": true,
    "licenseNumber": "010000428",
    "licenseEffectiveDate": "04/19/2025",
    "licenseExpirationDate": "04/18/2026",
    "dataDate": "10/18/2025",
    "capacity": 6,
    "address": "5715 MONTE VERDE DR",
    "city": "SANTA ROSA",
    "zip": "95409",
    "county": "SONOMA",
    "phone": "(707) 537-7024",
    "lat": 38.470806,
    "lng": -122.6433825
  },
  {
    "id": "110001252",
    "name": "NORTH BAY MEDICAL GROUP SURGERY CENTER",
    "npi": null,
    "hcaiId": null,
    "businessName": null,
    "contactEmail": null,
    "categoryName": "SURGICAL CLINIC",
    "categoryCode": "ASC",
    "licenseStatus": null,
    "inService": null,
    "licenseNumber": null,
    "licenseEffectiveDate": null,
    "licenseExpirationDate": null,
    "dataDate": "10/18/2025",
    "capacity": 0,
    "address": "4415 SONOMA HWY, SUITE B",
    "city": "SANTA ROSA",
    "zip": "95409",
    "county": "SONOMA",
    "phone": "(707) 538-0492",
    "lat": 38.45814659,
    "lng": -122.6759831
  },
  {
    "id": "110000762",
    "name": "SO.CO.PUB.HLTH VALLEY OFTHE MOON CHILDREN'S CLINIC",
    "npi": null,
    "hcaiId": null,
    "businessName": null,
    "contactEmail": null,
    "categoryName": "PRIMARY CARE CLINIC",
    "categoryCode": "COMTYC",
    "licenseStatus": null,
    "inService": null,
    "licenseNumber": null,
    "licenseEffectiveDate": null,
    "licenseExpirationDate": null,
    "dataDate": "10/18/2025",
    "capacity": 0,
    "address": "55 PYTHIAN RD",
    "city": "SANTA ROSA",
    "zip": "95409",
    "county": "SONOMA",
    "phone": "(707) 537-6350",
    "lat": 38.43632587,
    "lng": -122.5777939
  },
  {
    "id": "010000208",
    "name": "SPRING LAKE VILLAGE",
    "npi": null,
    "hcaiId": "206494001",
    "businessName": "FRONT PORCH COMMUNITIES AND SERVICES",
    "contactEmail": "DSKILLMAN@FRONTPORCH.NET",
    "categoryName": "SKILLED NURSING FACILITY",
    "categoryCode": "SNF",
    "licenseStatus": "ACTIVE",
    "inService": true,
    "licenseNumber": "010000147",
    "licenseEffectiveDate": "11/14/2024",
    "licenseExpirationDate": "11/13/2025",
    "dataDate": "10/18/2025",
    "capacity": 70,
    "address": "5555 MONTGOMERY DR",
    "city": "SANTA ROSA",
    "zip": "95409",
    "county": "SONOMA",
    "phone": "(707) 538-8400",
    "lat": 38.459016,
    "lng": -122.6435805
  }
]