[
  {
    "id": "010000923",
    "name": "AT HOME NURSING SERVICES",
    "npi": "1336493394",
    "hcaiId": "406494104",
    "businessName": "BRABETZ, INC.",
    "contactEmail": "ATHOME@SONIC.NET",
    "categoryName": "HOME HEALTH AGENCY",
    "categoryCode": "HHA",
    "licenseStatus": "ACTIVE",
    "inService": true,
    "licenseNumber": "010000349",
    "licenseEffectiveDate": "04/01/2025",
    "licenseExpirationDate": "03/31/2026",
    "dataDate": "10/18/2025",
    "capacity": 0,
    "address": "1378 CORPORATE CENTER PKWY, SUITE A",
    "city": "SANTA ROSA",
    "zip": "95407",
    "county": "SONOMA",
    "phone": "(707) 546-8773",
    "lat": 38.41718274,
    "lng": -122.753836
  },
  {
    "id": "110001212",
    "name": "ELSIE ALLEN HEALTH CENTER",
    "npi": null,
    "hcaiId": "306494080",
    "businessName": "SANTA ROSA COMMUNITY HEALTH CENTERS",
    "contactEmail": "GABRIELAB@SRHEALTH.ORG",
    "categoryName": "PRIMARY CARE CLINIC",
    "categoryCode": "COMTYC",
    "licenseStatus": "ACTIVE",
    "inService": true,
    "licenseNumber": "110000489",
    "licenseEffectiveDate": "04/12/2025",
    "licenseExpirationDate": "04/11/2026",
    "dataDate": "10/18/2025",
    "capacity": 0,
    "address": "599 BELLEVUE AVE",
    "city": "SANTA ROSA",
    "zip": "95407",
    "county": "SONOMA",
    "phone": "(707) 547-2222",
    "lat": 38.40195594,
    "lng": -122.7345956
  },
  {
    "id": "010000059",
    "name": "NORTHVINE POSTACUTE CARE",
    "npi": "1558883645",
    "hcaiId": "206491062",
    "businessName": "SANTA ROSA POSTACUTE CARE LLC",
    "contactEmail": "ADMINISTRATOR@NORTHVINEPOSTACUTE.COM",
    "categoryName": "SKILLED NURSING FACILITY",
    "categoryCode": "SNF",
    "licenseStatus": "ACTIVE",
    "inService": true,
    "licenseNumber": "010000064",
    "licenseEffectiveDate": "11/01/2025",
    "licenseExpirationDate": "10/31/2026",
    "dataDate": "10/18/2025",
    "capacity": 62,
    "address": "446 ARROWOOD DR",
    "city": "SANTA ROSA",
    "zip": "95407",
    "county": "SONOMA",
    "phone": "(707) 528-2100",
    "lat": 38.421189,
    "lng": -122.7186585
  },
  {
    "id": "110000784",
    "name": "SANTA ROSA COMMUNITY HEALTH: PEDIATRIC CAMPUS",
    "npi": "1780195255",
    "hcaiId": "306494122",
    "businessName": "SANTA ROSA COMMUNITY HEALTH CENTERS",
    "contactEmail": "NAOMIF@SRHEALTHCENTERS.ORG",
    "categoryName": "PRIMARY CARE CLINIC",
    "categoryCode": "COMTYC",
    "licenseStatus": "ACTIVE",
    "inService": true,
    "licenseNumber": "550005901",
    "licenseEffectiveDate": "12/10/2024",
    "licenseExpirationDate": "12/09/2025",
    "dataDate": "10/18/2025",
    "capacity": 0,
    "address": "711 STONY POINT RD, SUITE 17",
    "city": "SANTA ROSA",
    "zip": "95407",
    "county": "SONOMA",
    "phone": "(707) 578-2005",
    "lat": 38.4291,
    "lng": -122.742054
  },
  {
    "id": "110001150",
    "name": "SATELLITE HEALTHCARE SANTA ROSA",
    "npi": "1821069907",
    "hcaiId": "306494098",
    "businessName": "SATELLITE SANTA ROSA, LLC",
    "contactEmail": "GAMAN@SATELLITEHEALTH.COM",
    "categoryName": "CHRONIC DIALYSIS CLINIC",
    "categoryCode": "ESRD/CDC",
    "licenseStatus": "ACTIVE",
    "inService": true,
    "licenseNumber": "110000439",
    "licenseEffectiveDate": "11/29/2024",
    "licenseExpirationDate": "11/15/2025",
    "dataDate": "10/18/2025",
    "capacity": 48,
    "address": "2301 CIRCADIAN WAY, SUITE C",
    "city": "SANTA ROSA",
    "zip": "95407",
    "county": "SONOMA",
    "phone": "(801) 200-5490",
    "lat": 38.422071,
    "lng": -122.7537945
  },
  {
    "id": "110000783",
    "name": "SOUTHWEST COMMUNITY HEALTH CENTER",
    "npi": null,
    "hcaiId": "306494058",
    "businessName": "SANTA ROSA COMMUNITY HEALTH CENTERS",
    "contactEmail": "GABRIELAB@SRHEALTH.ORG",
    "categoryName": "PRIMARY CARE CLINIC",
    "categoryCode": "COMTYC",
    "licenseStatus": "ACTIVE",
    "inService": true,
    "licenseNumber": "550005901",
    "licenseEffectiveDate": "12/10/2024",
    "licenseExpirationDate": "12/09/2025",
    "dataDate": "10/18/2025",
    "capacity": 0,
    "address": "751 LOMBARDI CT",
    "city": "SANTA ROSA",
    "zip": "95407",
    "county": "SONOMA",
    "phone": "(707) 547-2222",
    "lat": 38.42784,
    "lng": -122.749299
  },
  {
    "id": "010000572",
    "name": "VICTORIA DRIVE HOUSE",
    "npi": "1902839962",
    "hcaiId": null,
    "businessName": "DUMOLIN SERVICE CORPORATION",
    "contactEmail": "DENISE@DUMOLINHOMES.COM",
    "categoryName": "INTERMEDIATE CARE FACILITY-DD/H/N/CN/IID",
    "categoryCode": "ICFDDH",
    "licenseStatus": "ACTIVE",
    "inService": true,
    "licenseNumber": "010000230",
    "licenseEffectiveDate": "11/01/2023",
    "licenseExpirationDate": "10/31/2024",
    "dataDate": "10/18/2025",
    "capacity": 6,
    "address": "2793 VICTORIA DR",
    "city": "SANTA ROSA",
    "zip": "95407",
    "county": "SONOMA",
    "phone": "(707) 579-2451",
    "lat": 38.4093,
    "lng": -122.722218
  },
  {
    "id": "630008001",
    "name": "WELLBOUND OF SANTA ROSA, LLC",
    "npi": "1326093626",
    "hcaiId": null,
    "businessName": null,
    "contactEmail": "LICENSING@SATELLITEHEALTH.COM",
    "categoryName": "CHRONIC DIALYSIS CLINIC",
    "categoryCode": "ESRD",
    "licenseStatus": null,
    "inService": null,
    "licenseNumber": null,
    "licenseEffectiveDate": null,
    "licenseExpirationDate": null,
    "dataDate": "10/18/2025",
    "capacity": 0,
    "address": "2301 CIRCADIAN WAY, SUITE B",
    "city": "SANTA ROSA",
    "zip": "95407",
    "county": "SONOMA",
    "phone": null,
    "lat": 38.422071,
    "lng": -122.7537945
  }
]