[
  {
    "id": "110000044",
    "name": "ADVENTIST HEALTH CLEARLAKE",
    "npi": "1124018031",
    "hcaiId": "106171049",
    "businessName": "ADVENTIST HEALTH CLEARLAKE HOSPITAL, INC.",
    "contactEmail": "ESPYCA@AH.ORG",
    "categoryName": "GENERAL ACUTE CARE HOSPITAL",
    "categoryCode": "GACH",
    "licenseStatus": "ACTIVE",
    "inService": true,
    "licenseNumber": "110000174",
    "licenseEffectiveDate": "11/01/2025",
    "licenseExpirationDate": "10/31/2026",
    "dataDate": "10/18/2025",
    "capacity": 32,
    "address": "15630 18TH AVE",
    "city": "CLEARLAKE",
    "zip": "95422",
    "county": "LAKE",
    "phone": "(707) 995-5818",
    "lat": 38.935602,
    "lng": -122.6201985
  },
  {
    "id": "110000846",
    "name": "ADVENTIST HEALTH CLEARLAKE",
    "npi": "1316937121",
    "hcaiId": null,
    "businessName": "ADVENTIST HEALTH CLEARLAKE HOSPITAL, INC.",
    "contactEmail": null,
    "categoryName": "PRIMARY CARE CLINIC",
    "categoryCode": "RHC/OP",
    "licenseStatus": "ACTIVE",
    "inService": true,
    "licenseNumber": "110000174",
    "licenseEffectiveDate": "11/01/2025",
    "licenseExpirationDate": "10/31/2026",
    "dataDate": "10/18/2025",
    "capacity": 0,
    "address": "15230 LAKESHORE DR",
    "city": "CLEARLAKE",
    "zip": "95422",
    "county": "LAKE",
    "phone": null,
    "lat": 38.94993149,
    "lng": -122.6274509
  },
  {
    "id": "630025996",
    "name": "ADVENTIST HEALTH CLEARLAKE",
    "npi": null,
    "hcaiId": null,
    "businessName": "ADVENTIST HEALTH CLEARLAKE HOSPITAL, INC.",
    "contactEmail": null,
    "categoryName": "PRIMARY CARE CLINIC",
    "categoryCode": "RHC",
    "licenseStatus": "ACTIVE",
    "inService": true,
    "licenseNumber": "110000174",
    "licenseEffectiveDate": "11/01/2025",
    "licenseExpirationDate": "10/31/2026",
    "dataDate": "10/18/2025",
    "capacity": 0,
    "address": "15322 LAKESHORE DR, SUITE 101, 102, 201",
    "city": "CLEARLAKE",
    "zip": "95422",
    "county": "LAKE",
    "phone": null,
    "lat": 38.950542,
    "lng": -122.625576
  },
  {
    "id": "630026395",
    "name": "LAKE COUNTY TRIBAL HEALTH SOUTHSHORE CLINIC",
    "npi": null,
    "hcaiId": "306170808",
    "businessName": "LAKE COUNTY TRIBAL HEALTH CONSORTIUM, INC.",
    "contactEmail": "EPADILLA@LCTHC.ORG",
    "categoryName": "PRIMARY CARE CLINIC",
    "categoryCode": "COMTYC",
    "licenseStatus": "ACTIVE",
    "inService": true,
    "licenseNumber": "550008263",
    "licenseEffectiveDate": "12/16/2024",
    "licenseExpirationDate": "12/15/2025",
    "dataDate": "10/18/2025",
    "capacity": 0,
    "address": "14440 OLYMPIC DR",
    "city": "CLEARLAKE",
    "zip": "95422",
    "county": "LAKE",
    "phone": "(707) 263-8382",
    "lat": 38.9619602,
    "lng": -122.6408039
  },
  {
    "id": "630027584",
    "name": "LAKE COUNTY TRIBAL HEALTH, LAKESHORE CLINIC",
    "npi": "1215327804",
    "hcaiId": null,
    "businessName": "LAKE COUNTY TRIBAL HEALTH CONSORTIUM, INC.",
    "contactEmail": null,
    "categoryName": "PRIMARY CARE CLINIC",
    "categoryCode": "COMTYC",
    "licenseStatus": "ACTIVE",
    "inService": true,
    "licenseNumber": "110000289",
    "licenseEffectiveDate": "02/17/2025",
    "licenseExpirationDate": "02/16/2026",
    "dataDate": "10/18/2025",
    "capacity": 0,
    "address": "14678 LAKESHORE DR",
    "city": "CLEARLAKE",
    "zip": "95422",
    "county": "LAKE",
    "phone": null,
    "lat": 38.95011799,
    "lng": -122.636988
  },
  {
    "id": "110001250",
    "name": "MEADOWOOD NURSING CENTER",
    "npi": "1679542658",
    "hcaiId": "206174005",
    "businessName": "VINDRA, INC.",
    "contactEmail": "JPARRIOTT@MWDNC.COM",
    "categoryName": "SKILLED NURSING FACILITY",
    "categoryCode": "SNF",
    "licenseStatus": "ACTIVE",
    "inService": true,
    "licenseNumber": "110000510",
    "licenseEffectiveDate": "02/13/2025",
    "licenseExpirationDate": "02/12/2026",
    "dataDate": "10/18/2025",
    "capacity": 99,
    "address": "3805 DEXTER LN",
    "city": "CLEARLAKE",
    "zip": "95422",
    "county": "LAKE",
    "phone": "(707) 994-7738",
    "lat": 38.957499,
    "lng": -122.6281365
  },
  {
    "id": "630026110",
    "name": "MENDO LAKE WOMEN'S CLINIC",
    "npi": null,
    "hcaiId": null,
    "businessName": "PREGNANCY COUNSELING CENTER OF UKIAH",
    "contactEmail": null,
    "categoryName": "PRIMARY CARE CLINIC",
    "categoryCode": "FREEC",
    "licenseStatus": "ACTIVE",
    "inService": true,
    "licenseNumber": "550000746",
    "licenseEffectiveDate": "11/08/2025",
    "licenseExpirationDate": "11/07/2026",
    "dataDate": "10/18/2025",
    "capacity": 0,
    "address": "14595 OLYMPIC DR, UNIT C",
    "city": "CLEARLAKE",
    "zip": "95422",
    "county": "LAKE",
    "phone": null,
    "lat": 38.961603,
    "lng": -122.6400435
  },
  {
    "id": "630014829",
    "name": "PLANNED PARENTHOOD CLEARLAKE CENTER",
    "npi": "1801147707",
    "hcaiId": "306174014",
    "businessName": "PLANNED PARENTHOOD: SHASTA-DIABLO, INC.",
    "contactEmail": "JSCHULT@PPNORCAL.ORG",
    "categoryName": "PRIMARY CARE CLINIC",
    "categoryCode": "COMTYC",
    "licenseStatus": "ACTIVE",
    "inService": true,
    "licenseNumber": "550002643",
    "licenseEffectiveDate": "03/25/2025",
    "licenseExpirationDate": "03/24/2026",
    "dataDate": "10/18/2025",
    "capacity": 0,
    "address": "14671 OLYMPIC DR",
    "city": "CLEARLAKE",
    "zip": "95422",
    "county": "LAKE",
    "phone": "(510) 228-7788",
    "lat": 38.961747,
    "lng": -122.638239
  }
]