[
  {
    "id": "010000169",
    "name": "ADVENTIST HEALTH HOME CARE SERVICES",
    "npi": "1710932157",
    "hcaiId": "406234031",
    "businessName": "ADVENTIST HEALTH MENDOCINO COAST",
    "contactEmail": "CAUDILJ@AH.ORG",
    "categoryName": "HOME HEALTH AGENCY",
    "categoryCode": "HHA",
    "licenseStatus": "ACTIVE",
    "inService": true,
    "licenseNumber": "010000146",
    "licenseEffectiveDate": "06/04/2025",
    "licenseExpirationDate": "06/03/2026",
    "dataDate": "10/18/2025",
    "capacity": 0,
    "address": "700 RIVER DR",
    "city": "FORT BRAGG",
    "zip": "95437",
    "county": "MENDOCINO",
    "phone": "(707) 961-4651",
    "lat": 39.43257067,
    "lng": -123.8007421
  },
  {
    "id": "110000023",
    "name": "ADVENTIST HEALTH MENDOCINO COAST",
    "npi": "1538113725",
    "hcaiId": "106231013",
    "businessName": "ADVENTIST HEALTH MENDOCINO COAST",
    "contactEmail": "SANDOVDE@AH.ORG",
    "categoryName": "GENERAL ACUTE CARE HOSPITAL",
    "categoryCode": "GACH",
    "licenseStatus": "ACTIVE",
    "inService": true,
    "licenseNumber": "110000040",
    "licenseEffectiveDate": "11/01/2025",
    "licenseExpirationDate": "10/31/2026",
    "dataDate": "10/18/2025",
    "capacity": 25,
    "address": "700 RIVER DR",
    "city": "FORT BRAGG",
    "zip": "95437",
    "county": "MENDOCINO",
    "phone": "(707) 467-5350",
    "lat": 39.43257067,
    "lng": -123.8007421
  },
  {
    "id": "110000713",
    "name": "ADVENTIST HEALTH MENDOCINO COAST",
    "npi": "1124220249",
    "hcaiId": null,
    "businessName": "ADVENTIST HEALTH MENDOCINO COAST",
    "contactEmail": null,
    "categoryName": "PRIMARY CARE CLINIC",
    "categoryCode": "RHC/OP",
    "licenseStatus": "ACTIVE",
    "inService": true,
    "licenseNumber": "110000040",
    "licenseEffectiveDate": "11/01/2025",
    "licenseExpirationDate": "10/31/2026",
    "dataDate": "10/18/2025",
    "capacity": 0,
    "address": "721 RIVER DR, SUITE A, B & C",
    "city": "FORT BRAGG",
    "zip": "95437",
    "county": "MENDOCINO",
    "phone": "(707) 964-0574",
    "lat": 39.43224704,
    "lng": -123.8014989
  },
  {
    "id": "110000770",
    "name": "ADVENTIST HEALTH UKIAH VALLEY",
    "npi": "1588095848",
    "hcaiId": null,
    "businessName": "UKIAH ADVENTIST HOSPITAL",
    "contactEmail": null,
    "categoryName": "PRIMARY CARE CLINIC",
    "categoryCode": "RHC/OP",
    "licenseStatus": "ACTIVE",
    "inService": true,
    "licenseNumber": "110000095",
    "licenseEffectiveDate": "03/03/2025",
    "licenseExpirationDate": "03/02/2026",
    "dataDate": "10/18/2025",
    "capacity": 0,
    "address": "850 SEQUOIA CIR",
    "city": "FORT BRAGG",
    "zip": "95437",
    "county": "MENDOCINO",
    "phone": "(707) 964-0259",
    "lat": 39.430368,
    "lng": -123.8018895
  },
  {
    "id": "630010968",
    "name": "FORT BRAGG DIALYSIS - DCI",
    "npi": "1700807708",
    "hcaiId": "306234030",
    "businessName": "DIALYSIS CLINIC, INC.",
    "contactEmail": "PAMELA.WHITEMAN@DCIINC.ORG",
    "categoryName": "CHRONIC DIALYSIS CLINIC",
    "categoryCode": "ESRD/CDC",
    "licenseStatus": "ACTIVE",
    "inService": true,
    "licenseNumber": "550000350",
    "licenseEffectiveDate": "05/01/2025",
    "licenseExpirationDate": "04/30/2026",
    "dataDate": "10/18/2025",
    "capacity": 10,
    "address": "512 CYPRESS ST",
    "city": "FORT BRAGG",
    "zip": "95437",
    "county": "MENDOCINO",
    "phone": "(707) 964-1610",
    "lat": 39.432177,
    "lng": -123.7984515
  },
  {
    "id": "630025253",
    "name": "MCC GOES TO SCHOOL",
    "npi": null,
    "hcaiId": null,
    "businessName": "MENDOCINO COAST CLINICS, INC.",
    "contactEmail": null,
    "categoryName": "PRIMARY CARE CLINIC",
    "categoryCode": "COMTYC",
    "licenseStatus": "ACTIVE",
    "inService": true,
    "licenseNumber": "550000189",
    "licenseEffectiveDate": "12/05/2024",
    "licenseExpirationDate": "12/04/2025",
    "dataDate": "10/18/2025",
    "capacity": 0,
    "address": "208 DANA ST",
    "city": "FORT BRAGG",
    "zip": "95437",
    "county": "MENDOCINO",
    "phone": null,
    "lat": 39.43977457,
    "lng": -123.7885749
  },
  {
    "id": "630027141",
    "name": "MENDOCINO COAST CLINICS MEDICATION ASSISTED TREATMENT AND SUPPORT PROGRAM",
    "npi": null,
    "hcaiId": null,
    "businessName": "MENDOCINO COAST CLINICS, INC.",
    "contactEmail": "LRENTERIA@MCCINC.ORG",
    "categoryName": "PRIMARY CARE CLINIC",
    "categoryCode": "COMTYC",
    "licenseStatus": "ACTIVE",
    "inService": true,
    "licenseNumber": "110000179",
    "licenseEffectiveDate": "11/13/2024",
    "licenseExpirationDate": "11/12/2025",
    "dataDate": "10/18/2025",
    "capacity": 0,
    "address": "690 S MAIN ST",
    "city": "FORT BRAGG",
    "zip": "95437",
    "county": "MENDOCINO",
    "phone": "(707) 961-3433",
    "lat": 39.432866,
    "lng": -123.805716
  },
  {
    "id": "630013074",
    "name": "MENDOCINO COAST CLINICS PEDIATRIC GROUP",
    "npi": "1326335464",
    "hcaiId": "306234037",
    "businessName": "MENDOCINO COAST CLINICS, INC.",
    "contactEmail": "LRENTERIA@MCCINC.ORG",
    "categoryName": "PRIMARY CARE CLINIC",
    "categoryCode": "COMTYC",
    "licenseStatus": "ACTIVE",
    "inService": true,
    "licenseNumber": "550001569",
    "licenseEffectiveDate": "05/16/2025",
    "licenseExpirationDate": "05/15/2026",
    "dataDate": "10/18/2025",
    "capacity": 0,
    "address": "510-D CYPRESS STREET",
    "city": "FORT BRAGG",
    "zip": "95437",
    "county": "MENDOCINO",
    "phone": "(707) 964-5696",
    "lat": 39.432168,
    "lng": -123.79896
  },
  {
    "id": "110000381",
    "name": "MENDOCINO COAST CLINICS, INC.",
    "npi": null,
    "hcaiId": "306234003",
    "businessName": "MENDOCINO COAST CLINICS, INC.",
    "contactEmail": "LRENTERIA@MCCINC.ORG",
    "categoryName": "PRIMARY CARE CLINIC",
    "categoryCode": "COMTYC",
    "licenseStatus": "ACTIVE",
    "inService": true,
    "licenseNumber": "110000179",
    "licenseEffectiveDate": "11/13/2024",
    "licenseExpirationDate": "11/12/2025",
    "dataDate": "10/18/2025",
    "capacity": 0,
    "address": "205 SOUTH ST",
    "city": "FORT BRAGG",
    "zip": "95437",
    "county": "MENDOCINO",
    "phone": "(707) 964-1251",
    "lat": 39.430467,
    "lng": -123.8031405
  },
  {
    "id": "630008961",
    "name": "MENDOCINO COAST CLINICS, INC.",
    "npi": null,
    "hcaiId": "306234029",
    "businessName": "MENDOCINO COAST CLINICS, INC.",
    "contactEmail": "LRENTERIA@MCCINC.ORG",
    "categoryName": "PRIMARY CARE CLINIC",
    "categoryCode": "COMTYC",
    "licenseStatus": "ACTIVE",
    "inService": true,
    "licenseNumber": "550000189",
    "licenseEffectiveDate": "12/05/2024",
    "licenseExpirationDate": "12/04/2025",
    "dataDate": "10/18/2025",
    "capacity": 0,
    "address": "855 SEQUOIA CIR",
    "city": "FORT BRAGG",
    "zip": "95437",
    "county": "MENDOCINO",
    "phone": "(707) 964-1251",
    "lat": 39.430134,
    "lng": -123.802452
  },
  {
    "id": "630018235",
    "name": "MENDOCINO COAST CLINICS, INC. - FAMILY WELLNESS CENTER",
    "npi": null,
    "hcaiId": null,
    "businessName": "MENDOCINO COAST CLINICS, INC.",
    "contactEmail": null,
    "categoryName": "PRIMARY CARE CLINIC",
    "categoryCode": "FQHC/COMTYC",
    "licenseStatus": "ACTIVE",
    "inService": true,
    "licenseNumber": "550000189",
    "licenseEffectiveDate": "12/05/2024",
    "licenseExpirationDate": "12/04/2025",
    "dataDate": "10/18/2025",
    "capacity": 0,
    "address": "510 CYPRESS ST, SUITE C-100",
    "city": "FORT BRAGG",
    "zip": "95437",
    "county": "MENDOCINO",
    "phone": null,
    "lat": 39.432168,
    "lng": -123.79896
  },
  {
    "id": "630025252",
    "name": "MENDOCINO COAST STREET MEDICINE PROJECT",
    "npi": null,
    "hcaiId": null,
    "businessName": "MENDOCINO COAST CLINICS, INC.",
    "contactEmail": null,
    "categoryName": "PRIMARY CARE CLINIC",
    "categoryCode": "COMTYC",
    "licenseStatus": "ACTIVE",
    "inService": true,
    "licenseNumber": "110000179",
    "licenseEffectiveDate": "11/13/2024",
    "licenseExpirationDate": "11/12/2025",
    "dataDate": "10/18/2025",
    "capacity": 0,
    "address": "101 N FRANKLIN ST",
    "city": "FORT BRAGG",
    "zip": "95437",
    "county": "MENDOCINO",
    "phone": null,
    "lat": 39.441933,
    "lng": -123.804918
  },
  {
    "id": "010000885",
    "name": "PACIFIC MEDICAL RESOURCES, INC.",
    "npi": null,
    "hcaiId": "406234022",
    "businessName": "PACIFIC MEDICAL RESOURCES, INC.",
    "contactEmail": "PMRADMIN@PACIFICMR.COM",
    "categoryName": "HOME HEALTH AGENCY",
    "categoryCode": "HHA",
    "licenseStatus": "ACTIVE",
    "inService": true,
    "licenseNumber": "010000339",
    "licenseEffectiveDate": "05/19/2025",
    "licenseExpirationDate": "05/18/2026",
    "dataDate": "10/18/2025",
    "capacity": 0,
    "address": "155 CYPRESS ST, UNIT C",
    "city": "FORT BRAGG",
    "zip": "95437",
    "county": "MENDOCINO",
    "phone": "(707) 972-8330",
    "lat": 39.43264421,
    "lng": -123.8052496
  },
  {
    "id": "010000062",
    "name": "SHERWOOD OAKS POST ACUTE CARE, LLC",
    "npi": "1386602613",
    "hcaiId": "206231007",
    "businessName": "SHERWOOD OAKS POST ACUTE CARE, LLC",
    "contactEmail": "LUCYQX@SERENETHOSCARE.COM",
    "categoryName": "SKILLED NURSING FACILITY",
    "categoryCode": "SNF",
    "licenseStatus": "ACTIVE",
    "inService": true,
    "licenseNumber": "010000036",
    "licenseEffectiveDate": "12/01/2024",
    "licenseExpirationDate": "11/30/2025",
    "dataDate": "10/18/2025",
    "capacity": 79,
    "address": "130 DANA ST",
    "city": "FORT BRAGG",
    "zip": "95437",
    "county": "MENDOCINO",
    "phone": "(510) 962-8298",
    "lat": 39.441168,
    "lng": -123.7879215
  }
]