[
  {
    "id": "110000138",
    "name": "ALLIANCE MEDICAL CENTER",
    "npi": null,
    "hcaiId": "306491404",
    "businessName": "ALLIANCE MEDICAL CENTER",
    "contactEmail": "SLABBE@ALLIANCEMED.ORG",
    "categoryName": "PRIMARY CARE CLINIC",
    "categoryCode": "COMTYC",
    "licenseStatus": "ACTIVE",
    "inService": true,
    "licenseNumber": "110000096",
    "licenseEffectiveDate": "11/23/2024",
    "licenseExpirationDate": "11/22/2025",
    "dataDate": "10/18/2025",
    "capacity": 0,
    "address": "1381 UNIVERSITY ST",
    "city": "HEALDSBURG",
    "zip": "95448",
    "county": "SONOMA",
    "phone": "(707) 480-3898",
    "lat": 38.62774182,
    "lng": -122.8637959
  },
  {
    "id": "630028464",
    "name": "ALLIANCE MEDICAL CENTER - COMPREHENSIVE WELLNESS CENTER",
    "npi": null,
    "hcaiId": null,
    "businessName": "ALLIANCE MEDICAL CENTER",
    "contactEmail": null,
    "categoryName": "PRIMARY CARE CLINIC",
    "categoryCode": "COMTYC",
    "licenseStatus": "ACTIVE",
    "inService": true,
    "licenseNumber": "110000096",
    "licenseEffectiveDate": "11/23/2024",
    "licenseExpirationDate": "11/22/2025",
    "dataDate": "10/18/2025",
    "capacity": 0,
    "address": "1557 HEALDSBURG AVE, SUITE 15 & 16",
    "city": "HEALDSBURG",
    "zip": "95448",
    "county": "SONOMA",
    "phone": null,
    "lat": 38.63283157,
    "lng": -122.8739739
  },
  {
    "id": "630027887",
    "name": "ALLIANCE MEDICAL CENTER - MOBILE VISION CLINIC",
    "npi": null,
    "hcaiId": null,
    "businessName": "ALLIANCE MEDICAL CENTER",
    "contactEmail": null,
    "categoryName": "PRIMARY CARE CLINIC",
    "categoryCode": "FQHC/COMTYC",
    "licenseStatus": "ACTIVE",
    "inService": true,
    "licenseNumber": "110000096",
    "licenseEffectiveDate": "11/23/2024",
    "licenseExpirationDate": "11/22/2025",
    "dataDate": "10/18/2025",
    "capacity": 0,
    "address": "1381 UNIVERSITY ST",
    "city": "HEALDSBURG",
    "zip": "95448",
    "county": "SONOMA",
    "phone": null,
    "lat": 38.62732701,
    "lng": -122.865443
  },
  {
    "id": "110000009",
    "name": "HEALDSBURG HOSPITAL",
    "npi": "1861009672",
    "hcaiId": "106490964",
    "businessName": "NORCAL HEALTHCONNECT, LLC",
    "contactEmail": "AARON.THORNE@PROVIDENCE.ORG",
    "categoryName": "GENERAL ACUTE CARE HOSPITAL",
    "categoryCode": "GACH",
    "licenseStatus": "ACTIVE",
    "inService": true,
    "licenseNumber": "110000019",
    "licenseEffectiveDate": "04/01/2025",
    "licenseExpirationDate": "03/31/2026",
    "dataDate": "10/18/2025",
    "capacity": 21,
    "address": "1375 UNIVERSITY AVE",
    "city": "HEALDSBURG",
    "zip": "95448",
    "county": "SONOMA",
    "phone": "(805) 471-0155",
    "lat": 38.627093,
    "lng": -122.8665138
  },
  {
    "id": "110000702",
    "name": "HEALDSBURG HOSPITAL D/P SNF",
    "npi": "1205443025",
    "hcaiId": null,
    "businessName": "NORCAL HEALTHCONNECT, LLC",
    "contactEmail": "CELIA.PALACIO@PROVIDENCE.ORG",
    "categoryName": "SKILLED NURSING FACILITY",
    "categoryCode": "SNF",
    "licenseStatus": "ACTIVE",
    "inService": true,
    "licenseNumber": "110000019",
    "licenseEffectiveDate": "04/01/2025",
    "licenseExpirationDate": "03/31/2026",
    "dataDate": "10/18/2025",
    "capacity": 17,
    "address": "1375 UNIVERSITY ST",
    "city": "HEALDSBURG",
    "zip": "95448",
    "county": "SONOMA",
    "phone": "(707) 431-6500",
    "lat": 38.627037,
    "lng": -122.864553
  }
]