[
  {
    "id": "110000618",
    "name": "ADVENTIST HEALTH CLEARLAKE",
    "npi": "1417027095",
    "hcaiId": null,
    "businessName": "ADVENTIST HEALTH CLEARLAKE HOSPITAL, INC.",
    "contactEmail": null,
    "categoryName": "PRIMARY CARE CLINIC",
    "categoryCode": "RHC/OP",
    "licenseStatus": "ACTIVE",
    "inService": true,
    "licenseNumber": "110000174",
    "licenseEffectiveDate": "11/01/2025",
    "licenseExpirationDate": "10/31/2026",
    "dataDate": "10/18/2025",
    "capacity": 0,
    "address": "487 S MAIN ST",
    "city": "LAKEPORT",
    "zip": "95453",
    "county": "LAKE",
    "phone": "(707) 263-4631",
    "lat": 39.038742,
    "lng": -122.9157135
  },
  {
    "id": "630025997",
    "name": "ADVENTIST HEALTH CLEARLAKE",
    "npi": null,
    "hcaiId": null,
    "businessName": "ADVENTIST HEALTH CLEARLAKE HOSPITAL, INC.",
    "contactEmail": null,
    "categoryName": "PRIMARY CARE CLINIC",
    "categoryCode": "RHC",
    "licenseStatus": "ACTIVE",
    "inService": true,
    "licenseNumber": "110000174",
    "licenseEffectiveDate": "11/01/2025",
    "licenseExpirationDate": "10/31/2026",
    "dataDate": "10/18/2025",
    "capacity": 0,
    "address": "801 11TH ST",
    "city": "LAKEPORT",
    "zip": "95453",
    "county": "LAKE",
    "phone": null,
    "lat": 39.048741,
    "lng": -122.9217705
  },
  {
    "id": "100001724",
    "name": "HOSPICE SERVICES OF LAKE COUNTY",
    "npi": null,
    "hcaiId": "406174007",
    "businessName": "HOSPICE SERVICES OF LAKE COUNTY",
    "contactEmail": "SMCFARLAND@LAKECOUNTYHOSPICE.ORG",
    "categoryName": "HOSPICE",
    "categoryCode": "HOSPICE",
    "licenseStatus": "ACTIVE",
    "inService": true,
    "licenseNumber": "100000734",
    "licenseEffectiveDate": "06/01/2025",
    "licenseExpirationDate": "05/31/2027",
    "dataDate": "10/18/2025",
    "capacity": 0,
    "address": "1862 PARALLEL DR",
    "city": "LAKEPORT",
    "zip": "95453",
    "county": "LAKE",
    "phone": "(707) 263-6222",
    "lat": 39.028923,
    "lng": -122.9227065
  },
  {
    "id": "110000737",
    "name": "LAKE COUNTY TRIBAL HEALTH CONSORTIUM",
    "npi": "1215327804",
    "hcaiId": "306174006",
    "businessName": "LAKE COUNTY TRIBAL HEALTH CONSORTIUM, INC.",
    "contactEmail": "ADMINRECEP@LCTHC.ORG",
    "categoryName": "PRIMARY CARE CLINIC",
    "categoryCode": "COMTYC",
    "licenseStatus": "ACTIVE",
    "inService": true,
    "licenseNumber": "110000289",
    "licenseEffectiveDate": "02/17/2025",
    "licenseExpirationDate": "02/16/2026",
    "dataDate": "10/18/2025",
    "capacity": 0,
    "address": "925 BEVINS CT",
    "city": "LAKEPORT",
    "zip": "95453",
    "county": "LAKE",
    "phone": "(707) 263-8382",
    "lat": 39.036699,
    "lng": -122.9224275
  },
  {
    "id": "630028424",
    "name": "LAKE COUNTY TRIBAL HEALTH MOBILE CLINIC #1",
    "npi": null,
    "hcaiId": null,
    "businessName": "LAKE COUNTY TRIBAL HEALTH CONSORTIUM, INC.",
    "contactEmail": null,
    "categoryName": "PRIMARY CARE CLINIC",
    "categoryCode": "COMTYC",
    "licenseStatus": "ACTIVE",
    "inService": true,
    "licenseNumber": "110000289",
    "licenseEffectiveDate": "02/17/2025",
    "licenseExpirationDate": "02/16/2026",
    "dataDate": "10/18/2025",
    "capacity": 0,
    "address": "925 BEVINS CT",
    "city": "LAKEPORT",
    "zip": "95453",
    "county": "LAKE",
    "phone": null,
    "lat": 39.03678985,
    "lng": -122.9221389
  },
  {
    "id": "630028425",
    "name": "LAKE COUNTY TRIBAL HEALTH MOBILE CLINIC #2",
    "npi": null,
    "hcaiId": null,
    "businessName": "LAKE COUNTY TRIBAL HEALTH CONSORTIUM, INC.",
    "contactEmail": null,
    "categoryName": "PRIMARY CARE CLINIC",
    "categoryCode": "COMTYC",
    "licenseStatus": "ACTIVE",
    "inService": true,
    "licenseNumber": "110000289",
    "licenseEffectiveDate": "02/17/2025",
    "licenseExpirationDate": "02/16/2026",
    "dataDate": "10/18/2025",
    "capacity": 0,
    "address": "925 BEVINS CT",
    "city": "LAKEPORT",
    "zip": "95453",
    "county": "LAKE",
    "phone": null,
    "lat": 39.03678985,
    "lng": -122.9221389
  },
  {
    "id": "110001147",
    "name": "LAKEPORT DIALYSIS CENTER",
    "npi": "1609835438",
    "hcaiId": "306170563",
    "businessName": "RENAL TREATMENT CENTERS - CALIFORNIA, INC.",
    "contactEmail": "CAL_C@DAVITA.COM",
    "categoryName": "CHRONIC DIALYSIS CLINIC",
    "categoryCode": "ESRD/CDC",
    "licenseStatus": "ACTIVE",
    "inService": true,
    "licenseNumber": "110000436",
    "licenseEffectiveDate": "12/01/2024",
    "licenseExpirationDate": "11/30/2025",
    "dataDate": "10/18/2025",
    "capacity": 23,
    "address": "244 PECKHAM CT",
    "city": "LAKEPORT",
    "zip": "95453",
    "county": "LAKE",
    "phone": "(707) 262-1349",
    "lat": 39.026052,
    "lng": -122.917239
  },
  {
    "id": "110001255",
    "name": "LAKEPORT POST ACUTE",
    "npi": "1932604048",
    "hcaiId": "206172313",
    "businessName": "LAKEPORT POST ACUTE, LLC",
    "contactEmail": "COBY.PLOEGER@PACS.COM",
    "categoryName": "SKILLED NURSING FACILITY",
    "categoryCode": "SNF",
    "licenseStatus": "ACTIVE",
    "inService": true,
    "licenseNumber": "110000512",
    "licenseEffectiveDate": "11/11/2024",
    "licenseExpirationDate": "11/10/2025",
    "dataDate": "10/18/2025",
    "capacity": 81,
    "address": "1291 CRAIG AVE",
    "city": "LAKEPORT",
    "zip": "95453",
    "county": "LAKE",
    "phone": "(707) 263-6382",
    "lat": 39.035034,
    "lng": -122.929848
  },
  {
    "id": "110000926",
    "name": "MENDOCINO COMMUNITY HEALTH CLINIC-LAKEVIEW HEALTH CENTER",
    "npi": "1770516304",
    "hcaiId": "306174009",
    "businessName": "MENDOCINO COMMUNITY HEALTH CLINIC, INC.",
    "contactEmail": "TWILLIAMS@MCHCINC.ORG",
    "categoryName": "PRIMARY CARE CLINIC",
    "categoryCode": "COMTYC",
    "licenseStatus": "ACTIVE",
    "inService": true,
    "licenseNumber": "110000350",
    "licenseEffectiveDate": "05/30/2025",
    "licenseExpirationDate": "05/29/2026",
    "dataDate": "10/18/2025",
    "capacity": 0,
    "address": "5335 LAKESHORE BLVD",
    "city": "LAKEPORT",
    "zip": "95453",
    "county": "LAKE",
    "phone": "(707) 472-4517",
    "lat": 39.105585,
    "lng": -122.903901
  },
  {
    "id": "110001248",
    "name": "ROCKY POINT CARE CENTER",
    "npi": "1942508171",
    "hcaiId": "206170997",
    "businessName": "WINDFLOWER HOLDINGS, LLC",
    "contactEmail": "RARMSTRONG@ROCKYPOINTCARECENTER.COM",
    "categoryName": "SKILLED NURSING FACILITY",
    "categoryCode": "SNF",
    "licenseStatus": "ACTIVE",
    "inService": true,
    "licenseNumber": "110000509",
    "licenseEffectiveDate": "12/07/2024",
    "licenseExpirationDate": "12/06/2025",
    "dataDate": "10/18/2025",
    "capacity": 90,
    "address": "625 16TH ST",
    "city": "LAKEPORT",
    "zip": "95453",
    "county": "LAKE",
    "phone": "(707) 263-6101",
    "lat": 39.052116,
    "lng": -122.9198535
  },
  {
    "id": "010000148",
    "name": "SUTTER CARE AT HOME",
    "npi": "1871734244",
    "hcaiId": "406172280",
    "businessName": "SUTTER VISITING NURSE ASSOCIATION AND HOSPICE",
    "contactEmail": "SVNAHREGULATORY@SUTTERHEALTH.ORG",
    "categoryName": "HOME HEALTH AGENCY",
    "categoryCode": "HHA",
    "licenseStatus": "ACTIVE",
    "inService": true,
    "licenseNumber": "010000118",
    "licenseEffectiveDate": "02/28/2025",
    "licenseExpirationDate": "02/27/2026",
    "dataDate": "10/18/2025",
    "capacity": 0,
    "address": "5196 HILL RD E, SUITE 204",
    "city": "LAKEPORT",
    "zip": "95453",
    "county": "LAKE",
    "phone": "(707) 263-7400",
    "lat": 39.10515847,
    "lng": -122.9081615
  },
  {
    "id": "630014668",
    "name": "SUTTER LAKESIDE COMMUNITY CLINIC",
    "npi": "1356779797",
    "hcaiId": "306174013",
    "businessName": "SUTTER BAY HOSPITALS",
    "contactEmail": "TIMOTHY.STEPHENS@SUTTERHEALTH.ORG",
    "categoryName": "PRIMARY CARE CLINIC",
    "categoryCode": "RHC/COMTYC",
    "licenseStatus": "ACTIVE",
    "inService": true,
    "licenseNumber": "550002629",
    "licenseEffectiveDate": "03/20/2025",
    "licenseExpirationDate": "03/19/2026",
    "dataDate": "10/18/2025",
    "capacity": 0,
    "address": "5196 HILL RD E, SUITE 300",
    "city": "LAKEPORT",
    "zip": "95453",
    "county": "LAKE",
    "phone": "(707) 262-5002",
    "lat": 39.10515847,
    "lng": -122.9081615
  },
  {
    "id": "110000019",
    "name": "SUTTER LAKESIDE HOSPITAL",
    "npi": "1952634008",
    "hcaiId": "106171395",
    "businessName": "SUTTER BAY HOSPITALS",
    "contactEmail": "TIMOTHY.STEPHENS@SUTTERHEALTH.ORG",
    "categoryName": "GENERAL ACUTE CARE HOSPITAL",
    "categoryCode": "GACH",
    "licenseStatus": "ACTIVE",
    "inService": true,
    "licenseNumber": "110000094",
    "licenseEffectiveDate": "09/06/2025",
    "licenseExpirationDate": "12/31/2025",
    "dataDate": "10/18/2025",
    "capacity": 27,
    "address": "5176 HILL RD E",
    "city": "LAKEPORT",
    "zip": "95453",
    "county": "LAKE",
    "phone": "(707) 262-5005",
    "lat": 39.104802,
    "lng": -122.907204
  },
  {
    "id": "110000840",
    "name": "SUTTER LAKESIDE MEDICAL PRACTICE",
    "npi": "1770816829",
    "hcaiId": null,
    "businessName": "SUTTER BAY HOSPITALS",
    "contactEmail": null,
    "categoryName": "PRIMARY CARE CLINIC",
    "categoryCode": "RHC/OP",
    "licenseStatus": "ACTIVE",
    "inService": true,
    "licenseNumber": "110000094",
    "licenseEffectiveDate": "09/06/2025",
    "licenseExpirationDate": "12/31/2025",
    "dataDate": "10/18/2025",
    "capacity": 0,
    "address": "987 PARALLEL DR, SUITE C",
    "city": "LAKEPORT",
    "zip": "95453",
    "county": "LAKE",
    "phone": null,
    "lat": 39.035295,
    "lng": -122.9277195
  },
  {
    "id": "630015870",
    "name": "TRIBAL HEALTH PEDIATRICS",
    "npi": null,
    "hcaiId": "306174015",
    "businessName": "LAKE COUNTY TRIBAL HEALTH CONSORTIUM, INC.",
    "contactEmail": "EPADILLA@LCTHC.ORG",
    "categoryName": "PRIMARY CARE CLINIC",
    "categoryCode": "COMTYC",
    "licenseStatus": "ACTIVE",
    "inService": false,
    "licenseNumber": "550003047",
    "licenseEffectiveDate": "04/23/2025",
    "licenseExpirationDate": "04/22/2026",
    "dataDate": "10/18/2025",
    "capacity": 0,
    "address": "359 LAKEPORT BOULEVARD",
    "city": "LAKEPORT",
    "zip": "95453",
    "county": "LAKE",
    "phone": "(707) 263-8382",
    "lat": 39.03456226,
    "lng": -122.9181729
  }
]