[
  {
    "id": "010000066",
    "name": "BROADWAY VILLA POST ACUTE",
    "npi": "1871594614",
    "hcaiId": "206491017",
    "businessName": "ENSIGN SONOMA LLC",
    "contactEmail": "RENEWALS@ENSIGNSERVICES.NET",
    "categoryName": "SKILLED NURSING FACILITY",
    "categoryCode": "SNF",
    "licenseStatus": "ACTIVE",
    "inService": true,
    "licenseNumber": "010000158",
    "licenseEffectiveDate": "07/23/2025",
    "licenseExpirationDate": "05/15/2026",
    "dataDate": "10/18/2025",
    "capacity": 144,
    "address": "1250 BROADWAY",
    "city": "SONOMA",
    "zip": "95476",
    "county": "SONOMA",
    "phone": "(707) 938-8406",
    "lat": 38.27826,
    "lng": -122.458419
  },
  {
    "id": "010000465",
    "name": "BY THE BAY HEALTH",
    "npi": "1215411848",
    "hcaiId": "406494097",
    "businessName": "INCARE HOME CARE, LLC",
    "contactEmail": "JAWILSON@BYTHEBAYHEALTH.ORG",
    "categoryName": "HOME HEALTH AGENCY",
    "categoryCode": "HHA",
    "licenseStatus": "ACTIVE",
    "inService": true,
    "licenseNumber": "010000200",
    "licenseEffectiveDate": "03/01/2025",
    "licenseExpirationDate": "02/28/2026",
    "dataDate": "10/18/2025",
    "capacity": 0,
    "address": "355 W NAPA ST, SUITE A",
    "city": "SONOMA",
    "zip": "95476",
    "county": "SONOMA",
    "phone": "(888) 431-0858",
    "lat": 38.292291,
    "lng": -122.464836
  },
  {
    "id": "630011500",
    "name": "BY THE BAY HEALTH",
    "npi": null,
    "hcaiId": "406494110",
    "businessName": "BY THE BAY HEALTH",
    "contactEmail": "CMCINTYRE@HBTB.ORG",
    "categoryName": "HOSPICE",
    "categoryCode": "HOSPICE",
    "licenseStatus": "ACTIVE",
    "inService": true,
    "licenseNumber": "550001192",
    "licenseEffectiveDate": "12/05/2023",
    "licenseExpirationDate": "12/04/2025",
    "dataDate": "10/18/2025",
    "capacity": 0,
    "address": "355 W NAPA ST, SUITE B",
    "city": "SONOMA",
    "zip": "95476",
    "county": "SONOMA",
    "phone": "(707) 935-7504",
    "lat": 38.292291,
    "lng": -122.464836
  },
  {
    "id": "010000431",
    "name": "PETALUMA ICF/DDH",
    "npi": "1265596373",
    "hcaiId": null,
    "businessName": "PETALUMA ICF/DDH, INC.",
    "contactEmail": "PETALUMA_ICFDDH@YAHOO.COM",
    "categoryName": "INTERMEDIATE CARE FACILITY-DD/H/N/CN/IID",
    "categoryCode": "ICFDDH",
    "licenseStatus": "ACTIVE",
    "inService": true,
    "licenseNumber": "010000191",
    "licenseEffectiveDate": "12/26/2024",
    "licenseExpirationDate": "12/25/2025",
    "dataDate": "10/18/2025",
    "capacity": 8,
    "address": "805 PETALUMA AVE",
    "city": "SONOMA",
    "zip": "95476",
    "county": "SONOMA",
    "phone": "(707) 938-9195",
    "lat": 38.292138,
    "lng": -122.48496
  },
  {
    "id": "010000034",
    "name": "SONOMA POST ACUTE",
    "npi": "1184670697",
    "hcaiId": "206491001",
    "businessName": "SONOMAIDENCE OPCO, LLC",
    "contactEmail": "REGULATORY@PACS.COM",
    "categoryName": "SKILLED NURSING FACILITY",
    "categoryCode": "SNF",
    "licenseStatus": "ACTIVE",
    "inService": true,
    "licenseNumber": "010000030",
    "licenseEffectiveDate": "06/01/2025",
    "licenseExpirationDate": "05/31/2026",
    "dataDate": "10/18/2025",
    "capacity": 83,
    "address": "678 2ND ST W",
    "city": "SONOMA",
    "zip": "95476",
    "county": "SONOMA",
    "phone": "(707) 938-1096",
    "lat": 38.289087,
    "lng": -122.4610785
  },
  {
    "id": "110000635",
    "name": "SONOMA VALLEY COMMUNITY HEALTH CENTER",
    "npi": "1770669715",
    "hcaiId": "306494131",
    "businessName": "SONOMA VALLEY COMMUNITY HEALTH CENTER",
    "contactEmail": "ANNEX@SVCHC.ORG",
    "categoryName": "PRIMARY CARE CLINIC",
    "categoryCode": "COMTYC",
    "licenseStatus": "ACTIVE",
    "inService": true,
    "licenseNumber": "110000251",
    "licenseEffectiveDate": "11/10/2025",
    "licenseExpirationDate": "11/09/2026",
    "dataDate": "10/18/2025",
    "capacity": 0,
    "address": "19270 SONOMA HIGHWAY",
    "city": "SONOMA",
    "zip": "95476",
    "county": "SONOMA",
    "phone": "(707) 939-6070",
    "lat": 38.29855953,
    "lng": -122.4751844
  },
  {
    "id": "110000056",
    "name": "SONOMA VALLEY HOSPITAL",
    "npi": "1710063870",
    "hcaiId": "106491076",
    "businessName": "SONOMA VALLEY HEALTH CARE DISTRICT",
    "contactEmail": "MJERVAN@SONOMAVALLEYHOSPITAL.ORG",
    "categoryName": "GENERAL ACUTE CARE HOSPITAL",
    "categoryCode": "GACH",
    "licenseStatus": "ACTIVE",
    "inService": true,
    "licenseNumber": "110000072",
    "licenseEffectiveDate": "11/01/2025",
    "licenseExpirationDate": "10/31/2026",
    "dataDate": "10/18/2025",
    "capacity": 24,
    "address": "347 ANDRIEUX ST",
    "city": "SONOMA",
    "zip": "95476",
    "county": "SONOMA",
    "phone": "(707) 935-5005",
    "lat": 38.288097,
    "lng": -122.4651825
  },
  {
    "id": "630019736",
    "name": "SVCHC AT HANNA BOYS CENTER",
    "npi": "1770669715",
    "hcaiId": null,
    "businessName": "SONOMA VALLEY COMMUNITY HEALTH CENTER",
    "contactEmail": null,
    "categoryName": "PRIMARY CARE CLINIC",
    "categoryCode": "COMTYC",
    "licenseStatus": "ACTIVE",
    "inService": true,
    "licenseNumber": "110000251",
    "licenseEffectiveDate": "11/10/2025",
    "licenseExpirationDate": "11/09/2026",
    "dataDate": "10/18/2025",
    "capacity": 0,
    "address": "17000 ARNOLD DR, BUILDING HEALTH CENTER",
    "city": "SONOMA",
    "zip": "95476",
    "county": "SONOMA",
    "phone": null,
    "lat": 38.320794,
    "lng": -122.5059885
  },
  {
    "id": "630019735",
    "name": "SVCHC ON WEST NAPA STREET",
    "npi": "1770669715",
    "hcaiId": null,
    "businessName": "SONOMA VALLEY COMMUNITY HEALTH CENTER",
    "contactEmail": null,
    "categoryName": "PRIMARY CARE CLINIC",
    "categoryCode": "COMTYC",
    "licenseStatus": "ACTIVE",
    "inService": true,
    "licenseNumber": "110000251",
    "licenseEffectiveDate": "11/10/2025",
    "licenseExpirationDate": "11/09/2026",
    "dataDate": "10/18/2025",
    "capacity": 0,
    "address": "462 W NAPA ST, SUITE A",
    "city": "SONOMA",
    "zip": "95476",
    "county": "SONOMA",
    "phone": null,
    "lat": 38.293092,
    "lng": -122.4670815
  },
  {
    "id": "630025131",
    "name": "SVCHC OPTOMETRY CENTER",
    "npi": "1770669715",
    "hcaiId": null,
    "businessName": "SONOMA VALLEY COMMUNITY HEALTH CENTER",
    "contactEmail": "CJOHNSON@SVCHC.ORG",
    "categoryName": "PRIMARY CARE CLINIC",
    "categoryCode": "COMTYC",
    "licenseStatus": "ACTIVE",
    "inService": true,
    "licenseNumber": "110000251",
    "licenseEffectiveDate": "11/10/2025",
    "licenseExpirationDate": "11/09/2026",
    "dataDate": "10/18/2025",
    "capacity": 0,
    "address": "19312 SONOMA HWY #A, SUITE B",
    "city": "SONOMA",
    "zip": "95476",
    "county": "SONOMA",
    "phone": "(707) 939-6075",
    "lat": 38.298141,
    "lng": -122.47461
  },
  {
    "id": "630027140",
    "name": "SVCHC ORTHOPEDIC CLINIC",
    "npi": "1770669715",
    "hcaiId": null,
    "businessName": "SONOMA VALLEY COMMUNITY HEALTH CENTER",
    "contactEmail": null,
    "categoryName": "PRIMARY CARE CLINIC",
    "categoryCode": "COMTYC",
    "licenseStatus": "ACTIVE",
    "inService": true,
    "licenseNumber": "110000251",
    "licenseEffectiveDate": "11/10/2025",
    "licenseExpirationDate": "11/09/2026",
    "dataDate": "10/18/2025",
    "capacity": 0,
    "address": "65 1ST ST W, SUITE M",
    "city": "SONOMA",
    "zip": "95476",
    "county": "SONOMA",
    "phone": null,
    "lat": 38.29972317,
    "lng": -122.4575464
  },
  {
    "id": "110000233",
    "name": "VALLEY OF THE MOON POST ACUTE",
    "npi": "1407938574",
    "hcaiId": null,
    "businessName": "SONOMA VALLEY HEALTH CARE DISTRICT",
    "contactEmail": "FAC_VALLEYOFTHEMOON-ED@ENSIGNSERVICES.NET",
    "categoryName": "SKILLED NURSING FACILITY",
    "categoryCode": "SNF",
    "licenseStatus": "ACTIVE",
    "inService": true,
    "licenseNumber": "110000072",
    "licenseEffectiveDate": "11/01/2025",
    "licenseExpirationDate": "10/31/2026",
    "dataDate": "10/18/2025",
    "capacity": 27,
    "address": "347 ANDRIEUX ST",
    "city": "SONOMA",
    "zip": "95476",
    "county": "SONOMA",
    "phone": "(707) 935-5000",
    "lat": 38.288097,
    "lng": -122.4651825
  }
]