[
  {
    "id": "010000026",
    "name": "APPLE VALLEY POST-ACUTE REHAB",
    "npi": "1114902616",
    "hcaiId": "206490956",
    "businessName": "A.V.C.H., INC. DBA APPLE VALLEY POST-ACUTE REHAB",
    "contactEmail": "BMARSHALL@APPLEVALLEYREHAB.COM",
    "categoryName": "SKILLED NURSING FACILITY",
    "categoryCode": "SNF",
    "licenseStatus": "ACTIVE",
    "inService": true,
    "licenseNumber": "010000016",
    "licenseEffectiveDate": "11/21/2024",
    "licenseExpirationDate": "11/20/2025",
    "dataDate": "10/18/2025",
    "capacity": 95,
    "address": "1035 GRAVENSTEIN AVE",
    "city": "SEBASTOPOL",
    "zip": "95472",
    "county": "SONOMA",
    "phone": "(707) 823-7675",
    "lat": 38.38950729,
    "lng": -122.8154125
  },
  {
    "id": "630015727",
    "name": "GRAVENSTEIN COMMUNITY HEALTH CENTER",
    "npi": "1861809501",
    "hcaiId": "306494132",
    "businessName": "WEST COUNTY HEALTH CENTERS, INC.",
    "contactEmail": "KMITCHELL@WCHEALTH.ORG",
    "categoryName": "PRIMARY CARE CLINIC",
    "categoryCode": "COMTYC",
    "licenseStatus": "ACTIVE",
    "inService": true,
    "licenseNumber": "110000063",
    "licenseEffectiveDate": "05/04/2025",
    "licenseExpirationDate": "05/03/2026",
    "dataDate": "10/18/2025",
    "capacity": 0,
    "address": "652 PETALUMA AVENUE, SUITE H",
    "city": "SEBASTOPOL",
    "zip": "95472",
    "county": "SONOMA",
    "phone": "(707) 869-5977",
    "lat": 38.39635757,
    "lng": -122.8199989
  },
  {
    "id": "630026829",
    "name": "GRAVENSTEIN SOUTH",
    "npi": null,
    "hcaiId": null,
    "businessName": "WEST COUNTY HEALTH CENTERS, INC.",
    "contactEmail": null,
    "categoryName": "PRIMARY CARE CLINIC",
    "categoryCode": "COMTYC",
    "licenseStatus": "ACTIVE",
    "inService": true,
    "licenseNumber": "110000063",
    "licenseEffectiveDate": "05/04/2025",
    "licenseExpirationDate": "05/03/2026",
    "dataDate": "10/18/2025",
    "capacity": 0,
    "address": "652 PETALUMA AVE, SUITE C-F",
    "city": "SEBASTOPOL",
    "zip": "95472",
    "county": "SONOMA",
    "phone": null,
    "lat": 38.39635757,
    "lng": -122.8199989
  },
  {
    "id": "630026830",
    "name": "SCHOOL CLINIC SEBASTOPOL",
    "npi": null,
    "hcaiId": null,
    "businessName": "WEST COUNTY HEALTH CENTERS, INC.",
    "contactEmail": "JCUNNINGHAM@WCHEALTH.ORG",
    "categoryName": "PRIMARY CARE CLINIC",
    "categoryCode": "COMTYC",
    "licenseStatus": "ACTIVE",
    "inService": true,
    "licenseNumber": "110000063",
    "licenseEffectiveDate": "05/04/2025",
    "licenseExpirationDate": "05/03/2026",
    "dataDate": "10/18/2025",
    "capacity": 0,
    "address": "445 TAFT ST",
    "city": "SEBASTOPOL",
    "zip": "95472",
    "county": "SONOMA",
    "phone": "(707) 869-5977",
    "lat": 38.406294,
    "lng": -122.8229955
  },
  {
    "id": "110000397",
    "name": "SEBASTOPOL AMBULATORY SURGERY CENTER",
    "npi": null,
    "hcaiId": "306494006",
    "businessName": "THE SEBASTOPOL ASC, L.P.",
    "contactEmail": "DRLNG57@AOL.COM",
    "categoryName": "SURGICAL CLINIC",
    "categoryCode": "ASC",
    "licenseStatus": "INACTIVE - CAPEN DECISION",
    "inService": false,
    "licenseNumber": "110000189",
    "licenseEffectiveDate": "03/01/2008",
    "licenseExpirationDate": "02/28/2009",
    "dataDate": "10/18/2025",
    "capacity": 0,
    "address": "6880 PALM AVE",
    "city": "SEBASTOPOL",
    "zip": "95472",
    "county": "SONOMA",
    "phone": "(707) 823-7628",
    "lat": 38.396448,
    "lng": -122.8194
  },
  {
    "id": "630026828",
    "name": "SEBASTOPOL AREA HEALTH CENTER",
    "npi": null,
    "hcaiId": null,
    "businessName": "WEST COUNTY HEALTH CENTERS, INC.",
    "contactEmail": null,
    "categoryName": "PRIMARY CARE CLINIC",
    "categoryCode": "COMTYC",
    "licenseStatus": "ACTIVE",
    "inService": true,
    "licenseNumber": "110000063",
    "licenseEffectiveDate": "05/04/2025",
    "licenseExpirationDate": "05/03/2026",
    "dataDate": "10/18/2025",
    "capacity": 0,
    "address": "6800 PALM AVE, SUITE C AND C-2",
    "city": "SEBASTOPOL",
    "zip": "95472",
    "county": "SONOMA",
    "phone": null,
    "lat": 38.39679,
    "lng": -122.8181895
  },
  {
    "id": "630012145",
    "name": "SEBASTOPOL COMMUNITY HEALTH CENTER",
    "npi": null,
    "hcaiId": "306494107",
    "businessName": "WEST COUNTY HEALTH CENTERS, INC.",
    "contactEmail": "KMITCHELL@WCHEALTH.ORG",
    "categoryName": "PRIMARY CARE CLINIC",
    "categoryCode": "COMTYC",
    "licenseStatus": "ACTIVE",
    "inService": true,
    "licenseNumber": "110000063",
    "licenseEffectiveDate": "05/04/2025",
    "licenseExpirationDate": "05/03/2026",
    "dataDate": "10/18/2025",
    "capacity": 0,
    "address": "6800 PALM AVE, SUITE C",
    "city": "SEBASTOPOL",
    "zip": "95472",
    "county": "SONOMA",
    "phone": "(707) 869-5977",
    "lat": 38.39679,
    "lng": -122.8181895
  },
  {
    "id": "630015594",
    "name": "SEBASTOPOL COMMUNITY HEALTH CTR.-WEST",
    "npi": null,
    "hcaiId": null,
    "businessName": null,
    "contactEmail": null,
    "categoryName": "PRIMARY CARE CLINIC",
    "categoryCode": "FQHC",
    "licenseStatus": null,
    "inService": null,
    "licenseNumber": null,
    "licenseEffectiveDate": null,
    "licenseExpirationDate": null,
    "dataDate": "10/18/2025",
    "capacity": 0,
    "address": "652 PETALUMA AVENUE",
    "city": "SEBASTOPOL",
    "zip": "95472",
    "county": "SONOMA",
    "phone": null,
    "lat": 38.39635757,
    "lng": -122.8199989
  },
  {
    "id": "110000038",
    "name": "SONOMA SPECIALTY HOSPITAL",
    "npi": "1396205050",
    "hcaiId": "106491338",
    "businessName": "SONOMA SPECIALTY HOSPITAL, LLC",
    "contactEmail": "VIC.G@AMERICANAM.ORG",
    "categoryName": "GENERAL ACUTE CARE HOSPITAL",
    "categoryCode": "GACH",
    "licenseStatus": "ACTIVE",
    "inService": true,
    "licenseNumber": "110000091",
    "licenseEffectiveDate": "11/01/2025",
    "licenseExpirationDate": "10/31/2026",
    "dataDate": "10/18/2025",
    "capacity": 58,
    "address": "501 PETALUMA AVE",
    "city": "SEBASTOPOL",
    "zip": "95472",
    "county": "SONOMA",
    "phone": "(209) 404-2233",
    "lat": 38.397339,
    "lng": -122.8190805
  }
]