[
  {
    "id": "110000070",
    "name": "ADVENTIST HEALTH UKIAH VALLEY",
    "npi": "1235120676",
    "hcaiId": "106231396",
    "businessName": "UKIAH ADVENTIST HOSPITAL",
    "contactEmail": "SANDOVDE@AH.ORG",
    "categoryName": "GENERAL ACUTE CARE HOSPITAL",
    "categoryCode": "GACH",
    "licenseStatus": "ACTIVE",
    "inService": true,
    "licenseNumber": "110000095",
    "licenseEffectiveDate": "03/03/2025",
    "licenseExpirationDate": "03/02/2026",
    "dataDate": "10/18/2025",
    "capacity": 68,
    "address": "275 HOSPITAL DR",
    "city": "UKIAH",
    "zip": "95482",
    "county": "MENDOCINO",
    "phone": "(707) 462-3111",
    "lat": 39.15216,
    "lng": -123.2027415
  },
  {
    "id": "110000619",
    "name": "ADVENTIST HEALTH UKIAH VALLEY",
    "npi": "1770653362",
    "hcaiId": null,
    "businessName": "UKIAH ADVENTIST HOSPITAL",
    "contactEmail": null,
    "categoryName": "PRIMARY CARE CLINIC",
    "categoryCode": "RHC/OP",
    "licenseStatus": "ACTIVE",
    "inService": true,
    "licenseNumber": "110000095",
    "licenseEffectiveDate": "03/03/2025",
    "licenseExpirationDate": "03/02/2026",
    "dataDate": "10/18/2025",
    "capacity": 0,
    "address": "1050 N STATE ST",
    "city": "UKIAH",
    "zip": "95482",
    "county": "MENDOCINO",
    "phone": "(707) 468-1471",
    "lat": 39.162339,
    "lng": -123.2103105
  },
  {
    "id": "110000623",
    "name": "ADVENTIST HEALTH UKIAH VALLEY",
    "npi": "1952471542",
    "hcaiId": null,
    "businessName": "UKIAH ADVENTIST HOSPITAL",
    "contactEmail": null,
    "categoryName": "PRIMARY CARE CLINIC",
    "categoryCode": "RHC/OP",
    "licenseStatus": "ACTIVE",
    "inService": true,
    "licenseNumber": "110000095",
    "licenseEffectiveDate": "03/03/2025",
    "licenseExpirationDate": "03/02/2026",
    "dataDate": "10/18/2025",
    "capacity": 0,
    "address": "260 HOSPITAL DR, SUITE 101, 102, 103, 107, 204, & 209",
    "city": "UKIAH",
    "zip": "95482",
    "county": "MENDOCINO",
    "phone": "(707) 468-0491",
    "lat": 39.15378066,
    "lng": -123.2040468
  },
  {
    "id": "630005141",
    "name": "BUDDY ELLER HEALTH CENTER",
    "npi": null,
    "hcaiId": null,
    "businessName": null,
    "contactEmail": null,
    "categoryName": "OTHER",
    "categoryCode": "UNLICEN",
    "licenseStatus": null,
    "inService": null,
    "licenseNumber": null,
    "licenseEffectiveDate": null,
    "licenseExpirationDate": null,
    "dataDate": "10/18/2025",
    "capacity": 0,
    "address": "201 BRUSH ST",
    "city": "UKIAH",
    "zip": "95482",
    "county": "MENDOCINO",
    "phone": "(707) 273-3802",
    "lat": 39.15920529,
    "lng": -123.2057318
  },
  {
    "id": "110000196",
    "name": "COUNTY OF MENDOCINO FAMILY PLANNING PROJECT",
    "npi": null,
    "hcaiId": null,
    "businessName": null,
    "contactEmail": null,
    "categoryName": "PRIMARY CARE CLINIC",
    "categoryCode": "COMTYC",
    "licenseStatus": null,
    "inService": null,
    "licenseNumber": null,
    "licenseEffectiveDate": null,
    "licenseExpirationDate": null,
    "dataDate": "10/18/2025",
    "capacity": 0,
    "address": "1120 S DORA ST",
    "city": "UKIAH",
    "zip": "95482",
    "county": "MENDOCINO",
    "phone": "(707) 463-4471",
    "lat": 39.136122,
    "lng": -123.210828
  },
  {
    "id": "630013224",
    "name": "DIALYSIS CLINIC, INC. - UKIAH",
    "npi": "1336443282",
    "hcaiId": "306234039",
    "businessName": "DIALYSIS CLINIC, INC.",
    "contactEmail": "CLAY.MARTIN@DCIINC.ORG",
    "categoryName": "CHRONIC DIALYSIS CLINIC",
    "categoryCode": "ESRD/CDC",
    "licenseStatus": "ACTIVE",
    "inService": true,
    "licenseNumber": "550001695",
    "licenseEffectiveDate": "03/07/2025",
    "licenseExpirationDate": "03/06/2026",
    "dataDate": "10/18/2025",
    "capacity": 24,
    "address": "275 S ORCHARD AVE",
    "city": "UKIAH",
    "zip": "95482",
    "county": "MENDOCINO",
    "phone": "(707) 462-2024",
    "lat": 39.149208,
    "lng": -123.1977015
  },
  {
    "id": "630018355",
    "name": "DORA STREET HEALTH CENTER, SUITE A1",
    "npi": null,
    "hcaiId": null,
    "businessName": "MENDOCINO COMMUNITY HEALTH CLINIC, INC.",
    "contactEmail": null,
    "categoryName": "PRIMARY CARE CLINIC",
    "categoryCode": "COMTYC",
    "licenseStatus": "ACTIVE",
    "inService": true,
    "licenseNumber": "110000236",
    "licenseEffectiveDate": "04/14/2025",
    "licenseExpirationDate": "04/13/2026",
    "dataDate": "10/18/2025",
    "capacity": 0,
    "address": "1165 S DORA ST, SUITE A1",
    "city": "UKIAH",
    "zip": "95482",
    "county": "MENDOCINO",
    "phone": null,
    "lat": 39.13542,
    "lng": -123.209001
  },
  {
    "id": "630018379",
    "name": "DORA STREET HEALTH CENTER, SUITE B1",
    "npi": null,
    "hcaiId": null,
    "businessName": "MENDOCINO COMMUNITY HEALTH CLINIC, INC.",
    "contactEmail": null,
    "categoryName": "PRIMARY CARE CLINIC",
    "categoryCode": "COMTYC",
    "licenseStatus": "ACTIVE",
    "inService": true,
    "licenseNumber": "110000236",
    "licenseEffectiveDate": "04/14/2025",
    "licenseExpirationDate": "04/13/2026",
    "dataDate": "10/18/2025",
    "capacity": 0,
    "address": "1165 S DORA ST, SUITE B1",
    "city": "UKIAH",
    "zip": "95482",
    "county": "MENDOCINO",
    "phone": null,
    "lat": 39.13542,
    "lng": -123.209001
  },
  {
    "id": "630011699",
    "name": "MENDO LAKE WOMEN'S CLINIC",
    "npi": null,
    "hcaiId": "306234036",
    "businessName": "PREGNANCY COUNSELING CENTER OF UKIAH",
    "contactEmail": "ADMIN@MENDOLAKEWOMENSCLINIC.COM",
    "categoryName": "PRIMARY CARE CLINIC",
    "categoryCode": "FREEC",
    "licenseStatus": "ACTIVE",
    "inService": true,
    "licenseNumber": "550000746",
    "licenseEffectiveDate": "11/08/2025",
    "licenseExpirationDate": "11/07/2026",
    "dataDate": "10/18/2025",
    "capacity": 0,
    "address": "425 S ORCHARD AVE, SUITE D",
    "city": "UKIAH",
    "zip": "95482",
    "county": "MENDOCINO",
    "phone": "(707) 463-1436",
    "lat": 39.148371,
    "lng": -123.1983315
  },
  {
    "id": "110000608",
    "name": "MENDOCINO COMMUNITY HEALTH CLINIC, INC.",
    "npi": null,
    "hcaiId": "306234011",
    "businessName": "MENDOCINO COMMUNITY HEALTH CLINIC, INC.",
    "contactEmail": "TWILLIAMS@MCHCINC.ORG",
    "categoryName": "PRIMARY CARE CLINIC",
    "categoryCode": "COMTYC",
    "licenseStatus": "ACTIVE",
    "inService": true,
    "licenseNumber": "110000236",
    "licenseEffectiveDate": "04/14/2025",
    "licenseExpirationDate": "04/13/2026",
    "dataDate": "10/18/2025",
    "capacity": 0,
    "address": "333 LAWS AVE",
    "city": "UKIAH",
    "zip": "95482",
    "county": "MENDOCINO",
    "phone": "(707) 472-4620",
    "lat": 39.127734,
    "lng": -123.2118315
  },
  {
    "id": "630013841",
    "name": "PLANNED PARENTHOOD UKIAH",
    "npi": "1962796268",
    "hcaiId": "306234040",
    "businessName": "PLANNED PARENTHOOD: SHASTA-DIABLO, INC.",
    "contactEmail": "HESTES@PP-SP.ORG",
    "categoryName": "PRIMARY CARE CLINIC",
    "categoryCode": "COMTYC",
    "licenseStatus": "ACTIVE",
    "inService": true,
    "licenseNumber": "550001568",
    "licenseEffectiveDate": "04/11/2025",
    "licenseExpirationDate": "04/10/2026",
    "dataDate": "10/18/2025",
    "capacity": 0,
    "address": "242-A HOSPITAL DR",
    "city": "UKIAH",
    "zip": "95482",
    "county": "MENDOCINO",
    "phone": "(707) 462-4303",
    "lat": 39.152529,
    "lng": -123.20388
  },
  {
    "id": "010000082",
    "name": "REDWOOD COVE HEALTHCARE CENTER",
    "npi": "1871891002",
    "hcaiId": "206230938",
    "businessName": "NIGHTSHADE HOLDINGS, LLC",
    "contactEmail": "COBY.PLOEGER@PACS.COM",
    "categoryName": "SKILLED NURSING FACILITY",
    "categoryCode": "SNF",
    "licenseStatus": "ACTIVE",
    "inService": true,
    "licenseNumber": "010000080",
    "licenseEffectiveDate": "12/07/2024",
    "licenseExpirationDate": "12/06/2025",
    "dataDate": "10/18/2025",
    "capacity": 68,
    "address": "1162 S DORA ST",
    "city": "UKIAH",
    "zip": "95482",
    "county": "MENDOCINO",
    "phone": "(507) 215-2531",
    "lat": 39.13524,
    "lng": -123.2101485
  },
  {
    "id": "110000633",
    "name": "ROBERT B. RUSHTON, M.D. MEDICAL CLINIC",
    "npi": null,
    "hcaiId": null,
    "businessName": null,
    "contactEmail": null,
    "categoryName": "PRIMARY CARE CLINIC",
    "categoryCode": "RHC/MD",
    "licenseStatus": null,
    "inService": null,
    "licenseNumber": null,
    "licenseEffectiveDate": null,
    "licenseExpirationDate": null,
    "dataDate": "10/18/2025",
    "capacity": 0,
    "address": "844 S DORA ST",
    "city": "UKIAH",
    "zip": "95482",
    "county": "MENDOCINO",
    "phone": "(707) 462-8603",
    "lat": 39.140271,
    "lng": -123.210522
  },
  {
    "id": "010000080",
    "name": "UKIAH POST ACUTE",
    "npi": "1649222506",
    "hcaiId": "206231091",
    "businessName": "ENSIGN PLEASANTON LLC",
    "contactEmail": "MAFERRER@ENSIGNSERVICES.NET",
    "categoryName": "SKILLED NURSING FACILITY",
    "categoryCode": "SNF",
    "licenseStatus": "ACTIVE",
    "inService": true,
    "licenseNumber": "010000159",
    "licenseEffectiveDate": "02/01/2025",
    "licenseExpirationDate": "01/31/2026",
    "dataDate": "10/18/2025",
    "capacity": 54,
    "address": "1349 S DORA ST",
    "city": "UKIAH",
    "zip": "95482",
    "county": "MENDOCINO",
    "phone": "(707) 462-8864",
    "lat": 39.130182,
    "lng": -123.2081595
  },
  {
    "id": "630027790",
    "name": "YOKAYA HOMEHEALTH LLC",
    "npi": null,
    "hcaiId": null,
    "businessName": "YOKAYA HOMEHEALTH LLC",
    "contactEmail": "CHACORDERO@YAHOO.COM",
    "categoryName": "HOME HEALTH AGENCY",
    "categoryCode": "HHA",
    "licenseStatus": "ACTIVE",
    "inService": true,
    "licenseNumber": "550009997",
    "licenseEffectiveDate": "10/23/2025",
    "licenseExpirationDate": "04/22/2026",
    "dataDate": "10/18/2025",
    "capacity": 0,
    "address": "415 W PERKINS ST",
    "city": "UKIAH",
    "zip": "95482",
    "county": "MENDOCINO",
    "phone": "(707) 513-0365",
    "lat": 39.149263,
    "lng": -123.211219
  }
]