[
  {
    "id": "630012622",
    "name": "ALLIANCE MEDICAL CENTER - WINDSOR",
    "npi": "1710218409",
    "hcaiId": "306494115",
    "businessName": "ALLIANCE MEDICAL CENTER",
    "contactEmail": "SLABBE@ALLIANCEMED.ORG",
    "categoryName": "PRIMARY CARE CLINIC",
    "categoryCode": "COMTYC",
    "licenseStatus": "ACTIVE",
    "inService": true,
    "licenseNumber": "550001284",
    "licenseEffectiveDate": "04/28/2025",
    "licenseExpirationDate": "04/27/2026",
    "dataDate": "10/18/2025",
    "capacity": 0,
    "address": "8465 OLD REDWOOD HWY, SUITE 320",
    "city": "WINDSOR",
    "zip": "95492",
    "county": "SONOMA",
    "phone": "(707) 480-3898",
    "lat": 38.543148,
    "lng": -122.8016475
  },
  {
    "id": "630018271",
    "name": "ALLIANCE MEDICAL CENTER, INC. WINDSOR DENTAL",
    "npi": null,
    "hcaiId": null,
    "businessName": "ALLIANCE MEDICAL CENTER",
    "contactEmail": null,
    "categoryName": "PRIMARY CARE CLINIC",
    "categoryCode": "COMTYC",
    "licenseStatus": "ACTIVE",
    "inService": true,
    "licenseNumber": "110000096",
    "licenseEffectiveDate": "11/23/2024",
    "licenseExpirationDate": "11/22/2025",
    "dataDate": "10/18/2025",
    "capacity": 0,
    "address": "8499 OLD REDWOOD HWY, SUITE 111 & 112",
    "city": "WINDSOR",
    "zip": "95492",
    "county": "SONOMA",
    "phone": null,
    "lat": 38.543409,
    "lng": -122.801823
  },
  {
    "id": "630011477",
    "name": "PDI SURGERY CENTER",
    "npi": "1598993198",
    "hcaiId": "306494103",
    "businessName": "PEDIATRIC DENTAL INITIATIVE OF THE NORTH COAST, INC.",
    "contactEmail": "CORENA@PDISURGERYCENTER.ORG",
    "categoryName": "SURGICAL CLINIC",
    "categoryCode": "ASC/SURGC",
    "licenseStatus": "ACTIVE",
    "inService": true,
    "licenseNumber": "550000658",
    "licenseEffectiveDate": "03/01/2025",
    "licenseExpirationDate": "02/28/2026",
    "dataDate": "10/18/2025",
    "capacity": 0,
    "address": "1380 19TH HOLE DR",
    "city": "WINDSOR",
    "zip": "95492",
    "county": "SONOMA",
    "phone": "(707) 838-6560",
    "lat": 38.527074,
    "lng": -122.804613
  },
  {
    "id": "110001220",
    "name": "SATELLITE HEALTHCARE WINDSOR",
    "npi": "1548231095",
    "hcaiId": "306494124",
    "businessName": "SATELLITE DIALYSIS WINDSOR, LLC",
    "contactEmail": "BEASLAA@SATELLITEHEALTH.COM",
    "categoryName": "CHRONIC DIALYSIS CLINIC",
    "categoryCode": "ESRD/CDC",
    "licenseStatus": "ACTIVE",
    "inService": true,
    "licenseNumber": "110000494",
    "licenseEffectiveDate": "01/17/2025",
    "licenseExpirationDate": "01/16/2026",
    "dataDate": "10/18/2025",
    "capacity": 12,
    "address": "8911 LAKEWOOD DR, SUITE 16",
    "city": "WINDSOR",
    "zip": "95492",
    "county": "SONOMA",
    "phone": "(615) 330-4400",
    "lat": 38.55105,
    "lng": -122.8043025
  }
]