[
  {
    "id": "110000755",
    "name": "ADVENTIST HEALTH HOME CARE",
    "npi": "1811175110",
    "hcaiId": null,
    "businessName": "WESTERN HEALTH RESOURCES",
    "contactEmail": null,
    "categoryName": "HOSPICE",
    "categoryCode": "HOSPICE",
    "licenseStatus": "ACTIVE",
    "inService": true,
    "licenseNumber": "010000256",
    "licenseEffectiveDate": "11/23/2024",
    "licenseExpirationDate": "11/22/2025",
    "dataDate": "10/18/2025",
    "capacity": 0,
    "address": "100 SAN HEDRIN CIR",
    "city": "WILLITS",
    "zip": "95490",
    "county": "MENDOCINO",
    "phone": "(707) 459-1818",
    "lat": 39.390984,
    "lng": -123.337269
  },
  {
    "id": "010000654",
    "name": "ADVENTIST HEALTH HOME CARE SERVICES",
    "npi": "1467630764",
    "hcaiId": "406234033",
    "businessName": "WESTERN HEALTH RESOURCES",
    "contactEmail": "CAUDILJ@AH.ORG",
    "categoryName": "HOME HEALTH AGENCY",
    "categoryCode": "HHA",
    "licenseStatus": "ACTIVE",
    "inService": true,
    "licenseNumber": "010000256",
    "licenseEffectiveDate": "11/23/2024",
    "licenseExpirationDate": "11/22/2025",
    "dataDate": "10/18/2025",
    "capacity": 0,
    "address": "100 SAN HEDRIN CIR",
    "city": "WILLITS",
    "zip": "95490",
    "county": "MENDOCINO",
    "phone": "(707) 459-1818",
    "lat": 39.390984,
    "lng": -123.337269
  },
  {
    "id": "110000008",
    "name": "ADVENTIST HEALTH HOWARD MEMORIAL",
    "npi": "1356339543",
    "hcaiId": "106234038",
    "businessName": "WILLITS HOSPITAL INC.",
    "contactEmail": "SANDOVDE@AH.ORG",
    "categoryName": "GENERAL ACUTE CARE HOSPITAL",
    "categoryCode": "GACH",
    "licenseStatus": "ACTIVE",
    "inService": true,
    "licenseNumber": "110000013",
    "licenseEffectiveDate": "11/01/2025",
    "licenseExpirationDate": "10/31/2026",
    "dataDate": "10/18/2025",
    "capacity": 25,
    "address": "1 MARCELA DRIVE",
    "city": "WILLITS",
    "zip": "95490",
    "county": "MENDOCINO",
    "phone": "(707) 467-5351",
    "lat": 39.38992916,
    "lng": -123.3393592
  },
  {
    "id": "630015848",
    "name": "ADVENTIST HEALTH HOWARD MEMORIAL",
    "npi": "1437551652",
    "hcaiId": null,
    "businessName": "WILLITS HOSPITAL INC.",
    "contactEmail": null,
    "categoryName": "PRIMARY CARE CLINIC",
    "categoryCode": "RHC/OP",
    "licenseStatus": "ACTIVE",
    "inService": true,
    "licenseNumber": "110000013",
    "licenseEffectiveDate": "11/01/2025",
    "licenseExpirationDate": "10/31/2026",
    "dataDate": "10/18/2025",
    "capacity": 0,
    "address": "3 MARCELA DR",
    "city": "WILLITS",
    "zip": "95490",
    "county": "MENDOCINO",
    "phone": "(707) 459-6115",
    "lat": 39.3899297,
    "lng": -123.3393579
  },
  {
    "id": "110000641",
    "name": "BAECHTEL CREEK MEDICAL CLINIC",
    "npi": "1568525400",
    "hcaiId": null,
    "businessName": null,
    "contactEmail": "ADANLEY@HSAGROUP.NET",
    "categoryName": "PRIMARY CARE CLINIC",
    "categoryCode": "RHC",
    "licenseStatus": null,
    "inService": null,
    "licenseNumber": null,
    "licenseEffectiveDate": null,
    "licenseExpirationDate": null,
    "dataDate": "10/18/2025",
    "capacity": 0,
    "address": "1245 S MAIN ST",
    "city": "WILLITS",
    "zip": "95490",
    "county": "MENDOCINO",
    "phone": "(707) 459-6861",
    "lat": 39.39921,
    "lng": -123.34896
  },
  {
    "id": "110001223",
    "name": "MENDOCINO COMMUNITY HEALTH CLINIC-LITTLE LAKE CLINIC",
    "npi": null,
    "hcaiId": "306234026",
    "businessName": "MENDOCINO COMMUNITY HEALTH CLINIC, INC.",
    "contactEmail": "TWILLIAMS@MCHCINC.ORG",
    "categoryName": "PRIMARY CARE CLINIC",
    "categoryCode": "COMTYC",
    "licenseStatus": "ACTIVE",
    "inService": true,
    "licenseNumber": "110000236",
    "licenseEffectiveDate": "04/14/2025",
    "licenseExpirationDate": "04/13/2026",
    "dataDate": "10/18/2025",
    "capacity": 0,
    "address": "45 HAZEL ST",
    "city": "WILLITS",
    "zip": "95490",
    "county": "MENDOCINO",
    "phone": "(707) 472-4517",
    "lat": 39.400092,
    "lng": -123.35229
  },
  {
    "id": "010000047",
    "name": "NORTHBROOK HEALTHCARE CENTER",
    "npi": "1639178809",
    "hcaiId": "206231024",
    "businessName": "ENSIGN WILLITS LLC",
    "contactEmail": "RENEWALS@ENSIGNSERVICES.NET",
    "categoryName": "SKILLED NURSING FACILITY",
    "categoryCode": "SNF",
    "licenseStatus": "ACTIVE",
    "inService": true,
    "licenseNumber": "010000049",
    "licenseEffectiveDate": "09/07/2025",
    "licenseExpirationDate": "05/15/2026",
    "dataDate": "10/18/2025",
    "capacity": 70,
    "address": "64 NORTHBROOK WAY",
    "city": "WILLITS",
    "zip": "95490",
    "county": "MENDOCINO",
    "phone": "(707) 459-5592",
    "lat": 39.415752,
    "lng": -123.360948
  }
]