[
  {
    "id": "070001144",
    "name": "ADULT DAY HEALTH AND ALZHEIMER'S SERVICES",
    "npi": null,
    "hcaiId": null,
    "businessName": "HUMBOLDT SENIOR RESOURCE CENTER, INCORPORATED",
    "contactEmail": "WSTARR@HUMSENIOR.ORG",
    "categoryName": "ADULT DAY HEALTH CARE",
    "categoryCode": "ADHC",
    "licenseStatus": "ACTIVE",
    "inService": true,
    "licenseNumber": "070000493",
    "licenseEffectiveDate": "11/21/2024",
    "licenseExpirationDate": "11/20/2025",
    "dataDate": "10/18/2025",
    "capacity": 0,
    "address": "1910 CALIFORNIA ST",
    "city": "EUREKA",
    "zip": "95501",
    "county": "HUMBOLDT",
    "phone": "(707) 443-9747",
    "lat": 40.79034,
    "lng": -124.172208
  },
  {
    "id": "110001236",
    "name": "BURRE DENTAL CENTER",
    "npi": "1851486989",
    "hcaiId": "306124027",
    "businessName": "OPEN DOOR COMMUNITY HEALTH CENTERS",
    "contactEmail": "SWATKINS@OPENDOORHEALTH.COM",
    "categoryName": "PRIMARY CARE CLINIC",
    "categoryCode": "COMTYC",
    "licenseStatus": "ACTIVE",
    "inService": true,
    "licenseNumber": "550003262",
    "licenseEffectiveDate": "11/03/2025",
    "licenseExpirationDate": "10/26/2026",
    "dataDate": "10/18/2025",
    "capacity": 0,
    "address": "959 MYRTLE AVE",
    "city": "EUREKA",
    "zip": "95501",
    "county": "HUMBOLDT",
    "phone": "(707) 442-7078",
    "lat": 40.80064149,
    "lng": -124.1497584
  },
  {
    "id": "630013441",
    "name": "BURRE MOBILE DENTAL",
    "npi": null,
    "hcaiId": "306124038",
    "businessName": "OPEN DOOR COMMUNITY HEALTH CENTERS",
    "contactEmail": "SWATKINS@OPENDOORHEALTH.COM",
    "categoryName": "PRIMARY CARE CLINIC",
    "categoryCode": "COMTYC",
    "licenseStatus": "ACTIVE",
    "inService": true,
    "licenseNumber": "550003262",
    "licenseEffectiveDate": "11/03/2025",
    "licenseExpirationDate": "10/26/2026",
    "dataDate": "10/18/2025",
    "capacity": 0,
    "address": "959 MYRTLE AVE",
    "city": "EUREKA",
    "zip": "95501",
    "county": "HUMBOLDT",
    "phone": "(707) 442-7078",
    "lat": 40.80064149,
    "lng": -124.1497584
  },
  {
    "id": "630026757",
    "name": "EUREKA CITY SCHOOLS WELLNESS CENTER",
    "npi": null,
    "hcaiId": null,
    "businessName": "OPEN DOOR COMMUNITY HEALTH CENTERS",
    "contactEmail": null,
    "categoryName": "PRIMARY CARE CLINIC",
    "categoryCode": "COMTYC",
    "licenseStatus": "ACTIVE",
    "inService": true,
    "licenseNumber": "550000105",
    "licenseEffectiveDate": "04/11/2025",
    "licenseExpirationDate": "04/10/2026",
    "dataDate": "10/18/2025",
    "capacity": 0,
    "address": "1915 J ST",
    "city": "EUREKA",
    "zip": "95501",
    "county": "HUMBOLDT",
    "phone": null,
    "lat": 40.79031827,
    "lng": -124.1588846
  },
  {
    "id": "110000562",
    "name": "EUREKA COMMUNITY HEALTH CENTER",
    "npi": "1669569109",
    "hcaiId": "306124039",
    "businessName": "OPEN DOOR COMMUNITY HEALTH CENTERS",
    "contactEmail": "SWATKINS@OPENDOORHEALTH.COM",
    "categoryName": "PRIMARY CARE CLINIC",
    "categoryCode": "COMTYC",
    "licenseStatus": "ACTIVE",
    "inService": true,
    "licenseNumber": "110000223",
    "licenseEffectiveDate": "02/14/2025",
    "licenseExpirationDate": "02/13/2026",
    "dataDate": "10/18/2025",
    "capacity": 0,
    "address": "2200 TYDD ST",
    "city": "EUREKA",
    "zip": "95501",
    "county": "HUMBOLDT",
    "phone": "(707) 441-1624",
    "lat": 40.801896,
    "lng": -124.1452395
  },
  {
    "id": "630027981",
    "name": "EUREKA DENTAL CLINIC",
    "npi": null,
    "hcaiId": null,
    "businessName": "UNITED INDIAN HEALTH SERVICES, INC.",
    "contactEmail": null,
    "categoryName": "PRIMARY CARE CLINIC",
    "categoryCode": "COMTYC",
    "licenseStatus": "ACTIVE",
    "inService": true,
    "licenseNumber": "110000347",
    "licenseEffectiveDate": "12/14/2024",
    "licenseExpirationDate": "12/13/2025",
    "dataDate": "10/18/2025",
    "capacity": 0,
    "address": "525 7TH ST",
    "city": "EUREKA",
    "zip": "95501",
    "county": "HUMBOLDT",
    "phone": null,
    "lat": 40.800596,
    "lng": -124.165046
  },
  {
    "id": "630026763",
    "name": "EUREKA HEALTH VILLAGE",
    "npi": null,
    "hcaiId": null,
    "businessName": "UNITED INDIAN HEALTH SERVICES, INC.",
    "contactEmail": null,
    "categoryName": "PRIMARY CARE CLINIC",
    "categoryCode": "COMTYC",
    "licenseStatus": "ACTIVE",
    "inService": true,
    "licenseNumber": "110000347",
    "licenseEffectiveDate": "12/14/2024",
    "licenseExpirationDate": "12/13/2025",
    "dataDate": "10/18/2025",
    "capacity": 0,
    "address": "434 7TH ST",
    "city": "EUREKA",
    "zip": "95501",
    "county": "HUMBOLDT",
    "phone": null,
    "lat": 40.800006,
    "lng": -124.1658495
  },
  {
    "id": "110000306",
    "name": "EUREKA PHYSICAL THERAPY, INC.",
    "npi": null,
    "hcaiId": null,
    "businessName": null,
    "contactEmail": null,
    "categoryName": "OTHER",
    "categoryCode": "UNLICEN",
    "licenseStatus": null,
    "inService": null,
    "licenseNumber": null,
    "licenseEffectiveDate": null,
    "licenseExpirationDate": null,
    "dataDate": "10/18/2025",
    "capacity": 0,
    "address": "2306 DEAN ST",
    "city": "EUREKA",
    "zip": "95501",
    "county": "HUMBOLDT",
    "phone": "(707) 443-8354",
    "lat": 40.78676057,
    "lng": -124.1414684
  },
  {
    "id": "010000078",
    "name": "EUREKA REHABILITATION & WELLNESS CENTER, LP",
    "npi": "1801193768",
    "hcaiId": "206121033",
    "businessName": "EUREKA REHABILITATION & WELLNESS CENTER, LP",
    "contactEmail": "ADMINISTRATOR@EUREKAREHABWC.COM",
    "categoryName": "SKILLED NURSING FACILITY",
    "categoryCode": "SNF",
    "licenseStatus": "ACTIVE",
    "inService": true,
    "licenseNumber": "010000054",
    "licenseEffectiveDate": "11/01/2025",
    "licenseExpirationDate": "10/31/2026",
    "dataDate": "10/18/2025",
    "capacity": 99,
    "address": "2353 23RD ST",
    "city": "EUREKA",
    "zip": "95501",
    "county": "HUMBOLDT",
    "phone": "(707) 445-3261",
    "lat": 40.78694148,
    "lng": -124.1421371
  },
  {
    "id": "630027504",
    "name": "GOU WEN-OUT-WUK",
    "npi": null,
    "hcaiId": null,
    "businessName": "UNITED INDIAN HEALTH SERVICES, INC.",
    "contactEmail": null,
    "categoryName": "PRIMARY CARE CLINIC",
    "categoryCode": "COMTYC",
    "licenseStatus": "ACTIVE",
    "inService": true,
    "licenseNumber": "110000347",
    "licenseEffectiveDate": "12/14/2024",
    "licenseExpirationDate": "12/13/2025",
    "dataDate": "10/18/2025",
    "capacity": 0,
    "address": "2121 MYRTLE AVE",
    "city": "EUREKA",
    "zip": "95501",
    "county": "HUMBOLDT",
    "phone": null,
    "lat": 40.78853301,
    "lng": -124.132639
  },
  {
    "id": "630013138",
    "name": "J. ROPHE MEDICAL",
    "npi": null,
    "hcaiId": "306124045",
    "businessName": "PREGNANCY CARE CENTER OF THE NORTH COAST",
    "contactEmail": "EUREKAPCC@GMAIL.COM",
    "categoryName": "PRIMARY CARE CLINIC",
    "categoryCode": "FREEC",
    "licenseStatus": "ACTIVE",
    "inService": true,
    "licenseNumber": "550001650",
    "licenseEffectiveDate": "02/09/2025",
    "licenseExpirationDate": "02/08/2026",
    "dataDate": "10/18/2025",
    "capacity": 0,
    "address": "1626 MYRTLE AVE, SUITE C",
    "city": "EUREKA",
    "zip": "95501",
    "county": "HUMBOLDT",
    "phone": "(707) 444-0423",
    "lat": 40.794201,
    "lng": -124.13646
  },
  {
    "id": "110000817",
    "name": "LOEST-DEPPE, DEBORAH   M.S., CCC-SLP",
    "npi": null,
    "hcaiId": null,
    "businessName": null,
    "contactEmail": null,
    "categoryName": "REHABILITATION CLINIC",
    "categoryCode": "REHABC",
    "licenseStatus": null,
    "inService": null,
    "licenseNumber": null,
    "licenseEffectiveDate": null,
    "licenseExpirationDate": null,
    "dataDate": "10/18/2025",
    "capacity": 0,
    "address": "3009 HUBBARD LN, SUITE A",
    "city": "EUREKA",
    "zip": "95501",
    "county": "HUMBOLDT",
    "phone": "(707) 445-9545",
    "lat": 40.78116,
    "lng": -124.129971
  },
  {
    "id": "630020479",
    "name": "OPEN DOOR DOWNTOWN",
    "npi": null,
    "hcaiId": null,
    "businessName": "OPEN DOOR COMMUNITY HEALTH CENTERS",
    "contactEmail": null,
    "categoryName": "PRIMARY CARE CLINIC",
    "categoryCode": "COMTYC",
    "licenseStatus": "ACTIVE",
    "inService": true,
    "licenseNumber": "550000105",
    "licenseEffectiveDate": "04/11/2025",
    "licenseExpirationDate": "04/10/2026",
    "dataDate": "10/18/2025",
    "capacity": 0,
    "address": "622 H ST",
    "city": "EUREKA",
    "zip": "95501",
    "county": "HUMBOLDT",
    "phone": null,
    "lat": 40.800762,
    "lng": -124.1637795
  },
  {
    "id": "010000158",
    "name": "PROVIDENCE AT HOME WITH COMPASSUS HOME HEALTH, HUMBOLDT",
    "npi": "1144315052",
    "hcaiId": "406121036",
    "businessName": "CP HUMBOLDT N-CA HH HOLDINGS, LLC",
    "contactEmail": "KATHLEEN.HATFIELD@STJOE.ORG",
    "categoryName": "HOME HEALTH AGENCY",
    "categoryCode": "HHA",
    "licenseStatus": "ACTIVE",
    "inService": true,
    "licenseNumber": "010000057",
    "licenseEffectiveDate": "11/01/2025",
    "licenseExpirationDate": "10/31/2026",
    "dataDate": "10/18/2025",
    "capacity": 0,
    "address": "2127 HARRISON AVE, SUITE 3",
    "city": "EUREKA",
    "zip": "95501",
    "county": "HUMBOLDT",
    "phone": "(714) 712-9500",
    "lat": 40.788009,
    "lng": -124.139403
  },
  {
    "id": "110000067",
    "name": "PROVIDENCE ST. JOSEPH HOSPITAL",
    "npi": "1609858950",
    "hcaiId": "106121080",
    "businessName": "ST. JOSEPH HEALTH NORTHERN CALIFORNIA LLC",
    "contactEmail": "MICHAEL.KELEMAN@PROVIDENCE.ORG",
    "categoryName": "GENERAL ACUTE CARE HOSPITAL",
    "categoryCode": "GACH",
    "licenseStatus": "ACTIVE",
    "inService": true,
    "licenseNumber": "110000075",
    "licenseEffectiveDate": "11/01/2025",
    "licenseExpirationDate": "10/31/2026",
    "dataDate": "10/18/2025",
    "capacity": 138,
    "address": "2700 DOLBEER ST",
    "city": "EUREKA",
    "zip": "95501",
    "county": "HUMBOLDT",
    "phone": "(707) 445-8121",
    "lat": 40.783662,
    "lng": -124.1424585
  },
  {
    "id": "630014768",
    "name": "REDWOOD COAST PACE",
    "npi": null,
    "hcaiId": "306124041",
    "businessName": "HUMBOLDT SENIOR RESOURCE CENTER, INCORPORATED",
    "contactEmail": "PACE@HUMSENIOR.ORG",
    "categoryName": "PRIMARY CARE CLINIC",
    "categoryCode": "COMTYC",
    "licenseStatus": "ACTIVE",
    "inService": true,
    "licenseNumber": "550002642",
    "licenseEffectiveDate": "04/16/2025",
    "licenseExpirationDate": "04/15/2026",
    "dataDate": "10/18/2025",
    "capacity": 0,
    "address": "1901 CALIFORNIA ST, SUITE B",
    "city": "EUREKA",
    "zip": "95501",
    "county": "HUMBOLDT",
    "phone": "(707) 443-9747",
    "lat": 40.790232,
    "lng": -124.1715915
  },
  {
    "id": "630017561",
    "name": "REDWOOD COMMUNITY HEALTH CENTER",
    "npi": null,
    "hcaiId": null,
    "businessName": "OPEN DOOR COMMUNITY HEALTH CENTERS",
    "contactEmail": null,
    "categoryName": "PRIMARY CARE CLINIC",
    "categoryCode": "COMTYC",
    "licenseStatus": "ACTIVE",
    "inService": true,
    "licenseNumber": "550000105",
    "licenseEffectiveDate": "04/11/2025",
    "licenseExpirationDate": "04/10/2026",
    "dataDate": "10/18/2025",
    "capacity": 0,
    "address": "2350 BUHNE ST, SUITE A",
    "city": "EUREKA",
    "zip": "95501",
    "county": "HUMBOLDT",
    "phone": "(707) 826-8633",
    "lat": 40.785462,
    "lng": -124.14222
  },
  {
    "id": "630024845",
    "name": "REDWOOD COMMUNITY HEALTH CENTER",
    "npi": null,
    "hcaiId": null,
    "businessName": "OPEN DOOR COMMUNITY HEALTH CENTERS",
    "contactEmail": "SWATKINS@OPENDOORHEALTH.COM",
    "categoryName": "PRIMARY CARE CLINIC",
    "categoryCode": "COMTYC",
    "licenseStatus": "ACTIVE",
    "inService": true,
    "licenseNumber": "550000105",
    "licenseEffectiveDate": "04/11/2025",
    "licenseExpirationDate": "04/10/2026",
    "dataDate": "10/18/2025",
    "capacity": 0,
    "address": "2350 BUHNE ST, SUITE C",
    "city": "EUREKA",
    "zip": "95501",
    "county": "HUMBOLDT",
    "phone": "(707) 826-8633",
    "lat": 40.785462,
    "lng": -124.14222
  },
  {
    "id": "110001267",
    "name": "SECOND MOBILE UNIT",
    "npi": null,
    "hcaiId": "306124032",
    "businessName": "OPEN DOOR COMMUNITY HEALTH CENTERS",
    "contactEmail": "SWATKINS@OPENDOORHEALTH.COM",
    "categoryName": "PRIMARY CARE CLINIC",
    "categoryCode": "COMTYC",
    "licenseStatus": "ACTIVE",
    "inService": true,
    "licenseNumber": "550000105",
    "licenseEffectiveDate": "04/11/2025",
    "licenseExpirationDate": "04/10/2026",
    "dataDate": "10/18/2025",
    "capacity": 0,
    "address": "3696 JACOBS AVE",
    "city": "EUREKA",
    "zip": "95501",
    "county": "HUMBOLDT",
    "phone": "(707) 443-4666",
    "lat": 40.804164,
    "lng": -124.1259795
  },
  {
    "id": "110000604",
    "name": "SEMPERVIRENS",
    "npi": "1194763219",
    "hcaiId": null,
    "businessName": null,
    "contactEmail": "PBUGNACKI@CO.HUMBOLDT.CA.US",
    "categoryName": "ACUTE PSYCHIATRIC HOSPITAL",
    "categoryCode": "PHF",
    "licenseStatus": null,
    "inService": null,
    "licenseNumber": null,
    "licenseEffectiveDate": null,
    "licenseExpirationDate": null,
    "dataDate": "10/18/2025",
    "capacity": 0,
    "address": "720 WOOD ST",
    "city": "EUREKA",
    "zip": "95501",
    "county": "HUMBOLDT",
    "phone": "(707) 445-7710",
    "lat": 40.780782,
    "lng": -124.1607105
  },
  {
    "id": "630003281",
    "name": "TELEHEALTH AND VISITING SPECIALIST CENTER",
    "npi": null,
    "hcaiId": "306124030",
    "businessName": "OPEN DOOR COMMUNITY HEALTH CENTERS",
    "contactEmail": "SWATKINS@OPENDOORHEALTH.COM",
    "categoryName": "PRIMARY CARE CLINIC",
    "categoryCode": "COMTYC",
    "licenseStatus": "ACTIVE",
    "inService": true,
    "licenseNumber": "550000105",
    "licenseEffectiveDate": "04/11/2025",
    "licenseExpirationDate": "04/10/2026",
    "dataDate": "10/18/2025",
    "capacity": 0,
    "address": "2426 BUHNE ST",
    "city": "EUREKA",
    "zip": "95501",
    "county": "HUMBOLDT",
    "phone": "(707) 826-8633",
    "lat": 40.785687,
    "lng": -124.1406585
  },
  {
    "id": "630024847",
    "name": "TELEHEALTH AND VISITING SPECIALIST CENTER ANNEX",
    "npi": null,
    "hcaiId": null,
    "businessName": "OPEN DOOR COMMUNITY HEALTH CENTERS",
    "contactEmail": "SWATKINS@OPENDOORHEALTH.COM",
    "categoryName": "PRIMARY CARE CLINIC",
    "categoryCode": "COMTYC",
    "licenseStatus": "ACTIVE",
    "inService": true,
    "licenseNumber": "550000105",
    "licenseEffectiveDate": "04/11/2025",
    "licenseExpirationDate": "04/10/2026",
    "dataDate": "10/18/2025",
    "capacity": 0,
    "address": "2412 BUHNE ST",
    "city": "EUREKA",
    "zip": "95501",
    "county": "HUMBOLDT",
    "phone": "(707) 826-8633",
    "lat": 40.785687,
    "lng": -124.1410905
  },
  {
    "id": "630016628",
    "name": "VISITING ANGELS",
    "npi": null,
    "hcaiId": null,
    "businessName": null,
    "contactEmail": null,
    "categoryName": "HOME HEALTH AGENCY",
    "categoryCode": "HHA",
    "licenseStatus": null,
    "inService": null,
    "licenseNumber": null,
    "licenseEffectiveDate": null,
    "licenseExpirationDate": null,
    "dataDate": "10/18/2025",
    "capacity": 0,
    "address": "1112 5TH STREET",
    "city": "EUREKA",
    "zip": "95501",
    "county": "HUMBOLDT",
    "phone": null,
    "lat": 40.802643,
    "lng": -124.1589285
  }
]