[
  {
    "id": "010000088",
    "name": "BUTLER VALLEY #2",
    "npi": "1700068111",
    "hcaiId": null,
    "businessName": "BUTLER VALLEY INC.",
    "contactEmail": "BVADMIN@SONIC.NET",
    "categoryName": "INTERMEDIATE CARE FACILITY-DD/H/N/CN/IID",
    "categoryCode": "ICFDDH",
    "licenseStatus": "ACTIVE",
    "inService": true,
    "licenseNumber": "010000137",
    "licenseEffectiveDate": "12/01/2024",
    "licenseExpirationDate": "11/30/2025",
    "dataDate": "10/18/2025",
    "capacity": 6,
    "address": "3971 F ST",
    "city": "EUREKA",
    "zip": "95503",
    "county": "HUMBOLDT",
    "phone": "(707) 442-7313",
    "lat": 40.770018,
    "lng": -124.163289
  },
  {
    "id": "110001143",
    "name": "FRESENIUS MEDICAL CARE OF EUREKA",
    "npi": "1407968308",
    "hcaiId": "306121019",
    "businessName": "BIO-MEDICAL APPLICATIONS OF CALIFORNIA, INC.",
    "contactEmail": "CLINIC1137@FMC-NA.COM",
    "categoryName": "CHRONIC DIALYSIS CLINIC",
    "categoryCode": "ESRD/CDC",
    "licenseStatus": "ACTIVE",
    "inService": true,
    "licenseNumber": "110000432",
    "licenseEffectiveDate": "11/01/2025",
    "licenseExpirationDate": "10/31/2026",
    "dataDate": "10/18/2025",
    "capacity": 15,
    "address": "2765 TIMBER RIDGE LN",
    "city": "EUREKA",
    "zip": "95503",
    "county": "HUMBOLDT",
    "phone": "(707) 445-2033",
    "lat": 40.780233,
    "lng": -124.136748
  },
  {
    "id": "010000024",
    "name": "GRANADA REHAB & WELLNESS CENTER, LP",
    "npi": "1003113705",
    "hcaiId": "206120955",
    "businessName": "GRANADA REHABILITATION & WELLNESS CENTER, LP",
    "contactEmail": "ADMINISTRATOR@GRANADAREHABWC.COM",
    "categoryName": "SKILLED NURSING FACILITY",
    "categoryCode": "SNF",
    "licenseStatus": "ACTIVE",
    "inService": true,
    "licenseNumber": "010000015",
    "licenseEffectiveDate": "11/01/2025",
    "licenseExpirationDate": "10/31/2026",
    "dataDate": "10/18/2025",
    "capacity": 87,
    "address": "2885 HARRIS ST",
    "city": "EUREKA",
    "zip": "95503",
    "county": "HUMBOLDT",
    "phone": "(707) 443-1627",
    "lat": 40.781097,
    "lng": -124.13547
  },
  {
    "id": "100001727",
    "name": "HOSPICE OF HUMBOLDT, INC.",
    "npi": null,
    "hcaiId": "406124008",
    "businessName": "HOSPICE OF HUMBOLDT, INC.",
    "contactEmail": "DKEATING@HOSPICEOFHUMBOLDT.ORG",
    "categoryName": "HOSPICE",
    "categoryCode": "HOSPICE",
    "licenseStatus": "ACTIVE",
    "inService": true,
    "licenseNumber": "100000737",
    "licenseEffectiveDate": "06/12/2025",
    "licenseExpirationDate": "06/11/2027",
    "dataDate": "10/18/2025",
    "capacity": 0,
    "address": "3327 TIMBER FALL COURT",
    "city": "EUREKA",
    "zip": "95503",
    "county": "HUMBOLDT",
    "phone": "(707) 445-8443",
    "lat": 40.77928358,
    "lng": -124.1357972
  },
  {
    "id": "630012647",
    "name": "HUMBOLDT PHYSICIANS SURGERY AND LASER CENTER, LLC",
    "npi": "1447485156",
    "hcaiId": null,
    "businessName": null,
    "contactEmail": null,
    "categoryName": "SURGICAL CLINIC",
    "categoryCode": "ASC",
    "licenseStatus": null,
    "inService": null,
    "licenseNumber": null,
    "licenseEffectiveDate": null,
    "licenseExpirationDate": null,
    "dataDate": "10/18/2025",
    "capacity": 0,
    "address": "3226 TIMBER FALL CT",
    "city": "EUREKA",
    "zip": "95503",
    "county": "HUMBOLDT",
    "phone": "(707) 443-3444",
    "lat": 40.7792257,
    "lng": -124.1373697
  },
  {
    "id": "630016546",
    "name": "IDA EMMERSON HOSPICE HOUSE",
    "npi": null,
    "hcaiId": "206121334",
    "businessName": "HOSPICE OF HUMBOLDT, INC.",
    "contactEmail": "DKEATING@HOSPICEOFHUMBOLDT.ORG",
    "categoryName": "HOSPICE FACILITY",
    "categoryCode": "HOFA",
    "licenseStatus": "ACTIVE",
    "inService": true,
    "licenseNumber": "550003680",
    "licenseEffectiveDate": "10/06/2025",
    "licenseExpirationDate": "10/05/2026",
    "dataDate": "10/18/2025",
    "capacity": 12,
    "address": "3327 TIMBER FALL COURT, BUILDING A",
    "city": "EUREKA",
    "zip": "95503",
    "county": "HUMBOLDT",
    "phone": "(707) 267-9820",
    "lat": 40.77928358,
    "lng": -124.1357972
  },
  {
    "id": "630015213",
    "name": "PLANNED PARENTHOOD EUREKA",
    "npi": "1609286418",
    "hcaiId": "306124043",
    "businessName": "PLANNED PARENTHOOD: SHASTA-DIABLO, INC.",
    "contactEmail": "GMARTINEZ@PPNORCAL.ORG",
    "categoryName": "PRIMARY CARE CLINIC",
    "categoryCode": "COMTYC",
    "licenseStatus": "ACTIVE",
    "inService": true,
    "licenseNumber": "550002763",
    "licenseEffectiveDate": "08/04/2025",
    "licenseExpirationDate": "08/03/2026",
    "dataDate": "10/18/2025",
    "capacity": 0,
    "address": "3225 TIMBER FALL CT, SUITE B",
    "city": "EUREKA",
    "zip": "95503",
    "county": "HUMBOLDT",
    "phone": "(707) 689-4430",
    "lat": 40.77891,
    "lng": -124.135272
  },
  {
    "id": "010000060",
    "name": "SEAVIEW REHABILITATION & WELLNESS CENTER, LP",
    "npi": "1316244288",
    "hcaiId": "206121065",
    "businessName": "SEAVIEW REHABILITATION & WELLNESS CENTER, LP",
    "contactEmail": "ADMINISTRATOR@SEAVIEWREHABWC.COM",
    "categoryName": "SKILLED NURSING FACILITY",
    "categoryCode": "SNF",
    "licenseStatus": "ACTIVE",
    "inService": true,
    "licenseNumber": "010000066",
    "licenseEffectiveDate": "11/01/2025",
    "licenseExpirationDate": "10/31/2026",
    "dataDate": "10/18/2025",
    "capacity": 99,
    "address": "6400 PURDUE DR",
    "city": "EUREKA",
    "zip": "95503",
    "county": "HUMBOLDT",
    "phone": "(707) 443-5668",
    "lat": 40.730886,
    "lng": -124.20468
  }
]