[
  {
    "id": "630011953",
    "name": "FRESENIUS MEDICAL CARE MCKINLEYVILLE",
    "npi": "1326109430",
    "hcaiId": "306124035",
    "businessName": "BIO-MEDICAL APPLICATIONS OF CALIFORNIA, INC.",
    "contactEmail": "CLINIC3041@FMC-NA.COM",
    "categoryName": "CHRONIC DIALYSIS CLINIC",
    "categoryCode": "CDC",
    "licenseStatus": "ACTIVE",
    "inService": true,
    "licenseNumber": "550001189",
    "licenseEffectiveDate": "01/15/2025",
    "licenseExpirationDate": "01/14/2026",
    "dataDate": "10/18/2025",
    "capacity": 12,
    "address": "1550 HEARTWOOD DRIVE",
    "city": "MCKINLEYVILLE",
    "zip": "95519",
    "county": "HUMBOLDT",
    "phone": "(707) 839-4465",
    "lat": 40.939227,
    "lng": -124.10289
  },
  {
    "id": "110000850",
    "name": "HUMBOLDT FAMILY CARE",
    "npi": "1447287347",
    "hcaiId": null,
    "businessName": "AMERICAN HOSPITAL MANAGEMENT CORPORATION",
    "contactEmail": null,
    "categoryName": "PRIMARY CARE CLINIC",
    "categoryCode": "RHC",
    "licenseStatus": "ACTIVE",
    "inService": true,
    "licenseNumber": "110000031",
    "licenseEffectiveDate": "06/11/2025",
    "licenseExpirationDate": "10/31/2025",
    "dataDate": "10/18/2025",
    "capacity": 0,
    "address": "1733 CENTRAL AVE",
    "city": "MCKINLEYVILLE",
    "zip": "95519",
    "county": "HUMBOLDT",
    "phone": "(707) 839-4852",
    "lat": 40.936851,
    "lng": -124.100541
  },
  {
    "id": "110000886",
    "name": "MCKINLEYVILLE COMMUNITY HEALTH CENTER",
    "npi": null,
    "hcaiId": "306124017",
    "businessName": "OPEN DOOR COMMUNITY HEALTH CENTERS",
    "contactEmail": "SWATKINS@OPENDOORHEALTH.COM",
    "categoryName": "PRIMARY CARE CLINIC",
    "categoryCode": "COMTYC",
    "licenseStatus": "ACTIVE",
    "inService": true,
    "licenseNumber": "110000340",
    "licenseEffectiveDate": "06/02/2025",
    "licenseExpirationDate": "06/01/2026",
    "dataDate": "10/18/2025",
    "capacity": 0,
    "address": "1644 CENTRAL AVE, SUITE A, B, C, D, E, & F",
    "city": "MCKINLEYVILLE",
    "zip": "95519",
    "county": "HUMBOLDT",
    "phone": "(707) 839-3068",
    "lat": 40.935114,
    "lng": -124.101882
  },
  {
    "id": "110000496",
    "name": "MCKINLEYVILLE PHYSICAL THERAPY",
    "npi": null,
    "hcaiId": null,
    "businessName": null,
    "contactEmail": null,
    "categoryName": "REHABILITATION CLINIC",
    "categoryCode": "REHABC",
    "licenseStatus": null,
    "inService": null,
    "licenseNumber": null,
    "licenseEffectiveDate": null,
    "licenseExpirationDate": null,
    "dataDate": "10/18/2025",
    "capacity": 0,
    "address": "2194 CENTRAL AVE",
    "city": "MCKINLEYVILLE",
    "zip": "95519",
    "county": "HUMBOLDT",
    "phone": "(707) 839-4363",
    "lat": 40.944987,
    "lng": -124.1016885
  }
]