[
  {
    "id": "070001143",
    "name": "ADULT DAY HEALTH CARE OF MAD RIVER",
    "npi": null,
    "hcaiId": null,
    "businessName": "ADULT DAY HEALTH CARE OF MAD RIVER",
    "contactEmail": "ADHCOFMADRIVER@OUTLOOK.COM",
    "categoryName": "ADULT DAY HEALTH CARE",
    "categoryCode": "ADHC",
    "licenseStatus": "ACTIVE",
    "inService": true,
    "licenseNumber": "070000492",
    "licenseEffectiveDate": "12/15/2024",
    "licenseExpirationDate": "12/14/2025",
    "dataDate": "10/18/2025",
    "capacity": 0,
    "address": "3800 JANES RD",
    "city": "ARCATA",
    "zip": "95521",
    "county": "HUMBOLDT",
    "phone": "(707) 822-4866",
    "lat": 40.896297,
    "lng": -124.0914105
  },
  {
    "id": "010000087",
    "name": "BUTLER VALLEY",
    "npi": "1043492358",
    "hcaiId": null,
    "businessName": "BUTLER VALLEY INC.",
    "contactEmail": "BVADMIN@SONIC.NET",
    "categoryName": "INTERMEDIATE CARE FACILITY-DD/H/N/CN/IID",
    "categoryCode": "ICFDDH",
    "licenseStatus": "ACTIVE",
    "inService": true,
    "licenseNumber": "010000138",
    "licenseEffectiveDate": "11/14/2024",
    "licenseExpirationDate": "11/13/2025",
    "dataDate": "10/18/2025",
    "capacity": 6,
    "address": "380 12TH ST",
    "city": "ARCATA",
    "zip": "95521",
    "county": "HUMBOLDT",
    "phone": "(707) 822-0301",
    "lat": 40.87071,
    "lng": -124.0813305
  },
  {
    "id": "110000131",
    "name": "HUMBOLDT OPEN DOOR CLINIC",
    "npi": null,
    "hcaiId": "306120020",
    "businessName": "OPEN DOOR COMMUNITY HEALTH CENTERS",
    "contactEmail": "SWATKINS@OPENDOORHEALTH.COM",
    "categoryName": "PRIMARY CARE CLINIC",
    "categoryCode": "COMTYC",
    "licenseStatus": "ACTIVE",
    "inService": true,
    "licenseNumber": "110000024",
    "licenseEffectiveDate": "02/01/2025",
    "licenseExpirationDate": "01/31/2026",
    "dataDate": "10/18/2025",
    "capacity": 0,
    "address": "1150 FOSTER AVE",
    "city": "ARCATA",
    "zip": "95521",
    "county": "HUMBOLDT",
    "phone": "(707) 826-8610",
    "lat": 40.87969582,
    "lng": -124.0850998
  },
  {
    "id": "110000021",
    "name": "MAD RIVER COMMUNITY HOSPITAL",
    "npi": "1518996040",
    "hcaiId": "106121002",
    "businessName": "AMERICAN HOSPITAL MANAGEMENT CORPORATION",
    "contactEmail": "JPAGE@MADRIVERHOSPITAL.COM",
    "categoryName": "GENERAL ACUTE CARE HOSPITAL",
    "categoryCode": "GACH",
    "licenseStatus": "ACTIVE",
    "inService": true,
    "licenseNumber": "110000031",
    "licenseEffectiveDate": "06/11/2025",
    "licenseExpirationDate": "10/31/2025",
    "dataDate": "10/18/2025",
    "capacity": 78,
    "address": "3800 JANES RD",
    "city": "ARCATA",
    "zip": "95521",
    "county": "HUMBOLDT",
    "phone": "(707) 826-8200",
    "lat": 40.896297,
    "lng": -124.0914105
  },
  {
    "id": "010000152",
    "name": "MAD RIVER COMMUNITY HOSPITAL HOME CARE SERVICE",
    "npi": "1750305371",
    "hcaiId": "406122313",
    "businessName": "AMERICAN HOSPITAL MANAGEMENT CORPORATION",
    "contactEmail": "MANDERSON@MADRIVERHOSPITAL.COM",
    "categoryName": "HOME HEALTH AGENCY",
    "categoryCode": "HHA",
    "licenseStatus": "ACTIVE",
    "inService": true,
    "licenseNumber": "010000166",
    "licenseEffectiveDate": "10/05/2025",
    "licenseExpirationDate": "04/27/2026",
    "dataDate": "10/18/2025",
    "capacity": 0,
    "address": "3798 JANES RD, SUITE 7",
    "city": "ARCATA",
    "zip": "95521",
    "county": "HUMBOLDT",
    "phone": "(707) 822-7220",
    "lat": 40.89634776,
    "lng": -124.0926406
  },
  {
    "id": "630011457",
    "name": "MAD RIVER EXPRESS CARE",
    "npi": "1609979707",
    "hcaiId": null,
    "businessName": "AMERICAN HOSPITAL MANAGEMENT CORPORATION",
    "contactEmail": null,
    "categoryName": "PRIMARY CARE CLINIC",
    "categoryCode": "RHC/OP",
    "licenseStatus": "ACTIVE",
    "inService": true,
    "licenseNumber": "110000031",
    "licenseEffectiveDate": "06/11/2025",
    "licenseExpirationDate": "10/31/2025",
    "dataDate": "10/18/2025",
    "capacity": 0,
    "address": "3800 JANES RD",
    "city": "ARCATA",
    "zip": "95521",
    "county": "HUMBOLDT",
    "phone": "(707) 822-3621",
    "lat": 40.896297,
    "lng": -124.0914105
  },
  {
    "id": "110000126",
    "name": "NORTHCOUNTRY CLINIC - ARCATA",
    "npi": null,
    "hcaiId": "306121005",
    "businessName": "OPEN DOOR COMMUNITY HEALTH CENTERS",
    "contactEmail": "SWATKINS@OPENDOORHEALTH.COM",
    "categoryName": "PRIMARY CARE CLINIC",
    "categoryCode": "COMTYC",
    "licenseStatus": "ACTIVE",
    "inService": true,
    "licenseNumber": "110000034",
    "licenseEffectiveDate": "01/14/2025",
    "licenseExpirationDate": "01/13/2026",
    "dataDate": "10/18/2025",
    "capacity": 0,
    "address": "785 18TH ST",
    "city": "ARCATA",
    "zip": "95521",
    "county": "HUMBOLDT",
    "phone": "(707) 822-2481",
    "lat": 40.875894,
    "lng": -124.0837785
  },
  {
    "id": "110000916",
    "name": "UNITED INDIAN HEALTH SERVICES, INC.",
    "npi": null,
    "hcaiId": "306124024",
    "businessName": "UNITED INDIAN HEALTH SERVICES, INC.",
    "contactEmail": "LIZ.LARA@UIHS.ORG",
    "categoryName": "PRIMARY CARE CLINIC",
    "categoryCode": "COMTYC",
    "licenseStatus": "ACTIVE",
    "inService": true,
    "licenseNumber": "110000347",
    "licenseEffectiveDate": "12/14/2024",
    "licenseExpirationDate": "12/13/2025",
    "dataDate": "10/18/2025",
    "capacity": 0,
    "address": "1600 WEEOT WAY",
    "city": "ARCATA",
    "zip": "95521",
    "county": "HUMBOLDT",
    "phone": "(707) 825-4100",
    "lat": 40.89807933,
    "lng": -124.0923869
  }
]