[
  {
    "id": "630025068",
    "name": "COASTAL HOSPICE, INC.",
    "npi": null,
    "hcaiId": null,
    "businessName": "COASTAL HOSPICE, INC.",
    "contactEmail": "JAMIE.DAUGHERTY@COASTALHHH.ORG",
    "categoryName": "HOSPICE",
    "categoryCode": "HOSPICE",
    "licenseStatus": "ACTIVE",
    "inService": true,
    "licenseNumber": "550008262",
    "licenseEffectiveDate": "11/17/2024",
    "licenseExpirationDate": "11/16/2026",
    "dataDate": "10/18/2025",
    "capacity": 0,
    "address": "786 H ST",
    "city": "CRESCENT CITY",
    "zip": "95531",
    "county": "DEL NORTE",
    "phone": "(707) 460-6191",
    "lat": 41.755248,
    "lng": -124.20117
  },
  {
    "id": "010000004",
    "name": "CRESCENT CITY CARE CENTER",
    "npi": "1962951715",
    "hcaiId": "206080930",
    "businessName": "CRESCENT CITY POST ACUTE LLC",
    "contactEmail": "ADMINISSIONS@CCSNCARE.COM",
    "categoryName": "SKILLED NURSING FACILITY",
    "categoryCode": "SNF",
    "licenseStatus": "ACTIVE",
    "inService": true,
    "licenseNumber": "010000009",
    "licenseEffectiveDate": "11/04/2025",
    "licenseExpirationDate": "03/28/2026",
    "dataDate": "10/18/2025",
    "capacity": 99,
    "address": "1280 MARSHALL ST",
    "city": "CRESCENT CITY",
    "zip": "95531",
    "county": "DEL NORTE",
    "phone": "(707) 464-6151",
    "lat": 41.768559,
    "lng": -124.200918
  },
  {
    "id": "110000528",
    "name": "DEL NORTE COMMUNITY HEALTH CENTER",
    "npi": null,
    "hcaiId": "306084005",
    "businessName": "OPEN DOOR COMMUNITY HEALTH CENTERS",
    "contactEmail": "SWATKINS@OPENDOORHEALTH.COM",
    "categoryName": "PRIMARY CARE CLINIC",
    "categoryCode": "COMTYC",
    "licenseStatus": "ACTIVE",
    "inService": true,
    "licenseNumber": "110000215",
    "licenseEffectiveDate": "11/10/2024",
    "licenseExpirationDate": "11/09/2025",
    "dataDate": "10/18/2025",
    "capacity": 0,
    "address": "550 E WASHINGTON BLVD, SUITE 100",
    "city": "CRESCENT CITY",
    "zip": "95531",
    "county": "DEL NORTE",
    "phone": "(707) 826-8633",
    "lat": 41.773374,
    "lng": -124.19856
  },
  {
    "id": "630025956",
    "name": "DEL NORTE DENTAL VAN",
    "npi": null,
    "hcaiId": null,
    "businessName": "OPEN DOOR COMMUNITY HEALTH CENTERS",
    "contactEmail": null,
    "categoryName": "PRIMARY CARE CLINIC",
    "categoryCode": "COMTYC",
    "licenseStatus": "ACTIVE",
    "inService": true,
    "licenseNumber": "110000215",
    "licenseEffectiveDate": "11/10/2024",
    "licenseExpirationDate": "11/09/2025",
    "dataDate": "10/18/2025",
    "capacity": 0,
    "address": "550 E WASHINGTON BLVD",
    "city": "CRESCENT CITY",
    "zip": "95531",
    "county": "DEL NORTE",
    "phone": null,
    "lat": 41.77328602,
    "lng": -124.198922
  },
  {
    "id": "630027920",
    "name": "DEL NORTE MOBILE HEALTH SERVICES",
    "npi": null,
    "hcaiId": null,
    "businessName": "OPEN DOOR COMMUNITY HEALTH CENTERS",
    "contactEmail": null,
    "categoryName": "PRIMARY CARE CLINIC",
    "categoryCode": "COMTYC",
    "licenseStatus": "ACTIVE",
    "inService": true,
    "licenseNumber": "110000215",
    "licenseEffectiveDate": "11/10/2024",
    "licenseExpirationDate": "11/09/2025",
    "dataDate": "10/18/2025",
    "capacity": 0,
    "address": "550 E WASHINGTON BLVD, SUITE 100",
    "city": "CRESCENT CITY",
    "zip": "95531",
    "county": "DEL NORTE",
    "phone": null,
    "lat": 41.77328602,
    "lng": -124.198922
  },
  {
    "id": "630027624",
    "name": "MOBILE MEDICAL VAN",
    "npi": null,
    "hcaiId": null,
    "businessName": "UNITED INDIAN HEALTH SERVICES, INC.",
    "contactEmail": null,
    "categoryName": "PRIMARY CARE CLINIC",
    "categoryCode": "COMTYC",
    "licenseStatus": "ACTIVE",
    "inService": true,
    "licenseNumber": "550002425",
    "licenseEffectiveDate": "08/12/2025",
    "licenseExpirationDate": "08/11/2026",
    "dataDate": "10/18/2025",
    "capacity": 0,
    "address": "445 ELK VALLEY RD",
    "city": "CRESCENT CITY",
    "zip": "95531",
    "county": "DEL NORTE",
    "phone": null,
    "lat": 41.75250502,
    "lng": -124.173627
  },
  {
    "id": "630025807",
    "name": "OPEN DOOR TEEN CLINIC",
    "npi": null,
    "hcaiId": null,
    "businessName": "OPEN DOOR COMMUNITY HEALTH CENTERS",
    "contactEmail": null,
    "categoryName": "PRIMARY CARE CLINIC",
    "categoryCode": "COMTYC",
    "licenseStatus": "ACTIVE",
    "inService": true,
    "licenseNumber": "110000215",
    "licenseEffectiveDate": "11/10/2024",
    "licenseExpirationDate": "11/09/2025",
    "dataDate": "10/18/2025",
    "capacity": 0,
    "address": "883 W WASHINGTON BLVD",
    "city": "CRESCENT CITY",
    "zip": "95531",
    "county": "DEL NORTE",
    "phone": null,
    "lat": 41.770629,
    "lng": -124.2111015
  },
  {
    "id": "630017964",
    "name": "SANDERLING DIALYSIS OF CRESCENT CITY",
    "npi": null,
    "hcaiId": "306080458",
    "businessName": "SRS-CRESCENT CITY, LLC",
    "contactEmail": "JST@SANDERLINGLLC.COM",
    "categoryName": "CHRONIC DIALYSIS CLINIC",
    "categoryCode": "ESRD/CDC",
    "licenseStatus": "ACTIVE",
    "inService": true,
    "licenseNumber": "550004446",
    "licenseEffectiveDate": "11/15/2024",
    "licenseExpirationDate": "11/14/2025",
    "dataDate": "10/18/2025",
    "capacity": 9,
    "address": "780 E WASHINGTON BLVD, BUILDING B",
    "city": "CRESCENT CITY",
    "zip": "95531",
    "county": "DEL NORTE",
    "phone": "(844) 650-7365",
    "lat": 41.77276907,
    "lng": -124.1928889
  },
  {
    "id": "630019949",
    "name": "STALLANT HEALTH & WELLNESS",
    "npi": "1366082463",
    "hcaiId": null,
    "businessName": null,
    "contactEmail": "COO@STALLANTHEALTH.COM",
    "categoryName": "PRIMARY CARE CLINIC",
    "categoryCode": "RHC",
    "licenseStatus": null,
    "inService": null,
    "licenseNumber": null,
    "licenseEffectiveDate": null,
    "licenseExpirationDate": null,
    "dataDate": "10/18/2025",
    "capacity": 0,
    "address": "515 E WASHINGTON BLVD",
    "city": "CRESCENT CITY",
    "zip": "95531",
    "county": "DEL NORTE",
    "phone": "(912) 347-3974",
    "lat": 41.772294,
    "lng": -124.1989605
  },
  {
    "id": "630009861",
    "name": "SUTTER COAST COMMUNITY CLINIC",
    "npi": "1700960267",
    "hcaiId": "306084006",
    "businessName": "SUTTER COAST HOSPITAL",
    "contactEmail": "ROLANDV@SUTTERHEALTH.ORG",
    "categoryName": "PRIMARY CARE CLINIC",
    "categoryCode": "COMTYC",
    "licenseStatus": "ACTIVE",
    "inService": true,
    "licenseNumber": "550000328",
    "licenseEffectiveDate": "11/06/2024",
    "licenseExpirationDate": "11/05/2025",
    "dataDate": "10/18/2025",
    "capacity": 0,
    "address": "780 E WASHINGTON BLVD, SUITE 202, BUILDING C",
    "city": "CRESCENT CITY",
    "zip": "95531",
    "county": "DEL NORTE",
    "phone": "(707) 464-6715",
    "lat": 41.77276907,
    "lng": -124.1928889
  },
  {
    "id": "110000842",
    "name": "SUTTER COAST HEALTH CENTER",
    "npi": "1285641167",
    "hcaiId": null,
    "businessName": "SUTTER COAST HOSPITAL",
    "contactEmail": null,
    "categoryName": "PRIMARY CARE CLINIC",
    "categoryCode": "RHC",
    "licenseStatus": "ACTIVE",
    "inService": true,
    "licenseNumber": "110000067",
    "licenseEffectiveDate": "02/01/2025",
    "licenseExpirationDate": "01/31/2026",
    "dataDate": "10/18/2025",
    "capacity": 0,
    "address": "785 E. WASHINGTON BLVD, SUITE 10",
    "city": "CRESCENT CITY",
    "zip": "95531",
    "county": "DEL NORTE",
    "phone": null,
    "lat": 41.772438,
    "lng": -124.1928
  },
  {
    "id": "010000659",
    "name": "SUTTER COAST HOME CARE",
    "npi": "1609881499",
    "hcaiId": "406084002",
    "businessName": "SUTTER COAST HOSPITAL",
    "contactEmail": "KAREN.DEGLER@SUTTERHEALTH.ORG",
    "categoryName": "HOME HEALTH AGENCY",
    "categoryCode": "HHA",
    "licenseStatus": "ACTIVE",
    "inService": true,
    "licenseNumber": "010000265",
    "licenseEffectiveDate": "11/01/2025",
    "licenseExpirationDate": "10/31/2026",
    "dataDate": "10/18/2025",
    "capacity": 0,
    "address": "785 E. WASHINGTON BLVD, SUITE 14, 15",
    "city": "CRESCENT CITY",
    "zip": "95531",
    "county": "DEL NORTE",
    "phone": "(707) 464-8741",
    "lat": 41.772438,
    "lng": -124.1928
  },
  {
    "id": "630026748",
    "name": "SUTTER COAST HOME CARE AND SUTTER COAST HOSPICE",
    "npi": null,
    "hcaiId": null,
    "businessName": "SUTTER COAST HOSPITAL",
    "contactEmail": "ELLIE.POPADIC@SUTTERHEALTH.ORG",
    "categoryName": "HOSPICE",
    "categoryCode": "HOSPICE",
    "licenseStatus": "ACTIVE",
    "inService": true,
    "licenseNumber": "550009480",
    "licenseEffectiveDate": "09/25/2024",
    "licenseExpirationDate": "09/24/2026",
    "dataDate": "10/18/2025",
    "capacity": 0,
    "address": "785 E WASHINGTON BLVD, SUITE 15",
    "city": "CRESCENT CITY",
    "zip": "95531",
    "county": "DEL NORTE",
    "phone": "(707) 464-8857",
    "lat": 41.772438,
    "lng": -124.1928
  },
  {
    "id": "110000049",
    "name": "SUTTER COAST HOSPITAL",
    "npi": "1457367062",
    "hcaiId": "106084001",
    "businessName": "SUTTER COAST HOSPITAL",
    "contactEmail": "CLAUDIA.HOLMES@SUTTERHEALTH.ORG",
    "categoryName": "GENERAL ACUTE CARE HOSPITAL",
    "categoryCode": "GACH",
    "licenseStatus": "ACTIVE",
    "inService": true,
    "licenseNumber": "110000067",
    "licenseEffectiveDate": "02/01/2025",
    "licenseExpirationDate": "01/31/2026",
    "dataDate": "10/18/2025",
    "capacity": 49,
    "address": "800 E WASHINGTON BLVD",
    "city": "CRESCENT CITY",
    "zip": "95531",
    "county": "DEL NORTE",
    "phone": "(707) 464-8608",
    "lat": 41.774499,
    "lng": -124.193988
  },
  {
    "id": "630016561",
    "name": "SUTTER COAST HOSPITAL PPS REHABILITATION UNIT",
    "npi": "1457367062",
    "hcaiId": null,
    "businessName": "SUTTER COAST HOSPITAL",
    "contactEmail": null,
    "categoryName": "OTHER",
    "categoryCode": "PPSREHB",
    "licenseStatus": "ACTIVE",
    "inService": true,
    "licenseNumber": "110000067",
    "licenseEffectiveDate": "02/01/2025",
    "licenseExpirationDate": "01/31/2026",
    "dataDate": "10/18/2025",
    "capacity": 0,
    "address": "800 E. WASHINGTON BLVD",
    "city": "CRESCENT CITY",
    "zip": "95531",
    "county": "DEL NORTE",
    "phone": null,
    "lat": 41.774499,
    "lng": -124.193988
  },
  {
    "id": "630024813",
    "name": "TWO TREES HEALTHY START",
    "npi": null,
    "hcaiId": null,
    "businessName": "OPEN DOOR COMMUNITY HEALTH CENTERS",
    "contactEmail": null,
    "categoryName": "PRIMARY CARE CLINIC",
    "categoryCode": "COMTYC",
    "licenseStatus": "ACTIVE",
    "inService": true,
    "licenseNumber": "110000215",
    "licenseEffectiveDate": "11/10/2024",
    "licenseExpirationDate": "11/09/2025",
    "dataDate": "10/18/2025",
    "capacity": 0,
    "address": "544 W HARDING AVE",
    "city": "CRESCENT CITY",
    "zip": "95531",
    "county": "DEL NORTE",
    "phone": null,
    "lat": 41.767533,
    "lng": -124.208829
  },
  {
    "id": "630014318",
    "name": "UNITED INDIAN HEALTH SERVICES, INC.",
    "npi": null,
    "hcaiId": "306084007",
    "businessName": "UNITED INDIAN HEALTH SERVICES, INC.",
    "contactEmail": "LIZ.LARA@UIHS.ORG",
    "categoryName": "PRIMARY CARE CLINIC",
    "categoryCode": "COMTYC",
    "licenseStatus": "ACTIVE",
    "inService": true,
    "licenseNumber": "550002425",
    "licenseEffectiveDate": "08/12/2025",
    "licenseExpirationDate": "08/11/2026",
    "dataDate": "10/18/2025",
    "capacity": 0,
    "address": "1675 NORTHCREST DRIVE",
    "city": "CRESCENT CITY",
    "zip": "95531",
    "county": "DEL NORTE",
    "phone": "(707) 825-4100",
    "lat": 41.775363,
    "lng": -124.199082
  }
]