[
  {
    "id": "110000057",
    "name": "JEROLD PHELPS COMMUNITY HOSPITAL",
    "npi": "1003819376",
    "hcaiId": "106121031",
    "businessName": "SOUTHERN HUMBOLDT COMMUNITY HEALTHCARE DISTRICT",
    "contactEmail": "DGUERRA@SHCHD.ORG",
    "categoryName": "GENERAL ACUTE CARE HOSPITAL",
    "categoryCode": "GACH",
    "licenseStatus": "ACTIVE",
    "inService": true,
    "licenseNumber": "110000052",
    "licenseEffectiveDate": "10/16/2025",
    "licenseExpirationDate": "03/31/2026",
    "dataDate": "10/18/2025",
    "capacity": 9,
    "address": "733 CEDAR ST",
    "city": "GARBERVILLE",
    "zip": "95542",
    "county": "HUMBOLDT",
    "phone": "(707) 923-3921",
    "lat": 40.10157,
    "lng": -123.7924395
  },
  {
    "id": "110000621",
    "name": "JEROLD PHELPS COMMUNITY HOSPITAL D/P SNF",
    "npi": "1245458421",
    "hcaiId": null,
    "businessName": "SOUTHERN HUMBOLDT COMMUNITY HEALTHCARE DISTRICT",
    "contactEmail": null,
    "categoryName": "SKILLED NURSING FACILITY",
    "categoryCode": "SNF",
    "licenseStatus": "ACTIVE",
    "inService": true,
    "licenseNumber": "110000052",
    "licenseEffectiveDate": "10/16/2025",
    "licenseExpirationDate": "03/31/2026",
    "dataDate": "10/18/2025",
    "capacity": 8,
    "address": "733 CEDAR ST",
    "city": "GARBERVILLE",
    "zip": "95542",
    "county": "HUMBOLDT",
    "phone": "(707) 923-3921",
    "lat": 40.10157,
    "lng": -123.7924395
  },
  {
    "id": "110001257",
    "name": "SOUTHERN HUMBOLDT COMMUNITY CLINIC",
    "npi": "1336367515",
    "hcaiId": null,
    "businessName": "SOUTHERN HUMBOLDT COMMUNITY HEALTHCARE DISTRICT",
    "contactEmail": null,
    "categoryName": "PRIMARY CARE CLINIC",
    "categoryCode": "RHC/OP",
    "licenseStatus": "ACTIVE",
    "inService": true,
    "licenseNumber": "110000052",
    "licenseEffectiveDate": "10/16/2025",
    "licenseExpirationDate": "03/31/2026",
    "dataDate": "10/18/2025",
    "capacity": 0,
    "address": "509 ELM ST",
    "city": "GARBERVILLE",
    "zip": "95542",
    "county": "HUMBOLDT",
    "phone": null,
    "lat": 40.10134431,
    "lng": -123.7923666
  }
]