[
  {
    "id": "630016050",
    "name": "FORTUNA COMMUNITY HEALTH CENTER",
    "npi": "1306252051",
    "hcaiId": "306124044",
    "businessName": "OPEN DOOR COMMUNITY HEALTH CENTERS",
    "contactEmail": "SWATKINS@OPENDOORHEALTH.COM",
    "categoryName": "PRIMARY CARE CLINIC",
    "categoryCode": "COMTYC",
    "licenseStatus": "ACTIVE",
    "inService": true,
    "licenseNumber": "550003262",
    "licenseEffectiveDate": "11/03/2025",
    "licenseExpirationDate": "10/26/2026",
    "dataDate": "10/18/2025",
    "capacity": 0,
    "address": "3750 ROHNERVILLE RD",
    "city": "FORTUNA",
    "zip": "95540",
    "county": "HUMBOLDT",
    "phone": "(707) 826-8633",
    "lat": 40.58230466,
    "lng": -124.1309081
  },
  {
    "id": "110000615",
    "name": "FORTUNA FAMILY MEDICAL GROUP",
    "npi": "1376655217",
    "hcaiId": null,
    "businessName": null,
    "contactEmail": null,
    "categoryName": "PRIMARY CARE CLINIC",
    "categoryCode": "RHC",
    "licenseStatus": null,
    "inService": null,
    "licenseNumber": null,
    "licenseEffectiveDate": null,
    "licenseExpirationDate": null,
    "dataDate": "10/18/2025",
    "capacity": 0,
    "address": "874 MAIN ST",
    "city": "FORTUNA",
    "zip": "95540",
    "county": "HUMBOLDT",
    "phone": "(707) 725-3334",
    "lat": 40.598253,
    "lng": -124.158591
  },
  {
    "id": "630027112",
    "name": "FORTUNA FAMILY MEDICINE INC.",
    "npi": null,
    "hcaiId": null,
    "businessName": null,
    "contactEmail": "DONNA_LYON@FFMG.ORG",
    "categoryName": "PRIMARY CARE CLINIC",
    "categoryCode": "RHC",
    "licenseStatus": null,
    "inService": null,
    "licenseNumber": null,
    "licenseEffectiveDate": null,
    "licenseExpirationDate": null,
    "dataDate": "10/18/2025",
    "capacity": 0,
    "address": "2404 NEWBURG RD",
    "city": "FORTUNA",
    "zip": "95540",
    "county": "HUMBOLDT",
    "phone": "(707) 617-2002",
    "lat": 40.59065299,
    "lng": -124.1410568
  },
  {
    "id": "110000497",
    "name": "FORTUNA PHYSICAL THERAPY",
    "npi": null,
    "hcaiId": null,
    "businessName": null,
    "contactEmail": null,
    "categoryName": "OTHER",
    "categoryCode": "UNLICEN",
    "licenseStatus": null,
    "inService": null,
    "licenseNumber": null,
    "licenseEffectiveDate": null,
    "licenseExpirationDate": null,
    "dataDate": "10/18/2025",
    "capacity": 0,
    "address": "2600 NEWBURG RD",
    "city": "FORTUNA",
    "zip": "95540",
    "county": "HUMBOLDT",
    "phone": "(707) 725-6995",
    "lat": 40.59279362,
    "lng": -124.139606
  },
  {
    "id": "010000075",
    "name": "FORTUNA REHABILITATION & WELLNESS CENTER, LP",
    "npi": "1720385420",
    "hcaiId": "206121081",
    "businessName": "FORTUNA REHABILITATION & WELLNESS CENTER, LP",
    "contactEmail": "ADMINISTRATOR@FORTUNAREHABWC.COM",
    "categoryName": "SKILLED NURSING FACILITY",
    "categoryCode": "SNF",
    "licenseStatus": "ACTIVE",
    "inService": true,
    "licenseNumber": "010000076",
    "licenseEffectiveDate": "11/01/2025",
    "licenseExpirationDate": "10/31/2026",
    "dataDate": "10/18/2025",
    "capacity": 104,
    "address": "2321 NEWBURG RD",
    "city": "FORTUNA",
    "zip": "95540",
    "county": "HUMBOLDT",
    "phone": "(707) 725-4467",
    "lat": 40.58978733,
    "lng": -124.1416839
  },
  {
    "id": "630018371",
    "name": "HUMBOLDT SENIOR RESOURCE CENTER/FORTUNA ADHC",
    "npi": null,
    "hcaiId": null,
    "businessName": "HUMBOLDT SENIOR RESOURCE CENTER, INCORPORATED",
    "contactEmail": "ABRUHNKE@HUMSENIOR.ORG",
    "categoryName": "ADULT DAY HEALTH CARE",
    "categoryCode": "ADHC",
    "licenseStatus": "ACTIVE",
    "inService": true,
    "licenseNumber": "070000493",
    "licenseEffectiveDate": "11/21/2024",
    "licenseExpirationDate": "11/20/2025",
    "dataDate": "10/18/2025",
    "capacity": 0,
    "address": "3200 NEWBURG RD",
    "city": "FORTUNA",
    "zip": "95540",
    "county": "HUMBOLDT",
    "phone": "(707) 443-9747",
    "lat": 40.59518522,
    "lng": -124.1332048
  },
  {
    "id": "110000676",
    "name": "PROVIDENCE FAMILY PRACTICE",
    "npi": "1194189654",
    "hcaiId": null,
    "businessName": "ST. JOSEPH HEALTH NORTHERN CALIFORNIA LLC",
    "contactEmail": null,
    "categoryName": "PRIMARY CARE CLINIC",
    "categoryCode": "RHC",
    "licenseStatus": "ACTIVE",
    "inService": true,
    "licenseNumber": "110000173",
    "licenseEffectiveDate": "11/01/2025",
    "licenseExpirationDate": "10/31/2026",
    "dataDate": "10/18/2025",
    "capacity": 0,
    "address": "3302 RENNER DRIVE, SUITE A",
    "city": "FORTUNA",
    "zip": "95540",
    "county": "HUMBOLDT",
    "phone": "(707) 725-3318",
    "lat": 40.58238845,
    "lng": -124.1360238
  },
  {
    "id": "110000045",
    "name": "PROVIDENCE REDWOOD MEMORIAL HOSPITAL",
    "npi": "1043292303",
    "hcaiId": "106121051",
    "businessName": "ST. JOSEPH HEALTH NORTHERN CALIFORNIA LLC",
    "contactEmail": "MICHAEL.KELEMAN@PROVIDENCE.ORG",
    "categoryName": "GENERAL ACUTE CARE HOSPITAL",
    "categoryCode": "GACH",
    "licenseStatus": "ACTIVE",
    "inService": true,
    "licenseNumber": "110000173",
    "licenseEffectiveDate": "11/01/2025",
    "licenseExpirationDate": "10/31/2026",
    "dataDate": "10/18/2025",
    "capacity": 35,
    "address": "3300 RENNER DR",
    "city": "FORTUNA",
    "zip": "95540",
    "county": "HUMBOLDT",
    "phone": "(707) 445-8121",
    "lat": 40.582323,
    "lng": -124.1365185
  },
  {
    "id": "630018656",
    "name": "REDWOOD COAST PACE - FORTUNA",
    "npi": null,
    "hcaiId": "306120530",
    "businessName": "HUMBOLDT SENIOR RESOURCE CENTER, INCORPORATED",
    "contactEmail": "BLAHAIE@HUMSENIOR.ORG",
    "categoryName": "PRIMARY CARE CLINIC",
    "categoryCode": "COMTYC",
    "licenseStatus": "ACTIVE",
    "inService": true,
    "licenseNumber": "550005298",
    "licenseEffectiveDate": "02/20/2025",
    "licenseExpirationDate": "02/19/2026",
    "dataDate": "10/18/2025",
    "capacity": 0,
    "address": "3200 NEWBURG RD",
    "city": "FORTUNA",
    "zip": "95540",
    "county": "HUMBOLDT",
    "phone": "(707) 443-9747",
    "lat": 40.59518522,
    "lng": -124.1332048
  },
  {
    "id": "110000721",
    "name": "REDWOOD PEDIATRIC MEDICAL GROUP",
    "npi": "1164574083",
    "hcaiId": null,
    "businessName": null,
    "contactEmail": null,
    "categoryName": "PRIMARY CARE CLINIC",
    "categoryCode": "RHC/MD",
    "licenseStatus": null,
    "inService": null,
    "licenseNumber": null,
    "licenseEffectiveDate": null,
    "licenseExpirationDate": null,
    "dataDate": "10/18/2025",
    "capacity": 0,
    "address": "3305 RENNER DR",
    "city": "FORTUNA",
    "zip": "95540",
    "county": "HUMBOLDT",
    "phone": "(707) 725-9355",
    "lat": 40.58238838,
    "lng": -124.1359089
  },
  {
    "id": "630012920",
    "name": "REDWOOD WOMEN'S CENTER P.C.",
    "npi": "1871768200",
    "hcaiId": null,
    "businessName": null,
    "contactEmail": "BARBARA.SISSON@STJOE.ORG",
    "categoryName": "PRIMARY CARE CLINIC",
    "categoryCode": "RHC",
    "licenseStatus": null,
    "inService": null,
    "licenseNumber": null,
    "licenseEffectiveDate": null,
    "licenseExpirationDate": null,
    "dataDate": "10/18/2025",
    "capacity": 0,
    "address": "3309 RENNER DR",
    "city": "FORTUNA",
    "zip": "95540",
    "county": "HUMBOLDT",
    "phone": "(707) 725-6108",
    "lat": 40.58239915,
    "lng": -124.1359084
  },
  {
    "id": "630022028",
    "name": "REDWOODS RURAL HEALTH CENTER - FORTUNA",
    "npi": "1235206087",
    "hcaiId": null,
    "businessName": "REDWOOD RURAL HEALTH CENTER INC.",
    "contactEmail": null,
    "categoryName": "PRIMARY CARE CLINIC",
    "categoryCode": "COMTYC",
    "licenseStatus": "ACTIVE",
    "inService": true,
    "licenseNumber": "110000099",
    "licenseEffectiveDate": "11/19/2024",
    "licenseExpirationDate": "11/18/2025",
    "dataDate": "10/18/2025",
    "capacity": 0,
    "address": "930 S FORTUNA BLVD",
    "city": "FORTUNA",
    "zip": "95540",
    "county": "HUMBOLDT",
    "phone": null,
    "lat": 40.581351,
    "lng": -124.147341
  },
  {
    "id": "630027875",
    "name": "REDWOODS RURAL HEALTH CENTER OPTOMETRY",
    "npi": null,
    "hcaiId": null,
    "businessName": "REDWOOD RURAL HEALTH CENTER INC.",
    "contactEmail": null,
    "categoryName": "PRIMARY CARE CLINIC",
    "categoryCode": "COMTYC",
    "licenseStatus": "ACTIVE",
    "inService": true,
    "licenseNumber": "110000099",
    "licenseEffectiveDate": "11/19/2024",
    "licenseExpirationDate": "11/18/2025",
    "dataDate": "10/18/2025",
    "capacity": 0,
    "address": "630 9TH ST",
    "city": "FORTUNA",
    "zip": "95540",
    "county": "HUMBOLDT",
    "phone": null,
    "lat": 40.59809126,
    "lng": -124.1576414
  }
]