[
  {
    "id": "630018599",
    "name": "REDWAY ELEMENTARY",
    "npi": null,
    "hcaiId": null,
    "businessName": "REDWOOD RURAL HEALTH CENTER INC.",
    "contactEmail": null,
    "categoryName": "PRIMARY CARE CLINIC",
    "categoryCode": "COMTYC",
    "licenseStatus": "ACTIVE",
    "inService": true,
    "licenseNumber": "110000099",
    "licenseEffectiveDate": "11/19/2024",
    "licenseExpirationDate": "11/18/2025",
    "dataDate": "10/18/2025",
    "capacity": 0,
    "address": "344 HUMBOLDT AVE",
    "city": "REDWAY",
    "zip": "95560",
    "county": "HUMBOLDT",
    "phone": null,
    "lat": 40.118427,
    "lng": -123.824232
  },
  {
    "id": "630026938",
    "name": "REDWOODS RURAL HEALTH CENTER ADMIN ANNEX",
    "npi": "1235206087",
    "hcaiId": null,
    "businessName": "REDWOOD RURAL HEALTH CENTER INC.",
    "contactEmail": "TERRIK@RRHC.ORG",
    "categoryName": "PRIMARY CARE CLINIC",
    "categoryCode": "COMTYC",
    "licenseStatus": "ACTIVE",
    "inService": true,
    "licenseNumber": "110000099",
    "licenseEffectiveDate": "11/19/2024",
    "licenseExpirationDate": "11/18/2025",
    "dataDate": "10/18/2025",
    "capacity": 0,
    "address": "76 BRICELAND RD",
    "city": "REDWAY",
    "zip": "95560",
    "county": "HUMBOLDT",
    "phone": "(708) 923-7520",
    "lat": 40.12081033,
    "lng": -123.824964
  },
  {
    "id": "110000125",
    "name": "REDWOODS RURAL HEALTH CENTER, INC.",
    "npi": "1235206087",
    "hcaiId": "306121917",
    "businessName": "REDWOOD RURAL HEALTH CENTER INC.",
    "contactEmail": "TERRIK@RRHC.ORG",
    "categoryName": "PRIMARY CARE CLINIC",
    "categoryCode": "COMTYC",
    "licenseStatus": "ACTIVE",
    "inService": true,
    "licenseNumber": "110000099",
    "licenseEffectiveDate": "11/19/2024",
    "licenseExpirationDate": "11/18/2025",
    "dataDate": "10/18/2025",
    "capacity": 0,
    "address": "101 WEST COAST RD",
    "city": "REDWAY",
    "zip": "95560",
    "county": "HUMBOLDT",
    "phone": "(707) 923-7520",
    "lat": 40.116807,
    "lng": -123.813189
  },
  {
    "id": "630018231",
    "name": "RRHC MOBILE HEALTHCARE SERVICES",
    "npi": null,
    "hcaiId": null,
    "businessName": "REDWOOD RURAL HEALTH CENTER INC.",
    "contactEmail": null,
    "categoryName": "PRIMARY CARE CLINIC",
    "categoryCode": "COMTYC",
    "licenseStatus": "ACTIVE",
    "inService": true,
    "licenseNumber": "110000099",
    "licenseEffectiveDate": "11/19/2024",
    "licenseExpirationDate": "11/18/2025",
    "dataDate": "10/18/2025",
    "capacity": 0,
    "address": "101 W COAST RD",
    "city": "REDWAY",
    "zip": "95560",
    "county": "HUMBOLDT",
    "phone": null,
    "lat": 40.116807,
    "lng": -123.813189
  },
  {
    "id": "630019622",
    "name": "RRHC MOBILE MEDICAL OFFICE",
    "npi": null,
    "hcaiId": null,
    "businessName": "REDWOOD RURAL HEALTH CENTER INC.",
    "contactEmail": null,
    "categoryName": "PRIMARY CARE CLINIC",
    "categoryCode": "COMTYC",
    "licenseStatus": "ACTIVE",
    "inService": true,
    "licenseNumber": "110000099",
    "licenseEffectiveDate": "11/19/2024",
    "licenseExpirationDate": "11/18/2025",
    "dataDate": "10/18/2025",
    "capacity": 0,
    "address": "101 W COAST RD",
    "city": "REDWAY",
    "zip": "95560",
    "county": "HUMBOLDT",
    "phone": null,
    "lat": 40.116807,
    "lng": -123.813189
  },
  {
    "id": "630021743",
    "name": "RRHC SATELLITE DENTAL OFFICE",
    "npi": "1235206087",
    "hcaiId": null,
    "businessName": "REDWOOD RURAL HEALTH CENTER INC.",
    "contactEmail": null,
    "categoryName": "PRIMARY CARE CLINIC",
    "categoryCode": "COMTYC",
    "licenseStatus": "ACTIVE",
    "inService": true,
    "licenseNumber": "110000099",
    "licenseEffectiveDate": "11/19/2024",
    "licenseExpirationDate": "11/18/2025",
    "dataDate": "10/18/2025",
    "capacity": 0,
    "address": "217 BRICELAND THORNE RD",
    "city": "REDWAY",
    "zip": "95560",
    "county": "HUMBOLDT",
    "phone": null,
    "lat": 40.12092786,
    "lng": -123.8263922
  }
]