[
  {
    "id": "630017347",
    "name": "HOWONQUET CLINIC",
    "npi": null,
    "hcaiId": null,
    "businessName": null,
    "contactEmail": null,
    "categoryName": "PRIMARY CARE CLINIC",
    "categoryCode": "FQHC",
    "licenseStatus": null,
    "inService": null,
    "licenseNumber": null,
    "licenseEffectiveDate": null,
    "licenseExpirationDate": null,
    "dataDate": "10/18/2025",
    "capacity": 0,
    "address": "501 N INDIAN RD",
    "city": "SMITH RIVER",
    "zip": "95567",
    "county": "DEL NORTE",
    "phone": "(707) 825-5000",
    "lat": 41.957613,
    "lng": -124.204518
  },
  {
    "id": "110000920",
    "name": "UIHS SMITH RIVER HOWONOQUET HEALTH STATION",
    "npi": null,
    "hcaiId": null,
    "businessName": null,
    "contactEmail": null,
    "categoryName": "PRIMARY CARE CLINIC",
    "categoryCode": "COMTYC",
    "licenseStatus": null,
    "inService": null,
    "licenseNumber": null,
    "licenseEffectiveDate": null,
    "licenseExpirationDate": null,
    "dataDate": "10/18/2025",
    "capacity": 0,
    "address": "501 N INDIAN RD",
    "city": "SMITH RIVER",
    "zip": "95567",
    "county": "DEL NORTE",
    "phone": "(707) 487-0215",
    "lat": 41.957613,
    "lng": -124.204518
  },
  {
    "id": "630012242",
    "name": "UNITED INDIAN HEALTH SERVICES, INC",
    "npi": "1821440371",
    "hcaiId": null,
    "businessName": null,
    "contactEmail": null,
    "categoryName": "PRIMARY CARE CLINIC",
    "categoryCode": "COMTYC",
    "licenseStatus": null,
    "inService": null,
    "licenseNumber": null,
    "licenseEffectiveDate": null,
    "licenseExpirationDate": null,
    "dataDate": "10/18/2025",
    "capacity": 0,
    "address": "501 N INDIAN RD",
    "city": "SMITH RIVER",
    "zip": "95567",
    "county": "DEL NORTE",
    "phone": null,
    "lat": 41.957613,
    "lng": -124.204518
  }
]