[
  {
    "id": "630021578",
    "name": "ALL INCLUSIVE MEDICAL SERVICES HOME HEALTH CARE, INC",
    "npi": null,
    "hcaiId": "406345578",
    "businessName": "ALL INCLUSIVE MEDICAL SERVICES HOME HEALTH CARE, INC",
    "contactEmail": "BUDO@AIMSCARE.ORG",
    "categoryName": "HOME HEALTH AGENCY",
    "categoryCode": "HHA",
    "licenseStatus": "ACTIVE",
    "inService": true,
    "licenseNumber": "550007709",
    "licenseEffectiveDate": "11/23/2023",
    "licenseExpirationDate": "11/22/2024",
    "dataDate": "10/18/2025",
    "capacity": 0,
    "address": "5900 COYLE AVE, SUITE C - 2",
    "city": "CARMICHAEL",
    "zip": "95608",
    "county": "SACRAMENTO",
    "phone": "(279) 345-2018",
    "lat": 38.667573,
    "lng": -121.3267905
  },
  {
    "id": "630021162",
    "name": "AMARI HOME HEALTH CARE, INC.",
    "npi": "1538776042",
    "hcaiId": "406195689",
    "businessName": "AMARI HOME HEALTH CARE, INC.",
    "contactEmail": "AMARIHOMEHEALTHCARE@GMAIL.COM",
    "categoryName": "HOME HEALTH AGENCY",
    "categoryCode": "HHA",
    "licenseStatus": "ACTIVE",
    "inService": true,
    "licenseNumber": "550006568",
    "licenseEffectiveDate": "07/08/2025",
    "licenseExpirationDate": "07/07/2026",
    "dataDate": "10/18/2025",
    "capacity": 0,
    "address": "6720 FAIR OAKS BLVD, SUITE 200",
    "city": "CARMICHAEL",
    "zip": "95608",
    "county": "SACRAMENTO",
    "phone": "(279) 777-5570",
    "lat": 38.62306586,
    "lng": -121.3279694
  },
  {
    "id": "630019984",
    "name": "AMARI HOSPICE CARE INC.",
    "npi": "1043841612",
    "hcaiId": "406346135",
    "businessName": "AMARI HOSPICE CARE INC.",
    "contactEmail": "AMARIHOSPICECARE@YAHOO.COM",
    "categoryName": "HOSPICE",
    "categoryCode": "HOSPICE",
    "licenseStatus": "ACTIVE",
    "inService": true,
    "licenseNumber": "550005936",
    "licenseEffectiveDate": "12/08/2024",
    "licenseExpirationDate": "12/07/2026",
    "dataDate": "10/18/2025",
    "capacity": 0,
    "address": "6720 FAIR OAKS BLVD, SUITE 100",
    "city": "CARMICHAEL",
    "zip": "95608",
    "county": "SACRAMENTO",
    "phone": "(916) 993-9679",
    "lat": 38.623068,
    "lng": -121.3279695
  },
  {
    "id": "030001004",
    "name": "AMERICAN RIVER CENTER",
    "npi": "1639126287",
    "hcaiId": "206344052",
    "businessName": "SUNBRIDGE BRITTANY REHABILITATION CENTER, LLC",
    "contactEmail": "ADMINISTRATOR@AMERICANRIVERCC.COM",
    "categoryName": "SKILLED NURSING FACILITY",
    "categoryCode": "SNF",
    "licenseStatus": "ACTIVE",
    "inService": true,
    "licenseNumber": "030000404",
    "licenseEffectiveDate": "12/06/2024",
    "licenseExpirationDate": "12/05/2025",
    "dataDate": "10/18/2025",
    "capacity": 99,
    "address": "3900 GARFIELD AVENUE",
    "city": "CARMICHAEL",
    "zip": "95608",
    "county": "SACRAMENTO",
    "phone": "(916) 481-6455",
    "lat": 38.635947,
    "lng": -121.3360605
  },
  {
    "id": "630022074",
    "name": "AMERICAN RIVER DIALYSIS",
    "npi": "1063010734",
    "hcaiId": "306340635",
    "businessName": "MONAD DIALYSIS, LLC",
    "contactEmail": "CAL_C@DAVITA.COM",
    "categoryName": "CHRONIC DIALYSIS CLINIC",
    "categoryCode": "ESRD/CDC",
    "licenseStatus": "ACTIVE",
    "inService": true,
    "licenseNumber": "550006524",
    "licenseEffectiveDate": "07/09/2025",
    "licenseExpirationDate": "07/08/2026",
    "dataDate": "10/18/2025",
    "capacity": 24,
    "address": "5238 MANZANITA AVE",
    "city": "CARMICHAEL",
    "zip": "95608",
    "county": "SACRAMENTO",
    "phone": "(279) 972-9781",
    "lat": 38.66281704,
    "lng": -121.327348
  },
  {
    "id": "630026601",
    "name": "COMMUNITY HEALTH CENTERS OF AMERICA",
    "npi": null,
    "hcaiId": null,
    "businessName": "COMMUNITY HEALTH CENTERS OF AMERICA",
    "contactEmail": null,
    "categoryName": "PRIMARY CARE CLINIC",
    "categoryCode": "COMTYC",
    "licenseStatus": "ACTIVE",
    "inService": true,
    "licenseNumber": "550005091",
    "licenseEffectiveDate": "11/07/2025",
    "licenseExpirationDate": "11/06/2026",
    "dataDate": "10/18/2025",
    "capacity": 0,
    "address": "5723 MARCONI AVE",
    "city": "CARMICHAEL",
    "zip": "95608",
    "county": "SACRAMENTO",
    "phone": null,
    "lat": 38.617992,
    "lng": -121.3309395
  },
  {
    "id": "030001131",
    "name": "ESKATON VILLAGE CARE CENTER",
    "npi": "1780680025",
    "hcaiId": "206344077",
    "businessName": "ESKATON PROPERTIES, INCORPORATED",
    "contactEmail": "SEAN.BELOUD@ESKATON.ORG",
    "categoryName": "SKILLED NURSING FACILITY",
    "categoryCode": "SNF",
    "licenseStatus": "ACTIVE",
    "inService": true,
    "licenseNumber": "030000466",
    "licenseEffectiveDate": "03/04/2025",
    "licenseExpirationDate": "03/03/2026",
    "dataDate": "10/18/2025",
    "capacity": 35,
    "address": "3939 WALNUT AVENUE",
    "city": "CARMICHAEL",
    "zip": "95608",
    "county": "SACRAMENTO",
    "phone": "(916) 974-2060",
    "lat": 38.636523,
    "lng": -121.348341
  },
  {
    "id": "630026960",
    "name": "INTEGRATIVE HOME HEALTH LLC",
    "npi": null,
    "hcaiId": null,
    "businessName": "INTEGRATIVE HOME HEALTH  LLC",
    "contactEmail": "ADMIN@INTEGRATIVEHOMEHEALTH.ORG",
    "categoryName": "HOME HEALTH AGENCY",
    "categoryCode": "HHA",
    "licenseStatus": "ACTIVE",
    "inService": true,
    "licenseNumber": "550009893",
    "licenseEffectiveDate": "07/14/2025",
    "licenseExpirationDate": "01/13/2026",
    "dataDate": "10/18/2025",
    "capacity": 0,
    "address": "6450 COYLE AVE, SUITE 1",
    "city": "CARMICHAEL",
    "zip": "95608",
    "county": "SACRAMENTO",
    "phone": "(916) 547-6671",
    "lat": 38.66780548,
    "lng": -121.3125121
  },
  {
    "id": "110001163",
    "name": "MANZANITA DIALYSIS CENTER",
    "npi": "1134182561",
    "hcaiId": "306342343",
    "businessName": "TOTAL RENAL CARE, INC.",
    "contactEmail": "CAL_C@DAVITA.COM",
    "categoryName": "CHRONIC DIALYSIS CLINIC",
    "categoryCode": "ESRD/CDC",
    "licenseStatus": "ACTIVE",
    "inService": true,
    "licenseNumber": "110000452",
    "licenseEffectiveDate": "05/05/2025",
    "licenseExpirationDate": "05/04/2026",
    "dataDate": "10/18/2025",
    "capacity": 21,
    "address": "4005 MANZANITA AVE, SUITE 17",
    "city": "CARMICHAEL",
    "zip": "95608",
    "county": "SACRAMENTO",
    "phone": "(916) 483-3241",
    "lat": 38.637936,
    "lng": -121.330494
  },
  {
    "id": "030000053",
    "name": "MANZANITA HEALTHCARE CENTER",
    "npi": "1548963127",
    "hcaiId": "206342207",
    "businessName": "BALEEN LLC",
    "contactEmail": "ZTYSON@CYPRESSH.COM",
    "categoryName": "SKILLED NURSING FACILITY",
    "categoryCode": "SNF",
    "licenseStatus": "ACTIVE",
    "inService": true,
    "licenseNumber": "030000153",
    "licenseEffectiveDate": "03/01/2025",
    "licenseExpirationDate": "02/28/2026",
    "dataDate": "10/18/2025",
    "capacity": 99,
    "address": "5318 MANZANITA AVENUE",
    "city": "CARMICHAEL",
    "zip": "95608",
    "county": "SACRAMENTO",
    "phone": null,
    "lat": 38.663964,
    "lng": -121.3269615
  },
  {
    "id": "030000127",
    "name": "MERCY SAN JUAN MEDICAL CENTER",
    "npi": "1972541495",
    "hcaiId": "106340950",
    "businessName": "DIGNITY HEALTH",
    "contactEmail": "AUSTIN.MANNING@COMMONSPIRIT.ORG",
    "categoryName": "GENERAL ACUTE CARE HOSPITAL",
    "categoryCode": "GACH",
    "licenseStatus": "ACTIVE",
    "inService": true,
    "licenseNumber": "030000063",
    "licenseEffectiveDate": "12/31/2024",
    "licenseExpirationDate": "12/30/2025",
    "dataDate": "10/18/2025",
    "capacity": 384,
    "address": "6501 COYLE AVENUE",
    "city": "CARMICHAEL",
    "zip": "95608",
    "county": "SACRAMENTO",
    "phone": "(916) 537-5000",
    "lat": 38.669562,
    "lng": -121.31379
  },
  {
    "id": "030000028",
    "name": "MISSION CARMICHAEL HEALTHCARE CENTER",
    "npi": "1578133807",
    "hcaiId": "206340953",
    "businessName": "MISSION CARMICHAEL POST ACUTE LLC",
    "contactEmail": "ADMIN@MISSIONCARMICHAEL.COM",
    "categoryName": "SKILLED NURSING FACILITY",
    "categoryCode": "SNF",
    "licenseStatus": "ACTIVE",
    "inService": true,
    "licenseNumber": "030000065",
    "licenseEffectiveDate": "11/01/2025",
    "licenseExpirationDate": "10/31/2026",
    "dataDate": "10/18/2025",
    "capacity": 135,
    "address": "3630 MISSION AVENUE",
    "city": "CARMICHAEL",
    "zip": "95608",
    "county": "SACRAMENTO",
    "phone": "(916) 488-1580",
    "lat": 38.630925,
    "lng": -121.354353
  },
  {
    "id": "030000165",
    "name": "MOUNTAIN MANOR SENIOR RESIDENCE",
    "npi": "1770998080",
    "hcaiId": "206340959",
    "businessName": "GRANDCARE, INC.",
    "contactEmail": "DARRELLP@MOUNTAIN-MANOR.COM",
    "categoryName": "SKILLED NURSING FACILITY",
    "categoryCode": "SNF",
    "licenseStatus": "ACTIVE",
    "inService": true,
    "licenseNumber": "030000067",
    "licenseEffectiveDate": "12/18/2024",
    "licenseExpirationDate": "12/17/2025",
    "dataDate": "10/18/2025",
    "capacity": 47,
    "address": "6101 FAIR OAKS BOULEVARD",
    "city": "CARMICHAEL",
    "zip": "95608",
    "county": "SACRAMENTO",
    "phone": "(916) 488-7211",
    "lat": 38.612079,
    "lng": -121.329297
  },
  {
    "id": "630027919",
    "name": "ONE COMMUNITY HEALTH - CARMICHAEL HEALTH CENTER",
    "npi": null,
    "hcaiId": null,
    "businessName": "CARES COMMUNITY HEALTH",
    "contactEmail": null,
    "categoryName": "PRIMARY CARE CLINIC",
    "categoryCode": "COMTYC",
    "licenseStatus": "ACTIVE",
    "inService": true,
    "licenseNumber": "030000371",
    "licenseEffectiveDate": "05/01/2025",
    "licenseExpirationDate": "04/30/2026",
    "dataDate": "10/18/2025",
    "capacity": 0,
    "address": "3637 MISSION AVE, BUILDING A, SUITES 1-3",
    "city": "CARMICHAEL",
    "zip": "95608",
    "county": "SACRAMENTO",
    "phone": null,
    "lat": 38.63156615,
    "lng": -121.3558756
  },
  {
    "id": "100001482",
    "name": "RCCA - GREEN PARK",
    "npi": "1477689396",
    "hcaiId": null,
    "businessName": "RES-CARE CALIFORNIA, INC.",
    "contactEmail": "SHARRAE.ELSTON@RESCARE.COM",
    "categoryName": "INTERMEDIATE CARE FACILITY-DD/H/N/CN/IID",
    "categoryCode": "ICFDDH",
    "licenseStatus": "ACTIVE",
    "inService": true,
    "licenseNumber": "100000608",
    "licenseEffectiveDate": "12/20/2024",
    "licenseExpirationDate": "12/19/2025",
    "dataDate": "10/18/2025",
    "capacity": 6,
    "address": "3315 GREEN PARK LANE",
    "city": "CARMICHAEL",
    "zip": "95608",
    "county": "SACRAMENTO",
    "phone": "(916) 487-7497",
    "lat": 38.625147,
    "lng": -121.330899
  },
  {
    "id": "100001484",
    "name": "RCCA - LEQUEL",
    "npi": "1649306986",
    "hcaiId": null,
    "businessName": "RES-CARE CALIFORNIA, INC.",
    "contactEmail": "SHARRAE.ELSTON@RESCARE.COM",
    "categoryName": "INTERMEDIATE CARE FACILITY-DD/H/N/CN/IID",
    "categoryCode": "ICFDDH",
    "licenseStatus": "ACTIVE",
    "inService": true,
    "licenseNumber": "100000609",
    "licenseEffectiveDate": "12/24/2024",
    "licenseExpirationDate": "12/23/2025",
    "dataDate": "10/18/2025",
    "capacity": 6,
    "address": "5208 LEQUEL WAY",
    "city": "CARMICHAEL",
    "zip": "95608",
    "county": "SACRAMENTO",
    "phone": "(916) 971-9086",
    "lat": 38.631636,
    "lng": -121.342338
  },
  {
    "id": "030000076",
    "name": "RIVER POINTE POST-ACUTE",
    "npi": "1265934632",
    "hcaiId": "206340958",
    "businessName": "DANUBE RIVER HOLDINGS, LLC",
    "contactEmail": "MARK@LINKSHEALTH.COM",
    "categoryName": "SKILLED NURSING FACILITY",
    "categoryCode": "SNF",
    "licenseStatus": "ACTIVE",
    "inService": true,
    "licenseNumber": "030000177",
    "licenseEffectiveDate": "03/16/2025",
    "licenseExpirationDate": "03/15/2026",
    "dataDate": "10/18/2025",
    "capacity": 112,
    "address": "6041 FAIR OAKS BOULEVARD",
    "city": "CARMICHAEL",
    "zip": "95608",
    "county": "SACRAMENTO",
    "phone": "(916) 483-8103",
    "lat": 38.611422,
    "lng": -121.3295175
  },
  {
    "id": "630024739",
    "name": "VARD HOME HEALTH CARE,INC.",
    "npi": null,
    "hcaiId": "406346349",
    "businessName": "VARD HOME HEALTH CARE,INC.",
    "contactEmail": "VARDHHC@GMAIL.COM",
    "categoryName": "HOME HEALTH AGENCY",
    "categoryCode": "HHA",
    "licenseStatus": "ACTIVE",
    "inService": true,
    "licenseNumber": "550008473",
    "licenseEffectiveDate": "10/14/2025",
    "licenseExpirationDate": "04/13/2026",
    "dataDate": "10/18/2025",
    "capacity": 0,
    "address": "7637 FAIR OAKS BLVD, SUITE 2",
    "city": "CARMICHAEL",
    "zip": "95608",
    "county": "SACRAMENTO",
    "phone": "(916) 970-7733",
    "lat": 38.63745,
    "lng": -121.3238205
  },
  {
    "id": "030000105",
    "name": "WHITNEY OAKS CARE CENTER",
    "npi": "1134427362",
    "hcaiId": "206341076",
    "businessName": "QUEEN ANN'S LACE HOLDINGS, LLC",
    "contactEmail": "ABE.OLSON@WHITNEYOAKSCC.COM",
    "categoryName": "SKILLED NURSING FACILITY",
    "categoryCode": "SNF",
    "licenseStatus": "ACTIVE",
    "inService": true,
    "licenseNumber": "030000114",
    "licenseEffectiveDate": "06/07/2025",
    "licenseExpirationDate": "06/06/2026",
    "dataDate": "10/18/2025",
    "capacity": 126,
    "address": "3529 WALNUT AVENUE",
    "city": "CARMICHAEL",
    "zip": "95608",
    "county": "SACRAMENTO",
    "phone": "(916) 488-8601",
    "lat": 38.629179,
    "lng": -121.3466355
  },
  {
    "id": "030000046",
    "name": "WINDSOR EL CAMINO CARE CENTER",
    "npi": "1316083025",
    "hcaiId": "206340862",
    "businessName": "WINDSOR EL CAMINO CARE CENTER, LLC",
    "contactEmail": "ADMINISTRATOR@WINDSORELCAMINO.COM",
    "categoryName": "SKILLED NURSING FACILITY",
    "categoryCode": "SNF",
    "licenseStatus": "ACTIVE",
    "inService": true,
    "licenseNumber": "030000032",
    "licenseEffectiveDate": "04/01/2025",
    "licenseExpirationDate": "03/31/2026",
    "dataDate": "10/18/2025",
    "capacity": 178,
    "address": "2540 CARMICHAEL WAY",
    "city": "CARMICHAEL",
    "zip": "95608",
    "county": "SACRAMENTO",
    "phone": "(916) 482-0465",
    "lat": 38.611062,
    "lng": -121.3269975
  }
]