[
  {
    "id": "110001161",
    "name": "AUBURN DIALYSIS",
    "npi": "1235103599",
    "hcaiId": "306314036",
    "businessName": "DVA RENAL HEALTHCARE, INC.",
    "contactEmail": "CAL_C@DAVITA.COM",
    "categoryName": "CHRONIC DIALYSIS CLINIC",
    "categoryCode": "ESRD/CDC",
    "licenseStatus": "ACTIVE",
    "inService": true,
    "licenseNumber": "110000450",
    "licenseEffectiveDate": "04/11/2025",
    "licenseExpirationDate": "04/10/2026",
    "dataDate": "10/18/2025",
    "capacity": 16,
    "address": "3126 PROFESSIONAL DR, SUITE 100 & 150",
    "city": "AUBURN",
    "zip": "95603",
    "county": "PLACER",
    "phone": "(530) 886-8221",
    "lat": 38.940957,
    "lng": -121.1003055
  },
  {
    "id": "030000280",
    "name": "AUBURN OAKS CARE CENTER",
    "npi": "1700184991",
    "hcaiId": "206312834",
    "businessName": "ALOE HOLDINGS, LLC",
    "contactEmail": "JORIN.LARSEN@AUBURNOAKSCC.COM",
    "categoryName": "SKILLED NURSING FACILITY",
    "categoryCode": "SNF",
    "licenseStatus": "ACTIVE",
    "inService": true,
    "licenseNumber": "030000258",
    "licenseEffectiveDate": "06/07/2025",
    "licenseExpirationDate": "06/06/2026",
    "dataDate": "10/18/2025",
    "capacity": 99,
    "address": "3400 BELL ROAD",
    "city": "AUBURN",
    "zip": "95603",
    "county": "PLACER",
    "phone": "(530) 888-6257",
    "lat": 38.942316,
    "lng": -121.109958
  },
  {
    "id": "030000013",
    "name": "AUBURN RAVINE HEALTHCARE CENTER",
    "npi": "1568183788",
    "hcaiId": "206312230",
    "businessName": "GLOCKSTON LLC",
    "contactEmail": "JJONES@CYPRESSH.COM",
    "categoryName": "SKILLED NURSING FACILITY",
    "categoryCode": "SNF",
    "licenseStatus": "ACTIVE",
    "inService": true,
    "licenseNumber": "030000172",
    "licenseEffectiveDate": "11/04/2025",
    "licenseExpirationDate": "11/03/2026",
    "dataDate": "10/18/2025",
    "capacity": 59,
    "address": "750 AUBURN RAVINE ROAD",
    "city": "AUBURN",
    "zip": "95603",
    "county": "PLACER",
    "phone": "(530) 823-6131",
    "lat": 38.91204,
    "lng": -121.074201
  },
  {
    "id": "030000252",
    "name": "CHAPA-DE INDIAN HEALTH PROGRAM, INC.",
    "npi": "1508882911",
    "hcaiId": "306312257",
    "businessName": "CHAPA-DE INDIAN HEALTH PROGRAM, INC.",
    "contactEmail": "LDAVIES@CHAPA-DE.ORG",
    "categoryName": "PRIMARY CARE CLINIC",
    "categoryCode": "COMTYC",
    "licenseStatus": "ACTIVE",
    "inService": true,
    "licenseNumber": "030000189",
    "licenseEffectiveDate": "11/15/2025",
    "licenseExpirationDate": "11/14/2026",
    "dataDate": "10/18/2025",
    "capacity": 0,
    "address": "11670 ATWOOD ROAD",
    "city": "AUBURN",
    "zip": "95603",
    "county": "PLACER",
    "phone": "(530) 863-4692",
    "lat": 38.933379,
    "lng": -121.098735
  },
  {
    "id": "630017697",
    "name": "PIC COMFORT CARE",
    "npi": "1518476845",
    "hcaiId": "406312636",
    "businessName": "PARTNERS IN CARE HOSPICE, LLC",
    "contactEmail": "BURT@PICSENIORCARE.COM",
    "categoryName": "HOSPICE",
    "categoryCode": "HOSPICE",
    "licenseStatus": "ACTIVE",
    "inService": true,
    "licenseNumber": "550004843",
    "licenseEffectiveDate": "07/25/2025",
    "licenseExpirationDate": "07/24/2027",
    "dataDate": "10/18/2025",
    "capacity": 0,
    "address": "560 WALL ST, SUITE F",
    "city": "AUBURN",
    "zip": "95603",
    "county": "PLACER",
    "phone": "(530) 885-9948",
    "lat": 38.909367,
    "lng": -121.0751505
  },
  {
    "id": "100001277",
    "name": "PROGRESSIVE HOME CARE - AUBURN",
    "npi": "1396770269",
    "hcaiId": "406314018",
    "businessName": "GRANITE POINT PARTNERS, LLC",
    "contactEmail": "KENTONWEAVER@HOTMAIL.COM",
    "categoryName": "HOME HEALTH AGENCY",
    "categoryCode": "HHA",
    "licenseStatus": "ACTIVE",
    "inService": true,
    "licenseNumber": "100000529",
    "licenseEffectiveDate": "01/31/2025",
    "licenseExpirationDate": "01/30/2026",
    "dataDate": "10/18/2025",
    "capacity": 0,
    "address": "11879 KEMPER ROAD, SUITE 15",
    "city": "AUBURN",
    "zip": "95603",
    "county": "PLACER",
    "phone": "(530) 823-3896",
    "lat": 38.931579,
    "lng": -121.091967
  },
  {
    "id": "630021878",
    "name": "PROGRESSIVE HOSPICE SERVICES",
    "npi": "1902565310",
    "hcaiId": "406315743",
    "businessName": "GRANITE POINT CAPITAL II, LLC",
    "contactEmail": "ADMIN@PROGRESSIVEHOSPICESERVICES.COM",
    "categoryName": "HOSPICE",
    "categoryCode": "HOSPICE",
    "licenseStatus": "ACTIVE",
    "inService": true,
    "licenseNumber": "550007722",
    "licenseEffectiveDate": "12/22/2023",
    "licenseExpirationDate": "12/21/2025",
    "dataDate": "10/18/2025",
    "capacity": 0,
    "address": "11879 KEMPER RD, SUITE 17",
    "city": "AUBURN",
    "zip": "95603",
    "county": "PLACER",
    "phone": "(530) 887-2143",
    "lat": 38.931687,
    "lng": -121.091796
  },
  {
    "id": "630025418",
    "name": "RIDGELINE PEDIATRIC - AUBURN",
    "npi": null,
    "hcaiId": null,
    "businessName": "CROSSPEAKS SERVICES, INC.",
    "contactEmail": "MLYMAN@RIDGELINEPEDIATRIC.COM",
    "categoryName": "PEDIATRIC DAY HEALTH & RESPITE CARE FACILITY",
    "categoryCode": "PDHRCF",
    "licenseStatus": "ACTIVE",
    "inService": true,
    "licenseNumber": "550008133",
    "licenseEffectiveDate": "08/23/2025",
    "licenseExpirationDate": "08/22/2026",
    "dataDate": "10/18/2025",
    "capacity": 6,
    "address": "1121 MAIDU DR",
    "city": "AUBURN",
    "zip": "95603",
    "county": "PLACER",
    "phone": "(530) 537-2959",
    "lat": 38.87563591,
    "lng": -121.0798184
  },
  {
    "id": "030000011",
    "name": "ROCK CREEK CARE CENTER",
    "npi": "1225346315",
    "hcaiId": "206310790",
    "businessName": "ULMUS HOLDINGS, LLC",
    "contactEmail": "BLAKE.DRAPER@ROCKCREEKCA.COM",
    "categoryName": "SKILLED NURSING FACILITY",
    "categoryCode": "SNF",
    "licenseStatus": "ACTIVE",
    "inService": true,
    "licenseNumber": "030000011",
    "licenseEffectiveDate": "11/24/2024",
    "licenseExpirationDate": "11/23/2025",
    "dataDate": "10/18/2025",
    "capacity": 84,
    "address": "260 RACETRACK STREET",
    "city": "AUBURN",
    "zip": "95603",
    "county": "PLACER",
    "phone": "(530) 885-7051",
    "lat": 38.890656,
    "lng": -121.0779495
  },
  {
    "id": "030001023",
    "name": "SUTTER AUBURN SURGERY CENTER",
    "npi": "1306881164",
    "hcaiId": "306314010",
    "businessName": "AUBURN SURGICAL CENTER, LP",
    "contactEmail": null,
    "categoryName": "SURGICAL CLINIC",
    "categoryCode": "ASC",
    "licenseStatus": "INACTIVE - CAPEN DECISION",
    "inService": false,
    "licenseNumber": "030000425",
    "licenseEffectiveDate": "11/27/2013",
    "licenseExpirationDate": "11/26/2014",
    "dataDate": "10/18/2025",
    "capacity": 0,
    "address": "3123 PROFESSIONAL DRIVE, SUITE 100",
    "city": "AUBURN",
    "zip": "95603",
    "county": "PLACER",
    "phone": "(530) 888-8899",
    "lat": 38.941164,
    "lng": -121.1015295
  },
  {
    "id": "030000958",
    "name": "VIBRANTCARE  OUTPATIENT REHABILITATION OF CALIFORNIA INC.",
    "npi": "1255338125",
    "hcaiId": null,
    "businessName": null,
    "contactEmail": null,
    "categoryName": "REHABILITATION CLINIC",
    "categoryCode": "OPT/SP",
    "licenseStatus": null,
    "inService": null,
    "licenseNumber": null,
    "licenseEffectiveDate": null,
    "licenseExpirationDate": null,
    "dataDate": "10/18/2025",
    "capacity": 0,
    "address": "250 ELM AVENUE",
    "city": "AUBURN",
    "zip": "95603",
    "county": "PLACER",
    "phone": "(530) 889-2411",
    "lat": 38.90307023,
    "lng": -121.068597
  },
  {
    "id": "630017036",
    "name": "WESTERN SIERRA MEDICAL CLINIC",
    "npi": null,
    "hcaiId": null,
    "businessName": "WESTERN SIERRA MEDICAL CLINIC, INC.",
    "contactEmail": null,
    "categoryName": "PRIMARY CARE CLINIC",
    "categoryCode": "COMTYC",
    "licenseStatus": "ACTIVE",
    "inService": true,
    "licenseNumber": "230000145",
    "licenseEffectiveDate": "04/15/2025",
    "licenseExpirationDate": "04/14/2026",
    "dataDate": "10/18/2025",
    "capacity": 0,
    "address": "3111 PROFESSIONAL DRIVE",
    "city": "AUBURN",
    "zip": "95603",
    "county": "PLACER",
    "phone": null,
    "lat": 38.94039,
    "lng": -121.1017095
  }
]