[
  {
    "id": "030001605",
    "name": "SIENA SKILLED NURSING & REHABILITATION CENTER",
    "npi": "1386160703",
    "hcaiId": "206314025",
    "businessName": "GHC OF AUBURN, LLC",
    "contactEmail": "NIMAPOURFATHI@LIFEGEN.NET",
    "categoryName": "SKILLED NURSING FACILITY",
    "categoryCode": "SNF",
    "licenseStatus": "ACTIVE",
    "inService": true,
    "licenseNumber": "030000670",
    "licenseEffectiveDate": "10/07/2025",
    "licenseExpirationDate": "10/06/2026",
    "dataDate": "10/18/2025",
    "capacity": 105,
    "address": "11600 EDUCATION STREET",
    "city": "AUBURN",
    "zip": "95602",
    "county": "PLACER",
    "phone": "(408) 348-1219",
    "lat": 38.943243,
    "lng": -121.105881
  },
  {
    "id": "030000109",
    "name": "SUTTER AUBURN FAITH HOSPITAL",
    "npi": "1194774299",
    "hcaiId": "106310791",
    "businessName": "SUTTER VALLEY HOSPITALS",
    "contactEmail": "CAROL.ZOBEL@SUTTERHEALTH.ORG",
    "categoryName": "GENERAL ACUTE CARE HOSPITAL",
    "categoryCode": "GACH",
    "licenseStatus": "ACTIVE",
    "inService": true,
    "licenseNumber": "030000012",
    "licenseEffectiveDate": "05/31/2025",
    "licenseExpirationDate": "05/30/2026",
    "dataDate": "10/18/2025",
    "capacity": 64,
    "address": "11815 EDUCATION STREET",
    "city": "AUBURN",
    "zip": "95602",
    "county": "PLACER",
    "phone": "(530) 888-4557",
    "lat": 38.94444,
    "lng": -121.100445
  },
  {
    "id": "100000237",
    "name": "SUTTER AUBURN FAITH VNA & HOSPICE",
    "npi": "1417987751",
    "hcaiId": "406312209",
    "businessName": "SUTTER VALLEY HOSPITALS",
    "contactEmail": "MEYERSK@SUTTERHEALTH.ORG",
    "categoryName": "HOME HEALTH AGENCY",
    "categoryCode": "HHA",
    "licenseStatus": "ACTIVE",
    "inService": true,
    "licenseNumber": "100000276",
    "licenseEffectiveDate": "11/03/2025",
    "licenseExpirationDate": "11/02/2026",
    "dataDate": "10/18/2025",
    "capacity": 0,
    "address": "11775 EDUCATION STREET, SUITE 201",
    "city": "AUBURN",
    "zip": "95602",
    "county": "PLACER",
    "phone": "(530) 886-6650",
    "lat": 38.944602,
    "lng": -121.099914
  },
  {
    "id": "100001267",
    "name": "SUTTER AUBURN FAITH VNA & HOSPICE-HOSPICE",
    "npi": "1134147804",
    "hcaiId": null,
    "businessName": "SUTTER VALLEY HOSPITALS",
    "contactEmail": null,
    "categoryName": "HOSPICE",
    "categoryCode": "HOSPICE",
    "licenseStatus": "ACTIVE",
    "inService": true,
    "licenseNumber": "100000276",
    "licenseEffectiveDate": "11/03/2025",
    "licenseExpirationDate": "11/02/2026",
    "dataDate": "10/18/2025",
    "capacity": 0,
    "address": "11775 EDUCATION STREET, SUITE 201",
    "city": "AUBURN",
    "zip": "95602",
    "county": "PLACER",
    "phone": "(530) 885-7201",
    "lat": 38.944602,
    "lng": -121.099914
  },
  {
    "id": "630027441",
    "name": "WESTERN SIERRA MEDICAL CLINIC",
    "npi": null,
    "hcaiId": null,
    "businessName": "WESTERN SIERRA MEDICAL CLINIC, INC.",
    "contactEmail": null,
    "categoryName": "PRIMARY CARE CLINIC",
    "categoryCode": "COMTYC",
    "licenseStatus": "ACTIVE",
    "inService": true,
    "licenseNumber": "230000145",
    "licenseEffectiveDate": "04/15/2025",
    "licenseExpirationDate": "04/14/2026",
    "dataDate": "10/18/2025",
    "capacity": 0,
    "address": "11720 EDUCATION ST, SUITE 3",
    "city": "AUBURN",
    "zip": "95602",
    "county": "PLACER",
    "phone": null,
    "lat": 38.94403101,
    "lng": -121.102009
  },
  {
    "id": "630027442",
    "name": "WESTERN SIERRA MEDICAL CLINIC ROCK CREEK",
    "npi": null,
    "hcaiId": null,
    "businessName": "WESTERN SIERRA MEDICAL CLINIC, INC.",
    "contactEmail": null,
    "categoryName": "PRIMARY CARE CLINIC",
    "categoryCode": "COMTYC",
    "licenseStatus": "ACTIVE",
    "inService": true,
    "licenseNumber": "230000145",
    "licenseEffectiveDate": "04/15/2025",
    "licenseExpirationDate": "04/14/2026",
    "dataDate": "10/18/2025",
    "capacity": 0,
    "address": "3257 PROFESSIONAL DR, SUITE C",
    "city": "AUBURN",
    "zip": "95602",
    "county": "PLACER",
    "phone": null,
    "lat": 38.94340099,
    "lng": -121.101226
  },
  {
    "id": "030000024",
    "name": "WESTVIEW HEALTHCARE CENTER",
    "npi": "1417255647",
    "hcaiId": "206310904",
    "businessName": "KERRIA HOLDINGS, LLC",
    "contactEmail": "SEAN.HARRIS@WESTVIEWHEALTH.COM",
    "categoryName": "SKILLED NURSING FACILITY",
    "categoryCode": "SNF",
    "licenseStatus": "ACTIVE",
    "inService": true,
    "licenseNumber": "030000049",
    "licenseEffectiveDate": "06/07/2025",
    "licenseExpirationDate": "06/06/2026",
    "dataDate": "10/18/2025",
    "capacity": 205,
    "address": "12225 SHALE RIDGE LANE",
    "city": "AUBURN",
    "zip": "95602",
    "county": "PLACER",
    "phone": "(530) 885-7511",
    "lat": 38.953107,
    "lng": -121.0946535
  }
]