[
  {
    "id": "100001098",
    "name": "ALWAYS HOME NURSING SERVICES, INC.",
    "npi": "1043211857",
    "hcaiId": "406344068",
    "businessName": "ALWAYS HOME NURSING SERVICES, INC.",
    "contactEmail": "AHNS@ALWAYSHOMENURSING.COM",
    "categoryName": "HOME HEALTH AGENCY",
    "categoryCode": "HHA",
    "licenseStatus": "ACTIVE",
    "inService": true,
    "licenseNumber": "100000450",
    "licenseEffectiveDate": "05/29/2025",
    "licenseExpirationDate": "05/28/2026",
    "dataDate": "10/18/2025",
    "capacity": 0,
    "address": "7777 GREENBACK LANE, SUITE 208",
    "city": "CITRUS HEIGHTS",
    "zip": "95610",
    "county": "SACRAMENTO",
    "phone": "(916) 989-6420",
    "lat": 38.678868,
    "lng": -121.2777135
  },
  {
    "id": "030000820",
    "name": "CITRUS HEIGHTS POST ACUTE",
    "npi": "1003853979",
    "hcaiId": "206344022",
    "businessName": "CITRUS HEIGHTS COMMUNITY HEALTHCARE, LLC",
    "contactEmail": "TERRI.BALLESTEROS@CITRUSHEIGHTSPA.COM",
    "categoryName": "SKILLED NURSING FACILITY",
    "categoryCode": "SNF",
    "licenseStatus": "ACTIVE",
    "inService": true,
    "licenseNumber": "030000360",
    "licenseEffectiveDate": "04/02/2025",
    "licenseExpirationDate": "04/01/2026",
    "dataDate": "10/18/2025",
    "capacity": 162,
    "address": "7807 UPLANDS WAY",
    "city": "CITRUS HEIGHTS",
    "zip": "95610",
    "county": "SACRAMENTO",
    "phone": "(916) 967-2929",
    "lat": 38.667393,
    "lng": -121.2750135
  },
  {
    "id": "630016792",
    "name": "DIVINE FAMILY CARE LLC",
    "npi": "1891107231",
    "hcaiId": null,
    "businessName": "DIVINE FAMILY CARE LLC",
    "contactEmail": "GAKA@CITRUSCG.COM",
    "categoryName": "INTERMEDIATE CARE FACILITY-DD/H/N/CN/IID",
    "categoryCode": "ICFDDN",
    "licenseStatus": "ACTIVE",
    "inService": true,
    "licenseNumber": "550004308",
    "licenseEffectiveDate": "07/05/2024",
    "licenseExpirationDate": "07/04/2025",
    "dataDate": "10/18/2025",
    "capacity": 6,
    "address": "8194 SUNRISE BLVD.",
    "city": "CITRUS HEIGHTS",
    "zip": "95610",
    "county": "SACRAMENTO",
    "phone": "(916) 727-9127",
    "lat": 38.714814,
    "lng": -121.271121
  },
  {
    "id": "100001176",
    "name": "FIRST CALL HOME HEALTH",
    "npi": null,
    "hcaiId": "406344152",
    "businessName": "SACRAMENTO RIVER HEALTHCARE LLC",
    "contactEmail": "LICENSING@PENNANTSERVICES.COM",
    "categoryName": "HOME HEALTH AGENCY",
    "categoryCode": "HHA",
    "licenseStatus": "ACTIVE",
    "inService": true,
    "licenseNumber": "100000488",
    "licenseEffectiveDate": "11/21/2025",
    "licenseExpirationDate": "11/20/2026",
    "dataDate": "10/18/2025",
    "capacity": 0,
    "address": "6929 SUNRISE BLVD, SUITE 108",
    "city": "CITRUS HEIGHTS",
    "zip": "95610",
    "county": "SACRAMENTO",
    "phone": "(916) 725-2580",
    "lat": 38.691711,
    "lng": -121.2721965
  },
  {
    "id": "630026986",
    "name": "FIRST CALL HOSPICE",
    "npi": null,
    "hcaiId": "406340021",
    "businessName": "SACRAMENTO RIVER HEALTHCARE LLC",
    "contactEmail": "LICENSING@PENNANTSERVICES.COM",
    "categoryName": "HOSPICE",
    "categoryCode": "HOSPICE",
    "licenseStatus": "ACTIVE",
    "inService": true,
    "licenseNumber": "550008791",
    "licenseEffectiveDate": "10/18/2025",
    "licenseExpirationDate": "10/17/2027",
    "dataDate": "10/18/2025",
    "capacity": 0,
    "address": "6929 SUNRISE BLVD, SUITE 180",
    "city": "CITRUS HEIGHTS",
    "zip": "95610",
    "county": "SACRAMENTO",
    "phone": "(916) 725-2580",
    "lat": 38.691711,
    "lng": -121.2721965
  },
  {
    "id": "630027356",
    "name": "NATIONAL HOME HEALTH SERVICES, INC. - SACRAMENTO",
    "npi": null,
    "hcaiId": null,
    "businessName": "NATIONAL HOME HEALTH SERVICES, INC.",
    "contactEmail": "ALEX.RUDAKOV@NATIONALHHA.COM",
    "categoryName": "HOME HEALTH AGENCY",
    "categoryCode": "HHA",
    "licenseStatus": "ACTIVE",
    "inService": true,
    "licenseNumber": "550001137",
    "licenseEffectiveDate": "11/17/2025",
    "licenseExpirationDate": "11/16/2026",
    "dataDate": "10/18/2025",
    "capacity": 0,
    "address": "7777 GREENBACK LN, SUITE 104",
    "city": "CITRUS HEIGHTS",
    "zip": "95610",
    "county": "SACRAMENTO",
    "phone": "(415) 812-2955",
    "lat": 38.67886683,
    "lng": -121.2777151
  },
  {
    "id": "630023257",
    "name": "SKY HOME HEALTH, INC.",
    "npi": null,
    "hcaiId": "406345845",
    "businessName": "SKY HOME HEALTH, INC.",
    "contactEmail": "SKYHHA@YAHOO.COM",
    "categoryName": "HOME HEALTH AGENCY",
    "categoryCode": "HHA",
    "licenseStatus": "ACTIVE",
    "inService": true,
    "licenseNumber": "550007992",
    "licenseEffectiveDate": "05/17/2024",
    "licenseExpirationDate": "05/16/2025",
    "dataDate": "10/18/2025",
    "capacity": 0,
    "address": "7610 AUBURN BLVD, SUITE 5",
    "city": "CITRUS HEIGHTS",
    "zip": "95610",
    "county": "SACRAMENTO",
    "phone": "(916) 530-2112",
    "lat": 38.704113,
    "lng": -121.2898905
  },
  {
    "id": "630018445",
    "name": "SUNRISE ICF DD-N",
    "npi": "1790298859",
    "hcaiId": null,
    "businessName": "GL&SON LLC",
    "contactEmail": "LOUPATAWARAN@AOL.COM",
    "categoryName": "INTERMEDIATE CARE FACILITY-DD/H/N/CN/IID",
    "categoryCode": "ICFDDN",
    "licenseStatus": "ACTIVE",
    "inService": true,
    "licenseNumber": "550005308",
    "licenseEffectiveDate": "02/06/2025",
    "licenseExpirationDate": "02/05/2026",
    "dataDate": "10/18/2025",
    "capacity": 6,
    "address": "8010 SUNRISE BLVD",
    "city": "CITRUS HEIGHTS",
    "zip": "95610",
    "county": "SACRAMENTO",
    "phone": "(916) 745-3378",
    "lat": 38.711547,
    "lng": -121.2711255
  },
  {
    "id": "630018702",
    "name": "WELLSPACE HEALTH SUNRISE COMMUNITY HEALTH CENTER",
    "npi": null,
    "hcaiId": null,
    "businessName": "WELLSPACE HEALTH",
    "contactEmail": null,
    "categoryName": "PRIMARY CARE CLINIC",
    "categoryCode": "COMTYC",
    "licenseStatus": "ACTIVE",
    "inService": true,
    "licenseNumber": "550004588",
    "licenseEffectiveDate": "02/04/2025",
    "licenseExpirationDate": "02/03/2026",
    "dataDate": "10/18/2025",
    "capacity": 0,
    "address": "7777 SUNRISE BLVD, SUITE 2500",
    "city": "CITRUS HEIGHTS",
    "zip": "95610",
    "county": "SACRAMENTO",
    "phone": "(916) 313-8408",
    "lat": 38.70684,
    "lng": -121.273443
  }
]