[
  {
    "id": "030001495",
    "name": "BURGER PHYSICAL THERAPY & REHABILITATION",
    "npi": null,
    "hcaiId": null,
    "businessName": null,
    "contactEmail": null,
    "categoryName": "REHABILITATION CLINIC",
    "categoryCode": "OPT/SP",
    "licenseStatus": null,
    "inService": null,
    "licenseNumber": null,
    "licenseEffectiveDate": null,
    "licenseExpirationDate": null,
    "dataDate": "10/18/2025",
    "capacity": 0,
    "address": "2035 LYNDELL TERRACE, SUITE 200",
    "city": "DAVIS",
    "zip": "95616",
    "county": "YOLO",
    "phone": null,
    "lat": 38.562813,
    "lng": -121.769325
  },
  {
    "id": "030001815",
    "name": "COURTYARD HEALTH CARE CENTER",
    "npi": "1235367913",
    "hcaiId": "206570854",
    "businessName": "WEST COURT LANE HEALTHCARE, INC.",
    "contactEmail": "DAREEVES@ENSIGNSERVICES.NET",
    "categoryName": "SKILLED NURSING FACILITY",
    "categoryCode": "SNF",
    "licenseStatus": "ACTIVE",
    "inService": true,
    "licenseNumber": "030000027",
    "licenseEffectiveDate": "08/01/2025",
    "licenseExpirationDate": "11/17/2025",
    "dataDate": "10/18/2025",
    "capacity": 112,
    "address": "1850 E. 8TH STREET",
    "city": "DAVIS",
    "zip": "95616",
    "county": "YOLO",
    "phone": "(530) 756-1800",
    "lat": 38.552607,
    "lng": -121.728393
  },
  {
    "id": "030000279",
    "name": "DAVIS COMMUNITY CLINIC",
    "npi": "1558366823",
    "hcaiId": "306574020",
    "businessName": "OLE HEALTH",
    "contactEmail": "KEVIN.MOSES@COMMUNICAREOLE.ORG",
    "categoryName": "PRIMARY CARE CLINIC",
    "categoryCode": "COMTYC",
    "licenseStatus": "ACTIVE",
    "inService": true,
    "licenseNumber": "030000146",
    "licenseEffectiveDate": "04/22/2025",
    "licenseExpirationDate": "04/21/2026",
    "dataDate": "10/18/2025",
    "capacity": 0,
    "address": "2051 JOHN JONES ROAD",
    "city": "DAVIS",
    "zip": "95616",
    "county": "YOLO",
    "phone": "(530) 758-2080",
    "lat": 38.563893,
    "lng": -121.769604
  },
  {
    "id": "630026488",
    "name": "MARTIN LUTHER KING JR. HIGH SCHOOL",
    "npi": "1558366823",
    "hcaiId": null,
    "businessName": "OLE HEALTH",
    "contactEmail": null,
    "categoryName": "PRIMARY CARE CLINIC",
    "categoryCode": "COMTYC",
    "licenseStatus": "ACTIVE",
    "inService": true,
    "licenseNumber": "030000146",
    "licenseEffectiveDate": "04/22/2025",
    "licenseExpirationDate": "04/21/2026",
    "dataDate": "10/18/2025",
    "capacity": 0,
    "address": "635 B ST",
    "city": "DAVIS",
    "zip": "95616",
    "county": "YOLO",
    "phone": null,
    "lat": 38.548854,
    "lng": -121.746213
  },
  {
    "id": "030000149",
    "name": "SUTTER DAVIS HOSPITAL",
    "npi": "1770532608",
    "hcaiId": "106574010",
    "businessName": "SUTTER VALLEY HOSPITALS",
    "contactEmail": "MICHAEL.CURETON@SUTTERHEALTH.ORG",
    "categoryName": "GENERAL ACUTE CARE HOSPITAL",
    "categoryCode": "GACH",
    "licenseStatus": "ACTIVE",
    "inService": true,
    "licenseNumber": "030000124",
    "licenseEffectiveDate": "05/31/2025",
    "licenseExpirationDate": "05/30/2026",
    "dataDate": "10/18/2025",
    "capacity": 57,
    "address": "2000 SUTTER PLACE",
    "city": "DAVIS",
    "zip": "95616",
    "county": "YOLO",
    "phone": "(530) 757-5108",
    "lat": 38.562237,
    "lng": -121.771197
  },
  {
    "id": "100001676",
    "name": "UNIVERSITY RETIREMENT COMMUNITY AT DAVIS",
    "npi": "1609876234",
    "hcaiId": "206574013",
    "businessName": "UNIVERSITY RETIREMENT COMMUNITY AT DAVIS, INC.",
    "contactEmail": "MFBURTON@RETIREMENT.ORG",
    "categoryName": "SKILLED NURSING FACILITY",
    "categoryCode": "SNF",
    "licenseStatus": "ACTIVE",
    "inService": true,
    "licenseNumber": "100000703",
    "licenseEffectiveDate": "11/27/2024",
    "licenseExpirationDate": "11/26/2025",
    "dataDate": "10/18/2025",
    "capacity": 37,
    "address": "1515 SHASTA DRIVE",
    "city": "DAVIS",
    "zip": "95616",
    "county": "YOLO",
    "phone": "(530) 747-7000",
    "lat": 38.559888,
    "lng": -121.7745495
  }
]