[
  {
    "id": "110000136",
    "name": "COMMUNITY MEDICAL CENTERS - DIXON",
    "npi": "1699766519",
    "hcaiId": "306482335",
    "businessName": "COMMUNITY MEDICAL CENTERS, INC.",
    "contactEmail": "LICENSING@CMCENTERS.ORG",
    "categoryName": "PRIMARY CARE CLINIC",
    "categoryCode": "COMTYC",
    "licenseStatus": "ACTIVE",
    "inService": true,
    "licenseNumber": "110000152",
    "licenseEffectiveDate": "11/27/2025",
    "licenseExpirationDate": "11/26/2026",
    "dataDate": "10/18/2025",
    "capacity": 0,
    "address": "131 W A ST, SUITE 1 & 3",
    "city": "DIXON",
    "zip": "95620",
    "county": "SOLANO",
    "phone": "(209) 259-6546",
    "lat": 38.445282,
    "lng": -121.8233025
  },
  {
    "id": "010000792",
    "name": "CROSSROADS",
    "npi": "1871787572",
    "hcaiId": null,
    "businessName": "CROSSROADS LIVING CENTER, INC.",
    "contactEmail": "SSIMMONS.CROSSROADS@GMAIL.COM",
    "categoryName": "INTERMEDIATE CARE FACILITY-DD/H/N/CN/IID",
    "categoryCode": "ICFDDH",
    "licenseStatus": "ACTIVE",
    "inService": true,
    "licenseNumber": "010000303",
    "licenseEffectiveDate": "05/08/2025",
    "licenseExpirationDate": "05/07/2026",
    "dataDate": "10/18/2025",
    "capacity": 6,
    "address": "1250 WOODMAN WAY",
    "city": "DIXON",
    "zip": "95620",
    "county": "SOLANO",
    "phone": "(707) 678-1802",
    "lat": 38.458125,
    "lng": -121.8342195
  },
  {
    "id": "010000864",
    "name": "CROSSROADS II",
    "npi": "1669667861",
    "hcaiId": null,
    "businessName": "CROSSROADS LIVING CENTER, INC.",
    "contactEmail": "SSIMMONS.CROSSROADS@GMAIL.COM",
    "categoryName": "INTERMEDIATE CARE FACILITY-DD/H/N/CN/IID",
    "categoryCode": "ICFDDH",
    "licenseStatus": "ACTIVE",
    "inService": true,
    "licenseNumber": "010000328",
    "licenseEffectiveDate": "11/19/2024",
    "licenseExpirationDate": "11/18/2025",
    "dataDate": "10/18/2025",
    "capacity": 6,
    "address": "880 ALEXANDER DR",
    "city": "DIXON",
    "zip": "95620",
    "county": "SOLANO",
    "phone": "(707) 470-9154",
    "lat": 38.461986,
    "lng": -121.8340845
  },
  {
    "id": "630011753",
    "name": "JOY OF DIXON DIALYSIS CENTER",
    "npi": null,
    "hcaiId": "306484057",
    "businessName": "TOTAL RENAL CARE, INC.",
    "contactEmail": "CAL_C@DAVITA.COM",
    "categoryName": "CHRONIC DIALYSIS CLINIC",
    "categoryCode": "ESRD/CDC",
    "licenseStatus": "ACTIVE",
    "inService": true,
    "licenseNumber": "550000786",
    "licenseEffectiveDate": "02/25/2025",
    "licenseExpirationDate": "02/24/2026",
    "dataDate": "10/18/2025",
    "capacity": 12,
    "address": "1640 N LINCOLN ST",
    "city": "DIXON",
    "zip": "95620",
    "county": "SOLANO",
    "phone": "(707) 693-8301",
    "lat": 38.462355,
    "lng": -121.835538
  },
  {
    "id": "630014866",
    "name": "NCS BRAIN INJURY REHAB",
    "npi": null,
    "hcaiId": null,
    "businessName": null,
    "contactEmail": null,
    "categoryName": "OTHER",
    "categoryCode": "UNLICEN",
    "licenseStatus": null,
    "inService": null,
    "licenseNumber": null,
    "licenseEffectiveDate": null,
    "licenseExpirationDate": null,
    "dataDate": "10/18/2025",
    "capacity": 0,
    "address": "450 S PORTER RD, SUITE A",
    "city": "DIXON",
    "zip": "95620",
    "county": "SOLANO",
    "phone": null,
    "lat": 38.44201584,
    "lng": -121.8285702
  }
]