[
  {
    "id": "630019159",
    "name": "A1 HEALTHCARE",
    "npi": "1891349361",
    "hcaiId": "406342407",
    "businessName": "A PLUS HOSPICE, LLC",
    "contactEmail": "APLUSHOSPICELLC@GMAIL.COM",
    "categoryName": "HOSPICE",
    "categoryCode": "HOSPICE",
    "licenseStatus": "ACTIVE",
    "inService": true,
    "licenseNumber": "550005293",
    "licenseEffectiveDate": "02/14/2024",
    "licenseExpirationDate": "02/13/2026",
    "dataDate": "10/18/2025",
    "capacity": 0,
    "address": "5006 SUNRISE BLVD, SUITE 202",
    "city": "FAIR OAKS",
    "zip": "95628",
    "county": "SACRAMENTO",
    "phone": "(916) 706-2513",
    "lat": 38.656863,
    "lng": -121.271868
  },
  {
    "id": "630019160",
    "name": "A1 HOME HEALTH",
    "npi": "1790339919",
    "hcaiId": "406342513",
    "businessName": "A PLUS HEALTHCARE, LLC",
    "contactEmail": "CHRIS.JARA@A1HCH.COM",
    "categoryName": "HOME HEALTH AGENCY",
    "categoryCode": "HHA",
    "licenseStatus": "ACTIVE",
    "inService": true,
    "licenseNumber": "550005497",
    "licenseEffectiveDate": "06/03/2025",
    "licenseExpirationDate": "06/02/2026",
    "dataDate": "10/18/2025",
    "capacity": 0,
    "address": "5006 SUNRISE BLVD, SUITE 203",
    "city": "FAIR OAKS",
    "zip": "95628",
    "county": "SACRAMENTO",
    "phone": "(916) 706-3647",
    "lat": 38.656863,
    "lng": -121.271868
  },
  {
    "id": "630027459",
    "name": "COMMUNITY HEALTH CENTERS OF AMERICA",
    "npi": null,
    "hcaiId": null,
    "businessName": "COMMUNITY HEALTH CENTERS OF AMERICA",
    "contactEmail": null,
    "categoryName": "PRIMARY CARE CLINIC",
    "categoryCode": "COMTYC",
    "licenseStatus": "ACTIVE",
    "inService": true,
    "licenseNumber": "550005091",
    "licenseEffectiveDate": "11/07/2025",
    "licenseExpirationDate": "11/06/2026",
    "dataDate": "10/18/2025",
    "capacity": 0,
    "address": "6608 MERCY CT, SUITE B",
    "city": "FAIR OAKS",
    "zip": "95628",
    "county": "SACRAMENTO",
    "phone": null,
    "lat": 38.6659211,
    "lng": -121.3106911
  },
  {
    "id": "030000071",
    "name": "FAIR OAKS HEALTHCARE CENTER",
    "npi": "1396448882",
    "hcaiId": "206342258",
    "businessName": "MACKENZIE LLC",
    "contactEmail": "AJACKSON@CYPRESSH.COM",
    "categoryName": "SKILLED NURSING FACILITY",
    "categoryCode": "SNF",
    "licenseStatus": "ACTIVE",
    "inService": true,
    "licenseNumber": "030000190",
    "licenseEffectiveDate": "01/22/2025",
    "licenseExpirationDate": "01/21/2026",
    "dataDate": "10/18/2025",
    "capacity": 149,
    "address": "11300 FAIR OAKS BOULEVARD",
    "city": "FAIR OAKS",
    "zip": "95628",
    "county": "SACRAMENTO",
    "phone": "(760) 846-8253",
    "lat": 38.657241,
    "lng": -121.263516
  },
  {
    "id": "630016479",
    "name": "FAIR OAKS RESIDENTIAL TREATMENT FACILITY LLC",
    "npi": null,
    "hcaiId": "206344235",
    "businessName": "FAIR OAKS RESIDENTIAL TREATMENT FACILITY, LLC",
    "contactEmail": "GBGBRAVERMAN3@GMAIL.COM",
    "categoryName": "CONGREGATE LIVING HEALTH FACILITY",
    "categoryCode": "CLHF",
    "licenseStatus": "ACTIVE",
    "inService": true,
    "licenseNumber": "550003745",
    "licenseEffectiveDate": "12/05/2024",
    "licenseExpirationDate": "12/04/2025",
    "dataDate": "10/18/2025",
    "capacity": 6,
    "address": "7959 ORANGE AVENUE",
    "city": "FAIR OAKS",
    "zip": "95628",
    "county": "SACRAMENTO",
    "phone": "(916) 458-4100",
    "lat": 38.648223,
    "lng": -121.271121
  },
  {
    "id": "630020967",
    "name": "ORANGEVALE HOSPICE CARE, INC.",
    "npi": "1306456579",
    "hcaiId": "406343336",
    "businessName": "ORANGEVALE HOSPICE CARE, INC.",
    "contactEmail": "ORANGEVALEHOSPICE@GMAIL.COM",
    "categoryName": "HOSPICE",
    "categoryCode": "HOSPICE",
    "licenseStatus": "ACTIVE",
    "inService": true,
    "licenseNumber": "550007024",
    "licenseEffectiveDate": "10/02/2025",
    "licenseExpirationDate": "10/01/2027",
    "dataDate": "10/18/2025",
    "capacity": 0,
    "address": "5006 SUNRISE BLVD, SUITE 101",
    "city": "FAIR OAKS",
    "zip": "95628",
    "county": "SACRAMENTO",
    "phone": null,
    "lat": 38.6568979,
    "lng": -121.2718369
  },
  {
    "id": "630016554",
    "name": "TRUEMED SACRAMENTO",
    "npi": "1245695105",
    "hcaiId": "406340663",
    "businessName": "TRUEMED SACRAMENTO",
    "contactEmail": "INFO@MYTRUEMED.COM",
    "categoryName": "HOME HEALTH AGENCY",
    "categoryCode": "HHA",
    "licenseStatus": "ACTIVE",
    "inService": true,
    "licenseNumber": "550004047",
    "licenseEffectiveDate": "11/15/2024",
    "licenseExpirationDate": "11/14/2025",
    "dataDate": "10/18/2025",
    "capacity": 0,
    "address": "5330 PRIMROSE DR, SUITE 133",
    "city": "FAIR OAKS",
    "zip": "95628",
    "county": "SACRAMENTO",
    "phone": "(916) 379-7790",
    "lat": 38.662623,
    "lng": -121.275936
  }
]