[
  {
    "id": "110001166",
    "name": "ANTELOPE DIALYSIS CENTER",
    "npi": "1780836684",
    "hcaiId": "306344014",
    "businessName": "SHADOW DIALYSIS, LLC",
    "contactEmail": "CAL_C@DAVITA.COM",
    "categoryName": "CHRONIC DIALYSIS CLINIC",
    "categoryCode": "ESRD/CDC",
    "licenseStatus": "ACTIVE",
    "inService": true,
    "licenseNumber": "110000455",
    "licenseEffectiveDate": "11/17/2025",
    "licenseExpirationDate": "11/16/2026",
    "dataDate": "10/18/2025",
    "capacity": 31,
    "address": "6406 TUPELO DRIVE, SUITE A",
    "city": "CITRUS HEIGHTS",
    "zip": "95621",
    "county": "SACRAMENTO",
    "phone": "(916) 721-1800",
    "lat": 38.704725,
    "lng": -121.314339
  },
  {
    "id": "630025175",
    "name": "CITRUS HEIGHTS SURGERY CENTER",
    "npi": null,
    "hcaiId": null,
    "businessName": null,
    "contactEmail": "REPRICE@USPI.COM",
    "categoryName": "SURGICAL CLINIC",
    "categoryCode": "ASC",
    "licenseStatus": null,
    "inService": null,
    "licenseNumber": null,
    "licenseEffectiveDate": null,
    "licenseExpirationDate": null,
    "dataDate": "10/18/2025",
    "capacity": 0,
    "address": "7435 STOCK RANCH RD",
    "city": "CITRUS HEIGHTS",
    "zip": "95621",
    "county": "SACRAMENTO",
    "phone": "(972) 763-3859",
    "lat": 38.68192922,
    "lng": -121.2912629
  },
  {
    "id": "100000911",
    "name": "JEAN MARTIN HOME #2",
    "npi": "1912047556",
    "hcaiId": null,
    "businessName": "BRANDT GROUP HOMES, INC.",
    "contactEmail": "KYLEBRANDT@COMCAST.NET",
    "categoryName": "INTERMEDIATE CARE FACILITY-DD/H/N/CN/IID",
    "categoryCode": "ICFDDH",
    "licenseStatus": "ACTIVE",
    "inService": true,
    "licenseNumber": "100000374",
    "licenseEffectiveDate": "04/03/2025",
    "licenseExpirationDate": "04/02/2026",
    "dataDate": "10/18/2025",
    "capacity": 6,
    "address": "7357 WOODRUFF WAY",
    "city": "CITRUS HEIGHTS",
    "zip": "95621",
    "county": "SACRAMENTO",
    "phone": "(916) 752-6775",
    "lat": 38.717793,
    "lng": -121.296978
  },
  {
    "id": "630026281",
    "name": "TRUE CARE HOME HEALTH OF NORTHERN CALIFORNIA, INC.",
    "npi": null,
    "hcaiId": null,
    "businessName": "TRUE CARE HOME HEALTH OF NORTHERN CALIFORNIA, INC.",
    "contactEmail": "TCHHNORCAL@GMAIL.COM",
    "categoryName": "HOME HEALTH AGENCY",
    "categoryCode": "HHA",
    "licenseStatus": "ACTIVE",
    "inService": true,
    "licenseNumber": "550009314",
    "licenseEffectiveDate": "08/09/2025",
    "licenseExpirationDate": "08/08/2026",
    "dataDate": "10/18/2025",
    "capacity": 0,
    "address": "6375 AUBURN BLVD, SUITE 300",
    "city": "CITRUS HEIGHTS",
    "zip": "95621",
    "county": "SACRAMENTO",
    "phone": "(916) 720-2770",
    "lat": 38.682846,
    "lng": -121.315401
  },
  {
    "id": "630017330",
    "name": "TRUE CARE HOSPICE OF NORTHERN CALIFORNIA, INC.",
    "npi": "1508307380",
    "hcaiId": "406341932",
    "businessName": "TRUE CARE HOSPICE OF NORTHERN CALIFORNIA, INC.",
    "contactEmail": "TCHNORCAL@GMAIL.COM",
    "categoryName": "HOSPICE",
    "categoryCode": "HOSPICE",
    "licenseStatus": "ACTIVE",
    "inService": true,
    "licenseNumber": "550004947",
    "licenseEffectiveDate": "09/09/2025",
    "licenseExpirationDate": "09/08/2027",
    "dataDate": "10/18/2025",
    "capacity": 0,
    "address": "6375 AUBURN BLVD, SUITE 100",
    "city": "CITRUS HEIGHTS",
    "zip": "95621",
    "county": "SACRAMENTO",
    "phone": "(916) 277-0433",
    "lat": 38.682846,
    "lng": -121.315401
  },
  {
    "id": "630014936",
    "name": "WELLSPACE HEALTH SAN JUAN COMMUNITY HEALTH CENTER",
    "npi": "1215350848",
    "hcaiId": "306344209",
    "businessName": "WELLSPACE HEALTH",
    "contactEmail": "INFO@WELLSPACEHEALTH.ORG",
    "categoryName": "PRIMARY CARE CLINIC",
    "categoryCode": "COMTYC",
    "licenseStatus": "ACTIVE",
    "inService": true,
    "licenseNumber": "550004588",
    "licenseEffectiveDate": "02/04/2025",
    "licenseExpirationDate": "02/03/2026",
    "dataDate": "10/18/2025",
    "capacity": 0,
    "address": "5959 GREENBACK LANE, SUITE 500",
    "city": "CITRUS HEIGHTS",
    "zip": "95621",
    "county": "SACRAMENTO",
    "phone": "(916) 737-5555",
    "lat": 38.681982,
    "lng": -121.322511
  }
]