[
  {
    "id": "630019574",
    "name": "CAPITOL HOME HEALTH CARE",
    "npi": "1659917979",
    "hcaiId": "406342527",
    "businessName": "CAPITOL HEALTHCARE INC.",
    "contactEmail": "INFO@CAPITOL-HEALTHCARE.COM",
    "categoryName": "HOME HEALTH AGENCY",
    "categoryCode": "HHA",
    "licenseStatus": "ACTIVE",
    "inService": true,
    "licenseNumber": "550005476",
    "licenseEffectiveDate": "05/12/2025",
    "licenseExpirationDate": "05/11/2026",
    "dataDate": "10/18/2025",
    "capacity": 0,
    "address": "9766 WATERMAN RD, SUITE L3",
    "city": "ELK GROVE",
    "zip": "95624",
    "county": "SACRAMENTO",
    "phone": "(916) 667-3876",
    "lat": 38.402865,
    "lng": -121.3539165
  },
  {
    "id": "630019575",
    "name": "CAPITOL HOSPICE CARE",
    "npi": "1861038184",
    "hcaiId": "406342991",
    "businessName": "CAPITOL HEALTHCARE INC.",
    "contactEmail": "INFO@CAPITOL-HEALTHCARE.COM",
    "categoryName": "HOSPICE",
    "categoryCode": "HOSPICE",
    "licenseStatus": "ACTIVE",
    "inService": true,
    "licenseNumber": "550005861",
    "licenseEffectiveDate": "11/09/2024",
    "licenseExpirationDate": "11/08/2026",
    "dataDate": "10/18/2025",
    "capacity": 0,
    "address": "9766 WATERMAN RD, SUITE L4",
    "city": "ELK GROVE",
    "zip": "95624",
    "county": "SACRAMENTO",
    "phone": "(916) 896-5456",
    "lat": 38.402775,
    "lng": -121.3539165
  },
  {
    "id": "100001287",
    "name": "CUSTOMCARE HOME HEALTH SERVICES INC",
    "npi": "1003055195",
    "hcaiId": "406344102",
    "businessName": "CUSTOMCARE HOME HEALTH SERVICES INC.",
    "contactEmail": "AUDREY@CCHHS.NET",
    "categoryName": "HOME HEALTH AGENCY",
    "categoryCode": "HHA",
    "licenseStatus": "ACTIVE",
    "inService": true,
    "licenseNumber": "100000543",
    "licenseEffectiveDate": "12/01/2024",
    "licenseExpirationDate": "11/30/2025",
    "dataDate": "10/18/2025",
    "capacity": 0,
    "address": "8837 ELK GROVE BLVD, SUITE A",
    "city": "ELK GROVE",
    "zip": "95624",
    "county": "SACRAMENTO",
    "phone": "(916) 714-1155",
    "lat": 38.409183,
    "lng": -121.374558
  },
  {
    "id": "980002453",
    "name": "EASTERN HOME HEALTH, INC.",
    "npi": null,
    "hcaiId": "406341341",
    "businessName": "EASTERN HOME HEALTH, INC.",
    "contactEmail": "INFO@EASTERNHOMEHEALTH.COM",
    "categoryName": "HOME HEALTH AGENCY",
    "categoryCode": "HHA",
    "licenseStatus": "ACTIVE",
    "inService": true,
    "licenseNumber": "980001559",
    "licenseEffectiveDate": "04/22/2025",
    "licenseExpirationDate": "04/21/2026",
    "dataDate": "10/18/2025",
    "capacity": 0,
    "address": "9578 2ND AVE, SUITE 100",
    "city": "ELK GROVE",
    "zip": "95624",
    "county": "SACRAMENTO",
    "phone": "(916) 846-9624",
    "lat": 38.409939,
    "lng": -121.3673355
  },
  {
    "id": "100000048",
    "name": "ELK GROVE POST ACUTE",
    "npi": "1235275975",
    "hcaiId": "206340864",
    "businessName": "WINDSOR ELK GROVE CARE AND REHABILITATION, LLC",
    "contactEmail": "ADMINISTRATOR@WINDSORELKGROVE.COM",
    "categoryName": "SKILLED NURSING FACILITY",
    "categoryCode": "SNF",
    "licenseStatus": "ACTIVE",
    "inService": true,
    "licenseNumber": "100000001",
    "licenseEffectiveDate": "09/04/2025",
    "licenseExpirationDate": "03/31/2026",
    "dataDate": "10/18/2025",
    "capacity": 136,
    "address": "9461 BATEY AVENUE",
    "city": "ELK GROVE",
    "zip": "95624",
    "county": "SACRAMENTO",
    "phone": "(916) 685-9525",
    "lat": 38.413206,
    "lng": -121.3600005
  },
  {
    "id": "630017042",
    "name": "THRIVE HOME HEALTH CARE, INC.",
    "npi": "1801344049",
    "hcaiId": "406341453",
    "businessName": "THRIVE HOME HEALTH CARE, INC.",
    "contactEmail": "THRIVEHHCA@GMAIL.COM",
    "categoryName": "HOME HEALTH AGENCY",
    "categoryCode": "HHA",
    "licenseStatus": "ACTIVE",
    "inService": true,
    "licenseNumber": "550004401",
    "licenseEffectiveDate": "10/04/2024",
    "licenseExpirationDate": "10/03/2025",
    "dataDate": "10/18/2025",
    "capacity": 0,
    "address": "8920 EMERALD PARK DR, SUITE D1",
    "city": "ELK GROVE",
    "zip": "95624",
    "county": "SACRAMENTO",
    "phone": "(916) 330-4050",
    "lat": 38.405295,
    "lng": -121.37067
  },
  {
    "id": "630021461",
    "name": "WINTERFEST HEALTH FACILITY",
    "npi": null,
    "hcaiId": "206340297",
    "businessName": "WINTERFEST MEDICAL SERVICES CORPORATION",
    "contactEmail": "JANET@WINTERFESTHEALTH.COM",
    "categoryName": "CONGREGATE LIVING HEALTH FACILITY",
    "categoryCode": "CLHF",
    "licenseStatus": "ACTIVE",
    "inService": true,
    "licenseNumber": "550006270",
    "licenseEffectiveDate": "05/04/2024",
    "licenseExpirationDate": "05/03/2025",
    "dataDate": "10/18/2025",
    "capacity": 6,
    "address": "8758 WINTERFEST WAY",
    "city": "ELK GROVE",
    "zip": "95624",
    "county": "SACRAMENTO",
    "phone": "(916) 284-4129",
    "lat": 38.439699,
    "lng": -121.372455
  },
  {
    "id": "630027752",
    "name": "ZARAZOPHIYA ENTERPRISES",
    "npi": null,
    "hcaiId": null,
    "businessName": "ZARAZOPHIYA ENTERPRISES",
    "contactEmail": "RAVI.SINGH@BRIGHTSTARCARE.COM",
    "categoryName": "HOME HEALTH AGENCY",
    "categoryCode": "HHA",
    "licenseStatus": "ACTIVE",
    "inService": true,
    "licenseNumber": "550009813",
    "licenseEffectiveDate": "11/02/2025",
    "licenseExpirationDate": "05/01/2026",
    "dataDate": "10/18/2025",
    "capacity": 0,
    "address": "8788 ELK GROVE BLVD, BUILDING 2, SUITE B",
    "city": "ELK GROVE",
    "zip": "95624",
    "county": "SACRAMENTO",
    "phone": "(916) 296-8795",
    "lat": 38.40837795,
    "lng": -121.3770663
  }
]