[
  {
    "id": "630017967",
    "name": "AMERICAN HERITAGE HOSPICE, INC",
    "npi": "1245733328",
    "hcaiId": "406341475",
    "businessName": "AMERICAN HERITAGE HOSPICE, INC.",
    "contactEmail": "AMERICANHOSPICE@YAHOO.COM",
    "categoryName": "HOSPICE",
    "categoryCode": "HOSPICE",
    "licenseStatus": "ACTIVE",
    "inService": true,
    "licenseNumber": "550004381",
    "licenseEffectiveDate": "10/09/2024",
    "licenseExpirationDate": "10/08/2026",
    "dataDate": "10/18/2025",
    "capacity": 0,
    "address": "1837 IRON POINT RD, SUITE 180",
    "city": "FOLSOM",
    "zip": "95630",
    "county": "SACRAMENTO",
    "phone": "(916) 306-5200",
    "lat": 38.643165,
    "lng": -121.1462235
  },
  {
    "id": "630017581",
    "name": "BELLESTAR HOME HEALTH CARE, INC.",
    "npi": "1831616283",
    "hcaiId": "406341549",
    "businessName": "BELLESTAR HOME HEALTH CARE, INC.",
    "contactEmail": "BELLESTARHEALTHCARE@GMAIL.COM",
    "categoryName": "HOME HEALTH AGENCY",
    "categoryCode": "HHA",
    "licenseStatus": "ACTIVE",
    "inService": true,
    "licenseNumber": "550004529",
    "licenseEffectiveDate": "01/24/2025",
    "licenseExpirationDate": "01/23/2026",
    "dataDate": "10/18/2025",
    "capacity": 0,
    "address": "1568 CREEKSIDE DR, SUITE 203",
    "city": "FOLSOM",
    "zip": "95630",
    "county": "SACRAMENTO",
    "phone": "(916) 693-6677",
    "lat": 38.666979,
    "lng": -121.15026
  },
  {
    "id": "030000383",
    "name": "BURGER PHYSICAL THERAPY & REHABILITATION",
    "npi": null,
    "hcaiId": null,
    "businessName": null,
    "contactEmail": null,
    "categoryName": "REHABILITATION CLINIC",
    "categoryCode": "OPT/SP",
    "licenseStatus": null,
    "inService": null,
    "licenseNumber": null,
    "licenseEffectiveDate": null,
    "licenseExpirationDate": null,
    "dataDate": "10/18/2025",
    "capacity": 0,
    "address": "1301 E. BIDWELL STREET",
    "city": "FOLSOM",
    "zip": "95630",
    "county": "SACRAMENTO",
    "phone": "(916) 983-5915",
    "lat": 38.668383,
    "lng": -121.1510295
  },
  {
    "id": "630020966",
    "name": "CENTRIC CARE HOSPICE, INC.",
    "npi": "1881204055",
    "hcaiId": "406344836",
    "businessName": "CENTRIC CARE HOSPICE, INC.",
    "contactEmail": "INFO@CENTRICCAREHOSPICE.COM",
    "categoryName": "HOSPICE",
    "categoryCode": "HOSPICE",
    "licenseStatus": "ACTIVE",
    "inService": true,
    "licenseNumber": "550006858",
    "licenseEffectiveDate": "09/29/2025",
    "licenseExpirationDate": "09/28/2027",
    "dataDate": "10/18/2025",
    "capacity": 0,
    "address": "13405 FOLSOM BLVD, SUITE 504",
    "city": "FOLSOM",
    "zip": "95630",
    "county": "SACRAMENTO",
    "phone": "(916) 603-3550",
    "lat": 38.6574897,
    "lng": -121.1840794
  },
  {
    "id": "030000060",
    "name": "FOLSOM CARE CENTER",
    "npi": "1679505572",
    "hcaiId": "206340877",
    "businessName": "BLUFF ENTERPRISES, INC.",
    "contactEmail": "CCALLAWAY@FOLSOMCARECENTER.COM",
    "categoryName": "SKILLED NURSING FACILITY",
    "categoryCode": "SNF",
    "licenseStatus": "ACTIVE",
    "inService": true,
    "licenseNumber": "030000040",
    "licenseEffectiveDate": "04/01/2025",
    "licenseExpirationDate": "03/31/2026",
    "dataDate": "10/18/2025",
    "capacity": 99,
    "address": "510 MILL STREET",
    "city": "FOLSOM",
    "zip": "95630",
    "county": "SACRAMENTO",
    "phone": "(916) 985-3641",
    "lat": 38.679282,
    "lng": -121.168251
  },
  {
    "id": "630027103",
    "name": "FOLSOM DIALYSIS",
    "npi": "1487386702",
    "hcaiId": null,
    "businessName": "EAGLES DIALYSIS, LLC",
    "contactEmail": "CAL_C@DAVITA.COM",
    "categoryName": "CHRONIC DIALYSIS CLINIC",
    "categoryCode": "ESRD/CDC",
    "licenseStatus": "ACTIVE",
    "inService": true,
    "licenseNumber": "550008630",
    "licenseEffectiveDate": "07/18/2025",
    "licenseExpirationDate": "07/17/2026",
    "dataDate": "10/18/2025",
    "capacity": 26,
    "address": "2195 IRON POINT RD",
    "city": "FOLSOM",
    "zip": "95630",
    "county": "SACRAMENTO",
    "phone": "(279) 278-9702",
    "lat": 38.64321088,
    "lng": -121.1347713
  },
  {
    "id": "630020022",
    "name": "FOLSOM PLAZA SURGICAL ASSOCIATES, INC",
    "npi": "1487120762",
    "hcaiId": null,
    "businessName": null,
    "contactEmail": "ADMIN@SSISURGERY.COM",
    "categoryName": "SURGICAL CLINIC",
    "categoryCode": "ASC",
    "licenseStatus": null,
    "inService": null,
    "licenseNumber": null,
    "licenseEffectiveDate": null,
    "licenseExpirationDate": null,
    "dataDate": "10/18/2025",
    "capacity": 0,
    "address": "530 PLAZA DR, SUITE 110",
    "city": "FOLSOM",
    "zip": "95630",
    "county": "SACRAMENTO",
    "phone": "(916) 768-2890",
    "lat": 38.657178,
    "lng": -121.1729265
  },
  {
    "id": "030001775",
    "name": "FOLSOM SIERRA ENDOSCOPY CENTER",
    "npi": "1538664339",
    "hcaiId": "306344130",
    "businessName": null,
    "contactEmail": null,
    "categoryName": "SURGICAL CLINIC",
    "categoryCode": "ASC",
    "licenseStatus": "INACTIVE - CAPEN DECISION",
    "inService": false,
    "licenseNumber": "030000765",
    "licenseEffectiveDate": "05/15/2008",
    "licenseExpirationDate": "05/14/2009",
    "dataDate": "10/18/2025",
    "capacity": 0,
    "address": "1671 CREEKSIDE DRIVE, SUITE 100",
    "city": "FOLSOM",
    "zip": "95630",
    "county": "SACRAMENTO",
    "phone": "(916) 983-7475",
    "lat": 38.671632,
    "lng": -121.1452785
  },
  {
    "id": "030001771",
    "name": "FOLSOM SURGERY CENTER",
    "npi": "1942278692",
    "hcaiId": "306344129",
    "businessName": null,
    "contactEmail": "FOLSOMSURGERYCENTER@YAHOO.COM",
    "categoryName": "SURGICAL CLINIC",
    "categoryCode": "ASC",
    "licenseStatus": "INACTIVE - CAPEN DECISION",
    "inService": false,
    "licenseNumber": "030000763",
    "licenseEffectiveDate": "06/01/2008",
    "licenseExpirationDate": "05/31/2009",
    "dataDate": "10/18/2025",
    "capacity": 0,
    "address": "1651 CREEKSIDE DRIVE, SUITE 100",
    "city": "FOLSOM",
    "zip": "95630",
    "county": "SACRAMENTO",
    "phone": "(916) 673-1990",
    "lat": 38.672136,
    "lng": -121.14648
  },
  {
    "id": "630027051",
    "name": "FOLSOM TOTAL JOINT CENTER, LLC",
    "npi": null,
    "hcaiId": null,
    "businessName": null,
    "contactEmail": "FOLSOMTJCENTER@GMAIL.COM",
    "categoryName": "SURGICAL CLINIC",
    "categoryCode": "ASC",
    "licenseStatus": null,
    "inService": null,
    "licenseNumber": null,
    "licenseEffectiveDate": null,
    "licenseExpirationDate": null,
    "dataDate": "10/18/2025",
    "capacity": 0,
    "address": "530 PLAZA DR, SUITE 110",
    "city": "FOLSOM",
    "zip": "95630",
    "county": "SACRAMENTO",
    "phone": "(916) 235-6802",
    "lat": 38.65716,
    "lng": -121.1729085
  },
  {
    "id": "630021129",
    "name": "FRONTLINE HOME HEALTH CARE INCORPORATED",
    "npi": null,
    "hcaiId": "406343258",
    "businessName": "FRONTLINE HOME HEALTH CARE INCORPORATED",
    "contactEmail": "FRONTLINEHOMEHEALTHCARE@GMAIL.COM",
    "categoryName": "HOME HEALTH AGENCY",
    "categoryCode": "HHA",
    "licenseStatus": "ACTIVE",
    "inService": true,
    "licenseNumber": "550006782",
    "licenseEffectiveDate": "11/12/2025",
    "licenseExpirationDate": "08/31/2026",
    "dataDate": "10/18/2025",
    "capacity": 0,
    "address": "13405 FOLSOM BLVD, SUITE 450",
    "city": "FOLSOM",
    "zip": "95630",
    "county": "SACRAMENTO",
    "phone": "(916) 618-4917",
    "lat": 38.657493,
    "lng": -121.1840775
  },
  {
    "id": "630017913",
    "name": "HEARTS HOME HEALTHCARE, INC.",
    "npi": "1346741261",
    "hcaiId": "406341579",
    "businessName": "HEARTS HOME HEALTHCARE, INC.",
    "contactEmail": "HEARTSHHC@GMAIL.COM",
    "categoryName": "HOME HEALTH AGENCY",
    "categoryCode": "HHA",
    "licenseStatus": "ACTIVE",
    "inService": true,
    "licenseNumber": "550004602",
    "licenseEffectiveDate": "03/22/2025",
    "licenseExpirationDate": "03/21/2026",
    "dataDate": "10/18/2025",
    "capacity": 0,
    "address": "2575 E BIDWELL ST, SUITE 200",
    "city": "FOLSOM",
    "zip": "95630",
    "county": "SACRAMENTO",
    "phone": "(916) 209-8184",
    "lat": 38.658888,
    "lng": -121.1303835
  },
  {
    "id": "630017589",
    "name": "IRON POINT HOME HEALTH CARE, INC.",
    "npi": "1902321383",
    "hcaiId": "406340932",
    "businessName": "IRON POINT HOME HEALTH CARE, INC.",
    "contactEmail": "IPOINTHOMEHEALTH@YAHOO.COM",
    "categoryName": "HOME HEALTH AGENCY",
    "categoryCode": "HHA",
    "licenseStatus": "ACTIVE",
    "inService": true,
    "licenseNumber": "550004302",
    "licenseEffectiveDate": "06/09/2025",
    "licenseExpirationDate": "06/08/2026",
    "dataDate": "10/18/2025",
    "capacity": 0,
    "address": "1837 IRON POINT RD, SUITE 160",
    "city": "FOLSOM",
    "zip": "95630",
    "county": "SACRAMENTO",
    "phone": "(916) 461-4444",
    "lat": 38.643165,
    "lng": -121.1462235
  },
  {
    "id": "030000901",
    "name": "MERCY HOSPITAL OF FOLSOM",
    "npi": "1356389878",
    "hcaiId": "106344029",
    "businessName": "DIGNITY HEALTH",
    "contactEmail": "JENIFER.BIRD@COMMONSPIRIT.ORG",
    "categoryName": "GENERAL ACUTE CARE HOSPITAL",
    "categoryCode": "GACH",
    "licenseStatus": "ACTIVE",
    "inService": true,
    "licenseNumber": "030000372",
    "licenseEffectiveDate": "12/31/2024",
    "licenseExpirationDate": "12/30/2025",
    "dataDate": "10/18/2025",
    "capacity": 106,
    "address": "1650 CREEKSIDE DRIVE",
    "city": "FOLSOM",
    "zip": "95630",
    "county": "SACRAMENTO",
    "phone": "(916) 983-7400",
    "lat": 38.67021,
    "lng": -121.145382
  },
  {
    "id": "630017630",
    "name": "OAK CREEK HOSPICE, LLC",
    "npi": "1174033393",
    "hcaiId": "406342168",
    "businessName": "OAK CREEK HOSPICE, LLC",
    "contactEmail": "OAKCREEKHOSPICE@YAHOO.COM",
    "categoryName": "HOSPICE",
    "categoryCode": "HOSPICE",
    "licenseStatus": "ACTIVE",
    "inService": true,
    "licenseNumber": "550004537",
    "licenseEffectiveDate": "01/22/2025",
    "licenseExpirationDate": "01/21/2027",
    "dataDate": "10/18/2025",
    "capacity": 0,
    "address": "9580 OAK AVENUE PKWY, SUITE 15",
    "city": "FOLSOM",
    "zip": "95630",
    "county": "SACRAMENTO",
    "phone": "(916) 458-5594",
    "lat": 38.698398,
    "lng": -121.1904585
  },
  {
    "id": "630017780",
    "name": "SATELLITE HEALTHCARE FOLSOM",
    "npi": null,
    "hcaiId": "306340451",
    "businessName": "SATELLITE FOLSOM, LLC",
    "contactEmail": "LICENSING@SATELLITEHEALTHCARE.COM",
    "categoryName": "CHRONIC DIALYSIS CLINIC",
    "categoryCode": "ESRD/CDC",
    "licenseStatus": "ACTIVE",
    "inService": true,
    "licenseNumber": "550004510",
    "licenseEffectiveDate": "09/30/2025",
    "licenseExpirationDate": "01/08/2026",
    "dataDate": "10/18/2025",
    "capacity": 13,
    "address": "210 BLUE RAVINE ROAD, SUITE 100",
    "city": "FOLSOM",
    "zip": "95630",
    "county": "SACRAMENTO",
    "phone": "(916) 365-8100",
    "lat": 38.656449,
    "lng": -121.173444
  },
  {
    "id": "030000907",
    "name": "VIBRA HOSPITAL OF SACRAMENTO",
    "npi": "1134564693",
    "hcaiId": "106344035",
    "businessName": "VIBRA HOSPITAL OF SACRAMENTO, LLC",
    "contactEmail": "VCHAUHAN@VHSACRAMENTO.COM",
    "categoryName": "GENERAL ACUTE CARE HOSPITAL",
    "categoryCode": "GACH",
    "licenseStatus": "ACTIVE",
    "inService": true,
    "licenseNumber": "030000377",
    "licenseEffectiveDate": "09/01/2025",
    "licenseExpirationDate": "08/31/2026",
    "dataDate": "10/18/2025",
    "capacity": 58,
    "address": "330 MONTROSE DRIVE",
    "city": "FOLSOM",
    "zip": "95630",
    "county": "SACRAMENTO",
    "phone": "(916) 351-8846",
    "lat": 38.681253,
    "lng": -121.1589405
  },
  {
    "id": "630027063",
    "name": "VIBRANTCARE REHABILITATION - FOLSOM",
    "npi": null,
    "hcaiId": null,
    "businessName": null,
    "contactEmail": "LICENSING@VIBRANTCARE.COM",
    "categoryName": "REHABILITATION CLINIC",
    "categoryCode": "OPT/SP",
    "licenseStatus": null,
    "inService": null,
    "licenseNumber": null,
    "licenseEffectiveDate": null,
    "licenseExpirationDate": null,
    "dataDate": "10/18/2025",
    "capacity": 0,
    "address": "2575 E BIDWELL ST, SUITE 150",
    "city": "FOLSOM",
    "zip": "95630",
    "county": "SACRAMENTO",
    "phone": "(916) 782-1212",
    "lat": 38.65888361,
    "lng": -121.1303832
  },
  {
    "id": "630014028",
    "name": "WELLSPACE HEALTH AT DEAN WAY",
    "npi": "1447332036",
    "hcaiId": null,
    "businessName": "WELLSPACE HEALTH",
    "contactEmail": "INFO@WELLSPACEHEALTH.ORG",
    "categoryName": "PRIMARY CARE CLINIC",
    "categoryCode": "COMTYC",
    "licenseStatus": "ACTIVE",
    "inService": true,
    "licenseNumber": "550001216",
    "licenseEffectiveDate": "02/09/2025",
    "licenseExpirationDate": "02/08/2026",
    "dataDate": "10/18/2025",
    "capacity": 0,
    "address": "105 DEAN WAY",
    "city": "FOLSOM",
    "zip": "95630",
    "county": "SACRAMENTO",
    "phone": "(916) 737-5555",
    "lat": 38.676942,
    "lng": -121.164237
  },
  {
    "id": "630017950",
    "name": "WELLSPACE HEALTH FOLSOM COMMUNITY HEALTH CENTER",
    "npi": null,
    "hcaiId": null,
    "businessName": "WELLSPACE HEALTH",
    "contactEmail": null,
    "categoryName": "PRIMARY CARE CLINIC",
    "categoryCode": "COMTYC",
    "licenseStatus": "ACTIVE",
    "inService": true,
    "licenseNumber": "550004588",
    "licenseEffectiveDate": "02/04/2025",
    "licenseExpirationDate": "02/03/2026",
    "dataDate": "10/18/2025",
    "capacity": 0,
    "address": "1710 PRAIRIE CITY RD, SUITE 125",
    "city": "FOLSOM",
    "zip": "95630",
    "county": "SACRAMENTO",
    "phone": "(916) 822-8955",
    "lat": 38.652453,
    "lng": -121.167558
  }
]