[
  {
    "id": "630018120",
    "name": "ALTERNATIVES PREGNANCY CENTER (MOBILE UNIT)",
    "npi": null,
    "hcaiId": "306340021",
    "businessName": "ALTERNATIVES PREGNANCY CENTER",
    "contactEmail": "OPERATIONS@ALTERNATIVESPC.ORG",
    "categoryName": "PRIMARY CARE CLINIC",
    "categoryCode": "FREEC",
    "licenseStatus": "ACTIVE",
    "inService": true,
    "licenseNumber": "550000728",
    "licenseEffectiveDate": "05/16/2025",
    "licenseExpirationDate": "05/15/2026",
    "dataDate": "10/18/2025",
    "capacity": 0,
    "address": "200 NEW HOPE RD",
    "city": "GALT",
    "zip": "95632",
    "county": "SACRAMENTO",
    "phone": "(916) 972-0367",
    "lat": 38.24671836,
    "lng": -121.3110509
  },
  {
    "id": "030001510",
    "name": "GALT MEDICAL SERVICES",
    "npi": "1164431383",
    "hcaiId": null,
    "businessName": "LODI MEMORIAL HOSPITAL ASSOCIATION, INC.",
    "contactEmail": null,
    "categoryName": "PRIMARY CARE CLINIC",
    "categoryCode": "RHC/OP",
    "licenseStatus": "ACTIVE",
    "inService": true,
    "licenseNumber": "030000056",
    "licenseEffectiveDate": "05/01/2025",
    "licenseExpirationDate": "04/30/2026",
    "dataDate": "10/18/2025",
    "capacity": 0,
    "address": "387 CIVIC DRIVE",
    "city": "GALT",
    "zip": "95632",
    "county": "SACRAMENTO",
    "phone": "(209) 745-8080",
    "lat": 38.252268,
    "lng": -121.2966855
  },
  {
    "id": "100000092",
    "name": "RANCHO SECO CARE CENTER",
    "npi": "1780267948",
    "hcaiId": "206341003",
    "businessName": "RANCHO SECO CARE CENTER, LLC",
    "contactEmail": "ADMINISTRATOR@RANCHOSECOCARE.ORG",
    "categoryName": "SKILLED NURSING FACILITY",
    "categoryCode": "SNF",
    "licenseStatus": "ACTIVE",
    "inService": true,
    "licenseNumber": "100000085",
    "licenseEffectiveDate": "11/01/2025",
    "licenseExpirationDate": "10/31/2026",
    "dataDate": "10/18/2025",
    "capacity": 99,
    "address": "144 F STREET",
    "city": "GALT",
    "zip": "95632",
    "county": "SACRAMENTO",
    "phone": "(209) 745-1537",
    "lat": 38.247795,
    "lng": -121.3078005
  },
  {
    "id": "630017866",
    "name": "WELLSPACE HEALTH GALT DENTAL CLINIC",
    "npi": "1669982237",
    "hcaiId": "306344214",
    "businessName": "WELLSPACE HEALTH",
    "contactEmail": "TDELRIO@WELLSPACEHEALTH.ORG",
    "categoryName": "PRIMARY CARE CLINIC",
    "categoryCode": "COMTYC",
    "licenseStatus": "ACTIVE",
    "inService": true,
    "licenseNumber": "550004588",
    "licenseEffectiveDate": "02/04/2025",
    "licenseExpirationDate": "02/03/2026",
    "dataDate": "10/18/2025",
    "capacity": 0,
    "address": "216 N LINCOLN WAY, SUITE 10",
    "city": "GALT",
    "zip": "95632",
    "county": "SACRAMENTO",
    "phone": "(209) 271-4510",
    "lat": 38.257623,
    "lng": -121.3008435
  }
]