[
  {
    "id": "100000171",
    "name": "AMADOR HOME HEALTH",
    "npi": "1174520027",
    "hcaiId": "406032216",
    "businessName": "UNITED HOME CARE OF NORTHERN CALIFORNIA, LLC",
    "contactEmail": "DEBBIE.LONG@RMCARE.COM",
    "categoryName": "HOME HEALTH AGENCY",
    "categoryCode": "HHA",
    "licenseStatus": "ACTIVE",
    "inService": true,
    "licenseNumber": "100000267",
    "licenseEffectiveDate": "03/21/2025",
    "licenseExpirationDate": "03/20/2026",
    "dataDate": "10/18/2025",
    "capacity": 0,
    "address": "245 NEW YORK RANCH ROAD, SUITE C",
    "city": "JACKSON",
    "zip": "95642",
    "county": "AMADOR",
    "phone": "(801) 397-4697",
    "lat": 38.354796,
    "lng": -120.768579
  },
  {
    "id": "100001655",
    "name": "HOSPICE OF AMADOR & CALAVERAS",
    "npi": "1235111097",
    "hcaiId": null,
    "businessName": "HOSPICE OF AMADOR & CALAVERAS",
    "contactEmail": "INFO@HOSPICEOFAMADOR.ORG",
    "categoryName": "HOSPICE",
    "categoryCode": "HOSPICE",
    "licenseStatus": "ACTIVE",
    "inService": true,
    "licenseNumber": "100000538",
    "licenseEffectiveDate": "01/26/2025",
    "licenseExpirationDate": "01/25/2026",
    "dataDate": "10/18/2025",
    "capacity": 0,
    "address": "1500 S. HIGHWAY 49, SUITE 205",
    "city": "JACKSON",
    "zip": "95642",
    "county": "AMADOR",
    "phone": "(209) 223-5500",
    "lat": 38.336589,
    "lng": -120.758391
  },
  {
    "id": "100001302",
    "name": "HOSPICE OF AMADOR - HHA",
    "npi": null,
    "hcaiId": "406034000",
    "businessName": "HOSPICE OF AMADOR & CALAVERAS",
    "contactEmail": "SAMANTHA.LUKOW@HOSPICEOFAMADOR.ORG",
    "categoryName": "HOME HEALTH AGENCY",
    "categoryCode": "HHA",
    "licenseStatus": "ACTIVE",
    "inService": true,
    "licenseNumber": "100000538",
    "licenseEffectiveDate": "01/26/2025",
    "licenseExpirationDate": "01/25/2026",
    "dataDate": "10/18/2025",
    "capacity": 0,
    "address": "1500 S. HIGHWAY 49, SUITE 205",
    "city": "JACKSON",
    "zip": "95642",
    "county": "AMADOR",
    "phone": "(209) 223-5500",
    "lat": 38.336589,
    "lng": -120.758391
  },
  {
    "id": "630027655",
    "name": "INNOVATIVE RENAL CARE JACKSON DIALYSIS CENTER",
    "npi": "1124893615",
    "hcaiId": null,
    "businessName": "IRC - SUTTER HEALTH JACKSON LLC",
    "contactEmail": "SHEILA.CORPUZ@INNOVATIVERENAL.COM",
    "categoryName": "CHRONIC DIALYSIS CLINIC",
    "categoryCode": "ESRD/CDC",
    "licenseStatus": "ACTIVE",
    "inService": true,
    "licenseNumber": "550009536",
    "licenseEffectiveDate": "09/13/2025",
    "licenseExpirationDate": "09/12/2026",
    "dataDate": "10/18/2025",
    "capacity": 12,
    "address": "12030 INDUSTRY BLVD",
    "city": "JACKSON",
    "zip": "95642",
    "county": "AMADOR",
    "phone": "(209) 273-3060",
    "lat": 38.36915299,
    "lng": -120.801876
  },
  {
    "id": "030000074",
    "name": "KIT CARSON NURSING & REHABILITATION CENTER",
    "npi": "1467449603",
    "hcaiId": "206030915",
    "businessName": "RAY PROPERTIES KIT CARSON, INC.",
    "contactEmail": "ADMIN@KITCARSONNR.COM",
    "categoryName": "SKILLED NURSING FACILITY",
    "categoryCode": "SNF",
    "licenseStatus": "ACTIVE",
    "inService": true,
    "licenseNumber": "030000053",
    "licenseEffectiveDate": "04/23/2025",
    "licenseExpirationDate": "04/22/2026",
    "dataDate": "10/18/2025",
    "capacity": 199,
    "address": "811 COURT STREET",
    "city": "JACKSON",
    "zip": "95642",
    "county": "AMADOR",
    "phone": "(209) 223-2231",
    "lat": 38.353428,
    "lng": -120.7672605
  },
  {
    "id": "630018046",
    "name": "MACT MEDICAL JACKSON",
    "npi": null,
    "hcaiId": null,
    "businessName": null,
    "contactEmail": null,
    "categoryName": "PRIMARY CARE CLINIC",
    "categoryCode": "FQHC",
    "licenseStatus": null,
    "inService": null,
    "licenseNumber": null,
    "licenseEffectiveDate": null,
    "licenseExpirationDate": null,
    "dataDate": "10/18/2025",
    "capacity": 0,
    "address": "12140 NEW YORK RANCH RD",
    "city": "JACKSON",
    "zip": "95642",
    "county": "AMADOR",
    "phone": "(209) 257-2400",
    "lat": 38.385,
    "lng": -120.7386495
  },
  {
    "id": "030000108",
    "name": "SUTTER AMADOR HOSPITAL",
    "npi": "1447494323",
    "hcaiId": "106034002",
    "businessName": "SUTTER VALLEY HOSPITALS",
    "contactEmail": "FREDRIJ@SUTTERHEALTH.ORG",
    "categoryName": "GENERAL ACUTE CARE HOSPITAL",
    "categoryCode": "GACH",
    "licenseStatus": "ACTIVE",
    "inService": true,
    "licenseNumber": "030000008",
    "licenseEffectiveDate": "11/01/2025",
    "licenseExpirationDate": "10/31/2026",
    "dataDate": "10/18/2025",
    "capacity": 52,
    "address": "200 MISSION BOULEVARD",
    "city": "JACKSON",
    "zip": "95642",
    "county": "AMADOR",
    "phone": "(209) 223-7462",
    "lat": 38.35071,
    "lng": -120.764691
  },
  {
    "id": "630027462",
    "name": "SUTTER CARE AT HOME",
    "npi": null,
    "hcaiId": null,
    "businessName": "SUTTER VISITING NURSE ASSOCIATION AND HOSPICE",
    "contactEmail": "SVNAHREGULATORY@SUTTERHEALTH.ORG",
    "categoryName": "HOME HEALTH AGENCY",
    "categoryCode": "HHA",
    "licenseStatus": "ACTIVE",
    "inService": true,
    "licenseNumber": "550009914",
    "licenseEffectiveDate": "06/30/2025",
    "licenseExpirationDate": "12/29/2025",
    "dataDate": "10/18/2025",
    "capacity": 0,
    "address": "815 COURT ST, SUITE 6",
    "city": "JACKSON",
    "zip": "95642",
    "county": "AMADOR",
    "phone": "(707) 864-4670",
    "lat": 38.35293198,
    "lng": -120.7676353
  }
]