[
  {
    "id": "630027237",
    "name": "EDCHC MOBILE HEALTH UNIT",
    "npi": "1316050107",
    "hcaiId": null,
    "businessName": "EL DORADO COUNTY COMMUNITY HEALTH CENTER",
    "contactEmail": null,
    "categoryName": "PRIMARY CARE CLINIC",
    "categoryCode": "COMTYC",
    "licenseStatus": "ACTIVE",
    "inService": true,
    "licenseNumber": "030000776",
    "licenseEffectiveDate": "05/09/2025",
    "licenseExpirationDate": "05/08/2026",
    "dataDate": "10/18/2025",
    "capacity": 0,
    "address": "4212 MISSOURI FLAT RD",
    "city": "PLACERVILLE",
    "zip": "95667",
    "county": "EL DORADO",
    "phone": null,
    "lat": 38.70622402,
    "lng": -120.834891
  },
  {
    "id": "030001788",
    "name": "EL DORADO COUNTY COMMUNITY HEALTH CENTER",
    "npi": "1316050107",
    "hcaiId": "306090021",
    "businessName": "EL DORADO COUNTY COMMUNITY HEALTH CENTER",
    "contactEmail": "AP@EDCHC.ORG",
    "categoryName": "PRIMARY CARE CLINIC",
    "categoryCode": "COMTYC",
    "licenseStatus": "ACTIVE",
    "inService": true,
    "licenseNumber": "030000776",
    "licenseEffectiveDate": "05/09/2025",
    "licenseExpirationDate": "05/08/2026",
    "dataDate": "10/18/2025",
    "capacity": 0,
    "address": "4212 MISSOURI FLAT RD",
    "city": "PLACERVILLE",
    "zip": "95667",
    "county": "EL DORADO",
    "phone": "(530) 784-2327",
    "lat": 38.706534,
    "lng": -120.83373
  },
  {
    "id": "030001777",
    "name": "EL DORADO SURGERY CENTER",
    "npi": "1316192826",
    "hcaiId": "306094021",
    "businessName": null,
    "contactEmail": "CLOCKWOOD@ELDORADOSURGERY.COM",
    "categoryName": "SURGICAL CLINIC",
    "categoryCode": "ASC",
    "licenseStatus": "INACTIVE - CAPEN DECISION",
    "inService": false,
    "licenseNumber": "030000767",
    "licenseEffectiveDate": "06/25/2008",
    "licenseExpirationDate": "06/24/2009",
    "dataDate": "10/18/2025",
    "capacity": 0,
    "address": "4300 GOLDEN CENTER DRIVE, SUITE E",
    "city": "PLACERVILLE",
    "zip": "95667",
    "county": "EL DORADO",
    "phone": "(530) 344-1687",
    "lat": 38.706084,
    "lng": -120.82887
  },
  {
    "id": "630027732",
    "name": "GEM HOME HEALTHCARE, INC.",
    "npi": null,
    "hcaiId": null,
    "businessName": "GEM HOME HEALTHCARE, INC.",
    "contactEmail": "RN-ICU@HOTMAIL.COM",
    "categoryName": "HOME HEALTH AGENCY",
    "categoryCode": "HHA",
    "licenseStatus": "ACTIVE",
    "inService": true,
    "licenseNumber": "550009696",
    "licenseEffectiveDate": "08/11/2025",
    "licenseExpirationDate": "02/10/2026",
    "dataDate": "10/18/2025",
    "capacity": 0,
    "address": "5465 MERCHANT CIR, SUITE 5",
    "city": "PLACERVILLE",
    "zip": "95667",
    "county": "EL DORADO",
    "phone": "(916) 693-4664",
    "lat": 38.67608801,
    "lng": -120.879151
  },
  {
    "id": "030000063",
    "name": "GOLD COUNTRY HEALTH CENTER",
    "npi": "1639890627",
    "hcaiId": "206092347",
    "businessName": "DEL ORO LLC",
    "contactEmail": "DOUG@CYPRESSH.COM",
    "categoryName": "SKILLED NURSING FACILITY",
    "categoryCode": "SNF",
    "licenseStatus": "ACTIVE",
    "inService": true,
    "licenseNumber": "030000229",
    "licenseEffectiveDate": "12/07/2024",
    "licenseExpirationDate": "12/06/2025",
    "dataDate": "10/18/2025",
    "capacity": 68,
    "address": "4301 GOLDEN CENTER DRIVE",
    "city": "PLACERVILLE",
    "zip": "95667",
    "county": "EL DORADO",
    "phone": "(916) 761-7769",
    "lat": 38.70711,
    "lng": -120.828438
  },
  {
    "id": "030000121",
    "name": "MARSHALL MEDICAL CENTER",
    "npi": "1972503142",
    "hcaiId": "106090933",
    "businessName": "MARSHALL MEDICAL CENTER",
    "contactEmail": "ACCREDITATION@MARSHALLMEDICAL.ORG",
    "categoryName": "GENERAL ACUTE CARE HOSPITAL",
    "categoryCode": "GACH",
    "licenseStatus": "ACTIVE",
    "inService": true,
    "licenseNumber": "030000059",
    "licenseEffectiveDate": "09/12/2025",
    "licenseExpirationDate": "04/30/2026",
    "dataDate": "10/18/2025",
    "capacity": 111,
    "address": "1100 MARSHALL WAY",
    "city": "PLACERVILLE",
    "zip": "95667",
    "county": "EL DORADO",
    "phone": "(530) 626-2901",
    "lat": 38.724588,
    "lng": -120.7911915
  },
  {
    "id": "630016080",
    "name": "MARSHALL PEDIATRIC CLINIC",
    "npi": "1386065480",
    "hcaiId": null,
    "businessName": "MARSHALL MEDICAL CENTER",
    "contactEmail": null,
    "categoryName": "PRIMARY CARE CLINIC",
    "categoryCode": "RHC/OP",
    "licenseStatus": "ACTIVE",
    "inService": true,
    "licenseNumber": "030000059",
    "licenseEffectiveDate": "09/12/2025",
    "licenseExpirationDate": "04/30/2026",
    "dataDate": "10/18/2025",
    "capacity": 0,
    "address": "4341 GOLDEN CENTER DR, BUILDING A",
    "city": "PLACERVILLE",
    "zip": "95667",
    "county": "EL DORADO",
    "phone": "(530) 626-2601",
    "lat": 38.70607599,
    "lng": -120.826637
  },
  {
    "id": "630021746",
    "name": "PREGNANCY COUNSELING SERVICES OF EL DORADO COUNTY INC. DBA PCS HEALTH",
    "npi": null,
    "hcaiId": "306090020",
    "businessName": "PREGNANCY COUNSELING SERVICES OF EL DORADO COUNTY, INC.",
    "contactEmail": "BROOKE@PCSHEALTH.ORG",
    "categoryName": "PRIMARY CARE CLINIC",
    "categoryCode": "COMTYC",
    "licenseStatus": "ACTIVE",
    "inService": true,
    "licenseNumber": "550006603",
    "licenseEffectiveDate": "12/14/2024",
    "licenseExpirationDate": "12/13/2025",
    "dataDate": "10/18/2025",
    "capacity": 0,
    "address": "3105 CEDAR RAVINE RD, SUITE 103",
    "city": "PLACERVILLE",
    "zip": "95667",
    "county": "EL DORADO",
    "phone": "(530) 626-6720",
    "lat": 38.726442,
    "lng": -120.7941615
  },
  {
    "id": "030000085",
    "name": "THE PINES AT PLACERVILLE HEALTHCARE CENTER",
    "npi": "1457659682",
    "hcaiId": "206090983",
    "businessName": "GLADIOLUS HOLDINGS, LLC",
    "contactEmail": "COLBY.HOLLINGSWORTH@PINESATPLACERVILLE.COM",
    "categoryName": "SKILLED NURSING FACILITY",
    "categoryCode": "SNF",
    "licenseStatus": "ACTIVE",
    "inService": true,
    "licenseNumber": "030000073",
    "licenseEffectiveDate": "06/07/2025",
    "licenseExpirationDate": "06/06/2026",
    "dataDate": "10/18/2025",
    "capacity": 99,
    "address": "1040 MARSHALL WAY",
    "city": "PLACERVILLE",
    "zip": "95667",
    "county": "EL DORADO",
    "phone": "(530) 622-3400",
    "lat": 38.725533,
    "lng": -120.7927305
  },
  {
    "id": "030000047",
    "name": "WESTERN SLOPE HEALTH CENTER",
    "npi": "1043518277",
    "hcaiId": "206090863",
    "businessName": "ROSEBUD HOLDINGS, LLC",
    "contactEmail": "DEVIN.HAMPTON@WESTERNSLOPEHC.COM",
    "categoryName": "SKILLED NURSING FACILITY",
    "categoryCode": "SNF",
    "licenseStatus": "ACTIVE",
    "inService": true,
    "licenseNumber": "030000033",
    "licenseEffectiveDate": "06/07/2025",
    "licenseExpirationDate": "06/06/2026",
    "dataDate": "10/18/2025",
    "capacity": 99,
    "address": "3280 WASHINGTON STREET",
    "city": "PLACERVILLE",
    "zip": "95667",
    "county": "EL DORADO",
    "phone": "(530) 622-6842",
    "lat": 38.722491,
    "lng": -120.789999
  }
]