[
  {
    "id": "100001781",
    "name": "ANTELOPE HILLS MANOR ICF DDN",
    "npi": "1770622292",
    "hcaiId": null,
    "businessName": "ANTELOPE HILLS MANOR ICF-DDN, INC.",
    "contactEmail": "AGRANITRN1961@COMCAST.NET",
    "categoryName": "INTERMEDIATE CARE FACILITY-DD/H/N/CN/IID",
    "categoryCode": "ICFDDN",
    "licenseStatus": "ACTIVE",
    "inService": true,
    "licenseNumber": "100000761",
    "licenseEffectiveDate": "11/11/2025",
    "licenseExpirationDate": "11/10/2026",
    "dataDate": "10/18/2025",
    "capacity": 6,
    "address": "7311 34TH ST",
    "city": "NORTH HIGHLANDS",
    "zip": "95660",
    "county": "SACRAMENTO",
    "phone": "(916) 548-1397",
    "lat": 38.699658,
    "lng": -121.3891965
  },
  {
    "id": "630020734",
    "name": "ELICA HEALTH CENTERS - NORTH HIGHLANDS",
    "npi": "1366051120",
    "hcaiId": null,
    "businessName": "ELICA HEALTH CENTERS",
    "contactEmail": "IGEREZ@ELICAHEALTH.ORG",
    "categoryName": "PRIMARY CARE CLINIC",
    "categoryCode": "COMTYC",
    "licenseStatus": "ACTIVE",
    "inService": true,
    "licenseNumber": "550006737",
    "licenseEffectiveDate": "09/08/2025",
    "licenseExpirationDate": "09/07/2026",
    "dataDate": "10/18/2025",
    "capacity": 0,
    "address": "4815 WATT AVE",
    "city": "NORTH HIGHLANDS",
    "zip": "95660",
    "county": "SACRAMENTO",
    "phone": "(916) 550-5003",
    "lat": 38.653299,
    "lng": -121.383531
  },
  {
    "id": "100000733",
    "name": "JEAN MARTIN HOME #1",
    "npi": "1548308281",
    "hcaiId": null,
    "businessName": "BRANDT GROUP HOMES, INC.",
    "contactEmail": "KYLEBRANDT@COMCAST.NET",
    "categoryName": "INTERMEDIATE CARE FACILITY-DD/H/N/CN/IID",
    "categoryCode": "ICFDDH",
    "licenseStatus": "ACTIVE",
    "inService": true,
    "licenseNumber": "100000334",
    "licenseEffectiveDate": "04/03/2025",
    "licenseExpirationDate": "04/02/2026",
    "dataDate": "10/18/2025",
    "capacity": 6,
    "address": "5421 HARRISON STREET",
    "city": "NORTH HIGHLANDS",
    "zip": "95660",
    "county": "SACRAMENTO",
    "phone": "(916) 752-6775",
    "lat": 38.665584,
    "lng": -121.369347
  },
  {
    "id": "100000999",
    "name": "JEAN MARTIN HOME #3",
    "npi": "1699815274",
    "hcaiId": null,
    "businessName": "BRANDT GROUP HOMES, INC.",
    "contactEmail": "KYLEBRANDT@COMCAST.NET",
    "categoryName": "INTERMEDIATE CARE FACILITY-DD/H/N/CN/IID",
    "categoryCode": "ICFDDH",
    "licenseStatus": "ACTIVE",
    "inService": true,
    "licenseNumber": "100000418",
    "licenseEffectiveDate": "04/03/2025",
    "licenseExpirationDate": "04/02/2026",
    "dataDate": "10/18/2025",
    "capacity": 6,
    "address": "3653 CENTINELLA DRIVE",
    "city": "NORTH HIGHLANDS",
    "zip": "95660",
    "county": "SACRAMENTO",
    "phone": "(916) 752-6775",
    "lat": 38.688156,
    "lng": -121.3797015
  },
  {
    "id": "110001183",
    "name": "NORTH HIGHLANDS DIALYSIS CENTER",
    "npi": "1215990684",
    "hcaiId": "306344200",
    "businessName": "CAPITAL DIALYSIS PARTNERSHIP",
    "contactEmail": "CAL_C@DAVITA.COM",
    "categoryName": "CHRONIC DIALYSIS CLINIC",
    "categoryCode": "ESRD/CDC",
    "licenseStatus": "ACTIVE",
    "inService": true,
    "licenseNumber": "110000472",
    "licenseEffectiveDate": "03/05/2025",
    "licenseExpirationDate": "03/04/2026",
    "dataDate": "10/18/2025",
    "capacity": 27,
    "address": "4612 ROSEVILLE ROAD, SUITE 100",
    "city": "NORTH HIGHLANDS",
    "zip": "95660",
    "county": "SACRAMENTO",
    "phone": "(916) 334-1368",
    "lat": 38.652804,
    "lng": -121.387194
  },
  {
    "id": "030000795",
    "name": "PLANNED PARENTHOOD MAR MONTE - NORTH HIGHLANDS HEALTH CENTER",
    "npi": "1184677163",
    "hcaiId": "306344019",
    "businessName": "PLANNED PARENTHOOD MAR MONTE, INC.",
    "contactEmail": "SERVICESAD@PPMARMONTE.ORG",
    "categoryName": "PRIMARY CARE CLINIC",
    "categoryCode": "COMTYC",
    "licenseStatus": "ACTIVE",
    "inService": true,
    "licenseNumber": "030000346",
    "licenseEffectiveDate": "11/01/2025",
    "licenseExpirationDate": "10/31/2026",
    "dataDate": "10/18/2025",
    "capacity": 0,
    "address": "5700 WATT AVENUE",
    "city": "NORTH HIGHLANDS",
    "zip": "95660",
    "county": "SACRAMENTO",
    "phone": "(408) 795-3695",
    "lat": 38.670705,
    "lng": -121.38237
  },
  {
    "id": "630019943",
    "name": "SACRAMENTO COMMUNITY CLINIC - WATT",
    "npi": "1427715515",
    "hcaiId": null,
    "businessName": "HEALTH AND LIFE ORGANIZATION, INC. (H.A.L.O.)",
    "contactEmail": "AMOUA@HALOCARES.ORG",
    "categoryName": "PRIMARY CARE CLINIC",
    "categoryCode": "COMTYC",
    "licenseStatus": "ACTIVE",
    "inService": true,
    "licenseNumber": "550007931",
    "licenseEffectiveDate": "03/31/2025",
    "licenseExpirationDate": "03/30/2026",
    "dataDate": "10/18/2025",
    "capacity": 0,
    "address": "4986 WATT AVE, SUITE D",
    "city": "NORTH HIGHLANDS",
    "zip": "95660",
    "county": "SACRAMENTO",
    "phone": "(916) 642-1880",
    "lat": 38.65734,
    "lng": -121.3817445
  },
  {
    "id": "630014303",
    "name": "WELLSPACE HEALTH AT WATT AVENUE",
    "npi": "1669982237",
    "hcaiId": null,
    "businessName": "WELLSPACE HEALTH",
    "contactEmail": "INFO@WELLSPACEHEALTH.ORG",
    "categoryName": "PRIMARY CARE CLINIC",
    "categoryCode": "COMTYC",
    "licenseStatus": "ACTIVE",
    "inService": true,
    "licenseNumber": "550004588",
    "licenseEffectiveDate": "02/04/2025",
    "licenseExpirationDate": "02/03/2026",
    "dataDate": "10/18/2025",
    "capacity": 0,
    "address": "6060 WATT AVENUE",
    "city": "NORTH HIGHLANDS",
    "zip": "95660",
    "county": "SACRAMENTO",
    "phone": "(916) 737-5555",
    "lat": 38.676096,
    "lng": -121.3811415
  },
  {
    "id": "630013291",
    "name": "WELLSPACE HEALTH NORTH HIGHLANDS COMMUNITY HEALTH CENTER",
    "npi": "1326175100",
    "hcaiId": "306344177",
    "businessName": "WELLSPACE HEALTH",
    "contactEmail": "TDELRIO@WELLSPACEHEALTH.ORG",
    "categoryName": "PRIMARY CARE CLINIC",
    "categoryCode": "COMTYC",
    "licenseStatus": "ACTIVE",
    "inService": true,
    "licenseNumber": "550004588",
    "licenseEffectiveDate": "02/04/2025",
    "licenseExpirationDate": "02/03/2026",
    "dataDate": "10/18/2025",
    "capacity": 0,
    "address": "6015 WATT AVENUE, SUITE 2, 3",
    "city": "NORTH HIGHLANDS",
    "zip": "95660",
    "county": "SACRAMENTO",
    "phone": "(209) 271-4510",
    "lat": 38.676627,
    "lng": -121.3842375
  }
]