[
  {
    "id": "630018274",
    "name": "ACEPTIO HOME HEALTH CARE",
    "npi": "1215407952",
    "hcaiId": "406341698",
    "businessName": "ACEPTIO HEALTH CARE SERVICES, INC",
    "contactEmail": "ACEPTIOHOMEHEALTH@GMAIL.COM",
    "categoryName": "HOME HEALTH AGENCY",
    "categoryCode": "HHA",
    "licenseStatus": "ACTIVE",
    "inService": true,
    "licenseNumber": "550004689",
    "licenseEffectiveDate": "05/02/2025",
    "licenseExpirationDate": "05/01/2026",
    "dataDate": "10/18/2025",
    "capacity": 0,
    "address": "9198 GREENBACK LN, SUITE 102",
    "city": "ORANGEVALE",
    "zip": "95662",
    "county": "SACRAMENTO",
    "phone": "(818) 432-3439",
    "lat": 38.677905,
    "lng": -121.2122655
  },
  {
    "id": "630017526",
    "name": "ARMSTRONG HOSPICE",
    "npi": "1386165421",
    "hcaiId": "406342144",
    "businessName": "ARMSTRONG HOME HEALTH SERVICES, LLC",
    "contactEmail": "SHERRYL@ARMSTRONGHOSPICE.COM",
    "categoryName": "HOSPICE",
    "categoryCode": "HOSPICE",
    "licenseStatus": "ACTIVE",
    "inService": true,
    "licenseNumber": "550004558",
    "licenseEffectiveDate": "02/05/2025",
    "licenseExpirationDate": "02/04/2027",
    "dataDate": "10/18/2025",
    "capacity": 0,
    "address": "6216 MAIN AVE, SUITE B3",
    "city": "ORANGEVALE",
    "zip": "95662",
    "county": "SACRAMENTO",
    "phone": "(800) 485-5682",
    "lat": 38.678553,
    "lng": -121.2016275
  },
  {
    "id": "630025342",
    "name": "BEST PATHWAYS HOME HEALTH",
    "npi": null,
    "hcaiId": "406340023",
    "businessName": "BEST PATHWAYS HOME HEALTH LLC",
    "contactEmail": "BESTPATHWAYSHOMEHEALTH@GMAIL.COM",
    "categoryName": "HOME HEALTH AGENCY",
    "categoryCode": "HHA",
    "licenseStatus": "ACTIVE",
    "inService": true,
    "licenseNumber": "550008705",
    "licenseEffectiveDate": "08/26/2025",
    "licenseExpirationDate": "08/25/2026",
    "dataDate": "10/18/2025",
    "capacity": 0,
    "address": "9198 GREENBACK LN, SUITE 216",
    "city": "ORANGEVALE",
    "zip": "95662",
    "county": "SACRAMENTO",
    "phone": "(916) 800-4838",
    "lat": 38.677905,
    "lng": -121.2122655
  },
  {
    "id": "630017444",
    "name": "ELITE HEALTH CARE SERVICES, LLC",
    "npi": "1114453107",
    "hcaiId": "406341445",
    "businessName": "ELITE HEALTH CARE SERVICES, LLC",
    "contactEmail": "GRACE@ELITEHOMEHEALTHSERVICES.ORG",
    "categoryName": "HOME HEALTH AGENCY",
    "categoryCode": "HHA",
    "licenseStatus": "ACTIVE",
    "inService": true,
    "licenseNumber": "550004411",
    "licenseEffectiveDate": "10/18/2025",
    "licenseExpirationDate": "10/17/2026",
    "dataDate": "10/18/2025",
    "capacity": 0,
    "address": "9267 GREENBACK LN, SUITE B-1",
    "city": "ORANGEVALE",
    "zip": "95662",
    "county": "SACRAMENTO",
    "phone": "(916) 400-3092",
    "lat": 38.678733,
    "lng": -121.208598
  },
  {
    "id": "030001300",
    "name": "MATRIX REHABILITATION OF ORANGEVALE",
    "npi": "1891730743",
    "hcaiId": null,
    "businessName": null,
    "contactEmail": null,
    "categoryName": "REHABILITATION CLINIC",
    "categoryCode": "OPT/SP",
    "licenseStatus": null,
    "inService": null,
    "licenseNumber": null,
    "licenseEffectiveDate": null,
    "licenseExpirationDate": null,
    "dataDate": "10/18/2025",
    "capacity": 0,
    "address": "8680 GREENBACK LANE, SUITE 102B",
    "city": "ORANGEVALE",
    "zip": "95662",
    "county": "SACRAMENTO",
    "phone": "(916) 722-3100",
    "lat": 38.677617,
    "lng": -121.236228
  },
  {
    "id": "100001789",
    "name": "MY FRIENDS PEDIATRIC DAY HEALTH CARE CENTER",
    "npi": "1972504702",
    "hcaiId": null,
    "businessName": "SPECIALIZED DAYCARE SERVICES, INC.",
    "contactEmail": "AHNS@ALWAYSHOMENURSING.COM",
    "categoryName": "PEDIATRIC DAY HEALTH & RESPITE CARE FACILITY",
    "categoryCode": "PDHRCF",
    "licenseStatus": "ACTIVE",
    "inService": true,
    "licenseNumber": "100000763",
    "licenseEffectiveDate": "11/06/2025",
    "licenseExpirationDate": "11/05/2026",
    "dataDate": "10/18/2025",
    "capacity": 4,
    "address": "8632 GREENBACK LANE, SUITE A",
    "city": "ORANGEVALE",
    "zip": "95662",
    "county": "SACRAMENTO",
    "phone": "(916) 202-8892",
    "lat": 38.678085,
    "lng": -121.2382665
  },
  {
    "id": "110001186",
    "name": "ORANGEVALE DIALYSIS CENTER",
    "npi": "1215990478",
    "hcaiId": "306344123",
    "businessName": "CAPITAL DIALYSIS PARTNERSHIP",
    "contactEmail": "CAL_C@DAVITA.COM",
    "categoryName": "CHRONIC DIALYSIS CLINIC",
    "categoryCode": "ESRD/CDC",
    "licenseStatus": "ACTIVE",
    "inService": true,
    "licenseNumber": "110000475",
    "licenseEffectiveDate": "02/24/2025",
    "licenseExpirationDate": "02/23/2026",
    "dataDate": "10/18/2025",
    "capacity": 20,
    "address": "9267 GREENBACK LN, SUITE A2",
    "city": "ORANGEVALE",
    "zip": "95662",
    "county": "SACRAMENTO",
    "phone": "(916) 988-5666",
    "lat": 38.678733,
    "lng": -121.208598
  },
  {
    "id": "630027762",
    "name": "SWEET GUARDIANS HOME HEALTH",
    "npi": null,
    "hcaiId": null,
    "businessName": "SWEET GUARDIANS HOME HEALTH",
    "contactEmail": "SWEETGUARDIANSHH@GMAIL.COM",
    "categoryName": "HOME HEALTH AGENCY",
    "categoryCode": "HHA",
    "licenseStatus": "ACTIVE",
    "inService": true,
    "licenseNumber": "550009957",
    "licenseEffectiveDate": "08/08/2025",
    "licenseExpirationDate": "02/07/2026",
    "dataDate": "10/18/2025",
    "capacity": 0,
    "address": "9198 GREENBACK LN, SUITE 102",
    "city": "ORANGEVALE",
    "zip": "95662",
    "county": "SACRAMENTO",
    "phone": "(916) 896-8279",
    "lat": 38.67790416,
    "lng": -121.2122644
  }
]