[
  {
    "id": "630014547",
    "name": "ARIAS HOME HEALTH",
    "npi": "1538508791",
    "hcaiId": "406315556",
    "businessName": "IR REHAB HOME HEALTH, INC.",
    "contactEmail": "IRILEY@ARIASHH.COM",
    "categoryName": "HOME HEALTH AGENCY",
    "categoryCode": "HHA",
    "licenseStatus": "ACTIVE",
    "inService": true,
    "licenseNumber": "550002730",
    "licenseEffectiveDate": "06/25/2025",
    "licenseExpirationDate": "06/24/2026",
    "dataDate": "10/18/2025",
    "capacity": 0,
    "address": "2250 DOUGLAS BLVD, SUITE 140",
    "city": "ROSEVILLE",
    "zip": "95661",
    "county": "PLACER",
    "phone": "(916) 913-1134",
    "lat": 38.74347,
    "lng": -121.242906
  },
  {
    "id": "630019862",
    "name": "ARIAS HOSPICE CARE INC",
    "npi": "1275174500",
    "hcaiId": "406342849",
    "businessName": "ARIAS HOSPICE CARE INC",
    "contactEmail": "ARIASHOSPICE@GMAIL.COM",
    "categoryName": "HOSPICE",
    "categoryCode": "HOSPICE",
    "licenseStatus": "ACTIVE",
    "inService": true,
    "licenseNumber": "550005694",
    "licenseEffectiveDate": "08/24/2024",
    "licenseExpirationDate": "08/23/2026",
    "dataDate": "10/18/2025",
    "capacity": 0,
    "address": "2250 DOUGLAS BLVD, SUITE 135",
    "city": "ROSEVILLE",
    "zip": "95661",
    "county": "PLACER",
    "phone": "(916) 759-6421",
    "lat": 38.74347,
    "lng": -121.242906
  },
  {
    "id": "630012006",
    "name": "BRIGHTSTAR HEALTHCARE",
    "npi": null,
    "hcaiId": "406314042",
    "businessName": "ALTUS HEALTH, INC.",
    "contactEmail": "ICESPEDES@BRIGHTSTARCARE.COM",
    "categoryName": "HOME HEALTH AGENCY",
    "categoryCode": "HHA",
    "licenseStatus": "ACTIVE",
    "inService": true,
    "licenseNumber": "550001066",
    "licenseEffectiveDate": "05/08/2025",
    "licenseExpirationDate": "05/07/2026",
    "dataDate": "10/18/2025",
    "capacity": 0,
    "address": "151 N SUNRISE AVE, SUITE 1011",
    "city": "ROSEVILLE",
    "zip": "95661",
    "county": "PLACER",
    "phone": "(916) 781-6517",
    "lat": 38.747088,
    "lng": -121.263903
  },
  {
    "id": "630011378",
    "name": "BRISTOL HOSPICE - SACRAMENTO, LLC",
    "npi": "1235331828",
    "hcaiId": "406314045",
    "businessName": "BRISTOL HOSPICE - SACRAMENTO, L.L.C.",
    "contactEmail": "MICHAEL.STANTON@BRISTOLHOSPICE.COM",
    "categoryName": "HOSPICE",
    "categoryCode": "HOSPICE",
    "licenseStatus": "ACTIVE",
    "inService": true,
    "licenseNumber": "550000805",
    "licenseEffectiveDate": "07/30/2025",
    "licenseExpirationDate": "11/01/2026",
    "dataDate": "10/18/2025",
    "capacity": 0,
    "address": "2140 PROFESSIONAL DRIVE, SUITE 210",
    "city": "ROSEVILLE",
    "zip": "95661",
    "county": "PLACER",
    "phone": "(916) 782-5511",
    "lat": 38.742039,
    "lng": -121.2481665
  },
  {
    "id": "630012221",
    "name": "CALIFORNIA SKIN SURGERY CENTER, INC.",
    "npi": "1144497264",
    "hcaiId": null,
    "businessName": null,
    "contactEmail": null,
    "categoryName": "SURGICAL CLINIC",
    "categoryCode": "ASC",
    "licenseStatus": null,
    "inService": null,
    "licenseNumber": null,
    "licenseEffectiveDate": null,
    "licenseExpirationDate": null,
    "dataDate": "10/18/2025",
    "capacity": 0,
    "address": "9269 SIERRA COLLEGE BOULEVARD",
    "city": "ROSEVILLE",
    "zip": "95661",
    "county": "PLACER",
    "phone": "(916) 772-1585",
    "lat": 38.73483,
    "lng": -121.223907
  },
  {
    "id": "630026631",
    "name": "CARE CENTRAL PROFESSIONALS LLC",
    "npi": null,
    "hcaiId": null,
    "businessName": "CARE CENTRAL PROFESSIONALS LLC",
    "contactEmail": "ADMIN@CARECENTRALPROFESSIONALS.COM",
    "categoryName": "HOME HEALTH AGENCY",
    "categoryCode": "HHA",
    "licenseStatus": "ACTIVE",
    "inService": true,
    "licenseNumber": "550009402",
    "licenseEffectiveDate": "09/20/2025",
    "licenseExpirationDate": "09/19/2026",
    "dataDate": "10/18/2025",
    "capacity": 0,
    "address": "3017 DOUGLAS BLVD, SUITE 300-56",
    "city": "ROSEVILLE",
    "zip": "95661",
    "county": "PLACER",
    "phone": "(916) 774-7599",
    "lat": 38.744712,
    "lng": -121.232403
  },
  {
    "id": "030000321",
    "name": "EYE SURGERY CENTER OF NORTHERN CALIFORNIA",
    "npi": "1699711556",
    "hcaiId": "306344023",
    "businessName": null,
    "contactEmail": null,
    "categoryName": "SURGICAL CLINIC",
    "categoryCode": "ASC",
    "licenseStatus": "INACTIVE - CAPEN DECISION",
    "inService": false,
    "licenseNumber": "030000363",
    "licenseEffectiveDate": "04/01/2008",
    "licenseExpirationDate": "03/31/2009",
    "dataDate": "10/18/2025",
    "capacity": 0,
    "address": "1386 LEAD HILL BLVD, SUITE 130",
    "city": "ROSEVILLE",
    "zip": "95661",
    "county": "PLACER",
    "phone": "(916) 723-7400",
    "lat": 38.74844701,
    "lng": -121.258938
  },
  {
    "id": "630023205",
    "name": "FALCON WELLBEING CARE",
    "npi": null,
    "hcaiId": "206310366",
    "businessName": "WELLBEING CARE MANAGEMENT INC.",
    "contactEmail": "OKKI.KIM@FALCONWELLBEING.COM",
    "categoryName": "CONGREGATE LIVING HEALTH FACILITY",
    "categoryCode": "CLHF",
    "licenseStatus": "ACTIVE",
    "inService": true,
    "licenseNumber": "550008171",
    "licenseEffectiveDate": "09/28/2025",
    "licenseExpirationDate": "09/27/2026",
    "dataDate": "10/18/2025",
    "capacity": 6,
    "address": "602 FALCON WAY",
    "city": "ROSEVILLE",
    "zip": "95661",
    "county": "PLACER",
    "phone": "(530) 204-8878",
    "lat": 38.738763,
    "lng": -121.255254
  },
  {
    "id": "630018826",
    "name": "GRANITE BAY SURGERY CENTER, LLC",
    "npi": "1245774611",
    "hcaiId": null,
    "businessName": null,
    "contactEmail": "ALEXIS@PSCMAIL.COM",
    "categoryName": "SURGICAL CLINIC",
    "categoryCode": "ASC",
    "licenseStatus": null,
    "inService": null,
    "licenseNumber": null,
    "licenseEffectiveDate": null,
    "licenseExpirationDate": null,
    "dataDate": "10/18/2025",
    "capacity": 0,
    "address": "8723 SIERRA COLLEGE BLVD",
    "city": "ROSEVILLE",
    "zip": "95661",
    "county": "PLACER",
    "phone": "(916) 929-1833",
    "lat": 38.741337,
    "lng": -121.224978
  },
  {
    "id": "630013372",
    "name": "GREEN VALLEY HOSPICE, INC.",
    "npi": "1780966796",
    "hcaiId": "406314049",
    "businessName": "GREEN VALLEY HOME HEALTH CARE & HOSPICE, INC.",
    "contactEmail": "NS@GREENVHOSPICE.COM",
    "categoryName": "HOSPICE",
    "categoryCode": "HOSPICE",
    "licenseStatus": "ACTIVE",
    "inService": true,
    "licenseNumber": "550001917",
    "licenseEffectiveDate": "04/30/2024",
    "licenseExpirationDate": "04/29/2026",
    "dataDate": "10/18/2025",
    "capacity": 0,
    "address": "3009 DOUGLAS BOULEVARD, SUITE 160",
    "city": "ROSEVILLE",
    "zip": "95661",
    "county": "PLACER",
    "phone": "(916) 757-6800",
    "lat": 38.74527,
    "lng": -121.232754
  },
  {
    "id": "030001370",
    "name": "KAISER FOUNDATION HOSPITAL - ROSEVILLE",
    "npi": "1073811378",
    "hcaiId": "106314024",
    "businessName": "KAISER FOUNDATION HOSPITALS",
    "contactEmail": "RACHEL.X1.CROSBY@KP.ORG",
    "categoryName": "GENERAL ACUTE CARE HOSPITAL",
    "categoryCode": "GACH",
    "licenseStatus": "ACTIVE",
    "inService": true,
    "licenseNumber": "550001681",
    "licenseEffectiveDate": "11/10/2025",
    "licenseExpirationDate": "11/09/2026",
    "dataDate": "10/18/2025",
    "capacity": 352,
    "address": "1600 EUREKA ROAD",
    "city": "ROSEVILLE",
    "zip": "95661",
    "county": "PLACER",
    "phone": "(209) 275-5200",
    "lat": 38.746818,
    "lng": -121.2505335
  },
  {
    "id": "630011260",
    "name": "KAISER FOUNDATION HOSPITAL HOME HEALTH - ROSEVILLE",
    "npi": "1790869568",
    "hcaiId": "406314038",
    "businessName": "KAISER FOUNDATION HOSPITALS",
    "contactEmail": null,
    "categoryName": "HOME HEALTH AGENCY",
    "categoryCode": "HHA",
    "licenseStatus": "ACTIVE",
    "inService": true,
    "licenseNumber": "100000023",
    "licenseEffectiveDate": "11/12/2025",
    "licenseExpirationDate": "11/30/2025",
    "dataDate": "10/18/2025",
    "capacity": 0,
    "address": "1680 E. ROSEVILLE PARKWAY",
    "city": "ROSEVILLE",
    "zip": "95661",
    "county": "PLACER",
    "phone": "(916) 746-3880",
    "lat": 38.746746,
    "lng": -121.237848
  },
  {
    "id": "630011259",
    "name": "KAISER FOUNDATION HOSPITAL HOSPICE - ROSEVILLE",
    "npi": "1679651327",
    "hcaiId": "406314037",
    "businessName": "KAISER FOUNDATION HOSPITALS",
    "contactEmail": null,
    "categoryName": "HOSPICE",
    "categoryCode": "HOSPICE",
    "licenseStatus": "ACTIVE",
    "inService": true,
    "licenseNumber": "100000599",
    "licenseEffectiveDate": "02/13/2024",
    "licenseExpirationDate": "02/12/2026",
    "dataDate": "10/18/2025",
    "capacity": 0,
    "address": "1680 E. ROSEVILLE PARKWAY",
    "city": "ROSEVILLE",
    "zip": "95661",
    "county": "PLACER",
    "phone": "(916) 746-3890",
    "lat": 38.746746,
    "lng": -121.237848
  },
  {
    "id": "630011377",
    "name": "MAXIM HEALTHCARE SERVICES, INC.",
    "npi": "1821289596",
    "hcaiId": "406314041",
    "businessName": "MAXIM HEALTHCARE SERVICES, INC.",
    "contactEmail": "ROSEVILLECAHOMECARE-379@MAXHEALTH.COM",
    "categoryName": "HOME HEALTH AGENCY",
    "categoryCode": "HHA",
    "licenseStatus": "ACTIVE",
    "inService": true,
    "licenseNumber": "550000835",
    "licenseEffectiveDate": "12/12/2024",
    "licenseExpirationDate": "12/11/2025",
    "dataDate": "10/18/2025",
    "capacity": 0,
    "address": "1478 STONE POINT DR, SUITE 200",
    "city": "ROSEVILLE",
    "zip": "95661",
    "county": "PLACER",
    "phone": "(916) 771-7444",
    "lat": 38.75445399,
    "lng": -121.2499582
  },
  {
    "id": "630027495",
    "name": "OAK CREEK HOME HEALTH INC",
    "npi": null,
    "hcaiId": null,
    "businessName": "OAK CREEK HOME HEALTH INC",
    "contactEmail": "OAKCREEKHOMEHEALTH@GMAIL.COM",
    "categoryName": "HOME HEALTH AGENCY",
    "categoryCode": "HHA",
    "licenseStatus": "ACTIVE",
    "inService": true,
    "licenseNumber": "550009397",
    "licenseEffectiveDate": "09/30/2025",
    "licenseExpirationDate": "09/29/2026",
    "dataDate": "10/18/2025",
    "capacity": 0,
    "address": "1699 E ROSEVILLE PKWY, SUITE 100",
    "city": "ROSEVILLE",
    "zip": "95661",
    "county": "PLACER",
    "phone": "(916) 773-0007",
    "lat": 38.74552601,
    "lng": -121.235478
  },
  {
    "id": "030000530",
    "name": "OAK RIDGE HEALTHCARE CENTER",
    "npi": "1578025482",
    "hcaiId": "206312216",
    "businessName": "ROSEBAY LLC",
    "contactEmail": "JEFFSMITH@CYPRESSH.COM",
    "categoryName": "SKILLED NURSING FACILITY",
    "categoryCode": "SNF",
    "licenseStatus": "ACTIVE",
    "inService": true,
    "licenseNumber": "030000302",
    "licenseEffectiveDate": "11/01/2025",
    "licenseExpirationDate": "10/31/2026",
    "dataDate": "10/18/2025",
    "capacity": 67,
    "address": "310 OAK RIDGE DRIVE",
    "city": "ROSEVILLE",
    "zip": "95661",
    "county": "PLACER",
    "phone": "(909) 489-1984",
    "lat": 38.741886,
    "lng": -121.270095
  },
  {
    "id": "030000560",
    "name": "PINE CREEK CARE CENTER",
    "npi": "1437457645",
    "hcaiId": "206314005",
    "businessName": "DAISY HOLDINGS, LLC",
    "contactEmail": "ROMAN.ANDRUS@PINECREEKCA.COM",
    "categoryName": "SKILLED NURSING FACILITY",
    "categoryCode": "SNF",
    "licenseStatus": "ACTIVE",
    "inService": true,
    "licenseNumber": "030000305",
    "licenseEffectiveDate": "06/07/2025",
    "licenseExpirationDate": "06/06/2026",
    "dataDate": "10/18/2025",
    "capacity": 99,
    "address": "1139 CIRBY WAY",
    "city": "ROSEVILLE",
    "zip": "95661",
    "county": "PLACER",
    "phone": "(916) 782-7007",
    "lat": 38.730132,
    "lng": -121.2752115
  },
  {
    "id": "030000247",
    "name": "PLANNED PARENTHOOD MAR MONTE - ROSEVILLE HEALTH CENTER",
    "npi": "1447206321",
    "hcaiId": "306312342",
    "businessName": "PLANNED PARENTHOOD MAR MONTE, INC.",
    "contactEmail": "SERVICESAD@PPMARMONTE.ORG",
    "categoryName": "PRIMARY CARE CLINIC",
    "categoryCode": "COMTYC",
    "licenseStatus": "ACTIVE",
    "inService": true,
    "licenseNumber": "030000226",
    "licenseEffectiveDate": "11/01/2025",
    "licenseExpirationDate": "10/31/2026",
    "dataDate": "10/18/2025",
    "capacity": 0,
    "address": "729 SUNRISE AVENUE, SUITE 900",
    "city": "ROSEVILLE",
    "zip": "95661",
    "county": "PLACER",
    "phone": "(408) 795-3695",
    "lat": 38.733876,
    "lng": -121.270158
  },
  {
    "id": "110001160",
    "name": "RAI-HARDING -ROSEVILLE",
    "npi": "1083788327",
    "hcaiId": "306310400",
    "businessName": "RAI CARE CENTERS OF NORTHERN CALIFORNIA I, LLC",
    "contactEmail": "LUCY.NG@FRESENIUSMEDICALCARE.COM",
    "categoryName": "CHRONIC DIALYSIS CLINIC",
    "categoryCode": "ESRD/CDC",
    "licenseStatus": "ACTIVE",
    "inService": true,
    "licenseNumber": "110000449",
    "licenseEffectiveDate": "04/01/2025",
    "licenseExpirationDate": "03/31/2026",
    "dataDate": "10/18/2025",
    "capacity": 16,
    "address": "1781 SANTA CLARA DR",
    "city": "ROSEVILLE",
    "zip": "95661",
    "county": "PLACER",
    "phone": "(916) 223-0071",
    "lat": 38.747133,
    "lng": -121.262508
  },
  {
    "id": "110001265",
    "name": "RAI-SECRET RAVINE PARKWAY-ROSEVILLE",
    "npi": "1508930801",
    "hcaiId": "306314034",
    "businessName": "RAI CARE CENTERS OF NORTHERN CALIFORNIA I, LLC",
    "contactEmail": "CLINIC7160@FMC-NA.COM",
    "categoryName": "CHRONIC DIALYSIS CLINIC",
    "categoryCode": "ESRD/CDC",
    "licenseStatus": "ACTIVE",
    "inService": true,
    "licenseNumber": "110000526",
    "licenseEffectiveDate": "04/01/2025",
    "licenseExpirationDate": "03/31/2026",
    "dataDate": "10/18/2025",
    "capacity": 21,
    "address": "1451 SECRET RAVINE PARKWAY, BUILDING D-130",
    "city": "ROSEVILLE",
    "zip": "95661",
    "county": "PLACER",
    "phone": "(916) 742-6352",
    "lat": 38.765016,
    "lng": -121.243374
  },
  {
    "id": "030000090",
    "name": "ROSEVILLE CARE CENTER",
    "npi": "1871891929",
    "hcaiId": "206311001",
    "businessName": "CROCUS HOLDINGS, LLC",
    "contactEmail": "DAVID.TERRY@ROSEVILLECARECENTER.COM",
    "categoryName": "SKILLED NURSING FACILITY",
    "categoryCode": "SNF",
    "licenseStatus": "ACTIVE",
    "inService": true,
    "licenseNumber": "030000002",
    "licenseEffectiveDate": "06/07/2025",
    "licenseExpirationDate": "06/06/2026",
    "dataDate": "10/18/2025",
    "capacity": 210,
    "address": "1161 CIRBY WAY",
    "city": "ROSEVILLE",
    "zip": "95661",
    "county": "PLACER",
    "phone": "(916) 782-1238",
    "lat": 38.730132,
    "lng": -121.274541
  },
  {
    "id": "630015014",
    "name": "ROSEVILLE DIALYSIS",
    "npi": "1942625132",
    "hcaiId": "306314052",
    "businessName": "WELDON DIALYSIS LLC",
    "contactEmail": "CAL_C@DAVITA.COM",
    "categoryName": "CHRONIC DIALYSIS CLINIC",
    "categoryCode": "ESRD/CDC",
    "licenseStatus": "ACTIVE",
    "inService": true,
    "licenseNumber": "550002832",
    "licenseEffectiveDate": "10/07/2025",
    "licenseExpirationDate": "10/06/2026",
    "dataDate": "10/18/2025",
    "capacity": 24,
    "address": "1836 SIERRA GARDENS DRIVE, #150",
    "city": "ROSEVILLE",
    "zip": "95661",
    "county": "PLACER",
    "phone": "(916) 772-0306",
    "lat": 38.747619,
    "lng": -121.259313
  },
  {
    "id": "630015758",
    "name": "ROSEVILLE HOME THERAPY",
    "npi": "1710383070",
    "hcaiId": null,
    "businessName": null,
    "contactEmail": null,
    "categoryName": "CHRONIC DIALYSIS CLINIC",
    "categoryCode": "ESRD",
    "licenseStatus": null,
    "inService": null,
    "licenseNumber": null,
    "licenseEffectiveDate": null,
    "licenseExpirationDate": null,
    "dataDate": "10/18/2025",
    "capacity": 0,
    "address": "1474 STONE POINT DRIVE, SUITE 105",
    "city": "ROSEVILLE",
    "zip": "95661",
    "county": "PLACER",
    "phone": "(916) 771-4111",
    "lat": 38.755386,
    "lng": -121.2492195
  },
  {
    "id": "030000004",
    "name": "ROSEVILLE POINT HEALTH & WELLNESS CENTER",
    "npi": "1295067882",
    "hcaiId": "206310895",
    "businessName": "ROSEVILLE POINT HEALTH & WELLNESS CENTER LLC",
    "contactEmail": "ADMINISTRATOR@ROSEVILLEHC.COM",
    "categoryName": "SKILLED NURSING FACILITY",
    "categoryCode": "SNF",
    "licenseStatus": "ACTIVE",
    "inService": true,
    "licenseNumber": "030000045",
    "licenseEffectiveDate": "04/28/2025",
    "licenseExpirationDate": "04/27/2026",
    "dataDate": "10/18/2025",
    "capacity": 98,
    "address": "600 SUNRISE AVENUE",
    "city": "ROSEVILLE",
    "zip": "95661",
    "county": "PLACER",
    "phone": "(916) 782-3131",
    "lat": 38.737467,
    "lng": -121.272435
  },
  {
    "id": "030001774",
    "name": "ROSEVILLE SURGERY CENTER",
    "npi": "1982672283",
    "hcaiId": "306314031",
    "businessName": null,
    "contactEmail": "DBOWMAN@UNITEDSURGICAL.COM",
    "categoryName": "SURGICAL CLINIC",
    "categoryCode": "ASC",
    "licenseStatus": "INACTIVE - CAPEN DECISION",
    "inService": false,
    "licenseNumber": "030000764",
    "licenseEffectiveDate": "11/01/2007",
    "licenseExpirationDate": "10/31/2008",
    "dataDate": "10/18/2025",
    "capacity": 0,
    "address": "1420 E. ROSEVILLE PARKWAY, SUITE 100",
    "city": "ROSEVILLE",
    "zip": "95661",
    "county": "PLACER",
    "phone": "(916) 677-2488",
    "lat": 38.761182,
    "lng": -121.2491655
  },
  {
    "id": "630016612",
    "name": "SIERRA PREGNANCY & HEALTH",
    "npi": null,
    "hcaiId": "306314054",
    "businessName": "SIERRA PREGNANCY & HEALTH",
    "contactEmail": "CARY@SIERRAPH.ORG",
    "categoryName": "PRIMARY CARE CLINIC",
    "categoryCode": "RHC/COMTYC",
    "licenseStatus": "ACTIVE",
    "inService": true,
    "licenseNumber": "550003704",
    "licenseEffectiveDate": "11/03/2025",
    "licenseExpirationDate": "11/02/2026",
    "dataDate": "10/18/2025",
    "capacity": 0,
    "address": "1212 COLOMA WAY, SUITE A & D",
    "city": "ROSEVILLE",
    "zip": "95661",
    "county": "PLACER",
    "phone": "(916) 624-8990",
    "lat": 38.736666,
    "lng": -121.270941
  },
  {
    "id": "100000209",
    "name": "SUTTER CARE AT HOME",
    "npi": "1770512535",
    "hcaiId": "406312319",
    "businessName": "SUTTER VISITING NURSE ASSOCIATION AND HOSPICE",
    "contactEmail": "SVNAHREGULATORY@SUTTERHEALTH.ORG",
    "categoryName": "HOME HEALTH AGENCY",
    "categoryCode": "HHA",
    "licenseStatus": "ACTIVE",
    "inService": true,
    "licenseNumber": "100000214",
    "licenseEffectiveDate": "11/01/2025",
    "licenseExpirationDate": "10/31/2026",
    "dataDate": "10/18/2025",
    "capacity": 0,
    "address": "3001 LAVA RIDGE COURT, SUITE 330A",
    "city": "ROSEVILLE",
    "zip": "95661",
    "county": "PLACER",
    "phone": "(916) 797-7979",
    "lat": 38.746926,
    "lng": -121.243653
  },
  {
    "id": "100001684",
    "name": "SUTTER CARE AT HOME",
    "npi": "1033144464",
    "hcaiId": "406314046",
    "businessName": "SUTTER VISITING NURSE ASSOCIATION AND HOSPICE",
    "contactEmail": "SVNAHREGULATORY@SUTTERHEALTH.ORG",
    "categoryName": "HOSPICE",
    "categoryCode": "HOSPICE",
    "licenseStatus": "ACTIVE",
    "inService": true,
    "licenseNumber": "550001312",
    "licenseEffectiveDate": "04/01/2025",
    "licenseExpirationDate": "11/08/2026",
    "dataDate": "10/18/2025",
    "capacity": 0,
    "address": "3001 LAVA RIDGE COURT, SUITE 330B",
    "city": "ROSEVILLE",
    "zip": "95661",
    "county": "PLACER",
    "phone": "(916) 797-7850",
    "lat": 38.746926,
    "lng": -121.243653
  },
  {
    "id": "030001803",
    "name": "SUTTER ROSEVILLE ENDOSCOPY CENTER",
    "npi": "1376592014",
    "hcaiId": "306314035",
    "businessName": null,
    "contactEmail": null,
    "categoryName": "SURGICAL CLINIC",
    "categoryCode": "ASC",
    "licenseStatus": "INACTIVE - CAPEN DECISION",
    "inService": false,
    "licenseNumber": "030000786",
    "licenseEffectiveDate": "11/16/2007",
    "licenseExpirationDate": "11/15/2008",
    "dataDate": "10/18/2025",
    "capacity": 0,
    "address": "4 MEDICAL PLAZA DRIVE, SUITE 210",
    "city": "ROSEVILLE",
    "zip": "95661",
    "county": "PLACER",
    "phone": "(916) 773-8780",
    "lat": 38.766456,
    "lng": -121.245507
  },
  {
    "id": "030000134",
    "name": "SUTTER ROSEVILLE MEDICAL CENTER",
    "npi": "1356390264",
    "hcaiId": "106311000",
    "businessName": "SUTTER VALLEY HOSPITALS",
    "contactEmail": "TAMARA.POWERS@SUTTERHEALTH.ORG",
    "categoryName": "GENERAL ACUTE CARE HOSPITAL",
    "categoryCode": "GACH",
    "licenseStatus": "ACTIVE",
    "inService": true,
    "licenseNumber": "030000083",
    "licenseEffectiveDate": "08/19/2025",
    "licenseExpirationDate": "05/30/2026",
    "dataDate": "10/18/2025",
    "capacity": 418,
    "address": "1 MEDICAL PLAZA DR",
    "city": "ROSEVILLE",
    "zip": "95661",
    "county": "PLACER",
    "phone": "(916) 781-1200",
    "lat": 38.766168,
    "lng": -121.249359
  },
  {
    "id": "030001784",
    "name": "SUTTER SIERRA SURGERY CENTER",
    "npi": "1467451096",
    "hcaiId": "306314033",
    "businessName": null,
    "contactEmail": null,
    "categoryName": "SURGICAL CLINIC",
    "categoryCode": "ASC",
    "licenseStatus": "INACTIVE - CAPEN DECISION",
    "inService": false,
    "licenseNumber": "030000772",
    "licenseEffectiveDate": "11/18/2007",
    "licenseExpirationDate": "11/17/2008",
    "dataDate": "10/18/2025",
    "capacity": 0,
    "address": "8 MEDICAL PLAZA DRIVE, SUITE 100",
    "city": "ROSEVILLE",
    "zip": "95661",
    "county": "PLACER",
    "phone": "(916) 677-5070",
    "lat": 38.764251,
    "lng": -121.245291
  },
  {
    "id": "630019472",
    "name": "THERAPYMED HOME HEALTH SERVICES",
    "npi": "1134779788",
    "hcaiId": "406315654",
    "businessName": "THERAPYMED HOME HEALTH SERVICES",
    "contactEmail": "THERAPYMEDHHS@GMAIL.COM",
    "categoryName": "HOME HEALTH AGENCY",
    "categoryCode": "HHA",
    "licenseStatus": "ACTIVE",
    "inService": true,
    "licenseNumber": "550005505",
    "licenseEffectiveDate": "06/10/2024",
    "licenseExpirationDate": "06/09/2025",
    "dataDate": "10/18/2025",
    "capacity": 0,
    "address": "151 N SUNRISE AVE, SUITE 1116",
    "city": "ROSEVILLE",
    "zip": "95661",
    "county": "PLACER",
    "phone": "(279) 900-8127",
    "lat": 38.746404,
    "lng": -121.265091
  },
  {
    "id": "630019588",
    "name": "TLC HOMECARE, INC.",
    "npi": "1255977955",
    "hcaiId": "406312762",
    "businessName": "TLC HOMECARE, INC.",
    "contactEmail": "TLCHOMECAREINC8@GMAIL.COM",
    "categoryName": "HOME HEALTH AGENCY",
    "categoryCode": "HHA",
    "licenseStatus": "ACTIVE",
    "inService": true,
    "licenseNumber": "550005585",
    "licenseEffectiveDate": "07/22/2025",
    "licenseExpirationDate": "07/21/2026",
    "dataDate": "10/18/2025",
    "capacity": 0,
    "address": "3017 DOUGLAS BLVD, SUITE 300, #61",
    "city": "ROSEVILLE",
    "zip": "95661",
    "county": "PLACER",
    "phone": "(510) 458-8215",
    "lat": 38.744712,
    "lng": -121.232403
  },
  {
    "id": "630013642",
    "name": "WELLSPACE HEALTH ROSEVILLE COMMUNITY HEALTH CENTER",
    "npi": "1811262348",
    "hcaiId": "306314050",
    "businessName": "WELLSPACE HEALTH",
    "contactEmail": "INFO@WELLSPACEHEALTH.ORG",
    "categoryName": "PRIMARY CARE CLINIC",
    "categoryCode": "COMTYC",
    "licenseStatus": "ACTIVE",
    "inService": true,
    "licenseNumber": "550004588",
    "licenseEffectiveDate": "02/04/2025",
    "licenseExpirationDate": "02/03/2026",
    "dataDate": "10/18/2025",
    "capacity": 0,
    "address": "5 MEDICAL PLAZA DRIVE, SUITE 170",
    "city": "ROSEVILLE",
    "zip": "95661",
    "county": "PLACER",
    "phone": "(916) 978-1738",
    "lat": 38.766231,
    "lng": -121.246641
  },
  {
    "id": "630019676",
    "name": "WELLSPACE HEALTH SIERRA GARDENS 2 COMMUNITY HEALTH CENTER",
    "npi": null,
    "hcaiId": null,
    "businessName": "WELLSPACE HEALTH",
    "contactEmail": "MELHILL@WELLSPACEHEALTH.ORG",
    "categoryName": "PRIMARY CARE CLINIC",
    "categoryCode": "COMTYC",
    "licenseStatus": "ACTIVE",
    "inService": true,
    "licenseNumber": "550004588",
    "licenseEffectiveDate": "02/04/2025",
    "licenseExpirationDate": "02/03/2026",
    "dataDate": "10/18/2025",
    "capacity": 0,
    "address": "151 N SUNRISE AVE, SUITE 1309",
    "city": "ROSEVILLE",
    "zip": "95661",
    "county": "PLACER",
    "phone": "(916) 392-2290",
    "lat": 38.746431,
    "lng": -121.2634665
  }
]