[
  {
    "id": "020000794",
    "name": "ACCREDO HEALTH GROUP, INC.",
    "npi": null,
    "hcaiId": "406074129",
    "businessName": "ACCREDO HEALTH GROUP, INC.",
    "contactEmail": "PAM.GOPSILL@EXPRESS-SCRIPTS.COM",
    "categoryName": "HOME HEALTH AGENCY",
    "categoryCode": "HHA",
    "licenseStatus": "ACTIVE",
    "inService": true,
    "licenseNumber": "020000392",
    "licenseEffectiveDate": "11/16/2024",
    "licenseExpirationDate": "11/15/2025",
    "dataDate": "10/18/2025",
    "capacity": 0,
    "address": "3320 DATA DR, SUITE 300",
    "city": "RANCHO CORDOVA",
    "zip": "95670",
    "county": "SACRAMENTO",
    "phone": "(877) 315-6140",
    "lat": 38.58552,
    "lng": -121.2903675
  },
  {
    "id": "630026722",
    "name": "ALPHA MED HOME HEALTH",
    "npi": null,
    "hcaiId": null,
    "businessName": "ALPHA MED HOME HEALTH",
    "contactEmail": "ALPHAMEDHOMEHEALTH1@GMAIL.COM",
    "categoryName": "HOME HEALTH AGENCY",
    "categoryCode": "HHA",
    "licenseStatus": "ACTIVE",
    "inService": true,
    "licenseNumber": "550009837",
    "licenseEffectiveDate": "11/29/2025",
    "licenseExpirationDate": "05/28/2026",
    "dataDate": "10/18/2025",
    "capacity": 0,
    "address": "11251 COLOMA RD, SUITE H",
    "city": "RANCHO CORDOVA",
    "zip": "95670",
    "county": "SACRAMENTO",
    "phone": "(747) 245-5566",
    "lat": 38.619414,
    "lng": -121.264524
  },
  {
    "id": "630024836",
    "name": "AMAZING CARE HOME HEALTH, INC.",
    "npi": null,
    "hcaiId": "406347940",
    "businessName": "AMAZING CARE HOME HEALTH INC.",
    "contactEmail": "AMAZINGCAREHH@GMAIL.COM",
    "categoryName": "HOME HEALTH AGENCY",
    "categoryCode": "HHA",
    "licenseStatus": "ACTIVE",
    "inService": true,
    "licenseNumber": "550008748",
    "licenseEffectiveDate": "08/14/2025",
    "licenseExpirationDate": "08/13/2026",
    "dataDate": "10/18/2025",
    "capacity": 0,
    "address": "10901 FOLSOM BLVD, SUITE A",
    "city": "RANCHO CORDOVA",
    "zip": "95670",
    "county": "SACRAMENTO",
    "phone": "(916) 603-3315",
    "lat": 38.601414,
    "lng": -121.2788115
  },
  {
    "id": "100000021",
    "name": "CASA COLOMA HEALTH CARE CENTER",
    "npi": "1891310520",
    "hcaiId": "206341499",
    "businessName": "CASA COLOMA HOLDINGS, LLC",
    "contactEmail": "TANNER.WILSON@CASACOLOMA.COM",
    "categoryName": "SKILLED NURSING FACILITY",
    "categoryCode": "SNF",
    "licenseStatus": "ACTIVE",
    "inService": true,
    "licenseNumber": "100000131",
    "licenseEffectiveDate": "11/19/2024",
    "licenseExpirationDate": "11/18/2025",
    "dataDate": "10/18/2025",
    "capacity": 138,
    "address": "10410 COLOMA RD",
    "city": "RANCHO CORDOVA",
    "zip": "95670",
    "county": "SACRAMENTO",
    "phone": "(916) 363-4843",
    "lat": 38.597787,
    "lng": -121.3029
  },
  {
    "id": "630016130",
    "name": "CVHCARE SACRAMENTO",
    "npi": null,
    "hcaiId": "406340886",
    "businessName": "CVHCARE CORPORATION",
    "contactEmail": "COMPLIANCE@CVHCARE.COM",
    "categoryName": "HOME HEALTH AGENCY",
    "categoryCode": "HHA",
    "licenseStatus": "ACTIVE",
    "inService": true,
    "licenseNumber": "550004100",
    "licenseEffectiveDate": "12/13/2024",
    "licenseExpirationDate": "12/12/2025",
    "dataDate": "10/18/2025",
    "capacity": 0,
    "address": "10860 GOLD CENTER DRIVE, SUITE 130",
    "city": "RANCHO CORDOVA",
    "zip": "95670",
    "county": "SACRAMENTO",
    "phone": "(510) 690-1930",
    "lat": 38.591343,
    "lng": -121.278996
  },
  {
    "id": "100000195",
    "name": "INTERIM HEALTHCARE - HOME HEALTH",
    "npi": "1922245554",
    "hcaiId": "406342206",
    "businessName": "TRANSITIONAL CARE SOLUTIONS, INC.",
    "contactEmail": "AHERNANDEZ@INTERIMHEALTHCAREHH.COM",
    "categoryName": "HOME HEALTH AGENCY",
    "categoryCode": "HHA",
    "licenseStatus": "ACTIVE",
    "inService": true,
    "licenseNumber": "100000270",
    "licenseEffectiveDate": "06/20/2025",
    "licenseExpirationDate": "06/19/2026",
    "dataDate": "10/18/2025",
    "capacity": 0,
    "address": "2355 GOLD MEADOW WAY, SUITE 250",
    "city": "GOLD RIVER",
    "zip": "95670",
    "county": "SACRAMENTO",
    "phone": "(916) 486-8181",
    "lat": 38.6224023,
    "lng": -121.2610412
  },
  {
    "id": "630020881",
    "name": "INTERIM HEALTHCARE HOSPICE - SACRAMENTO AREA",
    "npi": null,
    "hcaiId": "406013997",
    "businessName": "OAKLAND HOSPICE, INC.",
    "contactEmail": "FSTALLWORTH@INTERMSAC.COM",
    "categoryName": "HOSPICE",
    "categoryCode": "HOSPICE",
    "licenseStatus": "ACTIVE",
    "inService": true,
    "licenseNumber": "550006415",
    "licenseEffectiveDate": "04/23/2025",
    "licenseExpirationDate": "04/22/2027",
    "dataDate": "10/18/2025",
    "capacity": 0,
    "address": "2366 GOLD MEADOW WAY, SUITE 100",
    "city": "GOLD RIVER",
    "zip": "95670",
    "county": "SACRAMENTO",
    "phone": "(916) 779-0811",
    "lat": 38.62211237,
    "lng": -121.2619761
  },
  {
    "id": "630027823",
    "name": "LIHA ADULT DAY HEALTH CARE CENTER",
    "npi": null,
    "hcaiId": null,
    "businessName": "LIHA ADULT DAY HEALTH CARE CENTER, INC.",
    "contactEmail": "LIHADAYCARE@GMAIL.COM",
    "categoryName": "ADULT DAY HEALTH CARE",
    "categoryCode": "ADHC",
    "licenseStatus": "ACTIVE",
    "inService": true,
    "licenseNumber": "550009655",
    "licenseEffectiveDate": "03/14/2025",
    "licenseExpirationDate": "02/06/2026",
    "dataDate": "10/18/2025",
    "capacity": 0,
    "address": "10086 MILLS STATION RD",
    "city": "SACRAMENTO",
    "zip": "95670",
    "county": "SACRAMENTO",
    "phone": "(279) 688-0006",
    "lat": 38.5816695,
    "lng": -121.31372
  },
  {
    "id": "630013564",
    "name": "MARTEL EYE INSTITUTE, LLC",
    "npi": "1629376207",
    "hcaiId": null,
    "businessName": null,
    "contactEmail": null,
    "categoryName": "SURGICAL CLINIC",
    "categoryCode": "ASC",
    "licenseStatus": null,
    "inService": null,
    "licenseNumber": null,
    "licenseEffectiveDate": null,
    "licenseExpirationDate": null,
    "dataDate": "10/18/2025",
    "capacity": 0,
    "address": "11216 TRINITY RIVER DRIVE",
    "city": "RANCHO CORDOVA",
    "zip": "95670",
    "county": "SACRAMENTO",
    "phone": "(916) 631-7868",
    "lat": 38.622906,
    "lng": -121.2684705
  },
  {
    "id": "100000198",
    "name": "MERCY HOME HEALTH",
    "npi": "1437196813",
    "hcaiId": "406342246",
    "businessName": "DIGNITY HEALTH",
    "contactEmail": "MELANIE.HATZAKOS@DIGNITYHEALTH.ORG",
    "categoryName": "HOME HEALTH AGENCY",
    "categoryCode": "HHA",
    "licenseStatus": "ACTIVE",
    "inService": true,
    "licenseNumber": "100000181",
    "licenseEffectiveDate": "12/31/2024",
    "licenseExpirationDate": "12/30/2025",
    "dataDate": "10/18/2025",
    "capacity": 0,
    "address": "3400 DATA DR",
    "city": "RANCHO CORDOVA",
    "zip": "95670",
    "county": "SACRAMENTO",
    "phone": "(916) 281-2300",
    "lat": 38.584593,
    "lng": -121.2948
  },
  {
    "id": "100001146",
    "name": "MERCY HOSPICE",
    "npi": "1417997925",
    "hcaiId": "406344139",
    "businessName": "DIGNITY HEALTH",
    "contactEmail": "STEVE.BELL@DIGNITYHEALTH.ORG",
    "categoryName": "HOSPICE",
    "categoryCode": "HOSPICE",
    "licenseStatus": "ACTIVE",
    "inService": true,
    "licenseNumber": "100000775",
    "licenseEffectiveDate": "01/01/2024",
    "licenseExpirationDate": "12/31/2025",
    "dataDate": "10/18/2025",
    "capacity": 0,
    "address": "3400 DATA DR",
    "city": "RANCHO CORDOVA",
    "zip": "95670",
    "county": "SACRAMENTO",
    "phone": "(916) 390-3109",
    "lat": 38.584593,
    "lng": -121.2948
  },
  {
    "id": "630014452",
    "name": "R.C. HOSPICE CARE INC",
    "npi": "1508119090",
    "hcaiId": "406344205",
    "businessName": "R.C. HOSPICE CARE INC.",
    "contactEmail": "ESTER.NERSISYAN@RC-HOSPICE.ORG",
    "categoryName": "HOSPICE",
    "categoryCode": "HOSPICE",
    "licenseStatus": "ACTIVE",
    "inService": true,
    "licenseNumber": "550002729",
    "licenseEffectiveDate": "06/12/2024",
    "licenseExpirationDate": "06/11/2026",
    "dataDate": "10/18/2025",
    "capacity": 0,
    "address": "3043 GOLD CANAL DR, SUITE 220",
    "city": "RANCHO CORDOVA",
    "zip": "95670",
    "county": "SACRAMENTO",
    "phone": "(916) 858-1440",
    "lat": 38.592693,
    "lng": -121.268025
  },
  {
    "id": "630028186",
    "name": "SACRAMENTO COMMUNITY CLINIC - SUNRISE",
    "npi": null,
    "hcaiId": null,
    "businessName": "HEALTH AND LIFE ORGANIZATION, INC. (H.A.L.O.)",
    "contactEmail": null,
    "categoryName": "PRIMARY CARE CLINIC",
    "categoryCode": "COMTYC",
    "licenseStatus": "ACTIVE",
    "inService": true,
    "licenseNumber": "550007931",
    "licenseEffectiveDate": "03/31/2025",
    "licenseExpirationDate": "03/30/2026",
    "dataDate": "10/18/2025",
    "capacity": 0,
    "address": "2485 SUNRISE BLVD, SUITE A",
    "city": "RANCHO CORDOVA",
    "zip": "95670",
    "county": "SACRAMENTO",
    "phone": null,
    "lat": 38.61391391,
    "lng": -121.268496
  },
  {
    "id": "630011925",
    "name": "SUNSET DIALYSIS CENTER",
    "npi": "1699947895",
    "hcaiId": "306344158",
    "businessName": "SUNSET DIALYSIS, LLC",
    "contactEmail": "CAL_C@DAVITA.COM",
    "categoryName": "CHRONIC DIALYSIS CLINIC",
    "categoryCode": "ESRD/CDC",
    "licenseStatus": "ACTIVE",
    "inService": true,
    "licenseNumber": "550000832",
    "licenseEffectiveDate": "05/19/2025",
    "licenseExpirationDate": "05/18/2026",
    "dataDate": "10/18/2025",
    "capacity": 24,
    "address": "3071 GOLD CANAL DRIVE",
    "city": "RANCHO CORDOVA",
    "zip": "95670",
    "county": "SACRAMENTO",
    "phone": "(916) 638-8429",
    "lat": 38.591721,
    "lng": -121.26807
  },
  {
    "id": "100000969",
    "name": "UC DAVIS HOME CARE SERVICES",
    "npi": "1083640650",
    "hcaiId": "406344038",
    "businessName": "UNIVERSITY OF CALIFORNIA, DAVIS, MEDICAL CENTER",
    "contactEmail": "KLRAMOS@HEALTH.UCDAVIS.EDU",
    "categoryName": "HOME HEALTH AGENCY",
    "categoryCode": "HHA",
    "licenseStatus": "ACTIVE",
    "inService": true,
    "licenseNumber": "100000391",
    "licenseEffectiveDate": "11/03/2025",
    "licenseExpirationDate": "11/02/2026",
    "dataDate": "10/18/2025",
    "capacity": 0,
    "address": "10850 WHITE ROCK RD",
    "city": "RANCHO CORDOVA",
    "zip": "95670",
    "county": "SACRAMENTO",
    "phone": "(916) 734-2458",
    "lat": 38.541852,
    "lng": -121.419702
  },
  {
    "id": "100000934",
    "name": "UC DAVIS HOSPICE PROGRAM",
    "npi": "1083640650",
    "hcaiId": "406344106",
    "businessName": "UNIVERSITY OF CALIFORNIA, DAVIS, MEDICAL CENTER",
    "contactEmail": "CONORTON@UCDAVIS.EDU",
    "categoryName": "HOSPICE",
    "categoryCode": "HOSPICE",
    "licenseStatus": "ACTIVE",
    "inService": true,
    "licenseNumber": "100000565",
    "licenseEffectiveDate": "11/15/2024",
    "licenseExpirationDate": "11/14/2026",
    "dataDate": "10/18/2025",
    "capacity": 0,
    "address": "10850 WHITE ROCK RD",
    "city": "RANCHO CORDOVA",
    "zip": "95670",
    "county": "SACRAMENTO",
    "phone": "(916) 792-8071",
    "lat": 38.5870748,
    "lng": -121.2845942
  },
  {
    "id": "630016052",
    "name": "YOUR CHOICE HOME HEALTH CARE, INC.",
    "npi": "1255710489",
    "hcaiId": "406344238",
    "businessName": "YOUR CHOICE HOME HEALTH CARE, INC.",
    "contactEmail": "YOURCHOICE_H@YAHOO.COM",
    "categoryName": "HOME HEALTH AGENCY",
    "categoryCode": "HHA",
    "licenseStatus": "ACTIVE",
    "inService": true,
    "licenseNumber": "550003909",
    "licenseEffectiveDate": "06/09/2025",
    "licenseExpirationDate": "06/08/2026",
    "dataDate": "10/18/2025",
    "capacity": 0,
    "address": "2001 ZINFANDEL DR, SUITE A3",
    "city": "RANCHO CORDOVA",
    "zip": "95670",
    "county": "SACRAMENTO",
    "phone": "(916) 476-6037",
    "lat": 38.61171,
    "lng": -121.2714855
  }
]