[
  {
    "id": "630027131",
    "name": "AMERICAN ANGEL HOME HEALTH LLC",
    "npi": null,
    "hcaiId": null,
    "businessName": "AMERICAN ANGEL HOME HEALTH,LLC",
    "contactEmail": null,
    "categoryName": "HOME HEALTH AGENCY",
    "categoryCode": "HHA",
    "licenseStatus": "ACTIVE",
    "inService": true,
    "licenseNumber": "550009672",
    "licenseEffectiveDate": "03/04/2025",
    "licenseExpirationDate": "09/03/2025",
    "dataDate": "10/18/2025",
    "capacity": 0,
    "address": "1050 OPPORTUNITY DR, SUITE 140",
    "city": "ROSEVILLE",
    "zip": "95678",
    "county": "PLACER",
    "phone": "(408) 482-5735",
    "lat": 38.74500398,
    "lng": -121.307274
  },
  {
    "id": "630017593",
    "name": "COMPASSIONATE HOME HEALTH, LTD.",
    "npi": "1093231276",
    "hcaiId": "406311568",
    "businessName": "COMPASSIONATE HOME HEALTH, LTD.",
    "contactEmail": "COMPASSIONATEHOMEHEALTHLTD@GMAIL.COM",
    "categoryName": "HOME HEALTH AGENCY",
    "categoryCode": "HHA",
    "licenseStatus": "ACTIVE",
    "inService": true,
    "licenseNumber": "550004596",
    "licenseEffectiveDate": "09/11/2025",
    "licenseExpirationDate": "03/10/2026",
    "dataDate": "10/18/2025",
    "capacity": 0,
    "address": "1110 MELODY LN",
    "city": "ROSEVILLE",
    "zip": "95678",
    "county": "PLACER",
    "phone": "(916) 677-1711",
    "lat": 38.72437314,
    "lng": -121.2920199
  },
  {
    "id": "630025738",
    "name": "PRECISE MED, LLC",
    "npi": null,
    "hcaiId": "406310020",
    "businessName": "PRECISE MED, LLC",
    "contactEmail": "PRECISEMED18@GMAIL.COM",
    "categoryName": "HOME HEALTH AGENCY",
    "categoryCode": "HHA",
    "licenseStatus": "ACTIVE",
    "inService": true,
    "licenseNumber": "550008824",
    "licenseEffectiveDate": "11/20/2024",
    "licenseExpirationDate": "11/19/2025",
    "dataDate": "10/18/2025",
    "capacity": 0,
    "address": "1198 MELODY LN, SUITE 110",
    "city": "ROSEVILLE",
    "zip": "95678",
    "county": "PLACER",
    "phone": "(916) 671-7937",
    "lat": 38.72419,
    "lng": -121.292226
  },
  {
    "id": "630024431",
    "name": "WESTERN SIERRA MEDICAL CLINIC INC.",
    "npi": null,
    "hcaiId": null,
    "businessName": null,
    "contactEmail": null,
    "categoryName": "PRIMARY CARE CLINIC",
    "categoryCode": "FQHC",
    "licenseStatus": null,
    "inService": null,
    "licenseNumber": null,
    "licenseEffectiveDate": null,
    "licenseExpirationDate": null,
    "dataDate": "10/18/2025",
    "capacity": 0,
    "address": "101 CIRBY HILLS DR, SUITE 100",
    "city": "ROSEVILLE",
    "zip": "95678",
    "county": "PLACER",
    "phone": "(530) 274-9762",
    "lat": 38.730186,
    "lng": -121.2864705
  }
]