[
  {
    "id": "630025348",
    "name": "CAMERON PARK 4",
    "npi": "1073981783",
    "hcaiId": null,
    "businessName": "EL DORADO COUNTY COMMUNITY HEALTH CENTER",
    "contactEmail": null,
    "categoryName": "PRIMARY CARE CLINIC",
    "categoryCode": "COMTYC",
    "licenseStatus": "ACTIVE",
    "inService": true,
    "licenseNumber": "550003360",
    "licenseEffectiveDate": "01/14/2025",
    "licenseExpirationDate": "01/13/2026",
    "dataDate": "10/18/2025",
    "capacity": 0,
    "address": "3100 PONTE MORINO DR, SUITE 200",
    "city": "CAMERON PARK",
    "zip": "95682",
    "county": "EL DORADO",
    "phone": null,
    "lat": 38.6631,
    "lng": -120.968082
  },
  {
    "id": "630027793",
    "name": "CAMERON PARK 5 BEHAVIORAL HEALTH CARE",
    "npi": null,
    "hcaiId": null,
    "businessName": "EL DORADO COUNTY COMMUNITY HEALTH CENTER",
    "contactEmail": null,
    "categoryName": "PRIMARY CARE CLINIC",
    "categoryCode": "COMTYC",
    "licenseStatus": "ACTIVE",
    "inService": true,
    "licenseNumber": "030000776",
    "licenseEffectiveDate": "05/09/2025",
    "licenseExpirationDate": "05/08/2026",
    "dataDate": "10/18/2025",
    "capacity": 0,
    "address": "3581 PALMER DR, SUITE 202",
    "city": "CAMERON PARK",
    "zip": "95682",
    "county": "EL DORADO",
    "phone": null,
    "lat": 38.66202301,
    "lng": -120.964707
  },
  {
    "id": "110001168",
    "name": "CAMERON PARK DIALYSIS",
    "npi": "1497030852",
    "hcaiId": "306094027",
    "businessName": "BULLARDS DIALYSIS, LLC",
    "contactEmail": "CAL_C@DAVITA.COM",
    "categoryName": "CHRONIC DIALYSIS CLINIC",
    "categoryCode": "ESRD/CDC",
    "licenseStatus": "ACTIVE",
    "inService": true,
    "licenseNumber": "110000457",
    "licenseEffectiveDate": "12/01/2024",
    "licenseExpirationDate": "11/30/2025",
    "dataDate": "10/18/2025",
    "capacity": 24,
    "address": "3311 COACH LANE, SUITE C",
    "city": "CAMERON PARK",
    "zip": "95682",
    "county": "EL DORADO",
    "phone": "(530) 677-5114",
    "lat": 38.658591,
    "lng": -120.973671
  },
  {
    "id": "630015113",
    "name": "EL DORADO COMMUNITY HEALTH CENTER CAMERON PARK",
    "npi": "1285044990",
    "hcaiId": "306094028",
    "businessName": "EL DORADO COUNTY COMMUNITY HEALTH CENTER",
    "contactEmail": "JSTEIN@EDCHC.ORG",
    "categoryName": "PRIMARY CARE CLINIC",
    "categoryCode": "COMTYC",
    "licenseStatus": "ACTIVE",
    "inService": true,
    "licenseNumber": "550003360",
    "licenseEffectiveDate": "01/14/2025",
    "licenseExpirationDate": "01/13/2026",
    "dataDate": "10/18/2025",
    "capacity": 0,
    "address": "3104 PONTE MORINO DRIVE, SUITE 110",
    "city": "CAMERON PARK",
    "zip": "95682",
    "county": "EL DORADO",
    "phone": "(530) 748-2327",
    "lat": 38.663172,
    "lng": -120.96693
  },
  {
    "id": "630019701",
    "name": "EL DORADO COMMUNITY HEALTH CENTER CAMERON PARK 3",
    "npi": "1073981783",
    "hcaiId": null,
    "businessName": "EL DORADO COUNTY COMMUNITY HEALTH CENTER",
    "contactEmail": null,
    "categoryName": "PRIMARY CARE CLINIC",
    "categoryCode": "COMTYC",
    "licenseStatus": "ACTIVE",
    "inService": true,
    "licenseNumber": "550003360",
    "licenseEffectiveDate": "01/14/2025",
    "licenseExpirationDate": "01/13/2026",
    "dataDate": "10/18/2025",
    "capacity": 0,
    "address": "3104 PONTE MORINO DR, SUITE 100",
    "city": "CAMERON PARK",
    "zip": "95682",
    "county": "EL DORADO",
    "phone": null,
    "lat": 38.663172,
    "lng": -120.96693
  },
  {
    "id": "630016379",
    "name": "EL DORADO COMMUNITY HEALTH CENTER CAMERON PARK MAIN",
    "npi": "1073981783",
    "hcaiId": "306094030",
    "businessName": "EL DORADO COUNTY COMMUNITY HEALTH CENTER",
    "contactEmail": "JSTEIN@EDCHC.ORG",
    "categoryName": "PRIMARY CARE CLINIC",
    "categoryCode": "COMTYC",
    "licenseStatus": "ACTIVE",
    "inService": true,
    "licenseNumber": "550003360",
    "licenseEffectiveDate": "01/14/2025",
    "licenseExpirationDate": "01/13/2026",
    "dataDate": "10/18/2025",
    "capacity": 0,
    "address": "3100 PONTE MORINO DR, SUITE 120",
    "city": "CAMERON PARK",
    "zip": "95682",
    "county": "EL DORADO",
    "phone": "(530) 784-2327",
    "lat": 38.6631,
    "lng": -120.968082
  },
  {
    "id": "630016873",
    "name": "EL DORADO SMILES",
    "npi": "1073981783",
    "hcaiId": null,
    "businessName": "EL DORADO COUNTY COMMUNITY HEALTH CENTER",
    "contactEmail": null,
    "categoryName": "PRIMARY CARE CLINIC",
    "categoryCode": "COMTYC",
    "licenseStatus": "ACTIVE",
    "inService": true,
    "licenseNumber": "550003360",
    "licenseEffectiveDate": "01/14/2025",
    "licenseExpirationDate": "01/13/2026",
    "dataDate": "10/18/2025",
    "capacity": 0,
    "address": "3100 PONTE MORINO DRIVE, SUITE 120",
    "city": "CAMERON PARK",
    "zip": "95682",
    "county": "EL DORADO",
    "phone": null,
    "lat": 38.6631,
    "lng": -120.968082
  }
]