[
  {
    "id": "630011714",
    "name": "ALPHA CLINICS",
    "npi": "1306011374",
    "hcaiId": "306484056",
    "businessName": "ALPHA CLINICS",
    "contactEmail": "ISAAC.BARTSCH@ALPHACLINICS.ORG",
    "categoryName": "PRIMARY CARE CLINIC",
    "categoryCode": "COMTYC",
    "licenseStatus": "ACTIVE",
    "inService": true,
    "licenseNumber": "550000787",
    "licenseEffectiveDate": "02/26/2025",
    "licenseExpirationDate": "02/25/2026",
    "dataDate": "10/18/2025",
    "capacity": 0,
    "address": "1005 ALAMO DR",
    "city": "VACAVILLE",
    "zip": "95687",
    "county": "SOLANO",
    "phone": "(707) 449-8991",
    "lat": 38.34257148,
    "lng": -121.9943141
  },
  {
    "id": "150001236",
    "name": "CA MEDICAL FAC - ROBERT ALEXANDER MEMORIAL HOSPICE",
    "npi": null,
    "hcaiId": "406484035",
    "businessName": "CA DEPARTMENT OF CORRECTIONS AND REHABILITATION",
    "contactEmail": "COLEEN.HEDSPETH@CDCR.CA.GOV",
    "categoryName": "HOSPICE",
    "categoryCode": "HOSPICE",
    "licenseStatus": "ACTIVE",
    "inService": true,
    "licenseNumber": "150000495",
    "licenseEffectiveDate": "11/02/2023",
    "licenseExpirationDate": "11/01/2025",
    "dataDate": "10/18/2025",
    "capacity": 0,
    "address": "1600 CALIFORNIA DR",
    "city": "VACAVILLE",
    "zip": "95687",
    "county": "SOLANO",
    "phone": "(707) 448-6841",
    "lat": 38.33323165,
    "lng": -121.9801261
  },
  {
    "id": "630011825",
    "name": "CALIFORNIA MEDICAL FACILITY - CORRECTIONAL TREATMENT CENTER",
    "npi": null,
    "hcaiId": null,
    "businessName": "CA DEPARTMENT OF CORRECTIONS AND REHABILITATION",
    "contactEmail": "NOELLE.MAXEY@CDCR.CA.GOV",
    "categoryName": "CORRECTIONAL TREATMENT CENTER",
    "categoryCode": "CTC",
    "licenseStatus": "ACTIVE",
    "inService": true,
    "licenseNumber": "550000726",
    "licenseEffectiveDate": "11/19/2025",
    "licenseExpirationDate": "11/18/2026",
    "dataDate": "10/18/2025",
    "capacity": 518,
    "address": "1600 CALIFORNIA DR",
    "city": "VACAVILLE",
    "zip": "95687",
    "county": "SOLANO",
    "phone": "(707) 448-6841",
    "lat": 38.33324327,
    "lng": -121.9801262
  },
  {
    "id": "630006541",
    "name": "CALIFORNIA STATE PRISON - SOLANO",
    "npi": null,
    "hcaiId": null,
    "businessName": "CA DEPARTMENT OF CORRECTIONS AND REHABILITATION",
    "contactEmail": "ISABEL.MALDONADO@CDCR.CA.GOV",
    "categoryName": "CORRECTIONAL TREATMENT CENTER",
    "categoryCode": "CTC",
    "licenseStatus": "ACTIVE",
    "inService": true,
    "licenseNumber": "550000108",
    "licenseEffectiveDate": "06/13/2025",
    "licenseExpirationDate": "06/12/2026",
    "dataDate": "10/18/2025",
    "capacity": 15,
    "address": "2100 PEABODY RD",
    "city": "VACAVILLE",
    "zip": "95687",
    "county": "SOLANO",
    "phone": "(707) 451-0182",
    "lat": 38.32340961,
    "lng": -121.9705054
  },
  {
    "id": "110001243",
    "name": "COMMUNITY MEDICAL CENTERS - VACAVILLE",
    "npi": "1417012329",
    "hcaiId": "306484040",
    "businessName": "COMMUNITY MEDICAL CENTERS, INC.",
    "contactEmail": "LICENSING@CMCENTERS.ORG",
    "categoryName": "PRIMARY CARE CLINIC",
    "categoryCode": "COMTYC",
    "licenseStatus": "ACTIVE",
    "inService": true,
    "licenseNumber": "110000507",
    "licenseEffectiveDate": "11/06/2025",
    "licenseExpirationDate": "11/05/2026",
    "dataDate": "10/18/2025",
    "capacity": 0,
    "address": "600 NUT TREE RD, SUITE 310",
    "city": "VACAVILLE",
    "zip": "95687",
    "county": "SOLANO",
    "phone": "(209) 373-2800",
    "lat": 38.361375,
    "lng": -121.9491675
  },
  {
    "id": "630026852",
    "name": "COMMUNITY MEDICAL CENTERS, VACAVILLE DENTAL",
    "npi": "1285059923",
    "hcaiId": null,
    "businessName": "COMMUNITY MEDICAL CENTERS, INC.",
    "contactEmail": null,
    "categoryName": "PRIMARY CARE CLINIC",
    "categoryCode": "COMTYC",
    "licenseStatus": "ACTIVE",
    "inService": true,
    "licenseNumber": "550003006",
    "licenseEffectiveDate": "03/13/2025",
    "licenseExpirationDate": "03/12/2026",
    "dataDate": "10/18/2025",
    "capacity": 0,
    "address": "600 NUT TREE RD, SUITE 120",
    "city": "VACAVILLE",
    "zip": "95687",
    "county": "SOLANO",
    "phone": null,
    "lat": 38.361375,
    "lng": -121.9491675
  },
  {
    "id": "630027295",
    "name": "COMMUNITY MEDICAL CENTERS, VACAVILLE SUITE 210",
    "npi": "1699766519",
    "hcaiId": null,
    "businessName": "COMMUNITY MEDICAL CENTERS, INC.",
    "contactEmail": null,
    "categoryName": "PRIMARY CARE CLINIC",
    "categoryCode": "COMTYC",
    "licenseStatus": "ACTIVE",
    "inService": true,
    "licenseNumber": "110000152",
    "licenseEffectiveDate": "11/27/2025",
    "licenseExpirationDate": "11/26/2026",
    "dataDate": "10/18/2025",
    "capacity": 0,
    "address": "600 NUT TREE RD, SUITE 210",
    "city": "VACAVILLE",
    "zip": "95687",
    "county": "SOLANO",
    "phone": null,
    "lat": 38.36136201,
    "lng": -121.949219
  },
  {
    "id": "110000378",
    "name": "NORTHBAY VACAVALLEY HOSPITAL",
    "npi": "1821147786",
    "hcaiId": "106484001",
    "businessName": "NORTHBAY HEALTHCARE GROUP",
    "contactEmail": null,
    "categoryName": "GENERAL ACUTE CARE HOSPITAL",
    "categoryCode": "GACH",
    "licenseStatus": "ACTIVE",
    "inService": true,
    "licenseNumber": "110000093",
    "licenseEffectiveDate": "09/10/2025",
    "licenseExpirationDate": "12/11/2025",
    "dataDate": "10/18/2025",
    "capacity": 35,
    "address": "1000 NUT TREE RD",
    "city": "VACAVILLE",
    "zip": "95687",
    "county": "SOLANO",
    "phone": "(707) 624-7000",
    "lat": 38.355759,
    "lng": -121.9521015
  },
  {
    "id": "630016504",
    "name": "PARK WEST SURGICAL ASSOCIATES INC",
    "npi": "1053704783",
    "hcaiId": null,
    "businessName": null,
    "contactEmail": null,
    "categoryName": "SURGICAL CLINIC",
    "categoryCode": "ASC",
    "licenseStatus": null,
    "inService": null,
    "licenseNumber": null,
    "licenseEffectiveDate": null,
    "licenseExpirationDate": null,
    "dataDate": "10/18/2025",
    "capacity": 0,
    "address": "171 A BUTCHER ROAD",
    "city": "VACAVILLE",
    "zip": "95687",
    "county": "SOLANO",
    "phone": "(707) 474-4433",
    "lat": 38.344077,
    "lng": -121.997655
  },
  {
    "id": "630011474",
    "name": "THE SURGERY CENTER AT NORTHBAY VACAVALLEY",
    "npi": "1003015843",
    "hcaiId": "306484068",
    "businessName": "NORTHBAY/PHYSICIANS SURGERY CENTER, LLC",
    "contactEmail": "SELENA.SWAFFORD@NORTHBAY.ORG",
    "categoryName": "SURGICAL CLINIC",
    "categoryCode": "ASC/SURGC",
    "licenseStatus": "ACTIVE",
    "inService": true,
    "licenseNumber": "550000667",
    "licenseEffectiveDate": "05/11/2025",
    "licenseExpirationDate": "05/10/2026",
    "dataDate": "10/18/2025",
    "capacity": 0,
    "address": "1006 NUT TREE RD",
    "city": "VACAVILLE",
    "zip": "95687",
    "county": "SOLANO",
    "phone": "(707) 624-8200",
    "lat": 38.354859,
    "lng": -121.950351
  },
  {
    "id": "630021798",
    "name": "VACAVALLEY HOME TRAINING",
    "npi": "1740886274",
    "hcaiId": null,
    "businessName": null,
    "contactEmail": "ALESHIA.JOHNSON@DAVITA.COM",
    "categoryName": "CHRONIC DIALYSIS CLINIC",
    "categoryCode": "ESRD",
    "licenseStatus": null,
    "inService": null,
    "licenseNumber": null,
    "licenseEffectiveDate": null,
    "licenseExpirationDate": null,
    "dataDate": "10/18/2025",
    "capacity": 0,
    "address": "785 ORANGE DR",
    "city": "VACAVILLE",
    "zip": "95687",
    "county": "SOLANO",
    "phone": "(615) 341-6282",
    "lat": 38.38599,
    "lng": -121.935321
  },
  {
    "id": "110000467",
    "name": "VACAVILLE CONVALESCENT AND REHABILITATION CENTER",
    "npi": "1114914355",
    "hcaiId": "206484004",
    "businessName": "VACAVILLE HEALTHCARE, INC.",
    "contactEmail": "JNICCOLIVCRC@YAHOO.COM",
    "categoryName": "SKILLED NURSING FACILITY",
    "categoryCode": "SNF",
    "licenseStatus": "ACTIVE",
    "inService": true,
    "licenseNumber": "110000203",
    "licenseEffectiveDate": "04/01/2025",
    "licenseExpirationDate": "03/31/2026",
    "dataDate": "10/18/2025",
    "capacity": 120,
    "address": "585 NUT TREE CT",
    "city": "VACAVILLE",
    "zip": "95687",
    "county": "SOLANO",
    "phone": "(707) 449-8000",
    "lat": 38.36106,
    "lng": -121.9486545
  }
]