[
  {
    "id": "630024641",
    "name": "ALWAYS BEST CARE SENIOR SERVICES",
    "npi": null,
    "hcaiId": "406486611",
    "businessName": "THRIVING SENIORS LLC",
    "contactEmail": "RSMITH@ABC-SENIORS.COM",
    "categoryName": "HOME HEALTH AGENCY",
    "categoryCode": "HHA",
    "licenseStatus": "ACTIVE",
    "inService": true,
    "licenseNumber": "550008248",
    "licenseEffectiveDate": "12/05/2024",
    "licenseExpirationDate": "12/04/2025",
    "dataDate": "10/18/2025",
    "capacity": 0,
    "address": "479 MASON ST, SUITE 101",
    "city": "VACAVILLE",
    "zip": "95688",
    "county": "SOLANO",
    "phone": "(707) 317-1740",
    "lat": 38.355129,
    "lng": -121.987818
  },
  {
    "id": "110001244",
    "name": "CREEKSIDE DIALYSIS CENTER",
    "npi": null,
    "hcaiId": "306484042",
    "businessName": "RENAL TREATMENT CENTERS - CALIFORNIA, INC.",
    "contactEmail": "CAL_C@DAVITA.COM",
    "categoryName": "CHRONIC DIALYSIS CLINIC",
    "categoryCode": "ESRD/CDC",
    "licenseStatus": "ACTIVE",
    "inService": true,
    "licenseNumber": "110000508",
    "licenseEffectiveDate": "01/08/2025",
    "licenseExpirationDate": "01/07/2026",
    "dataDate": "10/18/2025",
    "capacity": 12,
    "address": "141 PARKER ST",
    "city": "VACAVILLE",
    "zip": "95688",
    "county": "SOLANO",
    "phone": "(707) 453-1325",
    "lat": 38.358117,
    "lng": -121.9895325
  },
  {
    "id": "630012364",
    "name": "KAISER FOUNDATION HOSPITAL - VACAVILLE",
    "npi": null,
    "hcaiId": "106484044",
    "businessName": "KAISER FOUNDATION HOSPITALS",
    "contactEmail": "SAMANTHA.SHARP@KP.ORG",
    "categoryName": "GENERAL ACUTE CARE HOSPITAL",
    "categoryCode": "GACH",
    "licenseStatus": "ACTIVE",
    "inService": true,
    "licenseNumber": "550001207",
    "licenseEffectiveDate": "11/16/2025",
    "licenseExpirationDate": "11/15/2026",
    "dataDate": "10/18/2025",
    "capacity": 150,
    "address": "1 QUALITY DR",
    "city": "VACAVILLE",
    "zip": "95688",
    "county": "SOLANO",
    "phone": "(707) 227-0260",
    "lat": 38.388492,
    "lng": -121.939218
  },
  {
    "id": "010000620",
    "name": "MUSTARD SEED",
    "npi": "1114138559",
    "hcaiId": null,
    "businessName": "MARK'S GROWING CENTER, INC.",
    "contactEmail": "JILLMUSTARDSEED200@GMAIL.COM",
    "categoryName": "INTERMEDIATE CARE FACILITY-DD/H/N/CN/IID",
    "categoryCode": "ICFDDH",
    "licenseStatus": "ACTIVE",
    "inService": true,
    "licenseNumber": "010000249",
    "licenseEffectiveDate": "06/15/2025",
    "licenseExpirationDate": "06/14/2026",
    "dataDate": "10/18/2025",
    "capacity": 6,
    "address": "200 PEACH TREE AVE",
    "city": "VACAVILLE",
    "zip": "95688",
    "county": "SOLANO",
    "phone": "(530) 304-0606",
    "lat": 38.355705,
    "lng": -121.99563
  },
  {
    "id": "630018450",
    "name": "SOLANO CARE",
    "npi": "1700351020",
    "hcaiId": "406482243",
    "businessName": "SOLANO CARE, LLC",
    "contactEmail": "INFO@SOLANO-CARE.COM",
    "categoryName": "HOSPICE",
    "categoryCode": "HOSPICE",
    "licenseStatus": "ACTIVE",
    "inService": true,
    "licenseNumber": "550005222",
    "licenseEffectiveDate": "02/10/2025",
    "licenseExpirationDate": "01/05/2026",
    "dataDate": "10/18/2025",
    "capacity": 0,
    "address": "190 S ORCHARD AVE, SUITE B123",
    "city": "VACAVILLE",
    "zip": "95688",
    "county": "SOLANO",
    "phone": "(707) 742-0774",
    "lat": 38.35894509,
    "lng": -122.0053449
  },
  {
    "id": "630014180",
    "name": "SOLANO COUNTY HEALTH AND SOCIAL SERVICES",
    "npi": null,
    "hcaiId": null,
    "businessName": null,
    "contactEmail": null,
    "categoryName": "PRIMARY CARE CLINIC",
    "categoryCode": "FQHC",
    "licenseStatus": null,
    "inService": null,
    "licenseNumber": null,
    "licenseEffectiveDate": null,
    "licenseExpirationDate": null,
    "dataDate": "10/18/2025",
    "capacity": 0,
    "address": "1119 E MONTE VISTA AVE",
    "city": "VACAVILLE",
    "zip": "95688",
    "county": "SOLANO",
    "phone": null,
    "lat": 38.360808,
    "lng": -121.976694
  },
  {
    "id": "110001152",
    "name": "VACAVILLE DIALYSIS CENTER",
    "npi": "1366405342",
    "hcaiId": "306484055",
    "businessName": "RENAL TREATMENT CENTERS - CALIFORNIA, INC.",
    "contactEmail": "CAL_C@DAVITA.COM",
    "categoryName": "CHRONIC DIALYSIS CLINIC",
    "categoryCode": "ESRD/CDC",
    "licenseStatus": "ACTIVE",
    "inService": true,
    "licenseNumber": "110000441",
    "licenseEffectiveDate": "12/01/2024",
    "licenseExpirationDate": "11/30/2025",
    "dataDate": "10/18/2025",
    "capacity": 24,
    "address": "941 MERCHANT ST",
    "city": "VACAVILLE",
    "zip": "95688",
    "county": "SOLANO",
    "phone": "(707) 447-8191",
    "lat": 38.347569,
    "lng": -121.9961025
  },
  {
    "id": "110000084",
    "name": "VACAVILLE RANCH POST ACUTE",
    "npi": "1235823550",
    "hcaiId": "206481105",
    "businessName": "PITAYA HEALTHCARE, LLC",
    "contactEmail": "AARON@VACAVILLERANCH.COM",
    "categoryName": "SKILLED NURSING FACILITY",
    "categoryCode": "SNF",
    "licenseStatus": "ACTIVE",
    "inService": true,
    "licenseNumber": "110000087",
    "licenseEffectiveDate": "05/19/2025",
    "licenseExpirationDate": "05/18/2026",
    "dataDate": "10/18/2025",
    "capacity": 87,
    "address": "101 S ORCHARD AVE",
    "city": "VACAVILLE",
    "zip": "95688",
    "county": "SOLANO",
    "phone": "(707) 448-6458",
    "lat": 38.356992,
    "lng": -122.0040315
  },
  {
    "id": "630019342",
    "name": "WELLSTAR HOME HEALTH SERVICES, INC",
    "npi": null,
    "hcaiId": "406483023",
    "businessName": "WELLSTAR HOME HEALTH SERVICES, INC.",
    "contactEmail": "WELLSTARHOMEHEALTH@GMAIL.COM",
    "categoryName": "HOME HEALTH AGENCY",
    "categoryCode": "HHA",
    "licenseStatus": "ACTIVE",
    "inService": true,
    "licenseNumber": "550005753",
    "licenseEffectiveDate": "09/24/2025",
    "licenseExpirationDate": "09/23/2026",
    "dataDate": "10/18/2025",
    "capacity": 0,
    "address": "479 MASON ST, SUITE 309",
    "city": "VACAVILLE",
    "zip": "95688",
    "county": "SOLANO",
    "phone": "(718) 316-5603",
    "lat": 38.355129,
    "lng": -121.987818
  }
]