[
  {
    "id": "630019475",
    "name": "ELICA  HEALTHCENTERS HEALTH ON WHEELS-2",
    "npi": "1205341336",
    "hcaiId": null,
    "businessName": "ELICA HEALTH CENTERS",
    "contactEmail": null,
    "categoryName": "PRIMARY CARE CLINIC",
    "categoryCode": "COMTYC",
    "licenseStatus": "ACTIVE",
    "inService": true,
    "licenseNumber": "550004525",
    "licenseEffectiveDate": "01/28/2025",
    "licenseExpirationDate": "01/27/2026",
    "dataDate": "10/18/2025",
    "capacity": 0,
    "address": "1276 HALYARD DR",
    "city": "WEST SACRAMENTO",
    "zip": "95691",
    "county": "YOLO",
    "phone": null,
    "lat": 38.573217,
    "lng": -121.550724
  },
  {
    "id": "630011290",
    "name": "ELICA HEALTH CENTERS",
    "npi": "1548425853",
    "hcaiId": "306344157",
    "businessName": "ELICA HEALTH CENTERS",
    "contactEmail": "IGEREZ@ELICAHEALTH.ORG",
    "categoryName": "PRIMARY CARE CLINIC",
    "categoryCode": "COMTYC",
    "licenseStatus": "ACTIVE",
    "inService": true,
    "licenseNumber": "550004525",
    "licenseEffectiveDate": "01/28/2025",
    "licenseExpirationDate": "01/27/2026",
    "dataDate": "10/18/2025",
    "capacity": 0,
    "address": "155 15TH STREET, SUITE A",
    "city": "WEST SACRAMENTO",
    "zip": "95691",
    "county": "YOLO",
    "phone": "(916) 375-8981",
    "lat": 38.570805,
    "lng": -121.5259155
  },
  {
    "id": "630019895",
    "name": "ELICA HEALTH CENTERS HEALTH ON WHEELS - 3",
    "npi": null,
    "hcaiId": null,
    "businessName": "ELICA HEALTH CENTERS",
    "contactEmail": null,
    "categoryName": "PRIMARY CARE CLINIC",
    "categoryCode": "COMTYC",
    "licenseStatus": "ACTIVE",
    "inService": true,
    "licenseNumber": "550004525",
    "licenseEffectiveDate": "01/28/2025",
    "licenseExpirationDate": "01/27/2026",
    "dataDate": "10/18/2025",
    "capacity": 0,
    "address": "1276 HALYARD DR",
    "city": "WEST SACRAMENTO",
    "zip": "95691",
    "county": "YOLO",
    "phone": null,
    "lat": 38.573217,
    "lng": -121.550724
  },
  {
    "id": "630020733",
    "name": "ELICA HEALTH CENTERS HEALTH ON WHEELS - 4",
    "npi": null,
    "hcaiId": null,
    "businessName": "ELICA HEALTH CENTERS",
    "contactEmail": null,
    "categoryName": "PRIMARY CARE CLINIC",
    "categoryCode": "COMTYC",
    "licenseStatus": "ACTIVE",
    "inService": true,
    "licenseNumber": "550004525",
    "licenseEffectiveDate": "01/28/2025",
    "licenseExpirationDate": "01/27/2026",
    "dataDate": "10/18/2025",
    "capacity": 0,
    "address": "1276 HALYARD DR",
    "city": "WEST SACRAMENTO",
    "zip": "95691",
    "county": "YOLO",
    "phone": null,
    "lat": 38.573217,
    "lng": -121.550724
  },
  {
    "id": "630018041",
    "name": "ELICA HEALTH CENTERS-HALYARD MEDICAL CENTER",
    "npi": null,
    "hcaiId": "306570445",
    "businessName": "ELICA HEALTH CENTERS",
    "contactEmail": "IGEREZ@ELICAHEALTH.ORG",
    "categoryName": "PRIMARY CARE CLINIC",
    "categoryCode": "COMTYC",
    "licenseStatus": "ACTIVE",
    "inService": true,
    "licenseNumber": "550004525",
    "licenseEffectiveDate": "01/28/2025",
    "licenseExpirationDate": "01/27/2026",
    "dataDate": "10/18/2025",
    "capacity": 0,
    "address": "1276 HALYARD DR",
    "city": "WEST SACRAMENTO",
    "zip": "95691",
    "county": "YOLO",
    "phone": "(916) 454-2345",
    "lat": 38.573217,
    "lng": -121.550724
  },
  {
    "id": "070001314",
    "name": "GOLDEN DAYS ADULT DAY HEALTH CARE CENTER",
    "npi": null,
    "hcaiId": null,
    "businessName": "MCGLOTHLIN ENTERPRISES, INC.",
    "contactEmail": "WENDYMCGLOTHLIN@YAHOO.COM",
    "categoryName": "ADULT DAY HEALTH CARE",
    "categoryCode": "ADHC",
    "licenseStatus": "ACTIVE",
    "inService": true,
    "licenseNumber": "070000633",
    "licenseEffectiveDate": "04/06/2025",
    "licenseExpirationDate": "04/05/2026",
    "dataDate": "10/18/2025",
    "capacity": 0,
    "address": "1215 MERKLEY AVE",
    "city": "WEST SACRAMENTO",
    "zip": "95691",
    "county": "YOLO",
    "phone": "(916) 371-6011",
    "lat": 38.5793454,
    "lng": -121.5263348
  },
  {
    "id": "100000027",
    "name": "RIVER BEND NURSING CENTER",
    "npi": "1497228266",
    "hcaiId": "206571033",
    "businessName": "RIVER BEND HOLDINGS, LLC",
    "contactEmail": "SEAN.VANWAGENEN@RIVERBENDNURSINGCENTER.COM",
    "categoryName": "SKILLED NURSING FACILITY",
    "categoryCode": "SNF",
    "licenseStatus": "ACTIVE",
    "inService": true,
    "licenseNumber": "100000093",
    "licenseEffectiveDate": "02/01/2025",
    "licenseExpirationDate": "01/31/2026",
    "dataDate": "10/18/2025",
    "capacity": 99,
    "address": "2215 OAKMONT WAY",
    "city": "WEST SACRAMENTO",
    "zip": "95691",
    "county": "YOLO",
    "phone": "(916) 371-1890",
    "lat": 38.576286,
    "lng": -121.540293
  },
  {
    "id": "630011385",
    "name": "WEST SACRAMENTO DIALYSIS CENTER",
    "npi": "1598896250",
    "hcaiId": "306574019",
    "businessName": "WEST SACRAMENTO DIALYSIS LLC",
    "contactEmail": "CAL_C@DAVITA.COM",
    "categoryName": "CHRONIC DIALYSIS CLINIC",
    "categoryCode": "ESRD/CDC",
    "licenseStatus": "ACTIVE",
    "inService": true,
    "licenseNumber": "550000651",
    "licenseEffectiveDate": "04/03/2025",
    "licenseExpirationDate": "04/02/2026",
    "dataDate": "10/18/2025",
    "capacity": 21,
    "address": "3450 INDUSTRIAL BLVD, SUITE 100",
    "city": "WEST SACRAMENTO",
    "zip": "95691",
    "county": "YOLO",
    "phone": "(916) 371-4947",
    "lat": 38.574171,
    "lng": -121.5598635
  }
]