[
  {
    "id": "630020467",
    "name": "COMMUNICARE FAMILY WELLNESS CENTER-HOPE BUILDING",
    "npi": "1558469064",
    "hcaiId": null,
    "businessName": "OLE HEALTH",
    "contactEmail": null,
    "categoryName": "PRIMARY CARE CLINIC",
    "categoryCode": "COMTYC",
    "licenseStatus": "ACTIVE",
    "inService": true,
    "licenseNumber": "550002588",
    "licenseEffectiveDate": "02/13/2025",
    "licenseExpirationDate": "02/12/2026",
    "dataDate": "10/18/2025",
    "capacity": 0,
    "address": "619 LINCOLN AVE",
    "city": "WOODLAND",
    "zip": "95695",
    "county": "YOLO",
    "phone": null,
    "lat": 38.675853,
    "lng": -121.7727
  },
  {
    "id": "030001817",
    "name": "COTTONWOOD HEALTHCARE CENTER",
    "npi": "1780381939",
    "hcaiId": "206570896",
    "businessName": "AWCS, LLC",
    "contactEmail": "JEDMUNDS@ASPENHEALTH.COM",
    "categoryName": "SKILLED NURSING FACILITY",
    "categoryCode": "SNF",
    "licenseStatus": "ACTIVE",
    "inService": true,
    "licenseNumber": "030000046",
    "licenseEffectiveDate": "11/27/2024",
    "licenseExpirationDate": "11/26/2025",
    "dataDate": "10/18/2025",
    "capacity": 98,
    "address": "625 COTTONWOOD STREET",
    "city": "WOODLAND",
    "zip": "95695",
    "county": "YOLO",
    "phone": "(530) 662-9193",
    "lat": 38.672982,
    "lng": -121.792734
  },
  {
    "id": "630026482",
    "name": "FAMILY WELLNESS CENTER - COURAGE BUILDING",
    "npi": "1558469064",
    "hcaiId": null,
    "businessName": "OLE HEALTH",
    "contactEmail": null,
    "categoryName": "PRIMARY CARE CLINIC",
    "categoryCode": "COMTYC",
    "licenseStatus": "ACTIVE",
    "inService": true,
    "licenseNumber": "550002588",
    "licenseEffectiveDate": "02/13/2025",
    "licenseExpirationDate": "02/12/2026",
    "dataDate": "10/18/2025",
    "capacity": 0,
    "address": "453 1ST ST",
    "city": "WOODLAND",
    "zip": "95695",
    "county": "YOLO",
    "phone": null,
    "lat": 38.675853,
    "lng": -121.77297
  },
  {
    "id": "630026481",
    "name": "FAMILY WELLNESS CENTER - UNITY BUILDING",
    "npi": "1558469064",
    "hcaiId": null,
    "businessName": "OLE HEALTH",
    "contactEmail": null,
    "categoryName": "PRIMARY CARE CLINIC",
    "categoryCode": "COMTYC",
    "licenseStatus": "ACTIVE",
    "inService": true,
    "licenseNumber": "550002588",
    "licenseEffectiveDate": "02/13/2025",
    "licenseExpirationDate": "02/12/2026",
    "dataDate": "10/18/2025",
    "capacity": 0,
    "address": "455 1ST ST",
    "city": "WOODLAND",
    "zip": "95695",
    "county": "YOLO",
    "phone": null,
    "lat": 38.675727,
    "lng": -121.773033
  },
  {
    "id": "630014767",
    "name": "HANSEN FAMILY HEALTH CENTER",
    "npi": "1558469064",
    "hcaiId": "306574021",
    "businessName": "OLE HEALTH",
    "contactEmail": "KMOSES@OLEHEALTH.ORG",
    "categoryName": "PRIMARY CARE CLINIC",
    "categoryCode": "COMTYC",
    "licenseStatus": "ACTIVE",
    "inService": true,
    "licenseNumber": "550002588",
    "licenseEffectiveDate": "02/13/2025",
    "licenseExpirationDate": "02/12/2026",
    "dataDate": "10/18/2025",
    "capacity": 0,
    "address": "215 W BEAMER STREET",
    "city": "WOODLAND",
    "zip": "95695",
    "county": "YOLO",
    "phone": "(707) 254-1770",
    "lat": 38.684574,
    "lng": -121.7935575
  },
  {
    "id": "030001240",
    "name": "NORTHERN VALLEY INDIAN HEALTH, INC.",
    "npi": "1881960128",
    "hcaiId": "306574006",
    "businessName": "NORTHERN VALLEY INDIAN HEALTH, INC.",
    "contactEmail": "NATALIE.HODGEN@NVIH.ORG",
    "categoryName": "PRIMARY CARE CLINIC",
    "categoryCode": "COMTYC",
    "licenseStatus": "ACTIVE",
    "inService": true,
    "licenseNumber": "030000513",
    "licenseEffectiveDate": "07/02/2025",
    "licenseExpirationDate": "07/01/2026",
    "dataDate": "10/18/2025",
    "capacity": 0,
    "address": "175 W. COURT STREET",
    "city": "WOODLAND",
    "zip": "95695",
    "county": "YOLO",
    "phone": "(530) 934-4641",
    "lat": 38.678544,
    "lng": -121.792356
  },
  {
    "id": "030001019",
    "name": "PLANNED PARENTHOOD MAR MONTE - WOODLAND HEALTH CENTER",
    "npi": "1568415495",
    "hcaiId": "306574003",
    "businessName": "PLANNED PARENTHOOD MAR MONTE, INC.",
    "contactEmail": "SERVICESAD@PPMARMONTE.ORG",
    "categoryName": "PRIMARY CARE CLINIC",
    "categoryCode": "COMTYC",
    "licenseStatus": "ACTIVE",
    "inService": true,
    "licenseNumber": "030000411",
    "licenseEffectiveDate": "11/01/2025",
    "licenseExpirationDate": "10/31/2026",
    "dataDate": "10/18/2025",
    "capacity": 0,
    "address": "520 COTTONWOOD STREET, SUITE 10",
    "city": "WOODLAND",
    "zip": "95695",
    "county": "YOLO",
    "phone": "(408) 795-3695",
    "lat": 38.674926,
    "lng": -121.793976
  },
  {
    "id": "630019202",
    "name": "SPERO",
    "npi": null,
    "hcaiId": "306570695",
    "businessName": "PREGNANCY SUPPORT GROUP OF WOODLAND, INC.",
    "contactEmail": "SMILLER9182@GMAIL.COM",
    "categoryName": "PRIMARY CARE CLINIC",
    "categoryCode": "COMTYC",
    "licenseStatus": "ACTIVE",
    "inService": true,
    "licenseNumber": "550007747",
    "licenseEffectiveDate": "12/28/2024",
    "licenseExpirationDate": "12/27/2025",
    "dataDate": "10/18/2025",
    "capacity": 0,
    "address": "120 COURT ST",
    "city": "WOODLAND",
    "zip": "95695",
    "county": "YOLO",
    "phone": "(530) 908-4554",
    "lat": 38.678607,
    "lng": -121.782474
  },
  {
    "id": "100000030",
    "name": "THE GROVE POST-ACUTE",
    "npi": "1922795293",
    "hcaiId": "206572209",
    "businessName": "RUSSIAN RIVER HOLDINGS LLC",
    "contactEmail": "DAWSON.BURRUP@LINKSHEALTH.COM",
    "categoryName": "SKILLED NURSING FACILITY",
    "categoryCode": "SNF",
    "licenseStatus": "ACTIVE",
    "inService": true,
    "licenseNumber": "100000155",
    "licenseEffectiveDate": "06/01/2025",
    "licenseExpirationDate": "05/31/2026",
    "dataDate": "10/18/2025",
    "capacity": 140,
    "address": "124 WALNUT STREET",
    "city": "WOODLAND",
    "zip": "95695",
    "county": "YOLO",
    "phone": "(530) 662-9161",
    "lat": 38.681559,
    "lng": -121.778532
  },
  {
    "id": "100000178",
    "name": "WOODLAND HEALTHCARE HOME HEALTH",
    "npi": "1851494231",
    "hcaiId": "406572249",
    "businessName": "DIGNITY COMMUNITY CARE",
    "contactEmail": "PETER.KUNGU@COMMONSPIRIT.ORG",
    "categoryName": "HOME HEALTH AGENCY",
    "categoryCode": "HHA",
    "licenseStatus": "ACTIVE",
    "inService": true,
    "licenseNumber": "100000184",
    "licenseEffectiveDate": "01/29/2025",
    "licenseExpirationDate": "01/28/2026",
    "dataDate": "10/18/2025",
    "capacity": 0,
    "address": "1207 FAIRCHILD COURT",
    "city": "WOODLAND",
    "zip": "95695",
    "county": "YOLO",
    "phone": "(530) 406-2900",
    "lat": 38.6658,
    "lng": -121.7919645
  },
  {
    "id": "030000146",
    "name": "WOODLAND MEMORIAL HOSPITAL",
    "npi": "1922116037",
    "hcaiId": "106571086",
    "businessName": "DIGNITY COMMUNITY CARE",
    "contactEmail": "JON.RUBSAM@COMMONSPIRIT.ORG",
    "categoryName": "GENERAL ACUTE CARE HOSPITAL",
    "categoryCode": "GACH",
    "licenseStatus": "ACTIVE",
    "inService": true,
    "licenseNumber": "030000115",
    "licenseEffectiveDate": "11/30/2024",
    "licenseExpirationDate": "11/29/2025",
    "dataDate": "10/18/2025",
    "capacity": 74,
    "address": "1325 COTTONWOOD STREET",
    "city": "WOODLAND",
    "zip": "95695",
    "county": "YOLO",
    "phone": "(530) 669-5356",
    "lat": 38.664036,
    "lng": -121.792122
  },
  {
    "id": "030000301",
    "name": "WOODLAND MEMORIAL HOSPITAL D/P APH",
    "npi": "1922116037",
    "hcaiId": null,
    "businessName": "DIGNITY COMMUNITY CARE",
    "contactEmail": null,
    "categoryName": "ACUTE PSYCHIATRIC HOSPITAL",
    "categoryCode": "APH",
    "licenseStatus": "ACTIVE",
    "inService": true,
    "licenseNumber": "030000115",
    "licenseEffectiveDate": "11/30/2024",
    "licenseExpirationDate": "11/29/2025",
    "dataDate": "10/18/2025",
    "capacity": 31,
    "address": "1325 COTTONWOOD STREET",
    "city": "WOODLAND",
    "zip": "95695",
    "county": "YOLO",
    "phone": "(530) 999-9999",
    "lat": 38.664036,
    "lng": -121.792122
  },
  {
    "id": "030001812",
    "name": "WOODLAND POST-ACUTE",
    "npi": "1578260725",
    "hcaiId": "206571087",
    "businessName": "AWTS, LLC",
    "contactEmail": "JEDMUNDS@ASPENHEALTH.COM",
    "categoryName": "SKILLED NURSING FACILITY",
    "categoryCode": "SNF",
    "licenseStatus": "ACTIVE",
    "inService": true,
    "licenseNumber": "030000003",
    "licenseEffectiveDate": "01/16/2025",
    "licenseExpirationDate": "01/15/2026",
    "dataDate": "10/18/2025",
    "capacity": 91,
    "address": "678 3RD STREET",
    "city": "WOODLAND",
    "zip": "95695",
    "county": "YOLO",
    "phone": "(530) 662-9643",
    "lat": 38.672145,
    "lng": -121.771089
  },
  {
    "id": "100001451",
    "name": "WRS INC. EVERGREEN PROGRAM",
    "npi": "1124237094",
    "hcaiId": null,
    "businessName": "WOODLAND RESIDENTIAL SERVICES, INC.",
    "contactEmail": "WRS6INC@SBCGLOBAL.NET",
    "categoryName": "INTERMEDIATE CARE FACILITY-DD/H/N/CN/IID",
    "categoryCode": "ICFDDN",
    "licenseStatus": "ACTIVE",
    "inService": true,
    "licenseNumber": "100000593",
    "licenseEffectiveDate": "01/16/2025",
    "licenseExpirationDate": "01/15/2026",
    "dataDate": "10/18/2025",
    "capacity": 6,
    "address": "1215 EVERGREEN WAY",
    "city": "WOODLAND",
    "zip": "95695",
    "county": "YOLO",
    "phone": "(530) 419-0059",
    "lat": 38.666097,
    "lng": -121.7963385
  },
  {
    "id": "100001455",
    "name": "WRS INC. NORTH PROGRAM",
    "npi": "1033328901",
    "hcaiId": null,
    "businessName": "WOODLAND RESIDENTIAL SERVICES, INC.",
    "contactEmail": "WRS6INC@SBCGLOBAL.NET",
    "categoryName": "INTERMEDIATE CARE FACILITY-DD/H/N/CN/IID",
    "categoryCode": "ICFDDN",
    "licenseStatus": "ACTIVE",
    "inService": true,
    "licenseNumber": "100000595",
    "licenseEffectiveDate": "01/16/2025",
    "licenseExpirationDate": "01/15/2026",
    "dataDate": "10/18/2025",
    "capacity": 6,
    "address": "418 NORTH STREET",
    "city": "WOODLAND",
    "zip": "95695",
    "county": "YOLO",
    "phone": "(530) 419-0059",
    "lat": 38.67975,
    "lng": -121.7755575
  },
  {
    "id": "100001449",
    "name": "WRS INC., ELLIOT PROGRAM",
    "npi": "1811104797",
    "hcaiId": null,
    "businessName": "WOODLAND RESIDENTIAL SERVICES, INC.",
    "contactEmail": "WRS6INC@SBC.GLOBAL.NET",
    "categoryName": "INTERMEDIATE CARE FACILITY-DD/H/N/CN/IID",
    "categoryCode": "ICFDDN",
    "licenseStatus": "ACTIVE",
    "inService": true,
    "licenseNumber": "100000592",
    "licenseEffectiveDate": "01/16/2025",
    "licenseExpirationDate": "01/15/2026",
    "dataDate": "10/18/2025",
    "capacity": 6,
    "address": "303 ELLIOT STREET",
    "city": "WOODLAND",
    "zip": "95695",
    "county": "YOLO",
    "phone": "(530) 419-0059",
    "lat": 38.681316,
    "lng": -121.7776545
  },
  {
    "id": "100001453",
    "name": "WRS INC., MARSHALL PROGRAM",
    "npi": "1851500722",
    "hcaiId": null,
    "businessName": "WOODLAND RESIDENTIAL SERVICES, INC.",
    "contactEmail": "WRS6INC@SBCGLOBAL.NET",
    "categoryName": "INTERMEDIATE CARE FACILITY-DD/H/N/CN/IID",
    "categoryCode": "ICFDDN",
    "licenseStatus": "ACTIVE",
    "inService": true,
    "licenseNumber": "100000594",
    "licenseEffectiveDate": "11/18/2024",
    "licenseExpirationDate": "11/17/2025",
    "dataDate": "10/18/2025",
    "capacity": 6,
    "address": "1000 4TH STREET",
    "city": "WOODLAND",
    "zip": "95695",
    "county": "YOLO",
    "phone": "(530) 419-0059",
    "lat": 38.667708,
    "lng": -121.769937
  },
  {
    "id": "070001169",
    "name": "YOLO ADULT DAY HEALTH CENTER",
    "npi": "1972621803",
    "hcaiId": null,
    "businessName": "COUNTY OF YOLO HEALTH SERVICES AGENCY",
    "contactEmail": "ANNEMARIE.LOUISSAINT@COMMONSPIRIT.ORG",
    "categoryName": "ADULT DAY HEALTH CARE",
    "categoryCode": "ADHC",
    "licenseStatus": "ACTIVE",
    "inService": true,
    "licenseNumber": "070000517",
    "licenseEffectiveDate": "12/15/2024",
    "licenseExpirationDate": "12/14/2025",
    "dataDate": "10/18/2025",
    "capacity": 0,
    "address": "20 N COTTONWOOD ST",
    "city": "WOODLAND",
    "zip": "95695",
    "county": "YOLO",
    "phone": "(530) 669-3700",
    "lat": 38.686302,
    "lng": -121.792914
  }
]