[
  {
    "id": "630017683",
    "name": "ALPINE HOME HEALTH AGENCY",
    "npi": "1194234351",
    "hcaiId": "406342664",
    "businessName": "ALPINE MANAGEMENT ENTERPRISES INC.",
    "contactEmail": "ADMIN@ALPINEHHAGENCY.COM",
    "categoryName": "HOME HEALTH AGENCY",
    "categoryCode": "HHA",
    "licenseStatus": "ACTIVE",
    "inService": true,
    "licenseNumber": "550005551",
    "licenseEffectiveDate": "06/05/2025",
    "licenseExpirationDate": "06/04/2026",
    "dataDate": "10/18/2025",
    "capacity": 0,
    "address": "2368 MARITIME DR, SUITE 240",
    "city": "ELK GROVE",
    "zip": "95758",
    "county": "SACRAMENTO",
    "phone": "(916) 713-7071",
    "lat": 38.41312332,
    "lng": -121.4836394
  },
  {
    "id": "100001061",
    "name": "CAREMERIDIAN, LLC",
    "npi": null,
    "hcaiId": "206344061",
    "businessName": "CAREMERIDIAN, LLC",
    "contactEmail": "VICTORIA.POLICHER@SEVITAHEALTH.COM",
    "categoryName": "CONGREGATE LIVING HEALTH FACILITY",
    "categoryCode": "CLHF",
    "licenseStatus": "ACTIVE",
    "inService": true,
    "licenseNumber": "100000442",
    "licenseEffectiveDate": "11/01/2024",
    "licenseExpirationDate": "10/31/2025",
    "dataDate": "10/18/2025",
    "capacity": 15,
    "address": "7601 JACINTO ROAD",
    "city": "ELK GROVE",
    "zip": "95758",
    "county": "SACRAMENTO",
    "phone": "(916) 917-6638",
    "lat": 38.447883,
    "lng": -121.4152515
  },
  {
    "id": "110001258",
    "name": "ELK GROVE DIALYSIS",
    "npi": "1568421865",
    "hcaiId": "306344138",
    "businessName": "ELK GROVE DIALYSIS CENTER, LLC",
    "contactEmail": "CAL_C@DAVITA.COM",
    "categoryName": "CHRONIC DIALYSIS CLINIC",
    "categoryCode": "ESRD/CDC",
    "licenseStatus": "ACTIVE",
    "inService": true,
    "licenseNumber": "110000518",
    "licenseEffectiveDate": "12/29/2024",
    "licenseExpirationDate": "12/28/2025",
    "dataDate": "10/18/2025",
    "capacity": 21,
    "address": "9281 OFFICE PARK CIRCLE, SUITE 105",
    "city": "ELK GROVE",
    "zip": "95758",
    "county": "SACRAMENTO",
    "phone": "(916) 691-0480",
    "lat": 38.417931,
    "lng": -121.3962165
  },
  {
    "id": "630022053",
    "name": "ELK GROVE HOME HEALTH, INC.",
    "npi": null,
    "hcaiId": "406345281",
    "businessName": "ELK GROVE HOME HEALTH INC.",
    "contactEmail": "ELKGROVEHOMEHEALTH@GMAIL.COM",
    "categoryName": "HOME HEALTH AGENCY",
    "categoryCode": "HHA",
    "licenseStatus": "ACTIVE",
    "inService": true,
    "licenseNumber": "550007924",
    "licenseEffectiveDate": "03/17/2025",
    "licenseExpirationDate": "03/16/2026",
    "dataDate": "10/18/2025",
    "capacity": 0,
    "address": "2386 MARITIME DR, SUITE 220",
    "city": "ELK GROVE",
    "zip": "95758",
    "county": "SACRAMENTO",
    "phone": "(916) 698-9803",
    "lat": 38.411235,
    "lng": -121.482738
  },
  {
    "id": "630027890",
    "name": "FIRST CALL HOSPICE",
    "npi": null,
    "hcaiId": null,
    "businessName": "SACRAMENTO RIVER HEALTHCARE LLC",
    "contactEmail": "ADAM.BOHN@FCHOSP.COM",
    "categoryName": "HOSPICE",
    "categoryCode": "HOSPICE",
    "licenseStatus": "ACTIVE",
    "inService": true,
    "licenseNumber": "550008791",
    "licenseEffectiveDate": "10/18/2025",
    "licenseExpirationDate": "10/17/2027",
    "dataDate": "10/18/2025",
    "capacity": 0,
    "address": "2368 MARITIME DR, SUITE 220",
    "city": "ELK GROVE",
    "zip": "95758",
    "county": "SACRAMENTO",
    "phone": "(916) 284-4414",
    "lat": 38.41312332,
    "lng": -121.4836394
  },
  {
    "id": "630012166",
    "name": "LORIAN HEALTH",
    "npi": "1891933081",
    "hcaiId": "406394099",
    "businessName": "PRESTIGE HOME HEALTH SERVICES, INC.",
    "contactEmail": "AGUSTIN@LORIANHEALTH.COM",
    "categoryName": "HOME HEALTH AGENCY",
    "categoryCode": "HHA",
    "licenseStatus": "ACTIVE",
    "inService": true,
    "licenseNumber": "550001141",
    "licenseEffectiveDate": "11/05/2024",
    "licenseExpirationDate": "11/04/2025",
    "dataDate": "10/18/2025",
    "capacity": 0,
    "address": "2236 LONGPORT CT, SUITE 120",
    "city": "ELK GROVE",
    "zip": "95758",
    "county": "SACRAMENTO",
    "phone": "(619) 280-8164",
    "lat": 38.42508048,
    "lng": -121.4837857
  },
  {
    "id": "630022881",
    "name": "LORIAN HEALTH",
    "npi": "1114536612",
    "hcaiId": "406340024",
    "businessName": "ATLAS HOSPICE CARE, INC.",
    "contactEmail": "AGUSTIN@LORIANHEALTH.COM",
    "categoryName": "HOSPICE",
    "categoryCode": "HOSPICE",
    "licenseStatus": "ACTIVE",
    "inService": true,
    "licenseNumber": "550007626",
    "licenseEffectiveDate": "03/10/2025",
    "licenseExpirationDate": "12/15/2025",
    "dataDate": "10/18/2025",
    "capacity": 0,
    "address": "2236 LONGPORT CT, SUITE 130",
    "city": "ELK GROVE",
    "zip": "95758",
    "county": "SACRAMENTO",
    "phone": "(619) 210-4818",
    "lat": 38.42508048,
    "lng": -121.4837857
  },
  {
    "id": "100001804",
    "name": "MY FRIENDS PEDIATRIC DAY HEALTH CARE CENTER II",
    "npi": "1629079272",
    "hcaiId": null,
    "businessName": "SPECIALIZED DAYCARE SERVICES, INC.",
    "contactEmail": "AHNS@ALWAYSHOMENURSING.COM",
    "categoryName": "PEDIATRIC DAY HEALTH & RESPITE CARE FACILITY",
    "categoryCode": "PDHRCF",
    "licenseStatus": "ACTIVE",
    "inService": true,
    "licenseNumber": "100000771",
    "licenseEffectiveDate": "11/16/2025",
    "licenseExpirationDate": "11/15/2026",
    "dataDate": "10/18/2025",
    "capacity": 4,
    "address": "4811 LAGUNA BOULEVARD, SUITE 120",
    "city": "ELK GROVE",
    "zip": "95758",
    "county": "SACRAMENTO",
    "phone": "(916) 393-2852",
    "lat": 38.424798,
    "lng": -121.4497035
  },
  {
    "id": "630021964",
    "name": "NOBLE HOSPICE AND PALLIATIVE CARE",
    "npi": null,
    "hcaiId": null,
    "businessName": "CENTRAL VALLEY HOSPICE CARE, INC.",
    "contactEmail": "ANDY@NOBLEHHC.COM",
    "categoryName": "HOSPICE",
    "categoryCode": "HOSPICE",
    "licenseStatus": "ACTIVE",
    "inService": true,
    "licenseNumber": "550004846",
    "licenseEffectiveDate": "07/25/2025",
    "licenseExpirationDate": "07/24/2027",
    "dataDate": "10/18/2025",
    "capacity": 0,
    "address": "9281 OFFICE PARK CIR, SUITE 158",
    "city": "ELK GROVE",
    "zip": "95758",
    "county": "SACRAMENTO",
    "phone": "(925) 594-1122",
    "lat": 38.418264,
    "lng": -121.39641
  },
  {
    "id": "110001274",
    "name": "RAI-ELK GROVE BOULEVARD-ELK GROVE",
    "npi": "1346314648",
    "hcaiId": "306344142",
    "businessName": "RAI CARE CENTERS OF NORTHERN CALIFORNIA I, LLC",
    "contactEmail": "CLINIC7161@FMC-NA.COM",
    "categoryName": "CHRONIC DIALYSIS CLINIC",
    "categoryCode": "ESRD/CDC",
    "licenseStatus": "ACTIVE",
    "inService": true,
    "licenseNumber": "550000009",
    "licenseEffectiveDate": "06/23/2025",
    "licenseExpirationDate": "03/31/2026",
    "dataDate": "10/18/2025",
    "capacity": 48,
    "address": "7420 SHELDON RD",
    "city": "ELK GROVE",
    "zip": "95758",
    "county": "SACRAMENTO",
    "phone": "(916) 478-3520",
    "lat": 38.4373528,
    "lng": -121.4170566
  },
  {
    "id": "630027119",
    "name": "SHIFA HEALTH CENTER",
    "npi": null,
    "hcaiId": "306340020",
    "businessName": "SHIFA HEALTH CENTER",
    "contactEmail": "SHIFAHEALTHCENTERELKGROVE@GMAIL.COM",
    "categoryName": "PRIMARY CARE CLINIC",
    "categoryCode": "COMTYC",
    "licenseStatus": "ACTIVE",
    "inService": true,
    "licenseNumber": "550008967",
    "licenseEffectiveDate": "02/26/2025",
    "licenseExpirationDate": "02/25/2026",
    "dataDate": "10/18/2025",
    "capacity": 0,
    "address": "9390 BIG HORN BLVD, SUITE 145",
    "city": "ELK GROVE",
    "zip": "95758",
    "county": "SACRAMENTO",
    "phone": "(916) 934-4485",
    "lat": 38.4201733,
    "lng": -121.4083506
  },
  {
    "id": "630013973",
    "name": "SUTTER ELK GROVE SURGERY CENTER",
    "npi": "1386918530",
    "hcaiId": null,
    "businessName": null,
    "contactEmail": "JEANNINE.GRAVES@SUTTERHEALTH.ORG",
    "categoryName": "SURGICAL CLINIC",
    "categoryCode": "ASC",
    "licenseStatus": null,
    "inService": null,
    "licenseNumber": null,
    "licenseEffectiveDate": null,
    "licenseExpirationDate": null,
    "dataDate": "10/18/2025",
    "capacity": 0,
    "address": "8200 LAGUNA BOULEVARD",
    "city": "ELK GROVE",
    "zip": "95758",
    "county": "SACRAMENTO",
    "phone": "(916) 544-5400",
    "lat": 38.421216,
    "lng": -121.403097
  },
  {
    "id": "630011537",
    "name": "WEST ELK GROVE DIALYSIS",
    "npi": "1427242080",
    "hcaiId": "306344160",
    "businessName": "WEST ELK GROVE DIALYSIS LLC",
    "contactEmail": "CAL_C@DAVITA.COM",
    "categoryName": "CHRONIC DIALYSIS CLINIC",
    "categoryCode": "ESRD/CDC",
    "licenseStatus": "ACTIVE",
    "inService": true,
    "licenseNumber": "550000762",
    "licenseEffectiveDate": "05/20/2025",
    "licenseExpirationDate": "05/19/2026",
    "dataDate": "10/18/2025",
    "capacity": 22,
    "address": "2208 KAUSEN DR, SUITE 100",
    "city": "ELK GROVE",
    "zip": "95758",
    "county": "SACRAMENTO",
    "phone": "(916) 683-5992",
    "lat": 38.427552,
    "lng": -121.4856315
  }
]