[
  {
    "id": "630028287",
    "name": "CENTER FOR SPORTS REHABILITATION AND ACTIVE LIVING",
    "npi": null,
    "hcaiId": null,
    "businessName": null,
    "contactEmail": "SABERCROMBIE@MARSHALLMEDICAL.ORG",
    "categoryName": "REHABILITATION CLINIC",
    "categoryCode": "OPT/SP",
    "licenseStatus": null,
    "inService": null,
    "licenseNumber": null,
    "licenseEffectiveDate": null,
    "licenseExpirationDate": null,
    "dataDate": "10/18/2025",
    "capacity": 0,
    "address": "4201 TOWN CENTER BLVD, BUILDING D",
    "city": "EL DORADO HILLS",
    "zip": "95762",
    "county": "EL DORADO",
    "phone": "(530) 626-2901",
    "lat": 38.65021999,
    "lng": -121.073127
  },
  {
    "id": "630020579",
    "name": "FIRST CALL HOSPICE SOUTH",
    "npi": "1336764620",
    "hcaiId": "406093967",
    "businessName": "SACRAMENTO RIVER HEALTHCARE LLC",
    "contactEmail": "LICENSING@PENNANTSERVICES.COM",
    "categoryName": "HOSPICE",
    "categoryCode": "HOSPICE",
    "licenseStatus": "ACTIVE",
    "inService": true,
    "licenseNumber": "550006982",
    "licenseEffectiveDate": "10/13/2025",
    "licenseExpirationDate": "10/12/2027",
    "dataDate": "10/18/2025",
    "capacity": 0,
    "address": "4993 GOLDEN FOOTHILL PKWY, SUITE 3",
    "city": "EL DORADO HILLS",
    "zip": "95762",
    "county": "EL DORADO",
    "phone": "(916) 281-4414",
    "lat": 38.638161,
    "lng": -121.06908
  },
  {
    "id": "630018588",
    "name": "WEST COAST JOINT & SPINE CENTER",
    "npi": "1427557230",
    "hcaiId": null,
    "businessName": null,
    "contactEmail": "AGALLARDO@USPI.COM",
    "categoryName": "SURGICAL CLINIC",
    "categoryCode": "ASC",
    "licenseStatus": null,
    "inService": null,
    "licenseNumber": null,
    "licenseEffectiveDate": null,
    "licenseExpirationDate": null,
    "dataDate": "10/18/2025",
    "capacity": 0,
    "address": "8135 SARATOGA WAY",
    "city": "EL DORADO HILLS",
    "zip": "95762",
    "county": "EL DORADO",
    "phone": "(916) 235-8775",
    "lat": 38.65378853,
    "lng": -121.0725437
  }
]