[
  {
    "id": "630026056",
    "name": "ADVANCED SURGICAL GROUP, INC.",
    "npi": null,
    "hcaiId": null,
    "businessName": null,
    "contactEmail": null,
    "categoryName": "SURGICAL CLINIC",
    "categoryCode": "ASC",
    "licenseStatus": null,
    "inService": null,
    "licenseNumber": null,
    "licenseEffectiveDate": null,
    "licenseExpirationDate": null,
    "dataDate": "10/18/2025",
    "capacity": 0,
    "address": "2160 SUNSET BLVD, SUITE 502",
    "city": "ROCKLIN",
    "zip": "95765",
    "county": "PLACER",
    "phone": "(916) 258-7250",
    "lat": 38.805651,
    "lng": -121.2746265
  },
  {
    "id": "630013752",
    "name": "AGAPECARE HOME HEALTH INC.",
    "npi": "1558660209",
    "hcaiId": "406314051",
    "businessName": "AGAPECARE HOME HEALTH INC",
    "contactEmail": "AGAPECARE317@GMAIL.COM",
    "categoryName": "HOME HEALTH AGENCY",
    "categoryCode": "HHA",
    "licenseStatus": "ACTIVE",
    "inService": true,
    "licenseNumber": "550002472",
    "licenseEffectiveDate": "10/29/2025",
    "licenseExpirationDate": "10/28/2026",
    "dataDate": "10/18/2025",
    "capacity": 0,
    "address": "5701 LONETREE BLVD, SUITE 317",
    "city": "ROCKLIN",
    "zip": "95765",
    "county": "PLACER",
    "phone": "(916) 580-1730",
    "lat": 38.811996,
    "lng": -121.2905295
  },
  {
    "id": "630027371",
    "name": "SOLSTICE HOME HEALTH LLC",
    "npi": null,
    "hcaiId": null,
    "businessName": "SOLSTICE HOME HEALTH LLC",
    "contactEmail": "SOLSTICEHOMEHEALTHLLC@GMAIL.COM",
    "categoryName": "HOME HEALTH AGENCY",
    "categoryCode": "HHA",
    "licenseStatus": "ACTIVE",
    "inService": true,
    "licenseNumber": "550009676",
    "licenseEffectiveDate": "07/28/2025",
    "licenseExpirationDate": "01/27/2026",
    "dataDate": "10/18/2025",
    "capacity": 0,
    "address": "5701 LONETREE BLVD, SUITE 108 C",
    "city": "ROCKLIN",
    "zip": "95765",
    "county": "PLACER",
    "phone": null,
    "lat": 38.81204198,
    "lng": -121.290206
  }
]