[
  {
    "id": "630011271",
    "name": "HAPPY RANCH PROGRAM",
    "npi": "1730348764",
    "hcaiId": null,
    "businessName": "WOODLAND RESIDENTIAL SERVICES, INC.",
    "contactEmail": "PARM@WRESIDENTIAL.COM",
    "categoryName": "INTERMEDIATE CARE FACILITY-DD/H/N/CN/IID",
    "categoryCode": "ICFDDN",
    "licenseStatus": "ACTIVE",
    "inService": true,
    "licenseNumber": "550000698",
    "licenseEffectiveDate": "04/17/2025",
    "licenseExpirationDate": "04/16/2026",
    "dataDate": "10/18/2025",
    "capacity": 6,
    "address": "40145 BEST RANCH ROAD",
    "city": "WOODLAND",
    "zip": "95776",
    "county": "YOLO",
    "phone": "(530) 419-0059",
    "lat": 38.71665,
    "lng": -121.761945
  },
  {
    "id": "630024788",
    "name": "NORTHERN VALLEY INDIAN HEALTH, INC.",
    "npi": null,
    "hcaiId": "306570662",
    "businessName": "NORTHERN VALLEY INDIAN HEALTH, INC.",
    "contactEmail": "NATALIE.HODGEN@NVIH.ORG",
    "categoryName": "PRIMARY CARE CLINIC",
    "categoryCode": "COMTYC",
    "licenseStatus": "ACTIVE",
    "inService": true,
    "licenseNumber": "550007196",
    "licenseEffectiveDate": "11/22/2024",
    "licenseExpirationDate": "11/21/2025",
    "dataDate": "10/18/2025",
    "capacity": 0,
    "address": "1280 E GIBSON RD",
    "city": "WOODLAND",
    "zip": "95776",
    "county": "YOLO",
    "phone": "(530) 934-4641",
    "lat": 38.660391,
    "lng": -121.761783
  },
  {
    "id": "630025233",
    "name": "NORTHERN VALLEY INDIAN HEALTH, INC.",
    "npi": null,
    "hcaiId": null,
    "businessName": "NORTHERN VALLEY INDIAN HEALTH, INC.",
    "contactEmail": "KATRINA.FLESHER@NVIH.ORG",
    "categoryName": "PRIMARY CARE CLINIC",
    "categoryCode": "COMTYC",
    "licenseStatus": "ACTIVE",
    "inService": true,
    "licenseNumber": "550002110",
    "licenseEffectiveDate": "07/18/2025",
    "licenseExpirationDate": "12/02/2025",
    "dataDate": "10/18/2025",
    "capacity": 0,
    "address": "1280 E GIBSON RD",
    "city": "WOODLAND",
    "zip": "95776",
    "county": "YOLO",
    "phone": "(530) 774-4526",
    "lat": 38.660391,
    "lng": -121.761783
  },
  {
    "id": "630026480",
    "name": "WOODLAND COMMUNITY COLLEGE",
    "npi": "1558469064",
    "hcaiId": null,
    "businessName": "OLE HEALTH",
    "contactEmail": null,
    "categoryName": "PRIMARY CARE CLINIC",
    "categoryCode": "COMTYC",
    "licenseStatus": "ACTIVE",
    "inService": true,
    "licenseNumber": "550002588",
    "licenseEffectiveDate": "02/13/2025",
    "licenseExpirationDate": "02/12/2026",
    "dataDate": "10/18/2025",
    "capacity": 0,
    "address": "2300 E GIBSON RD",
    "city": "WOODLAND",
    "zip": "95776",
    "county": "YOLO",
    "phone": null,
    "lat": 38.659572,
    "lng": -121.736124
  },
  {
    "id": "100001246",
    "name": "WRS INC., GUM PROGRAM",
    "npi": "1922215896",
    "hcaiId": null,
    "businessName": "WOODLAND RESIDENTIAL SERVICES, INC.",
    "contactEmail": "WRS6@SBCGLOBAL.NET",
    "categoryName": "INTERMEDIATE CARE FACILITY-DD/H/N/CN/IID",
    "categoryCode": "ICFDDN",
    "licenseStatus": "ACTIVE",
    "inService": true,
    "licenseNumber": "100000518",
    "licenseEffectiveDate": "01/16/2025",
    "licenseExpirationDate": "01/15/2026",
    "dataDate": "10/18/2025",
    "capacity": 6,
    "address": "1381 E. GUM AVENUE",
    "city": "WOODLAND",
    "zip": "95776",
    "county": "YOLO",
    "phone": "(530) 419-0059",
    "lat": 38.6685,
    "lng": -121.756833
  },
  {
    "id": "100001249",
    "name": "WRS INC., SQUAW PROGRAM",
    "npi": "1942419817",
    "hcaiId": null,
    "businessName": "WOODLAND RESIDENTIAL SERVICES, INC.",
    "contactEmail": "WRS6INC@SBCGLOBAL.NET",
    "categoryName": "INTERMEDIATE CARE FACILITY-DD/H/N/CN/IID",
    "categoryCode": "ICFDDH",
    "licenseStatus": "ACTIVE",
    "inService": true,
    "licenseNumber": "100000520",
    "licenseEffectiveDate": "11/18/2024",
    "licenseExpirationDate": "11/17/2025",
    "dataDate": "10/18/2025",
    "capacity": 6,
    "address": "1571 SQUAW VALLEY DRIVE",
    "city": "WOODLAND",
    "zip": "95776",
    "county": "YOLO",
    "phone": "(530) 419-0059",
    "lat": 38.666088,
    "lng": -121.747878
  },
  {
    "id": "630019660",
    "name": "YOLO DIALYSIS",
    "npi": "1871130500",
    "hcaiId": "306570528",
    "businessName": "GROTEN DIALYSIS LLC",
    "contactEmail": "CAL_C@DAVITA.COM",
    "categoryName": "CHRONIC DIALYSIS CLINIC",
    "categoryCode": "ESRD/CDC",
    "licenseStatus": "ACTIVE",
    "inService": true,
    "licenseNumber": "550005362",
    "licenseEffectiveDate": "03/24/2025",
    "licenseExpirationDate": "03/23/2026",
    "dataDate": "10/18/2025",
    "capacity": 21,
    "address": "1840 E MAIN ST",
    "city": "WOODLAND",
    "zip": "95776",
    "county": "YOLO",
    "phone": "(530) 662-1364",
    "lat": 38.676258,
    "lng": -121.736529
  }
]