[
  {
    "id": "630018213",
    "name": "CLINICIANS CONNECT CARE HOME HEALTH SERVICES",
    "npi": "1174000855",
    "hcaiId": "406341679",
    "businessName": "CLINICIANS CONNECT CARE HOME HEALTH AND HOSPICE SERVICES",
    "contactEmail": "ADMIN@CLINICIANSCONNECTCARE.COM",
    "categoryName": "HOME HEALTH AGENCY",
    "categoryCode": "HHA",
    "licenseStatus": "ACTIVE",
    "inService": true,
    "licenseNumber": "550004721",
    "licenseEffectiveDate": "05/16/2025",
    "licenseExpirationDate": "05/15/2026",
    "dataDate": "10/18/2025",
    "capacity": 0,
    "address": "716 19TH ST, SUITE 200",
    "city": "SACRAMENTO",
    "zip": "95811",
    "county": "SACRAMENTO",
    "phone": "(916) 400-0775",
    "lat": 38.579778,
    "lng": -121.4803575
  },
  {
    "id": "070001184",
    "name": "KINGDOM LIVING ADHC",
    "npi": null,
    "hcaiId": null,
    "businessName": "SACRAMENTO BASED ADULT DAY SERVICES, INC.",
    "contactEmail": "INFO@KINGDOMLIVINGCA.COM",
    "categoryName": "ADULT DAY HEALTH CARE",
    "categoryCode": "ADHC",
    "licenseStatus": "ACTIVE",
    "inService": true,
    "licenseNumber": "070000532",
    "licenseEffectiveDate": "06/21/2025",
    "licenseExpirationDate": "06/20/2026",
    "dataDate": "10/18/2025",
    "capacity": 0,
    "address": "620 BERCUT DR",
    "city": "SACRAMENTO",
    "zip": "95811",
    "county": "SACRAMENTO",
    "phone": "(916) 444-7700",
    "lat": 38.601036,
    "lng": -121.49811
  },
  {
    "id": "030000860",
    "name": "ONE COMMUNITY HEALTH",
    "npi": "1447297379",
    "hcaiId": "306344027",
    "businessName": "CARES COMMUNITY HEALTH",
    "contactEmail": "COMPLIANCE@ONECOMMUNITYHEALTH.COM",
    "categoryName": "PRIMARY CARE CLINIC",
    "categoryCode": "COMTYC",
    "licenseStatus": "ACTIVE",
    "inService": true,
    "licenseNumber": "030000371",
    "licenseEffectiveDate": "05/01/2025",
    "licenseExpirationDate": "04/30/2026",
    "dataDate": "10/18/2025",
    "capacity": 0,
    "address": "1500 21ST STREET",
    "city": "SACRAMENTO",
    "zip": "95811",
    "county": "SACRAMENTO",
    "phone": "(916) 914-6240",
    "lat": 38.570553,
    "lng": -121.481325
  },
  {
    "id": "630018742",
    "name": "ONE COMMUNITY HEALTH",
    "npi": "1447297379",
    "hcaiId": null,
    "businessName": "CARES COMMUNITY HEALTH",
    "contactEmail": null,
    "categoryName": "PRIMARY CARE CLINIC",
    "categoryCode": "COMTYC",
    "licenseStatus": "ACTIVE",
    "inService": true,
    "licenseNumber": "030000371",
    "licenseEffectiveDate": "05/01/2025",
    "licenseExpirationDate": "04/30/2026",
    "dataDate": "10/18/2025",
    "capacity": 0,
    "address": "815 S ST, SUITE 1, 24, 25",
    "city": "SACRAMENTO",
    "zip": "95811",
    "county": "SACRAMENTO",
    "phone": null,
    "lat": 38.571273,
    "lng": -121.4998515
  },
  {
    "id": "630027891",
    "name": "ONE COMMUNITY HEALTH MOBILE SERVICES",
    "npi": null,
    "hcaiId": null,
    "businessName": "CARES COMMUNITY HEALTH",
    "contactEmail": null,
    "categoryName": "PRIMARY CARE CLINIC",
    "categoryCode": "COMTYC",
    "licenseStatus": "ACTIVE",
    "inService": true,
    "licenseNumber": "030000371",
    "licenseEffectiveDate": "05/01/2025",
    "licenseExpirationDate": "04/30/2026",
    "dataDate": "10/18/2025",
    "capacity": 0,
    "address": "1500 21ST ST",
    "city": "SACRAMENTO",
    "zip": "95811",
    "county": "SACRAMENTO",
    "phone": null,
    "lat": 38.57055663,
    "lng": -121.4813254
  },
  {
    "id": "030000255",
    "name": "SACRAMENTO NATIVE AMERICAN HEALTH CENTER, INC.",
    "npi": "1588756530",
    "hcaiId": "306342248",
    "businessName": "SACRAMENTO NATIVE AMERICAN HEALTH CENTER, INC.",
    "contactEmail": "BRITTA.GUERRERO@SNAHC.ORG",
    "categoryName": "PRIMARY CARE CLINIC",
    "categoryCode": "COMTYC",
    "licenseStatus": "ACTIVE",
    "inService": true,
    "licenseNumber": "030000183",
    "licenseEffectiveDate": "01/01/2025",
    "licenseExpirationDate": "12/31/2025",
    "dataDate": "10/18/2025",
    "capacity": 0,
    "address": "2020 J STREET",
    "city": "SACRAMENTO",
    "zip": "95811",
    "county": "SACRAMENTO",
    "phone": "(916) 341-0576",
    "lat": 38.576331,
    "lng": -121.4791155
  },
  {
    "id": "030001321",
    "name": "SUTTER SENIORCARE",
    "npi": null,
    "hcaiId": "306344227",
    "businessName": "SUTTER VALLEY HOSPITALS",
    "contactEmail": "ROMELIA.GARCIA@SUTTERHEALTH.ORG",
    "categoryName": "PRIMARY CARE CLINIC",
    "categoryCode": "COMTYC",
    "licenseStatus": "ACTIVE",
    "inService": true,
    "licenseNumber": "030000550",
    "licenseEffectiveDate": "04/03/2025",
    "licenseExpirationDate": "04/02/2026",
    "dataDate": "10/18/2025",
    "capacity": 0,
    "address": "444 N 3RD ST",
    "city": "SACRAMENTO",
    "zip": "95811",
    "county": "SACRAMENTO",
    "phone": "(916) 491-3404",
    "lat": 38.598957,
    "lng": -121.500054
  },
  {
    "id": "070001181",
    "name": "SUTTER SENIORCARE",
    "npi": null,
    "hcaiId": null,
    "businessName": "SUTTER VALLEY HOSPITALS",
    "contactEmail": "JULIE.ERDMANN@SUTTERHEALTH.ORG",
    "categoryName": "ADULT DAY HEALTH CARE",
    "categoryCode": "ADHC",
    "licenseStatus": "ACTIVE",
    "inService": true,
    "licenseNumber": "070000529",
    "licenseEffectiveDate": "04/03/2024",
    "licenseExpirationDate": "04/02/2025",
    "dataDate": "10/18/2025",
    "capacity": 0,
    "address": "444 N 3RD ST",
    "city": "SACRAMENTO",
    "zip": "95811",
    "county": "SACRAMENTO",
    "phone": "(916) 491-3404",
    "lat": 38.598957,
    "lng": -121.500054
  },
  {
    "id": "100001288",
    "name": "SUTTER SENIORCARE",
    "npi": "1053654434",
    "hcaiId": "406344100",
    "businessName": "SUTTER VALLEY HOSPITALS",
    "contactEmail": "ERDMANJA@SUTTERHEALTH.ORG",
    "categoryName": "HOME HEALTH AGENCY",
    "categoryCode": "HHA",
    "licenseStatus": "ACTIVE",
    "inService": true,
    "licenseNumber": "100000537",
    "licenseEffectiveDate": "11/27/2024",
    "licenseExpirationDate": "11/26/2025",
    "dataDate": "10/18/2025",
    "capacity": 0,
    "address": "444 N 3RD ST",
    "city": "SACRAMENTO",
    "zip": "95811",
    "county": "SACRAMENTO",
    "phone": "(916) 491-4304",
    "lat": 38.598957,
    "lng": -121.500054
  },
  {
    "id": "030000248",
    "name": "WELLSPACE J STREET COMMUNITY HEALTH CENTER",
    "npi": "1124112933",
    "hcaiId": "306341898",
    "businessName": "WELLSPACE HEALTH",
    "contactEmail": "ELARIAS@WELLSPACEHEALTH.ORG",
    "categoryName": "PRIMARY CARE CLINIC",
    "categoryCode": "COMTYC",
    "licenseStatus": "ACTIVE",
    "inService": true,
    "licenseNumber": "550004588",
    "licenseEffectiveDate": "02/04/2025",
    "licenseExpirationDate": "02/03/2026",
    "dataDate": "10/18/2025",
    "capacity": 0,
    "address": "1820 J STREET",
    "city": "SACRAMENTO",
    "zip": "95811",
    "county": "SACRAMENTO",
    "phone": "(916) 313-8470",
    "lat": 38.57688,
    "lng": -121.4816625
  }
]