[
  {
    "id": "630016482",
    "name": "BROADWAY DIALYSIS",
    "npi": "1568847929",
    "hcaiId": "306344236",
    "businessName": "GLOSSER DIALYSIS LLC",
    "contactEmail": "CAL_C@DAVITA.COM",
    "categoryName": "CHRONIC DIALYSIS CLINIC",
    "categoryCode": "ESRD/CDC",
    "licenseStatus": "ACTIVE",
    "inService": true,
    "licenseNumber": "550003576",
    "licenseEffectiveDate": "07/11/2025",
    "licenseExpirationDate": "07/10/2026",
    "dataDate": "10/18/2025",
    "capacity": 34,
    "address": "2624 STOCKTON BLVD",
    "city": "SACRAMENTO",
    "zip": "95817",
    "county": "SACRAMENTO",
    "phone": "(916) 457-0113",
    "lat": 38.551428,
    "lng": -121.4561835
  },
  {
    "id": "030001506",
    "name": "SHRINERS HOSPITALS FOR CHILDREN NORTHERN CALIFORNIA",
    "npi": "1962530451",
    "hcaiId": "106344114",
    "businessName": "SHRINERS HOSPITALS FOR CHILDREN",
    "contactEmail": "AJOHNSON@SHRINENET.ORG",
    "categoryName": "GENERAL ACUTE CARE HOSPITAL",
    "categoryCode": "GACH",
    "licenseStatus": "ACTIVE",
    "inService": true,
    "licenseNumber": "030000620",
    "licenseEffectiveDate": "04/11/2025",
    "licenseExpirationDate": "04/10/2026",
    "dataDate": "10/18/2025",
    "capacity": 80,
    "address": "2425 STOCKTON BOULEVARD",
    "city": "SACRAMENTO",
    "zip": "95817",
    "county": "SACRAMENTO",
    "phone": "(916) 453-2004",
    "lat": 38.553012,
    "lng": -121.45545
  },
  {
    "id": "630018421",
    "name": "UCDMC PEDIATRIC PERITONEAL DIALYSIS HOME TRAINING AND SUPPORT",
    "npi": "1710918545",
    "hcaiId": null,
    "businessName": "UNIVERSITY OF CALIFORNIA BOARD OF REGENTS",
    "contactEmail": null,
    "categoryName": "CHRONIC DIALYSIS CLINIC",
    "categoryCode": "ESRD",
    "licenseStatus": "ACTIVE",
    "inService": true,
    "licenseNumber": "030000086",
    "licenseEffectiveDate": "09/03/2025",
    "licenseExpirationDate": "04/07/2026",
    "dataDate": "10/18/2025",
    "capacity": 0,
    "address": "2521 STOCKTON BLVD, SUITE 2200, ROOM 2117",
    "city": "SACRAMENTO",
    "zip": "95817",
    "county": "SACRAMENTO",
    "phone": null,
    "lat": 38.55204,
    "lng": -121.455387
  },
  {
    "id": "030000113",
    "name": "UNIVERSITY OF CALIFORNIA DAVIS MEDICAL CENTER",
    "npi": "1710918545",
    "hcaiId": "106341006",
    "businessName": "UNIVERSITY OF CALIFORNIA BOARD OF REGENTS",
    "contactEmail": "KLRAMOS@UCDAVIS.EDU",
    "categoryName": "GENERAL ACUTE CARE HOSPITAL",
    "categoryCode": "GACH",
    "licenseStatus": "ACTIVE",
    "inService": true,
    "licenseNumber": "030000086",
    "licenseEffectiveDate": "09/03/2025",
    "licenseExpirationDate": "04/07/2026",
    "dataDate": "10/18/2025",
    "capacity": 653,
    "address": "2315 STOCKTON BOULEVARD",
    "city": "SACRAMENTO",
    "zip": "95817",
    "county": "SACRAMENTO",
    "phone": "(916) 734-2777",
    "lat": 38.555181,
    "lng": -121.4566785
  },
  {
    "id": "630012608",
    "name": "UNIVERSITY OF CALIFORNIA DAVIS MEDICAL CENTER",
    "npi": null,
    "hcaiId": null,
    "businessName": "UNIVERSITY OF CALIFORNIA BOARD OF REGENTS",
    "contactEmail": null,
    "categoryName": "GENERAL ACUTE CARE HOSPITAL",
    "categoryCode": "TRANS",
    "licenseStatus": "ACTIVE",
    "inService": true,
    "licenseNumber": "030000086",
    "licenseEffectiveDate": "09/03/2025",
    "licenseExpirationDate": "04/07/2026",
    "dataDate": "10/18/2025",
    "capacity": 0,
    "address": "2315 STOCKTON BLVD",
    "city": "SACRAMENTO",
    "zip": "95817",
    "county": "SACRAMENTO",
    "phone": null,
    "lat": 38.555181,
    "lng": -121.4566785
  },
  {
    "id": "630027684",
    "name": "UNIVERSITY OF CALIFORNIA DAVIS MEDICAL CENTER - ORGAN TRANSPLANT HOSPITAL",
    "npi": "1710918545",
    "hcaiId": null,
    "businessName": "UNIVERSITY OF CALIFORNIA BOARD OF REGENTS",
    "contactEmail": null,
    "categoryName": "GENERAL ACUTE CARE HOSPITAL",
    "categoryCode": "TRANS",
    "licenseStatus": "ACTIVE",
    "inService": true,
    "licenseNumber": "030000086",
    "licenseEffectiveDate": "09/03/2025",
    "licenseExpirationDate": "04/07/2026",
    "dataDate": "10/18/2025",
    "capacity": 0,
    "address": "2315 STOCKTON BLVD",
    "city": "SACRAMENTO",
    "zip": "95817",
    "county": "SACRAMENTO",
    "phone": null,
    "lat": 38.55518267,
    "lng": -121.4566766
  },
  {
    "id": "630016851",
    "name": "UNIVERSITY OF CALIFORNIA DAVIS PEDIATRIC PERITONEAL DIALYSIS HOME TRAINING AND SUPPORT",
    "npi": "1235642950",
    "hcaiId": null,
    "businessName": null,
    "contactEmail": null,
    "categoryName": "CHRONIC DIALYSIS CLINIC",
    "categoryCode": "ESRD",
    "licenseStatus": null,
    "inService": null,
    "licenseNumber": null,
    "licenseEffectiveDate": null,
    "licenseExpirationDate": null,
    "dataDate": "10/18/2025",
    "capacity": 0,
    "address": "2521 STOCKTON BLVD, SUITE 2200",
    "city": "SACRAMENTO",
    "zip": "95817",
    "county": "SACRAMENTO",
    "phone": null,
    "lat": 38.55204,
    "lng": -121.455387
  },
  {
    "id": "100000002",
    "name": "UNIVERSITY POST-ACUTE REHAB",
    "npi": "1013614262",
    "hcaiId": "206341069",
    "businessName": "ASSB, LLC",
    "contactEmail": "JEREMYP@ASPENHEALTH.COM",
    "categoryName": "SKILLED NURSING FACILITY",
    "categoryCode": "SNF",
    "licenseStatus": "ACTIVE",
    "inService": true,
    "licenseNumber": "100000110",
    "licenseEffectiveDate": "03/20/2025",
    "licenseExpirationDate": "03/19/2026",
    "dataDate": "10/18/2025",
    "capacity": 59,
    "address": "2120 STOCKTON BOULEVARD",
    "city": "SACRAMENTO",
    "zip": "95817",
    "county": "SACRAMENTO",
    "phone": "(916) 452-6631",
    "lat": 38.558079,
    "lng": -121.461885
  },
  {
    "id": "630016820",
    "name": "WELLSPACE HEALTH ALHAMBRA COMMUNITY HEALTH CENTER",
    "npi": "1396198982",
    "hcaiId": "306344229",
    "businessName": "WELLSPACE HEALTH",
    "contactEmail": "ELARIAS@WELLSPACEHEALTH.ORG",
    "categoryName": "PRIMARY CARE CLINIC",
    "categoryCode": "COMTYC",
    "licenseStatus": "ACTIVE",
    "inService": true,
    "licenseNumber": "550004588",
    "licenseEffectiveDate": "02/04/2025",
    "licenseExpirationDate": "02/03/2026",
    "dataDate": "10/18/2025",
    "capacity": 0,
    "address": "2425 ALHAMBRA BLVD",
    "city": "SACRAMENTO",
    "zip": "95817",
    "county": "SACRAMENTO",
    "phone": "(916) 281-4366",
    "lat": 38.55627,
    "lng": -121.471875
  },
  {
    "id": "630017865",
    "name": "WELLSPACE HEALTH MOBILE CLINIC",
    "npi": "1124257324",
    "hcaiId": null,
    "businessName": "WELLSPACE HEALTH",
    "contactEmail": null,
    "categoryName": "PRIMARY CARE CLINIC",
    "categoryCode": "COMTYC",
    "licenseStatus": "ACTIVE",
    "inService": true,
    "licenseNumber": "550001135",
    "licenseEffectiveDate": "11/02/2025",
    "licenseExpirationDate": "11/01/2026",
    "dataDate": "10/18/2025",
    "capacity": 0,
    "address": "3415 MARTIN LUTHER KING JR BLVD",
    "city": "SACRAMENTO",
    "zip": "95817",
    "county": "SACRAMENTO",
    "phone": null,
    "lat": 38.54376,
    "lng": -121.4644095
  },
  {
    "id": "630012314",
    "name": "WELLSPACE HEALTH OAK PARK COMMUNITY HEALTH CENTER",
    "npi": "1124257324",
    "hcaiId": "306344163",
    "businessName": "WELLSPACE HEALTH",
    "contactEmail": "TDELRIO@WELLSPACEHEALTH.ORG",
    "categoryName": "PRIMARY CARE CLINIC",
    "categoryCode": "COMTYC",
    "licenseStatus": "ACTIVE",
    "inService": true,
    "licenseNumber": "550001135",
    "licenseEffectiveDate": "11/02/2025",
    "licenseExpirationDate": "11/01/2026",
    "dataDate": "10/18/2025",
    "capacity": 0,
    "address": "3415 MARTIN LUTHER KING JR BLVD",
    "city": "SACRAMENTO",
    "zip": "95817",
    "county": "SACRAMENTO",
    "phone": "(209) 271-4510",
    "lat": 38.54376,
    "lng": -121.4644095
  }
]