[
  {
    "id": "110001169",
    "name": "ALHAMBRA DIALYSIS CENTER",
    "npi": "1164481081",
    "hcaiId": "306344043",
    "businessName": "TOTAL RENAL CARE, INC.",
    "contactEmail": "CAL_C@DAVITA.COM",
    "categoryName": "CHRONIC DIALYSIS CLINIC",
    "categoryCode": "ESRD/CDC",
    "licenseStatus": "ACTIVE",
    "inService": true,
    "licenseNumber": "110000458",
    "licenseEffectiveDate": "05/05/2025",
    "licenseExpirationDate": "05/04/2026",
    "dataDate": "10/18/2025",
    "capacity": 20,
    "address": "1315 ALHAMBRA BLVD, SUITE 100",
    "city": "SACRAMENTO",
    "zip": "95816",
    "county": "SACRAMENTO",
    "phone": "(916) 457-8252",
    "lat": 38.568429,
    "lng": -121.4665605
  },
  {
    "id": "630011291",
    "name": "ELICA HEALTH CENTERS",
    "npi": "1093974065",
    "hcaiId": "306344153",
    "businessName": "ELICA HEALTH CENTERS",
    "contactEmail": "IGEREZ@ELICAHEALTH.ORG",
    "categoryName": "PRIMARY CARE CLINIC",
    "categoryCode": "COMTYC",
    "licenseStatus": "ACTIVE",
    "inService": true,
    "licenseNumber": "550000706",
    "licenseEffectiveDate": "04/01/2025",
    "licenseExpirationDate": "03/31/2026",
    "dataDate": "10/18/2025",
    "capacity": 0,
    "address": "3701 J STREET, SUITE 201",
    "city": "SACRAMENTO",
    "zip": "95816",
    "county": "SACRAMENTO",
    "phone": "(916) 454-2345",
    "lat": 38.571237,
    "lng": -121.4566245
  },
  {
    "id": "630028457",
    "name": "ELICA HEALTH CENTERS - MIDTOWN FIRST FLOOR",
    "npi": null,
    "hcaiId": null,
    "businessName": "ELICA HEALTH CENTERS",
    "contactEmail": null,
    "categoryName": "PRIMARY CARE CLINIC",
    "categoryCode": "COMTYC",
    "licenseStatus": "ACTIVE",
    "inService": true,
    "licenseNumber": "550006737",
    "licenseEffectiveDate": "09/08/2025",
    "licenseExpirationDate": "09/07/2026",
    "dataDate": "10/18/2025",
    "capacity": 0,
    "address": "3701 J ST, SUITE 101",
    "city": "SACRAMENTO",
    "zip": "95816",
    "county": "SACRAMENTO",
    "phone": null,
    "lat": 38.57088251,
    "lng": -121.4568103
  },
  {
    "id": "630014964",
    "name": "ELICA HEALTH CENTERS HEALTH ON WHEELS",
    "npi": "1770908725",
    "hcaiId": "306344224",
    "businessName": "ELICA HEALTH CENTERS",
    "contactEmail": "IGEREZ@ELICAHEALTH.ORG",
    "categoryName": "PRIMARY CARE CLINIC",
    "categoryCode": "COMTYC",
    "licenseStatus": "ACTIVE",
    "inService": true,
    "licenseNumber": "550003046",
    "licenseEffectiveDate": "02/10/2025",
    "licenseExpirationDate": "02/09/2026",
    "dataDate": "10/18/2025",
    "capacity": 0,
    "address": "3701 J STREET, SUITE 201",
    "city": "SACRAMENTO",
    "zip": "95816",
    "county": "SACRAMENTO",
    "phone": "(916) 454-2345",
    "lat": 38.571237,
    "lng": -121.4566245
  },
  {
    "id": "030000566",
    "name": "FORT SUTTER SURGERY CENTER",
    "npi": "1164480265",
    "hcaiId": "306344015",
    "businessName": null,
    "contactEmail": "JESSIE.SCOTT@SCASURGERY.COM",
    "categoryName": "SURGICAL CLINIC",
    "categoryCode": "ASC",
    "licenseStatus": "INACTIVE - CAPEN DECISION",
    "inService": false,
    "licenseNumber": "030000308",
    "licenseEffectiveDate": "03/15/2008",
    "licenseExpirationDate": "03/14/2009",
    "dataDate": "10/18/2025",
    "capacity": 0,
    "address": "2801 K STREET, SUITE 525",
    "city": "SACRAMENTO",
    "zip": "95816",
    "county": "SACRAMENTO",
    "phone": "(916) 733-5017",
    "lat": 38.572947,
    "lng": -121.46904
  },
  {
    "id": "100000093",
    "name": "MCKINLEY PARK CARE CENTER",
    "npi": "1023316023",
    "hcaiId": "206342229",
    "businessName": "AZALEA HOLDINGS, LLC",
    "contactEmail": "SKYLER.JOHNSON1@MCKINLEYPARKCC.COM",
    "categoryName": "SKILLED NURSING FACILITY",
    "categoryCode": "SNF",
    "licenseStatus": "ACTIVE",
    "inService": true,
    "licenseNumber": "100000171",
    "licenseEffectiveDate": "06/07/2025",
    "licenseExpirationDate": "06/06/2026",
    "dataDate": "10/18/2025",
    "capacity": 86,
    "address": "3700 H STREET",
    "city": "SACRAMENTO",
    "zip": "95816",
    "county": "SACRAMENTO",
    "phone": "(916) 452-3592",
    "lat": 38.572137,
    "lng": -121.4562375
  },
  {
    "id": "030001168",
    "name": "MID-TOWN OAKS POST-ACUTE",
    "npi": "1639503972",
    "hcaiId": "206341119",
    "businessName": "WHITE FIR HOLDINGS, LLC",
    "contactEmail": "TROY.WARNER@MIDTOWNOAKS.COM",
    "categoryName": "SKILLED NURSING FACILITY",
    "categoryCode": "SNF",
    "licenseStatus": "ACTIVE",
    "inService": true,
    "licenseNumber": "550002524",
    "licenseEffectiveDate": "01/03/2025",
    "licenseExpirationDate": "01/02/2026",
    "dataDate": "10/18/2025",
    "capacity": 100,
    "address": "2600 L STREET",
    "city": "SACRAMENTO",
    "zip": "95816",
    "county": "SACRAMENTO",
    "phone": "(916) 321-9440",
    "lat": 38.571921,
    "lng": -121.472541
  },
  {
    "id": "030001680",
    "name": "PAIN DIAGNOSTIC & TREATMENT CENTER, L.P.",
    "npi": "1780689802",
    "hcaiId": "306344128",
    "businessName": null,
    "contactEmail": "SATKINS@PAINDIAGNOSTIC.COM",
    "categoryName": "SURGICAL CLINIC",
    "categoryCode": "ASC",
    "licenseStatus": "INACTIVE - CAPEN DECISION",
    "inService": false,
    "licenseNumber": "030000705",
    "licenseEffectiveDate": "11/28/2007",
    "licenseExpirationDate": "11/27/2008",
    "dataDate": "10/18/2025",
    "capacity": 0,
    "address": "2805 J STREET, SUITE 200",
    "city": "SACRAMENTO",
    "zip": "95816",
    "county": "SACRAMENTO",
    "phone": "(916) 231-8755",
    "lat": 38.573982,
    "lng": -121.468419
  },
  {
    "id": "030000244",
    "name": "PLANNED PARENTHOOD MAR MONTE - B STREET HEALTH CENTER",
    "npi": "1679526693",
    "hcaiId": "306342208",
    "businessName": "PLANNED PARENTHOOD MAR MONTE, INC.",
    "contactEmail": "SERVICESAD@PPMARMONTE.ORG",
    "categoryName": "PRIMARY CARE CLINIC",
    "categoryCode": "COMTYC",
    "licenseStatus": "ACTIVE",
    "inService": true,
    "licenseNumber": "030000154",
    "licenseEffectiveDate": "11/01/2025",
    "licenseExpirationDate": "10/31/2026",
    "dataDate": "10/18/2025",
    "capacity": 0,
    "address": "201 29TH ST, SUITE B",
    "city": "SACRAMENTO",
    "zip": "95816",
    "county": "SACRAMENTO",
    "phone": "(408) 795-3695",
    "lat": 38.581875,
    "lng": -121.463802
  },
  {
    "id": "030000682",
    "name": "SACRAMENTO EYE SURGICENTER",
    "npi": "1881792596",
    "hcaiId": "306344097",
    "businessName": null,
    "contactEmail": "KRUSSELL@LIANGVISION.COM",
    "categoryName": "SURGICAL CLINIC",
    "categoryCode": "ASC",
    "licenseStatus": "INACTIVE - CAPEN DECISION",
    "inService": false,
    "licenseNumber": "030000515",
    "licenseEffectiveDate": "11/03/2007",
    "licenseExpirationDate": "11/02/2008",
    "dataDate": "10/18/2025",
    "capacity": 0,
    "address": "3150 J STREET",
    "city": "SACRAMENTO",
    "zip": "95816",
    "county": "SACRAMENTO",
    "phone": "(916) 444-7052",
    "lat": 38.57229366,
    "lng": -121.4637175
  },
  {
    "id": "100000097",
    "name": "SAYLOR LANE HEALTHCARE CENTER",
    "npi": "1972147494",
    "hcaiId": "206341014",
    "businessName": "DEFENDER, LLC",
    "contactEmail": "DMURRAY@CYPRESSH.COM",
    "categoryName": "SKILLED NURSING FACILITY",
    "categoryCode": "SNF",
    "licenseStatus": "ACTIVE",
    "inService": true,
    "licenseNumber": "100000089",
    "licenseEffectiveDate": "05/01/2025",
    "licenseExpirationDate": "04/30/2026",
    "dataDate": "10/18/2025",
    "capacity": 42,
    "address": "3500 FOLSOM BOULEVARD",
    "city": "SACRAMENTO",
    "zip": "95816",
    "county": "SACRAMENTO",
    "phone": "(916) 457-3500",
    "lat": 38.566188,
    "lng": -121.462569
  },
  {
    "id": "030001090",
    "name": "SUTTER ALHAMBRA SURGERY CENTER, L.P.",
    "npi": "1770541708",
    "hcaiId": "306344066",
    "businessName": "SUTTER ALHAMBRA SURGERY CENTER, L.P.",
    "contactEmail": null,
    "categoryName": "SURGICAL CLINIC",
    "categoryCode": "ASC",
    "licenseStatus": "INACTIVE - CAPEN DECISION",
    "inService": false,
    "licenseNumber": "030000446",
    "licenseEffectiveDate": "03/15/2010",
    "licenseExpirationDate": "03/14/2011",
    "dataDate": "10/18/2025",
    "capacity": 0,
    "address": "1201 ALHAMBRA BOULEVARD, SUITE 110",
    "city": "SACRAMENTO",
    "zip": "95816",
    "county": "SACRAMENTO",
    "phone": "(916) 733-8222",
    "lat": 38.570076,
    "lng": -121.4657145
  },
  {
    "id": "030000151",
    "name": "SUTTER MEDICAL CENTER, SACRAMENTO",
    "npi": "1811946734",
    "hcaiId": "106341051",
    "businessName": "SUTTER VALLEY HOSPITALS",
    "contactEmail": "MEGAN.GILLESPIE@SUTTERHEALTH.ORG",
    "categoryName": "GENERAL ACUTE CARE HOSPITAL",
    "categoryCode": "GACH",
    "licenseStatus": "ACTIVE",
    "inService": true,
    "licenseNumber": "030000102",
    "licenseEffectiveDate": "05/31/2025",
    "licenseExpirationDate": "05/30/2026",
    "dataDate": "10/18/2025",
    "capacity": 523,
    "address": "2825 CAPITOL AVENUE",
    "city": "SACRAMENTO",
    "zip": "95816",
    "county": "SACRAMENTO",
    "phone": "(916) 887-4516",
    "lat": 38.5709021,
    "lng": -121.4694505
  },
  {
    "id": "630012609",
    "name": "SUTTER MEDICAL CENTER, SACRAMENTO",
    "npi": "1811946734",
    "hcaiId": null,
    "businessName": "SUTTER VALLEY HOSPITALS",
    "contactEmail": null,
    "categoryName": "GENERAL ACUTE CARE HOSPITAL",
    "categoryCode": "TRANS",
    "licenseStatus": "ACTIVE",
    "inService": true,
    "licenseNumber": "030000102",
    "licenseEffectiveDate": "05/31/2025",
    "licenseExpirationDate": "05/30/2026",
    "dataDate": "10/18/2025",
    "capacity": 0,
    "address": "2825 CAPITOL AVENUE",
    "city": "SACRAMENTO",
    "zip": "95816",
    "county": "SACRAMENTO",
    "phone": null,
    "lat": 38.570805,
    "lng": -121.4696385
  },
  {
    "id": "110001167",
    "name": "UNIVERSITY DIALYSIS CLINIC",
    "npi": "1003849480",
    "hcaiId": "306344030",
    "businessName": "DIALYSIS CLINIC, INC.",
    "contactEmail": "ERIC.LENZ@DCIINC.ORG",
    "categoryName": "CHRONIC DIALYSIS CLINIC",
    "categoryCode": "ESRD/CDC",
    "licenseStatus": "ACTIVE",
    "inService": true,
    "licenseNumber": "110000456",
    "licenseEffectiveDate": "11/01/2024",
    "licenseExpirationDate": "10/31/2025",
    "dataDate": "10/18/2025",
    "capacity": 26,
    "address": "1771 STOCKTON BOULEVARD",
    "city": "SACRAMENTO",
    "zip": "95816",
    "county": "SACRAMENTO",
    "phone": "(916) 453-0803",
    "lat": 38.563866,
    "lng": -121.46562
  }
]