[
  {
    "id": "030000124",
    "name": "MERCY GENERAL HOSPITAL",
    "npi": "1487694857",
    "hcaiId": "106340947",
    "businessName": "DIGNITY HEALTH",
    "contactEmail": null,
    "categoryName": "GENERAL ACUTE CARE HOSPITAL",
    "categoryCode": "GACH",
    "licenseStatus": "ACTIVE",
    "inService": true,
    "licenseNumber": "030000062",
    "licenseEffectiveDate": "04/17/2025",
    "licenseExpirationDate": "12/30/2025",
    "dataDate": "10/18/2025",
    "capacity": 313,
    "address": "4001 J STREET",
    "city": "SACRAMENTO",
    "zip": "95819",
    "county": "SACRAMENTO",
    "phone": "(916) 453-4453",
    "lat": 38.570526,
    "lng": -121.4521695
  },
  {
    "id": "030000726",
    "name": "SACRAMENTO MIDTOWN ENDOSCOPY CENTER",
    "npi": "1811054737",
    "hcaiId": "306344005",
    "businessName": null,
    "contactEmail": "HNEWHOUSE@USPI.COM",
    "categoryName": "SURGICAL CLINIC",
    "categoryCode": "ASC",
    "licenseStatus": "INACTIVE - CAPEN DECISION",
    "inService": false,
    "licenseNumber": "030000333",
    "licenseEffectiveDate": "11/17/2007",
    "licenseExpirationDate": "11/16/2008",
    "dataDate": "10/18/2025",
    "capacity": 0,
    "address": "3941 J STREET, SUITE 460",
    "city": "SACRAMENTO",
    "zip": "95819",
    "county": "SACRAMENTO",
    "phone": "(916) 733-6940",
    "lat": 38.570652,
    "lng": -121.4535465
  },
  {
    "id": "100000070",
    "name": "SHERWOOD HEALTHCARE CENTER",
    "npi": "1962046482",
    "hcaiId": "206340903",
    "businessName": "MALTIQUE, LLC",
    "contactEmail": "DMURRAY@CYPRESSH.COM",
    "categoryName": "SKILLED NURSING FACILITY",
    "categoryCode": "SNF",
    "licenseStatus": "ACTIVE",
    "inService": true,
    "licenseNumber": "100000265",
    "licenseEffectiveDate": "11/25/2024",
    "licenseExpirationDate": "11/24/2025",
    "dataDate": "10/18/2025",
    "capacity": 62,
    "address": "4700 ELVAS AVENUE",
    "city": "SACRAMENTO",
    "zip": "95819",
    "county": "SACRAMENTO",
    "phone": "(916) 454-4700",
    "lat": 38.57895,
    "lng": -121.439178
  }
]