[
  {
    "id": "630017757",
    "name": "ADVANCED HEALTH CARE OF SACRAMENTO",
    "npi": "1114439262",
    "hcaiId": "206344211",
    "businessName": "AHC HEALTHCARE OF SACRAMENTO LLC",
    "contactEmail": "JON.WALKER@AHCFACILITIES.COM",
    "categoryName": "SKILLED NURSING FACILITY",
    "categoryCode": "SNF",
    "licenseStatus": "ACTIVE",
    "inService": true,
    "licenseNumber": "550004752",
    "licenseEffectiveDate": "06/12/2025",
    "licenseExpirationDate": "06/11/2026",
    "dataDate": "10/18/2025",
    "capacity": 40,
    "address": "1411 EXPO PARKWAY",
    "city": "SACRAMENTO",
    "zip": "95815",
    "county": "SACRAMENTO",
    "phone": null,
    "lat": 38.598624,
    "lng": -121.457331
  },
  {
    "id": "630021362",
    "name": "AHC HOME CARE OF SACRAMENTO",
    "npi": null,
    "hcaiId": "406340020",
    "businessName": "AHC HOME HEALTH OF SACRAMENTO, LLC",
    "contactEmail": "JWALKER@AHCFACILITES.COM",
    "categoryName": "HOSPICE",
    "categoryCode": "HOSPICE",
    "licenseStatus": "ACTIVE",
    "inService": true,
    "licenseNumber": "550007638",
    "licenseEffectiveDate": "12/16/2023",
    "licenseExpirationDate": "12/15/2025",
    "dataDate": "10/18/2025",
    "capacity": 0,
    "address": "1411 EXPO PKWY, SUITE 140",
    "city": "SACRAMENTO",
    "zip": "95815",
    "county": "SACRAMENTO",
    "phone": "(916) 758-6300",
    "lat": 38.598624,
    "lng": -121.457331
  },
  {
    "id": "630021171",
    "name": "AHC HOME HEALTH OF SACRAMENTO",
    "npi": null,
    "hcaiId": "406347373",
    "businessName": "AHC HOME HEALTH OF SACRAMENTO, LLC",
    "contactEmail": "PWRIGHT@AHC.US",
    "categoryName": "HOME HEALTH AGENCY",
    "categoryCode": "HHA",
    "licenseStatus": "ACTIVE",
    "inService": true,
    "licenseNumber": "550008153",
    "licenseEffectiveDate": "09/12/2024",
    "licenseExpirationDate": "09/11/2025",
    "dataDate": "10/18/2025",
    "capacity": 0,
    "address": "1411 EXPO PKWY, SUITE 150",
    "city": "SACRAMENTO",
    "zip": "95815",
    "county": "SACRAMENTO",
    "phone": "(916) 758-6400",
    "lat": 38.598624,
    "lng": -121.457331
  },
  {
    "id": "630026709",
    "name": "ALPINE HOME HEALTH SERVICES LLC",
    "npi": null,
    "hcaiId": null,
    "businessName": "ALPINE HOME HEALTH SERVICES LLC",
    "contactEmail": "ALPINEHOMEHEALTHSERVICES@GMAIL.COM",
    "categoryName": "HOME HEALTH AGENCY",
    "categoryCode": "HHA",
    "licenseStatus": "ACTIVE",
    "inService": true,
    "licenseNumber": "550009287",
    "licenseEffectiveDate": "07/08/2025",
    "licenseExpirationDate": "07/07/2026",
    "dataDate": "10/18/2025",
    "capacity": 0,
    "address": "1600 SACRAMENTO INN WAY, SUITE 201",
    "city": "SACRAMENTO",
    "zip": "95815",
    "county": "SACRAMENTO",
    "phone": "(916) 426-7410",
    "lat": 38.6078236,
    "lng": -121.431548
  },
  {
    "id": "630024116",
    "name": "AMBASSADORE HEALTH CARE-SACRAMENTO, INC.",
    "npi": null,
    "hcaiId": "406345631",
    "businessName": "AMBASSADORE HEALTH CARE-SACRAMENTO, INC.",
    "contactEmail": "AHCISAC@AMBASSADOREHEALTHCARE.COM",
    "categoryName": "HOME HEALTH AGENCY",
    "categoryCode": "HHA",
    "licenseStatus": "ACTIVE",
    "inService": true,
    "licenseNumber": "550008181",
    "licenseEffectiveDate": "10/05/2025",
    "licenseExpirationDate": "10/04/2026",
    "dataDate": "10/18/2025",
    "capacity": 0,
    "address": "1851 HERITAGE LN, SUITE 281",
    "city": "SACRAMENTO",
    "zip": "95815",
    "county": "SACRAMENTO",
    "phone": "(916) 658-3002",
    "lat": 38.599245,
    "lng": -121.430385
  },
  {
    "id": "630015106",
    "name": "AMERICAN RIVER HOME CARE",
    "npi": "1811317811",
    "hcaiId": "406344215",
    "businessName": "AMERICAN RIVER HOME CARE",
    "contactEmail": "PMCMILLAN@AMERICANRIVERHEALTHCARE.COM",
    "categoryName": "HOME HEALTH AGENCY",
    "categoryCode": "HHA",
    "licenseStatus": "ACTIVE",
    "inService": true,
    "licenseNumber": "550002997",
    "licenseEffectiveDate": "02/25/2025",
    "licenseExpirationDate": "02/24/2026",
    "dataDate": "10/18/2025",
    "capacity": 0,
    "address": "1451 RIVER PARK DR, SUITE 244",
    "city": "SACRAMENTO",
    "zip": "95815",
    "county": "SACRAMENTO",
    "phone": "(916) 209-4400",
    "lat": 38.598651,
    "lng": -121.439673
  },
  {
    "id": "630018332",
    "name": "AMERICAN RIVER HOSPICE SERVICES",
    "npi": "1629564026",
    "hcaiId": "406341557",
    "businessName": "AMERICAN RIVER HOSPICE SERVICES",
    "contactEmail": "TBROWN@AMERICANRIVERHEALTHCARE.COM",
    "categoryName": "HOSPICE",
    "categoryCode": "HOSPICE",
    "licenseStatus": "ACTIVE",
    "inService": true,
    "licenseNumber": "550004587",
    "licenseEffectiveDate": "03/14/2025",
    "licenseExpirationDate": "03/13/2027",
    "dataDate": "10/18/2025",
    "capacity": 0,
    "address": "1451 RIVER PARK DR, SUITE 230",
    "city": "SACRAMENTO",
    "zip": "95815",
    "county": "SACRAMENTO",
    "phone": "(916) 209-4600",
    "lat": 38.598651,
    "lng": -121.439673
  },
  {
    "id": "630011868",
    "name": "AVEANNA HEALTHCARE",
    "npi": "1275764417",
    "hcaiId": "406344166",
    "businessName": "PREMIER HEALTHCARE SERVICES, LLC",
    "contactEmail": "PENNY.HAGENBUCH@AVEANNA.COM",
    "categoryName": "HOME HEALTH AGENCY",
    "categoryCode": "HHA",
    "licenseStatus": "ACTIVE",
    "inService": true,
    "licenseNumber": "550001269",
    "licenseEffectiveDate": "05/03/2025",
    "licenseExpirationDate": "05/02/2026",
    "dataDate": "10/18/2025",
    "capacity": 0,
    "address": "1601 RESPONSE ROAD, SUITE 250",
    "city": "SACRAMENTO",
    "zip": "95815",
    "county": "SACRAMENTO",
    "phone": "(916) 923-0881",
    "lat": 38.597607,
    "lng": -121.4293455
  },
  {
    "id": "630019978",
    "name": "BABCOCK ELEMENTARY",
    "npi": null,
    "hcaiId": null,
    "businessName": null,
    "contactEmail": null,
    "categoryName": "PRIMARY CARE CLINIC",
    "categoryCode": "COMTYC",
    "licenseStatus": null,
    "inService": null,
    "licenseNumber": null,
    "licenseEffectiveDate": null,
    "licenseExpirationDate": null,
    "dataDate": "10/18/2025",
    "capacity": 0,
    "address": "2400 CORMORANT WAY",
    "city": "SACRAMENTO",
    "zip": "95815",
    "county": "SACRAMENTO",
    "phone": null,
    "lat": 38.60919,
    "lng": -121.425984
  },
  {
    "id": "630018541",
    "name": "CAPITAL NEPHROLOGY ACCESS CENTER, LLC",
    "npi": "1275060303",
    "hcaiId": null,
    "businessName": null,
    "contactEmail": null,
    "categoryName": "SURGICAL CLINIC",
    "categoryCode": "ASC",
    "licenseStatus": null,
    "inService": null,
    "licenseNumber": null,
    "licenseEffectiveDate": null,
    "licenseExpirationDate": null,
    "dataDate": "10/18/2025",
    "capacity": 0,
    "address": "1111 EXPOSITION BLVD, SUITE 300",
    "city": "SACRAMENTO",
    "zip": "95815",
    "county": "SACRAMENTO",
    "phone": null,
    "lat": 38.599308,
    "lng": -121.449474
  },
  {
    "id": "030001795",
    "name": "CAPITOL CITY SURGERY CENTER",
    "npi": "1619974219",
    "hcaiId": "306344135",
    "businessName": null,
    "contactEmail": null,
    "categoryName": "SURGICAL CLINIC",
    "categoryCode": "ASC",
    "licenseStatus": "INACTIVE - CAPEN DECISION",
    "inService": false,
    "licenseNumber": "030000780",
    "licenseEffectiveDate": "11/18/2007",
    "licenseExpirationDate": "11/17/2008",
    "dataDate": "10/18/2025",
    "capacity": 0,
    "address": "1800 TRIBUTE ROAD, SUITE 100",
    "city": "SACRAMENTO",
    "zip": "95815",
    "county": "SACRAMENTO",
    "phone": "(916) 925-2700",
    "lat": 38.598858,
    "lng": -121.444983
  },
  {
    "id": "630017181",
    "name": "ELICA HEALTH CENTERS - MARYSVILLE",
    "npi": "1366051120",
    "hcaiId": null,
    "businessName": "ELICA HEALTH CENTERS",
    "contactEmail": null,
    "categoryName": "PRIMARY CARE CLINIC",
    "categoryCode": "COMTYC",
    "licenseStatus": "ACTIVE",
    "inService": true,
    "licenseNumber": "550006737",
    "licenseEffectiveDate": "09/08/2025",
    "licenseExpirationDate": "09/07/2026",
    "dataDate": "10/18/2025",
    "capacity": 0,
    "address": "3234 MARYSVILLE BLVD",
    "city": "SACRAMENTO",
    "zip": "95815",
    "county": "SACRAMENTO",
    "phone": "(916) 246-4743",
    "lat": 38.626371,
    "lng": -121.4322615
  },
  {
    "id": "630020119",
    "name": "EPIC HOMEHEALTH SERVICES",
    "npi": "1992350185",
    "hcaiId": "406343034",
    "businessName": "KEVIN & LUZ ENTERPRISES INC",
    "contactEmail": "MARKO_GUALBERTO@YAHOO.COM",
    "categoryName": "HOME HEALTH AGENCY",
    "categoryCode": "HHA",
    "licenseStatus": "ACTIVE",
    "inService": true,
    "licenseNumber": "550005961",
    "licenseEffectiveDate": "01/14/2025",
    "licenseExpirationDate": "01/13/2026",
    "dataDate": "10/18/2025",
    "capacity": 0,
    "address": "1600 SACRAMENTO INN WAY, SUITE 216",
    "city": "SACRAMENTO",
    "zip": "95815",
    "county": "SACRAMENTO",
    "phone": "(855) 916-7880",
    "lat": 38.60775,
    "lng": -121.429233
  },
  {
    "id": "630016329",
    "name": "GUARDIAN ANGEL HOME CARE OF SACRAMENTO LLC",
    "npi": "1215315429",
    "hcaiId": "406344241",
    "businessName": "GUARDIAN ANGEL HOME CARE  OF SACRAMENTO LLC",
    "contactEmail": "ADMIN@GAHC94.COM",
    "categoryName": "HOME HEALTH AGENCY",
    "categoryCode": "HHA",
    "licenseStatus": "ACTIVE",
    "inService": true,
    "licenseNumber": "550003966",
    "licenseEffectiveDate": "09/19/2025",
    "licenseExpirationDate": "09/18/2026",
    "dataDate": "10/18/2025",
    "capacity": 0,
    "address": "1451 RIVER PARK DRIVE, SUITE 225",
    "city": "SACRAMENTO",
    "zip": "95815",
    "county": "SACRAMENTO",
    "phone": "(916) 920-1720",
    "lat": 38.598651,
    "lng": -121.439673
  },
  {
    "id": "630020514",
    "name": "KH PRIME HOME HEALTH",
    "npi": null,
    "hcaiId": "406345313",
    "businessName": "ROYAL CARE ADULT DAY HEALTH CARE, INC",
    "contactEmail": "SKHATTAB@KHPRIMEHOSPICECARE.COM",
    "categoryName": "HOME HEALTH AGENCY",
    "categoryCode": "HHA",
    "licenseStatus": "ACTIVE",
    "inService": true,
    "licenseNumber": "550008004",
    "licenseEffectiveDate": "12/12/2024",
    "licenseExpirationDate": "05/17/2025",
    "dataDate": "10/18/2025",
    "capacity": 0,
    "address": "1401 EL CAMINO AVE, SUITE 230",
    "city": "SACRAMENTO",
    "zip": "95815",
    "county": "SACRAMENTO",
    "phone": "(916) 687-1817",
    "lat": 38.61140168,
    "lng": -121.4331611
  },
  {
    "id": "630021043",
    "name": "KH PRIME HOSPICE CARE",
    "npi": "1295400869",
    "hcaiId": "406345180",
    "businessName": "AMERICAN PRIME HEALTHCARE, INC.",
    "contactEmail": "HKUJOK@HOTMAIL.COM",
    "categoryName": "HOSPICE",
    "categoryCode": "HOSPICE",
    "licenseStatus": "ACTIVE",
    "inService": true,
    "licenseNumber": "550007611",
    "licenseEffectiveDate": "12/17/2023",
    "licenseExpirationDate": "12/16/2025",
    "dataDate": "10/18/2025",
    "capacity": 0,
    "address": "2180 HARVARD ST, SUITE 330",
    "city": "SACRAMENTO",
    "zip": "95815",
    "county": "SACRAMENTO",
    "phone": "(616) 418-4232",
    "lat": 38.6056773,
    "lng": -121.4345366
  },
  {
    "id": "100001207",
    "name": "MAXIM HEALTHCARE SERVICES, INC.",
    "npi": "1710940515",
    "hcaiId": "406344090",
    "businessName": "MAXIM HEALTHCARE SERVICES, INC.",
    "contactEmail": "SACRAMENTOHH@MAXHEALTH.COM",
    "categoryName": "HOME HEALTH AGENCY",
    "categoryCode": "HHA",
    "licenseStatus": "ACTIVE",
    "inService": true,
    "licenseNumber": "100000500",
    "licenseEffectiveDate": "11/20/2025",
    "licenseExpirationDate": "11/19/2026",
    "dataDate": "10/18/2025",
    "capacity": 0,
    "address": "1651 RESPONSE RD, SUITE 200",
    "city": "SACRAMENTO",
    "zip": "95815",
    "county": "SACRAMENTO",
    "phone": "(916) 974-2599",
    "lat": 38.596932,
    "lng": -121.428018
  },
  {
    "id": "630021103",
    "name": "NEW ERA HOSPICE, INC",
    "npi": null,
    "hcaiId": "406193290",
    "businessName": "NEW ERA HOSPICE, INC.",
    "contactEmail": "NEWERAHOSPICE@YAHOO.COM",
    "categoryName": "HOSPICE",
    "categoryCode": "HOSPICE",
    "licenseStatus": "ACTIVE",
    "inService": true,
    "licenseNumber": "550007105",
    "licenseEffectiveDate": "10/26/2023",
    "licenseExpirationDate": "10/25/2025",
    "dataDate": "10/18/2025",
    "capacity": 0,
    "address": "1600 SACRAMENTO INN WAY, SUITE 224",
    "city": "SACRAMENTO",
    "zip": "95815",
    "county": "SACRAMENTO",
    "phone": "(816) 222-0022",
    "lat": 38.60774608,
    "lng": -121.4292308
  },
  {
    "id": "630013687",
    "name": "NORTH SACRAMENTO DIALYSIS",
    "npi": "1427322411",
    "hcaiId": "306344186",
    "businessName": "GOLIAD DIALYSIS LLC",
    "contactEmail": "CAL_C@DAVITA.COM",
    "categoryName": "CHRONIC DIALYSIS CLINIC",
    "categoryCode": "ESRD/CDC",
    "licenseStatus": "ACTIVE",
    "inService": true,
    "licenseNumber": "550002055",
    "licenseEffectiveDate": "09/24/2025",
    "licenseExpirationDate": "09/23/2026",
    "dataDate": "10/18/2025",
    "capacity": 24,
    "address": "251 LATHROP WAY, SUITE A",
    "city": "SACRAMENTO",
    "zip": "95815",
    "county": "SACRAMENTO",
    "phone": "(916) 922-4721",
    "lat": 38.596095,
    "lng": -121.459653
  },
  {
    "id": "630014445",
    "name": "PROHEALTH HOME CARE, INC.",
    "npi": "1215375175",
    "hcaiId": "406344203",
    "businessName": "PROHEALTH HOME CARE, INC.",
    "contactEmail": "MARLEEN@PROHEALTH.US",
    "categoryName": "HOME HEALTH AGENCY",
    "categoryCode": "HHA",
    "licenseStatus": "ACTIVE",
    "inService": true,
    "licenseNumber": "550002614",
    "licenseEffectiveDate": "07/03/2025",
    "licenseExpirationDate": "03/10/2026",
    "dataDate": "10/18/2025",
    "capacity": 0,
    "address": "1420 RIVER PARK DR, SUITE 200",
    "city": "SACRAMENTO",
    "zip": "95815",
    "county": "SACRAMENTO",
    "phone": "(877) 667-8770",
    "lat": 38.59756706,
    "lng": -121.4392892
  },
  {
    "id": "630014493",
    "name": "PROHEALTH HOME CARE, INC.",
    "npi": "1497284145",
    "hcaiId": "406344204",
    "businessName": "PROHEALTH HOME CARE, INC.",
    "contactEmail": "MARLEEN@PROHEALTH.US",
    "categoryName": "HOSPICE",
    "categoryCode": "HOSPICE",
    "licenseStatus": "ACTIVE",
    "inService": true,
    "licenseNumber": "550002615",
    "licenseEffectiveDate": "06/11/2025",
    "licenseExpirationDate": "03/10/2026",
    "dataDate": "10/18/2025",
    "capacity": 0,
    "address": "1420 RIVER PARK DR, SUITE 200A",
    "city": "SACRAMENTO",
    "zip": "95815",
    "county": "SACRAMENTO",
    "phone": "(877) 267-1960",
    "lat": 38.59756706,
    "lng": -121.4392892
  },
  {
    "id": "630020794",
    "name": "SACRAMENTO BEHAVIORAL HEALTHCARE HOSPITAL, LLC",
    "npi": "1811549504",
    "hcaiId": "106344210",
    "businessName": "SACRAMENTO BEHAVIORAL HEALTHCARE HOSPITAL, LLC",
    "contactEmail": "NATHAN.JENSEN@SIGNATUREHC.COM",
    "categoryName": "ACUTE PSYCHIATRIC HOSPITAL",
    "categoryCode": "APH",
    "licenseStatus": "ACTIVE",
    "inService": true,
    "licenseNumber": "550007457",
    "licenseEffectiveDate": "12/17/2024",
    "licenseExpirationDate": "12/16/2025",
    "dataDate": "10/18/2025",
    "capacity": 117,
    "address": "1400 EXPO PKWY",
    "city": "SACRAMENTO",
    "zip": "95815",
    "county": "SACRAMENTO",
    "phone": "(916) 437-6412",
    "lat": 38.597067,
    "lng": -121.457286
  },
  {
    "id": "630000481",
    "name": "SACRAMENTO COMMUNITY CLINIC - DEL PASO",
    "npi": null,
    "hcaiId": "306344147",
    "businessName": "HEALTH AND LIFE ORGANIZATION, INC. (H.A.L.O.)",
    "contactEmail": "FINANCE@HALOCARES.ORG",
    "categoryName": "PRIMARY CARE CLINIC",
    "categoryCode": "COMTYC",
    "licenseStatus": "ACTIVE",
    "inService": true,
    "licenseNumber": "550007931",
    "licenseEffectiveDate": "03/31/2025",
    "licenseExpirationDate": "03/30/2026",
    "dataDate": "10/18/2025",
    "capacity": 0,
    "address": "2200 DEL PASO BOULEVARD",
    "city": "SACRAMENTO",
    "zip": "95815",
    "county": "SACRAMENTO",
    "phone": "(916) 924-7988",
    "lat": 38.609919,
    "lng": -121.450536
  },
  {
    "id": "630014010",
    "name": "SACRAMENTO COMMUNITY CLINIC - DEL PASO DENTAL",
    "npi": "1306198296",
    "hcaiId": "306344198",
    "businessName": "HEALTH AND LIFE ORGANIZATION, INC. (H.A.L.O.)",
    "contactEmail": "AMOUA1086@GMAIL.ORG",
    "categoryName": "PRIMARY CARE CLINIC",
    "categoryCode": "COMTYC",
    "licenseStatus": "ACTIVE",
    "inService": true,
    "licenseNumber": "550002436",
    "licenseEffectiveDate": "10/04/2025",
    "licenseExpirationDate": "10/03/2026",
    "dataDate": "10/18/2025",
    "capacity": 0,
    "address": "2138 DEL PASO BOULEVARD",
    "city": "SACRAMENTO",
    "zip": "95815",
    "county": "SACRAMENTO",
    "phone": "(559) 389-8254",
    "lat": 38.609748,
    "lng": -121.4510535
  },
  {
    "id": "630025125",
    "name": "SACRAMENTO COMMUNITY CLINIC - EL CAMINO",
    "npi": "1427715515",
    "hcaiId": "306340735",
    "businessName": "HEALTH AND LIFE ORGANIZATION, INC. (H.A.L.O.)",
    "contactEmail": "JBLIATOUT@SBCGLOBAL.NET",
    "categoryName": "PRIMARY CARE CLINIC",
    "categoryCode": "COMTYC",
    "licenseStatus": "ACTIVE",
    "inService": true,
    "licenseNumber": "550007931",
    "licenseEffectiveDate": "03/31/2025",
    "licenseExpirationDate": "03/30/2026",
    "dataDate": "10/18/2025",
    "capacity": 0,
    "address": "965 EL CAMINO AVE",
    "city": "SACRAMENTO",
    "zip": "95815",
    "county": "SACRAMENTO",
    "phone": "(916) 600-8738",
    "lat": 38.611638,
    "lng": -121.4444745
  },
  {
    "id": "630017944",
    "name": "SOUVENIR HOSPICE AND PALLIATIVE CARE",
    "npi": null,
    "hcaiId": "406342639",
    "businessName": "SOUVENIR HOSPICE AND PALLIATIVE CARE, INC.",
    "contactEmail": "INFO@BLIZECARE.COM",
    "categoryName": "HOSPICE",
    "categoryCode": "HOSPICE",
    "licenseStatus": "ACTIVE",
    "inService": true,
    "licenseNumber": "550004423",
    "licenseEffectiveDate": "09/25/2022",
    "licenseExpirationDate": "09/24/2024",
    "dataDate": "10/18/2025",
    "capacity": 0,
    "address": "1451 RIVER PARK DR, SUITE 222",
    "city": "SACRAMENTO",
    "zip": "95815",
    "county": "SACRAMENTO",
    "phone": "(925) 878-1093",
    "lat": 38.598651,
    "lng": -121.439673
  }
]