[
  {
    "id": "100000170",
    "name": "ALTA'S ICF, INC.",
    "npi": "1760658157",
    "hcaiId": null,
    "businessName": "ALTA'S ICF, INC",
    "contactEmail": "KYLEBRANDT@COMCAST.NET",
    "categoryName": "INTERMEDIATE CARE FACILITY-DD/H/N/CN/IID",
    "categoryCode": "ICFDDH",
    "licenseStatus": "ACTIVE",
    "inService": true,
    "licenseNumber": "100000225",
    "licenseEffectiveDate": "05/08/2025",
    "licenseExpirationDate": "05/07/2026",
    "dataDate": "10/18/2025",
    "capacity": 14,
    "address": "7820 FRUITRIDGE ROAD",
    "city": "SACRAMENTO",
    "zip": "95820",
    "county": "SACRAMENTO",
    "phone": "(916) 381-1594",
    "lat": 38.524725,
    "lng": -121.412412
  },
  {
    "id": "630016499",
    "name": "DIVISION OF PRIMARY HEALTH SERVICES",
    "npi": null,
    "hcaiId": null,
    "businessName": null,
    "contactEmail": null,
    "categoryName": "PRIMARY CARE CLINIC",
    "categoryCode": "FQHC",
    "licenseStatus": null,
    "inService": null,
    "licenseNumber": null,
    "licenseEffectiveDate": null,
    "licenseExpirationDate": null,
    "dataDate": "10/18/2025",
    "capacity": 0,
    "address": "4600 BROADWAY",
    "city": "SACRAMENTO",
    "zip": "95820",
    "county": "SACRAMENTO",
    "phone": null,
    "lat": 38.546127,
    "lng": -121.452669
  },
  {
    "id": "630017180",
    "name": "ELICA HEALTH CENTERS - FRANKLIN MEDICAL CENTER",
    "npi": "1366051120",
    "hcaiId": null,
    "businessName": "ELICA HEALTH CENTERS",
    "contactEmail": null,
    "categoryName": "PRIMARY CARE CLINIC",
    "categoryCode": "COMTYC",
    "licenseStatus": "ACTIVE",
    "inService": true,
    "licenseNumber": "550006737",
    "licenseEffectiveDate": "09/08/2025",
    "licenseExpirationDate": "09/07/2026",
    "dataDate": "10/18/2025",
    "capacity": 0,
    "address": "5385 FRANKLIN BLVD, SUITE K",
    "city": "SACRAMENTO",
    "zip": "95820",
    "county": "SACRAMENTO",
    "phone": null,
    "lat": 38.526183,
    "lng": -121.4714295
  },
  {
    "id": "030000786",
    "name": "PLANNED PARENTHOOD MAR MONTE - FRUITRIDGE HEALTH CENTER",
    "npi": "1679526610",
    "hcaiId": "306344013",
    "businessName": "PLANNED PARENTHOOD MAR MONTE, INC.",
    "contactEmail": "SERVICESAD@PPMARMONTE.ORG",
    "categoryName": "PRIMARY CARE CLINIC",
    "categoryCode": "COMTYC",
    "licenseStatus": "ACTIVE",
    "inService": true,
    "licenseNumber": "030000344",
    "licenseEffectiveDate": "11/01/2025",
    "licenseExpirationDate": "10/31/2026",
    "dataDate": "10/18/2025",
    "capacity": 0,
    "address": "5385 FRANKLIN BOULEVARD, SUITE A THRU D",
    "city": "SACRAMENTO",
    "zip": "95820",
    "county": "SACRAMENTO",
    "phone": "(408) 795-3695",
    "lat": 38.526282,
    "lng": -121.471398
  },
  {
    "id": "630027005",
    "name": "UC DAVIS REHABILITATION HOSPITAL",
    "npi": null,
    "hcaiId": "106340025",
    "businessName": "SACRAMENTO SIERRA REHABILITATION HOSPITAL, LLC",
    "contactEmail": "DENNIS.SINDELAR@UCDRH.COM",
    "categoryName": "GENERAL ACUTE CARE HOSPITAL",
    "categoryCode": "GACH",
    "licenseStatus": "ACTIVE",
    "inService": true,
    "licenseNumber": "550008538",
    "licenseEffectiveDate": "05/17/2025",
    "licenseExpirationDate": "05/16/2026",
    "dataDate": "10/18/2025",
    "capacity": 52,
    "address": "4875 BROADWAY",
    "city": "SACRAMENTO",
    "zip": "95820",
    "county": "SACRAMENTO",
    "phone": "(279) 224-6001",
    "lat": 38.547522,
    "lng": -121.4509995
  },
  {
    "id": "630014371",
    "name": "WELLSPACE HEALTH AT BOULEVARD COURT",
    "npi": null,
    "hcaiId": null,
    "businessName": "WELLSPACE HEALTH",
    "contactEmail": "INFO@WELLSPACEHEALTH.ORG",
    "categoryName": "PRIMARY CARE CLINIC",
    "categoryCode": "COMTYC",
    "licenseStatus": "ACTIVE",
    "inService": true,
    "licenseNumber": "550001216",
    "licenseEffectiveDate": "02/09/2025",
    "licenseExpirationDate": "02/08/2026",
    "dataDate": "10/18/2025",
    "capacity": 0,
    "address": "5321 STOCKTON BOULEVARD",
    "city": "SACRAMENTO",
    "zip": "95820",
    "county": "SACRAMENTO",
    "phone": "(916) 737-5555",
    "lat": 38.527101,
    "lng": -121.442508
  },
  {
    "id": "630025248",
    "name": "WELLSPACE HEALTH GREGORY BUNKER COMMUNITY HEALTH CENTER",
    "npi": "1669982237",
    "hcaiId": null,
    "businessName": "WELLSPACE HEALTH",
    "contactEmail": "MAIHER@WELLSPACEHEALTH.ORG",
    "categoryName": "PRIMARY CARE CLINIC",
    "categoryCode": "FQHC/COMTYC",
    "licenseStatus": "ACTIVE",
    "inService": true,
    "licenseNumber": "550004588",
    "licenseEffectiveDate": "02/04/2025",
    "licenseExpirationDate": "02/03/2026",
    "dataDate": "10/18/2025",
    "capacity": 0,
    "address": "4990 STOCKTON BLVD",
    "city": "SACRAMENTO",
    "zip": "95820",
    "county": "SACRAMENTO",
    "phone": "(916) 822-8972",
    "lat": 38.530107,
    "lng": -121.4459055
  }
]