[
  {
    "id": "100000962",
    "name": "CAPITAL POST ACUTE",
    "npi": "1437896081",
    "hcaiId": "206342204",
    "businessName": "CAPITAL POST ACUTE, LLC",
    "contactEmail": "TPARK@CAPITALPOSTACUTE.COM",
    "categoryName": "SKILLED NURSING FACILITY",
    "categoryCode": "SNF",
    "licenseStatus": "ACTIVE",
    "inService": true,
    "licenseNumber": "100000398",
    "licenseEffectiveDate": "11/10/2024",
    "licenseExpirationDate": "11/09/2025",
    "dataDate": "10/18/2025",
    "capacity": 121,
    "address": "6821 24TH STREET",
    "city": "SACRAMENTO",
    "zip": "95822",
    "county": "SACRAMENTO",
    "phone": "(916) 391-6011",
    "lat": 38.502369,
    "lng": -121.4818695
  },
  {
    "id": "100000089",
    "name": "CEDARWOOD POST ACUTE",
    "npi": "1639826803",
    "hcaiId": "206340998",
    "businessName": "CEDARWOOD POST ACUTE, LLC",
    "contactEmail": "BMCCORMACK@CEDARWOODPOSTACUTE.COM",
    "categoryName": "SKILLED NURSING FACILITY",
    "categoryCode": "SNF",
    "licenseStatus": "ACTIVE",
    "inService": true,
    "licenseNumber": "100000082",
    "licenseEffectiveDate": "09/13/2025",
    "licenseExpirationDate": "09/12/2026",
    "dataDate": "10/18/2025",
    "capacity": 51,
    "address": "1090 RIO LANE",
    "city": "SACRAMENTO",
    "zip": "95822",
    "county": "SACRAMENTO",
    "phone": "(916) 446-2506",
    "lat": 38.532051,
    "lng": -121.518684
  },
  {
    "id": "100000059",
    "name": "DOUBLE TREE POST ACUTE CARE CENTER",
    "npi": "1528585338",
    "hcaiId": "206342201",
    "businessName": "7400 24TH STREET, LLC",
    "contactEmail": "JASON.POLLOCK@DOUBLETREEPA.COM",
    "categoryName": "SKILLED NURSING FACILITY",
    "categoryCode": "SNF",
    "licenseStatus": "ACTIVE",
    "inService": true,
    "licenseNumber": "100000147",
    "licenseEffectiveDate": "10/26/2025",
    "licenseExpirationDate": "10/25/2026",
    "dataDate": "10/18/2025",
    "capacity": 122,
    "address": "7400 24TH STREET",
    "city": "SACRAMENTO",
    "zip": "95822",
    "county": "SACRAMENTO",
    "phone": "(916) 422-4825",
    "lat": 38.489436,
    "lng": -121.481172
  }
]