[
  {
    "id": "630023510",
    "name": "ALPHA LATREIA HEALTH SERVICES, LLC",
    "npi": null,
    "hcaiId": null,
    "businessName": "ALPHA LATREIA HEALTH SERVICES, LLC",
    "contactEmail": "ALPHA.LATREIA@GMAIL.COM",
    "categoryName": "HOME HEALTH AGENCY",
    "categoryCode": "HHA",
    "licenseStatus": "ACTIVE",
    "inService": true,
    "licenseNumber": "550008727",
    "licenseEffectiveDate": "09/01/2025",
    "licenseExpirationDate": "08/31/2026",
    "dataDate": "10/18/2025",
    "capacity": 0,
    "address": "3050 FITE CIR, SUITE 210",
    "city": "SACRAMENTO",
    "zip": "95827",
    "county": "SACRAMENTO",
    "phone": "(916) 975-0550",
    "lat": 38.574693,
    "lng": -121.323906
  },
  {
    "id": "630025235",
    "name": "ANGELS HOME HEALTH AGENCY INC",
    "npi": null,
    "hcaiId": "406347953",
    "businessName": "ANGELS HOME HEALTH AGENCY INC",
    "contactEmail": "ANGELSHOMEHEALTH2021@GMAIL.COM",
    "categoryName": "HOME HEALTH AGENCY",
    "categoryCode": "HHA",
    "licenseStatus": "ACTIVE",
    "inService": true,
    "licenseNumber": "550008606",
    "licenseEffectiveDate": "06/02/2025",
    "licenseExpirationDate": "06/01/2026",
    "dataDate": "10/18/2025",
    "capacity": 0,
    "address": "3353 BRADSHAW RD, SUITE 211",
    "city": "SACRAMENTO",
    "zip": "95827",
    "county": "SACRAMENTO",
    "phone": "(916) 610-1004",
    "lat": 38.562822,
    "lng": -121.335534
  },
  {
    "id": "630018673",
    "name": "BIG HEARTS HOSPICE CARE",
    "npi": "1366907685",
    "hcaiId": "406341837",
    "businessName": "BIG HEARTS HOSPICE CARE",
    "contactEmail": "BIGHEARTSHOSPICE@GMAIL.COM",
    "categoryName": "HOSPICE",
    "categoryCode": "HOSPICE",
    "licenseStatus": "ACTIVE",
    "inService": true,
    "licenseNumber": "550004901",
    "licenseEffectiveDate": "08/08/2025",
    "licenseExpirationDate": "08/07/2027",
    "dataDate": "10/18/2025",
    "capacity": 0,
    "address": "9812 OLD WINERY PL, SUITE 4",
    "city": "SACRAMENTO",
    "zip": "95827",
    "county": "SACRAMENTO",
    "phone": "(916) 389-0877",
    "lat": 38.573541,
    "lng": -121.331061
  },
  {
    "id": "630019760",
    "name": "BLESSED HEARTS HOME HEALTH CARE INC.",
    "npi": "1386296408",
    "hcaiId": "406342781",
    "businessName": "BLESSED HEARTS HOME HEALTH CARE INC.",
    "contactEmail": "NIETO@BLESSEDHEARTSHHC.COM",
    "categoryName": "HOME HEALTH AGENCY",
    "categoryCode": "HHA",
    "licenseStatus": "ACTIVE",
    "inService": true,
    "licenseNumber": "550005547",
    "licenseEffectiveDate": "06/26/2025",
    "licenseExpirationDate": "06/25/2026",
    "dataDate": "10/18/2025",
    "capacity": 0,
    "address": "3105 FITE CIR, SUITE 105",
    "city": "SACRAMENTO",
    "zip": "95827",
    "county": "SACRAMENTO",
    "phone": "(916) 588-2458",
    "lat": 38.573109,
    "lng": -121.3238475
  },
  {
    "id": "630018476",
    "name": "HEALTH AND HOPE HOME HEALTH, INC.",
    "npi": "1700356813",
    "hcaiId": "406342227",
    "businessName": "HEALTH AND HOPE HOME HEALTH, INC.",
    "contactEmail": "ABKHOMEHEALTH@GMAIL.COM",
    "categoryName": "HOME HEALTH AGENCY",
    "categoryCode": "HHA",
    "licenseStatus": "ACTIVE",
    "inService": true,
    "licenseNumber": "550004850",
    "licenseEffectiveDate": "08/08/2025",
    "licenseExpirationDate": "08/07/2026",
    "dataDate": "10/18/2025",
    "capacity": 0,
    "address": "9837 FOLSOM BLVD, SUITE D",
    "city": "SACRAMENTO",
    "zip": "95827",
    "county": "SACRAMENTO",
    "phone": "(916) 573-3840",
    "lat": 38.575728,
    "lng": -121.3306695
  },
  {
    "id": "630016152",
    "name": "LATREIA HEALTHCARE SERVICES, INC.",
    "npi": "1083094817",
    "hcaiId": "406344242",
    "businessName": "LATREIA HEALTHCARE SERVICES, INC",
    "contactEmail": "ADMIN.BRYAN@LATREIAHEALTHCARE.COM",
    "categoryName": "HOSPICE",
    "categoryCode": "HOSPICE",
    "licenseStatus": "ACTIVE",
    "inService": true,
    "licenseNumber": "550004000",
    "licenseEffectiveDate": "10/25/2023",
    "licenseExpirationDate": "10/24/2025",
    "dataDate": "10/18/2025",
    "capacity": 0,
    "address": "3090 FITE CIR, SUITE 101",
    "city": "SACRAMENTO",
    "zip": "95827",
    "county": "SACRAMENTO",
    "phone": "(916) 476-6519",
    "lat": 38.574693,
    "lng": -121.323906
  },
  {
    "id": "630017828",
    "name": "LOVE JOY ADULT DAY HEALTH CARE CENTER",
    "npi": null,
    "hcaiId": null,
    "businessName": "LOVEJOY HOMECARE LLC",
    "contactEmail": "LOVEJOYHOMECARE@GMAIL.COM",
    "categoryName": "ADULT DAY HEALTH CARE",
    "categoryCode": "ADHC",
    "licenseStatus": "ACTIVE",
    "inService": true,
    "licenseNumber": "550004490",
    "licenseEffectiveDate": "01/03/2025",
    "licenseExpirationDate": "01/02/2026",
    "dataDate": "10/18/2025",
    "capacity": 0,
    "address": "10293 ROCKINGHAM DR",
    "city": "SACRAMENTO",
    "zip": "95827",
    "county": "SACRAMENTO",
    "phone": "(916) 661-6194",
    "lat": 38.574261,
    "lng": -121.307373
  },
  {
    "id": "110001246",
    "name": "RANCHO DIALYSIS CLINIC",
    "npi": "1598798076",
    "hcaiId": "306344136",
    "businessName": "DIALYSIS CLINIC, INC.",
    "contactEmail": "ERIC.LENZ@DCIINC.ORG",
    "categoryName": "CHRONIC DIALYSIS CLINIC",
    "categoryCode": "ESRD/CDC",
    "licenseStatus": "ACTIVE",
    "inService": true,
    "licenseNumber": "110000513",
    "licenseEffectiveDate": "05/24/2025",
    "licenseExpirationDate": "05/23/2026",
    "dataDate": "10/18/2025",
    "capacity": 16,
    "address": "10294 ROCKINGHAM DRIVE",
    "city": "SACRAMENTO",
    "zip": "95827",
    "county": "SACRAMENTO",
    "phone": "(916) 769-2856",
    "lat": 38.57364,
    "lng": -121.3073865
  },
  {
    "id": "630016183",
    "name": "SACRAMENTO COMMUNITY CLINIC - EXPLORER",
    "npi": "1144600248",
    "hcaiId": "306344212",
    "businessName": "HEALTH AND LIFE ORGANIZATION, INC. (H.A.L.O.)",
    "contactEmail": "AMOUA1086@GMAIL.COM",
    "categoryName": "PRIMARY CARE CLINIC",
    "categoryCode": "COMTYC",
    "licenseStatus": "ACTIVE",
    "inService": true,
    "licenseNumber": "550003259",
    "licenseEffectiveDate": "10/20/2025",
    "licenseExpirationDate": "10/19/2026",
    "dataDate": "10/18/2025",
    "capacity": 0,
    "address": "3030 EXPLORER DRIVE",
    "city": "SACRAMENTO",
    "zip": "95827",
    "county": "SACRAMENTO",
    "phone": "(559) 389-8254",
    "lat": 38.563353,
    "lng": -121.332429
  },
  {
    "id": "630026582",
    "name": "SACRAMENTO FAMILY HOME HEALTH, INC.",
    "npi": null,
    "hcaiId": null,
    "businessName": "SACRAMENTO FAMILY HOME HEALTH",
    "contactEmail": "SACRAMENTOFAMILYHOMEHEALTH@GMAIL.COM",
    "categoryName": "HOME HEALTH AGENCY",
    "categoryCode": "HHA",
    "licenseStatus": "ACTIVE",
    "inService": true,
    "licenseNumber": "550009610",
    "licenseEffectiveDate": "06/16/2025",
    "licenseExpirationDate": "12/15/2025",
    "dataDate": "10/18/2025",
    "capacity": 0,
    "address": "3054 FITE CIR, SUITE 107",
    "city": "SACRAMENTO",
    "zip": "95827",
    "county": "SACRAMENTO",
    "phone": "(916) 306-3333",
    "lat": 38.574693,
    "lng": -121.323906
  },
  {
    "id": "630013980",
    "name": "WELLSPACE HEALTH RANCHO CORDOVA COMMUNITY HEALTH CENTER",
    "npi": "1437404654",
    "hcaiId": "306344189",
    "businessName": "WELLSPACE HEALTH",
    "contactEmail": "INFO@WELLSPACEHEALTH.ORG",
    "categoryName": "PRIMARY CARE CLINIC",
    "categoryCode": "COMTYC",
    "licenseStatus": "ACTIVE",
    "inService": true,
    "licenseNumber": "550004588",
    "licenseEffectiveDate": "02/04/2025",
    "licenseExpirationDate": "02/03/2026",
    "dataDate": "10/18/2025",
    "capacity": 0,
    "address": "10423 OLD PLACERVILLE ROAD, SUITE A",
    "city": "SACRAMENTO",
    "zip": "95827",
    "county": "SACRAMENTO",
    "phone": "(916) 737-5555",
    "lat": 38.570382,
    "lng": -121.3075395
  }
]