[
  {
    "id": "630027187",
    "name": "ABBACARE AT HOME",
    "npi": null,
    "hcaiId": null,
    "businessName": "ABBACARE AT HOME CORP",
    "contactEmail": "JONATHAN.SUSAS@ABBACAREHEALTH.COM",
    "categoryName": "HOME HEALTH AGENCY",
    "categoryCode": "HHA",
    "licenseStatus": "ACTIVE",
    "inService": true,
    "licenseNumber": "550009588",
    "licenseEffectiveDate": "07/03/2025",
    "licenseExpirationDate": "01/02/2026",
    "dataDate": "10/18/2025",
    "capacity": 0,
    "address": "3800 WATT AVE, SUITE 201",
    "city": "SACRAMENTO",
    "zip": "95821",
    "county": "SACRAMENTO",
    "phone": "(916) 777-8800",
    "lat": 38.63441898,
    "lng": -121.3818413
  },
  {
    "id": "630027529",
    "name": "ARROWCARE HOME HEALTH",
    "npi": null,
    "hcaiId": null,
    "businessName": "ARROWCARE HOME HEALTH, LLC",
    "contactEmail": "ARROWCAREHH@GMAIL.COM",
    "categoryName": "HOME HEALTH AGENCY",
    "categoryCode": "HHA",
    "licenseStatus": "ACTIVE",
    "inService": true,
    "licenseNumber": "550009607",
    "licenseEffectiveDate": "05/23/2025",
    "licenseExpirationDate": "11/22/2025",
    "dataDate": "10/18/2025",
    "capacity": 0,
    "address": "3550 WATT AVE, SUITE 110",
    "city": "SACRAMENTO",
    "zip": "95821",
    "county": "SACRAMENTO",
    "phone": "(916) 979-7050",
    "lat": 38.6301147,
    "lng": -121.3819255
  },
  {
    "id": "630027220",
    "name": "COMMUNITY HEALTH CENTERS OF AMERICA",
    "npi": null,
    "hcaiId": null,
    "businessName": "COMMUNITY HEALTH CENTERS OF AMERICA",
    "contactEmail": null,
    "categoryName": "PRIMARY CARE CLINIC",
    "categoryCode": "COMTYC",
    "licenseStatus": "ACTIVE",
    "inService": true,
    "licenseNumber": "550005091",
    "licenseEffectiveDate": "11/07/2025",
    "licenseExpirationDate": "11/06/2026",
    "dataDate": "10/18/2025",
    "capacity": 0,
    "address": "2928 EASTERN AVE",
    "city": "SACRAMENTO",
    "zip": "95821",
    "county": "SACRAMENTO",
    "phone": null,
    "lat": 38.61870366,
    "lng": -121.3635913
  },
  {
    "id": "030000266",
    "name": "GREATER SACRAMENTO SURGERY CENTER",
    "npi": "1255309803",
    "hcaiId": "306341088",
    "businessName": "GREATER SACRAMENTO SURGERY CENTER",
    "contactEmail": "SKALEY@COVAD.NET",
    "categoryName": "SURGICAL CLINIC",
    "categoryCode": "ASC",
    "licenseStatus": "INACTIVE - CAPEN DECISION",
    "inService": false,
    "licenseNumber": "030000116",
    "licenseEffectiveDate": "06/01/2007",
    "licenseExpirationDate": "05/31/2008",
    "dataDate": "10/18/2025",
    "capacity": 0,
    "address": "2288 AUBURN BOULEVARD, SUITE 201",
    "city": "SACRAMENTO",
    "zip": "95821",
    "county": "SACRAMENTO",
    "phone": "(916) 929-7229",
    "lat": 38.625327,
    "lng": -121.4114715
  },
  {
    "id": "100001350",
    "name": "RX STAFFING AND HOME CARE",
    "npi": "1003026220",
    "hcaiId": "406344108",
    "businessName": "RX STAFFING AND HOME CARE, INC.",
    "contactEmail": "JSHARPE@RXNURSING.COM",
    "categoryName": "HOME HEALTH AGENCY",
    "categoryCode": "HHA",
    "licenseStatus": "ACTIVE",
    "inService": true,
    "licenseNumber": "100000563",
    "licenseEffectiveDate": "11/29/2024",
    "licenseExpirationDate": "11/28/2025",
    "dataDate": "10/18/2025",
    "capacity": 0,
    "address": "4640 MARCONI AVENUE, SUITE 8",
    "city": "SACRAMENTO",
    "zip": "95821",
    "county": "SACRAMENTO",
    "phone": "(916) 485-8200",
    "lat": 38.617164,
    "lng": -121.3560585
  },
  {
    "id": "630015356",
    "name": "RX STAFFING HOSPICE CARE",
    "npi": null,
    "hcaiId": "406344237",
    "businessName": "RX STAFFING AND HOME CARE, INC.",
    "contactEmail": "INFO@RXNURSING.COM",
    "categoryName": "HOSPICE",
    "categoryCode": "HOSPICE",
    "licenseStatus": "ACTIVE",
    "inService": true,
    "licenseNumber": "550003073",
    "licenseEffectiveDate": "05/15/2025",
    "licenseExpirationDate": "05/14/2027",
    "dataDate": "10/18/2025",
    "capacity": 0,
    "address": "4640 MARCONI AVENUE, SUITE 5",
    "city": "SACRAMENTO",
    "zip": "95821",
    "county": "SACRAMENTO",
    "phone": "(916) 570-3060",
    "lat": 38.617164,
    "lng": -121.3560585
  },
  {
    "id": "630011550",
    "name": "SATELLITE WELLBOUND OF SACRAMENTO",
    "npi": "1942306188",
    "hcaiId": null,
    "businessName": null,
    "contactEmail": null,
    "categoryName": "CHRONIC DIALYSIS CLINIC",
    "categoryCode": "ESRD",
    "licenseStatus": null,
    "inService": null,
    "licenseNumber": null,
    "licenseEffectiveDate": null,
    "licenseExpirationDate": null,
    "dataDate": "10/18/2025",
    "capacity": 0,
    "address": "2629 MARCONI AVE",
    "city": "SACRAMENTO",
    "zip": "95821",
    "county": "SACRAMENTO",
    "phone": "(916) 486-8005",
    "lat": 38.619288,
    "lng": -121.399884
  },
  {
    "id": "630017933",
    "name": "WELLSPACE HEALTH ARDEN ARCADE COMMUNITY HEALTH CENTER",
    "npi": "1548789050",
    "hcaiId": "306340542",
    "businessName": "WELLSPACE HEALTH",
    "contactEmail": "MAIHER@WELLSPACEHEALTH.ORG",
    "categoryName": "PRIMARY CARE CLINIC",
    "categoryCode": "COMTYC",
    "licenseStatus": "ACTIVE",
    "inService": true,
    "licenseNumber": "550004588",
    "licenseEffectiveDate": "02/04/2025",
    "licenseExpirationDate": "02/03/2026",
    "dataDate": "10/18/2025",
    "capacity": 0,
    "address": "2433 MARCONI AVE",
    "city": "SACRAMENTO",
    "zip": "95821",
    "county": "SACRAMENTO",
    "phone": "(916) 822-8972",
    "lat": 38.619405,
    "lng": -121.4045595
  },
  {
    "id": "630014269",
    "name": "WELLSPACE HEALTH AT TCORE",
    "npi": null,
    "hcaiId": null,
    "businessName": null,
    "contactEmail": "INFO@WELLSPACEHEALTH.ORG",
    "categoryName": "PRIMARY CARE CLINIC",
    "categoryCode": "COMTYC",
    "licenseStatus": null,
    "inService": null,
    "licenseNumber": null,
    "licenseEffectiveDate": null,
    "licenseExpirationDate": null,
    "dataDate": "10/18/2025",
    "capacity": 0,
    "address": "3737 MARCONI AVENUE",
    "city": "SACRAMENTO",
    "zip": "95821",
    "county": "SACRAMENTO",
    "phone": "(916) 737-5555",
    "lat": 38.618109,
    "lng": -121.3764615
  }
]