[
  {
    "id": "630027864",
    "name": "AA AFFINITY HEALTHCARE, LLC",
    "npi": null,
    "hcaiId": null,
    "businessName": "AA AFFINITY HEALTHCARE, LLC",
    "contactEmail": "AA.AFFINITYHC@GMAIL.COM",
    "categoryName": "HOME HEALTH AGENCY",
    "categoryCode": "HHA",
    "licenseStatus": "ACTIVE",
    "inService": true,
    "licenseNumber": "550009845",
    "licenseEffectiveDate": "12/02/2025",
    "licenseExpirationDate": "06/01/2026",
    "dataDate": "10/18/2025",
    "capacity": 0,
    "address": "5665 POWER INN RD, SUITE 152",
    "city": "SACRAMENTO",
    "zip": "95824",
    "county": "SACRAMENTO",
    "phone": "(916) 895-9282",
    "lat": 38.52437037,
    "lng": -121.4081341
  },
  {
    "id": "100000091",
    "name": "BRIDGEWOOD POST ACUTE",
    "npi": "1932856200",
    "hcaiId": "206341002",
    "businessName": "BRIDGEWOOD POST ACUTE, LLC",
    "contactEmail": "RSCHULZ@BRIDGEWOODPOSTACUTE.COM",
    "categoryName": "SKILLED NURSING FACILITY",
    "categoryCode": "SNF",
    "licenseStatus": "ACTIVE",
    "inService": true,
    "licenseNumber": "100000084",
    "licenseEffectiveDate": "09/16/2025",
    "licenseExpirationDate": "09/15/2026",
    "dataDate": "10/18/2025",
    "capacity": 49,
    "address": "5901 LEMON HILL AVENUE",
    "city": "SACRAMENTO",
    "zip": "95824",
    "county": "SACRAMENTO",
    "phone": "(916) 383-2741",
    "lat": 38.516274,
    "lng": -121.4365905
  },
  {
    "id": "100000201",
    "name": "PRESIDENT JOHN ADAMS MANOR III - FALCONER",
    "npi": "1265658892",
    "hcaiId": null,
    "businessName": "PRESIDENT JOHN ADAMS MANOR III",
    "contactEmail": "DDRMDOUGLAS@MSN.COM",
    "categoryName": "INTERMEDIATE CARE FACILITY-DD/H/N/CN/IID",
    "categoryCode": "ICFDDH",
    "licenseStatus": "ACTIVE",
    "inService": true,
    "licenseNumber": "100000236",
    "licenseEffectiveDate": "04/30/2024",
    "licenseExpirationDate": "04/29/2025",
    "dataDate": "10/18/2025",
    "capacity": 14,
    "address": "5701 FALCONER WAY",
    "city": "SACRAMENTO",
    "zip": "95824",
    "county": "SACRAMENTO",
    "phone": "(916) 395-1722",
    "lat": 38.523114,
    "lng": -121.448007
  },
  {
    "id": "630013221",
    "name": "WELLSPACE HEALTH AT MARTIN LUTHER KING JR VILLAGES",
    "npi": null,
    "hcaiId": null,
    "businessName": "WELLSPACE HEALTH",
    "contactEmail": "INFO@WELLSPACEHEALTH.ORG",
    "categoryName": "PRIMARY CARE CLINIC",
    "categoryCode": "COMTYC",
    "licenseStatus": "ACTIVE",
    "inService": true,
    "licenseNumber": "550001216",
    "licenseEffectiveDate": "02/09/2025",
    "licenseExpirationDate": "02/08/2026",
    "dataDate": "10/18/2025",
    "capacity": 0,
    "address": "3900 47TH AVENUE",
    "city": "SACRAMENTO",
    "zip": "95824",
    "county": "SACRAMENTO",
    "phone": "(916) 737-5555",
    "lat": 38.509398,
    "lng": -121.4626905
  }
]