[
  {
    "id": "630017238",
    "name": "AMERICAN EXCEL HOME HEALTH CARE",
    "npi": "1821540162",
    "hcaiId": "406341644",
    "businessName": "AMERICAN EXCEL HOME HEALTH CARE INC.",
    "contactEmail": "EVIE.JUSTIMBASTE@AMERICANEXCELHHC.COM",
    "categoryName": "HOME HEALTH AGENCY",
    "categoryCode": "HHA",
    "licenseStatus": "ACTIVE",
    "inService": true,
    "licenseNumber": "550004655",
    "licenseEffectiveDate": "04/09/2025",
    "licenseExpirationDate": "04/08/2026",
    "dataDate": "10/18/2025",
    "capacity": 0,
    "address": "2755 COTTAGE WAY, SUITE 12",
    "city": "SACRAMENTO",
    "zip": "95825",
    "county": "SACRAMENTO",
    "phone": "(623) 206-7386",
    "lat": 38.603889,
    "lng": -121.3983405
  },
  {
    "id": "630027474",
    "name": "ANCHOR HEALTH LLC",
    "npi": null,
    "hcaiId": null,
    "businessName": "ANCHOR HEALTH LLC",
    "contactEmail": "CRISTIKEITH@ANCHORHPC.COM",
    "categoryName": "HOSPICE",
    "categoryCode": "HOSPICE",
    "licenseStatus": "ACTIVE",
    "inService": true,
    "licenseNumber": "550006165",
    "licenseEffectiveDate": "09/10/2025",
    "licenseExpirationDate": "04/05/2027",
    "dataDate": "10/18/2025",
    "capacity": 0,
    "address": "333 UNIVERSITY AVE, SUITE 235",
    "city": "SACRAMENTO",
    "zip": "95825",
    "county": "SACRAMENTO",
    "phone": "(877) 653-0114",
    "lat": 38.57097845,
    "lng": -121.4166511
  },
  {
    "id": "100000025",
    "name": "ARDEN PARK POST ACUTE",
    "npi": "1932833480",
    "hcaiId": "206340788",
    "businessName": "ARDEN GLEN HEALTHCARE, LLC",
    "contactEmail": "RILEY.CORBIN@ARDENPARKPA.COM",
    "categoryName": "SKILLED NURSING FACILITY",
    "categoryCode": "SNF",
    "licenseStatus": "ACTIVE",
    "inService": true,
    "licenseNumber": "100000009",
    "licenseEffectiveDate": "11/01/2025",
    "licenseExpirationDate": "10/31/2026",
    "dataDate": "10/18/2025",
    "capacity": 177,
    "address": "3400 ALTA ARDEN EXPRESSWAY",
    "city": "SACRAMENTO",
    "zip": "95825",
    "county": "SACRAMENTO",
    "phone": "(801) 430-0668",
    "lat": 38.598354,
    "lng": -121.384818
  },
  {
    "id": "100000001",
    "name": "ASBURY PARK NURSING AND REHABILITATION CENTER",
    "npi": "1023652542",
    "hcaiId": "206340825",
    "businessName": "SURMEL LLC",
    "contactEmail": "APORTELA@CYPRESSH.COM",
    "categoryName": "SKILLED NURSING FACILITY",
    "categoryCode": "SNF",
    "licenseStatus": "ACTIVE",
    "inService": true,
    "licenseNumber": "100000020",
    "licenseEffectiveDate": "01/16/2025",
    "licenseExpirationDate": "01/15/2026",
    "dataDate": "10/18/2025",
    "capacity": 139,
    "address": "2257 FAIR OAKS BOULEVARD",
    "city": "SACRAMENTO",
    "zip": "95825",
    "county": "SACRAMENTO",
    "phone": "(916) 649-2000",
    "lat": 38.575377,
    "lng": -121.4127
  },
  {
    "id": "630014483",
    "name": "ASSURANCE HOME CARE",
    "npi": "1740628460",
    "hcaiId": "406344207",
    "businessName": "ASSURANCE HEALTH PARTNERS INC",
    "contactEmail": "ADMINISTRATOR@ASSURANCEHP.COM",
    "categoryName": "HOME HEALTH AGENCY",
    "categoryCode": "HHA",
    "licenseStatus": "ACTIVE",
    "inService": true,
    "licenseNumber": "550002704",
    "licenseEffectiveDate": "06/03/2025",
    "licenseExpirationDate": "06/02/2026",
    "dataDate": "10/18/2025",
    "capacity": 0,
    "address": "2255 WATT AVENUE, SUITE 20",
    "city": "SACRAMENTO",
    "zip": "95825",
    "county": "SACRAMENTO",
    "phone": "(916) 482-0700",
    "lat": 38.604717,
    "lng": -121.384089
  },
  {
    "id": "630023858",
    "name": "ASSURED HOME HEALTH SERVICES, LLC",
    "npi": null,
    "hcaiId": "406345438",
    "businessName": "ASSURED HOME HEALTH SERVICES, LLC",
    "contactEmail": "INFO@ASSUREDHH.COM",
    "categoryName": "HOME HEALTH AGENCY",
    "categoryCode": "HHA",
    "licenseStatus": "ACTIVE",
    "inService": true,
    "licenseNumber": "550008118",
    "licenseEffectiveDate": "08/15/2025",
    "licenseExpirationDate": "08/14/2026",
    "dataDate": "10/18/2025",
    "capacity": 0,
    "address": "2717 COTTAGE WAY, SUITE 5",
    "city": "SACRAMENTO",
    "zip": "95825",
    "county": "SACRAMENTO",
    "phone": "(916) 973-9771",
    "lat": 38.604069,
    "lng": -121.3977285
  },
  {
    "id": "630017655",
    "name": "CARES COMMUNITY HEALTH ARDEN ARCADE",
    "npi": null,
    "hcaiId": null,
    "businessName": "CARES COMMUNITY HEALTH",
    "contactEmail": "CWARD@CARESCOMMUNITYHEALTH.ORG",
    "categoryName": "PRIMARY CARE CLINIC",
    "categoryCode": "COMTYC",
    "licenseStatus": "ACTIVE",
    "inService": true,
    "licenseNumber": "030000371",
    "licenseEffectiveDate": "05/01/2025",
    "licenseExpirationDate": "04/30/2026",
    "dataDate": "10/18/2025",
    "capacity": 0,
    "address": "1442 ETHAN WAY, SUITE 100",
    "city": "SACRAMENTO",
    "zip": "95825",
    "county": "SACRAMENTO",
    "phone": "(916) 914-6266",
    "lat": 38.59209,
    "lng": -121.4190855
  },
  {
    "id": "630016220",
    "name": "ELICA HEALTH CENTERS",
    "npi": null,
    "hcaiId": null,
    "businessName": "ELICA HEALTH CENTERS",
    "contactEmail": null,
    "categoryName": "PRIMARY CARE CLINIC",
    "categoryCode": "COMTYC",
    "licenseStatus": "ACTIVE",
    "inService": true,
    "licenseNumber": "550006737",
    "licenseEffectiveDate": "09/08/2025",
    "licenseExpirationDate": "09/07/2026",
    "dataDate": "10/18/2025",
    "capacity": 0,
    "address": "1750 WRIGHT STREET, SUITE 1",
    "city": "SACRAMENTO",
    "zip": "95825",
    "county": "SACRAMENTO",
    "phone": null,
    "lat": 38.597751,
    "lng": -121.4056845
  },
  {
    "id": "630020708",
    "name": "ELICA HEALTH CENTERS - CADILLAC DRIVE",
    "npi": "1366051120",
    "hcaiId": null,
    "businessName": "ELICA HEALTH CENTERS",
    "contactEmail": "TMIR@ELICAHEALTH.ORG",
    "categoryName": "PRIMARY CARE CLINIC",
    "categoryCode": "COMTYC",
    "licenseStatus": "ACTIVE",
    "inService": true,
    "licenseNumber": "550006737",
    "licenseEffectiveDate": "09/08/2025",
    "licenseExpirationDate": "09/07/2026",
    "dataDate": "10/18/2025",
    "capacity": 0,
    "address": "77 CADILLAC DR, SUITE 200",
    "city": "SACRAMENTO",
    "zip": "95825",
    "county": "SACRAMENTO",
    "phone": "(916) 890-3056",
    "lat": 38.572551,
    "lng": -121.4181585
  },
  {
    "id": "630026974",
    "name": "ELICA HEALTH CENTERS- GLENDALE",
    "npi": "1366051120",
    "hcaiId": null,
    "businessName": "ELICA HEALTH CENTERS",
    "contactEmail": null,
    "categoryName": "PRIMARY CARE CLINIC",
    "categoryCode": "COMTYC",
    "licenseStatus": "ACTIVE",
    "inService": true,
    "licenseNumber": "550006737",
    "licenseEffectiveDate": "09/08/2025",
    "licenseExpirationDate": "09/07/2026",
    "dataDate": "10/18/2025",
    "capacity": 0,
    "address": "2400 GLENDALE LN",
    "city": "SACRAMENTO",
    "zip": "95825",
    "county": "SACRAMENTO",
    "phone": null,
    "lat": 38.597364,
    "lng": -121.405158
  },
  {
    "id": "630021338",
    "name": "FAIR OAKS RECOVERY CENTER, LLC",
    "npi": null,
    "hcaiId": null,
    "businessName": "FAIR OAKS RECOVERY CENTER, LLC",
    "contactEmail": "KRISTI.KLINE@SUMMITBHC.COM",
    "categoryName": "CHEMICAL DEPENDENCY RECOVERY HOSPITAL",
    "categoryCode": "CDRH",
    "licenseStatus": "ACTIVE",
    "inService": true,
    "licenseNumber": "550008273",
    "licenseEffectiveDate": "12/15/2024",
    "licenseExpirationDate": "12/14/2025",
    "dataDate": "10/18/2025",
    "capacity": 48,
    "address": "2221 FAIR OAKS BLVD",
    "city": "SACRAMENTO",
    "zip": "95825",
    "county": "SACRAMENTO",
    "phone": "(916) 798-1235",
    "lat": 38.575287,
    "lng": -121.414113
  },
  {
    "id": "030001831",
    "name": "GRAMERCY COURT",
    "npi": "1063864874",
    "hcaiId": "206344051",
    "businessName": "GHC OF SAC-SNF, LLC",
    "contactEmail": "DANBUSHNELL@LIFEGEN.NET",
    "categoryName": "SKILLED NURSING FACILITY",
    "categoryCode": "SNF",
    "licenseStatus": "ACTIVE",
    "inService": true,
    "licenseNumber": "030000403",
    "licenseEffectiveDate": "09/02/2025",
    "licenseExpirationDate": "04/06/2026",
    "dataDate": "10/18/2025",
    "capacity": 120,
    "address": "2200 GRAMERCY DRIVE",
    "city": "SACRAMENTO",
    "zip": "95825",
    "county": "SACRAMENTO",
    "phone": "(949) 508-8370",
    "lat": 38.606292,
    "lng": -121.3975575
  },
  {
    "id": "630027280",
    "name": "HEALINGHAVEN HEALTHCARE, INC",
    "npi": null,
    "hcaiId": null,
    "businessName": "HEALINGHAVEN HEALTHCARE, INC",
    "contactEmail": "ALEXFAIROAKS@AOL.COM",
    "categoryName": "HOME HEALTH AGENCY",
    "categoryCode": "HHA",
    "licenseStatus": "ACTIVE",
    "inService": true,
    "licenseNumber": "550009504",
    "licenseEffectiveDate": "11/12/2025",
    "licenseExpirationDate": "11/11/2026",
    "dataDate": "10/18/2025",
    "capacity": 0,
    "address": "2717 COTTAGE WAY, SUITE 14",
    "city": "SACRAMENTO",
    "zip": "95825",
    "county": "SACRAMENTO",
    "phone": "(916) 541-9923",
    "lat": 38.60407418,
    "lng": -121.3977693
  },
  {
    "id": "030000130",
    "name": "KAISER FOUNDATION HOSPITAL - SACRAMENTO",
    "npi": "1952476665",
    "hcaiId": "106340913",
    "businessName": "KAISER FOUNDATION HOSPITALS",
    "contactEmail": "JULIE.E.ROBERTS@KP.ORG",
    "categoryName": "GENERAL ACUTE CARE HOSPITAL",
    "categoryCode": "GACH",
    "licenseStatus": "ACTIVE",
    "inService": true,
    "licenseNumber": "030000052",
    "licenseEffectiveDate": "06/18/2025",
    "licenseExpirationDate": "11/22/2025",
    "dataDate": "10/18/2025",
    "capacity": 287,
    "address": "2025 MORSE AVENUE",
    "city": "SACRAMENTO",
    "zip": "95825",
    "county": "SACRAMENTO",
    "phone": "(916) 973-7634",
    "lat": 38.602089,
    "lng": -121.3925895
  },
  {
    "id": "100000159",
    "name": "KAISER FOUNDATION HOSPITAL HOME HEALTH - SACRAMENTO",
    "npi": "1790869568",
    "hcaiId": "406340836",
    "businessName": "KAISER FOUNDATION HOSPITALS",
    "contactEmail": "LISA.GAZA@KP.ORG",
    "categoryName": "HOME HEALTH AGENCY",
    "categoryCode": "HHA",
    "licenseStatus": "ACTIVE",
    "inService": true,
    "licenseNumber": "100000023",
    "licenseEffectiveDate": "11/12/2025",
    "licenseExpirationDate": "11/30/2025",
    "dataDate": "10/18/2025",
    "capacity": 0,
    "address": "3240 ARDEN WAY",
    "city": "SACRAMENTO",
    "zip": "95825",
    "county": "SACRAMENTO",
    "phone": "(916) 486-5400",
    "lat": 38.594853,
    "lng": -121.388472
  },
  {
    "id": "630025731",
    "name": "LIVEWELL HOME HEALTH CARE LLC",
    "npi": null,
    "hcaiId": null,
    "businessName": "LIVEWELL HOME HEALTH CARE LLC",
    "contactEmail": "CHIPNZE@YAHOO.COM",
    "categoryName": "HOME HEALTH AGENCY",
    "categoryCode": "HHA",
    "licenseStatus": "ACTIVE",
    "inService": true,
    "licenseNumber": "550009340",
    "licenseEffectiveDate": "11/10/2025",
    "licenseExpirationDate": "08/07/2026",
    "dataDate": "10/18/2025",
    "capacity": 0,
    "address": "1325 HOWE AVE, SUITE 105",
    "city": "SACRAMENTO",
    "zip": "95825",
    "county": "SACRAMENTO",
    "phone": "(916) 822-4722",
    "lat": 38.590191,
    "lng": -121.416624
  },
  {
    "id": "630012876",
    "name": "NATIONAL HOME HEALTH SERVICES",
    "npi": "1629359674",
    "hcaiId": "406344159",
    "businessName": "AVALON HOME HEALTH INC.",
    "contactEmail": "RUSASHA1@GMAIL.COM",
    "categoryName": "HOME HEALTH AGENCY",
    "categoryCode": "HHA",
    "licenseStatus": "ACTIVE",
    "inService": true,
    "licenseNumber": "550001591",
    "licenseEffectiveDate": "05/18/2025",
    "licenseExpirationDate": "05/17/2026",
    "dataDate": "10/18/2025",
    "capacity": 0,
    "address": "2255 WATT AVE, SUITE 185",
    "city": "SACRAMENTO",
    "zip": "95825",
    "county": "SACRAMENTO",
    "phone": "(415) 812-2955",
    "lat": 38.60478476,
    "lng": -121.3839904
  },
  {
    "id": "630020100",
    "name": "PINNACLE HOME HEALTH CARE",
    "npi": "1629601802",
    "hcaiId": "406344608",
    "businessName": "PINNACLE HOME HEALTH & HOSPICE, INC",
    "contactEmail": "INFO@PNC-HEALTHCARE.COM",
    "categoryName": "HOME HEALTH AGENCY",
    "categoryCode": "HHA",
    "licenseStatus": "ACTIVE",
    "inService": true,
    "licenseNumber": "550005932",
    "licenseEffectiveDate": "12/08/2024",
    "licenseExpirationDate": "12/07/2025",
    "dataDate": "10/18/2025",
    "capacity": 0,
    "address": "2775 COTTAGE WAY, SUITE 19",
    "city": "SACRAMENTO",
    "zip": "95825",
    "county": "SACRAMENTO",
    "phone": "(209) 609-4366",
    "lat": 38.604069,
    "lng": -121.3977285
  },
  {
    "id": "630020077",
    "name": "PINNACLE HOSPICE CARE",
    "npi": "1134752314",
    "hcaiId": "406344520",
    "businessName": "PINNACLE HOME HEALTH & HOSPICE, INC.",
    "contactEmail": "KELSEY@PNCHEALTH.COM",
    "categoryName": "HOSPICE",
    "categoryCode": "HOSPICE",
    "licenseStatus": "ACTIVE",
    "inService": true,
    "licenseNumber": "550006360",
    "licenseEffectiveDate": "05/24/2025",
    "licenseExpirationDate": "05/23/2027",
    "dataDate": "10/18/2025",
    "capacity": 0,
    "address": "2775 COTTAGE WAY, SUITE 18",
    "city": "SACRAMENTO",
    "zip": "95825",
    "county": "SACRAMENTO",
    "phone": "(916) 993-8731",
    "lat": 38.604069,
    "lng": -121.3977285
  },
  {
    "id": "630016696",
    "name": "SACRAMENTO HEART AMBULATORY SURGERY CENTER",
    "npi": "1336510486",
    "hcaiId": null,
    "businessName": null,
    "contactEmail": null,
    "categoryName": "SURGICAL CLINIC",
    "categoryCode": "ASC",
    "licenseStatus": null,
    "inService": null,
    "licenseNumber": null,
    "licenseEffectiveDate": null,
    "licenseExpirationDate": null,
    "dataDate": "10/18/2025",
    "capacity": 0,
    "address": "500 UNIVERSITY AVENUE, SUITE 100",
    "city": "SACRAMENTO",
    "zip": "95825",
    "county": "SACRAMENTO",
    "phone": null,
    "lat": 38.568402,
    "lng": -121.418019
  },
  {
    "id": "030001563",
    "name": "SACRAMENTO LIFE CENTER",
    "npi": "1174824437",
    "hcaiId": "306344234",
    "businessName": "SACRAMENTO LIFE CENTER",
    "contactEmail": "LIFECENTER@SACLIFE.ORG",
    "categoryName": "PRIMARY CARE CLINIC",
    "categoryCode": "COMTYC",
    "licenseStatus": "ACTIVE",
    "inService": true,
    "licenseNumber": "030000651",
    "licenseEffectiveDate": "02/01/2025",
    "licenseExpirationDate": "01/31/2026",
    "dataDate": "10/18/2025",
    "capacity": 0,
    "address": "2316 BELL EXECUTIVE LANE",
    "city": "SACRAMENTO",
    "zip": "95825",
    "county": "SACRAMENTO",
    "phone": "(916) 451-4357",
    "lat": 38.597112,
    "lng": -121.4097075
  },
  {
    "id": "630014838",
    "name": "SACRAMENTO LIFE CENTER MOBILE CLINIC #2",
    "npi": null,
    "hcaiId": "306344233",
    "businessName": "SACRAMENTO LIFE CENTER",
    "contactEmail": "JOANNR@SACLIFE.ORG",
    "categoryName": "PRIMARY CARE CLINIC",
    "categoryCode": "COMTYC",
    "licenseStatus": "ACTIVE",
    "inService": true,
    "licenseNumber": "550002634",
    "licenseEffectiveDate": "04/10/2025",
    "licenseExpirationDate": "04/09/2026",
    "dataDate": "10/18/2025",
    "capacity": 0,
    "address": "2316 BELL EXECUTIVE LANE",
    "city": "SACRAMENTO",
    "zip": "95825",
    "county": "SACRAMENTO",
    "phone": "(916) 451-4357",
    "lat": 38.597112,
    "lng": -121.4097075
  },
  {
    "id": "630022144",
    "name": "SAPPHIRE NORTH VALLEY HOME HEALTH",
    "npi": null,
    "hcaiId": "406347372",
    "businessName": "GOLD COUNTRY HOME HEALTH",
    "contactEmail": "GOLDCOUNTRYHH@GMAIL.COM",
    "categoryName": "HOME HEALTH AGENCY",
    "categoryCode": "HHA",
    "licenseStatus": "ACTIVE",
    "inService": true,
    "licenseNumber": "550008177",
    "licenseEffectiveDate": "09/23/2025",
    "licenseExpirationDate": "09/22/2026",
    "dataDate": "10/18/2025",
    "capacity": 0,
    "address": "2255 WATT AVE, SUITE 395",
    "city": "SACRAMENTO",
    "zip": "95825",
    "county": "SACRAMENTO",
    "phone": "(916) 235-6994",
    "lat": 38.60478476,
    "lng": -121.3839904
  },
  {
    "id": "630018765",
    "name": "SATELLITE WELLBOUND OF SACRAMENTO UNIVERSITY",
    "npi": null,
    "hcaiId": null,
    "businessName": null,
    "contactEmail": "LICENSING@SATELLITEHEALH.COM",
    "categoryName": "CHRONIC DIALYSIS CLINIC",
    "categoryCode": "ESRD",
    "licenseStatus": null,
    "inService": null,
    "licenseNumber": null,
    "licenseEffectiveDate": null,
    "licenseExpirationDate": null,
    "dataDate": "10/18/2025",
    "capacity": 0,
    "address": "3 PARK CENTER DR, SUITE 120",
    "city": "SACRAMENTO",
    "zip": "95825",
    "county": "SACRAMENTO",
    "phone": "(916) 634-7500",
    "lat": 38.572524,
    "lng": -121.415625
  },
  {
    "id": "630015382",
    "name": "SNOWLINE HOSPICE",
    "npi": "1366449951",
    "hcaiId": "406344218",
    "businessName": "SNOWLINE HEALTH",
    "contactEmail": "MMORENO@SNOWLINEHOSPICE.ORG",
    "categoryName": "HOSPICE",
    "categoryCode": "HOSPICE",
    "licenseStatus": "ACTIVE",
    "inService": true,
    "licenseNumber": "100000610",
    "licenseEffectiveDate": "04/28/2025",
    "licenseExpirationDate": "10/31/2026",
    "dataDate": "10/18/2025",
    "capacity": 0,
    "address": "100 HOWE AVENUE, SUITE 240N",
    "city": "SACRAMENTO",
    "zip": "95825",
    "county": "SACRAMENTO",
    "phone": "(530) 621-7820",
    "lat": 38.56545,
    "lng": -121.407291
  },
  {
    "id": "630021160",
    "name": "SNOWLINE HOSPICE OF EL DORADO COUNTY, INC.",
    "npi": "1366449951",
    "hcaiId": null,
    "businessName": "SNOWLINE HEALTH",
    "contactEmail": "MMORENO@SNOWLINEHOSPICE.ORG",
    "categoryName": "HOSPICE",
    "categoryCode": "HOSPICE",
    "licenseStatus": "ACTIVE",
    "inService": true,
    "licenseNumber": "100000610",
    "licenseEffectiveDate": "04/28/2025",
    "licenseExpirationDate": "10/31/2026",
    "dataDate": "10/18/2025",
    "capacity": 0,
    "address": "100 HOWE AVE, SUITE 250 N",
    "city": "SACRAMENTO",
    "zip": "95825",
    "county": "SACRAMENTO",
    "phone": "(530) 621-7820",
    "lat": 38.565504,
    "lng": -121.4075655
  },
  {
    "id": "630027950",
    "name": "SOFT HANDS HOME HEALTH",
    "npi": null,
    "hcaiId": null,
    "businessName": "SOFT HANDS HOME HEALTH",
    "contactEmail": "CZARINAKAYE22@GMAIL.COM",
    "categoryName": "HOME HEALTH AGENCY",
    "categoryCode": "HHA",
    "licenseStatus": "ACTIVE",
    "inService": true,
    "licenseNumber": "550009836",
    "licenseEffectiveDate": "11/29/2025",
    "licenseExpirationDate": "05/28/2026",
    "dataDate": "10/18/2025",
    "capacity": 0,
    "address": "2717 COTTAGE WAY, SUITE 12",
    "city": "SACRAMENTO",
    "zip": "95825",
    "county": "SACRAMENTO",
    "phone": "(747) 333-7975",
    "lat": 38.60407418,
    "lng": -121.3977693
  },
  {
    "id": "630006761",
    "name": "UNIVERSITY DIALYSIS CENTER",
    "npi": "1154415982",
    "hcaiId": "306344143",
    "businessName": "UNIVERSITY DIALYSIS CENTER, LLC",
    "contactEmail": "CAL_C@DAVITA.COM",
    "categoryName": "CHRONIC DIALYSIS CLINIC",
    "categoryCode": "ESRD/CDC",
    "licenseStatus": "ACTIVE",
    "inService": true,
    "licenseNumber": "550000129",
    "licenseEffectiveDate": "05/27/2025",
    "licenseExpirationDate": "05/26/2026",
    "dataDate": "10/18/2025",
    "capacity": 21,
    "address": "333 UNIVERSITY AVE, SUITE 100",
    "city": "SACRAMENTO",
    "zip": "95825",
    "county": "SACRAMENTO",
    "phone": "(916) 920-0877",
    "lat": 38.570976,
    "lng": -121.416651
  },
  {
    "id": "030001821",
    "name": "WOODSIDE HEALTHCARE CENTER",
    "npi": "1376005181",
    "hcaiId": "206340960",
    "businessName": "COTTONS, LLC",
    "contactEmail": "APORTELA@CYPRESSH.COM",
    "categoryName": "SKILLED NURSING FACILITY",
    "categoryCode": "SNF",
    "licenseStatus": "ACTIVE",
    "inService": true,
    "licenseNumber": "030000068",
    "licenseEffectiveDate": "03/31/2025",
    "licenseExpirationDate": "03/30/2026",
    "dataDate": "10/18/2025",
    "capacity": 59,
    "address": "2240 NORTHROP AVENUE",
    "city": "SACRAMENTO",
    "zip": "95825",
    "county": "SACRAMENTO",
    "phone": "(916) 927-9300",
    "lat": 38.581128,
    "lng": -121.4132625
  }
]