[
  {
    "id": "630024924",
    "name": "BOLA HOME HEALTH AGENCY LLC",
    "npi": null,
    "hcaiId": "406340022",
    "businessName": "BOLA HOME HEALTH AGENCY LLC",
    "contactEmail": "ICAREHOMEHEALTH9245@GMAIL.COM",
    "categoryName": "HOME HEALTH AGENCY",
    "categoryCode": "HHA",
    "licenseStatus": "ACTIVE",
    "inService": true,
    "licenseNumber": "550008702",
    "licenseEffectiveDate": "08/14/2025",
    "licenseExpirationDate": "08/13/2026",
    "dataDate": "10/18/2025",
    "capacity": 0,
    "address": "7275 E SOUTHGATE DR, SUITE 402",
    "city": "SACRAMENTO",
    "zip": "95823",
    "county": "SACRAMENTO",
    "phone": "(916) 883-2244",
    "lat": 38.49357962,
    "lng": -121.4365581
  },
  {
    "id": "030000854",
    "name": "BRUCEVILLE TERRACE - D/P SNF OF METHODIST HOSPITAL",
    "npi": "1467560599",
    "hcaiId": null,
    "businessName": "DIGNITY COMMUNITY CARE",
    "contactEmail": "SHAWNA.RYAN@COMMONSPIRIT.ORG",
    "categoryName": "SKILLED NURSING FACILITY",
    "categoryCode": "SNF",
    "licenseStatus": "ACTIVE",
    "inService": true,
    "licenseNumber": "030000064",
    "licenseEffectiveDate": "12/31/2024",
    "licenseExpirationDate": "12/30/2025",
    "dataDate": "10/18/2025",
    "capacity": 171,
    "address": "8151 BRUCEVILLE ROAD",
    "city": "SACRAMENTO",
    "zip": "95823",
    "county": "SACRAMENTO",
    "phone": "(916) 423-6000",
    "lat": 38.461554,
    "lng": -121.4167635
  },
  {
    "id": "030001827",
    "name": "CITY CREEK POST ACUTE",
    "npi": "1508401423",
    "hcaiId": "206342225",
    "businessName": "TRESTLES, LLC",
    "contactEmail": "NOEHLER@KALESTAHC.COM",
    "categoryName": "SKILLED NURSING FACILITY",
    "categoryCode": "SNF",
    "licenseStatus": "ACTIVE",
    "inService": true,
    "licenseNumber": "030000167",
    "licenseEffectiveDate": "11/01/2025",
    "licenseExpirationDate": "10/31/2026",
    "dataDate": "10/18/2025",
    "capacity": 99,
    "address": "6248 66TH AVENUE",
    "city": "SACRAMENTO",
    "zip": "95823",
    "county": "SACRAMENTO",
    "phone": "(916) 392-4440",
    "lat": 38.491497,
    "lng": -121.4316045
  },
  {
    "id": "630016855",
    "name": "DEER PARK DIALYSIS",
    "npi": "1033584248",
    "hcaiId": "306344230",
    "businessName": "LYNDALE DIALYSIS LLC",
    "contactEmail": "CAL_C@DAVITA.COM",
    "categoryName": "CHRONIC DIALYSIS CLINIC",
    "categoryCode": "ESRD/CDC",
    "licenseStatus": "ACTIVE",
    "inService": true,
    "licenseNumber": "550003667",
    "licenseEffectiveDate": "09/27/2025",
    "licenseExpirationDate": "09/26/2026",
    "dataDate": "10/18/2025",
    "capacity": 40,
    "address": "4401 MACK ROAD",
    "city": "SACRAMENTO",
    "zip": "95823",
    "county": "SACRAMENTO",
    "phone": "(916) 738-3575",
    "lat": 38.474811,
    "lng": -121.452426
  },
  {
    "id": "630020709",
    "name": "ELICA HEALTH CENTERS - MACK ROAD",
    "npi": "1366051120",
    "hcaiId": null,
    "businessName": "ELICA HEALTH CENTERS",
    "contactEmail": "TMIR@ELICAHEALTH.ORG",
    "categoryName": "PRIMARY CARE CLINIC",
    "categoryCode": "COMTYC",
    "licenseStatus": "ACTIVE",
    "inService": true,
    "licenseNumber": "550006737",
    "licenseEffectiveDate": "09/08/2025",
    "licenseExpirationDate": "09/07/2026",
    "dataDate": "10/18/2025",
    "capacity": 0,
    "address": "6339 MACK RD",
    "city": "SACRAMENTO",
    "zip": "95823",
    "county": "SACRAMENTO",
    "phone": "(916) 525-1745",
    "lat": 38.475585,
    "lng": -121.4285265
  },
  {
    "id": "030001785",
    "name": "ENDOSCOPY CENTER OF SOUTH SACRAMENTO",
    "npi": "1174597819",
    "hcaiId": "306344134",
    "businessName": null,
    "contactEmail": "MAPOPE@USPI.COM",
    "categoryName": "SURGICAL CLINIC",
    "categoryCode": "ASC",
    "licenseStatus": "INACTIVE - CAPEN DECISION",
    "inService": false,
    "licenseNumber": "030000773",
    "licenseEffectiveDate": "12/01/2008",
    "licenseExpirationDate": "11/30/2009",
    "dataDate": "10/18/2025",
    "capacity": 0,
    "address": "8120 TIMBERLAKE WAY, SUITE 103",
    "city": "SACRAMENTO",
    "zip": "95823",
    "county": "SACRAMENTO",
    "phone": "(916) 681-2350",
    "lat": 38.461023,
    "lng": -121.41414
  },
  {
    "id": "110001187",
    "name": "FLORIN DIALYSIS CENTER",
    "npi": "1881653244",
    "hcaiId": "306344124",
    "businessName": "TOTAL RENAL CARE, INC.",
    "contactEmail": "CAL_C@DAVITA.COM",
    "categoryName": "CHRONIC DIALYSIS CLINIC",
    "categoryCode": "ESRD/CDC",
    "licenseStatus": "ACTIVE",
    "inService": true,
    "licenseNumber": "110000476",
    "licenseEffectiveDate": "02/25/2025",
    "licenseExpirationDate": "02/24/2026",
    "dataDate": "10/18/2025",
    "capacity": 31,
    "address": "7000 STOCKTON BOULEVARD",
    "city": "SACRAMENTO",
    "zip": "95823",
    "county": "SACRAMENTO",
    "phone": "(916) 424-3990",
    "lat": 38.500137,
    "lng": -121.431321
  },
  {
    "id": "630023126",
    "name": "FRESENIUS KIDNEY CARE SOUTH SACRAMENTO DIALYSIS",
    "npi": "1497340046",
    "hcaiId": "306340683",
    "businessName": "BIO-MEDICAL APPLICATIONS OF CALIFORNIA INC.",
    "contactEmail": "CLINIC100293@FMC-NA.COM",
    "categoryName": "CHRONIC DIALYSIS CLINIC",
    "categoryCode": "ESRD/CDC",
    "licenseStatus": "ACTIVE",
    "inService": true,
    "licenseNumber": "550007734",
    "licenseEffectiveDate": "12/31/2024",
    "licenseExpirationDate": "12/30/2025",
    "dataDate": "10/18/2025",
    "capacity": 31,
    "address": "5 MASSIE CT",
    "city": "SACRAMENTO",
    "zip": "95823",
    "county": "SACRAMENTO",
    "phone": "(916) 385-3527",
    "lat": 38.4760089,
    "lng": -121.4205054
  },
  {
    "id": "030000133",
    "name": "KAISER FOUNDATION HOSPITAL - SOUTH SACRAMENTO",
    "npi": "1528138088",
    "hcaiId": "106342344",
    "businessName": "KAISER FOUNDATION HOSPITALS",
    "contactEmail": "WILFRENGERARD.ESPOSO@KP.ORG",
    "categoryName": "GENERAL ACUTE CARE HOSPITAL",
    "categoryCode": "GACH",
    "licenseStatus": "ACTIVE",
    "inService": true,
    "licenseNumber": "030000228",
    "licenseEffectiveDate": "12/20/2024",
    "licenseExpirationDate": "11/30/2025",
    "dataDate": "10/18/2025",
    "capacity": 241,
    "address": "6600 BRUCEVILLE ROAD",
    "city": "SACRAMENTO",
    "zip": "95823",
    "county": "SACRAMENTO",
    "phone": "(916) 688-4298",
    "lat": 38.470392,
    "lng": -121.4223975
  },
  {
    "id": "030000037",
    "name": "METHODIST HOSPITAL OF SACRAMENTO",
    "npi": "1467560599",
    "hcaiId": "106340951",
    "businessName": "DIGNITY COMMUNITY CARE",
    "contactEmail": "RENAE.HOWE@DIGNITYHEALTH.ORG",
    "categoryName": "GENERAL ACUTE CARE HOSPITAL",
    "categoryCode": "GACH",
    "licenseStatus": "ACTIVE",
    "inService": true,
    "licenseNumber": "030000064",
    "licenseEffectiveDate": "12/31/2024",
    "licenseExpirationDate": "12/30/2025",
    "dataDate": "10/18/2025",
    "capacity": 158,
    "address": "7500 HOSPITAL DRIVE",
    "city": "SACRAMENTO",
    "zip": "95823",
    "county": "SACRAMENTO",
    "phone": "(916) 423-3000",
    "lat": 38.463381,
    "lng": -121.416183
  },
  {
    "id": "630016610",
    "name": "PERPETUAL CARE HOME HEALTH SACRAMENTO",
    "npi": null,
    "hcaiId": "406231425",
    "businessName": "FG ROQUE HEALTHCARE SERVICES, INC.",
    "contactEmail": "JNARIO@PCHHA.COM",
    "categoryName": "HOME HEALTH AGENCY",
    "categoryCode": "HHA",
    "licenseStatus": "ACTIVE",
    "inService": true,
    "licenseNumber": "550004349",
    "licenseEffectiveDate": "07/26/2025",
    "licenseExpirationDate": "07/25/2026",
    "dataDate": "10/18/2025",
    "capacity": 0,
    "address": "7501 HOSPITAL DR, SUITE 101",
    "city": "SACRAMENTO",
    "zip": "95823",
    "county": "SACRAMENTO",
    "phone": "(408) 799-7195",
    "lat": 38.46477898,
    "lng": -121.4169132
  },
  {
    "id": "630013559",
    "name": "RAI-MACK ROAD-SACRAMENTO",
    "npi": "1184906745",
    "hcaiId": "306344179",
    "businessName": "RAI CARE CENTERS OF NORTHERN CALIFORNIA I, LLC",
    "contactEmail": "CLINIC7165@FMC-NA.COM",
    "categoryName": "CHRONIC DIALYSIS CLINIC",
    "categoryCode": "ESRD/CDC",
    "licenseStatus": "ACTIVE",
    "inService": true,
    "licenseNumber": "550001855",
    "licenseEffectiveDate": "03/01/2025",
    "licenseExpirationDate": "02/28/2026",
    "dataDate": "10/18/2025",
    "capacity": 48,
    "address": "6300 MACK RD",
    "city": "SACRAMENTO",
    "zip": "95823",
    "county": "SACRAMENTO",
    "phone": "(916) 394-9312",
    "lat": 38.4727653,
    "lng": -121.4291623
  },
  {
    "id": "100000834",
    "name": "RCCA - BRENTFORD",
    "npi": "1598892648",
    "hcaiId": null,
    "businessName": "RES-CARE CALIFORNIA, INC.",
    "contactEmail": "SHARRAE.ELSTON@RESCARE.COM",
    "categoryName": "INTERMEDIATE CARE FACILITY-DD/H/N/CN/IID",
    "categoryCode": "ICFDDH",
    "licenseStatus": "ACTIVE",
    "inService": true,
    "licenseNumber": "100000361",
    "licenseEffectiveDate": "04/01/2025",
    "licenseExpirationDate": "03/31/2026",
    "dataDate": "10/18/2025",
    "capacity": 6,
    "address": "60 BRENTFORD CIRCLE",
    "city": "SACRAMENTO",
    "zip": "95823",
    "county": "SACRAMENTO",
    "phone": "(530) 406-8603",
    "lat": 38.462526,
    "lng": -121.4287785
  },
  {
    "id": "100001299",
    "name": "RCCA - FARNELL",
    "npi": "1083741136",
    "hcaiId": null,
    "businessName": "RES-CARE CALIFORNIA, INC.",
    "contactEmail": "SHARRAE.ELSTON@RESCARE.COM",
    "categoryName": "INTERMEDIATE CARE FACILITY-DD/H/N/CN/IID",
    "categoryCode": "ICFDDH",
    "licenseStatus": "ACTIVE",
    "inService": true,
    "licenseNumber": "100000541",
    "licenseEffectiveDate": "04/01/2025",
    "licenseExpirationDate": "03/31/2026",
    "dataDate": "10/18/2025",
    "capacity": 6,
    "address": "7893 FARNELL WAY",
    "city": "SACRAMENTO",
    "zip": "95823",
    "county": "SACRAMENTO",
    "phone": "(916) 392-5459",
    "lat": 38.470977,
    "lng": -121.4550585
  },
  {
    "id": "100001154",
    "name": "RCCA - LA ALMENDRA",
    "npi": "1770610438",
    "hcaiId": null,
    "businessName": "RES-CARE CALIFORNIA, INC.",
    "contactEmail": "SHARRAE.ELSTON@RESCARE.COM",
    "categoryName": "INTERMEDIATE CARE FACILITY-DD/H/N/CN/IID",
    "categoryCode": "ICFDDH",
    "licenseStatus": "ACTIVE",
    "inService": true,
    "licenseNumber": "100000510",
    "licenseEffectiveDate": "04/01/2025",
    "licenseExpirationDate": "03/31/2026",
    "dataDate": "10/18/2025",
    "capacity": 6,
    "address": "8268 LA ALMENDRA WAY",
    "city": "SACRAMENTO",
    "zip": "95823",
    "county": "SACRAMENTO",
    "phone": "(916) 392-5207",
    "lat": 38.457225,
    "lng": -121.432644
  },
  {
    "id": "630027559",
    "name": "SACRAMENTO COMMUNITY CLINIC",
    "npi": null,
    "hcaiId": null,
    "businessName": null,
    "contactEmail": null,
    "categoryName": "PRIMARY CARE CLINIC",
    "categoryCode": "FQHC",
    "licenseStatus": null,
    "inService": null,
    "licenseNumber": null,
    "licenseEffectiveDate": null,
    "licenseExpirationDate": null,
    "dataDate": "10/18/2025",
    "capacity": 0,
    "address": "5524 ASSEMBLY CT",
    "city": "SACRAMENTO",
    "zip": "95823",
    "county": "SACRAMENTO",
    "phone": null,
    "lat": 38.49330289,
    "lng": -121.4392987
  },
  {
    "id": "630020104",
    "name": "SACRAMENTO COMMUNITY CLINIC - 55TH",
    "npi": "1427715515",
    "hcaiId": null,
    "businessName": "HEALTH AND LIFE ORGANIZATION, INC. (H.A.L.O.)",
    "contactEmail": "AMOUA@HALOCARES.ORG",
    "categoryName": "PRIMARY CARE CLINIC",
    "categoryCode": "COMTYC",
    "licenseStatus": "ACTIVE",
    "inService": true,
    "licenseNumber": "550007931",
    "licenseEffectiveDate": "03/31/2025",
    "licenseExpirationDate": "03/30/2026",
    "dataDate": "10/18/2025",
    "capacity": 0,
    "address": "7215 55TH ST, SUITE B",
    "city": "SACRAMENTO",
    "zip": "95823",
    "county": "SACRAMENTO",
    "phone": "(559) 389-8254",
    "lat": 38.495169,
    "lng": -121.440681
  },
  {
    "id": "630013220",
    "name": "SACRAMENTO COMMUNITY CLINIC - ASSEMBLY COURT",
    "npi": "1427715515",
    "hcaiId": "306344180",
    "businessName": "HEALTH AND LIFE ORGANIZATION, INC. (H.A.L.O.)",
    "contactEmail": "FINANCE@HALOCARES.ORG",
    "categoryName": "PRIMARY CARE CLINIC",
    "categoryCode": "COMTYC",
    "licenseStatus": "ACTIVE",
    "inService": true,
    "licenseNumber": "550007931",
    "licenseEffectiveDate": "03/31/2025",
    "licenseExpirationDate": "03/30/2026",
    "dataDate": "10/18/2025",
    "capacity": 0,
    "address": "5524 ASSEMBLY COURT",
    "city": "SACRAMENTO",
    "zip": "95823",
    "county": "SACRAMENTO",
    "phone": "(916) 642-1867",
    "lat": 38.493279,
    "lng": -121.439286
  },
  {
    "id": "630027049",
    "name": "SACRAMENTO COMMUNITY CLINIC - KAJSIAB",
    "npi": "1427715515",
    "hcaiId": null,
    "businessName": "HEALTH AND LIFE ORGANIZATION, INC. (H.A.L.O.)",
    "contactEmail": "AMOUA@HALOCARES.ORG",
    "categoryName": "PRIMARY CARE CLINIC",
    "categoryCode": "COMTYC",
    "licenseStatus": "ACTIVE",
    "inService": true,
    "licenseNumber": "550007931",
    "licenseEffectiveDate": "03/31/2025",
    "licenseExpirationDate": "03/30/2026",
    "dataDate": "10/18/2025",
    "capacity": 0,
    "address": "7215 55TH ST",
    "city": "SACRAMENTO",
    "zip": "95823",
    "county": "SACRAMENTO",
    "phone": "(559) 389-8254",
    "lat": 38.495169,
    "lng": -121.440681
  },
  {
    "id": "630019542",
    "name": "SACRAMENTO COMMUNITY CLINIC - SOUTHGATE DENTAL",
    "npi": "1427715515",
    "hcaiId": null,
    "businessName": "HEALTH AND LIFE ORGANIZATION, INC. (H.A.L.O.)",
    "contactEmail": null,
    "categoryName": "PRIMARY CARE CLINIC",
    "categoryCode": "COMTYC",
    "licenseStatus": "ACTIVE",
    "inService": true,
    "licenseNumber": "550007931",
    "licenseEffectiveDate": "03/31/2025",
    "licenseExpirationDate": "03/30/2026",
    "dataDate": "10/18/2025",
    "capacity": 0,
    "address": "7275 E SOUTHGATE DR, SUITE 106",
    "city": "SACRAMENTO",
    "zip": "95823",
    "county": "SACRAMENTO",
    "phone": null,
    "lat": 38.493549,
    "lng": -121.436559
  },
  {
    "id": "630026987",
    "name": "SACRAMENTO COMMUNITY CLINICâ€” NTSA IAB",
    "npi": "1427715515",
    "hcaiId": null,
    "businessName": "HEALTH AND LIFE ORGANIZATION, INC. (H.A.L.O.)",
    "contactEmail": null,
    "categoryName": "PRIMARY CARE CLINIC",
    "categoryCode": "COMTYC",
    "licenseStatus": "ACTIVE",
    "inService": true,
    "licenseNumber": "550007931",
    "licenseEffectiveDate": "03/31/2025",
    "licenseExpirationDate": "03/30/2026",
    "dataDate": "10/18/2025",
    "capacity": 0,
    "address": "7215 55TH ST",
    "city": "SACRAMENTO",
    "zip": "95823",
    "county": "SACRAMENTO",
    "phone": null,
    "lat": 38.495169,
    "lng": -121.440681
  },
  {
    "id": "630026912",
    "name": "SACRAMENTO NATIVE AMERICAN HEALTH CENTER, INC.",
    "npi": "1588756530",
    "hcaiId": null,
    "businessName": "SACRAMENTO NATIVE AMERICAN HEALTH CENTER, INC.",
    "contactEmail": null,
    "categoryName": "PRIMARY CARE CLINIC",
    "categoryCode": "COMTYC",
    "licenseStatus": "ACTIVE",
    "inService": true,
    "licenseNumber": "030000183",
    "licenseEffectiveDate": "01/01/2025",
    "licenseExpirationDate": "12/31/2025",
    "dataDate": "10/18/2025",
    "capacity": 0,
    "address": "3800 FLORIN RD",
    "city": "SACRAMENTO",
    "zip": "95823",
    "county": "SACRAMENTO",
    "phone": null,
    "lat": 38.495052,
    "lng": -121.463874
  },
  {
    "id": "030000320",
    "name": "SIERRA VISTA HOSPITAL, INC.",
    "npi": "1528066685",
    "hcaiId": "106342392",
    "businessName": "BHC SIERRA VISTA HOSPITAL, INC.",
    "contactEmail": "MIKE.ZAUNER@UHSINC.COM",
    "categoryName": "ACUTE PSYCHIATRIC HOSPITAL",
    "categoryCode": "APH",
    "licenseStatus": "ACTIVE",
    "inService": true,
    "licenseNumber": "030000290",
    "licenseEffectiveDate": "12/01/2024",
    "licenseExpirationDate": "11/30/2025",
    "dataDate": "10/18/2025",
    "capacity": 171,
    "address": "8001 BRUCEVILLE ROAD",
    "city": "SACRAMENTO",
    "zip": "95823",
    "county": "SACRAMENTO",
    "phone": "(916) 288-0325",
    "lat": 38.4669,
    "lng": -121.417101
  },
  {
    "id": "110001159",
    "name": "SOUTH SACRAMENTO DIALYSIS CENTER",
    "npi": null,
    "hcaiId": "306340471",
    "businessName": "WALTERIA DIALYSIS, LLC",
    "contactEmail": "CAL_C@DAVITA.COM",
    "categoryName": "CHRONIC DIALYSIS CLINIC",
    "categoryCode": "ESRD/CDC",
    "licenseStatus": "ACTIVE",
    "inService": true,
    "licenseNumber": "110000448",
    "licenseEffectiveDate": "05/05/2025",
    "licenseExpirationDate": "05/04/2026",
    "dataDate": "10/18/2025",
    "capacity": 36,
    "address": "8275 BRUCEVILLE RD",
    "city": "SACRAMENTO",
    "zip": "95823",
    "county": "SACRAMENTO",
    "phone": "(916) 427-2561",
    "lat": 38.456964,
    "lng": -121.417047
  },
  {
    "id": "110001171",
    "name": "SOUTHGATE DIALYSIS CLINIC, INC.",
    "npi": "1902839384",
    "hcaiId": "306344045",
    "businessName": "DIALYSIS CLINIC, INC.",
    "contactEmail": "ERIC.LENZ@DCIINC.ORG",
    "categoryName": "CHRONIC DIALYSIS CLINIC",
    "categoryCode": "ESRD/CDC",
    "licenseStatus": "ACTIVE",
    "inService": true,
    "licenseNumber": "110000460",
    "licenseEffectiveDate": "04/11/2025",
    "licenseExpirationDate": "04/10/2026",
    "dataDate": "10/18/2025",
    "capacity": 22,
    "address": "7231 E. SOUTHGATE DRIVE",
    "city": "SACRAMENTO",
    "zip": "95823",
    "county": "SACRAMENTO",
    "phone": "(916) 395-7585",
    "lat": 38.494773,
    "lng": -121.4361225
  },
  {
    "id": "100001513",
    "name": "VALLONE HOME - TRISTAN CIRCLE",
    "npi": "1164120390",
    "hcaiId": null,
    "businessName": "VALLONE TRISTAN CIRCLE LLC",
    "contactEmail": "IFE@CITRUSCG.COM",
    "categoryName": "INTERMEDIATE CARE FACILITY-DD/H/N/CN/IID",
    "categoryCode": "ICFDDH",
    "licenseStatus": "ACTIVE",
    "inService": true,
    "licenseNumber": "100000628",
    "licenseEffectiveDate": "12/17/2024",
    "licenseExpirationDate": "12/16/2025",
    "dataDate": "10/18/2025",
    "capacity": 6,
    "address": "96 TRISTAN CIRCLE",
    "city": "SACRAMENTO",
    "zip": "95823",
    "county": "SACRAMENTO",
    "phone": "(916) 392-1968",
    "lat": 38.479662,
    "lng": -121.443102
  },
  {
    "id": "630019257",
    "name": "WELLSPACE HEALTH FLORIN COMMUNITY HEALTH CENTER",
    "npi": null,
    "hcaiId": null,
    "businessName": "WELLSPACE HEALTH",
    "contactEmail": null,
    "categoryName": "PRIMARY CARE CLINIC",
    "categoryCode": "COMTYC",
    "licenseStatus": "ACTIVE",
    "inService": true,
    "licenseNumber": "550004588",
    "licenseEffectiveDate": "02/04/2025",
    "licenseExpirationDate": "02/03/2026",
    "dataDate": "10/18/2025",
    "capacity": 0,
    "address": "4241 FLORIN RD, SUITE 30",
    "city": "SACRAMENTO",
    "zip": "95823",
    "county": "SACRAMENTO",
    "phone": "(916) 737-5520",
    "lat": 38.49678,
    "lng": -121.4582625
  },
  {
    "id": "630015224",
    "name": "WELLSPACE HEALTH HEALTH CARE FOR WOMEN COMMUNITY HEALTH CENTER",
    "npi": "1811302045",
    "hcaiId": "306344221",
    "businessName": "WELLSPACE HEALTH",
    "contactEmail": "INFO@WELLSPACEHEALTH.ORG",
    "categoryName": "PRIMARY CARE CLINIC",
    "categoryCode": "COMTYC",
    "licenseStatus": "ACTIVE",
    "inService": true,
    "licenseNumber": "550004588",
    "licenseEffectiveDate": "02/04/2025",
    "licenseExpirationDate": "02/03/2026",
    "dataDate": "10/18/2025",
    "capacity": 0,
    "address": "7601 HOSPITAL DRIVE, SUITE 220",
    "city": "SACRAMENTO",
    "zip": "95823",
    "county": "SACRAMENTO",
    "phone": "(916) 737-5555",
    "lat": 38.464794,
    "lng": -121.4153145
  },
  {
    "id": "630025250",
    "name": "WELLSPACE HEALTH PERINATAL EDUCATION COMMUNITY HEALTH CENTER",
    "npi": "1669982237",
    "hcaiId": null,
    "businessName": "WELLSPACE HEALTH",
    "contactEmail": null,
    "categoryName": "PRIMARY CARE CLINIC",
    "categoryCode": "COMTYC",
    "licenseStatus": "ACTIVE",
    "inService": true,
    "licenseNumber": "550004588",
    "licenseEffectiveDate": "02/04/2025",
    "licenseExpirationDate": "02/03/2026",
    "dataDate": "10/18/2025",
    "capacity": 0,
    "address": "7501 HOSPITAL DR, SUITE 204",
    "city": "SACRAMENTO",
    "zip": "95823",
    "county": "SACRAMENTO",
    "phone": null,
    "lat": 38.464776,
    "lng": -121.416912
  }
]