[
  {
    "id": "630010976",
    "name": "ALTERNATIVES PREGNANCY CENTER",
    "npi": null,
    "hcaiId": "306344187",
    "businessName": "ALTERNATIVES PREGNANCY CENTER",
    "contactEmail": "OPERATIONS@ALTERNATIVESPC.ORG",
    "categoryName": "PRIMARY CARE CLINIC",
    "categoryCode": "FREEC",
    "licenseStatus": "ACTIVE",
    "inService": true,
    "licenseNumber": "550000728",
    "licenseEffectiveDate": "05/16/2025",
    "licenseExpirationDate": "05/15/2026",
    "dataDate": "10/18/2025",
    "capacity": 0,
    "address": "8689 FOLSOM BLVD",
    "city": "SACRAMENTO",
    "zip": "95826",
    "county": "SACRAMENTO",
    "phone": "(916) 880-4040",
    "lat": 38.55039706,
    "lng": -121.3821331
  },
  {
    "id": "630020075",
    "name": "AMERICAN GUARDIAN HOME HEALTH INC",
    "npi": "1093335507",
    "hcaiId": "406312990",
    "businessName": "AMERICAN GUARDIAN HOME HEALTH INC",
    "contactEmail": "AMERICANGUARDIANCARE@GMAIL.COM",
    "categoryName": "HOME HEALTH AGENCY",
    "categoryCode": "HHA",
    "licenseStatus": "ACTIVE",
    "inService": true,
    "licenseNumber": "550005859",
    "licenseEffectiveDate": "09/30/2025",
    "licenseExpirationDate": "11/15/2025",
    "dataDate": "10/18/2025",
    "capacity": 0,
    "address": "9343 TECH CENTER DR, SUITE 140",
    "city": "SACRAMENTO",
    "zip": "95826",
    "county": "SACRAMENTO",
    "phone": "(408) 482-5735",
    "lat": 38.564091,
    "lng": -121.3509285
  },
  {
    "id": "030000796",
    "name": "SUTTER CENTER FOR PSYCHIATRY",
    "npi": "1952350944",
    "hcaiId": "106344017",
    "businessName": "SUTTER VALLEY HOSPITALS",
    "contactEmail": "CAMILLA.CASTALDO@SUTTERHEALTH.ORG",
    "categoryName": "ACUTE PSYCHIATRIC HOSPITAL",
    "categoryCode": "APH",
    "licenseStatus": "ACTIVE",
    "inService": true,
    "licenseNumber": "030000347",
    "licenseEffectiveDate": "05/31/2025",
    "licenseExpirationDate": "05/30/2026",
    "dataDate": "10/18/2025",
    "capacity": 73,
    "address": "7700 FOLSOM BLVD",
    "city": "SACRAMENTO",
    "zip": "95826",
    "county": "SACRAMENTO",
    "phone": "(916) 386-3633",
    "lat": 38.549844,
    "lng": -121.4145135
  },
  {
    "id": "630013385",
    "name": "SWEET ANGELS HOME HEALTH PROVIDER, INC.",
    "npi": "1780968438",
    "hcaiId": "406344183",
    "businessName": "SWEET ANGELS HOME HEALTH PROVIDER, INC.",
    "contactEmail": "INFO@SWEETANGELSHOME.COM",
    "categoryName": "HOME HEALTH AGENCY",
    "categoryCode": "HHA",
    "licenseStatus": "ACTIVE",
    "inService": true,
    "licenseNumber": "550001929",
    "licenseEffectiveDate": "05/14/2025",
    "licenseExpirationDate": "05/13/2026",
    "dataDate": "10/18/2025",
    "capacity": 0,
    "address": "3443 RAMONA AVENUE, SUITE 23",
    "city": "SACRAMENTO",
    "zip": "95826",
    "county": "SACRAMENTO",
    "phone": "(916) 999-1429",
    "lat": 38.543085,
    "lng": -121.411611
  }
]