[
  {
    "id": "630012740",
    "name": "CALVINE DIALYSIS",
    "npi": "1093030504",
    "hcaiId": "306344171",
    "businessName": "GRIFFIN DIALYSIS LLC",
    "contactEmail": "CAL_C@DAVITA.COM",
    "categoryName": "CHRONIC DIALYSIS CLINIC",
    "categoryCode": "ESRD/CDC",
    "licenseStatus": "ACTIVE",
    "inService": true,
    "licenseNumber": "550001442",
    "licenseEffectiveDate": "11/10/2025",
    "licenseExpirationDate": "11/09/2026",
    "dataDate": "10/18/2025",
    "capacity": 24,
    "address": "8243 E. STOCKTON BOULEVARD, SUITE 100",
    "city": "SACRAMENTO",
    "zip": "95828",
    "county": "SACRAMENTO",
    "phone": "(916) 682-6655",
    "lat": 38.459574,
    "lng": -121.4094915
  },
  {
    "id": "630014680",
    "name": "CALVINE HOME TRAINING",
    "npi": "1679905715",
    "hcaiId": null,
    "businessName": null,
    "contactEmail": null,
    "categoryName": "CHRONIC DIALYSIS CLINIC",
    "categoryCode": "ESRD",
    "licenseStatus": null,
    "inService": null,
    "licenseNumber": null,
    "licenseEffectiveDate": null,
    "licenseExpirationDate": null,
    "dataDate": "10/18/2025",
    "capacity": 0,
    "address": "8231 E. STOCKTON BOULEVARD, SUITE A",
    "city": "SACRAMENTO",
    "zip": "95828",
    "county": "SACRAMENTO",
    "phone": "(916) 689-4254",
    "lat": 38.459736,
    "lng": -121.4105715
  },
  {
    "id": "630011261",
    "name": "KAISER FOUNDATION HOSPITAL HOME HEALTH - SOUTH SACRAMENTO",
    "npi": "1790869568",
    "hcaiId": "406344151",
    "businessName": "KAISER FOUNDATION HOSPITALS",
    "contactEmail": null,
    "categoryName": "HOME HEALTH AGENCY",
    "categoryCode": "HHA",
    "licenseStatus": "ACTIVE",
    "inService": true,
    "licenseNumber": "100000023",
    "licenseEffectiveDate": "11/12/2025",
    "licenseExpirationDate": "11/30/2025",
    "dataDate": "10/18/2025",
    "capacity": 0,
    "address": "8241 E. STOCKTON BOULEVARD",
    "city": "SACRAMENTO",
    "zip": "95828",
    "county": "SACRAMENTO",
    "phone": "(916) 525-4820",
    "lat": 38.459844,
    "lng": -121.4088255
  },
  {
    "id": "630011258",
    "name": "KAISER FOUNDATION HOSPITAL HOSPICE - SOUTH SACRAMENTO",
    "npi": "1679651327",
    "hcaiId": "406344150",
    "businessName": "KAISER FOUNDATION HOSPITALS",
    "contactEmail": null,
    "categoryName": "HOSPICE",
    "categoryCode": "HOSPICE",
    "licenseStatus": "ACTIVE",
    "inService": true,
    "licenseNumber": "100000599",
    "licenseEffectiveDate": "02/13/2024",
    "licenseExpirationDate": "02/12/2026",
    "dataDate": "10/18/2025",
    "capacity": 0,
    "address": "8241 E. STOCKTON BOULEVARD",
    "city": "SACRAMENTO",
    "zip": "95828",
    "county": "SACRAMENTO",
    "phone": "(916) 486-5400",
    "lat": 38.459844,
    "lng": -121.4088255
  },
  {
    "id": "630013922",
    "name": "WELLSPACE HEALTH SOUTH VALLEY COMMUNITY DENTAL CENTER",
    "npi": "1821357492",
    "hcaiId": "306344190",
    "businessName": "WELLSPACE HEALTH",
    "contactEmail": "INFO@WELLSPACEHEALTH.ORG",
    "categoryName": "PRIMARY CARE CLINIC",
    "categoryCode": "COMTYC",
    "licenseStatus": "ACTIVE",
    "inService": true,
    "licenseNumber": "550004588",
    "licenseEffectiveDate": "02/04/2025",
    "licenseExpirationDate": "02/03/2026",
    "dataDate": "10/18/2025",
    "capacity": 0,
    "address": "8231 E. STOCKTON BOULEVARD, SUITE C",
    "city": "SACRAMENTO",
    "zip": "95828",
    "county": "SACRAMENTO",
    "phone": "(916) 550-5481",
    "lat": 38.459736,
    "lng": -121.4105715
  },
  {
    "id": "630012449",
    "name": "WELLSPACE HEALTH SOUTH VALLEY COMMUNITY HEALTH CENTER",
    "npi": "1447332036",
    "hcaiId": "306344164",
    "businessName": "WELLSPACE HEALTH",
    "contactEmail": "TDELRIO@WELLSPACEHEALTH.ORG",
    "categoryName": "PRIMARY CARE CLINIC",
    "categoryCode": "COMTYC",
    "licenseStatus": "ACTIVE",
    "inService": true,
    "licenseNumber": "550001216",
    "licenseEffectiveDate": "02/09/2025",
    "licenseExpirationDate": "02/08/2026",
    "dataDate": "10/18/2025",
    "capacity": 0,
    "address": "8233 E. STOCKTON BOULEVARD, SUITE D",
    "city": "SACRAMENTO",
    "zip": "95828",
    "county": "SACRAMENTO",
    "phone": "(209) 271-4510",
    "lat": 38.459637,
    "lng": -121.409838
  }
]