[
  {
    "id": "630013892",
    "name": "ABSOLUTE COMPASSION, LLC",
    "npi": "1063728806",
    "hcaiId": "406344194",
    "businessName": "ABSOLUTE COMPASSION, LLC",
    "contactEmail": "HOSPICE@ABSOLUTECOMPASSION.COM",
    "categoryName": "HOSPICE",
    "categoryCode": "HOSPICE",
    "licenseStatus": "ACTIVE",
    "inService": true,
    "licenseNumber": "550002314",
    "licenseEffectiveDate": "07/03/2025",
    "licenseExpirationDate": "07/02/2027",
    "dataDate": "10/18/2025",
    "capacity": 0,
    "address": "6355 RIVERSIDE BOULEVARD, SUITE T",
    "city": "SACRAMENTO",
    "zip": "95831",
    "county": "SACRAMENTO",
    "phone": "(916) 399-5922",
    "lat": 38.510703,
    "lng": -121.5400995
  },
  {
    "id": "030001829",
    "name": "ACC CARE CENTER",
    "npi": "1639261795",
    "hcaiId": "206344001",
    "businessName": "ASIAN COMMUNITY CENTER OF SACRAMENTO VALLEY, INC.",
    "contactEmail": "HWHEELER@ACCSV.ORG",
    "categoryName": "SKILLED NURSING FACILITY",
    "categoryCode": "SNF",
    "licenseStatus": "ACTIVE",
    "inService": true,
    "licenseNumber": "030000311",
    "licenseEffectiveDate": "04/05/2025",
    "licenseExpirationDate": "04/04/2026",
    "dataDate": "10/18/2025",
    "capacity": 99,
    "address": "7801 RUSH RIVER DRIVE",
    "city": "SACRAMENTO",
    "zip": "95831",
    "county": "SACRAMENTO",
    "phone": "(916) 393-9020",
    "lat": 38.484333,
    "lng": -121.525515
  },
  {
    "id": "630017582",
    "name": "CARINGHAND HOME HEALTH SOLUTIONS INC.",
    "npi": "1073051033",
    "hcaiId": "406341741",
    "businessName": "CARINGHAND HOME HEALTH SOLUTIONS INC.",
    "contactEmail": "GMESCANO@GMAIL.COM",
    "categoryName": "HOME HEALTH AGENCY",
    "categoryCode": "HHA",
    "licenseStatus": "ACTIVE",
    "inService": true,
    "licenseNumber": "550004750",
    "licenseEffectiveDate": "06/19/2025",
    "licenseExpirationDate": "06/18/2026",
    "dataDate": "10/18/2025",
    "capacity": 0,
    "address": "7248 S LAND PARK DR, SUITE 201",
    "city": "SACRAMENTO",
    "zip": "95831",
    "county": "SACRAMENTO",
    "phone": "(408) 888-8039",
    "lat": 38.494602,
    "lng": -121.513743
  },
  {
    "id": "100000057",
    "name": "GREENHAVEN HEALTHCARE CENTER",
    "npi": "1437852027",
    "hcaiId": "206342212",
    "businessName": "BAWITDABA LLC",
    "contactEmail": "BTUIFUA@CYPRESSH.COM",
    "categoryName": "SKILLED NURSING FACILITY",
    "categoryCode": "SNF",
    "licenseStatus": "ACTIVE",
    "inService": true,
    "licenseNumber": "100000158",
    "licenseEffectiveDate": "06/30/2025",
    "licenseExpirationDate": "06/29/2026",
    "dataDate": "10/18/2025",
    "capacity": 148,
    "address": "455 FLORIN ROAD",
    "city": "SACRAMENTO",
    "zip": "95831",
    "county": "SACRAMENTO",
    "phone": "(916) 393-2550",
    "lat": 38.506833,
    "lng": -121.5391725
  },
  {
    "id": "630022093",
    "name": "NORTHSTAR HEALTHCARE SERVICES",
    "npi": null,
    "hcaiId": "406435190",
    "businessName": "ASCENSION HOME HEALTH CARE LLC",
    "contactEmail": "JPB@AMPLIFYBLISS.COM",
    "categoryName": "HOME HEALTH AGENCY",
    "categoryCode": "HHA",
    "licenseStatus": "ACTIVE",
    "inService": true,
    "licenseNumber": "550007711",
    "licenseEffectiveDate": "12/06/2024",
    "licenseExpirationDate": "12/05/2025",
    "dataDate": "10/18/2025",
    "capacity": 0,
    "address": "910 FLORIN RD, SUITE 102",
    "city": "SACRAMENTO",
    "zip": "95831",
    "county": "SACRAMENTO",
    "phone": "(916) 480-8448",
    "lat": 38.495781,
    "lng": -121.5256455
  },
  {
    "id": "030001643",
    "name": "VIBRANTCARE REHABILITATION SOUTHLAND PARK",
    "npi": "1992709547",
    "hcaiId": null,
    "businessName": null,
    "contactEmail": "KHARMON@VIBRANTCARE.COM",
    "categoryName": "REHABILITATION CLINIC",
    "categoryCode": "OPT/SP",
    "licenseStatus": null,
    "inService": null,
    "licenseNumber": null,
    "licenseEffectiveDate": null,
    "licenseExpirationDate": null,
    "dataDate": "10/18/2025",
    "capacity": 0,
    "address": "7230 S. LAND PARK DRIVE, SUITE 105",
    "city": "SACRAMENTO",
    "zip": "95831",
    "county": "SACRAMENTO",
    "phone": "(916) 953-3448",
    "lat": 38.494521,
    "lng": -121.5126675
  },
  {
    "id": "630017218",
    "name": "WECARE HOME HEALTH LLC",
    "npi": "1659816411",
    "hcaiId": "406341423",
    "businessName": "WECARE HOME HEALTH LLC",
    "contactEmail": "WECAREADMIN@WECAREUS.NET",
    "categoryName": "HOME HEALTH AGENCY",
    "categoryCode": "HHA",
    "licenseStatus": "ACTIVE",
    "inService": true,
    "licenseNumber": "550004361",
    "licenseEffectiveDate": "09/07/2025",
    "licenseExpirationDate": "09/06/2026",
    "dataDate": "10/18/2025",
    "capacity": 0,
    "address": "910 FLORIN RD, SUITE 202",
    "city": "SACRAMENTO",
    "zip": "95831",
    "county": "SACRAMENTO",
    "phone": "(916) 706-2713",
    "lat": 38.495781,
    "lng": -121.5256455
  }
]