[
  {
    "id": "630012334",
    "name": "24/7 MEDSTAFF",
    "npi": "1225294226",
    "hcaiId": "406074141",
    "businessName": "247 ALLSTAFF WEST LLC",
    "contactEmail": "CONTRACTS@247ALLSTAFF.COM",
    "categoryName": "HOME HEALTH AGENCY",
    "categoryCode": "HHA",
    "licenseStatus": "ACTIVE",
    "inService": true,
    "licenseNumber": "550001196",
    "licenseEffectiveDate": "01/05/2025",
    "licenseExpirationDate": "01/04/2026",
    "dataDate": "10/18/2025",
    "capacity": 0,
    "address": "2450 VENTURE OAKS WAY, SUITE 200",
    "city": "SACRAMENTO",
    "zip": "95833",
    "county": "SACRAMENTO",
    "phone": "(888) 788-5424",
    "lat": 38.60806015,
    "lng": -121.5102557
  },
  {
    "id": "100001140",
    "name": "ACCENTCARE HOME HEALTH OF CALIFORNIA, INC",
    "npi": "1316947864",
    "hcaiId": "406344080",
    "businessName": "ACCENTCARE HOME HEALTH OF CALIFORNIA, INC.",
    "contactEmail": "SHERAHHERNANDEZ@ACCENTCARE.COM",
    "categoryName": "HOME HEALTH AGENCY",
    "categoryCode": "HHA",
    "licenseStatus": "ACTIVE",
    "inService": true,
    "licenseNumber": "100000471",
    "licenseEffectiveDate": "01/12/2025",
    "licenseExpirationDate": "01/11/2026",
    "dataDate": "10/18/2025",
    "capacity": 0,
    "address": "2295 GATEWAY OAKS DR, SUITE 125",
    "city": "SACRAMENTO",
    "zip": "95833",
    "county": "SACRAMENTO",
    "phone": "(916) 852-5888",
    "lat": 38.60847975,
    "lng": -121.5130377
  },
  {
    "id": "630016631",
    "name": "ACCENTCARE HOSPICE & PALLIATIVE CARE OF CALIFORNIA - SACRAMENTO",
    "npi": "1538529755",
    "hcaiId": "406344239",
    "businessName": "SEASONS HOSPICE & PALLIATIVE CARE OF CALIFORNIA- SACRAMENTO, LLC",
    "contactEmail": "LICENSUREANDCERTIFICATION@ACCENTCARE.COM",
    "categoryName": "HOSPICE",
    "categoryCode": "HOSPICE",
    "licenseStatus": "ACTIVE",
    "inService": true,
    "licenseNumber": "550003943",
    "licenseEffectiveDate": "08/18/2025",
    "licenseExpirationDate": "08/17/2027",
    "dataDate": "10/18/2025",
    "capacity": 0,
    "address": "2295 GATEWAY OAKS DRIVE, SUITE 165",
    "city": "SACRAMENTO",
    "zip": "95833",
    "county": "SACRAMENTO",
    "phone": "(916) 307-6458",
    "lat": 38.608479,
    "lng": -121.5130365
  },
  {
    "id": "630013083",
    "name": "MISSION HOME HEALTH OF SACRAMENTO",
    "npi": "1568760718",
    "hcaiId": "406344175",
    "businessName": "HEALTHY LIVING AT HOME, LLC",
    "contactEmail": "GPINERO@MISSIONHH.COM",
    "categoryName": "HOME HEALTH AGENCY",
    "categoryCode": "HHA",
    "licenseStatus": "ACTIVE",
    "inService": true,
    "licenseNumber": "550001754",
    "licenseEffectiveDate": "07/05/2025",
    "licenseExpirationDate": "07/04/2026",
    "dataDate": "10/18/2025",
    "capacity": 0,
    "address": "2450 VENTURE OAKS WAY, SUITE 220",
    "city": "SACRAMENTO",
    "zip": "95833",
    "county": "SACRAMENTO",
    "phone": "(916) 568-9060",
    "lat": 38.608398,
    "lng": -121.5104085
  },
  {
    "id": "100000232",
    "name": "SUTTER CARE AT HOME",
    "npi": "1649209412",
    "hcaiId": "406344141",
    "businessName": "SUTTER VISITING NURSE ASSOCIATION AND HOSPICE",
    "contactEmail": "SVNAHREGULATORY@SUTTERHEALTH.ORG",
    "categoryName": "HOME HEALTH AGENCY",
    "categoryCode": "HHA",
    "licenseStatus": "ACTIVE",
    "inService": true,
    "licenseNumber": "100000143",
    "licenseEffectiveDate": "11/01/2025",
    "licenseExpirationDate": "10/31/2026",
    "dataDate": "10/18/2025",
    "capacity": 0,
    "address": "2710 GATEWAY OAKS DR, SUITE 320",
    "city": "SACRAMENTO",
    "zip": "95833",
    "county": "SACRAMENTO",
    "phone": "(916) 388-6200",
    "lat": 38.61611763,
    "lng": -121.5161076
  },
  {
    "id": "100001685",
    "name": "SUTTER HOSPICE - SACRAMENTO",
    "npi": "1033144464",
    "hcaiId": "406344168",
    "businessName": "SUTTER VISITING NURSE ASSOCIATION AND HOSPICE",
    "contactEmail": null,
    "categoryName": "HOSPICE",
    "categoryCode": "HOSPICE",
    "licenseStatus": "ACTIVE",
    "inService": true,
    "licenseNumber": "550001312",
    "licenseEffectiveDate": "04/01/2025",
    "licenseExpirationDate": "11/08/2026",
    "dataDate": "10/18/2025",
    "capacity": 0,
    "address": "2710 GATEWAY OAKS DR, SUITE 280",
    "city": "SACRAMENTO",
    "zip": "95833",
    "county": "SACRAMENTO",
    "phone": "(916) 388-6200",
    "lat": 38.61611763,
    "lng": -121.5161076
  },
  {
    "id": "100001809",
    "name": "VITAS HEALTHCARE CORPORATION OF CALIFORNIA",
    "npi": "1558405134",
    "hcaiId": "406344137",
    "businessName": "VITAS HEALTHCARE CORPORATION OF CALIFORNIA",
    "contactEmail": "JODY.KLEMENS@VITAS.COM",
    "categoryName": "HOSPICE",
    "categoryCode": "HOSPICE",
    "licenseStatus": "ACTIVE",
    "inService": true,
    "licenseNumber": "100000774",
    "licenseEffectiveDate": "11/15/2024",
    "licenseExpirationDate": "11/14/2026",
    "dataDate": "10/18/2025",
    "capacity": 0,
    "address": "2710 GATEWAY OAKS DRIVE, SUITE 100 SOUTH",
    "city": "SACRAMENTO",
    "zip": "95833",
    "county": "SACRAMENTO",
    "phone": "(916) 925-7010",
    "lat": 38.61612,
    "lng": -121.5161055
  }
]