[
  {
    "id": "630013747",
    "name": "ALARS HOME HEALTH, LLC",
    "npi": "1073809919",
    "hcaiId": "406344195",
    "businessName": "ALARS HOME HEALTH LLC",
    "contactEmail": "ADMIN@ALARSHHA.COM",
    "categoryName": "HOME HEALTH AGENCY",
    "categoryCode": "HHA",
    "licenseStatus": "ACTIVE",
    "inService": true,
    "licenseNumber": "550002320",
    "licenseEffectiveDate": "07/02/2025",
    "licenseExpirationDate": "07/01/2026",
    "dataDate": "10/18/2025",
    "capacity": 0,
    "address": "4234 N. FREEWAY BOULEVARD, SUITE 200",
    "city": "SACRAMENTO",
    "zip": "95834",
    "county": "SACRAMENTO",
    "phone": "(916) 648-1120",
    "lat": 38.646495,
    "lng": -121.477518
  },
  {
    "id": "070001186",
    "name": "ALTAMEDIX ADHC",
    "npi": null,
    "hcaiId": null,
    "businessName": "ALTAMEDIX CORPORATION",
    "contactEmail": "PD@ALTAMEDIX.COM",
    "categoryName": "ADULT DAY HEALTH CARE",
    "categoryCode": "ADHC",
    "licenseStatus": "ACTIVE",
    "inService": true,
    "licenseNumber": "070000534",
    "licenseEffectiveDate": "01/10/2025",
    "licenseExpirationDate": "01/09/2026",
    "dataDate": "10/18/2025",
    "capacity": 0,
    "address": "4234 N FREEWAY BLVD, SUITE 500",
    "city": "SACRAMENTO",
    "zip": "95834",
    "county": "SACRAMENTO",
    "phone": "(916) 648-3999",
    "lat": 38.646495,
    "lng": -121.477518
  },
  {
    "id": "630024304",
    "name": "AMERICAN RIVER INFUSION SERVICES",
    "npi": null,
    "hcaiId": "406345548",
    "businessName": "AMERICAN RIVER INFUSION SERVICES",
    "contactEmail": "PMCMILLAN@AMERICANRIVERHEALTHCARE.COM",
    "categoryName": "HOME HEALTH AGENCY",
    "categoryCode": "HHA",
    "licenseStatus": "ACTIVE",
    "inService": true,
    "licenseNumber": "550008072",
    "licenseEffectiveDate": "06/29/2025",
    "licenseExpirationDate": "06/28/2026",
    "dataDate": "10/18/2025",
    "capacity": 0,
    "address": "3855 N FREEWAY BLVD, SUITE 110",
    "city": "SACRAMENTO",
    "zip": "95834",
    "county": "SACRAMENTO",
    "phone": "(916) 239-7900",
    "lat": 38.641005,
    "lng": -121.4862165
  },
  {
    "id": "630017443",
    "name": "ARENA DIALYSIS",
    "npi": null,
    "hcaiId": "306340405",
    "businessName": "LANDOR DIALYSIS LLC",
    "contactEmail": "CAL_C@DAVITA.COM",
    "categoryName": "CHRONIC DIALYSIS CLINIC",
    "categoryCode": "ESRD/CDC",
    "licenseStatus": "ACTIVE",
    "inService": true,
    "licenseNumber": "550004407",
    "licenseEffectiveDate": "10/09/2025",
    "licenseExpirationDate": "10/08/2026",
    "dataDate": "10/18/2025",
    "capacity": 24,
    "address": "2980 ADVANTAGE WAY",
    "city": "SACRAMENTO",
    "zip": "95834",
    "county": "SACRAMENTO",
    "phone": "(916) 575-7658",
    "lat": 38.653956,
    "lng": -121.5289485
  },
  {
    "id": "630017707",
    "name": "CALIFORNIA HOME HEALTH CARE",
    "npi": "1053826313",
    "hcaiId": "406342665",
    "businessName": "SMART CEILINGS, INC.",
    "contactEmail": "LABS.NOVELL@GMAIL.COM",
    "categoryName": "HOME HEALTH AGENCY",
    "categoryCode": "HHA",
    "licenseStatus": "ACTIVE",
    "inService": true,
    "licenseNumber": "550005533",
    "licenseEffectiveDate": "06/10/2025",
    "licenseExpirationDate": "06/09/2026",
    "dataDate": "10/18/2025",
    "capacity": 0,
    "address": "180 PROMENADE CIR, SUITE 300",
    "city": "SACRAMENTO",
    "zip": "95834",
    "county": "SACRAMENTO",
    "phone": "(650) 996-1478",
    "lat": 38.636649,
    "lng": -121.49838
  },
  {
    "id": "630018924",
    "name": "E.C. LILLY PALLIATIVE CARE AND HOSPICE AGENCY, INC.",
    "npi": "1861956575",
    "hcaiId": "406342943",
    "businessName": "E.C. LILLY PALLIATIVE CARE AND HOSPICE AGENCY, INC.",
    "contactEmail": "INFO@ECLILLY.COM",
    "categoryName": "HOSPICE",
    "categoryCode": "HOSPICE",
    "licenseStatus": "ACTIVE",
    "inService": true,
    "licenseNumber": "550005808",
    "licenseEffectiveDate": "10/15/2024",
    "licenseExpirationDate": "10/14/2026",
    "dataDate": "10/18/2025",
    "capacity": 0,
    "address": "1942 DEL PASO RD, SUITE 130, ROOM 100",
    "city": "SACRAMENTO",
    "zip": "95834",
    "county": "SACRAMENTO",
    "phone": "(916) 627-5996",
    "lat": 38.655288,
    "lng": -121.5053775
  },
  {
    "id": "630027525",
    "name": "FELLOW HOME HEALTH INC.",
    "npi": null,
    "hcaiId": null,
    "businessName": "FELLOW HOME HEALTH, INC.",
    "contactEmail": "INFO@FELLOWHH.COM",
    "categoryName": "HOME HEALTH AGENCY",
    "categoryCode": "HHA",
    "licenseStatus": "ACTIVE",
    "inService": true,
    "licenseNumber": "550009699",
    "licenseEffectiveDate": "09/04/2025",
    "licenseExpirationDate": "03/03/2026",
    "dataDate": "10/18/2025",
    "capacity": 0,
    "address": "4600 NORTHGATE BLVD, SUITE 217",
    "city": "SACRAMENTO",
    "zip": "95834",
    "county": "SACRAMENTO",
    "phone": "(916) 891-5997",
    "lat": 38.65253717,
    "lng": -121.4767246
  },
  {
    "id": "630010997",
    "name": "NATOMAS DIALYSIS",
    "npi": "1154348068",
    "hcaiId": "306344148",
    "businessName": "NATOMAS DIALYSIS, LLC",
    "contactEmail": "CAL_C@DAVITA.COM",
    "categoryName": "CHRONIC DIALYSIS CLINIC",
    "categoryCode": "ESRD/CDC",
    "licenseStatus": "ACTIVE",
    "inService": true,
    "licenseNumber": "550000393",
    "licenseEffectiveDate": "06/22/2025",
    "licenseExpirationDate": "06/21/2026",
    "dataDate": "10/18/2025",
    "capacity": 24,
    "address": "30 GOLDEN LAND COURT, BUILDING G",
    "city": "SACRAMENTO",
    "zip": "95834",
    "county": "SACRAMENTO",
    "phone": "(916) 285-6452",
    "lat": 38.650914,
    "lng": -121.504293
  },
  {
    "id": "630015469",
    "name": "OPTUM INFUSION SERVICES 401, LLC",
    "npi": null,
    "hcaiId": "406344228",
    "businessName": "OPTUM INFUSION SERVICES 401, LLC",
    "contactEmail": "OLSLICENSING@OPTUM.COM",
    "categoryName": "HOME HEALTH AGENCY",
    "categoryCode": "HHA",
    "licenseStatus": "ACTIVE",
    "inService": true,
    "licenseNumber": "550003571",
    "licenseEffectiveDate": "07/12/2025",
    "licenseExpirationDate": "07/11/2026",
    "dataDate": "10/18/2025",
    "capacity": 0,
    "address": "4610 NORTHGATE BLVD., SUITE 130",
    "city": "SACRAMENTO",
    "zip": "95834",
    "county": "SACRAMENTO",
    "phone": "(913) 335-6786",
    "lat": 38.652534,
    "lng": -121.476735
  },
  {
    "id": "630016761",
    "name": "PEACH TREE NORTH SACRAMENTO",
    "npi": null,
    "hcaiId": "306344231",
    "businessName": "PEACH TREE HEALTHCARE",
    "contactEmail": "AVUE@PICKPEACH.ORG",
    "categoryName": "PRIMARY CARE CLINIC",
    "categoryCode": "COMTYC",
    "licenseStatus": "ACTIVE",
    "inService": true,
    "licenseNumber": "550003609",
    "licenseEffectiveDate": "07/28/2025",
    "licenseExpirationDate": "07/27/2026",
    "dataDate": "10/18/2025",
    "capacity": 0,
    "address": "3810 ROSIN COURT, SUITE 100",
    "city": "SACRAMENTO",
    "zip": "95834",
    "county": "SACRAMENTO",
    "phone": "(530) 749-3242",
    "lat": 38.638035,
    "lng": -121.4745435
  },
  {
    "id": "630028184",
    "name": "PEACH TREE NORTH SACRAMENTO II",
    "npi": null,
    "hcaiId": null,
    "businessName": "PEACH TREE HEALTHCARE",
    "contactEmail": null,
    "categoryName": "PRIMARY CARE CLINIC",
    "categoryCode": "FQHC/COMTYC",
    "licenseStatus": "ACTIVE",
    "inService": true,
    "licenseNumber": "550003609",
    "licenseEffectiveDate": "07/28/2025",
    "licenseExpirationDate": "07/27/2026",
    "dataDate": "10/18/2025",
    "capacity": 0,
    "address": "3840 ROSIN CT, SUITE 150",
    "city": "SACRAMENTO",
    "zip": "95834",
    "county": "SACRAMENTO",
    "phone": null,
    "lat": 38.6375667,
    "lng": -121.4733192
  },
  {
    "id": "630019543",
    "name": "SACRAMENTO COMMUNITY CLINIC - B. TERI BURNS CLINIC",
    "npi": "1427715515",
    "hcaiId": null,
    "businessName": "HEALTH AND LIFE ORGANIZATION, INC. (H.A.L.O.)",
    "contactEmail": null,
    "categoryName": "PRIMARY CARE CLINIC",
    "categoryCode": "COMTYC",
    "licenseStatus": "ACTIVE",
    "inService": true,
    "licenseNumber": "550007931",
    "licenseEffectiveDate": "03/31/2025",
    "licenseExpirationDate": "03/30/2026",
    "dataDate": "10/18/2025",
    "capacity": 0,
    "address": "3301 FONG RANCH RD",
    "city": "SACRAMENTO",
    "zip": "95834",
    "county": "SACRAMENTO",
    "phone": null,
    "lat": 38.628351,
    "lng": -121.4946855
  },
  {
    "id": "630027783",
    "name": "SACRAMENTO COMMUNITY CLINIC- B TERI BURNS",
    "npi": null,
    "hcaiId": null,
    "businessName": "HEALTH AND LIFE ORGANIZATION, INC. (H.A.L.O.)",
    "contactEmail": "JBLIATOUT@SBCGLOBAL.NET",
    "categoryName": "PRIMARY CARE CLINIC",
    "categoryCode": "FQHC/COMTYC",
    "licenseStatus": "ACTIVE",
    "inService": true,
    "licenseNumber": "550009380",
    "licenseEffectiveDate": "09/27/2025",
    "licenseExpirationDate": "09/26/2026",
    "dataDate": "10/18/2025",
    "capacity": 0,
    "address": "3314 FONG RANCH RD",
    "city": "SACRAMENTO",
    "zip": "95834",
    "county": "SACRAMENTO",
    "phone": "(916) 600-8738",
    "lat": 38.6278442,
    "lng": -121.4960636
  },
  {
    "id": "630026878",
    "name": "SACRAMENTO REHABILITATION HOSPITAL",
    "npi": "1891421749",
    "hcaiId": "106341326",
    "businessName": "SACRAMENTO REHABILITATION HOSPITAL, LLC",
    "contactEmail": "JOSEPHHUGAR2@ERNESTHEALTH.COM",
    "categoryName": "GENERAL ACUTE CARE HOSPITAL",
    "categoryCode": "GACH",
    "licenseStatus": "ACTIVE",
    "inService": true,
    "licenseNumber": "550008395",
    "licenseEffectiveDate": "02/24/2025",
    "licenseExpirationDate": "02/23/2026",
    "dataDate": "10/18/2025",
    "capacity": 50,
    "address": "10 ADVANTAGE CT",
    "city": "SACRAMENTO",
    "zip": "95834",
    "county": "SACRAMENTO",
    "phone": "(279) 499-1505",
    "lat": 38.651841,
    "lng": -121.52916
  },
  {
    "id": "630014449",
    "name": "SATELLITE HEALTHCARE SACRAMENTO",
    "npi": "1174300925",
    "hcaiId": "306344197",
    "businessName": "SATELLITE DIALYSIS SACRAMENTO, LLC",
    "contactEmail": "GRUSSINGJ@SATELLITEHEALTH.COM",
    "categoryName": "CHRONIC DIALYSIS CLINIC",
    "categoryCode": "ESRD/CDC",
    "licenseStatus": "ACTIVE",
    "inService": true,
    "licenseNumber": "550002431",
    "licenseEffectiveDate": "10/10/2025",
    "licenseExpirationDate": "10/09/2026",
    "dataDate": "10/18/2025",
    "capacity": 29,
    "address": "646 N MARKET BLVD",
    "city": "SACRAMENTO",
    "zip": "95834",
    "county": "SACRAMENTO",
    "phone": "(650) 464-1455",
    "lat": 38.64697695,
    "lng": -121.4775213
  },
  {
    "id": "630019123",
    "name": "SONDER HOME HEALTH CARE",
    "npi": "1649731993",
    "hcaiId": "406342408",
    "businessName": "SONDER HEALTHCARE, INC.",
    "contactEmail": "ALI@SONDERHEALTHCARE.COM",
    "categoryName": "HOME HEALTH AGENCY",
    "categoryCode": "HHA",
    "licenseStatus": "ACTIVE",
    "inService": true,
    "licenseNumber": "550005285",
    "licenseEffectiveDate": "02/11/2025",
    "licenseExpirationDate": "02/10/2026",
    "dataDate": "10/18/2025",
    "capacity": 0,
    "address": "4600 NORTHGATE BLVD, SUITE 130A",
    "city": "SACRAMENTO",
    "zip": "95834",
    "county": "SACRAMENTO",
    "phone": "(916) 864-9528",
    "lat": 38.652534,
    "lng": -121.476735
  },
  {
    "id": "630018980",
    "name": "SONDER HOSPICE CARE",
    "npi": "1447711791",
    "hcaiId": "406342410",
    "businessName": "SONDER HEALTHCARE, INC.",
    "contactEmail": "ALI@SONDERHEALTHCARE.COM",
    "categoryName": "HOSPICE",
    "categoryCode": "HOSPICE",
    "licenseStatus": "ACTIVE",
    "inService": true,
    "licenseNumber": "550005292",
    "licenseEffectiveDate": "02/11/2024",
    "licenseExpirationDate": "02/10/2026",
    "dataDate": "10/18/2025",
    "capacity": 0,
    "address": "4600 NORTHGATE BLVD, SUITE 130B",
    "city": "SACRAMENTO",
    "zip": "95834",
    "county": "SACRAMENTO",
    "phone": "(916) 550-1159",
    "lat": 38.652534,
    "lng": -121.476735
  },
  {
    "id": "630016300",
    "name": "SUNCREST HOSPICE SACRAMENTO, LLC",
    "npi": "1144697608",
    "hcaiId": "406344240",
    "businessName": "SUNCREST HOSPICE SACRAMENTO, LLC",
    "contactEmail": "DSAMPSON@SUNCRESTCARE.COM",
    "categoryName": "HOSPICE",
    "categoryCode": "HOSPICE",
    "licenseStatus": "ACTIVE",
    "inService": true,
    "licenseNumber": "550003944",
    "licenseEffectiveDate": "08/10/2025",
    "licenseExpirationDate": "08/09/2027",
    "dataDate": "10/18/2025",
    "capacity": 0,
    "address": "2210 DEL PASO RD, SUITE A",
    "city": "SACRAMENTO",
    "zip": "95834",
    "county": "SACRAMENTO",
    "phone": "(916) 928-0102",
    "lat": 38.65519344,
    "lng": -121.5091567
  },
  {
    "id": "630021114",
    "name": "TFR-HOME HEALTH AGENCY",
    "npi": "1295356905",
    "hcaiId": "406343138",
    "businessName": "TOP FLIGHT REGISTRY INC",
    "contactEmail": "KELLYW@TOPFLIGHTREGISTRY.COM",
    "categoryName": "HOME HEALTH AGENCY",
    "categoryCode": "HHA",
    "licenseStatus": "ACTIVE",
    "inService": true,
    "licenseNumber": "550006506",
    "licenseEffectiveDate": "07/07/2025",
    "licenseExpirationDate": "07/06/2026",
    "dataDate": "10/18/2025",
    "capacity": 0,
    "address": "4208 N FREEWAY BLVD, SUITE 7A",
    "city": "SACRAMENTO",
    "zip": "95834",
    "county": "SACRAMENTO",
    "phone": "(916) 715-1337",
    "lat": 38.64555,
    "lng": -121.477428
  },
  {
    "id": "630017802",
    "name": "WELLSPACE HEALTH PROFESSIONAL HEALTH CENTER FOR WOMEN",
    "npi": "1447332036",
    "hcaiId": null,
    "businessName": "WELLSPACE HEALTH",
    "contactEmail": null,
    "categoryName": "PRIMARY CARE CLINIC",
    "categoryCode": "COMTYC",
    "licenseStatus": "ACTIVE",
    "inService": true,
    "licenseNumber": "550001216",
    "licenseEffectiveDate": "02/09/2025",
    "licenseExpirationDate": "02/08/2026",
    "dataDate": "10/18/2025",
    "capacity": 0,
    "address": "4150 TRUXEL ROAD, SUITE C",
    "city": "SACRAMENTO",
    "zip": "95834",
    "county": "SACRAMENTO",
    "phone": null,
    "lat": 38.645676,
    "lng": -121.5080235
  }
]