[
  {
    "id": "630013018",
    "name": "ADVANCED HOME HEALTH AND HOSPICE, INC.",
    "npi": "1194020073",
    "hcaiId": "406344176",
    "businessName": "ADVANCED HOME HEALTH AND HOSPICE, INC.",
    "contactEmail": "SHTILLMAN@AHH1.COM",
    "categoryName": "HOSPICE",
    "categoryCode": "HOSPICE",
    "licenseStatus": "ACTIVE",
    "inService": true,
    "licenseNumber": "550001702",
    "licenseEffectiveDate": "10/04/2025",
    "licenseExpirationDate": "10/03/2027",
    "dataDate": "10/18/2025",
    "capacity": 0,
    "address": "4362 AUBURN BOULEVARD, SUITE 100",
    "city": "SACRAMENTO",
    "zip": "95841",
    "county": "SACRAMENTO",
    "phone": "(916) 678-5807",
    "lat": 38.6459008,
    "lng": -121.3612345
  },
  {
    "id": "100001060",
    "name": "ADVANCED HOME HEALTH, INC",
    "npi": "1306069737",
    "hcaiId": "406344059",
    "businessName": "ADVANCED HOME HEALTH, INC",
    "contactEmail": "INFO@AHH1.COM",
    "categoryName": "HOME HEALTH AGENCY",
    "categoryCode": "HHA",
    "licenseStatus": "ACTIVE",
    "inService": true,
    "licenseNumber": "100000439",
    "licenseEffectiveDate": "12/01/2024",
    "licenseExpirationDate": "11/30/2025",
    "dataDate": "10/18/2025",
    "capacity": 0,
    "address": "4362 AUBURN BLVD, SUITE 300",
    "city": "SACRAMENTO",
    "zip": "95841",
    "county": "SACRAMENTO",
    "phone": "(916) 978-0744",
    "lat": 38.64570797,
    "lng": -121.3612439
  },
  {
    "id": "030000005",
    "name": "COLLEGE OAK NURSING AND REHABILITATION CENTER",
    "npi": "1831651645",
    "hcaiId": "206340908",
    "businessName": "SPYGLASS LLC",
    "contactEmail": "CMCCONNELL@CYPRESSH.COM",
    "categoryName": "SKILLED NURSING FACILITY",
    "categoryCode": "SNF",
    "licenseStatus": "ACTIVE",
    "inService": true,
    "licenseNumber": "030000050",
    "licenseEffectiveDate": "11/01/2025",
    "licenseExpirationDate": "10/31/2026",
    "dataDate": "10/18/2025",
    "capacity": 120,
    "address": "4635 COLLEGE OAK DRIVE",
    "city": "SACRAMENTO",
    "zip": "95841",
    "county": "SACRAMENTO",
    "phone": "(916) 481-7434",
    "lat": 38.64969,
    "lng": -121.3513875
  },
  {
    "id": "030000822",
    "name": "HERITAGE OAKS HOSPITAL",
    "npi": "1083709653",
    "hcaiId": "106344021",
    "businessName": "BHC HERITAGE OAKS HOSPITAL, INC.",
    "contactEmail": "TERRANCE.DENNIS@UHSINC.COM",
    "categoryName": "ACUTE PSYCHIATRIC HOSPITAL",
    "categoryCode": "APH",
    "licenseStatus": "ACTIVE",
    "inService": true,
    "licenseNumber": "030000357",
    "licenseEffectiveDate": "12/01/2024",
    "licenseExpirationDate": "11/30/2025",
    "dataDate": "10/18/2025",
    "capacity": 125,
    "address": "4250 AUBURN BOULEVARD",
    "city": "SACRAMENTO",
    "zip": "95841",
    "county": "SACRAMENTO",
    "phone": "(916) 480-5106",
    "lat": 38.64285,
    "lng": -121.364946
  },
  {
    "id": "110001181",
    "name": "MADISON DIALYSIS CLINIC",
    "npi": "1144253527",
    "hcaiId": "306344121",
    "businessName": "DIALYSIS CLINIC, INC.",
    "contactEmail": "MERCEDES.RANARIO@DCIINC.ORG",
    "categoryName": "CHRONIC DIALYSIS CLINIC",
    "categoryCode": "ESRD/CDC",
    "licenseStatus": "ACTIVE",
    "inService": true,
    "licenseNumber": "110000470",
    "licenseEffectiveDate": "08/27/2025",
    "licenseExpirationDate": "12/17/2025",
    "dataDate": "10/18/2025",
    "capacity": 27,
    "address": "5244 MADISON AVE",
    "city": "SACRAMENTO",
    "zip": "95841",
    "county": "SACRAMENTO",
    "phone": "(916) 338-6644",
    "lat": 38.660382,
    "lng": -121.3418943
  },
  {
    "id": "630012515",
    "name": "NORTHERN CALIFORNIA ADVANCED SURGERY CENTER, LP",
    "npi": "1710127774",
    "hcaiId": null,
    "businessName": null,
    "contactEmail": null,
    "categoryName": "SURGICAL CLINIC",
    "categoryCode": "ASC",
    "licenseStatus": null,
    "inService": null,
    "licenseNumber": null,
    "licenseEffectiveDate": null,
    "licenseExpirationDate": null,
    "dataDate": "10/18/2025",
    "capacity": 0,
    "address": "5771 GREENBACK LANE",
    "city": "SACRAMENTO",
    "zip": "95841",
    "county": "SACRAMENTO",
    "phone": "(916) 239-2046",
    "lat": 38.682279,
    "lng": -121.3271055
  },
  {
    "id": "630021430",
    "name": "QUIESCENCE CARE HOME",
    "npi": null,
    "hcaiId": "206340315",
    "businessName": "QUIESCENCE CARE HOMES BY RNS",
    "contactEmail": "ADMIN@CAREHOMEBYRNS.COM",
    "categoryName": "CONGREGATE LIVING HEALTH FACILITY",
    "categoryCode": "CLHF",
    "licenseStatus": "ACTIVE",
    "inService": true,
    "licenseNumber": "550006736",
    "licenseEffectiveDate": "08/31/2025",
    "licenseExpirationDate": "08/30/2026",
    "dataDate": "10/18/2025",
    "capacity": 6,
    "address": "4970 WALNUT AVE",
    "city": "SACRAMENTO",
    "zip": "95841",
    "county": "SACRAMENTO",
    "phone": "(916) 223-0150",
    "lat": 38.655861,
    "lng": -121.345894
  },
  {
    "id": "030000067",
    "name": "SACRAMENTO POST-ACUTE",
    "npi": "1407154636",
    "hcaiId": "206341182",
    "businessName": "OLEANDER HOLDINGS, LLC",
    "contactEmail": "JEFF.BARBIERI@SACPOSTACUTE.COM",
    "categoryName": "SKILLED NURSING FACILITY",
    "categoryCode": "SNF",
    "licenseStatus": "ACTIVE",
    "inService": true,
    "licenseNumber": "030000122",
    "licenseEffectiveDate": "06/07/2025",
    "licenseExpirationDate": "06/06/2026",
    "dataDate": "10/18/2025",
    "capacity": 99,
    "address": "5255 HEMLOCK STREET",
    "city": "SACRAMENTO",
    "zip": "95841",
    "county": "SACRAMENTO",
    "phone": "(916) 331-4590",
    "lat": 38.662884,
    "lng": -121.341969
  },
  {
    "id": "630019153",
    "name": "SANCTUARY HOME HEALTH",
    "npi": "1184285041",
    "hcaiId": "406344432",
    "businessName": "SANCTUARY HOME HEALTH",
    "contactEmail": "AMAC@SANCTUARYHH.COM",
    "categoryName": "HOME HEALTH AGENCY",
    "categoryCode": "HHA",
    "licenseStatus": "ACTIVE",
    "inService": true,
    "licenseNumber": "550005831",
    "licenseEffectiveDate": "11/06/2025",
    "licenseExpirationDate": "11/05/2026",
    "dataDate": "10/18/2025",
    "capacity": 0,
    "address": "4370 AUBURN BLVD, SUITE B",
    "city": "SACRAMENTO",
    "zip": "95841",
    "county": "SACRAMENTO",
    "phone": "(916) 952-6533",
    "lat": 38.64611881,
    "lng": -121.361133
  },
  {
    "id": "630019152",
    "name": "SANCTUARY HOSPICE",
    "npi": "1972163905",
    "hcaiId": "406342719",
    "businessName": "SANCTUARY HOSPICE",
    "contactEmail": "INFO@SANCTUARY-HOSPICE.COM",
    "categoryName": "HOSPICE",
    "categoryCode": "HOSPICE",
    "licenseStatus": "ACTIVE",
    "inService": true,
    "licenseNumber": "550005565",
    "licenseEffectiveDate": "07/15/2025",
    "licenseExpirationDate": "06/10/2026",
    "dataDate": "10/18/2025",
    "capacity": 0,
    "address": "4370 AUBURN BLVD, SUITE A",
    "city": "SACRAMENTO",
    "zip": "95841",
    "county": "SACRAMENTO",
    "phone": "(916) 671-3017",
    "lat": 38.64611881,
    "lng": -121.361133
  },
  {
    "id": "630025046",
    "name": "UNIQUE HEALTHCARE SERVICES, INC.",
    "npi": null,
    "hcaiId": "406196785",
    "businessName": "UNIQUE HEALTHCARE SERVICES, INC.",
    "contactEmail": "UNIQUEHEALTHCARECA@GMAIL.COM",
    "categoryName": "HOME HEALTH AGENCY",
    "categoryCode": "HHA",
    "licenseStatus": "ACTIVE",
    "inService": true,
    "licenseNumber": "550008335",
    "licenseEffectiveDate": "04/02/2025",
    "licenseExpirationDate": "01/18/2026",
    "dataDate": "10/18/2025",
    "capacity": 0,
    "address": "5777 MADISON AVE, SUITE 530",
    "city": "SACRAMENTO",
    "zip": "95841",
    "county": "SACRAMENTO",
    "phone": "(818) 751-2476",
    "lat": 38.66131872,
    "lng": -121.3307121
  }
]