[
  {
    "id": "100001498",
    "name": "RCCA - CHIMANGO",
    "npi": "1447386362",
    "hcaiId": null,
    "businessName": "RES-CARE CALIFORNIA, INC.",
    "contactEmail": "SHARRAE.ELSTON@RESCARE.COM",
    "categoryName": "INTERMEDIATE CARE FACILITY-DD/H/N/CN/IID",
    "categoryCode": "ICFDDH",
    "licenseStatus": "ACTIVE",
    "inService": true,
    "licenseNumber": "100000614",
    "licenseEffectiveDate": "03/12/2025",
    "licenseExpirationDate": "03/11/2026",
    "dataDate": "10/18/2025",
    "capacity": 6,
    "address": "8141 CHIMANGO WAY",
    "city": "ANTELOPE",
    "zip": "95843",
    "county": "SACRAMENTO",
    "phone": "(916) 689-7825",
    "lat": 38.71745297,
    "lng": -121.3499568
  },
  {
    "id": "100001481",
    "name": "RCCA - PHOENIX",
    "npi": "1487781159",
    "hcaiId": null,
    "businessName": "RES-CARE CALIFORNIA, INC.",
    "contactEmail": "SHARRAE.ELSTON@RESCARE.COM",
    "categoryName": "INTERMEDIATE CARE FACILITY-DD/H/N/CN/IID",
    "categoryCode": "ICFDDN",
    "licenseStatus": "ACTIVE",
    "inService": true,
    "licenseNumber": "100000607",
    "licenseEffectiveDate": "12/31/2024",
    "licenseExpirationDate": "12/30/2025",
    "dataDate": "10/18/2025",
    "capacity": 6,
    "address": "8525 MEANDERING WAY",
    "city": "ANTELOPE",
    "zip": "95843",
    "county": "SACRAMENTO",
    "phone": "(916) 725-5301",
    "lat": 38.724561,
    "lng": -121.350501
  },
  {
    "id": "630012710",
    "name": "TULLIA PLACE  ICF/DD-N",
    "npi": "1528386786",
    "hcaiId": null,
    "businessName": "ANTELOPE HILLS MANOR ICF-DDN, INC.",
    "contactEmail": "AGRANITRN1961@COMCAST.NET",
    "categoryName": "INTERMEDIATE CARE FACILITY-DD/H/N/CN/IID",
    "categoryCode": "ICFDDN",
    "licenseStatus": "ACTIVE",
    "inService": true,
    "licenseNumber": "550001391",
    "licenseEffectiveDate": "11/30/2024",
    "licenseExpirationDate": "11/29/2025",
    "dataDate": "10/18/2025",
    "capacity": 6,
    "address": "8533 TULLIA PLACE",
    "city": "ANTELOPE",
    "zip": "95843",
    "county": "SACRAMENTO",
    "phone": "(916) 548-1397",
    "lat": 38.724408,
    "lng": -121.345902
  }
]