[
  {
    "id": "230000261",
    "name": "ADVENTIST HEALTH AND RIDEOUT",
    "npi": "1720088354",
    "hcaiId": "106580996",
    "businessName": "RIDEOUT MEMORIAL HOSPITAL",
    "contactEmail": "AHROREGULATORY@AH.ORG",
    "categoryName": "GENERAL ACUTE CARE HOSPITAL",
    "categoryCode": "GACH",
    "licenseStatus": "ACTIVE",
    "inService": true,
    "licenseNumber": "230000126",
    "licenseEffectiveDate": "11/01/2025",
    "licenseExpirationDate": "10/31/2026",
    "dataDate": "10/18/2025",
    "capacity": 221,
    "address": "726 4TH ST",
    "city": "MARYSVILLE",
    "zip": "95901",
    "county": "YUBA",
    "phone": "(530) 749-4300",
    "lat": 39.138237,
    "lng": -121.5943695
  },
  {
    "id": "630027863",
    "name": "AMPLA HEALTH MARYSVILLE MEDICAL AT THE CANNERY",
    "npi": null,
    "hcaiId": null,
    "businessName": "AMPLA HEALTH",
    "contactEmail": "AGOMEZ@AMPLAHEALTH.ORG",
    "categoryName": "PRIMARY CARE CLINIC",
    "categoryCode": "FQHC/COMTYC",
    "licenseStatus": "ACTIVE",
    "inService": true,
    "licenseNumber": "550009541",
    "licenseEffectiveDate": "12/12/2024",
    "licenseExpirationDate": "12/11/2025",
    "dataDate": "10/18/2025",
    "capacity": 0,
    "address": "608 J ST",
    "city": "MARYSVILLE",
    "zip": "95901",
    "county": "YUBA",
    "phone": "(530) 751-3732",
    "lat": 39.14078994,
    "lng": -121.5983479
  },
  {
    "id": "630013039",
    "name": "BABY BUDDIES BIRTH CENTER",
    "npi": "1700220407",
    "hcaiId": "306584011",
    "businessName": "HARMONY HEALTH MEDICAL CLINIC AND FAMILY RESOURCE CENTER",
    "contactEmail": "CEO@MYHARMONYHEALTH.ORG",
    "categoryName": "ALTERNATIVE BIRTHING CENTER",
    "categoryCode": "ABC",
    "licenseStatus": "ACTIVE",
    "inService": true,
    "licenseNumber": "550001609",
    "licenseEffectiveDate": "05/01/2025",
    "licenseExpirationDate": "04/30/2026",
    "dataDate": "10/18/2025",
    "capacity": 0,
    "address": "1908 N BEALE RD, SUITE C",
    "city": "MARYSVILLE",
    "zip": "95901",
    "county": "YUBA",
    "phone": "(530) 743-6888",
    "lat": 39.127581,
    "lng": -121.54581
  },
  {
    "id": "230000745",
    "name": "DR. NDULUE MEDICAL PRACTICE",
    "npi": "1134124001",
    "hcaiId": null,
    "businessName": null,
    "contactEmail": null,
    "categoryName": "PRIMARY CARE CLINIC",
    "categoryCode": "RHC/MD",
    "licenseStatus": null,
    "inService": null,
    "licenseNumber": null,
    "licenseEffectiveDate": null,
    "licenseExpirationDate": null,
    "dataDate": "10/18/2025",
    "capacity": 0,
    "address": "620 E ST",
    "city": "MARYSVILLE",
    "zip": "95901",
    "county": "YUBA",
    "phone": "(530) 741-2600",
    "lat": 39.141918,
    "lng": -121.591188
  },
  {
    "id": "630015099",
    "name": "FREEDOM HOME HEALTH AND HOSPICE CARE SERVICES INC",
    "npi": "1043636293",
    "hcaiId": "406584013",
    "businessName": "FREEDOM HOME HEALTH AND HOSPICE CARE SERVICES, INC.",
    "contactEmail": "SABI@FREEDOMHHHCARE.COM",
    "categoryName": "HOSPICE",
    "categoryCode": "HOSPICE",
    "licenseStatus": "ACTIVE",
    "inService": true,
    "licenseNumber": "550002840",
    "licenseEffectiveDate": "09/08/2024",
    "licenseExpirationDate": "09/07/2026",
    "dataDate": "10/18/2025",
    "capacity": 0,
    "address": "519 D ST, SUITE B",
    "city": "MARYSVILLE",
    "zip": "95901",
    "county": "YUBA",
    "phone": "(530) 742-4800",
    "lat": 39.141126,
    "lng": -121.5886815
  },
  {
    "id": "630014939",
    "name": "FREEDOM HOME HEALTH AND HOSPICE CARE SERVICES, INC.",
    "npi": "1720404288",
    "hcaiId": "406584014",
    "businessName": "FREEDOM HOME HEALTH AND HOSPICE CARE SERVICES, INC.",
    "contactEmail": "SABI@FREEDOMHHHCARE.COM",
    "categoryName": "HOME HEALTH AGENCY",
    "categoryCode": "HHA",
    "licenseStatus": "ACTIVE",
    "inService": true,
    "licenseNumber": "550002841",
    "licenseEffectiveDate": "09/08/2025",
    "licenseExpirationDate": "09/07/2026",
    "dataDate": "10/18/2025",
    "capacity": 0,
    "address": "519 D ST, SUITE A",
    "city": "MARYSVILLE",
    "zip": "95901",
    "county": "YUBA",
    "phone": "(530) 742-4800",
    "lat": 39.141126,
    "lng": -121.5886815
  },
  {
    "id": "630021022",
    "name": "HARMONY HEALTH MEDICAL CLINIC AND FAMILY RESOURCE CENTER",
    "npi": null,
    "hcaiId": null,
    "businessName": "HARMONY HEALTH MEDICAL CLINIC AND FAMILY RESOURCE CENTER",
    "contactEmail": null,
    "categoryName": "PRIMARY CARE CLINIC",
    "categoryCode": "COMTYC",
    "licenseStatus": "ACTIVE",
    "inService": true,
    "licenseNumber": "550002538",
    "licenseEffectiveDate": "10/10/2025",
    "licenseExpirationDate": "10/09/2026",
    "dataDate": "10/18/2025",
    "capacity": 0,
    "address": "1930 N BEALE RD",
    "city": "MARYSVILLE",
    "zip": "95901",
    "county": "YUBA",
    "phone": null,
    "lat": 39.12759,
    "lng": -121.544982
  },
  {
    "id": "630024549",
    "name": "HARMONY HEALTH MEDICAL CLINIC AND FAMILY RESOURCE CENTER",
    "npi": "1124130620",
    "hcaiId": null,
    "businessName": "HARMONY HEALTH MEDICAL CLINIC AND FAMILY RESOURCE CENTER",
    "contactEmail": null,
    "categoryName": "PRIMARY CARE CLINIC",
    "categoryCode": "COMTYC",
    "licenseStatus": "ACTIVE",
    "inService": true,
    "licenseNumber": "550002538",
    "licenseEffectiveDate": "10/10/2025",
    "licenseExpirationDate": "10/09/2026",
    "dataDate": "10/18/2025",
    "capacity": 0,
    "address": "1976 N BEALE RD",
    "city": "MARYSVILLE",
    "zip": "95901",
    "county": "YUBA",
    "phone": null,
    "lat": 39.127248,
    "lng": -121.542912
  },
  {
    "id": "630014199",
    "name": "HARMONY HEALTH MEDICAL CLINIC AND FAMILY RESOURCES CENTER",
    "npi": "1124130620",
    "hcaiId": "306584012",
    "businessName": "HARMONY HEALTH MEDICAL CLINIC AND FAMILY RESOURCE CENTER",
    "contactEmail": "HARMONYHEALTH@COMCAST.NET",
    "categoryName": "PRIMARY CARE CLINIC",
    "categoryCode": "COMTYC",
    "licenseStatus": "ACTIVE",
    "inService": true,
    "licenseNumber": "550002538",
    "licenseEffectiveDate": "10/10/2025",
    "licenseExpirationDate": "10/09/2026",
    "dataDate": "10/18/2025",
    "capacity": 0,
    "address": "1908 N BEALE RD, SUITE E",
    "city": "MARYSVILLE",
    "zip": "95901",
    "county": "YUBA",
    "phone": "(530) 743-6888",
    "lat": 39.127581,
    "lng": -121.54581
  },
  {
    "id": "630013019",
    "name": "MARYSVILLE CLINIC",
    "npi": "1730497421",
    "hcaiId": null,
    "businessName": null,
    "contactEmail": "YBRAR@YAHOO.COM",
    "categoryName": "PRIMARY CARE CLINIC",
    "categoryCode": "RHC",
    "licenseStatus": null,
    "inService": null,
    "licenseNumber": null,
    "licenseEffectiveDate": null,
    "licenseExpirationDate": null,
    "dataDate": "10/18/2025",
    "capacity": 0,
    "address": "527 E ST",
    "city": "MARYSVILLE",
    "zip": "95901",
    "county": "YUBA",
    "phone": "(530) 743-5300",
    "lat": 39.141171,
    "lng": -121.5904185
  },
  {
    "id": "110001268",
    "name": "MARYSVILLE DIALYSIS CENTER",
    "npi": "1487617817",
    "hcaiId": "306584006",
    "businessName": "MARYSVILLE DIALYSIS CENTER, LLC",
    "contactEmail": "CAL_C@DAVITA.COM",
    "categoryName": "CHRONIC DIALYSIS CLINIC",
    "categoryCode": "ESRD/CDC",
    "licenseStatus": "ACTIVE",
    "inService": true,
    "licenseNumber": "110000524",
    "licenseEffectiveDate": "04/06/2025",
    "licenseExpirationDate": "04/05/2026",
    "dataDate": "10/18/2025",
    "capacity": 15,
    "address": "1015 8TH ST",
    "city": "MARYSVILLE",
    "zip": "95901",
    "county": "YUBA",
    "phone": "(530) 741-9801",
    "lat": 39.144492,
    "lng": -121.599549
  },
  {
    "id": "230000278",
    "name": "MARYSVILLE POST-ACUTE",
    "npi": "1184014680",
    "hcaiId": "206580934",
    "businessName": "MELON HOLDINGS, LLC",
    "contactEmail": "CAMERON.COMER@MARYSVILLEPOSTACUTE.COM",
    "categoryName": "SKILLED NURSING FACILITY",
    "categoryCode": "SNF",
    "licenseStatus": "ACTIVE",
    "inService": true,
    "licenseNumber": "230000128",
    "licenseEffectiveDate": "04/01/2025",
    "licenseExpirationDate": "03/31/2026",
    "dataDate": "10/18/2025",
    "capacity": 86,
    "address": "1617 RAMIREZ ST",
    "city": "MARYSVILLE",
    "zip": "95901",
    "county": "YUBA",
    "phone": "(530) 742-7311",
    "lat": 39.15387,
    "lng": -121.5825795
  },
  {
    "id": "630019699",
    "name": "MOBILE DENTAL VAN",
    "npi": null,
    "hcaiId": null,
    "businessName": "PEACH TREE HEALTHCARE",
    "contactEmail": null,
    "categoryName": "PRIMARY CARE CLINIC",
    "categoryCode": "COMTYC",
    "licenseStatus": "ACTIVE",
    "inService": true,
    "licenseNumber": "550006459",
    "licenseEffectiveDate": "07/08/2025",
    "licenseExpirationDate": "07/07/2026",
    "dataDate": "10/18/2025",
    "capacity": 0,
    "address": "5730 PACKARD AVE",
    "city": "MARYSVILLE",
    "zip": "95901",
    "county": "YUBA",
    "phone": null,
    "lat": 39.119778,
    "lng": -121.566879
  },
  {
    "id": "230000307",
    "name": "PEACH TREE CLINIC",
    "npi": "1003863622",
    "hcaiId": "306580711",
    "businessName": "PEACH TREE HEALTHCARE",
    "contactEmail": "TTEASLEY@PICKPEACH.ORG",
    "categoryName": "PRIMARY CARE CLINIC",
    "categoryCode": "COMTYC",
    "licenseStatus": "ACTIVE",
    "inService": true,
    "licenseNumber": "550006264",
    "licenseEffectiveDate": "05/04/2025",
    "licenseExpirationDate": "05/03/2026",
    "dataDate": "10/18/2025",
    "capacity": 0,
    "address": "5730 PACKARD AVE, SUITE 500",
    "city": "MARYSVILLE",
    "zip": "95901",
    "county": "YUBA",
    "phone": "(530) 749-3242",
    "lat": 39.1198346,
    "lng": -121.5693417
  },
  {
    "id": "630027466",
    "name": "PEACH TREE MOBILE UNIT",
    "npi": null,
    "hcaiId": null,
    "businessName": "PEACH TREE HEALTHCARE",
    "contactEmail": null,
    "categoryName": "PRIMARY CARE CLINIC",
    "categoryCode": "COMTYC",
    "licenseStatus": "ACTIVE",
    "inService": true,
    "licenseNumber": "550006459",
    "licenseEffectiveDate": "07/08/2025",
    "licenseExpirationDate": "07/07/2026",
    "dataDate": "10/18/2025",
    "capacity": 0,
    "address": "5600 LINDHURST AVE",
    "city": "MARYSVILLE",
    "zip": "95901",
    "county": "YUBA",
    "phone": null,
    "lat": 39.11520301,
    "lng": -121.560409
  },
  {
    "id": "630026765",
    "name": "PEACH TREE YUBA COUNTY PROBATION",
    "npi": null,
    "hcaiId": null,
    "businessName": "PEACH TREE HEALTHCARE",
    "contactEmail": null,
    "categoryName": "PRIMARY CARE CLINIC",
    "categoryCode": "COMTYC",
    "licenseStatus": "ACTIVE",
    "inService": true,
    "licenseNumber": "550006459",
    "licenseEffectiveDate": "07/08/2025",
    "licenseExpirationDate": "07/07/2026",
    "dataDate": "10/18/2025",
    "capacity": 0,
    "address": "120 5TH ST, ROOM 1",
    "city": "MARYSVILLE",
    "zip": "95901",
    "county": "YUBA",
    "phone": null,
    "lat": 39.140424,
    "lng": -121.5858105
  }
]