[
  {
    "id": "630011490",
    "name": "ADVANCED EYE SURGERY CENTER",
    "npi": "1073713004",
    "hcaiId": null,
    "businessName": null,
    "contactEmail": null,
    "categoryName": "SURGICAL CLINIC",
    "categoryCode": "ASC",
    "licenseStatus": null,
    "inService": null,
    "licenseNumber": null,
    "licenseEffectiveDate": null,
    "licenseExpirationDate": null,
    "dataDate": "10/18/2025",
    "capacity": 0,
    "address": "627 W EAST AVE",
    "city": "CHICO",
    "zip": "95926",
    "county": "BUTTE",
    "phone": "(530) 342-1800",
    "lat": 39.750219,
    "lng": -121.871691
  },
  {
    "id": "230000491",
    "name": "AMPLA HEALTH CHICO MEDICAL, DENTAL & PEDIATRICS",
    "npi": "1316963606",
    "hcaiId": "306044016",
    "businessName": "AMPLA HEALTH",
    "contactEmail": "ABEJARANO@AMPLAHEALTH.ORG",
    "categoryName": "PRIMARY CARE CLINIC",
    "categoryCode": "COMTYC",
    "licenseStatus": "ACTIVE",
    "inService": true,
    "licenseNumber": "230000208",
    "licenseEffectiveDate": "11/28/2024",
    "licenseExpirationDate": "11/27/2025",
    "dataDate": "10/18/2025",
    "capacity": 0,
    "address": "680 COHASSET RD",
    "city": "CHICO",
    "zip": "95926",
    "county": "BUTTE",
    "phone": "(530) 342-4395",
    "lat": 39.75282,
    "lng": -121.846167
  },
  {
    "id": "630013369",
    "name": "AMPLA HEALTH FAMILY DENTAL & MEDICAL",
    "npi": "1881613669",
    "hcaiId": "306044171",
    "businessName": "AMPLA HEALTH",
    "contactEmail": "LWILLIAMS@AMPLAHEALTH.ORG",
    "categoryName": "PRIMARY CARE CLINIC",
    "categoryCode": "FQHC/COMTYC",
    "licenseStatus": "ACTIVE",
    "inService": true,
    "licenseNumber": "550001829",
    "licenseEffectiveDate": "02/08/2025",
    "licenseExpirationDate": "02/07/2026",
    "dataDate": "10/18/2025",
    "capacity": 0,
    "address": "285 COHASSET RD",
    "city": "CHICO",
    "zip": "95926",
    "county": "BUTTE",
    "phone": "(530) 632-7476",
    "lat": 39.75111399,
    "lng": -121.850878
  },
  {
    "id": "230000029",
    "name": "AUTUMN CREEK POST ACUTE",
    "npi": "1356759724",
    "hcaiId": "206042208",
    "businessName": "CHICO HEIGHTS REHABILITATION & WELLNESS CENTRE, LP",
    "contactEmail": "ADMINISTRATOR@WINDSORCHICOCREEKRE.COM",
    "categoryName": "SKILLED NURSING FACILITY",
    "categoryCode": "SNF",
    "licenseStatus": "ACTIVE",
    "inService": true,
    "licenseNumber": "230000046",
    "licenseEffectiveDate": "11/29/2024",
    "licenseExpirationDate": "11/28/2025",
    "dataDate": "10/18/2025",
    "capacity": 184,
    "address": "587 RIO LINDO AVE",
    "city": "CHICO",
    "zip": "95926",
    "county": "BUTTE",
    "phone": "(530) 345-1306",
    "lat": 39.754287,
    "lng": -121.849038
  },
  {
    "id": "630017823",
    "name": "BIDWELL DIALYSIS",
    "npi": null,
    "hcaiId": "306040431",
    "businessName": "TOTAL RENAL CARE, INC.",
    "contactEmail": "CAL_C@DAVITA.COM",
    "categoryName": "CHRONIC DIALYSIS CLINIC",
    "categoryCode": "ESRD/CDC",
    "licenseStatus": "ACTIVE",
    "inService": true,
    "licenseNumber": "550004532",
    "licenseEffectiveDate": "02/05/2025",
    "licenseExpirationDate": "02/04/2026",
    "dataDate": "10/18/2025",
    "capacity": 24,
    "address": "966 EAST AVENUE",
    "city": "CHICO",
    "zip": "95926",
    "county": "BUTTE",
    "phone": "(530) 892-9937",
    "lat": 39.761469,
    "lng": -121.8417705
  },
  {
    "id": "630011312",
    "name": "BRIGHT STAR",
    "npi": null,
    "hcaiId": "406044172",
    "businessName": "DHL ENTERPRISES, LLC",
    "contactEmail": "DZIMMERMAN@BRIGHTSTARCARE.COM",
    "categoryName": "HOME HEALTH AGENCY",
    "categoryCode": "HHA",
    "licenseStatus": "ACTIVE",
    "inService": true,
    "licenseNumber": "550000563",
    "licenseEffectiveDate": "11/22/2024",
    "licenseExpirationDate": "11/21/2025",
    "dataDate": "10/18/2025",
    "capacity": 0,
    "address": "22 WILLIAMSBURG LN",
    "city": "CHICO",
    "zip": "95926",
    "county": "BUTTE",
    "phone": "(530) 332-9699",
    "lat": 39.75252199,
    "lng": -121.854776
  },
  {
    "id": "110001190",
    "name": "CHICO DIALYSIS CENTER",
    "npi": "1548221989",
    "hcaiId": "306042207",
    "businessName": "TOTAL RENAL CARE, INC.",
    "contactEmail": "CAL_C@DAVITA.COM",
    "categoryName": "CHRONIC DIALYSIS CLINIC",
    "categoryCode": "ESRD/CDC",
    "licenseStatus": "ACTIVE",
    "inService": true,
    "licenseNumber": "110000479",
    "licenseEffectiveDate": "06/02/2025",
    "licenseExpirationDate": "06/01/2026",
    "dataDate": "10/18/2025",
    "capacity": 21,
    "address": "530 COHASSET RD",
    "city": "CHICO",
    "zip": "95926",
    "county": "BUTTE",
    "phone": "(530) 895-8966",
    "lat": 39.751929,
    "lng": -121.849074
  },
  {
    "id": "230000025",
    "name": "CHICO TERRACE CARE CENTER",
    "npi": "1831592336",
    "hcaiId": "206040800",
    "businessName": "CHICO TERRACE HEALTHCARE & WELLNESS CENTRE, LP",
    "contactEmail": "ADMINISTRATOR@WINDSORCHICOCARECENTER.COM",
    "categoryName": "SKILLED NURSING FACILITY",
    "categoryCode": "SNF",
    "licenseStatus": "ACTIVE",
    "inService": true,
    "licenseNumber": "230000006",
    "licenseEffectiveDate": "11/27/2024",
    "licenseExpirationDate": "11/26/2025",
    "dataDate": "10/18/2025",
    "capacity": 76,
    "address": "188 COHASSET LN",
    "city": "CHICO",
    "zip": "95926",
    "county": "BUTTE",
    "phone": "(530) 343-6084",
    "lat": 39.750435,
    "lng": -121.8527505
  },
  {
    "id": "630013894",
    "name": "CHILDREN'S HEALTH CENTER",
    "npi": "1770859084",
    "hcaiId": "306040425",
    "businessName": "NORTHERN VALLEY INDIAN HEALTH, INC.",
    "contactEmail": "NATALIE.HODGEN@NVIH.ORG",
    "categoryName": "PRIMARY CARE CLINIC",
    "categoryCode": "COMTYC",
    "licenseStatus": "ACTIVE",
    "inService": true,
    "licenseNumber": "550002110",
    "licenseEffectiveDate": "07/18/2025",
    "licenseExpirationDate": "12/02/2025",
    "dataDate": "10/18/2025",
    "capacity": 0,
    "address": "1515 SPRINGFIELD DRIVE, SUITE 175",
    "city": "CHICO",
    "zip": "95926",
    "county": "BUTTE",
    "phone": "(530) 934-4641",
    "lat": 39.73310435,
    "lng": -121.808563
  },
  {
    "id": "230000013",
    "name": "ENLOE HEALTH",
    "npi": "1417901091",
    "hcaiId": "106040962",
    "businessName": "ENLOE MEDICAL CENTER",
    "contactEmail": "SUSIE.BENSON@ENLOE.ORG",
    "categoryName": "GENERAL ACUTE CARE HOSPITAL",
    "categoryCode": "GACH",
    "licenseStatus": "ACTIVE",
    "inService": true,
    "licenseNumber": "230000027",
    "licenseEffectiveDate": "08/19/2025",
    "licenseExpirationDate": "06/29/2026",
    "dataDate": "10/18/2025",
    "capacity": 268,
    "address": "1531 ESPLANADE",
    "city": "CHICO",
    "zip": "95926",
    "county": "BUTTE",
    "phone": "(530) 332-7815",
    "lat": 39.742164,
    "lng": -121.850289
  },
  {
    "id": "230000002",
    "name": "ENLOE MEDICAL CENTER - COHASSET",
    "npi": "1417901091",
    "hcaiId": "106040828",
    "businessName": "ENLOE MEDICAL CENTER",
    "contactEmail": null,
    "categoryName": "GENERAL ACUTE CARE HOSPITAL",
    "categoryCode": "GACH",
    "licenseStatus": "ACTIVE",
    "inService": true,
    "licenseNumber": "230000027",
    "licenseEffectiveDate": "08/19/2025",
    "licenseExpirationDate": "06/29/2026",
    "dataDate": "10/18/2025",
    "capacity": 0,
    "address": "560 COHASSET RD",
    "city": "CHICO",
    "zip": "95926",
    "county": "BUTTE",
    "phone": "(530) 332-7300",
    "lat": 39.752901,
    "lng": -121.8479445
  },
  {
    "id": "230000405",
    "name": "ENLOE REHABILITATION CENTER",
    "npi": "1417901091",
    "hcaiId": "106044011",
    "businessName": "ENLOE MEDICAL CENTER",
    "contactEmail": null,
    "categoryName": "GENERAL ACUTE CARE HOSPITAL",
    "categoryCode": "GACH",
    "licenseStatus": "ACTIVE",
    "inService": true,
    "licenseNumber": "230000027",
    "licenseEffectiveDate": "08/19/2025",
    "licenseExpirationDate": "06/29/2026",
    "dataDate": "10/18/2025",
    "capacity": 40,
    "address": "340 W EAST AVE",
    "city": "CHICO",
    "zip": "95926",
    "county": "BUTTE",
    "phone": "(530) 332-7300",
    "lat": 39.754188,
    "lng": -121.8675375
  },
  {
    "id": "630020226",
    "name": "NORCAL ANESTHESIA AND PAIN AFFILIATES, INC",
    "npi": "1881132470",
    "hcaiId": null,
    "businessName": null,
    "contactEmail": "LAURENPAVICH1@GMAIL.COM",
    "categoryName": "SURGICAL CLINIC",
    "categoryCode": "ASC",
    "licenseStatus": null,
    "inService": null,
    "licenseNumber": null,
    "licenseEffectiveDate": null,
    "licenseExpirationDate": null,
    "dataDate": "10/18/2025",
    "capacity": 0,
    "address": "615 W EAST AVE",
    "city": "CHICO",
    "zip": "95926",
    "county": "BUTTE",
    "phone": "(530) 487-8114",
    "lat": 39.750417,
    "lng": -121.871259
  },
  {
    "id": "630021193",
    "name": "NORTHERN VALLEY INDIAN HEALTH, INC",
    "npi": null,
    "hcaiId": null,
    "businessName": "NORTHERN VALLEY INDIAN HEALTH, INC.",
    "contactEmail": "KATRINA.FLESHER@NVIH.ORG",
    "categoryName": "PRIMARY CARE CLINIC",
    "categoryCode": "COMTYC",
    "licenseStatus": "ACTIVE",
    "inService": true,
    "licenseNumber": "230000274",
    "licenseEffectiveDate": "11/08/2025",
    "licenseExpirationDate": "11/07/2026",
    "dataDate": "10/18/2025",
    "capacity": 0,
    "address": "845 W EAST AVE",
    "city": "CHICO",
    "zip": "95926",
    "county": "BUTTE",
    "phone": "(530) 330-8800",
    "lat": 39.747474,
    "lng": -121.876236
  },
  {
    "id": "230000600",
    "name": "NORTHERN VALLEY INDIAN HEALTH, INC.",
    "npi": null,
    "hcaiId": "306044148",
    "businessName": "NORTHERN VALLEY INDIAN HEALTH, INC.",
    "contactEmail": "NATALIE.HODGEN@NVIH.ORG",
    "categoryName": "PRIMARY CARE CLINIC",
    "categoryCode": "COMTYC",
    "licenseStatus": "ACTIVE",
    "inService": true,
    "licenseNumber": "230000274",
    "licenseEffectiveDate": "11/08/2025",
    "licenseExpirationDate": "11/07/2026",
    "dataDate": "10/18/2025",
    "capacity": 0,
    "address": "845 W EAST AVE",
    "city": "CHICO",
    "zip": "95926",
    "county": "BUTTE",
    "phone": "(530) 934-4641",
    "lat": 39.747474,
    "lng": -121.876236
  },
  {
    "id": "630016571",
    "name": "NORTHERN VALLEY INDIAN HEALTH, INC.",
    "npi": "1740634286",
    "hcaiId": "306044176",
    "businessName": "NORTHERN VALLEY INDIAN HEALTH, INC.",
    "contactEmail": "NATALIE.HODGEN@NVIH.ORG",
    "categoryName": "PRIMARY CARE CLINIC",
    "categoryCode": "COMTYC",
    "licenseStatus": "ACTIVE",
    "inService": true,
    "licenseNumber": "550003501",
    "licenseEffectiveDate": "05/16/2025",
    "licenseExpirationDate": "05/15/2026",
    "dataDate": "10/18/2025",
    "capacity": 0,
    "address": "500 COHASSET ROAD, SUITE 15",
    "city": "CHICO",
    "zip": "95926",
    "county": "BUTTE",
    "phone": "(530) 934-4641",
    "lat": 39.75183,
    "lng": -121.850748
  },
  {
    "id": "630017713",
    "name": "NORTHERN VALLEY INDIAN HEALTH, INC.",
    "npi": "1740634286",
    "hcaiId": "306040514",
    "businessName": "NORTHERN VALLEY INDIAN HEALTH, INC.",
    "contactEmail": "KATRINA.FLESHER@NVIH.ORG",
    "categoryName": "PRIMARY CARE CLINIC",
    "categoryCode": "COMTYC",
    "licenseStatus": "ACTIVE",
    "inService": true,
    "licenseNumber": "550003501",
    "licenseEffectiveDate": "05/16/2025",
    "licenseExpirationDate": "05/15/2026",
    "dataDate": "10/18/2025",
    "capacity": 0,
    "address": "500 COHASSET RD, SUITE 15",
    "city": "CHICO",
    "zip": "95926",
    "county": "BUTTE",
    "phone": "(530) 774-4526",
    "lat": 39.75183,
    "lng": -121.850748
  },
  {
    "id": "630018034",
    "name": "NORTHSTATE PLASTIC SURGERY CENTER",
    "npi": "1831644673",
    "hcaiId": null,
    "businessName": null,
    "contactEmail": "JHUBBARD.MBS@GMAIL.COM",
    "categoryName": "SURGICAL CLINIC",
    "categoryCode": "ASC",
    "licenseStatus": null,
    "inService": null,
    "licenseNumber": null,
    "licenseEffectiveDate": null,
    "licenseExpirationDate": null,
    "dataDate": "10/18/2025",
    "capacity": 0,
    "address": "1260 EAST AVE, SUITE 100",
    "city": "CHICO",
    "zip": "95926",
    "county": "BUTTE",
    "phone": "(530) 345-5702",
    "lat": 39.76164,
    "lng": -121.8281805
  },
  {
    "id": "230000036",
    "name": "OAKWOOD HEALTHCARE CENTER",
    "npi": "1336551639",
    "hcaiId": "206040999",
    "businessName": "CHICO HEALTHCARE & WELLNESS CENTRE, LP",
    "contactEmail": "ADMINISTRATOR@RIVERSIDECONVALESCENT.COM",
    "categoryName": "SKILLED NURSING FACILITY",
    "categoryCode": "SNF",
    "licenseStatus": "ACTIVE",
    "inService": true,
    "licenseNumber": "230000031",
    "licenseEffectiveDate": "05/01/2025",
    "licenseExpirationDate": "04/30/2026",
    "dataDate": "10/18/2025",
    "capacity": 99,
    "address": "375 COHASSET RD",
    "city": "CHICO",
    "zip": "95926",
    "county": "BUTTE",
    "phone": "(530) 343-5595",
    "lat": 39.751101,
    "lng": -121.8491775
  },
  {
    "id": "230000458",
    "name": "OPTION CARE",
    "npi": null,
    "hcaiId": "406044027",
    "businessName": "OPTION CARE ENTERPRISES, INC.",
    "contactEmail": "OC-PEANDL@OPTIONCARE.COM",
    "categoryName": "HOME HEALTH AGENCY",
    "categoryCode": "HHA",
    "licenseStatus": "ACTIVE",
    "inService": true,
    "licenseNumber": "230000201",
    "licenseEffectiveDate": "11/09/2025",
    "licenseExpirationDate": "11/08/2026",
    "dataDate": "10/18/2025",
    "capacity": 0,
    "address": "111 MISSION RANCH BLVD, SUITE 150",
    "city": "CHICO",
    "zip": "95926",
    "county": "BUTTE",
    "phone": "(530) 893-1337",
    "lat": 39.75346101,
    "lng": -121.859487
  },
  {
    "id": "630024907",
    "name": "PEACH TREE VISION CHICO",
    "npi": null,
    "hcaiId": null,
    "businessName": "PEACH TREE HEALTHCARE",
    "contactEmail": null,
    "categoryName": "PRIMARY CARE CLINIC",
    "categoryCode": "COMTYC",
    "licenseStatus": "ACTIVE",
    "inService": true,
    "licenseNumber": "550006459",
    "licenseEffectiveDate": "07/08/2025",
    "licenseExpirationDate": "07/07/2026",
    "dataDate": "10/18/2025",
    "capacity": 0,
    "address": "114 MISSION RANCH BLVD, SUITE 50",
    "city": "CHICO",
    "zip": "95926",
    "county": "BUTTE",
    "phone": null,
    "lat": 39.753725,
    "lng": -121.860151
  },
  {
    "id": "070001222",
    "name": "THE PEG TAYLOR CENTER FOR ADULT DAY HEALTH CARE",
    "npi": null,
    "hcaiId": null,
    "businessName": "INNOVATIVE HEALTH CARE SERVICES",
    "contactEmail": "KLAUGENOUR@PEGTAYLORCENTER.ORG",
    "categoryName": "ADULT DAY HEALTH CARE",
    "categoryCode": "ADHC",
    "licenseStatus": "ACTIVE",
    "inService": true,
    "licenseNumber": "070000558",
    "licenseEffectiveDate": "03/04/2025",
    "licenseExpirationDate": "03/03/2026",
    "dataDate": "10/18/2025",
    "capacity": 0,
    "address": "124 PARMAC RD",
    "city": "CHICO",
    "zip": "95926",
    "county": "BUTTE",
    "phone": "(530) 342-2345",
    "lat": 39.75489,
    "lng": -121.8516255
  },
  {
    "id": "230000676",
    "name": "WOMEN'S RESOURCE CLINIC",
    "npi": null,
    "hcaiId": "306044170",
    "businessName": "WOMEN'S RESOURCE CLINIC",
    "contactEmail": "BRENDA@WOMENSRESOURCECLINIC.ORG",
    "categoryName": "PRIMARY CARE CLINIC",
    "categoryCode": "COMTYC",
    "licenseStatus": "ACTIVE",
    "inService": true,
    "licenseNumber": "230000305",
    "licenseEffectiveDate": "03/10/2025",
    "licenseExpirationDate": "03/09/2026",
    "dataDate": "10/18/2025",
    "capacity": 0,
    "address": "115 W 2ND AVE",
    "city": "CHICO",
    "zip": "95926",
    "county": "BUTTE",
    "phone": "(530) 897-6101",
    "lat": 39.738393,
    "lng": -121.846941
  }
]