[
  {
    "id": "630027405",
    "name": "AMPLA HEALTH SOUTH CHICO MEDICAL",
    "npi": "1316963606",
    "hcaiId": null,
    "businessName": "AMPLA HEALTH",
    "contactEmail": "ABEJARANO@AMPLAHEALTH.ORG",
    "categoryName": "PRIMARY CARE CLINIC",
    "categoryCode": "COMTYC",
    "licenseStatus": "ACTIVE",
    "inService": true,
    "licenseNumber": "230000208",
    "licenseEffectiveDate": "11/28/2024",
    "licenseExpirationDate": "11/27/2025",
    "dataDate": "10/18/2025",
    "capacity": 0,
    "address": "2216 FAIR ST",
    "city": "CHICO",
    "zip": "95928",
    "county": "BUTTE",
    "phone": "(530) 673-9420",
    "lat": 39.717952,
    "lng": -121.817837
  },
  {
    "id": "230000255",
    "name": "ARBOR POST ACUTE",
    "npi": "1689179798",
    "hcaiId": "206044005",
    "businessName": "ARBOR POST ACUTE, LLC",
    "contactEmail": "JESSICA.JOHNSON3@ARBORPA.COM",
    "categoryName": "SKILLED NURSING FACILITY",
    "categoryCode": "SNF",
    "licenseStatus": "ACTIVE",
    "inService": true,
    "licenseNumber": "230000156",
    "licenseEffectiveDate": "02/01/2025",
    "licenseExpirationDate": "01/31/2026",
    "dataDate": "10/18/2025",
    "capacity": 144,
    "address": "1200 SPRINGFIELD DR",
    "city": "CHICO",
    "zip": "95928",
    "county": "BUTTE",
    "phone": "(530) 342-4885",
    "lat": 39.733533,
    "lng": -121.8040965
  },
  {
    "id": "230000546",
    "name": "CALIFORNIA PARK POST ACUTE",
    "npi": "1427016740",
    "hcaiId": "206044028",
    "businessName": "BALBOA ISLAND, LLC",
    "contactEmail": "ERUHL@CALIFORNIAPARKPA.COM",
    "categoryName": "SKILLED NURSING FACILITY",
    "categoryCode": "SNF",
    "licenseStatus": "ACTIVE",
    "inService": true,
    "licenseNumber": "230000237",
    "licenseEffectiveDate": "06/01/2025",
    "licenseExpirationDate": "04/10/2026",
    "dataDate": "10/18/2025",
    "capacity": 90,
    "address": "2850 SIERRA SUNRISE TER",
    "city": "CHICO",
    "zip": "95928",
    "county": "BUTTE",
    "phone": "(530) 894-1010",
    "lat": 39.745251,
    "lng": -121.7845935
  },
  {
    "id": "230000078",
    "name": "CHICO FEMINIST WOMENS HEALTH CENTER",
    "npi": null,
    "hcaiId": "306041222",
    "businessName": "CHICO FEMINIST WOMEN'S HEALTH CENTER",
    "contactEmail": "CXIONG@CAWHS.ORG",
    "categoryName": "PRIMARY CARE CLINIC",
    "categoryCode": "COMTYC",
    "licenseStatus": "ACTIVE",
    "inService": true,
    "licenseNumber": "230000105",
    "licenseEffectiveDate": "02/11/2025",
    "licenseExpirationDate": "02/10/2026",
    "dataDate": "10/18/2025",
    "capacity": 0,
    "address": "1469 HUMBOLDT RD, SUITE 200",
    "city": "CHICO",
    "zip": "95928",
    "county": "BUTTE",
    "phone": "(530) 891-1917",
    "lat": 39.735063,
    "lng": -121.8156075
  },
  {
    "id": "630017995",
    "name": "DEER CREEK SURGERY CENTER",
    "npi": "1174039036",
    "hcaiId": null,
    "businessName": null,
    "contactEmail": null,
    "categoryName": "SURGICAL CLINIC",
    "categoryCode": "ASC",
    "licenseStatus": null,
    "inService": null,
    "licenseNumber": null,
    "licenseEffectiveDate": null,
    "licenseExpirationDate": null,
    "dataDate": "10/18/2025",
    "capacity": 0,
    "address": "127 RALEY BLVD",
    "city": "CHICO",
    "zip": "95928",
    "county": "BUTTE",
    "phone": "(530) 720-0176",
    "lat": 39.714858,
    "lng": -121.789539
  },
  {
    "id": "630027018",
    "name": "NORTH VALLEY SURGERY CENTER LLC",
    "npi": null,
    "hcaiId": null,
    "businessName": null,
    "contactEmail": null,
    "categoryName": "SURGICAL CLINIC",
    "categoryCode": "ASC",
    "licenseStatus": null,
    "inService": null,
    "licenseNumber": null,
    "licenseEffectiveDate": null,
    "licenseExpirationDate": null,
    "dataDate": "10/18/2025",
    "capacity": 0,
    "address": "1720 BRUCE RD",
    "city": "CHICO",
    "zip": "95928",
    "county": "BUTTE",
    "phone": "(530) 287-9700",
    "lat": 39.73480001,
    "lng": -121.7876074
  },
  {
    "id": "630021195",
    "name": "NORTHERN VALLEY INDIAN HEALTH INC",
    "npi": null,
    "hcaiId": null,
    "businessName": "NORTHERN VALLEY INDIAN HEALTH, INC.",
    "contactEmail": "KATRINA.FLESHER@NVIH.ORG",
    "categoryName": "PRIMARY CARE CLINIC",
    "categoryCode": "COMTYC",
    "licenseStatus": "ACTIVE",
    "inService": true,
    "licenseNumber": "550002110",
    "licenseEffectiveDate": "07/18/2025",
    "licenseExpirationDate": "12/02/2025",
    "dataDate": "10/18/2025",
    "capacity": 0,
    "address": "1515 SPRINGFIELD DR, SUITE 175",
    "city": "CHICO",
    "zip": "95928",
    "county": "BUTTE",
    "phone": "(530) 330-8800",
    "lat": 39.730437,
    "lng": -121.811049
  },
  {
    "id": "630025013",
    "name": "NORTHERN VALLEY INDIAN HEALTH, INC.",
    "npi": null,
    "hcaiId": "306040807",
    "businessName": "NORTHERN VALLEY INDIAN HEALTH, INC.",
    "contactEmail": "NATALIE.HODGEN@NVIH.ORG",
    "categoryName": "PRIMARY CARE CLINIC",
    "categoryCode": "COMTYC",
    "licenseStatus": "ACTIVE",
    "inService": true,
    "licenseNumber": "550008213",
    "licenseEffectiveDate": "10/05/2025",
    "licenseExpirationDate": "10/04/2026",
    "dataDate": "10/18/2025",
    "capacity": 0,
    "address": "1990 CONCORD AVE",
    "city": "CHICO",
    "zip": "95928",
    "county": "BUTTE",
    "phone": "(530) 934-4641",
    "lat": 39.7286888,
    "lng": -121.792835
  },
  {
    "id": "630028545",
    "name": "NORTHERN VALLEY INDIAN HEALTH, INC.",
    "npi": null,
    "hcaiId": null,
    "businessName": "NORTHERN VALLEY INDIAN HEALTH, INC.",
    "contactEmail": null,
    "categoryName": "PRIMARY CARE CLINIC",
    "categoryCode": "COMTYC",
    "licenseStatus": "ACTIVE",
    "inService": true,
    "licenseNumber": "550002110",
    "licenseEffectiveDate": "07/18/2025",
    "licenseExpirationDate": "12/02/2025",
    "dataDate": "10/18/2025",
    "capacity": 0,
    "address": "1535 SPRINGFIELD DR",
    "city": "CHICO",
    "zip": "95928",
    "county": "BUTTE",
    "phone": null,
    "lat": 39.730383,
    "lng": -121.809753
  },
  {
    "id": "630026798",
    "name": "ORTHOPEDIC ASSOCIATES ADVANCED SURGICAL AND AFTER CARE CENTER, LLC",
    "npi": null,
    "hcaiId": null,
    "businessName": null,
    "contactEmail": null,
    "categoryName": "SURGICAL CLINIC",
    "categoryCode": "ASC",
    "licenseStatus": null,
    "inService": null,
    "licenseNumber": null,
    "licenseEffectiveDate": null,
    "licenseExpirationDate": null,
    "dataDate": "10/18/2025",
    "capacity": 0,
    "address": "141 RALEY BLVD, SUITE 130",
    "city": "CHICO",
    "zip": "95928",
    "county": "BUTTE",
    "phone": "(530) 399-7000",
    "lat": 39.71596466,
    "lng": -121.7889283
  },
  {
    "id": "630017278",
    "name": "OWENS HEALTHCARE #9 - CHICO BRANCH",
    "npi": null,
    "hcaiId": null,
    "businessName": "WELLSCRIPT INC",
    "contactEmail": null,
    "categoryName": "HOME HEALTH AGENCY",
    "categoryCode": "HHA",
    "licenseStatus": "ACTIVE",
    "inService": true,
    "licenseNumber": "230000224",
    "licenseEffectiveDate": "04/08/2025",
    "licenseExpirationDate": "04/07/2026",
    "dataDate": "10/18/2025",
    "capacity": 0,
    "address": "3860 MORROW LN, SUITE E",
    "city": "CHICO",
    "zip": "95928",
    "county": "BUTTE",
    "phone": "(530) 899-8687",
    "lat": 39.712374,
    "lng": -121.7907675
  },
  {
    "id": "630011087",
    "name": "PTL PEDIATRIC DAYCARE",
    "npi": null,
    "hcaiId": null,
    "businessName": "PTL PEDIATRIC DAYCARE",
    "contactEmail": "BOB@FMCCHICO.COM",
    "categoryName": "PEDIATRIC DAY HEALTH & RESPITE CARE FACILITY",
    "categoryCode": "PDHRCF",
    "licenseStatus": "ACTIVE",
    "inService": true,
    "licenseNumber": "550000327",
    "licenseEffectiveDate": "12/07/2024",
    "licenseExpirationDate": "12/06/2025",
    "dataDate": "10/18/2025",
    "capacity": 6,
    "address": "1890 BEDFORD DR",
    "city": "CHICO",
    "zip": "95928",
    "county": "BUTTE",
    "phone": "(530) 891-0657",
    "lat": 39.729897,
    "lng": -121.7973195
  },
  {
    "id": "230000825",
    "name": "SKYWAY SURGERY CENTER LLC",
    "npi": "1366456618",
    "hcaiId": "306044162",
    "businessName": null,
    "contactEmail": null,
    "categoryName": "SURGICAL CLINIC",
    "categoryCode": "ASC",
    "licenseStatus": "INACTIVE - CAPEN DECISION",
    "inService": false,
    "licenseNumber": "230000358",
    "licenseEffectiveDate": "11/13/2007",
    "licenseExpirationDate": "11/12/2008",
    "dataDate": "10/18/2025",
    "capacity": 0,
    "address": "121 RALEY BLVD",
    "city": "CHICO",
    "zip": "95928",
    "county": "BUTTE",
    "phone": "(530) 230-2000",
    "lat": 39.715218,
    "lng": -121.790151
  },
  {
    "id": "110001260",
    "name": "SOUTH CHICO DIALYSIS CENTER",
    "npi": "1245293356",
    "hcaiId": "306044161",
    "businessName": "RENAL TREATMENT CENTERS - CALIFORNIA, INC.",
    "contactEmail": "CAL_C@DAVITA.COM",
    "categoryName": "CHRONIC DIALYSIS CLINIC",
    "categoryCode": "ESRD/CDC",
    "licenseStatus": "ACTIVE",
    "inService": true,
    "licenseNumber": "110000517",
    "licenseEffectiveDate": "02/04/2025",
    "licenseExpirationDate": "02/03/2026",
    "dataDate": "10/18/2025",
    "capacity": 18,
    "address": "2345 FOREST AVE",
    "city": "CHICO",
    "zip": "95928",
    "county": "BUTTE",
    "phone": "(530) 894-2180",
    "lat": 39.718503,
    "lng": -121.798107
  }
]