[
  {
    "id": "230000494",
    "name": "AMPLA HEALTH COLUSA MEDICAL & DENTAL",
    "npi": "1477586808",
    "hcaiId": "306064002",
    "businessName": "AMPLA HEALTH",
    "contactEmail": "CRUBIO@AMPLAHEALTH.ORG",
    "categoryName": "PRIMARY CARE CLINIC",
    "categoryCode": "COMTYC",
    "licenseStatus": "ACTIVE",
    "inService": true,
    "licenseNumber": "230000216",
    "licenseEffectiveDate": "12/14/2024",
    "licenseExpirationDate": "12/13/2025",
    "dataDate": "10/18/2025",
    "capacity": 0,
    "address": "555 FREMONT ST",
    "city": "COLUSA",
    "zip": "95932",
    "county": "COLUSA",
    "phone": "(530) 458-8635",
    "lat": 39.207663,
    "lng": -122.011281
  },
  {
    "id": "630017906",
    "name": "COLUSA HEALTH CLINIC",
    "npi": null,
    "hcaiId": null,
    "businessName": null,
    "contactEmail": "MARIA.ZAMORA@AMERICANSM.ORG",
    "categoryName": "PRIMARY CARE CLINIC",
    "categoryCode": "RHC",
    "licenseStatus": null,
    "inService": null,
    "licenseNumber": null,
    "licenseEffectiveDate": null,
    "licenseExpirationDate": null,
    "dataDate": "10/18/2025",
    "capacity": 0,
    "address": "151 E WEBSTER ST",
    "city": "COLUSA",
    "zip": "95932",
    "county": "COLUSA",
    "phone": "(530) 619-0800",
    "lat": 39.20743863,
    "lng": -122.000829
  },
  {
    "id": "230000754",
    "name": "COLUSA INDIAN HEALTH CLINIC",
    "npi": null,
    "hcaiId": null,
    "businessName": null,
    "contactEmail": null,
    "categoryName": "PRIMARY CARE CLINIC",
    "categoryCode": "COMTYC",
    "licenseStatus": null,
    "inService": null,
    "licenseNumber": null,
    "licenseEffectiveDate": null,
    "licenseExpirationDate": null,
    "dataDate": "10/18/2025",
    "capacity": 0,
    "address": "3710 HIGHWAY 45",
    "city": "COLUSA",
    "zip": "95932",
    "county": "COLUSA",
    "phone": "(530) 458-8231",
    "lat": 39.25059017,
    "lng": -122.0314352
  },
  {
    "id": "230000259",
    "name": "COLUSA MEDICAL CENTER",
    "npi": "1215475124",
    "hcaiId": "106060870",
    "businessName": "COLUSA MEDICAL CENTER, LLC",
    "contactEmail": "CATHERINE.MARTIN@COLUSAMEDCENTER.ORG",
    "categoryName": "GENERAL ACUTE CARE HOSPITAL",
    "categoryCode": "GACH",
    "licenseStatus": "ACTIVE",
    "inService": true,
    "licenseNumber": "230000149",
    "licenseEffectiveDate": "06/01/2025",
    "licenseExpirationDate": "11/29/2025",
    "dataDate": "10/18/2025",
    "capacity": 42,
    "address": "199 E WEBSTER ST",
    "city": "COLUSA",
    "zip": "95932",
    "county": "COLUSA",
    "phone": "(530) 619-0800",
    "lat": 39.20731378,
    "lng": -122.0003395
  },
  {
    "id": "230000424",
    "name": "COLUSA MEDICAL CENTER - SNF",
    "npi": "1215476734",
    "hcaiId": null,
    "businessName": "COLUSA MEDICAL CENTER, LLC",
    "contactEmail": "GIA.SMITH@CENTRALVALLEYSPECIALTY.ORG",
    "categoryName": "SKILLED NURSING FACILITY",
    "categoryCode": "SNF",
    "licenseStatus": "ACTIVE",
    "inService": true,
    "licenseNumber": "230000149",
    "licenseEffectiveDate": "06/01/2025",
    "licenseExpirationDate": "11/29/2025",
    "dataDate": "10/18/2025",
    "capacity": 6,
    "address": "199 E WEBSTER ST",
    "city": "COLUSA",
    "zip": "95932",
    "county": "COLUSA",
    "phone": "(530) 691-0800",
    "lat": 39.20731378,
    "lng": -122.0003395
  },
  {
    "id": "230000266",
    "name": "COLUSA MEDICAL CENTER HOME HEALTH AGENCY",
    "npi": "1558800243",
    "hcaiId": "406064001",
    "businessName": "COLUSA MEDICAL CENTER, LLC",
    "contactEmail": "CALVIN.DULL@COLUSAMEDCENTER.ORG",
    "categoryName": "HOME HEALTH AGENCY",
    "categoryCode": "HHA",
    "licenseStatus": "ACTIVE",
    "inService": true,
    "licenseNumber": "230000144",
    "licenseEffectiveDate": "01/04/2025",
    "licenseExpirationDate": "01/03/2026",
    "dataDate": "10/18/2025",
    "capacity": 0,
    "address": "199 E WEBSTER ST",
    "city": "COLUSA",
    "zip": "95932",
    "county": "COLUSA",
    "phone": "(408) 569-4113",
    "lat": 39.20731378,
    "lng": -122.0003395
  },
  {
    "id": "630017433",
    "name": "COLUSA MEDICAL CENTER HOSPICE",
    "npi": "1689189110",
    "hcaiId": "406061393",
    "businessName": "COLUSA MEDICAL CENTER, LLC",
    "contactEmail": "CALVIN.DULL@COLUSAMEDCENTER.ORG",
    "categoryName": "HOSPICE",
    "categoryCode": "HOSPICE",
    "licenseStatus": "ACTIVE",
    "inService": true,
    "licenseNumber": "550004134",
    "licenseEffectiveDate": "01/04/2024",
    "licenseExpirationDate": "01/03/2026",
    "dataDate": "10/18/2025",
    "capacity": 0,
    "address": "199 E WEBSTER ST",
    "city": "COLUSA",
    "zip": "95932",
    "county": "COLUSA",
    "phone": "(530) 619-0875",
    "lat": 39.20731378,
    "lng": -122.0003395
  },
  {
    "id": "630002761",
    "name": "RIVERSIDE HEALTH CLINIC OF COLUSA INC",
    "npi": "1710172242",
    "hcaiId": null,
    "businessName": null,
    "contactEmail": "DRSMIDHA@YAHOO.COM",
    "categoryName": "PRIMARY CARE CLINIC",
    "categoryCode": "RHC/MD",
    "licenseStatus": null,
    "inService": null,
    "licenseNumber": null,
    "licenseEffectiveDate": null,
    "licenseExpirationDate": null,
    "dataDate": "10/18/2025",
    "capacity": 0,
    "address": "717 BRIDGE ST",
    "city": "COLUSA",
    "zip": "95932",
    "county": "COLUSA",
    "phone": "(530) 458-2300",
    "lat": 39.207618,
    "lng": -122.0027805
  }
]