[
  {
    "id": "230000138",
    "name": "AMPLA HEALTH GRIDLEY MEDICAL",
    "npi": "1639194004",
    "hcaiId": "306044002",
    "businessName": "AMPLA HEALTH",
    "contactEmail": "LWILLIAMS@AMPLAHEALTH.ORG",
    "categoryName": "PRIMARY CARE CLINIC",
    "categoryCode": "FQHC/COMTYC",
    "licenseStatus": "ACTIVE",
    "inService": true,
    "licenseNumber": "230000112",
    "licenseEffectiveDate": "04/23/2025",
    "licenseExpirationDate": "04/10/2026",
    "dataDate": "10/18/2025",
    "capacity": 0,
    "address": "520 KENTUCKY ST",
    "city": "GRIDLEY",
    "zip": "95948",
    "county": "BUTTE",
    "phone": "(530) 846-6231",
    "lat": 39.363957,
    "lng": -121.696263
  },
  {
    "id": "230000751",
    "name": "CHUK NDULUE MEDICAL OFFICE",
    "npi": "1134124001",
    "hcaiId": null,
    "businessName": null,
    "contactEmail": null,
    "categoryName": "PRIMARY CARE CLINIC",
    "categoryCode": "RHC/MD",
    "licenseStatus": null,
    "inService": null,
    "licenseNumber": null,
    "licenseEffectiveDate": null,
    "licenseExpirationDate": null,
    "dataDate": "10/18/2025",
    "capacity": 0,
    "address": "135 SPRUCE ST",
    "city": "GRIDLEY",
    "zip": "95948",
    "county": "BUTTE",
    "phone": "(530) 846-1400",
    "lat": 39.366684,
    "lng": -121.688856
  },
  {
    "id": "630027039",
    "name": "GRIDLEY CHILDREN'S CLINIC",
    "npi": null,
    "hcaiId": null,
    "businessName": null,
    "contactEmail": "DRSMIDHA@YAHOO.COM",
    "categoryName": "PRIMARY CARE CLINIC",
    "categoryCode": "RHC/MD",
    "licenseStatus": null,
    "inService": null,
    "licenseNumber": null,
    "licenseEffectiveDate": null,
    "licenseExpirationDate": null,
    "dataDate": "10/18/2025",
    "capacity": 0,
    "address": "50 E GRIDLEY RD",
    "city": "GRIDLEY",
    "zip": "95948",
    "county": "BUTTE",
    "phone": "(530) 674-2100",
    "lat": 39.36314681,
    "lng": -121.6855423
  },
  {
    "id": "230000327",
    "name": "GRIDLEY POST ACUTE",
    "npi": "1083387765",
    "hcaiId": null,
    "businessName": "OLOWALU BEACH HOLDINGS LLC",
    "contactEmail": "MMAYLIN@WESTHARBORHC.COM",
    "categoryName": "SKILLED NURSING FACILITY",
    "categoryCode": "SNF",
    "licenseStatus": "ACTIVE",
    "inService": true,
    "licenseNumber": "550008226",
    "licenseEffectiveDate": "11/15/2024",
    "licenseExpirationDate": "11/14/2025",
    "dataDate": "10/18/2025",
    "capacity": 82,
    "address": "246 SPRUCE ST",
    "city": "GRIDLEY",
    "zip": "95948",
    "county": "BUTTE",
    "phone": "(530) 456-0400",
    "lat": 39.368277,
    "lng": -121.690737
  },
  {
    "id": "230000001",
    "name": "ORCHARD HOSPITAL",
    "npi": "1477522019",
    "hcaiId": "106040802",
    "businessName": "ORCHARD HOSPITAL",
    "contactEmail": "AMYMICHELI@ORCHARDHOSPITAL.COM",
    "categoryName": "GENERAL ACUTE CARE HOSPITAL",
    "categoryCode": "GACH",
    "licenseStatus": "ACTIVE",
    "inService": true,
    "licenseNumber": "230000007",
    "licenseEffectiveDate": "12/01/2024",
    "licenseExpirationDate": "11/30/2025",
    "dataDate": "10/18/2025",
    "capacity": 24,
    "address": "240 SPRUCE ST",
    "city": "GRIDLEY",
    "zip": "95948",
    "county": "BUTTE",
    "phone": "(530) 846-9022",
    "lat": 39.367422,
    "lng": -121.689666
  },
  {
    "id": "230000514",
    "name": "ORCHARD HOSPITAL MEDICAL SPECIALTY CENTER",
    "npi": "1144378209",
    "hcaiId": null,
    "businessName": "ORCHARD HOSPITAL",
    "contactEmail": null,
    "categoryName": "PRIMARY CARE CLINIC",
    "categoryCode": "RHC/OP",
    "licenseStatus": "ACTIVE",
    "inService": true,
    "licenseNumber": "230000007",
    "licenseEffectiveDate": "12/01/2024",
    "licenseExpirationDate": "11/30/2025",
    "dataDate": "10/18/2025",
    "capacity": 0,
    "address": "284 SPRUCE ST",
    "city": "GRIDLEY",
    "zip": "95948",
    "county": "BUTTE",
    "phone": "(530) 846-5671",
    "lat": 39.367395,
    "lng": -121.690998
  }
]