[
  {
    "id": "230000685",
    "name": "CHAPA-DE INDIAN HEALTH PROGRAM, INC.",
    "npi": "1922138841",
    "hcaiId": "306294021",
    "businessName": "CHAPA-DE INDIAN HEALTH PROGRAM, INC.",
    "contactEmail": "LDAVIES@CHAPA-DE.ORG",
    "categoryName": "PRIMARY CARE CLINIC",
    "categoryCode": "COMTYC",
    "licenseStatus": "ACTIVE",
    "inService": true,
    "licenseNumber": "230000303",
    "licenseEffectiveDate": "12/31/2024",
    "licenseExpirationDate": "12/30/2025",
    "dataDate": "10/18/2025",
    "capacity": 0,
    "address": "1350 E MAIN ST",
    "city": "GRASS VALLEY",
    "zip": "95945",
    "county": "NEVADA",
    "phone": "(530) 477-1727",
    "lat": 39.23180602,
    "lng": -121.0464759
  },
  {
    "id": "230000279",
    "name": "CRYSTAL RIDGE CARE CENTER",
    "npi": "1245538453",
    "hcaiId": "206294002",
    "businessName": "EDELWEISS HOLDINGS, LLC",
    "contactEmail": "DAENEN.MERRILL@CRYSTALRIDGECARES.COM",
    "categoryName": "SKILLED NURSING FACILITY",
    "categoryCode": "SNF",
    "licenseStatus": "ACTIVE",
    "inService": true,
    "licenseNumber": "230000136",
    "licenseEffectiveDate": "06/07/2025",
    "licenseExpirationDate": "06/06/2026",
    "dataDate": "10/18/2025",
    "capacity": 99,
    "address": "396 DORSEY DR",
    "city": "GRASS VALLEY",
    "zip": "95945",
    "county": "NEVADA",
    "phone": "(530) 272-2273",
    "lat": 39.227589,
    "lng": -121.035438
  },
  {
    "id": "230000276",
    "name": "GOLDEN EMPIRE",
    "npi": "1427539998",
    "hcaiId": "206290892",
    "businessName": "DYNASTY VALLEY, LLC",
    "contactEmail": "PANDERSON@GOLDENEMPIRESNF.COM",
    "categoryName": "SKILLED NURSING FACILITY",
    "categoryCode": "SNF",
    "licenseStatus": "ACTIVE",
    "inService": true,
    "licenseNumber": "230000135",
    "licenseEffectiveDate": "11/01/2024",
    "licenseExpirationDate": "10/31/2025",
    "dataDate": "10/18/2025",
    "capacity": 148,
    "address": "121 DORSEY DR",
    "city": "GRASS VALLEY",
    "zip": "95945",
    "county": "NEVADA",
    "phone": "(530) 273-1316",
    "lat": 39.22893,
    "lng": -121.044672
  },
  {
    "id": "110001194",
    "name": "GRASS VALLEY DIALYSIS",
    "npi": "1881668796",
    "hcaiId": "306294022",
    "businessName": "DVA RENAL HEALTHCARE, INC.",
    "contactEmail": "CAL_C@DAVITA.COM",
    "categoryName": "CHRONIC DIALYSIS CLINIC",
    "categoryCode": "ESRD/CDC",
    "licenseStatus": "ACTIVE",
    "inService": true,
    "licenseNumber": "110000483",
    "licenseEffectiveDate": "04/14/2025",
    "licenseExpirationDate": "04/13/2026",
    "dataDate": "10/18/2025",
    "capacity": 18,
    "address": "360 CROWN POINT CIR, SUITE 210",
    "city": "GRASS VALLEY",
    "zip": "95945",
    "county": "NEVADA",
    "phone": "(530) 477-0734",
    "lat": 39.219876,
    "lng": -121.029228
  },
  {
    "id": "230000282",
    "name": "GRASS VALLEY HEALTHCARE CENTER",
    "npi": "1518008101",
    "hcaiId": "206291040",
    "businessName": "HEISMAN LLC",
    "contactEmail": "MWEBSTER@CYPRESSH.COM",
    "categoryName": "SKILLED NURSING FACILITY",
    "categoryCode": "SNF",
    "licenseStatus": "ACTIVE",
    "inService": true,
    "licenseNumber": "230000131",
    "licenseEffectiveDate": "06/30/2025",
    "licenseExpirationDate": "11/30/2025",
    "dataDate": "10/18/2025",
    "capacity": 86,
    "address": "355 JOERSCHKE DR",
    "city": "GRASS VALLEY",
    "zip": "95945",
    "county": "NEVADA",
    "phone": "(530) 273-7247",
    "lat": 39.230793,
    "lng": -121.0427595
  },
  {
    "id": "630007121",
    "name": "GRASS VALLEY SURGERY CENTER",
    "npi": null,
    "hcaiId": "306294017",
    "businessName": "GRASS VALLEY SURGERY CENTER LLC",
    "contactEmail": null,
    "categoryName": "SURGICAL CLINIC",
    "categoryCode": "ASC",
    "licenseStatus": "INACTIVE - CAPEN DECISION",
    "inService": false,
    "licenseNumber": "550000151",
    "licenseEffectiveDate": "04/18/2007",
    "licenseExpirationDate": "04/17/2008",
    "dataDate": "10/18/2025",
    "capacity": 0,
    "address": "408 SIERRA COLLEGE DR",
    "city": "GRASS VALLEY",
    "zip": "95945",
    "county": "NEVADA",
    "phone": "(530) 271-2282",
    "lat": 39.23633992,
    "lng": -121.0565932
  },
  {
    "id": "100001757",
    "name": "HOSPICE OF THE FOOTHILLS",
    "npi": null,
    "hcaiId": "406294006",
    "businessName": "HOSPICE OF THE FOOTHILLS",
    "contactEmail": "HOSPICE@HOFO.ORG",
    "categoryName": "HOSPICE",
    "categoryCode": "HOSPICE",
    "licenseStatus": "ACTIVE",
    "inService": true,
    "licenseNumber": "100000753",
    "licenseEffectiveDate": "06/28/2025",
    "licenseExpirationDate": "06/27/2027",
    "dataDate": "10/18/2025",
    "capacity": 0,
    "address": "11270 ROUGH AND READY HWY",
    "city": "GRASS VALLEY",
    "zip": "95945",
    "county": "NEVADA",
    "phone": "(530) 272-5739",
    "lat": 39.227022,
    "lng": -121.0813785
  },
  {
    "id": "230000608",
    "name": "LIVINGWELL MEDICAL CLINIC",
    "npi": null,
    "hcaiId": "306294026",
    "businessName": "LIVINGWELL MEDICAL CLINIC",
    "contactEmail": "JAMES@LIVINGWELLMEDICALCLINIC.COM",
    "categoryName": "PRIMARY CARE CLINIC",
    "categoryCode": "FREEC",
    "licenseStatus": "ACTIVE",
    "inService": true,
    "licenseNumber": "230000285",
    "licenseEffectiveDate": "11/24/2025",
    "licenseExpirationDate": "11/23/2026",
    "dataDate": "10/18/2025",
    "capacity": 0,
    "address": "105 CATHERINE LN",
    "city": "GRASS VALLEY",
    "zip": "95945",
    "county": "NEVADA",
    "phone": "(530) 272-6800",
    "lat": 39.23034643,
    "lng": -121.0470762
  },
  {
    "id": "630001441",
    "name": "RIDGELINE PEDIATRIC - GRASS VALLEY",
    "npi": null,
    "hcaiId": null,
    "businessName": "CROSSPEAKS SERVICES, INC.",
    "contactEmail": "INFO@RIDGELINEPEDIATRIC.COM",
    "categoryName": "PEDIATRIC DAY HEALTH & RESPITE CARE FACILITY",
    "categoryCode": "PDHRCF",
    "licenseStatus": "ACTIVE",
    "inService": true,
    "licenseNumber": "550000017",
    "licenseEffectiveDate": "08/01/2025",
    "licenseExpirationDate": "07/31/2026",
    "dataDate": "10/18/2025",
    "capacity": 12,
    "address": "11270 ROUGH & READY HIGHWAY",
    "city": "GRASS VALLEY",
    "zip": "95945",
    "county": "NEVADA",
    "phone": "(530) 477-3378",
    "lat": 39.227022,
    "lng": -121.0813785
  },
  {
    "id": "630009781",
    "name": "SIERRA AMBULATORY SURGERY CENTER, LLC",
    "npi": "1043254063",
    "hcaiId": "306294018",
    "businessName": "SIERRA AMBULATORY SURGERY CENTER,  L.L.C.",
    "contactEmail": null,
    "categoryName": "SURGICAL CLINIC",
    "categoryCode": "ASC",
    "licenseStatus": "INACTIVE - CAPEN DECISION",
    "inService": false,
    "licenseNumber": "550000155",
    "licenseEffectiveDate": "04/20/2007",
    "licenseExpirationDate": "04/19/2008",
    "dataDate": "10/18/2025",
    "capacity": 0,
    "address": "400 SIERRA COLLEGE DR, SUITE B",
    "city": "GRASS VALLEY",
    "zip": "95945",
    "county": "NEVADA",
    "phone": "(530) 272-3428",
    "lat": 39.235959,
    "lng": -121.057029
  },
  {
    "id": "230000777",
    "name": "SIERRA ENDOSCOPY CENTER LLC",
    "npi": null,
    "hcaiId": "306294013",
    "businessName": "SIERRA ENDOSCOPY CENTER LLC",
    "contactEmail": null,
    "categoryName": "SURGICAL CLINIC",
    "categoryCode": "ASC",
    "licenseStatus": "INACTIVE - CAPEN DECISION",
    "inService": false,
    "licenseNumber": "230000350",
    "licenseEffectiveDate": "11/23/2007",
    "licenseExpirationDate": "11/22/2008",
    "dataDate": "10/18/2025",
    "capacity": 0,
    "address": "300 SIERRA COLLEGE DR, SUITE 105",
    "city": "GRASS VALLEY",
    "zip": "95945",
    "county": "NEVADA",
    "phone": "(530) 272-0527",
    "lat": 39.235716,
    "lng": -121.0539105
  },
  {
    "id": "230000268",
    "name": "SIERRA NEVADA HOME CARE",
    "npi": "1841294782",
    "hcaiId": "406294001",
    "businessName": "SIERRA NEVADA MEMORIAL MINERS HOSPITAL INC.",
    "contactEmail": "DANIELLE.YOUNG901@COMMONSPIRIT.ORG",
    "categoryName": "HOME HEALTH AGENCY",
    "categoryCode": "HHA",
    "licenseStatus": "ACTIVE",
    "inService": true,
    "licenseNumber": "230000138",
    "licenseEffectiveDate": "11/25/2024",
    "licenseExpirationDate": "11/24/2025",
    "dataDate": "10/18/2025",
    "capacity": 0,
    "address": "1155 E MAIN ST",
    "city": "GRASS VALLEY",
    "zip": "95945",
    "county": "NEVADA",
    "phone": "(530) 274-6350",
    "lat": 39.229866,
    "lng": -121.04865
  },
  {
    "id": "230000262",
    "name": "SIERRA NEVADA MEMORIAL HOSPITAL",
    "npi": "1659361392",
    "hcaiId": "106291023",
    "businessName": "SIERRA NEVADA MEMORIAL MINERS HOSPITAL INC.",
    "contactEmail": "CARRIE.CLAYTON@COMMONSPIRIT.ORG",
    "categoryName": "GENERAL ACUTE CARE HOSPITAL",
    "categoryCode": "GACH",
    "licenseStatus": "ACTIVE",
    "inService": true,
    "licenseNumber": "230000152",
    "licenseEffectiveDate": "11/01/2025",
    "licenseExpirationDate": "10/31/2026",
    "dataDate": "10/18/2025",
    "capacity": 104,
    "address": "155 GLASSON WAY",
    "city": "GRASS VALLEY",
    "zip": "95945",
    "county": "NEVADA",
    "phone": "(530) 274-6227",
    "lat": 39.228084,
    "lng": -121.047201
  },
  {
    "id": "630020488",
    "name": "THE CLINIC!",
    "npi": null,
    "hcaiId": null,
    "businessName": "CHICO FEMINIST WOMEN'S HEALTH CENTER",
    "contactEmail": "CXIONG@CAWHS.ORG",
    "categoryName": "PRIMARY CARE CLINIC",
    "categoryCode": "COMTYC",
    "licenseStatus": "ACTIVE",
    "inService": true,
    "licenseNumber": "230000105",
    "licenseEffectiveDate": "02/11/2025",
    "licenseExpirationDate": "02/10/2026",
    "dataDate": "10/18/2025",
    "capacity": 0,
    "address": "984 PLAZA DR, SUITE S",
    "city": "GRASS VALLEY",
    "zip": "95945",
    "county": "NEVADA",
    "phone": "(530) 891-1917",
    "lat": 39.233259,
    "lng": -121.03398
  },
  {
    "id": "230000776",
    "name": "WESTERN SIERRA MEDICAL CLINIC",
    "npi": "1316169618",
    "hcaiId": "306294027",
    "businessName": "WESTERN SIERRA MEDICAL CLINIC, INC.",
    "contactEmail": "FRANCINE@WSMCMED.ORG",
    "categoryName": "PRIMARY CARE CLINIC",
    "categoryCode": "COMTYC",
    "licenseStatus": "ACTIVE",
    "inService": true,
    "licenseNumber": "230000339",
    "licenseEffectiveDate": "06/02/2025",
    "licenseExpirationDate": "06/01/2026",
    "dataDate": "10/18/2025",
    "capacity": 0,
    "address": "844 OLD TUNNEL ROAD",
    "city": "GRASS VALLEY",
    "zip": "95945",
    "county": "NEVADA",
    "phone": "(530) 273-4984",
    "lat": 39.236184,
    "lng": -121.031199
  },
  {
    "id": "630018854",
    "name": "WESTERN SIERRA MEDICAL CLINIC",
    "npi": null,
    "hcaiId": null,
    "businessName": "WESTERN SIERRA MEDICAL CLINIC, INC.",
    "contactEmail": null,
    "categoryName": "PRIMARY CARE CLINIC",
    "categoryCode": "COMTYC",
    "licenseStatus": "ACTIVE",
    "inService": true,
    "licenseNumber": "230000145",
    "licenseEffectiveDate": "04/15/2025",
    "licenseExpirationDate": "04/14/2026",
    "dataDate": "10/18/2025",
    "capacity": 0,
    "address": "400 SIERRA COLLEGE DR, SUITE A",
    "city": "GRASS VALLEY",
    "zip": "95945",
    "county": "NEVADA",
    "phone": null,
    "lat": 39.235959,
    "lng": -121.0571685
  },
  {
    "id": "630022293",
    "name": "WESTERN SIERRA MEDICAL CLINIC",
    "npi": null,
    "hcaiId": null,
    "businessName": "WESTERN SIERRA MEDICAL CLINIC, INC.",
    "contactEmail": null,
    "categoryName": "PRIMARY CARE CLINIC",
    "categoryCode": "COMTYC",
    "licenseStatus": "ACTIVE",
    "inService": true,
    "licenseNumber": "230000145",
    "licenseEffectiveDate": "04/15/2025",
    "licenseExpirationDate": "04/14/2026",
    "dataDate": "10/18/2025",
    "capacity": 0,
    "address": "150 GLASSON WAY",
    "city": "GRASS VALLEY",
    "zip": "95945",
    "county": "NEVADA",
    "phone": null,
    "lat": 39.228831,
    "lng": -121.046841
  },
  {
    "id": "630022328",
    "name": "WESTERN SIERRA MEDICAL CLINIC",
    "npi": null,
    "hcaiId": null,
    "businessName": "WESTERN SIERRA MEDICAL CLINIC, INC.",
    "contactEmail": null,
    "categoryName": "PRIMARY CARE CLINIC",
    "categoryCode": "COMTYC",
    "licenseStatus": "ACTIVE",
    "inService": true,
    "licenseNumber": "230000145",
    "licenseEffectiveDate": "04/15/2025",
    "licenseExpirationDate": "04/14/2026",
    "dataDate": "10/18/2025",
    "capacity": 0,
    "address": "1262 SUTTON WAY",
    "city": "GRASS VALLEY",
    "zip": "95945",
    "county": "NEVADA",
    "phone": null,
    "lat": 39.239766,
    "lng": -121.0332195
  },
  {
    "id": "630022365",
    "name": "WESTERN SIERRA MEDICAL CLINIC",
    "npi": null,
    "hcaiId": null,
    "businessName": "WESTERN SIERRA MEDICAL CLINIC, INC.",
    "contactEmail": null,
    "categoryName": "PRIMARY CARE CLINIC",
    "categoryCode": "COMTYC",
    "licenseStatus": "ACTIVE",
    "inService": true,
    "licenseNumber": "230000145",
    "licenseEffectiveDate": "04/15/2025",
    "licenseExpirationDate": "04/14/2026",
    "dataDate": "10/18/2025",
    "capacity": 0,
    "address": "150 GLASSON WAY",
    "city": "GRASS VALLEY",
    "zip": "95945",
    "county": "NEVADA",
    "phone": "(530) 274-9762",
    "lat": 39.228831,
    "lng": -121.046841
  },
  {
    "id": "230000277",
    "name": "WOLF CREEK CARE CENTER",
    "npi": "1225336423",
    "hcaiId": "206292214",
    "businessName": "BLUEBELL HOLDINGS, LLC",
    "contactEmail": "KEITH.GILBERT@WOLFCREEKCC.COM",
    "categoryName": "SKILLED NURSING FACILITY",
    "categoryCode": "SNF",
    "licenseStatus": "ACTIVE",
    "inService": true,
    "licenseNumber": "230000134",
    "licenseEffectiveDate": "06/07/2025",
    "licenseExpirationDate": "06/06/2026",
    "dataDate": "10/18/2025",
    "capacity": 59,
    "address": "107 CATHERINE LN",
    "city": "GRASS VALLEY",
    "zip": "95945",
    "county": "NEVADA",
    "phone": "(530) 273-4447",
    "lat": 39.229902,
    "lng": -121.0479615
  }
]