[
  {
    "id": "630027102",
    "name": "SIERRA FAMILY MEDICAL CLINIC, INC, DBA SIERRA FAMILY HEALTH CENTER",
    "npi": null,
    "hcaiId": null,
    "businessName": "WESTERN SIERRA MEDICAL CLINIC, INC.",
    "contactEmail": null,
    "categoryName": "PRIMARY CARE CLINIC",
    "categoryCode": "COMTYC",
    "licenseStatus": "ACTIVE",
    "inService": true,
    "licenseNumber": "230000288",
    "licenseEffectiveDate": "08/19/2025",
    "licenseExpirationDate": "03/25/2026",
    "dataDate": "10/18/2025",
    "capacity": 0,
    "address": "103 PROVIDENCE MINE RD, SUITE 101",
    "city": "NEVADA CITY",
    "zip": "95959",
    "county": "NEVADA",
    "phone": null,
    "lat": 39.24948513,
    "lng": -121.0279776
  },
  {
    "id": "630026889",
    "name": "SIERRA FAMILY MEDICAL CLINIC, INC.",
    "npi": null,
    "hcaiId": null,
    "businessName": "WESTERN SIERRA MEDICAL CLINIC, INC.",
    "contactEmail": null,
    "categoryName": "PRIMARY CARE CLINIC",
    "categoryCode": "COMTYC",
    "licenseStatus": "ACTIVE",
    "inService": true,
    "licenseNumber": "230000288",
    "licenseEffectiveDate": "08/19/2025",
    "licenseExpirationDate": "03/25/2026",
    "dataDate": "10/18/2025",
    "capacity": 0,
    "address": "590 SEARLS AVE",
    "city": "NEVADA CITY",
    "zip": "95959",
    "county": "NEVADA",
    "phone": null,
    "lat": 39.25179,
    "lng": -121.024701
  },
  {
    "id": "230000672",
    "name": "WESTERN SIERRA MEDICAL CLINIC",
    "npi": "1316169618",
    "hcaiId": "306294009",
    "businessName": "WESTERN SIERRA MEDICAL CLINIC, INC.",
    "contactEmail": "JLAWSON@SIERRACLINIC.ORG",
    "categoryName": "PRIMARY CARE CLINIC",
    "categoryCode": "FQHC/COMTYC",
    "licenseStatus": "ACTIVE",
    "inService": true,
    "licenseNumber": "230000288",
    "licenseEffectiveDate": "08/19/2025",
    "licenseExpirationDate": "03/25/2026",
    "dataDate": "10/18/2025",
    "capacity": 0,
    "address": "15301 TYLER FOOTE RD",
    "city": "NEVADA CITY",
    "zip": "95959",
    "county": "NEVADA",
    "phone": "(530) 292-3478",
    "lat": 39.36591,
    "lng": -121.035159
  }
]