[
  {
    "id": "230000833",
    "name": "ADVENTIST HEALTH CLEARLAKE",
    "npi": "1912092792",
    "hcaiId": null,
    "businessName": "ADVENTIST HEALTH CLEARLAKE HOSPITAL, INC.",
    "contactEmail": null,
    "categoryName": "PRIMARY CARE CLINIC",
    "categoryCode": "RHC/OP",
    "licenseStatus": "ACTIVE",
    "inService": true,
    "licenseNumber": "110000174",
    "licenseEffectiveDate": "11/01/2025",
    "licenseExpirationDate": "10/31/2026",
    "dataDate": "10/18/2025",
    "capacity": 0,
    "address": "5125 SKYWAY",
    "city": "PARADISE",
    "zip": "95969",
    "county": "BUTTE",
    "phone": "(530) 872-2000",
    "lat": 39.746475,
    "lng": -121.639311
  },
  {
    "id": "630016234",
    "name": "CARENET PREGNANCY CENTER OF PARADISE",
    "npi": null,
    "hcaiId": "306044177",
    "businessName": "CARENET PREGNANCY CENTER OF PARADISE, INC.",
    "contactEmail": "ASHLEY@CARENETPARADISE.ORG",
    "categoryName": "PRIMARY CARE CLINIC",
    "categoryCode": "COMTYC",
    "licenseStatus": "ACTIVE",
    "inService": true,
    "licenseNumber": "550003759",
    "licenseEffectiveDate": "02/24/2025",
    "licenseExpirationDate": "02/23/2026",
    "dataDate": "10/18/2025",
    "capacity": 0,
    "address": "6585 CLARK ROAD, SUITE 320",
    "city": "PARADISE",
    "zip": "95969",
    "county": "BUTTE",
    "phone": "(530) 876-1113",
    "lat": 39.776103,
    "lng": -121.5934875
  },
  {
    "id": "630017270",
    "name": "LIVE OAK MEDICAL CLINIC",
    "npi": null,
    "hcaiId": null,
    "businessName": null,
    "contactEmail": "KSIDHU@PICKPEACH.ORG",
    "categoryName": "PRIMARY CARE CLINIC",
    "categoryCode": "COMTYC",
    "licenseStatus": null,
    "inService": null,
    "licenseNumber": null,
    "licenseEffectiveDate": null,
    "licenseExpirationDate": null,
    "dataDate": "10/18/2025",
    "capacity": 0,
    "address": "6585 CLARK RD, SUITE 360",
    "city": "PARADISE",
    "zip": "95969",
    "county": "BUTTE",
    "phone": "(530) 741-6245",
    "lat": 39.776175,
    "lng": -121.593294
  },
  {
    "id": "230000557",
    "name": "THE ALPINE HOME II",
    "npi": "1487665550",
    "hcaiId": null,
    "businessName": null,
    "contactEmail": "TRACYILER@COMCAST.NET",
    "categoryName": "INTERMEDIATE CARE FACILITY-DD/H/N/CN/IID",
    "categoryCode": "ICFDDN",
    "licenseStatus": "ACTIVE",
    "inService": true,
    "licenseNumber": "230000243",
    "licenseEffectiveDate": "06/25/2025",
    "licenseExpirationDate": "06/11/2026",
    "dataDate": "10/18/2025",
    "capacity": 6,
    "address": "1269 KLING CT",
    "city": "PARADISE",
    "zip": "95969",
    "county": "BUTTE",
    "phone": "(530) 872-3352",
    "lat": 39.764358,
    "lng": -121.598658
  },
  {
    "id": "230000700",
    "name": "THE ALPINE HOME III",
    "npi": "1013927102",
    "hcaiId": null,
    "businessName": null,
    "contactEmail": "TRACYILER@COMCAST.NET",
    "categoryName": "INTERMEDIATE CARE FACILITY-DD/H/N/CN/IID",
    "categoryCode": "ICFDDN",
    "licenseStatus": "ACTIVE",
    "inService": true,
    "licenseNumber": "230000299",
    "licenseEffectiveDate": "06/25/2025",
    "licenseExpirationDate": "12/16/2025",
    "dataDate": "10/18/2025",
    "capacity": 6,
    "address": "5577 CARLI CT",
    "city": "PARADISE",
    "zip": "95969",
    "county": "BUTTE",
    "phone": "(530) 872-2296",
    "lat": 39.749499,
    "lng": -121.618746
  },
  {
    "id": "230000363",
    "name": "THE ELGIN HOME",
    "npi": "1780805879",
    "hcaiId": null,
    "businessName": null,
    "contactEmail": "NANCY.FRYE7@GMAIL.COM",
    "categoryName": "INTERMEDIATE CARE FACILITY-DD/H/N/CN/IID",
    "categoryCode": "ICFDDN",
    "licenseStatus": "ACTIVE",
    "inService": true,
    "licenseNumber": "230000172",
    "licenseEffectiveDate": "11/19/2024",
    "licenseExpirationDate": "11/18/2025",
    "dataDate": "10/18/2025",
    "capacity": 6,
    "address": "556 VALLEY VIEW DR",
    "city": "PARADISE",
    "zip": "95969",
    "county": "BUTTE",
    "phone": "(530) 876-9646",
    "lat": 39.764574,
    "lng": -121.6302975
  }
]