[
  {
    "id": "230000800",
    "name": "FAMILY PRACTICE ASSOCIATES",
    "npi": "1871697102",
    "hcaiId": null,
    "businessName": "OROVILLE HOSPITAL",
    "contactEmail": null,
    "categoryName": "PRIMARY CARE CLINIC",
    "categoryCode": "RHC/OP",
    "licenseStatus": "ACTIVE",
    "inService": true,
    "licenseNumber": "230000022",
    "licenseEffectiveDate": "01/01/2025",
    "licenseExpirationDate": "12/31/2025",
    "dataDate": "10/18/2025",
    "capacity": 0,
    "address": "1611 FEATHER RIVER BLVD, SUITE 10",
    "city": "OROVILLE",
    "zip": "95965",
    "county": "BUTTE",
    "phone": "(530) 538-5700",
    "lat": 39.505842,
    "lng": -121.569885
  },
  {
    "id": "630018286",
    "name": "FEATHER RIVER TRIBAL HEALTH WELLNESS CENTER",
    "npi": "1629130240",
    "hcaiId": "306040438",
    "businessName": "FEATHER RIVER TRIBAL HEALTH, INC.",
    "contactEmail": "ERIK.LYON@FRTH.ORG",
    "categoryName": "PRIMARY CARE CLINIC",
    "categoryCode": "COMTYC",
    "licenseStatus": "ACTIVE",
    "inService": true,
    "licenseNumber": "550004632",
    "licenseEffectiveDate": "04/19/2025",
    "licenseExpirationDate": "04/18/2026",
    "dataDate": "10/18/2025",
    "capacity": 0,
    "address": "2201 5TH AVE",
    "city": "OROVILLE",
    "zip": "95965",
    "county": "BUTTE",
    "phone": "(530) 534-5394",
    "lat": 39.50307596,
    "lng": -121.564732
  },
  {
    "id": "230000089",
    "name": "FEATHER RIVER TRIBAL HEALTH, INC.",
    "npi": null,
    "hcaiId": "306042284",
    "businessName": "FEATHER RIVER TRIBAL HEALTH, INC.",
    "contactEmail": "ERIK.LYON@FRTH.ORG",
    "categoryName": "PRIMARY CARE CLINIC",
    "categoryCode": "COMTYC",
    "licenseStatus": "ACTIVE",
    "inService": true,
    "licenseNumber": "230000003",
    "licenseEffectiveDate": "06/16/2025",
    "licenseExpirationDate": "06/08/2026",
    "dataDate": "10/18/2025",
    "capacity": 0,
    "address": "2145 5TH AVE",
    "city": "OROVILLE",
    "zip": "95965",
    "county": "BUTTE",
    "phone": "(530) 534-5394",
    "lat": 39.503637,
    "lng": -121.56345
  },
  {
    "id": "630028561",
    "name": "FEATHER RIVER TRIBAL HEALTH, INC.",
    "npi": null,
    "hcaiId": null,
    "businessName": "FEATHER RIVER TRIBAL HEALTH, INC.",
    "contactEmail": null,
    "categoryName": "PRIMARY CARE CLINIC",
    "categoryCode": "COMTYC",
    "licenseStatus": "ACTIVE",
    "inService": true,
    "licenseNumber": "230000003",
    "licenseEffectiveDate": "06/16/2025",
    "licenseExpirationDate": "06/08/2026",
    "dataDate": "10/18/2025",
    "capacity": 0,
    "address": "2145 5TH AVE",
    "city": "OROVILLE",
    "zip": "95965",
    "county": "BUTTE",
    "phone": null,
    "lat": 39.503565,
    "lng": -121.562856
  },
  {
    "id": "230000788",
    "name": "PREMIER HEALTH CENTER",
    "npi": "1780788018",
    "hcaiId": null,
    "businessName": "OROVILLE HOSPITAL",
    "contactEmail": null,
    "categoryName": "PRIMARY CARE CLINIC",
    "categoryCode": "RHC/OP",
    "licenseStatus": "ACTIVE",
    "inService": true,
    "licenseNumber": "230000022",
    "licenseEffectiveDate": "01/01/2025",
    "licenseExpirationDate": "12/31/2025",
    "dataDate": "10/18/2025",
    "capacity": 0,
    "address": "900 ORO DAM BLVD E",
    "city": "OROVILLE",
    "zip": "95965",
    "county": "BUTTE",
    "phone": "(530) 532-8824",
    "lat": 39.50002,
    "lng": -121.5646342
  },
  {
    "id": "630028177",
    "name": "SERENITY HAVEN HOSPICE CARE INC",
    "npi": null,
    "hcaiId": null,
    "businessName": "SERENITY HAVEN HOSPICE CARE INC",
    "contactEmail": "CHRIS@SERENITYHAVENHOSPICECARE.COM",
    "categoryName": "HOSPICE",
    "categoryCode": "HOSPICE",
    "licenseStatus": "ACTIVE",
    "inService": true,
    "licenseNumber": "550009954",
    "licenseEffectiveDate": "09/17/2025",
    "licenseExpirationDate": "09/16/2027",
    "dataDate": "10/18/2025",
    "capacity": 0,
    "address": "1960 BIRD ST",
    "city": "OROVILLE",
    "zip": "95965",
    "county": "BUTTE",
    "phone": "(916) 903-3957",
    "lat": 39.51319899,
    "lng": -121.555597
  }
]